{"data": {"bikes": [{"is_disabled": 0, "rental_uris": {"android": "https://dc.lft.to/lastmile_qr_scan", "ios": "https://dc.lft.to/lastmile_qr_scan"}, "is_reserved": 0, "name": "51742890b4c60e7ee2064cde56192790", "lon": -76.948672, "type": "electric_bike", "bike_id": "51742890b4c60e7ee2064cde56192790", "fusion_lon": 0.0, "lat": 38.889680166666665, "fusion_lat": 0.0}, {"is_disabled": 0, "rental_uris": {"android": "https://dc.lft.to/lastmile_qr_scan", "ios": "https://dc.lft.to/lastmile_qr_scan"}, "is_reserved": 0, "name": "4314927e8f9fc3f01e8ee5a4db33dece", "lon": -76.963875, "type": "electric_bike", "bike_id": "4314927e8f9fc3f01e8ee5a4db33dece", "fusion_lon": 0.0, "lat": 38.975827, "fusion_lat": 0.0}, {"is_disabled": 0, "rental_uris": {"android": "https://dc.lft.to/lastmile_qr_scan", "ios": "https://dc.lft.to/lastmile_qr_scan"}, "is_reserved": 0, "name": "2d40cfd5862ffeb7a03c36b461a8adb2", "lon": -77.01669483333333, "type": "electric_scooter", "bike_id": "2d40cfd5862ffeb7a03c36b461a8adb2", "fusion_lon": 0.0, "lat": 38.92899516666667, "fusion_lat": 0.0}, {"is_disabled": 0, "rental_uris": {"android": "https://dc.lft.to/lastmile_qr_scan", "ios": "https://dc.lft.to/lastmile_qr_scan"}, "is_reserved": 0, "name": "43f9b682c89b0070c5f4fe43c7dfd844", "lon": -77.01308366666666, "type": "electric_scooter", "bike_id": "43f9b682c89b0070c5f4fe43c7dfd844", "fusion_lon": 0.0, "lat": 38.901351, "fusion_lat": 0.0}, {"is_disabled": 0, "rental_uris": {"android": "https://dc.lft.to/lastmile_qr_scan", "ios": "https://dc.lft.to/lastmile_qr_scan"}, "is_reserved": 0, "name": "2029c4040b0252e7c9c2bffd80ed416f", "lon": -76.87776333333333, "type": "electric_bike", "bike_id": "2029c4040b0252e7c9c2bffd80ed416f", "fusion_lon": 0.0, "lat": 38.99227066666667, "fusion_lat": 0.0}, {"is_disabled": 0, "rental_uris": {"android": "https://dc.lft.to/lastmile_qr_scan", "ios": "https://dc.lft.to/lastmile_qr_scan"}, "is_reserved": 0, "name": "3821d3b9b3570fee5a7c24c732f2f92c", "lon": -76.98286233333333, "type": "electric_scooter", "bike_id": "3821d3b9b3570fee5a7c24c732f2f92c", "fusion_lon": 0.0, "lat": 38.848254833333336, "fusion_lat": 0.0}, {"is_disabled": 0, "rental_uris": {"android": "https://dc.lft.to/lastmile_qr_scan", "ios": "https://dc.lft.to/lastmile_qr_scan"}, "is_reserved": 0, "name": "ef35c372bf1f4c68d652dc946a2764cb", "lon": -77.01472966666667, "type": "electric_scooter", "bike_id": "ef35c372bf1f4c68d652dc946a2764cb", "fusion_lon": 0.0, "lat": 38.87631583333334, "fusion_lat": 0.0}, {"is_disabled": 0, "rental_uris": {"android": "https://dc.lft.to/lastmile_qr_scan", "ios": "https://dc.lft.to/lastmile_qr_scan"}, "is_reserved": 0, "name": "502dc71525edd1735cacc899e371d0db", "lon": -77.0449965, "type": "electric_scooter", "bike_id": "502dc71525edd1735cacc899e371d0db", "fusion_lon": 0.0, "lat": 38.8961625, "fusion_lat": 0.0}, {"is_disabled": 0, "rental_uris": {"android": "https://dc.lft.to/lastmile_qr_scan", "ios": "https://dc.lft.to/lastmile_qr_scan"}, "is_reserved": 0, "name": "5ec276eb6fb4fb960d11b544d13c1a41", "lon": -77.10722883333334, "type": "electric_bike", "bike_id": "5ec276eb6fb4fb960d11b544d13c1a41", "fusion_lon": 0.0, "lat": 38.855504333333336, "fusion_lat": 0.0}, {"is_disabled": 0, "rental_uris": {"android": "https://dc.lft.to/lastmile_qr_scan", "ios": "https://dc.lft.to/lastmile_qr_scan"}, "is_reserved": 0, "name": "1ec9e3fcfa5e6c5bc8625cac9437dcff", "lon": -77.032614, "type": "electric_scooter", "bike_id": "1ec9e3fcfa5e6c5bc8625cac9437dcff", "fusion_lon": 0.0, "lat": 38.91931266666667, "fusion_lat": 0.0}, {"is_disabled": 0, "rental_uris": {"android": "https://dc.lft.to/lastmile_qr_scan", "ios": "https://dc.lft.to/lastmile_qr_scan"}, "is_reserved": 0, "name": "3cf15f69c7e1518048de61343d2df736", "lon": -77.022132, "type": "electric_scooter", "bike_id": "3cf15f69c7e1518048de61343d2df736", "fusion_lon": 0.0, "lat": 38.905436, "fusion_lat": 0.0}, {"is_disabled": 0, "rental_uris": {"android": "https://dc.lft.to/lastmile_qr_scan", "ios": "https://dc.lft.to/lastmile_qr_scan"}, "is_reserved": 0, "name": "0bd59fc51ae9990b966dc8095201476f", "lon": -77.02413933333334, "type": "electric_scooter", "bike_id": "0bd59fc51ae9990b966dc8095201476f", "fusion_lon": 0.0, "lat": 38.89257583333333, "fusion_lat": 0.0}, {"is_disabled": 0, "rental_uris": {"android": "https://dc.lft.to/lastmile_qr_scan", "ios": "https://dc.lft.to/lastmile_qr_scan"}, "is_reserved": 0, "name": "2adca411781c840a63187d59ec261c67", "lon": -77.03152966666667, "type": "electric_bike", "bike_id": "2adca411781c840a63187d59ec261c67", "fusion_lon": 0.0, "lat": 38.894587, "fusion_lat": 0.0}, {"is_disabled": 0, "rental_uris": {"android": "https://dc.lft.to/lastmile_qr_scan", "ios": "https://dc.lft.to/lastmile_qr_scan"}, "is_reserved": 0, "name": "72588abc334ec9cbd59fd68208cb025e", "lon": -76.9375495, "type": "electric_scooter", "bike_id": "72588abc334ec9cbd59fd68208cb025e", "fusion_lon": 0.0, "lat": 38.89048116666667, "fusion_lat": 0.0}, {"is_disabled": 0, "rental_uris": {"android": "https://dc.lft.to/lastmile_qr_scan", "ios": "https://dc.lft.to/lastmile_qr_scan"}, "is_reserved": 0, "name": "a8b6f147bc0bc353547d9f33c13f7e88", "lon": -77.029629, "type": "electric_scooter", "bike_id": "a8b6f147bc0bc353547d9f33c13f7e88", "fusion_lon": 0.0, "lat": 38.9246475, "fusion_lat": 0.0}, {"is_disabled": 0, "rental_uris": {"android": "https://dc.lft.to/lastmile_qr_scan", "ios": "https://dc.lft.to/lastmile_qr_scan"}, "is_reserved": 0, "name": "256d0f3977a65fabeed53162470a5485", "lon": -77.0489915, "type": "electric_bike", "bike_id": "256d0f3977a65fabeed53162470a5485", "fusion_lon": 0.0, "lat": 38.8749355, "fusion_lat": 0.0}, {"is_disabled": 0, "rental_uris": {"android": "https://dc.lft.to/lastmile_qr_scan", "ios": "https://dc.lft.to/lastmile_qr_scan"}, "is_reserved": 0, "name": "e2e5bebead40cecf521738af1fc7a2eb", "lon": -77.05503966666667, "type": "electric_scooter", "bike_id": "e2e5bebead40cecf521738af1fc7a2eb", "fusion_lon": 0.0, "lat": 38.929820166666666, "fusion_lat": 0.0}, {"is_disabled": 0, "rental_uris": {"android": "https://dc.lft.to/lastmile_qr_scan", "ios": "https://dc.lft.to/lastmile_qr_scan"}, "is_reserved": 0, "name": "1a0c441bbd475c392a53ed8d1bd3e71d", "lon": -77.021558, "type": "electric_scooter", "bike_id": "1a0c441bbd475c392a53ed8d1bd3e71d", "fusion_lon": 0.0, "lat": 38.926048, "fusion_lat": 0.0}, {"is_disabled": 0, "rental_uris": {"android": "https://dc.lft.to/lastmile_qr_scan", "ios": "https://dc.lft.to/lastmile_qr_scan"}, "is_reserved": 0, "name": "39afc127202be23c6c4ff4fc86e3674e", "lon": -77.0179645, "type": "electric_scooter", "bike_id": "39afc127202be23c6c4ff4fc86e3674e", "fusion_lon": 0.0, "lat": 38.94123166666667, "fusion_lat": 0.0}, {"is_disabled": 0, "rental_uris": {"android": "https://dc.lft.to/lastmile_qr_scan", "ios": "https://dc.lft.to/lastmile_qr_scan"}, "is_reserved": 0, "name": "3181c4e1be4d0a03be094e7e84b8025a", "lon": -77.03359433333334, "type": "electric_scooter", "bike_id": "3181c4e1be4d0a03be094e7e84b8025a", "fusion_lon": 0.0, "lat": 38.90217116666667, "fusion_lat": 0.0}, {"is_disabled": 0, "rental_uris": {"android": "https://dc.lft.to/lastmile_qr_scan", "ios": "https://dc.lft.to/lastmile_qr_scan"}, "is_reserved": 0, "name": "1698383ef01d50dd9c64fba4e13797fc", "lon": -77.03826583333333, "type": "electric_scooter", "bike_id": "1698383ef01d50dd9c64fba4e13797fc", "fusion_lon": 0.0, "lat": 38.9147985, "fusion_lat": 0.0}, {"is_disabled": 0, "rental_uris": {"android": "https://dc.lft.to/lastmile_qr_scan", "ios": "https://dc.lft.to/lastmile_qr_scan"}, "is_reserved": 0, "name": "74dbe6d97968ef59e3fdcd425e60632d", "lon": -77.0352245, "type": "electric_scooter", "bike_id": "74dbe6d97968ef59e3fdcd425e60632d", "fusion_lon": 0.0, "lat": 38.92161633333333, "fusion_lat": 0.0}, {"is_disabled": 0, "rental_uris": {"android": "https://dc.lft.to/lastmile_qr_scan", "ios": "https://dc.lft.to/lastmile_qr_scan"}, "is_reserved": 0, "name": "ecb88b38085f909a79878be0053a0608", "lon": -77.1002655, "type": "electric_bike", "bike_id": "ecb88b38085f909a79878be0053a0608", "fusion_lon": 0.0, "lat": 38.990657, "fusion_lat": 0.0}, {"is_disabled": 0, "rental_uris": {"android": "https://dc.lft.to/lastmile_qr_scan", "ios": "https://dc.lft.to/lastmile_qr_scan"}, "is_reserved": 0, "name": "e3fa861cf893b73ccebc29d5eef4418b", "lon": -77.0228855, "type": "electric_scooter", "bike_id": "e3fa861cf893b73ccebc29d5eef4418b", "fusion_lon": 0.0, "lat": 38.916973666666664, "fusion_lat": 0.0}, {"is_disabled": 0, "rental_uris": {"android": "https://dc.lft.to/lastmile_qr_scan", "ios": "https://dc.lft.to/lastmile_qr_scan"}, "is_reserved": 0, "name": "89e7b9d382d406f0b64f72a19e99e86f", "lon": -77.03634366666667, "type": "electric_scooter", "bike_id": "89e7b9d382d406f0b64f72a19e99e86f", "fusion_lon": 0.0, "lat": 38.91818116666666, "fusion_lat": 0.0}, {"is_disabled": 0, "rental_uris": {"android": "https://dc.lft.to/lastmile_qr_scan", "ios": "https://dc.lft.to/lastmile_qr_scan"}, "is_reserved": 0, "name": "0934137b01cfdf0d52eaa7a65e0c2d04", "lon": -77.02931316666667, "type": "electric_scooter", "bike_id": "0934137b01cfdf0d52eaa7a65e0c2d04", "fusion_lon": 0.0, "lat": 38.91420816666667, "fusion_lat": 0.0}, {"is_disabled": 0, "rental_uris": {"android": "https://dc.lft.to/lastmile_qr_scan", "ios": "https://dc.lft.to/lastmile_qr_scan"}, "is_reserved": 0, "name": "5cbe3b5617d9a0ad958e387f58358cef", "lon": -77.00197816666666, "type": "electric_scooter", "bike_id": "5cbe3b5617d9a0ad958e387f58358cef", "fusion_lon": 0.0, "lat": 38.886778666666665, "fusion_lat": 0.0}, {"is_disabled": 0, "rental_uris": {"android": "https://dc.lft.to/lastmile_qr_scan", "ios": "https://dc.lft.to/lastmile_qr_scan"}, "is_reserved": 0, "name": "4d2a44cce5957327b509f21ef6218bc2", "lon": -77.0251785, "type": "electric_scooter", "bike_id": "4d2a44cce5957327b509f21ef6218bc2", "fusion_lon": 0.0, "lat": 38.880478833333335, "fusion_lat": 0.0}, {"is_disabled": 0, "rental_uris": {"android": "https://dc.lft.to/lastmile_qr_scan", "ios": "https://dc.lft.to/lastmile_qr_scan"}, "is_reserved": 0, "name": "b7cd97ed152c2171ff37e23bf78a156e", "lon": -76.87495366666667, "type": "electric_bike", "bike_id": "b7cd97ed152c2171ff37e23bf78a156e", "fusion_lon": 0.0, "lat": 38.99089, "fusion_lat": 0.0}, {"is_disabled": 0, "rental_uris": {"android": "https://dc.lft.to/lastmile_qr_scan", "ios": "https://dc.lft.to/lastmile_qr_scan"}, "is_reserved": 0, "name": "3895b248f1a1dc1e452e9a86dedab859", "lon": -77.0140385, "type": "electric_scooter", "bike_id": "3895b248f1a1dc1e452e9a86dedab859", "fusion_lon": 0.0, "lat": 38.92861716666667, "fusion_lat": 0.0}, {"is_disabled": 0, "rental_uris": {"android": "https://dc.lft.to/lastmile_qr_scan", "ios": "https://dc.lft.to/lastmile_qr_scan"}, "is_reserved": 0, "name": "40edc79c30b535939410772a9891d20d", "lon": -77.042356, "type": "electric_scooter", "bike_id": "40edc79c30b535939410772a9891d20d", "fusion_lon": 0.0, "lat": 38.909751166666666, "fusion_lat": 0.0}, {"is_disabled": 0, "rental_uris": {"android": "https://dc.lft.to/lastmile_qr_scan", "ios": "https://dc.lft.to/lastmile_qr_scan"}, "is_reserved": 0, "name": "a443b0a77f7f35f74ea31ee8802d1f39", "lon": -77.008001, "type": "electric_scooter", "bike_id": "a443b0a77f7f35f74ea31ee8802d1f39", "fusion_lon": 0.0, "lat": 38.8971955, "fusion_lat": 0.0}, {"is_disabled": 0, "rental_uris": {"android": "https://dc.lft.to/lastmile_qr_scan", "ios": "https://dc.lft.to/lastmile_qr_scan"}, "is_reserved": 0, "name": "94c30b903c334bf23b1afa4b1f9061d8", "lon": -77.02796183333334, "type": "electric_scooter", "bike_id": "94c30b903c334bf23b1afa4b1f9061d8", "fusion_lon": 0.0, "lat": 38.962100666666664, "fusion_lat": 0.0}, {"is_disabled": 0, "rental_uris": {"android": "https://dc.lft.to/lastmile_qr_scan", "ios": "https://dc.lft.to/lastmile_qr_scan"}, "is_reserved": 0, "name": "7e26f6037958dee9bbbb508c4524d1c2", "lon": -77.03611716666667, "type": "electric_scooter", "bike_id": "7e26f6037958dee9bbbb508c4524d1c2", "fusion_lon": 0.0, "lat": 38.931514166666666, "fusion_lat": 0.0}, {"is_disabled": 0, "rental_uris": {"android": "https://dc.lft.to/lastmile_qr_scan", "ios": "https://dc.lft.to/lastmile_qr_scan"}, "is_reserved": 0, "name": "510756d5c8aea5b1852ea8c275ca7e8d", "lon": -77.02297116666666, "type": "electric_scooter", "bike_id": "510756d5c8aea5b1852ea8c275ca7e8d", "fusion_lon": 0.0, "lat": 38.926899666666664, "fusion_lat": 0.0}, {"is_disabled": 0, "rental_uris": {"android": "https://dc.lft.to/lastmile_qr_scan", "ios": "https://dc.lft.to/lastmile_qr_scan"}, "is_reserved": 0, "name": "a140049e587a9f7e49e33d7d298c3e0c", "lon": -77.0323965, "type": "electric_scooter", "bike_id": "a140049e587a9f7e49e33d7d298c3e0c", "fusion_lon": 0.0, "lat": 38.902546, "fusion_lat": 0.0}, {"is_disabled": 0, "rental_uris": {"android": "https://dc.lft.to/lastmile_qr_scan", "ios": "https://dc.lft.to/lastmile_qr_scan"}, "is_reserved": 0, "name": "e2c099da1ce2b2678cf7d8507797a25a", "lon": -77.032053, "type": "electric_scooter", "bike_id": "e2c099da1ce2b2678cf7d8507797a25a", "fusion_lon": 0.0, "lat": 38.911268666666665, "fusion_lat": 0.0}, {"is_disabled": 0, "rental_uris": {"android": "https://dc.lft.to/lastmile_qr_scan", "ios": "https://dc.lft.to/lastmile_qr_scan"}, "is_reserved": 0, "name": "9ad563f126dc4b0a924bbaf9b386c8d7", "lon": -76.97329683333334, "type": "electric_bike", "bike_id": "9ad563f126dc4b0a924bbaf9b386c8d7", "fusion_lon": 0.0, "lat": 38.850706833333334, "fusion_lat": 0.0}, {"is_disabled": 0, "rental_uris": {"android": "https://dc.lft.to/lastmile_qr_scan", "ios": "https://dc.lft.to/lastmile_qr_scan"}, "is_reserved": 0, "name": "9e364a78673c27a021521ec4c007d648", "lon": -77.04488683333334, "type": "electric_scooter", "bike_id": "9e364a78673c27a021521ec4c007d648", "fusion_lon": 0.0, "lat": 38.9137355, "fusion_lat": 0.0}, {"is_disabled": 0, "rental_uris": {"android": "https://dc.lft.to/lastmile_qr_scan", "ios": "https://dc.lft.to/lastmile_qr_scan"}, "is_reserved": 0, "name": "2dbae537ca7535f24223d46d3b945e87", "lon": -77.04015333333334, "type": "electric_scooter", "bike_id": "2dbae537ca7535f24223d46d3b945e87", "fusion_lon": 0.0, "lat": 38.921985166666666, "fusion_lat": 0.0}, {"is_disabled": 0, "rental_uris": {"android": "https://dc.lft.to/lastmile_qr_scan", "ios": "https://dc.lft.to/lastmile_qr_scan"}, "is_reserved": 0, "name": "f2058f400357bdade318d8bd694a7a07", "lon": -77.02483716666667, "type": "electric_scooter", "bike_id": "f2058f400357bdade318d8bd694a7a07", "fusion_lon": 0.0, "lat": 38.91611316666667, "fusion_lat": 0.0}, {"is_disabled": 0, "rental_uris": {"android": "https://dc.lft.to/lastmile_qr_scan", "ios": "https://dc.lft.to/lastmile_qr_scan"}, "is_reserved": 0, "name": "51f6f5135d1978f6e4fa387078a91777", "lon": -77.01388133333333, "type": "electric_scooter", "bike_id": "51f6f5135d1978f6e4fa387078a91777", "fusion_lon": 0.0, "lat": 38.928666, "fusion_lat": 0.0}, {"is_disabled": 0, "rental_uris": {"android": "https://dc.lft.to/lastmile_qr_scan", "ios": "https://dc.lft.to/lastmile_qr_scan"}, "is_reserved": 0, "name": "e09840b24328681a258337b0423fd025", "lon": -77.00085016666667, "type": "electric_scooter", "bike_id": "e09840b24328681a258337b0423fd025", "fusion_lon": 0.0, "lat": 38.9255185, "fusion_lat": 0.0}, {"is_disabled": 0, "rental_uris": {"android": "https://dc.lft.to/lastmile_qr_scan", "ios": "https://dc.lft.to/lastmile_qr_scan"}, "is_reserved": 0, "name": "949fea10bf1f8d87838babe5d7425589", "lon": -77.02398733333334, "type": "electric_scooter", "bike_id": "949fea10bf1f8d87838babe5d7425589", "fusion_lon": 0.0, "lat": 38.90708516666667, "fusion_lat": 0.0}, {"is_disabled": 0, "rental_uris": {"android": "https://dc.lft.to/lastmile_qr_scan", "ios": "https://dc.lft.to/lastmile_qr_scan"}, "is_reserved": 0, "name": "09c3ce6d7c9afbc60d432bdc31aea781", "lon": -77.05097116666667, "type": "electric_scooter", "bike_id": "09c3ce6d7c9afbc60d432bdc31aea781", "fusion_lon": 0.0, "lat": 38.9234195, "fusion_lat": 0.0}, {"is_disabled": 0, "rental_uris": {"android": "https://dc.lft.to/lastmile_qr_scan", "ios": "https://dc.lft.to/lastmile_qr_scan"}, "is_reserved": 0, "name": "91fc68bfa14515af6d8f2afd2c7b9451", "lon": -77.042363, "type": "electric_scooter", "bike_id": "91fc68bfa14515af6d8f2afd2c7b9451", "fusion_lon": 0.0, "lat": 38.922695833333336, "fusion_lat": 0.0}, {"is_disabled": 0, "rental_uris": {"android": "https://dc.lft.to/lastmile_qr_scan", "ios": "https://dc.lft.to/lastmile_qr_scan"}, "is_reserved": 0, "name": "9bc0aec7dee0e249389b548b73c2c278", "lon": -77.04171566666666, "type": "electric_scooter", "bike_id": "9bc0aec7dee0e249389b548b73c2c278", "fusion_lon": 0.0, "lat": 38.905364, "fusion_lat": 0.0}, {"is_disabled": 0, "rental_uris": {"android": "https://dc.lft.to/lastmile_qr_scan", "ios": "https://dc.lft.to/lastmile_qr_scan"}, "is_reserved": 0, "name": "1752ac20ccbc07e1bf0a495b81938b3c", "lon": -77.04428166666666, "type": "electric_scooter", "bike_id": "1752ac20ccbc07e1bf0a495b81938b3c", "fusion_lon": 0.0, "lat": 38.909484166666665, "fusion_lat": 0.0}, {"is_disabled": 0, "rental_uris": {"android": "https://dc.lft.to/lastmile_qr_scan", "ios": "https://dc.lft.to/lastmile_qr_scan"}, "is_reserved": 0, "name": "616f2363fc4e4efc9650cc198e5bdf9f", "lon": -77.03345016666667, "type": "electric_scooter", "bike_id": "616f2363fc4e4efc9650cc198e5bdf9f", "fusion_lon": 0.0, "lat": 38.89223116666667, "fusion_lat": 0.0}, {"is_disabled": 0, "rental_uris": {"android": "https://dc.lft.to/lastmile_qr_scan", "ios": "https://dc.lft.to/lastmile_qr_scan"}, "is_reserved": 0, "name": "4245d86ea11ecc3f7321150284dc951a", "lon": -76.9940985, "type": "electric_scooter", "bike_id": "4245d86ea11ecc3f7321150284dc951a", "fusion_lon": 0.0, "lat": 38.87791433333334, "fusion_lat": 0.0}, {"is_disabled": 0, "rental_uris": {"android": "https://dc.lft.to/lastmile_qr_scan", "ios": "https://dc.lft.to/lastmile_qr_scan"}, "is_reserved": 0, "name": "93cfddb7b0d6dcbdb7f4b0e000ceb4f3", "lon": -77.02719866666666, "type": "electric_scooter", "bike_id": "93cfddb7b0d6dcbdb7f4b0e000ceb4f3", "fusion_lon": 0.0, "lat": 38.9085905, "fusion_lat": 0.0}, {"is_disabled": 0, "rental_uris": {"android": "https://dc.lft.to/lastmile_qr_scan", "ios": "https://dc.lft.to/lastmile_qr_scan"}, "is_reserved": 0, "name": "5be7eea085c7a90336e55248656c8e2b", "lon": -76.9653085, "type": "electric_scooter", "bike_id": "5be7eea085c7a90336e55248656c8e2b", "fusion_lon": 0.0, "lat": 38.876324833333335, "fusion_lat": 0.0}, {"is_disabled": 0, "rental_uris": {"android": "https://dc.lft.to/lastmile_qr_scan", "ios": "https://dc.lft.to/lastmile_qr_scan"}, "is_reserved": 0, "name": "a3c4a7b12e11d3c16e788dfff19d75c8", "lon": -77.08528466666667, "type": "electric_bike", "bike_id": "a3c4a7b12e11d3c16e788dfff19d75c8", "fusion_lon": 0.0, "lat": 38.85652266666666, "fusion_lat": 0.0}, {"is_disabled": 0, "rental_uris": {"android": "https://dc.lft.to/lastmile_qr_scan", "ios": "https://dc.lft.to/lastmile_qr_scan"}, "is_reserved": 0, "name": "c48a760dd55c3ee6c4cd0f7fc7b8bbd4", "lon": -77.00990333333333, "type": "electric_scooter", "bike_id": "c48a760dd55c3ee6c4cd0f7fc7b8bbd4", "fusion_lon": 0.0, "lat": 38.89753233333333, "fusion_lat": 0.0}, {"is_disabled": 0, "rental_uris": {"android": "https://dc.lft.to/lastmile_qr_scan", "ios": "https://dc.lft.to/lastmile_qr_scan"}, "is_reserved": 0, "name": "d71fa052e888b6621f2d41a8069ca6c5", "lon": -76.933532, "type": "electric_scooter", "bike_id": "d71fa052e888b6621f2d41a8069ca6c5", "fusion_lon": 0.0, "lat": 38.89907816666667, "fusion_lat": 0.0}, {"is_disabled": 0, "rental_uris": {"android": "https://dc.lft.to/lastmile_qr_scan", "ios": "https://dc.lft.to/lastmile_qr_scan"}, "is_reserved": 0, "name": "715f90cbc132e4a139970fa1b16e83ee", "lon": -77.0108505, "type": "electric_scooter", "bike_id": "715f90cbc132e4a139970fa1b16e83ee", "fusion_lon": 0.0, "lat": 38.90365033333333, "fusion_lat": 0.0}, {"is_disabled": 0, "rental_uris": {"android": "https://dc.lft.to/lastmile_qr_scan", "ios": "https://dc.lft.to/lastmile_qr_scan"}, "is_reserved": 0, "name": "ab3880264a496f5f6040012ec861ae6c", "lon": -77.03856, "type": "electric_scooter", "bike_id": "ab3880264a496f5f6040012ec861ae6c", "fusion_lon": 0.0, "lat": 38.91201, "fusion_lat": 0.0}, {"is_disabled": 0, "rental_uris": {"android": "https://dc.lft.to/lastmile_qr_scan", "ios": "https://dc.lft.to/lastmile_qr_scan"}, "is_reserved": 0, "name": "5ed5bc6a86c637443d0bf58343b35fc0", "lon": -77.0315375, "type": "electric_scooter", "bike_id": "5ed5bc6a86c637443d0bf58343b35fc0", "fusion_lon": 0.0, "lat": 38.887551333333334, "fusion_lat": 0.0}, {"is_disabled": 0, "rental_uris": {"android": "https://dc.lft.to/lastmile_qr_scan", "ios": "https://dc.lft.to/lastmile_qr_scan"}, "is_reserved": 0, "name": "d5c1fabcb91ca9d7ae457eb0a5657c1f", "lon": -77.02426483333333, "type": "electric_scooter", "bike_id": "d5c1fabcb91ca9d7ae457eb0a5657c1f", "fusion_lon": 0.0, "lat": 38.912569500000004, "fusion_lat": 0.0}, {"is_disabled": 0, "rental_uris": {"android": "https://dc.lft.to/lastmile_qr_scan", "ios": "https://dc.lft.to/lastmile_qr_scan"}, "is_reserved": 0, "name": "3c1a6f838ef789919d55751ebde37028", "lon": -77.0266275, "type": "electric_scooter", "bike_id": "3c1a6f838ef789919d55751ebde37028", "fusion_lon": 0.0, "lat": 38.921874833333334, "fusion_lat": 0.0}, {"is_disabled": 0, "rental_uris": {"android": "https://dc.lft.to/lastmile_qr_scan", "ios": "https://dc.lft.to/lastmile_qr_scan"}, "is_reserved": 0, "name": "5a648ba5ebaf4f5dfaa01f168c5b24e8", "lon": -77.04621733333333, "type": "electric_scooter", "bike_id": "5a648ba5ebaf4f5dfaa01f168c5b24e8", "fusion_lon": 0.0, "lat": 38.923187, "fusion_lat": 0.0}, {"is_disabled": 0, "rental_uris": {"android": "https://dc.lft.to/lastmile_qr_scan", "ios": "https://dc.lft.to/lastmile_qr_scan"}, "is_reserved": 0, "name": "351d26af1698f8affe1a5d947d230447", "lon": -77.02961, "type": "electric_scooter", "bike_id": "351d26af1698f8affe1a5d947d230447", "fusion_lon": 0.0, "lat": 38.9214895, "fusion_lat": 0.0}, {"is_disabled": 0, "rental_uris": {"android": "https://dc.lft.to/lastmile_qr_scan", "ios": "https://dc.lft.to/lastmile_qr_scan"}, "is_reserved": 0, "name": "b1ab08793f656ef694915a4dbdf6268a", "lon": -77.0438135, "type": "electric_scooter", "bike_id": "b1ab08793f656ef694915a4dbdf6268a", "fusion_lon": 0.0, "lat": 38.9010325, "fusion_lat": 0.0}, {"is_disabled": 0, "rental_uris": {"android": "https://dc.lft.to/lastmile_qr_scan", "ios": "https://dc.lft.to/lastmile_qr_scan"}, "is_reserved": 0, "name": "2e9687ed94aeca19540a1d5219afa77f", "lon": -77.02495366666666, "type": "electric_scooter", "bike_id": "2e9687ed94aeca19540a1d5219afa77f", "fusion_lon": 0.0, "lat": 38.9181115, "fusion_lat": 0.0}, {"is_disabled": 0, "rental_uris": {"android": "https://dc.lft.to/lastmile_qr_scan", "ios": "https://dc.lft.to/lastmile_qr_scan"}, "is_reserved": 0, "name": "c04f7841b0c24618fca7e42a3f544b07", "lon": -76.96530666666666, "type": "electric_bike", "bike_id": "c04f7841b0c24618fca7e42a3f544b07", "fusion_lon": 0.0, "lat": 38.918779666666666, "fusion_lat": 0.0}, {"is_disabled": 0, "rental_uris": {"android": "https://dc.lft.to/lastmile_qr_scan", "ios": "https://dc.lft.to/lastmile_qr_scan"}, "is_reserved": 0, "name": "3cb7174d2596cf3976ec71866be4fec8", "lon": -77.03804766666667, "type": "electric_scooter", "bike_id": "3cb7174d2596cf3976ec71866be4fec8", "fusion_lon": 0.0, "lat": 38.932268, "fusion_lat": 0.0}, {"is_disabled": 0, "rental_uris": {"android": "https://dc.lft.to/lastmile_qr_scan", "ios": "https://dc.lft.to/lastmile_qr_scan"}, "is_reserved": 0, "name": "50c3654fde732e1e8154a507a4d523c5", "lon": -77.03848966666666, "type": "electric_scooter", "bike_id": "50c3654fde732e1e8154a507a4d523c5", "fusion_lon": 0.0, "lat": 38.90399033333333, "fusion_lat": 0.0}, {"is_disabled": 0, "rental_uris": {"android": "https://dc.lft.to/lastmile_qr_scan", "ios": "https://dc.lft.to/lastmile_qr_scan"}, "is_reserved": 0, "name": "f846c70abe35c203196d0d611888b0eb", "lon": -76.9859015, "type": "electric_scooter", "bike_id": "f846c70abe35c203196d0d611888b0eb", "fusion_lon": 0.0, "lat": 38.860591, "fusion_lat": 0.0}, {"is_disabled": 0, "rental_uris": {"android": "https://dc.lft.to/lastmile_qr_scan", "ios": "https://dc.lft.to/lastmile_qr_scan"}, "is_reserved": 0, "name": "cd92f39dfedecdd1f3c9c00f98522420", "lon": -77.04206133333334, "type": "electric_scooter", "bike_id": "cd92f39dfedecdd1f3c9c00f98522420", "fusion_lon": 0.0, "lat": 38.91705966666667, "fusion_lat": 0.0}, {"is_disabled": 0, "rental_uris": {"android": "https://dc.lft.to/lastmile_qr_scan", "ios": "https://dc.lft.to/lastmile_qr_scan"}, "is_reserved": 0, "name": "e50d4682ac4006487ac8a537650aed8f", "lon": -77.03205133333333, "type": "electric_scooter", "bike_id": "e50d4682ac4006487ac8a537650aed8f", "fusion_lon": 0.0, "lat": 38.90789916666667, "fusion_lat": 0.0}, {"is_disabled": 0, "rental_uris": {"android": "https://dc.lft.to/lastmile_qr_scan", "ios": "https://dc.lft.to/lastmile_qr_scan"}, "is_reserved": 0, "name": "12d87de8877af6de30739dbef889584d", "lon": -77.03310966666666, "type": "electric_scooter", "bike_id": "12d87de8877af6de30739dbef889584d", "fusion_lon": 0.0, "lat": 38.956175333333334, "fusion_lat": 0.0}, {"is_disabled": 0, "rental_uris": {"android": "https://dc.lft.to/lastmile_qr_scan", "ios": "https://dc.lft.to/lastmile_qr_scan"}, "is_reserved": 0, "name": "910e0ddd22c173b2c75adfddf62a43ba", "lon": -77.022888, "type": "electric_scooter", "bike_id": "910e0ddd22c173b2c75adfddf62a43ba", "fusion_lon": 0.0, "lat": 38.910802333333336, "fusion_lat": 0.0}, {"is_disabled": 0, "rental_uris": {"android": "https://dc.lft.to/lastmile_qr_scan", "ios": "https://dc.lft.to/lastmile_qr_scan"}, "is_reserved": 0, "name": "62725f01eba21bbf22a925dda61ddb2a", "lon": -77.02314883333334, "type": "electric_scooter", "bike_id": "62725f01eba21bbf22a925dda61ddb2a", "fusion_lon": 0.0, "lat": 38.878818333333335, "fusion_lat": 0.0}, {"is_disabled": 0, "rental_uris": {"android": "https://dc.lft.to/lastmile_qr_scan", "ios": "https://dc.lft.to/lastmile_qr_scan"}, "is_reserved": 0, "name": "ca3054c0dfee673a5bc9650cb751fc6e", "lon": -77.013826, "type": "electric_scooter", "bike_id": "ca3054c0dfee673a5bc9650cb751fc6e", "fusion_lon": 0.0, "lat": 38.91011066666667, "fusion_lat": 0.0}, {"is_disabled": 0, "rental_uris": {"android": "https://dc.lft.to/lastmile_qr_scan", "ios": "https://dc.lft.to/lastmile_qr_scan"}, "is_reserved": 0, "name": "4b9641e706bdac100d9644727db63188", "lon": -77.0008715, "type": "electric_scooter", "bike_id": "4b9641e706bdac100d9644727db63188", "fusion_lon": 0.0, "lat": 38.89403983333333, "fusion_lat": 0.0}, {"is_disabled": 0, "rental_uris": {"android": "https://dc.lft.to/lastmile_qr_scan", "ios": "https://dc.lft.to/lastmile_qr_scan"}, "is_reserved": 0, "name": "f549454bfaf65479c40e08067a7645b1", "lon": -77.07254016666667, "type": "electric_scooter", "bike_id": "f549454bfaf65479c40e08067a7645b1", "fusion_lon": 0.0, "lat": 38.9078945, "fusion_lat": 0.0}, {"is_disabled": 0, "rental_uris": {"android": "https://dc.lft.to/lastmile_qr_scan", "ios": "https://dc.lft.to/lastmile_qr_scan"}, "is_reserved": 0, "name": "440b6f6693e9b70611f90197792be296", "lon": -77.02157483333333, "type": "electric_scooter", "bike_id": "440b6f6693e9b70611f90197792be296", "fusion_lon": 0.0, "lat": 38.92604516666667, "fusion_lat": 0.0}, {"is_disabled": 0, "rental_uris": {"android": "https://dc.lft.to/lastmile_qr_scan", "ios": "https://dc.lft.to/lastmile_qr_scan"}, "is_reserved": 0, "name": "2f9128c1dc25dce5d6159798bfdfe314", "lon": -77.03364116666667, "type": "electric_scooter", "bike_id": "2f9128c1dc25dce5d6159798bfdfe314", "fusion_lon": 0.0, "lat": 38.91716866666667, "fusion_lat": 0.0}, {"is_disabled": 0, "rental_uris": {"android": "https://dc.lft.to/lastmile_qr_scan", "ios": "https://dc.lft.to/lastmile_qr_scan"}, "is_reserved": 0, "name": "556ba67aa6734ce808361e937f88dec1", "lon": -77.00513233333334, "type": "electric_scooter", "bike_id": "556ba67aa6734ce808361e937f88dec1", "fusion_lon": 0.0, "lat": 38.848839, "fusion_lat": 0.0}, {"is_disabled": 0, "rental_uris": {"android": "https://dc.lft.to/lastmile_qr_scan", "ios": "https://dc.lft.to/lastmile_qr_scan"}, "is_reserved": 0, "name": "193027d39b52edc5c0092e10fdb197d9", "lon": -77.03937, "type": "electric_scooter", "bike_id": "193027d39b52edc5c0092e10fdb197d9", "fusion_lon": 0.0, "lat": 38.898623, "fusion_lat": 0.0}, {"is_disabled": 0, "rental_uris": {"android": "https://dc.lft.to/lastmile_qr_scan", "ios": "https://dc.lft.to/lastmile_qr_scan"}, "is_reserved": 0, "name": "8648102155efe77b41a9d96d57ba60da", "lon": -77.02812933333334, "type": "electric_scooter", "bike_id": "8648102155efe77b41a9d96d57ba60da", "fusion_lon": 0.0, "lat": 38.930847, "fusion_lat": 0.0}, {"is_disabled": 0, "rental_uris": {"android": "https://dc.lft.to/lastmile_qr_scan", "ios": "https://dc.lft.to/lastmile_qr_scan"}, "is_reserved": 0, "name": "c43b5fad8136b352677bd60e52b09c4f", "lon": -77.059892, "type": "electric_scooter", "bike_id": "c43b5fad8136b352677bd60e52b09c4f", "fusion_lon": 0.0, "lat": 38.91196816666667, "fusion_lat": 0.0}, {"is_disabled": 0, "rental_uris": {"android": "https://dc.lft.to/lastmile_qr_scan", "ios": "https://dc.lft.to/lastmile_qr_scan"}, "is_reserved": 0, "name": "df6c072fe2e892948475f8b90f778112", "lon": -76.99960116666666, "type": "electric_scooter", "bike_id": "df6c072fe2e892948475f8b90f778112", "fusion_lon": 0.0, "lat": 38.90112666666667, "fusion_lat": 0.0}, {"is_disabled": 0, "rental_uris": {"android": "https://dc.lft.to/lastmile_qr_scan", "ios": "https://dc.lft.to/lastmile_qr_scan"}, "is_reserved": 0, "name": "8924128e3596d85ce6ab4b495c497d07", "lon": -77.05427416666667, "type": "electric_scooter", "bike_id": "8924128e3596d85ce6ab4b495c497d07", "fusion_lon": 0.0, "lat": 38.93192583333333, "fusion_lat": 0.0}, {"is_disabled": 0, "rental_uris": {"android": "https://dc.lft.to/lastmile_qr_scan", "ios": "https://dc.lft.to/lastmile_qr_scan"}, "is_reserved": 0, "name": "34ef7ed30283b53b7fa3318e54805538", "lon": -77.07275966666667, "type": "electric_scooter", "bike_id": "34ef7ed30283b53b7fa3318e54805538", "fusion_lon": 0.0, "lat": 38.9347215, "fusion_lat": 0.0}, {"is_disabled": 0, "rental_uris": {"android": "https://dc.lft.to/lastmile_qr_scan", "ios": "https://dc.lft.to/lastmile_qr_scan"}, "is_reserved": 0, "name": "8ac96a9438ee3211b1db00f1ca7b4d09", "lon": -77.02162916666667, "type": "electric_scooter", "bike_id": "8ac96a9438ee3211b1db00f1ca7b4d09", "fusion_lon": 0.0, "lat": 38.88632716666667, "fusion_lat": 0.0}, {"is_disabled": 0, "rental_uris": {"android": "https://dc.lft.to/lastmile_qr_scan", "ios": "https://dc.lft.to/lastmile_qr_scan"}, "is_reserved": 0, "name": "cf09b60595933ca44507be0e8c573f2f", "lon": -77.04892166666667, "type": "electric_scooter", "bike_id": "cf09b60595933ca44507be0e8c573f2f", "fusion_lon": 0.0, "lat": 38.898148, "fusion_lat": 0.0}, {"is_disabled": 0, "rental_uris": {"android": "https://dc.lft.to/lastmile_qr_scan", "ios": "https://dc.lft.to/lastmile_qr_scan"}, "is_reserved": 0, "name": "dd10881a253a82afc535a2c9599b3219", "lon": -76.993864, "type": "electric_scooter", "bike_id": "dd10881a253a82afc535a2c9599b3219", "fusion_lon": 0.0, "lat": 38.91013183333333, "fusion_lat": 0.0}, {"is_disabled": 0, "rental_uris": {"android": "https://dc.lft.to/lastmile_qr_scan", "ios": "https://dc.lft.to/lastmile_qr_scan"}, "is_reserved": 0, "name": "6643666bbe749e42229787b954d438df", "lon": -77.0059525, "type": "electric_scooter", "bike_id": "6643666bbe749e42229787b954d438df", "fusion_lon": 0.0, "lat": 38.905695, "fusion_lat": 0.0}, {"is_disabled": 0, "rental_uris": {"android": "https://dc.lft.to/lastmile_qr_scan", "ios": "https://dc.lft.to/lastmile_qr_scan"}, "is_reserved": 0, "name": "3631ceecd36dad5ae5a44ec63dcbec6b", "lon": -77.04884683333333, "type": "electric_scooter", "bike_id": "3631ceecd36dad5ae5a44ec63dcbec6b", "fusion_lon": 0.0, "lat": 38.908337, "fusion_lat": 0.0}, {"is_disabled": 0, "rental_uris": {"android": "https://dc.lft.to/lastmile_qr_scan", "ios": "https://dc.lft.to/lastmile_qr_scan"}, "is_reserved": 0, "name": "3e50b13b11b0bd85b05041465b7af50b", "lon": -77.03948116666666, "type": "electric_scooter", "bike_id": "3e50b13b11b0bd85b05041465b7af50b", "fusion_lon": 0.0, "lat": 38.8990305, "fusion_lat": 0.0}, {"is_disabled": 0, "rental_uris": {"android": "https://dc.lft.to/lastmile_qr_scan", "ios": "https://dc.lft.to/lastmile_qr_scan"}, "is_reserved": 0, "name": "0691f3fb5a172d86aaf6890a5688930d", "lon": -77.00499166666667, "type": "electric_scooter", "bike_id": "0691f3fb5a172d86aaf6890a5688930d", "fusion_lon": 0.0, "lat": 38.89688983333333, "fusion_lat": 0.0}, {"is_disabled": 0, "rental_uris": {"android": "https://dc.lft.to/lastmile_qr_scan", "ios": "https://dc.lft.to/lastmile_qr_scan"}, "is_reserved": 0, "name": "4a7c63949ed5ecf03373c9c416379d52", "lon": -77.03258266666667, "type": "electric_scooter", "bike_id": "4a7c63949ed5ecf03373c9c416379d52", "fusion_lon": 0.0, "lat": 38.90965833333333, "fusion_lat": 0.0}, {"is_disabled": 0, "rental_uris": {"android": "https://dc.lft.to/lastmile_qr_scan", "ios": "https://dc.lft.to/lastmile_qr_scan"}, "is_reserved": 0, "name": "c68b6108f4a87849ef1b5fb859832649", "lon": -77.0121195, "type": "electric_scooter", "bike_id": "c68b6108f4a87849ef1b5fb859832649", "fusion_lon": 0.0, "lat": 38.90029466666667, "fusion_lat": 0.0}, {"is_disabled": 0, "rental_uris": {"android": "https://dc.lft.to/lastmile_qr_scan", "ios": "https://dc.lft.to/lastmile_qr_scan"}, "is_reserved": 0, "name": "244d9f3c6e11449a5459cd32c1d53c99", "lon": -76.93022816666667, "type": "electric_bike", "bike_id": "244d9f3c6e11449a5459cd32c1d53c99", "fusion_lon": 0.0, "lat": 38.966559, "fusion_lat": 0.0}, {"is_disabled": 0, "rental_uris": {"android": "https://dc.lft.to/lastmile_qr_scan", "ios": "https://dc.lft.to/lastmile_qr_scan"}, "is_reserved": 0, "name": "56bcbc9b1cd5b738bf4b7511589f9cd5", "lon": -77.034048, "type": "electric_scooter", "bike_id": "56bcbc9b1cd5b738bf4b7511589f9cd5", "fusion_lon": 0.0, "lat": 38.92160166666667, "fusion_lat": 0.0}, {"is_disabled": 0, "rental_uris": {"android": "https://dc.lft.to/lastmile_qr_scan", "ios": "https://dc.lft.to/lastmile_qr_scan"}, "is_reserved": 0, "name": "a685c3b8f5bda1215ace4b8781ff8dcd", "lon": -77.02585966666666, "type": "electric_scooter", "bike_id": "a685c3b8f5bda1215ace4b8781ff8dcd", "fusion_lon": 0.0, "lat": 38.920385833333334, "fusion_lat": 0.0}, {"is_disabled": 0, "rental_uris": {"android": "https://dc.lft.to/lastmile_qr_scan", "ios": "https://dc.lft.to/lastmile_qr_scan"}, "is_reserved": 0, "name": "fdea1b051d76b78e0450fd625228688f", "lon": -77.00309316666667, "type": "electric_scooter", "bike_id": "fdea1b051d76b78e0450fd625228688f", "fusion_lon": 0.0, "lat": 38.892276333333335, "fusion_lat": 0.0}, {"is_disabled": 0, "rental_uris": {"android": "https://dc.lft.to/lastmile_qr_scan", "ios": "https://dc.lft.to/lastmile_qr_scan"}, "is_reserved": 0, "name": "38a58aa8c02a2c8144014e72193401b0", "lon": -77.02548216666666, "type": "electric_scooter", "bike_id": "38a58aa8c02a2c8144014e72193401b0", "fusion_lon": 0.0, "lat": 38.94838266666667, "fusion_lat": 0.0}, {"is_disabled": 0, "rental_uris": {"android": "https://dc.lft.to/lastmile_qr_scan", "ios": "https://dc.lft.to/lastmile_qr_scan"}, "is_reserved": 0, "name": "7231a6bba555cc0dfabf8558608d845b", "lon": -76.91423233333333, "type": "electric_bike", "bike_id": "7231a6bba555cc0dfabf8558608d845b", "fusion_lon": 0.0, "lat": 38.898349, "fusion_lat": 0.0}, {"is_disabled": 0, "rental_uris": {"android": "https://dc.lft.to/lastmile_qr_scan", "ios": "https://dc.lft.to/lastmile_qr_scan"}, "is_reserved": 0, "name": "d21d85dfd83fd066609dbc0f1a0e58df", "lon": -77.0321595, "type": "electric_scooter", "bike_id": "d21d85dfd83fd066609dbc0f1a0e58df", "fusion_lon": 0.0, "lat": 38.91841733333333, "fusion_lat": 0.0}, {"is_disabled": 0, "rental_uris": {"android": "https://dc.lft.to/lastmile_qr_scan", "ios": "https://dc.lft.to/lastmile_qr_scan"}, "is_reserved": 0, "name": "563ece4512263a07ca658599b90748ed", "lon": -77.0405295, "type": "electric_scooter", "bike_id": "563ece4512263a07ca658599b90748ed", "fusion_lon": 0.0, "lat": 38.901459333333335, "fusion_lat": 0.0}, {"is_disabled": 0, "rental_uris": {"android": "https://dc.lft.to/lastmile_qr_scan", "ios": "https://dc.lft.to/lastmile_qr_scan"}, "is_reserved": 0, "name": "dd59726443fc6d7d8c4dec4c640a6d6e", "lon": -77.03944716666666, "type": "electric_scooter", "bike_id": "dd59726443fc6d7d8c4dec4c640a6d6e", "fusion_lon": 0.0, "lat": 38.90820333333333, "fusion_lat": 0.0}, {"is_disabled": 0, "rental_uris": {"android": "https://dc.lft.to/lastmile_qr_scan", "ios": "https://dc.lft.to/lastmile_qr_scan"}, "is_reserved": 0, "name": "30fedef25eac99badb0223b9e358b898", "lon": -76.91883683333333, "type": "electric_scooter", "bike_id": "30fedef25eac99badb0223b9e358b898", "fusion_lon": 0.0, "lat": 38.89086916666667, "fusion_lat": 0.0}, {"is_disabled": 0, "rental_uris": {"android": "https://dc.lft.to/lastmile_qr_scan", "ios": "https://dc.lft.to/lastmile_qr_scan"}, "is_reserved": 0, "name": "d6b2b143f50abd529f44f9412633148e", "lon": -76.98662883333333, "type": "electric_scooter", "bike_id": "d6b2b143f50abd529f44f9412633148e", "fusion_lon": 0.0, "lat": 38.901532833333334, "fusion_lat": 0.0}, {"is_disabled": 0, "rental_uris": {"android": "https://dc.lft.to/lastmile_qr_scan", "ios": "https://dc.lft.to/lastmile_qr_scan"}, "is_reserved": 0, "name": "cdac9eaf7c0e29b9e6f6482af527ef9e", "lon": -77.00586033333333, "type": "electric_scooter", "bike_id": "cdac9eaf7c0e29b9e6f6482af527ef9e", "fusion_lon": 0.0, "lat": 38.91182283333333, "fusion_lat": 0.0}, {"is_disabled": 0, "rental_uris": {"android": "https://dc.lft.to/lastmile_qr_scan", "ios": "https://dc.lft.to/lastmile_qr_scan"}, "is_reserved": 0, "name": "376e021fdf7a79059c8479f2b5fec0c7", "lon": -77.03638133333334, "type": "electric_scooter", "bike_id": "376e021fdf7a79059c8479f2b5fec0c7", "fusion_lon": 0.0, "lat": 38.912973, "fusion_lat": 0.0}, {"is_disabled": 0, "rental_uris": {"android": "https://dc.lft.to/lastmile_qr_scan", "ios": "https://dc.lft.to/lastmile_qr_scan"}, "is_reserved": 0, "name": "28ecc25c3684f851725e5054c843df3d", "lon": -77.04410983333334, "type": "electric_scooter", "bike_id": "28ecc25c3684f851725e5054c843df3d", "fusion_lon": 0.0, "lat": 38.917789666666664, "fusion_lat": 0.0}, {"is_disabled": 0, "rental_uris": {"android": "https://dc.lft.to/lastmile_qr_scan", "ios": "https://dc.lft.to/lastmile_qr_scan"}, "is_reserved": 0, "name": "be667931d2fe2c6571727d2bcd151db6", "lon": -77.01946716666667, "type": "electric_scooter", "bike_id": "be667931d2fe2c6571727d2bcd151db6", "fusion_lon": 0.0, "lat": 38.922541, "fusion_lat": 0.0}, {"is_disabled": 0, "rental_uris": {"android": "https://dc.lft.to/lastmile_qr_scan", "ios": "https://dc.lft.to/lastmile_qr_scan"}, "is_reserved": 0, "name": "6e2ea008a32c8bf7a1d9f2081bbabec2", "lon": -77.03502916666666, "type": "electric_scooter", "bike_id": "6e2ea008a32c8bf7a1d9f2081bbabec2", "fusion_lon": 0.0, "lat": 38.9169005, "fusion_lat": 0.0}, {"is_disabled": 0, "rental_uris": {"android": "https://dc.lft.to/lastmile_qr_scan", "ios": "https://dc.lft.to/lastmile_qr_scan"}, "is_reserved": 0, "name": "597a82264cdbc69d5c939c8d8a7df624", "lon": -77.10682133333333, "type": "electric_bike", "bike_id": "597a82264cdbc69d5c939c8d8a7df624", "fusion_lon": 0.0, "lat": 38.935844333333335, "fusion_lat": 0.0}, {"is_disabled": 0, "rental_uris": {"android": "https://dc.lft.to/lastmile_qr_scan", "ios": "https://dc.lft.to/lastmile_qr_scan"}, "is_reserved": 0, "name": "702dd70a78e36e5279749c662ed19232", "lon": -77.02014683333333, "type": "electric_scooter", "bike_id": "702dd70a78e36e5279749c662ed19232", "fusion_lon": 0.0, "lat": 38.89268416666667, "fusion_lat": 0.0}, {"is_disabled": 0, "rental_uris": {"android": "https://dc.lft.to/lastmile_qr_scan", "ios": "https://dc.lft.to/lastmile_qr_scan"}, "is_reserved": 0, "name": "25750a971ddfcc06943cf2e810d41db8", "lon": -76.98369916666667, "type": "electric_scooter", "bike_id": "25750a971ddfcc06943cf2e810d41db8", "fusion_lon": 0.0, "lat": 38.8953185, "fusion_lat": 0.0}, {"is_disabled": 0, "rental_uris": {"android": "https://dc.lft.to/lastmile_qr_scan", "ios": "https://dc.lft.to/lastmile_qr_scan"}, "is_reserved": 0, "name": "8267fe5b88e756561277afd0184e4a33", "lon": -76.98765633333333, "type": "electric_bike", "bike_id": "8267fe5b88e756561277afd0184e4a33", "fusion_lon": 0.0, "lat": 38.857886, "fusion_lat": 0.0}, {"is_disabled": 0, "rental_uris": {"android": "https://dc.lft.to/lastmile_qr_scan", "ios": "https://dc.lft.to/lastmile_qr_scan"}, "is_reserved": 0, "name": "c2f29e6cc793492bd4a06cbec8c60398", "lon": -77.0310065, "type": "electric_scooter", "bike_id": "c2f29e6cc793492bd4a06cbec8c60398", "fusion_lon": 0.0, "lat": 38.92579583333333, "fusion_lat": 0.0}, {"is_disabled": 0, "rental_uris": {"android": "https://dc.lft.to/lastmile_qr_scan", "ios": "https://dc.lft.to/lastmile_qr_scan"}, "is_reserved": 0, "name": "18eed739a8d63395c2467f6a62d85927", "lon": -77.00210733333333, "type": "electric_scooter", "bike_id": "18eed739a8d63395c2467f6a62d85927", "fusion_lon": 0.0, "lat": 38.8908775, "fusion_lat": 0.0}, {"is_disabled": 0, "rental_uris": {"android": "https://dc.lft.to/lastmile_qr_scan", "ios": "https://dc.lft.to/lastmile_qr_scan"}, "is_reserved": 0, "name": "47c33f0758b984538f6eee98babdf8b9", "lon": -77.05065183333333, "type": "electric_scooter", "bike_id": "47c33f0758b984538f6eee98babdf8b9", "fusion_lon": 0.0, "lat": 38.900885833333334, "fusion_lat": 0.0}, {"is_disabled": 0, "rental_uris": {"android": "https://dc.lft.to/lastmile_qr_scan", "ios": "https://dc.lft.to/lastmile_qr_scan"}, "is_reserved": 0, "name": "69d4d490b82499d2ee185cf9df7c97a5", "lon": -77.03314433333334, "type": "electric_scooter", "bike_id": "69d4d490b82499d2ee185cf9df7c97a5", "fusion_lon": 0.0, "lat": 38.914166, "fusion_lat": 0.0}, {"is_disabled": 0, "rental_uris": {"android": "https://dc.lft.to/lastmile_qr_scan", "ios": "https://dc.lft.to/lastmile_qr_scan"}, "is_reserved": 0, "name": "90503ec8c2fdf80cdb4c4735fd15e8c0", "lon": -77.01497566666667, "type": "electric_scooter", "bike_id": "90503ec8c2fdf80cdb4c4735fd15e8c0", "fusion_lon": 0.0, "lat": 38.9564765, "fusion_lat": 0.0}, {"is_disabled": 0, "rental_uris": {"android": "https://dc.lft.to/lastmile_qr_scan", "ios": "https://dc.lft.to/lastmile_qr_scan"}, "is_reserved": 0, "name": "94a59e75f4386409bbb16589949d87a4", "lon": -77.0033395, "type": "electric_scooter", "bike_id": "94a59e75f4386409bbb16589949d87a4", "fusion_lon": 0.0, "lat": 38.893565833333334, "fusion_lat": 0.0}, {"is_disabled": 0, "rental_uris": {"android": "https://dc.lft.to/lastmile_qr_scan", "ios": "https://dc.lft.to/lastmile_qr_scan"}, "is_reserved": 0, "name": "a4101367dfa2cd55ddfb9793df46541e", "lon": -77.01395333333333, "type": "electric_scooter", "bike_id": "a4101367dfa2cd55ddfb9793df46541e", "fusion_lon": 0.0, "lat": 38.8803305, "fusion_lat": 0.0}, {"is_disabled": 0, "rental_uris": {"android": "https://dc.lft.to/lastmile_qr_scan", "ios": "https://dc.lft.to/lastmile_qr_scan"}, "is_reserved": 0, "name": "c48b2e012468165123a99370f5c1d9af", "lon": -77.03200716666667, "type": "electric_scooter", "bike_id": "c48b2e012468165123a99370f5c1d9af", "fusion_lon": 0.0, "lat": 38.939704166666665, "fusion_lat": 0.0}, {"is_disabled": 0, "rental_uris": {"android": "https://dc.lft.to/lastmile_qr_scan", "ios": "https://dc.lft.to/lastmile_qr_scan"}, "is_reserved": 0, "name": "cedc2bb1e4c87aac1dab17faef29141f", "lon": -77.0164255, "type": "electric_scooter", "bike_id": "cedc2bb1e4c87aac1dab17faef29141f", "fusion_lon": 0.0, "lat": 38.876376666666665, "fusion_lat": 0.0}, {"is_disabled": 0, "rental_uris": {"android": "https://dc.lft.to/lastmile_qr_scan", "ios": "https://dc.lft.to/lastmile_qr_scan"}, "is_reserved": 0, "name": "1a6ae188f63a777296e51fa8df479aab", "lon": -77.0337655, "type": "electric_scooter", "bike_id": "1a6ae188f63a777296e51fa8df479aab", "fusion_lon": 0.0, "lat": 38.9287675, "fusion_lat": 0.0}, {"is_disabled": 0, "rental_uris": {"android": "https://dc.lft.to/lastmile_qr_scan", "ios": "https://dc.lft.to/lastmile_qr_scan"}, "is_reserved": 0, "name": "328433500db526056075b00bfa314479", "lon": -77.04511083333334, "type": "electric_scooter", "bike_id": "328433500db526056075b00bfa314479", "fusion_lon": 0.0, "lat": 38.907792666666666, "fusion_lat": 0.0}, {"is_disabled": 0, "rental_uris": {"android": "https://dc.lft.to/lastmile_qr_scan", "ios": "https://dc.lft.to/lastmile_qr_scan"}, "is_reserved": 0, "name": "4ea802f503a00338f69974a1a711f0f8", "lon": -77.02988383333333, "type": "electric_scooter", "bike_id": "4ea802f503a00338f69974a1a711f0f8", "fusion_lon": 0.0, "lat": 38.92247183333333, "fusion_lat": 0.0}, {"is_disabled": 0, "rental_uris": {"android": "https://dc.lft.to/lastmile_qr_scan", "ios": "https://dc.lft.to/lastmile_qr_scan"}, "is_reserved": 0, "name": "6c903c5cbdc403468b8cb66164f9af67", "lon": -77.02518116666667, "type": "electric_scooter", "bike_id": "6c903c5cbdc403468b8cb66164f9af67", "fusion_lon": 0.0, "lat": 38.920726, "fusion_lat": 0.0}, {"is_disabled": 0, "rental_uris": {"android": "https://dc.lft.to/lastmile_qr_scan", "ios": "https://dc.lft.to/lastmile_qr_scan"}, "is_reserved": 0, "name": "149be324ff1ca9a3b4f4aa9c07048c05", "lon": -76.94719066666667, "type": "electric_scooter", "bike_id": "149be324ff1ca9a3b4f4aa9c07048c05", "fusion_lon": 0.0, "lat": 38.897059166666665, "fusion_lat": 0.0}, {"is_disabled": 0, "rental_uris": {"android": "https://dc.lft.to/lastmile_qr_scan", "ios": "https://dc.lft.to/lastmile_qr_scan"}, "is_reserved": 0, "name": "6bd234f42dcba370ef575ebffea23b26", "lon": -76.9797385, "type": "electric_scooter", "bike_id": "6bd234f42dcba370ef575ebffea23b26", "fusion_lon": 0.0, "lat": 38.88765716666666, "fusion_lat": 0.0}, {"is_disabled": 0, "rental_uris": {"android": "https://dc.lft.to/lastmile_qr_scan", "ios": "https://dc.lft.to/lastmile_qr_scan"}, "is_reserved": 0, "name": "1274180d97d50bf675461068dbbb6fc9", "lon": -77.00565616666667, "type": "electric_scooter", "bike_id": "1274180d97d50bf675461068dbbb6fc9", "fusion_lon": 0.0, "lat": 38.885075666666665, "fusion_lat": 0.0}, {"is_disabled": 0, "rental_uris": {"android": "https://dc.lft.to/lastmile_qr_scan", "ios": "https://dc.lft.to/lastmile_qr_scan"}, "is_reserved": 0, "name": "59dd12b4dbe6e9196268a03077c5c09f", "lon": -77.02512016666667, "type": "electric_scooter", "bike_id": "59dd12b4dbe6e9196268a03077c5c09f", "fusion_lon": 0.0, "lat": 38.920766666666665, "fusion_lat": 0.0}, {"is_disabled": 0, "rental_uris": {"android": "https://dc.lft.to/lastmile_qr_scan", "ios": "https://dc.lft.to/lastmile_qr_scan"}, "is_reserved": 0, "name": "75820891a700fd7cf500108eabb14873", "lon": -77.03461566666667, "type": "electric_scooter", "bike_id": "75820891a700fd7cf500108eabb14873", "fusion_lon": 0.0, "lat": 38.92162066666667, "fusion_lat": 0.0}, {"is_disabled": 0, "rental_uris": {"android": "https://dc.lft.to/lastmile_qr_scan", "ios": "https://dc.lft.to/lastmile_qr_scan"}, "is_reserved": 0, "name": "fe553e1882a7955418ad07d97a1d425d", "lon": -77.0296685, "type": "electric_scooter", "bike_id": "fe553e1882a7955418ad07d97a1d425d", "fusion_lon": 0.0, "lat": 38.90435266666667, "fusion_lat": 0.0}, {"is_disabled": 0, "rental_uris": {"android": "https://dc.lft.to/lastmile_qr_scan", "ios": "https://dc.lft.to/lastmile_qr_scan"}, "is_reserved": 0, "name": "4d99c98a3b37c7c5cf41ef572fe82480", "lon": -77.04380433333333, "type": "electric_scooter", "bike_id": "4d99c98a3b37c7c5cf41ef572fe82480", "fusion_lon": 0.0, "lat": 38.910559666666664, "fusion_lat": 0.0}, {"is_disabled": 0, "rental_uris": {"android": "https://dc.lft.to/lastmile_qr_scan", "ios": "https://dc.lft.to/lastmile_qr_scan"}, "is_reserved": 0, "name": "27c93c458e3d852ef87def1b307605a9", "lon": -77.06838333333333, "type": "electric_scooter", "bike_id": "27c93c458e3d852ef87def1b307605a9", "fusion_lon": 0.0, "lat": 38.951999666666666, "fusion_lat": 0.0}, {"is_disabled": 0, "rental_uris": {"android": "https://dc.lft.to/lastmile_qr_scan", "ios": "https://dc.lft.to/lastmile_qr_scan"}, "is_reserved": 0, "name": "eff89356ace7445c71986aa8cbf0d8dc", "lon": -77.051306, "type": "electric_scooter", "bike_id": "eff89356ace7445c71986aa8cbf0d8dc", "fusion_lon": 0.0, "lat": 38.907149, "fusion_lat": 0.0}, {"is_disabled": 0, "rental_uris": {"android": "https://dc.lft.to/lastmile_qr_scan", "ios": "https://dc.lft.to/lastmile_qr_scan"}, "is_reserved": 0, "name": "ea7cda1116c1ec89081cc1db43f6ad46", "lon": -76.92818916666667, "type": "electric_scooter", "bike_id": "ea7cda1116c1ec89081cc1db43f6ad46", "fusion_lon": 0.0, "lat": 38.880768333333336, "fusion_lat": 0.0}, {"is_disabled": 0, "rental_uris": {"android": "https://dc.lft.to/lastmile_qr_scan", "ios": "https://dc.lft.to/lastmile_qr_scan"}, "is_reserved": 0, "name": "d21c019e697b4064a636ed146e6603a7", "lon": -77.03222516666666, "type": "electric_scooter", "bike_id": "d21c019e697b4064a636ed146e6603a7", "fusion_lon": 0.0, "lat": 38.892279, "fusion_lat": 0.0}, {"is_disabled": 0, "rental_uris": {"android": "https://dc.lft.to/lastmile_qr_scan", "ios": "https://dc.lft.to/lastmile_qr_scan"}, "is_reserved": 0, "name": "c90bf7dd1aaec12ca0264606518a3a5a", "lon": -77.05169783333334, "type": "electric_scooter", "bike_id": "c90bf7dd1aaec12ca0264606518a3a5a", "fusion_lon": 0.0, "lat": 38.90319483333333, "fusion_lat": 0.0}, {"is_disabled": 0, "rental_uris": {"android": "https://dc.lft.to/lastmile_qr_scan", "ios": "https://dc.lft.to/lastmile_qr_scan"}, "is_reserved": 0, "name": "cf6a347cdadebf352204eb5b307f7b85", "lon": -77.0080585, "type": "electric_bike", "bike_id": "cf6a347cdadebf352204eb5b307f7b85", "fusion_lon": 0.0, "lat": 38.9534535, "fusion_lat": 0.0}, {"is_disabled": 0, "rental_uris": {"android": "https://dc.lft.to/lastmile_qr_scan", "ios": "https://dc.lft.to/lastmile_qr_scan"}, "is_reserved": 0, "name": "0a5532edd72a7218b7012ade84396477", "lon": -77.01012233333333, "type": "electric_scooter", "bike_id": "0a5532edd72a7218b7012ade84396477", "fusion_lon": 0.0, "lat": 38.86717216666667, "fusion_lat": 0.0}, {"is_disabled": 0, "rental_uris": {"android": "https://dc.lft.to/lastmile_qr_scan", "ios": "https://dc.lft.to/lastmile_qr_scan"}, "is_reserved": 0, "name": "5148d9a49a2b46030edd3f0042c1ea5c", "lon": -77.05024866666666, "type": "electric_scooter", "bike_id": "5148d9a49a2b46030edd3f0042c1ea5c", "fusion_lon": 0.0, "lat": 38.89621133333333, "fusion_lat": 0.0}, {"is_disabled": 0, "rental_uris": {"android": "https://dc.lft.to/lastmile_qr_scan", "ios": "https://dc.lft.to/lastmile_qr_scan"}, "is_reserved": 0, "name": "cc48113b647225f1521f8d0919e3a972", "lon": -76.94155383333333, "type": "electric_scooter", "bike_id": "cc48113b647225f1521f8d0919e3a972", "fusion_lon": 0.0, "lat": 38.88364466666667, "fusion_lat": 0.0}, {"is_disabled": 0, "rental_uris": {"android": "https://dc.lft.to/lastmile_qr_scan", "ios": "https://dc.lft.to/lastmile_qr_scan"}, "is_reserved": 0, "name": "789ac86ab32c125fa90fb925990044d2", "lon": -77.01407216666666, "type": "electric_scooter", "bike_id": "789ac86ab32c125fa90fb925990044d2", "fusion_lon": 0.0, "lat": 38.92838033333334, "fusion_lat": 0.0}, {"is_disabled": 0, "rental_uris": {"android": "https://dc.lft.to/lastmile_qr_scan", "ios": "https://dc.lft.to/lastmile_qr_scan"}, "is_reserved": 0, "name": "6353acce9629911eab6e7715072fd39a", "lon": -77.00350833333333, "type": "electric_scooter", "bike_id": "6353acce9629911eab6e7715072fd39a", "fusion_lon": 0.0, "lat": 38.886038166666665, "fusion_lat": 0.0}, {"is_disabled": 0, "rental_uris": {"android": "https://dc.lft.to/lastmile_qr_scan", "ios": "https://dc.lft.to/lastmile_qr_scan"}, "is_reserved": 0, "name": "4b9fdba149c614baccefe3e0d07f9614", "lon": -77.0322475, "type": "electric_scooter", "bike_id": "4b9fdba149c614baccefe3e0d07f9614", "fusion_lon": 0.0, "lat": 38.92485333333333, "fusion_lat": 0.0}, {"is_disabled": 0, "rental_uris": {"android": "https://dc.lft.to/lastmile_qr_scan", "ios": "https://dc.lft.to/lastmile_qr_scan"}, "is_reserved": 0, "name": "1155f07f6d5d4b4b8b1e4d99393eca29", "lon": -77.03772916666667, "type": "electric_scooter", "bike_id": "1155f07f6d5d4b4b8b1e4d99393eca29", "fusion_lon": 0.0, "lat": 38.936110166666666, "fusion_lat": 0.0}, {"is_disabled": 0, "rental_uris": {"android": "https://dc.lft.to/lastmile_qr_scan", "ios": "https://dc.lft.to/lastmile_qr_scan"}, "is_reserved": 0, "name": "2803f1ece5121ffc0e8680819b53b6f2", "lon": -77.06122166666667, "type": "electric_scooter", "bike_id": "2803f1ece5121ffc0e8680819b53b6f2", "fusion_lon": 0.0, "lat": 38.9436945, "fusion_lat": 0.0}, {"is_disabled": 0, "rental_uris": {"android": "https://dc.lft.to/lastmile_qr_scan", "ios": "https://dc.lft.to/lastmile_qr_scan"}, "is_reserved": 0, "name": "ed777dd8a3bfe20a1b2e1d3df6751baa", "lon": -77.03058316666667, "type": "electric_scooter", "bike_id": "ed777dd8a3bfe20a1b2e1d3df6751baa", "fusion_lon": 0.0, "lat": 38.901281166666664, "fusion_lat": 0.0}, {"is_disabled": 0, "rental_uris": {"android": "https://dc.lft.to/lastmile_qr_scan", "ios": "https://dc.lft.to/lastmile_qr_scan"}, "is_reserved": 0, "name": "5f69ee9ea81e32fa1566be2461d7436a", "lon": -76.90971966666666, "type": "electric_bike", "bike_id": "5f69ee9ea81e32fa1566be2461d7436a", "fusion_lon": 0.0, "lat": 38.8543035, "fusion_lat": 0.0}, {"is_disabled": 0, "rental_uris": {"android": "https://dc.lft.to/lastmile_qr_scan", "ios": "https://dc.lft.to/lastmile_qr_scan"}, "is_reserved": 0, "name": "95b4b7d0e3e9d6dbfd6aefa22acd1723", "lon": -77.01624916666667, "type": "electric_scooter", "bike_id": "95b4b7d0e3e9d6dbfd6aefa22acd1723", "fusion_lon": 0.0, "lat": 38.878783, "fusion_lat": 0.0}, {"is_disabled": 0, "rental_uris": {"android": "https://dc.lft.to/lastmile_qr_scan", "ios": "https://dc.lft.to/lastmile_qr_scan"}, "is_reserved": 0, "name": "47153a394cf68ad7726e98ecd771f896", "lon": -76.9653035, "type": "electric_scooter", "bike_id": "47153a394cf68ad7726e98ecd771f896", "fusion_lon": 0.0, "lat": 38.876305333333335, "fusion_lat": 0.0}, {"is_disabled": 0, "rental_uris": {"android": "https://dc.lft.to/lastmile_qr_scan", "ios": "https://dc.lft.to/lastmile_qr_scan"}, "is_reserved": 0, "name": "61b3fe36412aad307de841fc218b7dff", "lon": -77.0162715, "type": "electric_scooter", "bike_id": "61b3fe36412aad307de841fc218b7dff", "fusion_lon": 0.0, "lat": 38.9205255, "fusion_lat": 0.0}, {"is_disabled": 0, "rental_uris": {"android": "https://dc.lft.to/lastmile_qr_scan", "ios": "https://dc.lft.to/lastmile_qr_scan"}, "is_reserved": 0, "name": "50a6a0676ccb5c3751a3713d720e91fb", "lon": -77.05525316666666, "type": "electric_scooter", "bike_id": "50a6a0676ccb5c3751a3713d720e91fb", "fusion_lon": 0.0, "lat": 38.93013416666667, "fusion_lat": 0.0}, {"is_disabled": 0, "rental_uris": {"android": "https://dc.lft.to/lastmile_qr_scan", "ios": "https://dc.lft.to/lastmile_qr_scan"}, "is_reserved": 0, "name": "07c8860c9cdb609933089ac59345f0a4", "lon": -77.03756316666667, "type": "electric_scooter", "bike_id": "07c8860c9cdb609933089ac59345f0a4", "fusion_lon": 0.0, "lat": 38.929094166666665, "fusion_lat": 0.0}, {"is_disabled": 0, "rental_uris": {"android": "https://dc.lft.to/lastmile_qr_scan", "ios": "https://dc.lft.to/lastmile_qr_scan"}, "is_reserved": 0, "name": "16ec2363d80766e8e3e37866e7b2c21e", "lon": -77.04248566666666, "type": "electric_scooter", "bike_id": "16ec2363d80766e8e3e37866e7b2c21e", "fusion_lon": 0.0, "lat": 38.92223366666666, "fusion_lat": 0.0}, {"is_disabled": 0, "rental_uris": {"android": "https://dc.lft.to/lastmile_qr_scan", "ios": "https://dc.lft.to/lastmile_qr_scan"}, "is_reserved": 0, "name": "cfe162ecbb6e58b650ac1ee54f034d1f", "lon": -77.04506183333334, "type": "electric_scooter", "bike_id": "cfe162ecbb6e58b650ac1ee54f034d1f", "fusion_lon": 0.0, "lat": 38.912415, "fusion_lat": 0.0}, {"is_disabled": 0, "rental_uris": {"android": "https://dc.lft.to/lastmile_qr_scan", "ios": "https://dc.lft.to/lastmile_qr_scan"}, "is_reserved": 0, "name": "a16116242b590b110d87997423dd24eb", "lon": -77.0266895, "type": "electric_scooter", "bike_id": "a16116242b590b110d87997423dd24eb", "fusion_lon": 0.0, "lat": 38.91268216666667, "fusion_lat": 0.0}, {"is_disabled": 0, "rental_uris": {"android": "https://dc.lft.to/lastmile_qr_scan", "ios": "https://dc.lft.to/lastmile_qr_scan"}, "is_reserved": 0, "name": "d55bd2c57a893d27c63fe2abc0e8eddb", "lon": -77.0218765, "type": "electric_scooter", "bike_id": "d55bd2c57a893d27c63fe2abc0e8eddb", "fusion_lon": 0.0, "lat": 38.89948316666667, "fusion_lat": 0.0}, {"is_disabled": 0, "rental_uris": {"android": "https://dc.lft.to/lastmile_qr_scan", "ios": "https://dc.lft.to/lastmile_qr_scan"}, "is_reserved": 0, "name": "5392485bac0fdf122f3e4959d6563d1f", "lon": -77.03129716666666, "type": "electric_scooter", "bike_id": "5392485bac0fdf122f3e4959d6563d1f", "fusion_lon": 0.0, "lat": 38.920211333333334, "fusion_lat": 0.0}, {"is_disabled": 0, "rental_uris": {"android": "https://dc.lft.to/lastmile_qr_scan", "ios": "https://dc.lft.to/lastmile_qr_scan"}, "is_reserved": 0, "name": "d019161cc3f67961bcaa97808f43d3f3", "lon": -77.03871166666667, "type": "electric_scooter", "bike_id": "d019161cc3f67961bcaa97808f43d3f3", "fusion_lon": 0.0, "lat": 38.908128, "fusion_lat": 0.0}, {"is_disabled": 0, "rental_uris": {"android": "https://dc.lft.to/lastmile_qr_scan", "ios": "https://dc.lft.to/lastmile_qr_scan"}, "is_reserved": 0, "name": "57b40a2189c9e9998614ea9c5e8cc829", "lon": -77.021709, "type": "electric_scooter", "bike_id": "57b40a2189c9e9998614ea9c5e8cc829", "fusion_lon": 0.0, "lat": 38.89729166666667, "fusion_lat": 0.0}, {"is_disabled": 0, "rental_uris": {"android": "https://dc.lft.to/lastmile_qr_scan", "ios": "https://dc.lft.to/lastmile_qr_scan"}, "is_reserved": 0, "name": "d675c02cff3ec7404f65520dd4565e69", "lon": -77.03457783333333, "type": "electric_scooter", "bike_id": "d675c02cff3ec7404f65520dd4565e69", "fusion_lon": 0.0, "lat": 38.9042755, "fusion_lat": 0.0}, {"is_disabled": 0, "rental_uris": {"android": "https://dc.lft.to/lastmile_qr_scan", "ios": "https://dc.lft.to/lastmile_qr_scan"}, "is_reserved": 0, "name": "db45227a6adef33acc00cbf31af5db0f", "lon": -77.033477, "type": "electric_scooter", "bike_id": "db45227a6adef33acc00cbf31af5db0f", "fusion_lon": 0.0, "lat": 38.9224105, "fusion_lat": 0.0}, {"is_disabled": 0, "rental_uris": {"android": "https://dc.lft.to/lastmile_qr_scan", "ios": "https://dc.lft.to/lastmile_qr_scan"}, "is_reserved": 0, "name": "974c24abec95d4b2efdfbabde6e1468d", "lon": -76.98829833333333, "type": "electric_bike", "bike_id": "974c24abec95d4b2efdfbabde6e1468d", "fusion_lon": 0.0, "lat": 38.985671833333335, "fusion_lat": 0.0}, {"is_disabled": 0, "rental_uris": {"android": "https://dc.lft.to/lastmile_qr_scan", "ios": "https://dc.lft.to/lastmile_qr_scan"}, "is_reserved": 0, "name": "f571f557f5a12bbbc240dac1a725b2fa", "lon": -77.01695233333334, "type": "electric_scooter", "bike_id": "f571f557f5a12bbbc240dac1a725b2fa", "fusion_lon": 0.0, "lat": 38.97497516666667, "fusion_lat": 0.0}, {"is_disabled": 0, "rental_uris": {"android": "https://dc.lft.to/lastmile_qr_scan", "ios": "https://dc.lft.to/lastmile_qr_scan"}, "is_reserved": 0, "name": "b6b410471eaf8e3e9fa67c9cfe1ba19e", "lon": -77.03024533333334, "type": "electric_scooter", "bike_id": "b6b410471eaf8e3e9fa67c9cfe1ba19e", "fusion_lon": 0.0, "lat": 38.9311645, "fusion_lat": 0.0}, {"is_disabled": 0, "rental_uris": {"android": "https://dc.lft.to/lastmile_qr_scan", "ios": "https://dc.lft.to/lastmile_qr_scan"}, "is_reserved": 0, "name": "58c9d3e8659e5883ed6b4e4e9e9c9f52", "lon": -76.9412045, "type": "electric_scooter", "bike_id": "58c9d3e8659e5883ed6b4e4e9e9c9f52", "fusion_lon": 0.0, "lat": 38.88452266666667, "fusion_lat": 0.0}, {"is_disabled": 0, "rental_uris": {"android": "https://dc.lft.to/lastmile_qr_scan", "ios": "https://dc.lft.to/lastmile_qr_scan"}, "is_reserved": 0, "name": "0da8144b2d0dd79cb896d0818369e3c6", "lon": -77.028508, "type": "electric_scooter", "bike_id": "0da8144b2d0dd79cb896d0818369e3c6", "fusion_lon": 0.0, "lat": 38.933, "fusion_lat": 0.0}, {"is_disabled": 0, "rental_uris": {"android": "https://dc.lft.to/lastmile_qr_scan", "ios": "https://dc.lft.to/lastmile_qr_scan"}, "is_reserved": 0, "name": "5f3b5acd1b7f18b0f70fdbb85c390507", "lon": -77.04695716666667, "type": "electric_scooter", "bike_id": "5f3b5acd1b7f18b0f70fdbb85c390507", "fusion_lon": 0.0, "lat": 38.897348, "fusion_lat": 0.0}, {"is_disabled": 0, "rental_uris": {"android": "https://dc.lft.to/lastmile_qr_scan", "ios": "https://dc.lft.to/lastmile_qr_scan"}, "is_reserved": 0, "name": "bf8d1411dd1de95f5ac161947853c731", "lon": -77.02751316666667, "type": "electric_scooter", "bike_id": "bf8d1411dd1de95f5ac161947853c731", "fusion_lon": 0.0, "lat": 38.94314416666667, "fusion_lat": 0.0}, {"is_disabled": 0, "rental_uris": {"android": "https://dc.lft.to/lastmile_qr_scan", "ios": "https://dc.lft.to/lastmile_qr_scan"}, "is_reserved": 0, "name": "c48d97124ac67ed6618dc5613b5555a8", "lon": -76.9878245, "type": "electric_scooter", "bike_id": "c48d97124ac67ed6618dc5613b5555a8", "fusion_lon": 0.0, "lat": 38.84471, "fusion_lat": 0.0}, {"is_disabled": 0, "rental_uris": {"android": "https://dc.lft.to/lastmile_qr_scan", "ios": "https://dc.lft.to/lastmile_qr_scan"}, "is_reserved": 0, "name": "10d04b40ae55f3e06907f3df0798fe78", "lon": -77.10655533333333, "type": "electric_bike", "bike_id": "10d04b40ae55f3e06907f3df0798fe78", "fusion_lon": 0.0, "lat": 39.030005833333334, "fusion_lat": 0.0}, {"is_disabled": 0, "rental_uris": {"android": "https://dc.lft.to/lastmile_qr_scan", "ios": "https://dc.lft.to/lastmile_qr_scan"}, "is_reserved": 0, "name": "4b099098f2fa1a1b4c53ca2f63953637", "lon": -77.04014766666667, "type": "electric_scooter", "bike_id": "4b099098f2fa1a1b4c53ca2f63953637", "fusion_lon": 0.0, "lat": 38.917967166666664, "fusion_lat": 0.0}, {"is_disabled": 0, "rental_uris": {"android": "https://dc.lft.to/lastmile_qr_scan", "ios": "https://dc.lft.to/lastmile_qr_scan"}, "is_reserved": 0, "name": "f8853171bc4e4334ba428c85aed32a27", "lon": -77.0400615, "type": "electric_scooter", "bike_id": "f8853171bc4e4334ba428c85aed32a27", "fusion_lon": 0.0, "lat": 38.9028375, "fusion_lat": 0.0}, {"is_disabled": 0, "rental_uris": {"android": "https://dc.lft.to/lastmile_qr_scan", "ios": "https://dc.lft.to/lastmile_qr_scan"}, "is_reserved": 0, "name": "6e96e9fd2c85b765cc94816c09095989", "lon": -77.0426745, "type": "electric_scooter", "bike_id": "6e96e9fd2c85b765cc94816c09095989", "fusion_lon": 0.0, "lat": 38.910380833333335, "fusion_lat": 0.0}, {"is_disabled": 0, "rental_uris": {"android": "https://dc.lft.to/lastmile_qr_scan", "ios": "https://dc.lft.to/lastmile_qr_scan"}, "is_reserved": 0, "name": "579855fdc67317f8d72b908310aff7be", "lon": -77.046196, "type": "electric_scooter", "bike_id": "579855fdc67317f8d72b908310aff7be", "fusion_lon": 0.0, "lat": 38.923213, "fusion_lat": 0.0}, {"is_disabled": 0, "rental_uris": {"android": "https://dc.lft.to/lastmile_qr_scan", "ios": "https://dc.lft.to/lastmile_qr_scan"}, "is_reserved": 0, "name": "4cb935fcf5561c823919b2520ecb063c", "lon": -76.9806855, "type": "electric_scooter", "bike_id": "4cb935fcf5561c823919b2520ecb063c", "fusion_lon": 0.0, "lat": 38.916786, "fusion_lat": 0.0}, {"is_disabled": 0, "rental_uris": {"android": "https://dc.lft.to/lastmile_qr_scan", "ios": "https://dc.lft.to/lastmile_qr_scan"}, "is_reserved": 0, "name": "aef772194c9da2f60783733dd773b925", "lon": -77.05082216666666, "type": "electric_scooter", "bike_id": "aef772194c9da2f60783733dd773b925", "fusion_lon": 0.0, "lat": 38.9052855, "fusion_lat": 0.0}, {"is_disabled": 0, "rental_uris": {"android": "https://dc.lft.to/lastmile_qr_scan", "ios": "https://dc.lft.to/lastmile_qr_scan"}, "is_reserved": 0, "name": "0c64edfcbe166975c08955a0255466a8", "lon": -77.03898066666666, "type": "electric_scooter", "bike_id": "0c64edfcbe166975c08955a0255466a8", "fusion_lon": 0.0, "lat": 38.92500366666667, "fusion_lat": 0.0}, {"is_disabled": 0, "rental_uris": {"android": "https://dc.lft.to/lastmile_qr_scan", "ios": "https://dc.lft.to/lastmile_qr_scan"}, "is_reserved": 0, "name": "9522721f017fb3e21f704221434aec13", "lon": -76.998539, "type": "electric_scooter", "bike_id": "9522721f017fb3e21f704221434aec13", "fusion_lon": 0.0, "lat": 38.9003305, "fusion_lat": 0.0}, {"is_disabled": 0, "rental_uris": {"android": "https://dc.lft.to/lastmile_qr_scan", "ios": "https://dc.lft.to/lastmile_qr_scan"}, "is_reserved": 0, "name": "7fa9563a7b8fdf96ff73209194486013", "lon": -77.03863166666666, "type": "electric_scooter", "bike_id": "7fa9563a7b8fdf96ff73209194486013", "fusion_lon": 0.0, "lat": 38.90394, "fusion_lat": 0.0}, {"is_disabled": 0, "rental_uris": {"android": "https://dc.lft.to/lastmile_qr_scan", "ios": "https://dc.lft.to/lastmile_qr_scan"}, "is_reserved": 0, "name": "5672da4bc38869d00bff06b5604a0a18", "lon": -77.051122, "type": "electric_scooter", "bike_id": "5672da4bc38869d00bff06b5604a0a18", "fusion_lon": 0.0, "lat": 38.923630833333334, "fusion_lat": 0.0}, {"is_disabled": 0, "rental_uris": {"android": "https://dc.lft.to/lastmile_qr_scan", "ios": "https://dc.lft.to/lastmile_qr_scan"}, "is_reserved": 0, "name": "e56d033da0f920d8011d878f8eab26f5", "lon": -77.051385, "type": "electric_scooter", "bike_id": "e56d033da0f920d8011d878f8eab26f5", "fusion_lon": 0.0, "lat": 38.9060425, "fusion_lat": 0.0}, {"is_disabled": 0, "rental_uris": {"android": "https://dc.lft.to/lastmile_qr_scan", "ios": "https://dc.lft.to/lastmile_qr_scan"}, "is_reserved": 0, "name": "268ff3b3a7036bd2a5f57440954a7014", "lon": -76.9521305, "type": "electric_scooter", "bike_id": "268ff3b3a7036bd2a5f57440954a7014", "fusion_lon": 0.0, "lat": 38.8925205, "fusion_lat": 0.0}, {"is_disabled": 0, "rental_uris": {"android": "https://dc.lft.to/lastmile_qr_scan", "ios": "https://dc.lft.to/lastmile_qr_scan"}, "is_reserved": 0, "name": "cfd5f42a2854a068544d177e5544efd6", "lon": -77.0434095, "type": "electric_scooter", "bike_id": "cfd5f42a2854a068544d177e5544efd6", "fusion_lon": 0.0, "lat": 38.898284833333335, "fusion_lat": 0.0}, {"is_disabled": 0, "rental_uris": {"android": "https://dc.lft.to/lastmile_qr_scan", "ios": "https://dc.lft.to/lastmile_qr_scan"}, "is_reserved": 0, "name": "32e0cadb65dbaec01c7ba0751b76b20b", "lon": -77.0401375, "type": "electric_scooter", "bike_id": "32e0cadb65dbaec01c7ba0751b76b20b", "fusion_lon": 0.0, "lat": 38.920891833333336, "fusion_lat": 0.0}, {"is_disabled": 0, "rental_uris": {"android": "https://dc.lft.to/lastmile_qr_scan", "ios": "https://dc.lft.to/lastmile_qr_scan"}, "is_reserved": 0, "name": "1574f9b121fc9658f87b71975c7c0947", "lon": -77.042455, "type": "electric_scooter", "bike_id": "1574f9b121fc9658f87b71975c7c0947", "fusion_lon": 0.0, "lat": 38.91775333333333, "fusion_lat": 0.0}, {"is_disabled": 0, "rental_uris": {"android": "https://dc.lft.to/lastmile_qr_scan", "ios": "https://dc.lft.to/lastmile_qr_scan"}, "is_reserved": 0, "name": "683107e194ddab0f78b6a3ff444cd5d8", "lon": -77.00333283333333, "type": "electric_scooter", "bike_id": "683107e194ddab0f78b6a3ff444cd5d8", "fusion_lon": 0.0, "lat": 38.893549166666666, "fusion_lat": 0.0}, {"is_disabled": 0, "rental_uris": {"android": "https://dc.lft.to/lastmile_qr_scan", "ios": "https://dc.lft.to/lastmile_qr_scan"}, "is_reserved": 0, "name": "98ffd638efcc67c041f7e34d879c95f5", "lon": -77.0366175, "type": "electric_scooter", "bike_id": "98ffd638efcc67c041f7e34d879c95f5", "fusion_lon": 0.0, "lat": 38.92260516666666, "fusion_lat": 0.0}, {"is_disabled": 0, "rental_uris": {"android": "https://dc.lft.to/lastmile_qr_scan", "ios": "https://dc.lft.to/lastmile_qr_scan"}, "is_reserved": 0, "name": "d89c10d01dd02cd655d3c126218fb60c", "lon": -77.003379, "type": "electric_scooter", "bike_id": "d89c10d01dd02cd655d3c126218fb60c", "fusion_lon": 0.0, "lat": 38.904607166666665, "fusion_lat": 0.0}, {"is_disabled": 0, "rental_uris": {"android": "https://dc.lft.to/lastmile_qr_scan", "ios": "https://dc.lft.to/lastmile_qr_scan"}, "is_reserved": 0, "name": "ac1adf2f22809c9b8a2315ea261cec28", "lon": -77.03467766666667, "type": "electric_scooter", "bike_id": "ac1adf2f22809c9b8a2315ea261cec28", "fusion_lon": 0.0, "lat": 38.921550833333335, "fusion_lat": 0.0}, {"is_disabled": 0, "rental_uris": {"android": "https://dc.lft.to/lastmile_qr_scan", "ios": "https://dc.lft.to/lastmile_qr_scan"}, "is_reserved": 0, "name": "5b55f57bacf910a60a056d984127426c", "lon": -77.00748933333334, "type": "electric_scooter", "bike_id": "5b55f57bacf910a60a056d984127426c", "fusion_lon": 0.0, "lat": 38.900615, "fusion_lat": 0.0}, {"is_disabled": 0, "rental_uris": {"android": "https://dc.lft.to/lastmile_qr_scan", "ios": "https://dc.lft.to/lastmile_qr_scan"}, "is_reserved": 0, "name": "17d07b5779543a9698e9cb824ef6f817", "lon": -77.00383233333334, "type": "electric_scooter", "bike_id": "17d07b5779543a9698e9cb824ef6f817", "fusion_lon": 0.0, "lat": 38.87641983333333, "fusion_lat": 0.0}, {"is_disabled": 0, "rental_uris": {"android": "https://dc.lft.to/lastmile_qr_scan", "ios": "https://dc.lft.to/lastmile_qr_scan"}, "is_reserved": 0, "name": "b8ccef2b0209020304f2c4b682c51ccd", "lon": -77.02469816666667, "type": "electric_scooter", "bike_id": "b8ccef2b0209020304f2c4b682c51ccd", "fusion_lon": 0.0, "lat": 38.937752333333336, "fusion_lat": 0.0}, {"is_disabled": 0, "rental_uris": {"android": "https://dc.lft.to/lastmile_qr_scan", "ios": "https://dc.lft.to/lastmile_qr_scan"}, "is_reserved": 0, "name": "02f29bcaa212b9b0a73dfef5b3e2c1bf", "lon": -77.027925, "type": "electric_scooter", "bike_id": "02f29bcaa212b9b0a73dfef5b3e2c1bf", "fusion_lon": 0.0, "lat": 38.90399033333333, "fusion_lat": 0.0}, {"is_disabled": 0, "rental_uris": {"android": "https://dc.lft.to/lastmile_qr_scan", "ios": "https://dc.lft.to/lastmile_qr_scan"}, "is_reserved": 0, "name": "07ff4581ebab7c1dc062b22ae90c47a2", "lon": -77.046131, "type": "electric_scooter", "bike_id": "07ff4581ebab7c1dc062b22ae90c47a2", "fusion_lon": 0.0, "lat": 38.89969033333333, "fusion_lat": 0.0}, {"is_disabled": 0, "rental_uris": {"android": "https://dc.lft.to/lastmile_qr_scan", "ios": "https://dc.lft.to/lastmile_qr_scan"}, "is_reserved": 0, "name": "ba810511155b7d625e867fc5c1fbfae2", "lon": -76.9953705, "type": "electric_scooter", "bike_id": "ba810511155b7d625e867fc5c1fbfae2", "fusion_lon": 0.0, "lat": 38.86256066666667, "fusion_lat": 0.0}, {"is_disabled": 0, "rental_uris": {"android": "https://dc.lft.to/lastmile_qr_scan", "ios": "https://dc.lft.to/lastmile_qr_scan"}, "is_reserved": 0, "name": "37c46d00115a73c95749b3f10d29643a", "lon": -76.941161, "type": "electric_scooter", "bike_id": "37c46d00115a73c95749b3f10d29643a", "fusion_lon": 0.0, "lat": 38.907941, "fusion_lat": 0.0}, {"is_disabled": 0, "rental_uris": {"android": "https://dc.lft.to/lastmile_qr_scan", "ios": "https://dc.lft.to/lastmile_qr_scan"}, "is_reserved": 0, "name": "88911a2988b229c179e7ef63405d1ff4", "lon": -77.04170133333334, "type": "electric_scooter", "bike_id": "88911a2988b229c179e7ef63405d1ff4", "fusion_lon": 0.0, "lat": 38.908005, "fusion_lat": 0.0}, {"is_disabled": 0, "rental_uris": {"android": "https://dc.lft.to/lastmile_qr_scan", "ios": "https://dc.lft.to/lastmile_qr_scan"}, "is_reserved": 0, "name": "83b3cc2186f1720adb7e453023dbf298", "lon": -77.02708533333333, "type": "electric_scooter", "bike_id": "83b3cc2186f1720adb7e453023dbf298", "fusion_lon": 0.0, "lat": 38.919663166666666, "fusion_lat": 0.0}, {"is_disabled": 0, "rental_uris": {"android": "https://dc.lft.to/lastmile_qr_scan", "ios": "https://dc.lft.to/lastmile_qr_scan"}, "is_reserved": 0, "name": "83b0a022c089f79b8553a2d1ca679e42", "lon": -77.02410933333333, "type": "electric_scooter", "bike_id": "83b0a022c089f79b8553a2d1ca679e42", "fusion_lon": 0.0, "lat": 38.93704866666667, "fusion_lat": 0.0}, {"is_disabled": 0, "rental_uris": {"android": "https://dc.lft.to/lastmile_qr_scan", "ios": "https://dc.lft.to/lastmile_qr_scan"}, "is_reserved": 0, "name": "49d8f79182ebd8791708a958b8e1ff41", "lon": -77.0511105, "type": "electric_scooter", "bike_id": "49d8f79182ebd8791708a958b8e1ff41", "fusion_lon": 0.0, "lat": 38.92360516666667, "fusion_lat": 0.0}, {"is_disabled": 0, "rental_uris": {"android": "https://dc.lft.to/lastmile_qr_scan", "ios": "https://dc.lft.to/lastmile_qr_scan"}, "is_reserved": 0, "name": "ec5af83627975324d171af41abbd713e", "lon": -77.1623405, "type": "electric_bike", "bike_id": "ec5af83627975324d171af41abbd713e", "fusion_lon": 0.0, "lat": 38.886682, "fusion_lat": 0.0}, {"is_disabled": 0, "rental_uris": {"android": "https://dc.lft.to/lastmile_qr_scan", "ios": "https://dc.lft.to/lastmile_qr_scan"}, "is_reserved": 0, "name": "b4fbcb35b58a4db772b5fbb29188300a", "lon": -77.01419083333333, "type": "electric_scooter", "bike_id": "b4fbcb35b58a4db772b5fbb29188300a", "fusion_lon": 0.0, "lat": 38.928195, "fusion_lat": 0.0}, {"is_disabled": 0, "rental_uris": {"android": "https://dc.lft.to/lastmile_qr_scan", "ios": "https://dc.lft.to/lastmile_qr_scan"}, "is_reserved": 0, "name": "431968b46e820f6692c3d438c0f5ef4e", "lon": -77.0123325, "type": "electric_scooter", "bike_id": "431968b46e820f6692c3d438c0f5ef4e", "fusion_lon": 0.0, "lat": 38.874765333333336, "fusion_lat": 0.0}, {"is_disabled": 0, "rental_uris": {"android": "https://dc.lft.to/lastmile_qr_scan", "ios": "https://dc.lft.to/lastmile_qr_scan"}, "is_reserved": 0, "name": "da614ee6fc0659e74c51bb74ec79207e", "lon": -76.94060133333333, "type": "electric_scooter", "bike_id": "da614ee6fc0659e74c51bb74ec79207e", "fusion_lon": 0.0, "lat": 38.890305166666664, "fusion_lat": 0.0}, {"is_disabled": 0, "rental_uris": {"android": "https://dc.lft.to/lastmile_qr_scan", "ios": "https://dc.lft.to/lastmile_qr_scan"}, "is_reserved": 0, "name": "bb9be479f9548acffa9723665490e917", "lon": -77.00306283333333, "type": "electric_scooter", "bike_id": "bb9be479f9548acffa9723665490e917", "fusion_lon": 0.0, "lat": 38.892028333333336, "fusion_lat": 0.0}, {"is_disabled": 0, "rental_uris": {"android": "https://dc.lft.to/lastmile_qr_scan", "ios": "https://dc.lft.to/lastmile_qr_scan"}, "is_reserved": 0, "name": "90b8990af78658224bd7261c6a0ad716", "lon": -77.037199, "type": "electric_scooter", "bike_id": "90b8990af78658224bd7261c6a0ad716", "fusion_lon": 0.0, "lat": 38.911183666666666, "fusion_lat": 0.0}, {"is_disabled": 0, "rental_uris": {"android": "https://dc.lft.to/lastmile_qr_scan", "ios": "https://dc.lft.to/lastmile_qr_scan"}, "is_reserved": 0, "name": "156b91081dcaa8c1af742e3b18d28720", "lon": -77.0473475, "type": "electric_scooter", "bike_id": "156b91081dcaa8c1af742e3b18d28720", "fusion_lon": 0.0, "lat": 38.906020166666664, "fusion_lat": 0.0}, {"is_disabled": 0, "rental_uris": {"android": "https://dc.lft.to/lastmile_qr_scan", "ios": "https://dc.lft.to/lastmile_qr_scan"}, "is_reserved": 0, "name": "1a3dd429c80f0ee790ee5ae5f0750d7b", "lon": -77.01998233333333, "type": "electric_scooter", "bike_id": "1a3dd429c80f0ee790ee5ae5f0750d7b", "fusion_lon": 0.0, "lat": 38.8974415, "fusion_lat": 0.0}, {"is_disabled": 0, "rental_uris": {"android": "https://dc.lft.to/lastmile_qr_scan", "ios": "https://dc.lft.to/lastmile_qr_scan"}, "is_reserved": 0, "name": "3f3c7853dba445cb53f1ffcbc32f878b", "lon": -77.03035783333333, "type": "electric_scooter", "bike_id": "3f3c7853dba445cb53f1ffcbc32f878b", "fusion_lon": 0.0, "lat": 38.93462666666667, "fusion_lat": 0.0}, {"is_disabled": 0, "rental_uris": {"android": "https://dc.lft.to/lastmile_qr_scan", "ios": "https://dc.lft.to/lastmile_qr_scan"}, "is_reserved": 0, "name": "e48b6dba3d378b2054f42f7118a65242", "lon": -77.12580433333333, "type": "electric_bike", "bike_id": "e48b6dba3d378b2054f42f7118a65242", "fusion_lon": 0.0, "lat": 38.851457333333336, "fusion_lat": 0.0}, {"is_disabled": 0, "rental_uris": {"android": "https://dc.lft.to/lastmile_qr_scan", "ios": "https://dc.lft.to/lastmile_qr_scan"}, "is_reserved": 0, "name": "956854959ea87e37db73c8487d8f95d3", "lon": -76.932315, "type": "electric_bike", "bike_id": "956854959ea87e37db73c8487d8f95d3", "fusion_lon": 0.0, "lat": 38.865974666666666, "fusion_lat": 0.0}, {"is_disabled": 0, "rental_uris": {"android": "https://dc.lft.to/lastmile_qr_scan", "ios": "https://dc.lft.to/lastmile_qr_scan"}, "is_reserved": 0, "name": "412da6a1115fb3cc57a2ca1384b6fcdc", "lon": -76.9761635, "type": "electric_scooter", "bike_id": "412da6a1115fb3cc57a2ca1384b6fcdc", "fusion_lon": 0.0, "lat": 38.931451333333335, "fusion_lat": 0.0}, {"is_disabled": 0, "rental_uris": {"android": "https://dc.lft.to/lastmile_qr_scan", "ios": "https://dc.lft.to/lastmile_qr_scan"}, "is_reserved": 0, "name": "70c87613c6b4b96d63b602d68f9a31da", "lon": -77.00683366666667, "type": "electric_bike", "bike_id": "70c87613c6b4b96d63b602d68f9a31da", "fusion_lon": 0.0, "lat": 38.94499233333333, "fusion_lat": 0.0}, {"is_disabled": 0, "rental_uris": {"android": "https://dc.lft.to/lastmile_qr_scan", "ios": "https://dc.lft.to/lastmile_qr_scan"}, "is_reserved": 0, "name": "367b4ee20da5c25b5c50b0adb7d7da13", "lon": -76.9877535, "type": "electric_scooter", "bike_id": "367b4ee20da5c25b5c50b0adb7d7da13", "fusion_lon": 0.0, "lat": 38.9117645, "fusion_lat": 0.0}, {"is_disabled": 0, "rental_uris": {"android": "https://dc.lft.to/lastmile_qr_scan", "ios": "https://dc.lft.to/lastmile_qr_scan"}, "is_reserved": 0, "name": "c24b27d74103c13334db213e35cff233", "lon": -77.018489, "type": "electric_scooter", "bike_id": "c24b27d74103c13334db213e35cff233", "fusion_lon": 0.0, "lat": 38.92186933333333, "fusion_lat": 0.0}, {"is_disabled": 0, "rental_uris": {"android": "https://dc.lft.to/lastmile_qr_scan", "ios": "https://dc.lft.to/lastmile_qr_scan"}, "is_reserved": 0, "name": "be692de260582bdd5fdcd8817bb4b6b9", "lon": -77.031948, "type": "electric_scooter", "bike_id": "be692de260582bdd5fdcd8817bb4b6b9", "fusion_lon": 0.0, "lat": 38.917744166666665, "fusion_lat": 0.0}, {"is_disabled": 0, "rental_uris": {"android": "https://dc.lft.to/lastmile_qr_scan", "ios": "https://dc.lft.to/lastmile_qr_scan"}, "is_reserved": 0, "name": "8e3ba0502868df1dd28b3625ef2c234a", "lon": -77.03868566666667, "type": "electric_scooter", "bike_id": "8e3ba0502868df1dd28b3625ef2c234a", "fusion_lon": 0.0, "lat": 38.902817, "fusion_lat": 0.0}, {"is_disabled": 0, "rental_uris": {"android": "https://dc.lft.to/lastmile_qr_scan", "ios": "https://dc.lft.to/lastmile_qr_scan"}, "is_reserved": 0, "name": "c4ea51fa1c12079f26fde8455b5fb572", "lon": -77.04724966666667, "type": "electric_scooter", "bike_id": "c4ea51fa1c12079f26fde8455b5fb572", "fusion_lon": 0.0, "lat": 38.897400833333336, "fusion_lat": 0.0}, {"is_disabled": 0, "rental_uris": {"android": "https://dc.lft.to/lastmile_qr_scan", "ios": "https://dc.lft.to/lastmile_qr_scan"}, "is_reserved": 0, "name": "a609025319989dba7780e30340933024", "lon": -77.03411016666666, "type": "electric_scooter", "bike_id": "a609025319989dba7780e30340933024", "fusion_lon": 0.0, "lat": 38.9354455, "fusion_lat": 0.0}, {"is_disabled": 0, "rental_uris": {"android": "https://dc.lft.to/lastmile_qr_scan", "ios": "https://dc.lft.to/lastmile_qr_scan"}, "is_reserved": 0, "name": "b38ef8d838f85251f9282147d92f98fe", "lon": -76.9970565, "type": "electric_scooter", "bike_id": "b38ef8d838f85251f9282147d92f98fe", "fusion_lon": 0.0, "lat": 38.83867883333333, "fusion_lat": 0.0}, {"is_disabled": 0, "rental_uris": {"android": "https://dc.lft.to/lastmile_qr_scan", "ios": "https://dc.lft.to/lastmile_qr_scan"}, "is_reserved": 0, "name": "5ffefca431bf483dc49bfb1f940efb9d", "lon": -77.03783666666666, "type": "electric_scooter", "bike_id": "5ffefca431bf483dc49bfb1f940efb9d", "fusion_lon": 0.0, "lat": 38.93024716666667, "fusion_lat": 0.0}, {"is_disabled": 0, "rental_uris": {"android": "https://dc.lft.to/lastmile_qr_scan", "ios": "https://dc.lft.to/lastmile_qr_scan"}, "is_reserved": 0, "name": "f57b2927f6f469dd47d6fb51835ce3ee", "lon": -77.00204033333333, "type": "electric_bike", "bike_id": "f57b2927f6f469dd47d6fb51835ce3ee", "fusion_lon": 0.0, "lat": 38.81942333333333, "fusion_lat": 0.0}, {"is_disabled": 0, "rental_uris": {"android": "https://dc.lft.to/lastmile_qr_scan", "ios": "https://dc.lft.to/lastmile_qr_scan"}, "is_reserved": 0, "name": "33a0a449bbef3a711f6844fb955da77c", "lon": -77.067002, "type": "electric_scooter", "bike_id": "33a0a449bbef3a711f6844fb955da77c", "fusion_lon": 0.0, "lat": 38.955927, "fusion_lat": 0.0}, {"is_disabled": 0, "rental_uris": {"android": "https://dc.lft.to/lastmile_qr_scan", "ios": "https://dc.lft.to/lastmile_qr_scan"}, "is_reserved": 0, "name": "aee3fe9ee5f3e9f23a42475979109090", "lon": -76.988855, "type": "electric_scooter", "bike_id": "aee3fe9ee5f3e9f23a42475979109090", "fusion_lon": 0.0, "lat": 38.8667465, "fusion_lat": 0.0}, {"is_disabled": 0, "rental_uris": {"android": "https://dc.lft.to/lastmile_qr_scan", "ios": "https://dc.lft.to/lastmile_qr_scan"}, "is_reserved": 0, "name": "8feebc470c8c7fbd9dea0c4c5880e301", "lon": -76.92760266666667, "type": "electric_bike", "bike_id": "8feebc470c8c7fbd9dea0c4c5880e301", "fusion_lon": 0.0, "lat": 38.960369166666666, "fusion_lat": 0.0}, {"is_disabled": 0, "rental_uris": {"android": "https://dc.lft.to/lastmile_qr_scan", "ios": "https://dc.lft.to/lastmile_qr_scan"}, "is_reserved": 0, "name": "3297cd36f6a6175e03a19db5cb33e958", "lon": -77.02688583333334, "type": "electric_scooter", "bike_id": "3297cd36f6a6175e03a19db5cb33e958", "fusion_lon": 0.0, "lat": 38.895284333333336, "fusion_lat": 0.0}, {"is_disabled": 0, "rental_uris": {"android": "https://dc.lft.to/lastmile_qr_scan", "ios": "https://dc.lft.to/lastmile_qr_scan"}, "is_reserved": 0, "name": "6960793e834c12d93662594187bad3ef", "lon": -77.00407933333334, "type": "electric_scooter", "bike_id": "6960793e834c12d93662594187bad3ef", "fusion_lon": 0.0, "lat": 38.879609, "fusion_lat": 0.0}, {"is_disabled": 0, "rental_uris": {"android": "https://dc.lft.to/lastmile_qr_scan", "ios": "https://dc.lft.to/lastmile_qr_scan"}, "is_reserved": 0, "name": "c8c52db8e4d6ff7c48def42bea4f0bf5", "lon": -77.02114216666666, "type": "electric_scooter", "bike_id": "c8c52db8e4d6ff7c48def42bea4f0bf5", "fusion_lon": 0.0, "lat": 38.91739916666667, "fusion_lat": 0.0}, {"is_disabled": 0, "rental_uris": {"android": "https://dc.lft.to/lastmile_qr_scan", "ios": "https://dc.lft.to/lastmile_qr_scan"}, "is_reserved": 0, "name": "8830002d1b6d59227fef2767ef011cd3", "lon": -77.05220916666667, "type": "electric_scooter", "bike_id": "8830002d1b6d59227fef2767ef011cd3", "fusion_lon": 0.0, "lat": 38.8981235, "fusion_lat": 0.0}, {"is_disabled": 0, "rental_uris": {"android": "https://dc.lft.to/lastmile_qr_scan", "ios": "https://dc.lft.to/lastmile_qr_scan"}, "is_reserved": 0, "name": "c60e46a3ef81bdd5999718efdbd690b2", "lon": -77.06380366666667, "type": "electric_bike", "bike_id": "c60e46a3ef81bdd5999718efdbd690b2", "fusion_lon": 0.0, "lat": 39.017373, "fusion_lat": 0.0}, {"is_disabled": 0, "rental_uris": {"android": "https://dc.lft.to/lastmile_qr_scan", "ios": "https://dc.lft.to/lastmile_qr_scan"}, "is_reserved": 0, "name": "3eb530d29805a1c50b0d4fecd1ed2081", "lon": -76.960898, "type": "electric_bike", "bike_id": "3eb530d29805a1c50b0d4fecd1ed2081", "fusion_lon": 0.0, "lat": 38.91857133333333, "fusion_lat": 0.0}, {"is_disabled": 0, "rental_uris": {"android": "https://dc.lft.to/lastmile_qr_scan", "ios": "https://dc.lft.to/lastmile_qr_scan"}, "is_reserved": 0, "name": "b8b8505b6ee3efebfbbac4fc51f17b2e", "lon": -77.03324516666666, "type": "electric_scooter", "bike_id": "b8b8505b6ee3efebfbbac4fc51f17b2e", "fusion_lon": 0.0, "lat": 38.898282, "fusion_lat": 0.0}, {"is_disabled": 0, "rental_uris": {"android": "https://dc.lft.to/lastmile_qr_scan", "ios": "https://dc.lft.to/lastmile_qr_scan"}, "is_reserved": 0, "name": "5ce6f57c0613adc2ab1eb3e01d2df9f2", "lon": -77.02672316666667, "type": "electric_scooter", "bike_id": "5ce6f57c0613adc2ab1eb3e01d2df9f2", "fusion_lon": 0.0, "lat": 38.912706, "fusion_lat": 0.0}, {"is_disabled": 0, "rental_uris": {"android": "https://dc.lft.to/lastmile_qr_scan", "ios": "https://dc.lft.to/lastmile_qr_scan"}, "is_reserved": 0, "name": "46bb84c36a905b4d3f9f28975178e083", "lon": -77.00845883333334, "type": "electric_scooter", "bike_id": "46bb84c36a905b4d3f9f28975178e083", "fusion_lon": 0.0, "lat": 38.8850435, "fusion_lat": 0.0}, {"is_disabled": 0, "rental_uris": {"android": "https://dc.lft.to/lastmile_qr_scan", "ios": "https://dc.lft.to/lastmile_qr_scan"}, "is_reserved": 0, "name": "1e628f129f4bdf5a4f6a5d5646faf040", "lon": -77.0103555, "type": "electric_scooter", "bike_id": "1e628f129f4bdf5a4f6a5d5646faf040", "fusion_lon": 0.0, "lat": 38.86663516666667, "fusion_lat": 0.0}, {"is_disabled": 0, "rental_uris": {"android": "https://dc.lft.to/lastmile_qr_scan", "ios": "https://dc.lft.to/lastmile_qr_scan"}, "is_reserved": 0, "name": "2b098479b4b094796d77fd3f059905a0", "lon": -77.00754316666666, "type": "electric_bike", "bike_id": "2b098479b4b094796d77fd3f059905a0", "fusion_lon": 0.0, "lat": 38.90067716666667, "fusion_lat": 0.0}, {"is_disabled": 0, "rental_uris": {"android": "https://dc.lft.to/lastmile_qr_scan", "ios": "https://dc.lft.to/lastmile_qr_scan"}, "is_reserved": 0, "name": "dd19a25498d14b2549e27a9a3b30a71f", "lon": -77.02155833333333, "type": "electric_scooter", "bike_id": "dd19a25498d14b2549e27a9a3b30a71f", "fusion_lon": 0.0, "lat": 38.92606333333333, "fusion_lat": 0.0}, {"is_disabled": 0, "rental_uris": {"android": "https://dc.lft.to/lastmile_qr_scan", "ios": "https://dc.lft.to/lastmile_qr_scan"}, "is_reserved": 0, "name": "72adf9272704450206f1c84553dd04d6", "lon": -76.99879116666666, "type": "electric_scooter", "bike_id": "72adf9272704450206f1c84553dd04d6", "fusion_lon": 0.0, "lat": 38.88978933333333, "fusion_lat": 0.0}, {"is_disabled": 0, "rental_uris": {"android": "https://dc.lft.to/lastmile_qr_scan", "ios": "https://dc.lft.to/lastmile_qr_scan"}, "is_reserved": 0, "name": "32be9ed34248ab456d2bfb09ccd01ec1", "lon": -77.11237883333334, "type": "electric_bike", "bike_id": "32be9ed34248ab456d2bfb09ccd01ec1", "fusion_lon": 0.0, "lat": 38.812359666666666, "fusion_lat": 0.0}, {"is_disabled": 0, "rental_uris": {"android": "https://dc.lft.to/lastmile_qr_scan", "ios": "https://dc.lft.to/lastmile_qr_scan"}, "is_reserved": 0, "name": "ac4a22c5e2c6c29ff480fe89413da81a", "lon": -76.983747, "type": "electric_scooter", "bike_id": "ac4a22c5e2c6c29ff480fe89413da81a", "fusion_lon": 0.0, "lat": 38.90647666666667, "fusion_lat": 0.0}, {"is_disabled": 0, "rental_uris": {"android": "https://dc.lft.to/lastmile_qr_scan", "ios": "https://dc.lft.to/lastmile_qr_scan"}, "is_reserved": 0, "name": "c9f7ea7ffe5f4baac18480620ebd970d", "lon": -77.0402975, "type": "electric_scooter", "bike_id": "c9f7ea7ffe5f4baac18480620ebd970d", "fusion_lon": 0.0, "lat": 38.9179015, "fusion_lat": 0.0}, {"is_disabled": 0, "rental_uris": {"android": "https://dc.lft.to/lastmile_qr_scan", "ios": "https://dc.lft.to/lastmile_qr_scan"}, "is_reserved": 0, "name": "be0af2d0761d68b3a7edecbaf4c52488", "lon": -76.95194566666666, "type": "electric_bike", "bike_id": "be0af2d0761d68b3a7edecbaf4c52488", "fusion_lon": 0.0, "lat": 38.906885833333334, "fusion_lat": 0.0}, {"is_disabled": 0, "rental_uris": {"android": "https://dc.lft.to/lastmile_qr_scan", "ios": "https://dc.lft.to/lastmile_qr_scan"}, "is_reserved": 0, "name": "4637a958472d72a90dc1187ea900e788", "lon": -76.95018383333333, "type": "electric_scooter", "bike_id": "4637a958472d72a90dc1187ea900e788", "fusion_lon": 0.0, "lat": 38.8839725, "fusion_lat": 0.0}, {"is_disabled": 0, "rental_uris": {"android": "https://dc.lft.to/lastmile_qr_scan", "ios": "https://dc.lft.to/lastmile_qr_scan"}, "is_reserved": 0, "name": "e264f5419b25832ccdb109cbdd722e4f", "lon": -77.02455233333333, "type": "electric_scooter", "bike_id": "e264f5419b25832ccdb109cbdd722e4f", "fusion_lon": 0.0, "lat": 38.937225833333336, "fusion_lat": 0.0}, {"is_disabled": 0, "rental_uris": {"android": "https://dc.lft.to/lastmile_qr_scan", "ios": "https://dc.lft.to/lastmile_qr_scan"}, "is_reserved": 0, "name": "611e8064fe655c96d5a4a09295800ca9", "lon": -77.10182933333333, "type": "electric_bike", "bike_id": "611e8064fe655c96d5a4a09295800ca9", "fusion_lon": 0.0, "lat": 38.918131833333334, "fusion_lat": 0.0}, {"is_disabled": 0, "rental_uris": {"android": "https://dc.lft.to/lastmile_qr_scan", "ios": "https://dc.lft.to/lastmile_qr_scan"}, "is_reserved": 0, "name": "ced2274f985a8950d6ce1d5ca8cd5a12", "lon": -77.00569233333333, "type": "electric_scooter", "bike_id": "ced2274f985a8950d6ce1d5ca8cd5a12", "fusion_lon": 0.0, "lat": 38.8850545, "fusion_lat": 0.0}, {"is_disabled": 0, "rental_uris": {"android": "https://dc.lft.to/lastmile_qr_scan", "ios": "https://dc.lft.to/lastmile_qr_scan"}, "is_reserved": 0, "name": "16edb11b036e4c76e6b45c89426b4d7d", "lon": -77.0140405, "type": "electric_scooter", "bike_id": "16edb11b036e4c76e6b45c89426b4d7d", "fusion_lon": 0.0, "lat": 38.876639, "fusion_lat": 0.0}, {"is_disabled": 0, "rental_uris": {"android": "https://dc.lft.to/lastmile_qr_scan", "ios": "https://dc.lft.to/lastmile_qr_scan"}, "is_reserved": 0, "name": "2893f83027a61812b945415cf104e241", "lon": -77.03669633333334, "type": "electric_scooter", "bike_id": "2893f83027a61812b945415cf104e241", "fusion_lon": 0.0, "lat": 38.9028675, "fusion_lat": 0.0}, {"is_disabled": 0, "rental_uris": {"android": "https://dc.lft.to/lastmile_qr_scan", "ios": "https://dc.lft.to/lastmile_qr_scan"}, "is_reserved": 0, "name": "04fd31f3129f8c843f5619b45bac8179", "lon": -76.94953116666667, "type": "electric_bike", "bike_id": "04fd31f3129f8c843f5619b45bac8179", "fusion_lon": 0.0, "lat": 38.93507733333333, "fusion_lat": 0.0}, {"is_disabled": 0, "rental_uris": {"android": "https://dc.lft.to/lastmile_qr_scan", "ios": "https://dc.lft.to/lastmile_qr_scan"}, "is_reserved": 0, "name": "fd6735b1ad9de027aca76b3e375e42a8", "lon": -77.031897, "type": "electric_scooter", "bike_id": "fd6735b1ad9de027aca76b3e375e42a8", "fusion_lon": 0.0, "lat": 38.91917683333333, "fusion_lat": 0.0}, {"is_disabled": 0, "rental_uris": {"android": "https://dc.lft.to/lastmile_qr_scan", "ios": "https://dc.lft.to/lastmile_qr_scan"}, "is_reserved": 0, "name": "6aa92ffcfedbc2acf326851d95b98227", "lon": -77.01114116666666, "type": "electric_scooter", "bike_id": "6aa92ffcfedbc2acf326851d95b98227", "fusion_lon": 0.0, "lat": 38.90367766666667, "fusion_lat": 0.0}, {"is_disabled": 0, "rental_uris": {"android": "https://dc.lft.to/lastmile_qr_scan", "ios": "https://dc.lft.to/lastmile_qr_scan"}, "is_reserved": 0, "name": "be61b1738a53f0db0c2e0e32c2e47d8b", "lon": -76.99956516666667, "type": "electric_scooter", "bike_id": "be61b1738a53f0db0c2e0e32c2e47d8b", "fusion_lon": 0.0, "lat": 38.84288466666667, "fusion_lat": 0.0}, {"is_disabled": 0, "rental_uris": {"android": "https://dc.lft.to/lastmile_qr_scan", "ios": "https://dc.lft.to/lastmile_qr_scan"}, "is_reserved": 0, "name": "9a000486da1ccfd3365ae5c120c64453", "lon": -77.0161295, "type": "electric_scooter", "bike_id": "9a000486da1ccfd3365ae5c120c64453", "fusion_lon": 0.0, "lat": 38.87238966666666, "fusion_lat": 0.0}, {"is_disabled": 0, "rental_uris": {"android": "https://dc.lft.to/lastmile_qr_scan", "ios": "https://dc.lft.to/lastmile_qr_scan"}, "is_reserved": 0, "name": "5e524bf6786e3634176d51fbde597d4b", "lon": -77.03154116666667, "type": "electric_scooter", "bike_id": "5e524bf6786e3634176d51fbde597d4b", "fusion_lon": 0.0, "lat": 38.916301833333335, "fusion_lat": 0.0}, {"is_disabled": 0, "rental_uris": {"android": "https://dc.lft.to/lastmile_qr_scan", "ios": "https://dc.lft.to/lastmile_qr_scan"}, "is_reserved": 0, "name": "7de0c5b00c2d34c5a8f89b98f89a2875", "lon": -76.98966766666666, "type": "electric_scooter", "bike_id": "7de0c5b00c2d34c5a8f89b98f89a2875", "fusion_lon": 0.0, "lat": 38.9024885, "fusion_lat": 0.0}, {"is_disabled": 0, "rental_uris": {"android": "https://dc.lft.to/lastmile_qr_scan", "ios": "https://dc.lft.to/lastmile_qr_scan"}, "is_reserved": 0, "name": "027d267258388276cec46b6baeb3113c", "lon": -77.05003433333333, "type": "electric_scooter", "bike_id": "027d267258388276cec46b6baeb3113c", "fusion_lon": 0.0, "lat": 38.89230883333333, "fusion_lat": 0.0}, {"is_disabled": 0, "rental_uris": {"android": "https://dc.lft.to/lastmile_qr_scan", "ios": "https://dc.lft.to/lastmile_qr_scan"}, "is_reserved": 0, "name": "de4b06fd69d7fc6fa39dd8ceccb95633", "lon": -77.0195355, "type": "electric_scooter", "bike_id": "de4b06fd69d7fc6fa39dd8ceccb95633", "fusion_lon": 0.0, "lat": 38.9285395, "fusion_lat": 0.0}, {"is_disabled": 0, "rental_uris": {"android": "https://dc.lft.to/lastmile_qr_scan", "ios": "https://dc.lft.to/lastmile_qr_scan"}, "is_reserved": 0, "name": "3793efd96241e52f20bcef3ee559b804", "lon": -76.965616, "type": "electric_bike", "bike_id": "3793efd96241e52f20bcef3ee559b804", "fusion_lon": 0.0, "lat": 38.950904, "fusion_lat": 0.0}, {"is_disabled": 0, "rental_uris": {"android": "https://dc.lft.to/lastmile_qr_scan", "ios": "https://dc.lft.to/lastmile_qr_scan"}, "is_reserved": 0, "name": "afb353a112de33eaeb97ff77709e716e", "lon": -77.03851866666666, "type": "electric_scooter", "bike_id": "afb353a112de33eaeb97ff77709e716e", "fusion_lon": 0.0, "lat": 38.90278716666667, "fusion_lat": 0.0}, {"is_disabled": 0, "rental_uris": {"android": "https://dc.lft.to/lastmile_qr_scan", "ios": "https://dc.lft.to/lastmile_qr_scan"}, "is_reserved": 0, "name": "51c4f1606cc760f8eef19ec5e5470acc", "lon": -77.024167, "type": "electric_scooter", "bike_id": "51c4f1606cc760f8eef19ec5e5470acc", "fusion_lon": 0.0, "lat": 38.90964483333333, "fusion_lat": 0.0}, {"is_disabled": 0, "rental_uris": {"android": "https://dc.lft.to/lastmile_qr_scan", "ios": "https://dc.lft.to/lastmile_qr_scan"}, "is_reserved": 0, "name": "834143e34717ab39f357b435d6538bf9", "lon": -77.03232966666667, "type": "electric_scooter", "bike_id": "834143e34717ab39f357b435d6538bf9", "fusion_lon": 0.0, "lat": 38.9314275, "fusion_lat": 0.0}, {"is_disabled": 0, "rental_uris": {"android": "https://dc.lft.to/lastmile_qr_scan", "ios": "https://dc.lft.to/lastmile_qr_scan"}, "is_reserved": 0, "name": "3e752a477dd59521fe20c3628eeea16e", "lon": -77.04679633333333, "type": "electric_scooter", "bike_id": "3e752a477dd59521fe20c3628eeea16e", "fusion_lon": 0.0, "lat": 38.895094, "fusion_lat": 0.0}, {"is_disabled": 0, "rental_uris": {"android": "https://dc.lft.to/lastmile_qr_scan", "ios": "https://dc.lft.to/lastmile_qr_scan"}, "is_reserved": 0, "name": "f56d037e6c3a070da356ccb2b585d3d9", "lon": -77.04093266666666, "type": "electric_scooter", "bike_id": "f56d037e6c3a070da356ccb2b585d3d9", "fusion_lon": 0.0, "lat": 38.907910666666666, "fusion_lat": 0.0}, {"is_disabled": 0, "rental_uris": {"android": "https://dc.lft.to/lastmile_qr_scan", "ios": "https://dc.lft.to/lastmile_qr_scan"}, "is_reserved": 0, "name": "4a42fcbd3c3dc2b26d01d0d515737377", "lon": -76.9652925, "type": "electric_scooter", "bike_id": "4a42fcbd3c3dc2b26d01d0d515737377", "fusion_lon": 0.0, "lat": 38.876311333333334, "fusion_lat": 0.0}, {"is_disabled": 0, "rental_uris": {"android": "https://dc.lft.to/lastmile_qr_scan", "ios": "https://dc.lft.to/lastmile_qr_scan"}, "is_reserved": 0, "name": "a422a6e8a297ae3d0033326ee89553ac", "lon": -77.01891316666666, "type": "electric_scooter", "bike_id": "a422a6e8a297ae3d0033326ee89553ac", "fusion_lon": 0.0, "lat": 38.906409, "fusion_lat": 0.0}, {"is_disabled": 0, "rental_uris": {"android": "https://dc.lft.to/lastmile_qr_scan", "ios": "https://dc.lft.to/lastmile_qr_scan"}, "is_reserved": 0, "name": "e5f987e70c0bf476147b49dc5017adbc", "lon": -77.03787266666667, "type": "electric_scooter", "bike_id": "e5f987e70c0bf476147b49dc5017adbc", "fusion_lon": 0.0, "lat": 38.90959483333334, "fusion_lat": 0.0}, {"is_disabled": 0, "rental_uris": {"android": "https://dc.lft.to/lastmile_qr_scan", "ios": "https://dc.lft.to/lastmile_qr_scan"}, "is_reserved": 0, "name": "34c996774ffa374c6c1d2b95155fb837", "lon": -77.02812533333334, "type": "electric_bike", "bike_id": "34c996774ffa374c6c1d2b95155fb837", "fusion_lon": 0.0, "lat": 38.993847333333335, "fusion_lat": 0.0}, {"is_disabled": 0, "rental_uris": {"android": "https://dc.lft.to/lastmile_qr_scan", "ios": "https://dc.lft.to/lastmile_qr_scan"}, "is_reserved": 0, "name": "efab954ee2cb2be9f5ea58a4535d2f84", "lon": -77.03312, "type": "electric_scooter", "bike_id": "efab954ee2cb2be9f5ea58a4535d2f84", "fusion_lon": 0.0, "lat": 38.91812433333333, "fusion_lat": 0.0}, {"is_disabled": 0, "rental_uris": {"android": "https://dc.lft.to/lastmile_qr_scan", "ios": "https://dc.lft.to/lastmile_qr_scan"}, "is_reserved": 0, "name": "5a9e6c3acd3fa4af7e7abe582e565d00", "lon": -77.05050933333334, "type": "electric_scooter", "bike_id": "5a9e6c3acd3fa4af7e7abe582e565d00", "fusion_lon": 0.0, "lat": 38.916696, "fusion_lat": 0.0}, {"is_disabled": 0, "rental_uris": {"android": "https://dc.lft.to/lastmile_qr_scan", "ios": "https://dc.lft.to/lastmile_qr_scan"}, "is_reserved": 0, "name": "cb8836ca5b59431ff421aaa397b2f39f", "lon": -77.04108766666667, "type": "electric_scooter", "bike_id": "cb8836ca5b59431ff421aaa397b2f39f", "fusion_lon": 0.0, "lat": 38.899164666666664, "fusion_lat": 0.0}, {"is_disabled": 0, "rental_uris": {"android": "https://dc.lft.to/lastmile_qr_scan", "ios": "https://dc.lft.to/lastmile_qr_scan"}, "is_reserved": 0, "name": "e299684af9f97f451e935ef392a2186f", "lon": -76.94634566666667, "type": "electric_scooter", "bike_id": "e299684af9f97f451e935ef392a2186f", "fusion_lon": 0.0, "lat": 38.89846716666667, "fusion_lat": 0.0}, {"is_disabled": 0, "rental_uris": {"android": "https://dc.lft.to/lastmile_qr_scan", "ios": "https://dc.lft.to/lastmile_qr_scan"}, "is_reserved": 0, "name": "222f69110917cb0aaa5d7c764a368d16", "lon": -77.0269485, "type": "electric_scooter", "bike_id": "222f69110917cb0aaa5d7c764a368d16", "fusion_lon": 0.0, "lat": 38.936319166666664, "fusion_lat": 0.0}, {"is_disabled": 0, "rental_uris": {"android": "https://dc.lft.to/lastmile_qr_scan", "ios": "https://dc.lft.to/lastmile_qr_scan"}, "is_reserved": 0, "name": "1916e4a0273844e26c64d10076066451", "lon": -77.04997266666666, "type": "electric_scooter", "bike_id": "1916e4a0273844e26c64d10076066451", "fusion_lon": 0.0, "lat": 38.897308, "fusion_lat": 0.0}, {"is_disabled": 0, "rental_uris": {"android": "https://dc.lft.to/lastmile_qr_scan", "ios": "https://dc.lft.to/lastmile_qr_scan"}, "is_reserved": 0, "name": "0093fef027a3c8a89886a5693fec2816", "lon": -77.0442135, "type": "electric_scooter", "bike_id": "0093fef027a3c8a89886a5693fec2816", "fusion_lon": 0.0, "lat": 38.894063, "fusion_lat": 0.0}, {"is_disabled": 0, "rental_uris": {"android": "https://dc.lft.to/lastmile_qr_scan", "ios": "https://dc.lft.to/lastmile_qr_scan"}, "is_reserved": 0, "name": "87170424e8cec2ecb32bd3c24da59b52", "lon": -77.04371016666667, "type": "electric_scooter", "bike_id": "87170424e8cec2ecb32bd3c24da59b52", "fusion_lon": 0.0, "lat": 38.9048265, "fusion_lat": 0.0}, {"is_disabled": 0, "rental_uris": {"android": "https://dc.lft.to/lastmile_qr_scan", "ios": "https://dc.lft.to/lastmile_qr_scan"}, "is_reserved": 0, "name": "decca9bfa529d0b0d8b645807e0fdf9c", "lon": -77.03178283333334, "type": "electric_scooter", "bike_id": "decca9bfa529d0b0d8b645807e0fdf9c", "fusion_lon": 0.0, "lat": 38.89353833333333, "fusion_lat": 0.0}, {"is_disabled": 0, "rental_uris": {"android": "https://dc.lft.to/lastmile_qr_scan", "ios": "https://dc.lft.to/lastmile_qr_scan"}, "is_reserved": 0, "name": "c6540d76e9981b9b85a8efe591d82bc8", "lon": -77.04704383333333, "type": "electric_scooter", "bike_id": "c6540d76e9981b9b85a8efe591d82bc8", "fusion_lon": 0.0, "lat": 38.905953, "fusion_lat": 0.0}, {"is_disabled": 0, "rental_uris": {"android": "https://dc.lft.to/lastmile_qr_scan", "ios": "https://dc.lft.to/lastmile_qr_scan"}, "is_reserved": 0, "name": "a3a1fc80f8364caa86b4b2db973bbe35", "lon": -77.05000566666666, "type": "electric_bike", "bike_id": "a3a1fc80f8364caa86b4b2db973bbe35", "fusion_lon": 0.0, "lat": 38.90131183333333, "fusion_lat": 0.0}, {"is_disabled": 0, "rental_uris": {"android": "https://dc.lft.to/lastmile_qr_scan", "ios": "https://dc.lft.to/lastmile_qr_scan"}, "is_reserved": 0, "name": "a9b9ee9257f27205e879238349be5bd6", "lon": -77.03828583333333, "type": "electric_scooter", "bike_id": "a9b9ee9257f27205e879238349be5bd6", "fusion_lon": 0.0, "lat": 38.91119966666667, "fusion_lat": 0.0}, {"is_disabled": 0, "rental_uris": {"android": "https://dc.lft.to/lastmile_qr_scan", "ios": "https://dc.lft.to/lastmile_qr_scan"},