{"data": {"bikes": [{"name": "556d3c2f3e77bb141bcc4b3f91912304", "fusion_lat": 0.0, "type": "electric_scooter", "lat": 38.93968916666667, "is_reserved": 0, "is_disabled": 0, "fusion_lon": 0.0, "bike_id": "556d3c2f3e77bb141bcc4b3f91912304", "lon": -77.032802, "rental_uris": {"ios": "https://dc.lft.to/lastmile_qr_scan", "android": "https://dc.lft.to/lastmile_qr_scan"}}, {"name": "16bae869b5203a8715c02cfad4bf4179", "fusion_lat": 0.0, "type": "electric_bike", "lat": 38.973335666666664, "is_reserved": 0, "is_disabled": 0, "fusion_lon": 0.0, "bike_id": "16bae869b5203a8715c02cfad4bf4179", "lon": -77.02144416666667, "rental_uris": {"ios": "https://dc.lft.to/lastmile_qr_scan", "android": "https://dc.lft.to/lastmile_qr_scan"}}, {"name": "0abbd7d98126aed9d47f2c89da64a2e5", "fusion_lat": 0.0, "type": "electric_scooter", "lat": 38.90335433333333, "is_reserved": 0, "is_disabled": 0, "fusion_lon": 0.0, "bike_id": "0abbd7d98126aed9d47f2c89da64a2e5", "lon": -77.03841033333333, "rental_uris": {"ios": "https://dc.lft.to/lastmile_qr_scan", "android": "https://dc.lft.to/lastmile_qr_scan"}}, {"name": "703d4e5d6b6d2201ba70860eaed9b68e", "fusion_lat": 0.0, "type": "electric_scooter", "lat": 38.901445333333335, "is_reserved": 0, "is_disabled": 0, "fusion_lon": 0.0, "bike_id": "703d4e5d6b6d2201ba70860eaed9b68e", "lon": -77.00044583333333, "rental_uris": {"ios": "https://dc.lft.to/lastmile_qr_scan", "android": "https://dc.lft.to/lastmile_qr_scan"}}, {"name": "0781dc670bb4fbc48dcf2a861280c608", "fusion_lat": 0.0, "type": "electric_scooter", "lat": 38.90389783333333, "is_reserved": 0, "is_disabled": 0, "fusion_lon": 0.0, "bike_id": "0781dc670bb4fbc48dcf2a861280c608", "lon": -77.04503166666667, "rental_uris": {"ios": "https://dc.lft.to/lastmile_qr_scan", "android": "https://dc.lft.to/lastmile_qr_scan"}}, {"name": "5a5d4003fc6b2ea981f5b31e8d75fab1", "fusion_lat": 0.0, "type": "electric_scooter", "lat": 38.918079666666664, "is_reserved": 0, "is_disabled": 0, "fusion_lon": 0.0, "bike_id": "5a5d4003fc6b2ea981f5b31e8d75fab1", "lon": -77.02809033333334, "rental_uris": {"ios": "https://dc.lft.to/lastmile_qr_scan", "android": "https://dc.lft.to/lastmile_qr_scan"}}, {"name": "f31b527e614da09bd2df20cb35d25834", "fusion_lat": 0.0, "type": "electric_bike", "lat": 38.903658, "is_reserved": 0, "is_disabled": 0, "fusion_lon": 0.0, "bike_id": "f31b527e614da09bd2df20cb35d25834", "lon": -76.9809615, "rental_uris": {"ios": "https://dc.lft.to/lastmile_qr_scan", "android": "https://dc.lft.to/lastmile_qr_scan"}}, {"name": "d290120999b3e1d6d9eca1d8f273b8a4", "fusion_lat": 0.0, "type": "electric_scooter", "lat": 38.92215233333334, "is_reserved": 0, "is_disabled": 0, "fusion_lon": 0.0, "bike_id": "d290120999b3e1d6d9eca1d8f273b8a4", "lon": -77.04238683333334, "rental_uris": {"ios": "https://dc.lft.to/lastmile_qr_scan", "android": "https://dc.lft.to/lastmile_qr_scan"}}, {"name": "08c0aff133df6a9d69654d4b3c891f40", "fusion_lat": 0.0, "type": "electric_scooter", "lat": 38.889343, "is_reserved": 0, "is_disabled": 0, "fusion_lon": 0.0, "bike_id": "08c0aff133df6a9d69654d4b3c891f40", "lon": -76.94778233333334, "rental_uris": {"ios": "https://dc.lft.to/lastmile_qr_scan", "android": "https://dc.lft.to/lastmile_qr_scan"}}, {"name": "ba1073c2f90ab7af15f5b7f278c1baee", "fusion_lat": 0.0, "type": "electric_scooter", "lat": 38.8849735, "is_reserved": 0, "is_disabled": 0, "fusion_lon": 0.0, "bike_id": "ba1073c2f90ab7af15f5b7f278c1baee", "lon": -77.00710433333333, "rental_uris": {"ios": "https://dc.lft.to/lastmile_qr_scan", "android": "https://dc.lft.to/lastmile_qr_scan"}}, {"name": "924f04e67e89ccd3ba231dfae6b26a20", "fusion_lat": 0.0, "type": "electric_bike", "lat": 38.8386685, "is_reserved": 0, "is_disabled": 0, "fusion_lon": 0.0, "bike_id": "924f04e67e89ccd3ba231dfae6b26a20", "lon": -77.08865416666667, "rental_uris": {"ios": "https://dc.lft.to/lastmile_qr_scan", "android": "https://dc.lft.to/lastmile_qr_scan"}}, {"name": "2d08e93031624d6c4443d5fd7aa958fa", "fusion_lat": 0.0, "type": "electric_scooter", "lat": 38.930882833333335, "is_reserved": 0, "is_disabled": 0, "fusion_lon": 0.0, "bike_id": "2d08e93031624d6c4443d5fd7aa958fa", "lon": -77.02397683333334, "rental_uris": {"ios": "https://dc.lft.to/lastmile_qr_scan", "android": "https://dc.lft.to/lastmile_qr_scan"}}, {"name": "ffb995dba750a206779fccd9aeae4dcc", "fusion_lat": 0.0, "type": "electric_scooter", "lat": 38.90645383333333, "is_reserved": 0, "is_disabled": 0, "fusion_lon": 0.0, "bike_id": "ffb995dba750a206779fccd9aeae4dcc", "lon": -77.03144483333334, "rental_uris": {"ios": "https://dc.lft.to/lastmile_qr_scan", "android": "https://dc.lft.to/lastmile_qr_scan"}}, {"name": "46d5942d1f4f18f8f9a2ad881dc6fd20", "fusion_lat": 0.0, "type": "electric_bike", "lat": 38.92856883333333, "is_reserved": 0, "is_disabled": 0, "fusion_lon": 0.0, "bike_id": "46d5942d1f4f18f8f9a2ad881dc6fd20", "lon": -77.0205845, "rental_uris": {"ios": "https://dc.lft.to/lastmile_qr_scan", "android": "https://dc.lft.to/lastmile_qr_scan"}}, {"name": "43aab5a2b133343f18552f6375e9126a", "fusion_lat": 0.0, "type": "electric_scooter", "lat": 38.91567116666667, "is_reserved": 0, "is_disabled": 0, "fusion_lon": 0.0, "bike_id": "43aab5a2b133343f18552f6375e9126a", "lon": -77.03836466666667, "rental_uris": {"ios": "https://dc.lft.to/lastmile_qr_scan", "android": "https://dc.lft.to/lastmile_qr_scan"}}, {"name": "b975464d88cd579e53c183873baba8f3", "fusion_lat": 0.0, "type": "electric_scooter", "lat": 38.901196, "is_reserved": 0, "is_disabled": 0, "fusion_lon": 0.0, "bike_id": "b975464d88cd579e53c183873baba8f3", "lon": -77.03202283333333, "rental_uris": {"ios": "https://dc.lft.to/lastmile_qr_scan", "android": "https://dc.lft.to/lastmile_qr_scan"}}, {"name": "e4364eb8dd67b7eec8b674476ee97fd4", "fusion_lat": 0.0, "type": "electric_scooter", "lat": 38.9084345, "is_reserved": 0, "is_disabled": 0, "fusion_lon": 0.0, "bike_id": "e4364eb8dd67b7eec8b674476ee97fd4", "lon": -76.997014, "rental_uris": {"ios": "https://dc.lft.to/lastmile_qr_scan", "android": "https://dc.lft.to/lastmile_qr_scan"}}, {"name": "807d2098620cdbeffb6b715284fd1611", "fusion_lat": 0.0, "type": "electric_scooter", "lat": 38.90042116666667, "is_reserved": 0, "is_disabled": 0, "fusion_lon": 0.0, "bike_id": "807d2098620cdbeffb6b715284fd1611", "lon": -77.00905383333334, "rental_uris": {"ios": "https://dc.lft.to/lastmile_qr_scan", "android": "https://dc.lft.to/lastmile_qr_scan"}}, {"name": "ab54ef53038754d75ea3756b2b76bafa", "fusion_lat": 0.0, "type": "electric_scooter", "lat": 38.89007333333333, "is_reserved": 0, "is_disabled": 0, "fusion_lon": 0.0, "bike_id": "ab54ef53038754d75ea3756b2b76bafa", "lon": -76.93742216666666, "rental_uris": {"ios": "https://dc.lft.to/lastmile_qr_scan", "android": "https://dc.lft.to/lastmile_qr_scan"}}, {"name": "e7b72cd7c695a640f4ceb1d85d59eb75", "fusion_lat": 0.0, "type": "electric_scooter", "lat": 38.90281866666667, "is_reserved": 0, "is_disabled": 0, "fusion_lon": 0.0, "bike_id": "e7b72cd7c695a640f4ceb1d85d59eb75", "lon": -77.04515033333334, "rental_uris": {"ios": "https://dc.lft.to/lastmile_qr_scan", "android": "https://dc.lft.to/lastmile_qr_scan"}}, {"name": "fa58f98f5592074463be27a1f665d813", "fusion_lat": 0.0, "type": "electric_scooter", "lat": 38.900377166666665, "is_reserved": 0, "is_disabled": 0, "fusion_lon": 0.0, "bike_id": "fa58f98f5592074463be27a1f665d813", "lon": -77.04020716666666, "rental_uris": {"ios": "https://dc.lft.to/lastmile_qr_scan", "android": "https://dc.lft.to/lastmile_qr_scan"}}, {"name": "9b4dd57754f119de38974068de40f87d", "fusion_lat": 0.0, "type": "electric_scooter", "lat": 38.9032785, "is_reserved": 0, "is_disabled": 0, "fusion_lon": 0.0, "bike_id": "9b4dd57754f119de38974068de40f87d", "lon": -77.0343975, "rental_uris": {"ios": "https://dc.lft.to/lastmile_qr_scan", "android": "https://dc.lft.to/lastmile_qr_scan"}}, {"name": "ef03e6720dc4e1635bc385ae2bd907a3", "fusion_lat": 0.0, "type": "electric_scooter", "lat": 38.93095266666667, "is_reserved": 0, "is_disabled": 0, "fusion_lon": 0.0, "bike_id": "ef03e6720dc4e1635bc385ae2bd907a3", "lon": -77.02492666666667, "rental_uris": {"ios": "https://dc.lft.to/lastmile_qr_scan", "android": "https://dc.lft.to/lastmile_qr_scan"}}, {"name": "ba1bb840582b5420ba69e2c569418707", "fusion_lat": 0.0, "type": "electric_scooter", "lat": 38.9116285, "is_reserved": 0, "is_disabled": 0, "fusion_lon": 0.0, "bike_id": "ba1bb840582b5420ba69e2c569418707", "lon": -77.038586, "rental_uris": {"ios": "https://dc.lft.to/lastmile_qr_scan", "android": "https://dc.lft.to/lastmile_qr_scan"}}, {"name": "be68c1312f62199563fecfc3374e8e3a", "fusion_lat": 0.0, "type": "electric_scooter", "lat": 38.9142155, "is_reserved": 0, "is_disabled": 0, "fusion_lon": 0.0, "bike_id": "be68c1312f62199563fecfc3374e8e3a", "lon": -77.0280035, "rental_uris": {"ios": "https://dc.lft.to/lastmile_qr_scan", "android": "https://dc.lft.to/lastmile_qr_scan"}}, {"name": "8f755a8e10c1b9c9a615b699284cab86", "fusion_lat": 0.0, "type": "electric_scooter", "lat": 38.94737766666667, "is_reserved": 0, "is_disabled": 0, "fusion_lon": 0.0, "bike_id": "8f755a8e10c1b9c9a615b699284cab86", "lon": -77.00001283333333, "rental_uris": {"ios": "https://dc.lft.to/lastmile_qr_scan", "android": "https://dc.lft.to/lastmile_qr_scan"}}, {"name": "937b50c32193695045044295a54b2103", "fusion_lat": 0.0, "type": "electric_scooter", "lat": 38.882236, "is_reserved": 0, "is_disabled": 0, "fusion_lon": 0.0, "bike_id": "937b50c32193695045044295a54b2103", "lon": -76.94175266666667, "rental_uris": {"ios": "https://dc.lft.to/lastmile_qr_scan", "android": "https://dc.lft.to/lastmile_qr_scan"}}, {"name": "964193f11a82e364287e72a3807abeff", "fusion_lat": 0.0, "type": "electric_scooter", "lat": 38.898881833333334, "is_reserved": 0, "is_disabled": 0, "fusion_lon": 0.0, "bike_id": "964193f11a82e364287e72a3807abeff", "lon": -77.009081, "rental_uris": {"ios": "https://dc.lft.to/lastmile_qr_scan", "android": "https://dc.lft.to/lastmile_qr_scan"}}, {"name": "9b97818663aefd2013c797d2d4db4df9", "fusion_lat": 0.0, "type": "electric_scooter", "lat": 38.9034375, "is_reserved": 0, "is_disabled": 0, "fusion_lon": 0.0, "bike_id": "9b97818663aefd2013c797d2d4db4df9", "lon": -76.98967583333334, "rental_uris": {"ios": "https://dc.lft.to/lastmile_qr_scan", "android": "https://dc.lft.to/lastmile_qr_scan"}}, {"name": "7a9f0aa6d5cddab9cae6f72816da1d1a", "fusion_lat": 0.0, "type": "electric_scooter", "lat": 38.905450333333334, "is_reserved": 0, "is_disabled": 0, "fusion_lon": 0.0, "bike_id": "7a9f0aa6d5cddab9cae6f72816da1d1a", "lon": -77.05011516666667, "rental_uris": {"ios": "https://dc.lft.to/lastmile_qr_scan", "android": "https://dc.lft.to/lastmile_qr_scan"}}, {"name": "40f6fa3cc8ef4fe1fd615dd7a21aab84", "fusion_lat": 0.0, "type": "electric_scooter", "lat": 38.9038555, "is_reserved": 0, "is_disabled": 0, "fusion_lon": 0.0, "bike_id": "40f6fa3cc8ef4fe1fd615dd7a21aab84", "lon": -77.04490266666667, "rental_uris": {"ios": "https://dc.lft.to/lastmile_qr_scan", "android": "https://dc.lft.to/lastmile_qr_scan"}}, {"name": "68229e106ba7710ea784a30fcf26fbf9", "fusion_lat": 0.0, "type": "electric_scooter", "lat": 38.926118333333335, "is_reserved": 0, "is_disabled": 0, "fusion_lon": 0.0, "bike_id": "68229e106ba7710ea784a30fcf26fbf9", "lon": -77.02156366666667, "rental_uris": {"ios": "https://dc.lft.to/lastmile_qr_scan", "android": "https://dc.lft.to/lastmile_qr_scan"}}, {"name": "ea893c353d195e192f3a55dd455ac8f9", "fusion_lat": 0.0, "type": "electric_scooter", "lat": 38.92934366666667, "is_reserved": 0, "is_disabled": 0, "fusion_lon": 0.0, "bike_id": "ea893c353d195e192f3a55dd455ac8f9", "lon": -77.02331633333333, "rental_uris": {"ios": "https://dc.lft.to/lastmile_qr_scan", "android": "https://dc.lft.to/lastmile_qr_scan"}}, {"name": "320b7ebaf836857c82b98d657b9c2b17", "fusion_lat": 0.0, "type": "electric_scooter", "lat": 38.9163695, "is_reserved": 0, "is_disabled": 0, "fusion_lon": 0.0, "bike_id": "320b7ebaf836857c82b98d657b9c2b17", "lon": -77.03592283333333, "rental_uris": {"ios": "https://dc.lft.to/lastmile_qr_scan", "android": "https://dc.lft.to/lastmile_qr_scan"}}, {"name": "d0f98302afbb899931acba1c6c98c35c", "fusion_lat": 0.0, "type": "electric_scooter", "lat": 38.92485666666666, "is_reserved": 0, "is_disabled": 0, "fusion_lon": 0.0, "bike_id": "d0f98302afbb899931acba1c6c98c35c", "lon": -77.03058316666667, "rental_uris": {"ios": "https://dc.lft.to/lastmile_qr_scan", "android": "https://dc.lft.to/lastmile_qr_scan"}}, {"name": "dfc6632d49c07d69cd2018ec61a6321d", "fusion_lat": 0.0, "type": "electric_scooter", "lat": 38.897204, "is_reserved": 0, "is_disabled": 0, "fusion_lon": 0.0, "bike_id": "dfc6632d49c07d69cd2018ec61a6321d", "lon": -77.02181433333334, "rental_uris": {"ios": "https://dc.lft.to/lastmile_qr_scan", "android": "https://dc.lft.to/lastmile_qr_scan"}}, {"name": "586b7e6ab8f0d371bec93bd9ff0caa18", "fusion_lat": 0.0, "type": "electric_scooter", "lat": 38.91133133333334, "is_reserved": 0, "is_disabled": 0, "fusion_lon": 0.0, "bike_id": "586b7e6ab8f0d371bec93bd9ff0caa18", "lon": -77.03183383333334, "rental_uris": {"ios": "https://dc.lft.to/lastmile_qr_scan", "android": "https://dc.lft.to/lastmile_qr_scan"}}, {"name": "3d223ee4357de07d9b998d06051b1d86", "fusion_lat": 0.0, "type": "electric_scooter", "lat": 38.909887166666664, "is_reserved": 0, "is_disabled": 0, "fusion_lon": 0.0, "bike_id": "3d223ee4357de07d9b998d06051b1d86", "lon": -77.03417183333333, "rental_uris": {"ios": "https://dc.lft.to/lastmile_qr_scan", "android": "https://dc.lft.to/lastmile_qr_scan"}}, {"name": "950031ad6c5b94b17107383c94635780", "fusion_lat": 0.0, "type": "electric_scooter", "lat": 38.923230333333336, "is_reserved": 0, "is_disabled": 0, "fusion_lon": 0.0, "bike_id": "950031ad6c5b94b17107383c94635780", "lon": -77.0451125, "rental_uris": {"ios": "https://dc.lft.to/lastmile_qr_scan", "android": "https://dc.lft.to/lastmile_qr_scan"}}, {"name": "f6ff19cd5fb0e096e7d0379c622bcc4a", "fusion_lat": 0.0, "type": "electric_scooter", "lat": 38.88750533333334, "is_reserved": 0, "is_disabled": 0, "fusion_lon": 0.0, "bike_id": "f6ff19cd5fb0e096e7d0379c622bcc4a", "lon": -77.02572583333334, "rental_uris": {"ios": "https://dc.lft.to/lastmile_qr_scan", "android": "https://dc.lft.to/lastmile_qr_scan"}}, {"name": "3391e8986a954665659431eed7d225dc", "fusion_lat": 0.0, "type": "electric_scooter", "lat": 38.919932, "is_reserved": 0, "is_disabled": 0, "fusion_lon": 0.0, "bike_id": "3391e8986a954665659431eed7d225dc", "lon": -77.02182083333334, "rental_uris": {"ios": "https://dc.lft.to/lastmile_qr_scan", "android": "https://dc.lft.to/lastmile_qr_scan"}}, {"name": "4739006760992704881e0f9830b06ad4", "fusion_lat": 0.0, "type": "electric_scooter", "lat": 38.961186166666664, "is_reserved": 0, "is_disabled": 0, "fusion_lon": 0.0, "bike_id": "4739006760992704881e0f9830b06ad4", "lon": -77.028096, "rental_uris": {"ios": "https://dc.lft.to/lastmile_qr_scan", "android": "https://dc.lft.to/lastmile_qr_scan"}}, {"name": "8e2d568cceeef9d4b2d8e0568ed712b7", "fusion_lat": 0.0, "type": "electric_scooter", "lat": 38.91192733333333, "is_reserved": 0, "is_disabled": 0, "fusion_lon": 0.0, "bike_id": "8e2d568cceeef9d4b2d8e0568ed712b7", "lon": -76.99618916666667, "rental_uris": {"ios": "https://dc.lft.to/lastmile_qr_scan", "android": "https://dc.lft.to/lastmile_qr_scan"}}, {"name": "c7f4cc98075ceee2bcccaf95dfa4fced", "fusion_lat": 0.0, "type": "electric_scooter", "lat": 38.898399166666664, "is_reserved": 0, "is_disabled": 0, "fusion_lon": 0.0, "bike_id": "c7f4cc98075ceee2bcccaf95dfa4fced", "lon": -76.9463905, "rental_uris": {"ios": "https://dc.lft.to/lastmile_qr_scan", "android": "https://dc.lft.to/lastmile_qr_scan"}}, {"name": "e19aa2fe129bfa27b84784172872a4b2", "fusion_lat": 0.0, "type": "electric_scooter", "lat": 38.916097, "is_reserved": 0, "is_disabled": 0, "fusion_lon": 0.0, "bike_id": "e19aa2fe129bfa27b84784172872a4b2", "lon": -77.023102, "rental_uris": {"ios": "https://dc.lft.to/lastmile_qr_scan", "android": "https://dc.lft.to/lastmile_qr_scan"}}, {"name": "469034136b888f16cae54b6153ff131c", "fusion_lat": 0.0, "type": "electric_bike", "lat": 38.8399085, "is_reserved": 0, "is_disabled": 0, "fusion_lon": 0.0, "bike_id": "469034136b888f16cae54b6153ff131c", "lon": -77.00567333333333, "rental_uris": {"ios": "https://dc.lft.to/lastmile_qr_scan", "android": "https://dc.lft.to/lastmile_qr_scan"}}, {"name": "e54d1d4cda97d2fc82b54b0e0a792ef3", "fusion_lat": 0.0, "type": "electric_scooter", "lat": 38.929942833333335, "is_reserved": 0, "is_disabled": 0, "fusion_lon": 0.0, "bike_id": "e54d1d4cda97d2fc82b54b0e0a792ef3", "lon": -77.01461383333333, "rental_uris": {"ios": "https://dc.lft.to/lastmile_qr_scan", "android": "https://dc.lft.to/lastmile_qr_scan"}}, {"name": "a69c5f2226b1d6142c98f5567a55a6f1", "fusion_lat": 0.0, "type": "electric_bike", "lat": 38.862811666666666, "is_reserved": 0, "is_disabled": 0, "fusion_lon": 0.0, "bike_id": "a69c5f2226b1d6142c98f5567a55a6f1", "lon": -77.0596915, "rental_uris": {"ios": "https://dc.lft.to/lastmile_qr_scan", "android": "https://dc.lft.to/lastmile_qr_scan"}}, {"name": "3dcc8cdfcee72d0eeef35e4ae5a9df0b", "fusion_lat": 0.0, "type": "electric_scooter", "lat": 38.91568683333333, "is_reserved": 0, "is_disabled": 0, "fusion_lon": 0.0, "bike_id": "3dcc8cdfcee72d0eeef35e4ae5a9df0b", "lon": -77.0383815, "rental_uris": {"ios": "https://dc.lft.to/lastmile_qr_scan", "android": "https://dc.lft.to/lastmile_qr_scan"}}, {"name": "9d4e8785752dda4e331d6faee2f20b41", "fusion_lat": 0.0, "type": "electric_scooter", "lat": 38.866604, "is_reserved": 0, "is_disabled": 0, "fusion_lon": 0.0, "bike_id": "9d4e8785752dda4e331d6faee2f20b41", "lon": -76.99011183333333, "rental_uris": {"ios": "https://dc.lft.to/lastmile_qr_scan", "android": "https://dc.lft.to/lastmile_qr_scan"}}, {"name": "5b37edfe89d89d58e8dadccf7f114e89", "fusion_lat": 0.0, "type": "electric_scooter", "lat": 38.930652333333335, "is_reserved": 0, "is_disabled": 0, "fusion_lon": 0.0, "bike_id": "5b37edfe89d89d58e8dadccf7f114e89", "lon": -77.02951566666667, "rental_uris": {"ios": "https://dc.lft.to/lastmile_qr_scan", "android": "https://dc.lft.to/lastmile_qr_scan"}}, {"name": "22c6692ee94160738f2462d7d7ea5c95", "fusion_lat": 0.0, "type": "electric_scooter", "lat": 38.887179333333336, "is_reserved": 0, "is_disabled": 0, "fusion_lon": 0.0, "bike_id": "22c6692ee94160738f2462d7d7ea5c95", "lon": -76.996127, "rental_uris": {"ios": "https://dc.lft.to/lastmile_qr_scan", "android": "https://dc.lft.to/lastmile_qr_scan"}}, {"name": "46d193326e1fef1dfd754b3498cc0719", "fusion_lat": 0.0, "type": "electric_scooter", "lat": 38.89221933333334, "is_reserved": 0, "is_disabled": 0, "fusion_lon": 0.0, "bike_id": "46d193326e1fef1dfd754b3498cc0719", "lon": -77.02229033333333, "rental_uris": {"ios": "https://dc.lft.to/lastmile_qr_scan", "android": "https://dc.lft.to/lastmile_qr_scan"}}, {"name": "3868141e019f626c0cfa0a3c40d7410e", "fusion_lat": 0.0, "type": "electric_scooter", "lat": 38.93778266666666, "is_reserved": 0, "is_disabled": 0, "fusion_lon": 0.0, "bike_id": "3868141e019f626c0cfa0a3c40d7410e", "lon": -77.0244175, "rental_uris": {"ios": "https://dc.lft.to/lastmile_qr_scan", "android": "https://dc.lft.to/lastmile_qr_scan"}}, {"name": "6edffcf41d2bd45c37fd26708c339316", "fusion_lat": 0.0, "type": "electric_scooter", "lat": 38.912508333333335, "is_reserved": 0, "is_disabled": 0, "fusion_lon": 0.0, "bike_id": "6edffcf41d2bd45c37fd26708c339316", "lon": -77.03836916666667, "rental_uris": {"ios": "https://dc.lft.to/lastmile_qr_scan", "android": "https://dc.lft.to/lastmile_qr_scan"}}, {"name": "13839f38fd20f66a0b004045347ab9cc", "fusion_lat": 0.0, "type": "electric_scooter", "lat": 38.89629466666667, "is_reserved": 0, "is_disabled": 0, "fusion_lon": 0.0, "bike_id": "13839f38fd20f66a0b004045347ab9cc", "lon": -77.02372083333333, "rental_uris": {"ios": "https://dc.lft.to/lastmile_qr_scan", "android": "https://dc.lft.to/lastmile_qr_scan"}}, {"name": "c6bd2dbb43457e06372edbe0bd07ba8e", "fusion_lat": 0.0, "type": "electric_scooter", "lat": 38.90091666666667, "is_reserved": 0, "is_disabled": 0, "fusion_lon": 0.0, "bike_id": "c6bd2dbb43457e06372edbe0bd07ba8e", "lon": -77.05038433333333, "rental_uris": {"ios": "https://dc.lft.to/lastmile_qr_scan", "android": "https://dc.lft.to/lastmile_qr_scan"}}, {"name": "d8f088e8103bc10c558261a003a8158d", "fusion_lat": 0.0, "type": "electric_bike", "lat": 38.9518875, "is_reserved": 0, "is_disabled": 0, "fusion_lon": 0.0, "bike_id": "d8f088e8103bc10c558261a003a8158d", "lon": -76.93546233333333, "rental_uris": {"ios": "https://dc.lft.to/lastmile_qr_scan", "android": "https://dc.lft.to/lastmile_qr_scan"}}, {"name": "878e4022c7f661b86d2d0e6c7aa27316", "fusion_lat": 0.0, "type": "electric_scooter", "lat": 38.89774416666667, "is_reserved": 0, "is_disabled": 0, "fusion_lon": 0.0, "bike_id": "878e4022c7f661b86d2d0e6c7aa27316", "lon": -77.02711333333333, "rental_uris": {"ios": "https://dc.lft.to/lastmile_qr_scan", "android": "https://dc.lft.to/lastmile_qr_scan"}}, {"name": "c75ca893eb1e12f81f8f9e9ded71bfb9", "fusion_lat": 0.0, "type": "electric_scooter", "lat": 38.9383335, "is_reserved": 0, "is_disabled": 0, "fusion_lon": 0.0, "bike_id": "c75ca893eb1e12f81f8f9e9ded71bfb9", "lon": -77.026475, "rental_uris": {"ios": "https://dc.lft.to/lastmile_qr_scan", "android": "https://dc.lft.to/lastmile_qr_scan"}}, {"name": "fd0ac5d300394c13538ff2d8af29e58c", "fusion_lat": 0.0, "type": "electric_scooter", "lat": 38.9419205, "is_reserved": 0, "is_disabled": 0, "fusion_lon": 0.0, "bike_id": "fd0ac5d300394c13538ff2d8af29e58c", "lon": -77.0248785, "rental_uris": {"ios": "https://dc.lft.to/lastmile_qr_scan", "android": "https://dc.lft.to/lastmile_qr_scan"}}, {"name": "60f6e8c4fb5e656c6901ac0afd421c5a", "fusion_lat": 0.0, "type": "electric_scooter", "lat": 38.89831266666667, "is_reserved": 0, "is_disabled": 0, "fusion_lon": 0.0, "bike_id": "60f6e8c4fb5e656c6901ac0afd421c5a", "lon": -77.02919616666667, "rental_uris": {"ios": "https://dc.lft.to/lastmile_qr_scan", "android": "https://dc.lft.to/lastmile_qr_scan"}}, {"name": "d9e6be3af146296a837b5f08a3a0597c", "fusion_lat": 0.0, "type": "electric_bike", "lat": 38.905747166666664, "is_reserved": 0, "is_disabled": 0, "fusion_lon": 0.0, "bike_id": "d9e6be3af146296a837b5f08a3a0597c", "lon": -77.03799333333333, "rental_uris": {"ios": "https://dc.lft.to/lastmile_qr_scan", "android": "https://dc.lft.to/lastmile_qr_scan"}}, {"name": "b2de6eeebb27e9a52d14cc3dbbe23d10", "fusion_lat": 0.0, "type": "electric_scooter", "lat": 38.90977683333333, "is_reserved": 0, "is_disabled": 0, "fusion_lon": 0.0, "bike_id": "b2de6eeebb27e9a52d14cc3dbbe23d10", "lon": -77.0423735, "rental_uris": {"ios": "https://dc.lft.to/lastmile_qr_scan", "android": "https://dc.lft.to/lastmile_qr_scan"}}, {"name": "d13724509be089e5b97e3f09e46e90bd", "fusion_lat": 0.0, "type": "electric_scooter", "lat": 38.89842683333333, "is_reserved": 0, "is_disabled": 0, "fusion_lon": 0.0, "bike_id": "d13724509be089e5b97e3f09e46e90bd", "lon": -77.04062766666667, "rental_uris": {"ios": "https://dc.lft.to/lastmile_qr_scan", "android": "https://dc.lft.to/lastmile_qr_scan"}}, {"name": "487c34b3553a685a5ed82694f17fcf9b", "fusion_lat": 0.0, "type": "electric_scooter", "lat": 38.87276133333334, "is_reserved": 0, "is_disabled": 0, "fusion_lon": 0.0, "bike_id": "487c34b3553a685a5ed82694f17fcf9b", "lon": -77.015336, "rental_uris": {"ios": "https://dc.lft.to/lastmile_qr_scan", "android": "https://dc.lft.to/lastmile_qr_scan"}}, {"name": "ebd71d5a869105a6a6d2844dc8f391ea", "fusion_lat": 0.0, "type": "electric_scooter", "lat": 38.86084133333333, "is_reserved": 0, "is_disabled": 0, "fusion_lon": 0.0, "bike_id": "ebd71d5a869105a6a6d2844dc8f391ea", "lon": -76.96735883333334, "rental_uris": {"ios": "https://dc.lft.to/lastmile_qr_scan", "android": "https://dc.lft.to/lastmile_qr_scan"}}, {"name": "99324e41e4f25aaffb88077027216db9", "fusion_lat": 0.0, "type": "electric_scooter", "lat": 38.92134583333333, "is_reserved": 0, "is_disabled": 0, "fusion_lon": 0.0, "bike_id": "99324e41e4f25aaffb88077027216db9", "lon": -77.039003, "rental_uris": {"ios": "https://dc.lft.to/lastmile_qr_scan", "android": "https://dc.lft.to/lastmile_qr_scan"}}, {"name": "d8b9fb6525261bcc8848119cf0dc7b97", "fusion_lat": 0.0, "type": "electric_scooter", "lat": 38.948097833333335, "is_reserved": 0, "is_disabled": 0, "fusion_lon": 0.0, "bike_id": "d8b9fb6525261bcc8848119cf0dc7b97", "lon": -77.079086, "rental_uris": {"ios": "https://dc.lft.to/lastmile_qr_scan", "android": "https://dc.lft.to/lastmile_qr_scan"}}, {"name": "0dae38f161e85c7636e13b73615bd6b9", "fusion_lat": 0.0, "type": "electric_bike", "lat": 38.909093666666664, "is_reserved": 0, "is_disabled": 0, "fusion_lon": 0.0, "bike_id": "0dae38f161e85c7636e13b73615bd6b9", "lon": -77.072654, "rental_uris": {"ios": "https://dc.lft.to/lastmile_qr_scan", "android": "https://dc.lft.to/lastmile_qr_scan"}}, {"name": "c1558333f22f0c57d91a39bceed01f5e", "fusion_lat": 0.0, "type": "electric_scooter", "lat": 38.919495, "is_reserved": 0, "is_disabled": 0, "fusion_lon": 0.0, "bike_id": "c1558333f22f0c57d91a39bceed01f5e", "lon": -77.04549583333333, "rental_uris": {"ios": "https://dc.lft.to/lastmile_qr_scan", "android": "https://dc.lft.to/lastmile_qr_scan"}}, {"name": "2ea13a358330135c9b448db486358778", "fusion_lat": 0.0, "type": "electric_scooter", "lat": 38.93375783333333, "is_reserved": 0, "is_disabled": 0, "fusion_lon": 0.0, "bike_id": "2ea13a358330135c9b448db486358778", "lon": -77.034474, "rental_uris": {"ios": "https://dc.lft.to/lastmile_qr_scan", "android": "https://dc.lft.to/lastmile_qr_scan"}}, {"name": "eba457b78f7e958ecfc4208bef4e046f", "fusion_lat": 0.0, "type": "electric_bike", "lat": 38.899866, "is_reserved": 0, "is_disabled": 0, "fusion_lon": 0.0, "bike_id": "eba457b78f7e958ecfc4208bef4e046f", "lon": -77.04725616666667, "rental_uris": {"ios": "https://dc.lft.to/lastmile_qr_scan", "android": "https://dc.lft.to/lastmile_qr_scan"}}, {"name": "8530bfea86ec3b6d38d716ca9126bcc3", "fusion_lat": 0.0, "type": "electric_scooter", "lat": 38.90496133333333, "is_reserved": 0, "is_disabled": 0, "fusion_lon": 0.0, "bike_id": "8530bfea86ec3b6d38d716ca9126bcc3", "lon": -77.04649666666667, "rental_uris": {"ios": "https://dc.lft.to/lastmile_qr_scan", "android": "https://dc.lft.to/lastmile_qr_scan"}}, {"name": "0007f181e75fa0e7201c67efeaa91723", "fusion_lat": 0.0, "type": "electric_scooter", "lat": 38.89228033333333, "is_reserved": 0, "is_disabled": 0, "fusion_lon": 0.0, "bike_id": "0007f181e75fa0e7201c67efeaa91723", "lon": -77.03104316666666, "rental_uris": {"ios": "https://dc.lft.to/lastmile_qr_scan", "android": "https://dc.lft.to/lastmile_qr_scan"}}, {"name": "7fc6c52a0fc75d48e47f2f44e601c169", "fusion_lat": 0.0, "type": "electric_scooter", "lat": 38.90253, "is_reserved": 0, "is_disabled": 0, "fusion_lon": 0.0, "bike_id": "7fc6c52a0fc75d48e47f2f44e601c169", "lon": -77.04470833333333, "rental_uris": {"ios": "https://dc.lft.to/lastmile_qr_scan", "android": "https://dc.lft.to/lastmile_qr_scan"}}, {"name": "b3ec16541d54291fa4ea6def93406352", "fusion_lat": 0.0, "type": "electric_scooter", "lat": 38.89986783333333, "is_reserved": 0, "is_disabled": 0, "fusion_lon": 0.0, "bike_id": "b3ec16541d54291fa4ea6def93406352", "lon": -77.0293615, "rental_uris": {"ios": "https://dc.lft.to/lastmile_qr_scan", "android": "https://dc.lft.to/lastmile_qr_scan"}}, {"name": "81dcb17cf43d4375f16929dfd3fc2859", "fusion_lat": 0.0, "type": "electric_scooter", "lat": 38.923616833333334, "is_reserved": 0, "is_disabled": 0, "fusion_lon": 0.0, "bike_id": "81dcb17cf43d4375f16929dfd3fc2859", "lon": -77.0524185, "rental_uris": {"ios": "https://dc.lft.to/lastmile_qr_scan", "android": "https://dc.lft.to/lastmile_qr_scan"}}, {"name": "8fac715e2bc47baf7f01db469395f343", "fusion_lat": 0.0, "type": "electric_scooter", "lat": 38.908956, "is_reserved": 0, "is_disabled": 0, "fusion_lon": 0.0, "bike_id": "8fac715e2bc47baf7f01db469395f343", "lon": -77.005723, "rental_uris": {"ios": "https://dc.lft.to/lastmile_qr_scan", "android": "https://dc.lft.to/lastmile_qr_scan"}}, {"name": "1a02a4bfa510963e2af36161e01dad90", "fusion_lat": 0.0, "type": "electric_scooter", "lat": 38.9181645, "is_reserved": 0, "is_disabled": 0, "fusion_lon": 0.0, "bike_id": "1a02a4bfa510963e2af36161e01dad90", "lon": -77.04003633333333, "rental_uris": {"ios": "https://dc.lft.to/lastmile_qr_scan", "android": "https://dc.lft.to/lastmile_qr_scan"}}, {"name": "5ac63381841d6ba447a38d08dc14a732", "fusion_lat": 0.0, "type": "electric_scooter", "lat": 38.92983483333333, "is_reserved": 0, "is_disabled": 0, "fusion_lon": 0.0, "bike_id": "5ac63381841d6ba447a38d08dc14a732", "lon": -77.03258166666667, "rental_uris": {"ios": "https://dc.lft.to/lastmile_qr_scan", "android": "https://dc.lft.to/lastmile_qr_scan"}}, {"name": "abf30ab811791cfc111637f4b245af23", "fusion_lat": 0.0, "type": "electric_bike", "lat": 38.96130933333333, "is_reserved": 0, "is_disabled": 0, "fusion_lon": 0.0, "bike_id": "abf30ab811791cfc111637f4b245af23", "lon": -77.03270933333333, "rental_uris": {"ios": "https://dc.lft.to/lastmile_qr_scan", "android": "https://dc.lft.to/lastmile_qr_scan"}}, {"name": "ef5fbb8682a45b6659faaeca7941b327", "fusion_lat": 0.0, "type": "electric_scooter", "lat": 38.9190675, "is_reserved": 0, "is_disabled": 0, "fusion_lon": 0.0, "bike_id": "ef5fbb8682a45b6659faaeca7941b327", "lon": -77.02174616666667, "rental_uris": {"ios": "https://dc.lft.to/lastmile_qr_scan", "android": "https://dc.lft.to/lastmile_qr_scan"}}, {"name": "f15153ea949683298e5e6650168fc160", "fusion_lat": 0.0, "type": "electric_scooter", "lat": 38.917329, "is_reserved": 0, "is_disabled": 0, "fusion_lon": 0.0, "bike_id": "f15153ea949683298e5e6650168fc160", "lon": -77.0102955, "rental_uris": {"ios": "https://dc.lft.to/lastmile_qr_scan", "android": "https://dc.lft.to/lastmile_qr_scan"}}, {"name": "6d3504faf48323b156346fbbe99f7806", "fusion_lat": 0.0, "type": "electric_scooter", "lat": 38.92811583333334, "is_reserved": 0, "is_disabled": 0, "fusion_lon": 0.0, "bike_id": "6d3504faf48323b156346fbbe99f7806", "lon": -77.039751, "rental_uris": {"ios": "https://dc.lft.to/lastmile_qr_scan", "android": "https://dc.lft.to/lastmile_qr_scan"}}, {"name": "38798e51c9bd6b0aebeb952dd7f76699", "fusion_lat": 0.0, "type": "electric_scooter", "lat": 38.901670833333334, "is_reserved": 0, "is_disabled": 0, "fusion_lon": 0.0, "bike_id": "38798e51c9bd6b0aebeb952dd7f76699", "lon": -77.031744, "rental_uris": {"ios": "https://dc.lft.to/lastmile_qr_scan", "android": "https://dc.lft.to/lastmile_qr_scan"}}, {"name": "2a33e3983da6946c1a8ccc5acc9124d6", "fusion_lat": 0.0, "type": "electric_scooter", "lat": 38.89493383333333, "is_reserved": 0, "is_disabled": 0, "fusion_lon": 0.0, "bike_id": "2a33e3983da6946c1a8ccc5acc9124d6", "lon": -77.02309083333333, "rental_uris": {"ios": "https://dc.lft.to/lastmile_qr_scan", "android": "https://dc.lft.to/lastmile_qr_scan"}}, {"name": "db04387c06b94683774624c43a49a96e", "fusion_lat": 0.0, "type": "electric_scooter", "lat": 38.89881533333333, "is_reserved": 0, "is_disabled": 0, "fusion_lon": 0.0, "bike_id": "db04387c06b94683774624c43a49a96e", "lon": -76.93158783333334, "rental_uris": {"ios": "https://dc.lft.to/lastmile_qr_scan", "android": "https://dc.lft.to/lastmile_qr_scan"}}, {"name": "57c7a10e8b31eeba5a14001629b2a1af", "fusion_lat": 0.0, "type": "electric_scooter", "lat": 38.9175915, "is_reserved": 0, "is_disabled": 0, "fusion_lon": 0.0, "bike_id": "57c7a10e8b31eeba5a14001629b2a1af", "lon": -77.01876616666667, "rental_uris": {"ios": "https://dc.lft.to/lastmile_qr_scan", "android": "https://dc.lft.to/lastmile_qr_scan"}}, {"name": "9c4e735f4fd3d0d942535fc7c02282fe", "fusion_lat": 0.0, "type": "electric_scooter", "lat": 38.93911, "is_reserved": 0, "is_disabled": 0, "fusion_lon": 0.0, "bike_id": "9c4e735f4fd3d0d942535fc7c02282fe", "lon": -77.03355433333333, "rental_uris": {"ios": "https://dc.lft.to/lastmile_qr_scan", "android": "https://dc.lft.to/lastmile_qr_scan"}}, {"name": "96e8c2f3268752016ae5daee45c7c6dc", "fusion_lat": 0.0, "type": "electric_scooter", "lat": 38.908791666666666, "is_reserved": 0, "is_disabled": 0, "fusion_lon": 0.0, "bike_id": "96e8c2f3268752016ae5daee45c7c6dc", "lon": -77.01324366666667, "rental_uris": {"ios": "https://dc.lft.to/lastmile_qr_scan", "android": "https://dc.lft.to/lastmile_qr_scan"}}, {"name": "e8ad2aeb52a496044ffe9e413afb13d4", "fusion_lat": 0.0, "type": "electric_scooter", "lat": 38.90539616666667, "is_reserved": 0, "is_disabled": 0, "fusion_lon": 0.0, "bike_id": "e8ad2aeb52a496044ffe9e413afb13d4", "lon": -77.05877333333333, "rental_uris": {"ios": "https://dc.lft.to/lastmile_qr_scan", "android": "https://dc.lft.to/lastmile_qr_scan"}}, {"name": "668504bfd2ad8d3fb803c0a81b4b638a", "fusion_lat": 0.0, "type": "electric_scooter", "lat": 38.924477, "is_reserved": 0, "is_disabled": 0, "fusion_lon": 0.0, "bike_id": "668504bfd2ad8d3fb803c0a81b4b638a", "lon": -76.99333716666666, "rental_uris": {"ios": "https://dc.lft.to/lastmile_qr_scan", "android": "https://dc.lft.to/lastmile_qr_scan"}}, {"name": "56cbecf2de9e330efbf24d5d675cef32", "fusion_lat": 0.0, "type": "electric_scooter", "lat": 38.8989265, "is_reserved": 0, "is_disabled": 0, "fusion_lon": 0.0, "bike_id": "56cbecf2de9e330efbf24d5d675cef32", "lon": -77.03321, "rental_uris": {"ios": "https://dc.lft.to/lastmile_qr_scan", "android": "https://dc.lft.to/lastmile_qr_scan"}}, {"name": "3efd7e2114abe5c573c04815addbdb47", "fusion_lat": 0.0, "type": "electric_scooter", "lat": 38.892208333333336, "is_reserved": 0, "is_disabled": 0, "fusion_lon": 0.0, "bike_id": "3efd7e2114abe5c573c04815addbdb47", "lon": -77.026546, "rental_uris": {"ios": "https://dc.lft.to/lastmile_qr_scan", "android": "https://dc.lft.to/lastmile_qr_scan"}}, {"name": "15eaf74216369960e899d7c5837ea7dc", "fusion_lat": 0.0, "type": "electric_scooter", "lat": 38.904841166666664, "is_reserved": 0, "is_disabled": 0, "fusion_lon": 0.0, "bike_id": "15eaf74216369960e899d7c5837ea7dc", "lon": -77.04332166666667, "rental_uris": {"ios": "https://dc.lft.to/lastmile_qr_scan", "android": "https://dc.lft.to/lastmile_qr_scan"}}, {"name": "3bf33f7abada8b0355c1341dd3bee268", "fusion_lat": 0.0, "type": "electric_scooter", "lat": 38.87674, "is_reserved": 0, "is_disabled": 0, "fusion_lon": 0.0, "bike_id": "3bf33f7abada8b0355c1341dd3bee268", "lon": -77.00598133333334, "rental_uris": {"ios": "https://dc.lft.to/lastmile_qr_scan", "android": "https://dc.lft.to/lastmile_qr_scan"}}, {"name": "d7d80e7acd092d44e6401529dc76f0ec", "fusion_lat": 0.0, "type": "electric_scooter", "lat": 38.900071, "is_reserved": 0, "is_disabled": 0, "fusion_lon": 0.0, "bike_id": "d7d80e7acd092d44e6401529dc76f0ec", "lon": -77.02725383333333, "rental_uris": {"ios": "https://dc.lft.to/lastmile_qr_scan", "android": "https://dc.lft.to/lastmile_qr_scan"}}, {"name": "b8630505772208aff30f00844b456ddb", "fusion_lat": 0.0, "type": "electric_scooter", "lat": 38.90694366666666, "is_reserved": 0, "is_disabled": 0, "fusion_lon": 0.0, "bike_id": "b8630505772208aff30f00844b456ddb", "lon": -77.0386995, "rental_uris": {"ios": "https://dc.lft.to/lastmile_qr_scan", "android": "https://dc.lft.to/lastmile_qr_scan"}}, {"name": "0f7c0a4342a60af20f2f0a9cb2e35707", "fusion_lat": 0.0, "type": "electric_scooter", "lat": 38.87654416666667, "is_reserved": 0, "is_disabled": 0, "fusion_lon": 0.0, "bike_id": "0f7c0a4342a60af20f2f0a9cb2e35707", "lon": -76.96504766666666, "rental_uris": {"ios": "https://dc.lft.to/lastmile_qr_scan", "android": "https://dc.lft.to/lastmile_qr_scan"}}, {"name": "e248d6aa8c2093c7f28bd87666d407a3", "fusion_lat": 0.0, "type": "electric_bike", "lat": 38.99070733333333, "is_reserved": 0, "is_disabled": 0, "fusion_lon": 0.0, "bike_id": "e248d6aa8c2093c7f28bd87666d407a3", "lon": -77.1002735, "rental_uris": {"ios": "https://dc.lft.to/lastmile_qr_scan", "android": "https://dc.lft.to/lastmile_qr_scan"}}, {"name": "8bcfa0fe13a288c143711316b0c4414f", "fusion_lat": 0.0, "type": "electric_scooter", "lat": 38.92953083333333, "is_reserved": 0, "is_disabled": 0, "fusion_lon": 0.0, "bike_id": "8bcfa0fe13a288c143711316b0c4414f", "lon": -77.0346695, "rental_uris": {"ios": "https://dc.lft.to/lastmile_qr_scan", "android": "https://dc.lft.to/lastmile_qr_scan"}}, {"name": "e56aaf748f0dee19ad7b544cef80c937", "fusion_lat": 0.0, "type": "electric_scooter", "lat": 38.911159166666664, "is_reserved": 0, "is_disabled": 0, "fusion_lon": 0.0, "bike_id": "e56aaf748f0dee19ad7b544cef80c937", "lon": -77.03709816666667, "rental_uris": {"ios": "https://dc.lft.to/lastmile_qr_scan", "android": "https://dc.lft.to/lastmile_qr_scan"}}, {"name": "48085db244f66fecc6a14ac3fc7f1eec", "fusion_lat": 0.0, "type": "electric_scooter", "lat": 38.90280116666667, "is_reserved": 0, "is_disabled": 0, "fusion_lon": 0.0, "bike_id": "48085db244f66fecc6a14ac3fc7f1eec", "lon": -77.043619, "rental_uris": {"ios": "https://dc.lft.to/lastmile_qr_scan", "android": "https://dc.lft.to/lastmile_qr_scan"}}, {"name": "4da51414aff02e62f3db9171b92aa52b", "fusion_lat": 0.0, "type": "electric_scooter", "lat": 38.922152, "is_reserved": 0, "is_disabled": 0, "fusion_lon": 0.0, "bike_id": "4da51414aff02e62f3db9171b92aa52b", "lon": -77.04249216666666, "rental_uris": {"ios": "https://dc.lft.to/lastmile_qr_scan", "android": "https://dc.lft.to/lastmile_qr_scan"}}, {"name": "30c354363ff4916dc9188caa8e7be6b3", "fusion_lat": 0.0, "type": "electric_scooter", "lat": 38.93958516666667, "is_reserved": 0, "is_disabled": 0, "fusion_lon": 0.0, "bike_id": "30c354363ff4916dc9188caa8e7be6b3", "lon": -77.0325645, "rental_uris": {"ios": "https://dc.lft.to/lastmile_qr_scan", "android": "https://dc.lft.to/lastmile_qr_scan"}}, {"name": "83c5cfd44859c0ebe334dccb1d4f7673", "fusion_lat": 0.0, "type": "electric_scooter", "lat": 38.93797633333333, "is_reserved": 0, "is_disabled": 0, "fusion_lon": 0.0, "bike_id": "83c5cfd44859c0ebe334dccb1d4f7673", "lon": -77.059946, "rental_uris": {"ios": "https://dc.lft.to/lastmile_qr_scan", "android": "https://dc.lft.to/lastmile_qr_scan"}}, {"name": "090d5f73d506942d00db19a259490b75", "fusion_lat": 0.0, "type": "electric_scooter", "lat": 38.938366, "is_reserved": 0, "is_disabled": 0, "fusion_lon": 0.0, "bike_id": "090d5f73d506942d00db19a259490b75", "lon": -77.0249405, "rental_uris": {"ios": "https://dc.lft.to/lastmile_qr_scan", "android": "https://dc.lft.to/lastmile_qr_scan"}}, {"name": "cd70aa220092083cb0480d2e70ae2968", "fusion_lat": 0.0, "type": "electric_scooter", "lat": 38.907312, "is_reserved": 0, "is_disabled": 0, "fusion_lon": 0.0, "bike_id": "cd70aa220092083cb0480d2e70ae2968", "lon": -76.98598483333333, "rental_uris": {"ios": "https://dc.lft.to/lastmile_qr_scan", "android": "https://dc.lft.to/lastmile_qr_scan"}}, {"name": "3a4db2693aecfd90b33d40fa3ff6c4d2", "fusion_lat": 0.0, "type": "electric_scooter", "lat": 38.9224705, "is_reserved": 0, "is_disabled": 0, "fusion_lon": 0.0, "bike_id": "3a4db2693aecfd90b33d40fa3ff6c4d2", "lon": -77.03894316666667, "rental_uris": {"ios": "https://dc.lft.to/lastmile_qr_scan", "android": "https://dc.lft.to/lastmile_qr_scan"}}, {"name": "627bb9ef4b827a2fbcac0ebd0e2a69a3", "fusion_lat": 0.0, "type": "electric_scooter", "lat": 38.90705883333333, "is_reserved": 0, "is_disabled": 0, "fusion_lon": 0.0, "bike_id": "627bb9ef4b827a2fbcac0ebd0e2a69a3", "lon": -77.031866, "rental_uris": {"ios": "https://dc.lft.to/lastmile_qr_scan", "android": "https://dc.lft.to/lastmile_qr_scan"}}, {"name": "54aadc3b0fa128ca13b9590fd84b1f74", "fusion_lat": 0.0, "type": "electric_scooter", "lat": 38.894829666666666, "is_reserved": 0, "is_disabled": 0, "fusion_lon": 0.0, "bike_id": "54aadc3b0fa128ca13b9590fd84b1f74", "lon": -76.985981, "rental_uris": {"ios": "https://dc.lft.to/lastmile_qr_scan", "android": "https://dc.lft.to/lastmile_qr_scan"}}, {"name": "3b029093d00030d8118e0a48498a4179", "fusion_lat": 0.0, "type": "electric_scooter", "lat": 38.900022166666666, "is_reserved": 0, "is_disabled": 0, "fusion_lon": 0.0, "bike_id": "3b029093d00030d8118e0a48498a4179", "lon": -77.02287566666666, "rental_uris": {"ios": "https://dc.lft.to/lastmile_qr_scan", "android": "https://dc.lft.to/lastmile_qr_scan"}}, {"name": "7d86390225312a17fd382b0673e0f47c", "fusion_lat": 0.0, "type": "electric_scooter", "lat": 38.917106, "is_reserved": 0, "is_disabled": 0, "fusion_lon": 0.0, "bike_id": "7d86390225312a17fd382b0673e0f47c", "lon": -77.008045, "rental_uris": {"ios": "https://dc.lft.to/lastmile_qr_scan", "android": "https://dc.lft.to/lastmile_qr_scan"}}, {"name": "a1452dc5f28ddf5ec1e074b68bd0647c", "fusion_lat": 0.0, "type": "electric_scooter", "lat": 38.9254385, "is_reserved": 0, "is_disabled": 0, "fusion_lon": 0.0, "bike_id": "a1452dc5f28ddf5ec1e074b68bd0647c", "lon": -77.02637383333334, "rental_uris": {"ios": "https://dc.lft.to/lastmile_qr_scan", "android": "https://dc.lft.to/lastmile_qr_scan"}}, {"name": "7572fe746409b4157d9a5d031830cd57", "fusion_lat": 0.0, "type": "electric_scooter", "lat": 38.9378345, "is_reserved": 0, "is_disabled": 0, "fusion_lon": 0.0, "bike_id": "7572fe746409b4157d9a5d031830cd57", "lon": -77.03261016666667, "rental_uris": {"ios": "https://dc.lft.to/lastmile_qr_scan", "android": "https://dc.lft.to/lastmile_qr_scan"}}, {"name": "4d4b4151849af3f88dafb311809fd0a9", "fusion_lat": 0.0, "type": "electric_scooter", "lat": 38.90404683333333, "is_reserved": 0, "is_disabled": 0, "fusion_lon": 0.0, "bike_id": "4d4b4151849af3f88dafb311809fd0a9", "lon": -77.04046016666666, "rental_uris": {"ios": "https://dc.lft.to/lastmile_qr_scan", "android": "https://dc.lft.to/lastmile_qr_scan"}}, {"name": "ae18f4848d1b570c5ee354c682fec05f", "fusion_lat": 0.0, "type": "electric_scooter", "lat": 38.89627133333333, "is_reserved": 0, "is_disabled": 0, "fusion_lon": 0.0, "bike_id": "ae18f4848d1b570c5ee354c682fec05f", "lon": -77.02779016666666, "rental_uris": {"ios": "https://dc.lft.to/lastmile_qr_scan", "android": "https://dc.lft.to/lastmile_qr_scan"}}, {"name": "d914b05e7d12c91ee881a4371ec28d08", "fusion_lat": 0.0, "type": "electric_bike", "lat": 38.85064633333333, "is_reserved": 0, "is_disabled": 0, "fusion_lon": 0.0, "bike_id": "d914b05e7d12c91ee881a4371ec28d08", "lon": -76.973291, "rental_uris": {"ios": "https://dc.lft.to/lastmile_qr_scan", "android": "https://dc.lft.to/lastmile_qr_scan"}}, {"name": "a14a71fbeedd86077cce35ac16378b41", "fusion_lat": 0.0, "type": "electric_scooter", "lat": 38.903197166666665, "is_reserved": 0, "is_disabled": 0, "fusion_lon": 0.0, "bike_id": "a14a71fbeedd86077cce35ac16378b41", "lon": -77.03465733333333, "rental_uris": {"ios": "https://dc.lft.to/lastmile_qr_scan", "android": "https://dc.lft.to/lastmile_qr_scan"}}, {"name": "a69883955ca867d1fae19917a08cffa5", "fusion_lat": 0.0, "type": "electric_scooter", "lat": 38.9033565, "is_reserved": 0, "is_disabled": 0, "fusion_lon": 0.0, "bike_id": "a69883955ca867d1fae19917a08cffa5", "lon": -77.036288, "rental_uris": {"ios": "https://dc.lft.to/lastmile_qr_scan", "android": "https://dc.lft.to/lastmile_qr_scan"}}, {"name": "d379af7d45daccb521932281b0d77407", "fusion_lat": 0.0, "type": "electric_scooter", "lat": 38.9316515, "is_reserved": 0, "is_disabled": 0, "fusion_lon": 0.0, "bike_id": "d379af7d45daccb521932281b0d77407", "lon": -77.03886416666667, "rental_uris": {"ios": "https://dc.lft.to/lastmile_qr_scan", "android": "https://dc.lft.to/lastmile_qr_scan"}}, {"name": "1552ffdd32df43592923be1c8fe9febf", "fusion_lat": 0.0, "type": "electric_scooter", "lat": 38.883919, "is_reserved": 0, "is_disabled": 0, "fusion_lon": 0.0, "bike_id": "1552ffdd32df43592923be1c8fe9febf", "lon": -76.93048216666666, "rental_uris": {"ios": "https://dc.lft.to/lastmile_qr_scan", "android": "https://dc.lft.to/lastmile_qr_scan"}}, {"name": "261631f85f531b4e5165a018d30638fc", "fusion_lat": 0.0, "type": "electric_scooter", "lat": 38.908437166666666, "is_reserved": 0, "is_disabled": 0, "fusion_lon": 0.0, "bike_id": "261631f85f531b4e5165a018d30638fc", "lon": -76.99983066666667, "rental_uris": {"ios": "https://dc.lft.to/lastmile_qr_scan", "android": "https://dc.lft.to/lastmile_qr_scan"}}, {"name": "fd6ab3063b1b5cff1925b34180d9bc74", "fusion_lat": 0.0, "type": "electric_scooter", "lat": 38.91537783333333, "is_reserved": 0, "is_disabled": 0, "fusion_lon": 0.0, "bike_id": "fd6ab3063b1b5cff1925b34180d9bc74", "lon": -77.0122385, "rental_uris": {"ios": "https://dc.lft.to/lastmile_qr_scan", "android": "https://dc.lft.to/lastmile_qr_scan"}}, {"name": "a1ad0b9e1ce05cab916b08a5a27643d7", "fusion_lat": 0.0, "type": "electric_scooter", "lat": 38.900568166666666, "is_reserved": 0, "is_disabled": 0, "fusion_lon": 0.0, "bike_id": "a1ad0b9e1ce05cab916b08a5a27643d7", "lon": -77.04320983333334, "rental_uris": {"ios": "https://dc.lft.to/lastmile_qr_scan", "android": "https://dc.lft.to/lastmile_qr_scan"}}, {"name": "7ecebccf8e398cfa0ba1ddea69c6541e", "fusion_lat": 0.0, "type": "electric_scooter", "lat": 38.928690833333334, "is_reserved": 0, "is_disabled": 0, "fusion_lon": 0.0, "bike_id": "7ecebccf8e398cfa0ba1ddea69c6541e", "lon": -77.0138245, "rental_uris": {"ios": "https://dc.lft.to/lastmile_qr_scan", "android": "https://dc.lft.to/lastmile_qr_scan"}}, {"name": "b6221b2a6f09f88f3281357c230d8aae", "fusion_lat": 0.0, "type": "electric_scooter", "lat": 38.9418755, "is_reserved": 0, "is_disabled": 0, "fusion_lon": 0.0, "bike_id": "b6221b2a6f09f88f3281357c230d8aae", "lon": -77.02487483333333, "rental_uris": {"ios": "https://dc.lft.to/lastmile_qr_scan", "android": "https://dc.lft.to/lastmile_qr_scan"}}, {"name": "fc1779d93700e0561372a8274c13ddf4", "fusion_lat": 0.0, "type": "electric_scooter", "lat": 38.895103, "is_reserved": 0, "is_disabled": 0, "fusion_lon": 0.0, "bike_id": "fc1779d93700e0561372a8274c13ddf4", "lon": -77.016069, "rental_uris": {"ios": "https://dc.lft.to/lastmile_qr_scan", "android": "https://dc.lft.to/lastmile_qr_scan"}}, {"name": "f1e9f6ef89fa7314322af027c58b7e76", "fusion_lat": 0.0, "type": "electric_scooter", "lat": 38.90648766666666, "is_reserved": 0, "is_disabled": 0, "fusion_lon": 0.0, "bike_id": "f1e9f6ef89fa7314322af027c58b7e76", "lon": -77.00582266666666, "rental_uris": {"ios": "https://dc.lft.to/lastmile_qr_scan", "android": "https://dc.lft.to/lastmile_qr_scan"}}, {"name": "212c438835f196cba63fc7edb19a7a61", "fusion_lat": 0.0, "type": "electric_scooter", "lat": 38.893512, "is_reserved": 0, "is_disabled": 0, "fusion_lon": 0.0, "bike_id": "212c438835f196cba63fc7edb19a7a61", "lon": -77.046388, "rental_uris": {"ios": "https://dc.lft.to/lastmile_qr_scan", "android": "https://dc.lft.to/lastmile_qr_scan"}}, {"name": "a620947e18619059044e7d391f93c51a", "fusion_lat": 0.0, "type": "electric_scooter", "lat": 38.916289166666665, "is_reserved": 0, "is_disabled": 0, "fusion_lon": 0.0, "bike_id": "a620947e18619059044e7d391f93c51a", "lon": -77.03853683333334, "rental_uris": {"ios": "https://dc.lft.to/lastmile_qr_scan", "android": "https://dc.lft.to/lastmile_qr_scan"}}, {"name": "22ca9f300560577e70e33edbdac06eac", "fusion_lat": 0.0, "type": "electric_scooter", "lat": 38.91485766666667, "is_reserved": 0, "is_disabled": 0, "fusion_lon": 0.0, "bike_id": "22ca9f300560577e70e33edbdac06eac", "lon": -77.00224483333334, "rental_uris": {"ios": "https://dc.lft.to/lastmile_qr_scan", "android": "https://dc.lft.to/lastmile_qr_scan"}}, {"name": "1199db9ea599cc29936834c3e9cfb1a2", "fusion_lat": 0.0, "type": "electric_scooter", "lat": 38.86705466666667, "is_reserved": 0, "is_disabled": 0, "fusion_lon": 0.0, "bike_id": "1199db9ea599cc29936834c3e9cfb1a2", "lon": -76.9870755, "rental_uris": {"ios": "https://dc.lft.to/lastmile_qr_scan", "android": "https://dc.lft.to/lastmile_qr_scan"}}, {"name": "10682dae02c2af5caeb30b6b33107279", "fusion_lat": 0.0, "type": "electric_scooter", "lat": 38.894899833333334, "is_reserved": 0, "is_disabled": 0, "fusion_lon": 0.0, "bike_id": "10682dae02c2af5caeb30b6b33107279", "lon": -76.94869183333333, "rental_uris": {"ios": "https://dc.lft.to/lastmile_qr_scan", "android": "https://dc.lft.to/lastmile_qr_scan"}}, {"name": "fe87ba43272e9594deb019f071c79de4", "fusion_lat": 0.0, "type": "electric_scooter", "lat": 38.8929195, "is_reserved": 0, "is_disabled": 0, "fusion_lon": 0.0, "bike_id": "fe87ba43272e9594deb019f071c79de4", "lon": -77.032108, "rental_uris": {"ios": "https://dc.lft.to/lastmile_qr_scan", "android": "https://dc.lft.to/lastmile_qr_scan"}}, {"name": "1702616902241217920e59fad2976f01", "fusion_lat": 0.0, "type": "electric_scooter", "lat": 38.898610833333336, "is_reserved": 0, "is_disabled": 0, "fusion_lon": 0.0, "bike_id": "1702616902241217920e59fad2976f01", "lon": -76.9903175, "rental_uris": {"ios": "https://dc.lft.to/lastmile_qr_scan", "android": "https://dc.lft.to/lastmile_qr_scan"}}, {"name": "3f827b41c9f237321a21bd45de726369", "fusion_lat": 0.0, "type": "electric_bike", "lat": 38.97336883333333, "is_reserved": 0, "is_disabled": 0, "fusion_lon": 0.0, "bike_id": "3f827b41c9f237321a21bd45de726369", "lon": -77.02150233333333, "rental_uris": {"ios": "https://dc.lft.to/lastmile_qr_scan", "android": "https://dc.lft.to/lastmile_qr_scan"}}, {"name": "d6a825f95bf939fb6f34589f068e4266", "fusion_lat": 0.0, "type": "electric_scooter", "lat": 38.920556833333336, "is_reserved": 0, "is_disabled": 0, "fusion_lon": 0.0, "bike_id": "d6a825f95bf939fb6f34589f068e4266", "lon": -77.03347333333333, "rental_uris": {"ios": "https://dc.lft.to/lastmile_qr_scan", "android": "https://dc.lft.to/lastmile_qr_scan"}}, {"name": "71671284141d1015f4b9dd1afcc5fe91", "fusion_lat": 0.0, "type": "electric_scooter", "lat": 38.91416, "is_reserved": 0, "is_disabled": 0, "fusion_lon": 0.0, "bike_id": "71671284141d1015f4b9dd1afcc5fe91", "lon": -77.039114, "rental_uris": {"ios": "https://dc.lft.to/lastmile_qr_scan", "android": "https://dc.lft.to/lastmile_qr_scan"}}, {"name": "74e69a04cd2c943d5c64e4b54ffde34b", "fusion_lat": 0.0, "type": "electric_scooter", "lat": 38.932648666666665, "is_reserved": 0, "is_disabled": 0, "fusion_lon": 0.0, "bike_id": "74e69a04cd2c943d5c64e4b54ffde34b", "lon": -77.04002483333333, "rental_uris": {"ios": "https://dc.lft.to/lastmile_qr_scan", "android": "https://dc.lft.to/lastmile_qr_scan"}}, {"name": "25223a844b30553e05951cff56528c51", "fusion_lat": 0.0, "type": "electric_bike", "lat": 38.945577, "is_reserved": 0, "is_disabled": 0, "fusion_lon": 0.0, "bike_id": "25223a844b30553e05951cff56528c51", "lon": -76.89538433333334, "rental_uris": {"ios": "https://dc.lft.to/lastmile_qr_scan", "android": "https://dc.lft.to/lastmile_qr_scan"}}, {"name": "495fefe3ac4058381266a2262dde4abf", "fusion_lat": 0.0, "type": "electric_scooter", "lat": 38.931276833333335, "is_reserved": 0, "is_disabled": 0, "fusion_lon": 0.0, "bike_id": "495fefe3ac4058381266a2262dde4abf", "lon": -77.03600383333334, "rental_uris": {"ios": "https://dc.lft.to/lastmile_qr_scan", "android": "https://dc.lft.to/lastmile_qr_scan"}}, {"name": "d3605b3c895b7feef8aa25587e5f1210", "fusion_lat": 0.0, "type": "electric_scooter", "lat": 38.863809833333335, "is_reserved": 0, "is_disabled": 0, "fusion_lon": 0.0, "bike_id": "d3605b3c895b7feef8aa25587e5f1210", "lon": -76.99060433333334, "rental_uris": {"ios": "https://dc.lft.to/lastmile_qr_scan", "android": "https://dc.lft.to/lastmile_qr_scan"}}, {"name": "06b84a81019c048faad710781283bc5a", "fusion_lat": 0.0, "type": "electric_scooter", "lat": 38.9165765, "is_reserved": 0, "is_disabled": 0, "fusion_lon": 0.0, "bike_id": "06b84a81019c048faad710781283bc5a", "lon": -77.02282533333333, "rental_uris": {"ios": "https://dc.lft.to/lastmile_qr_scan", "android": "https://dc.lft.to/lastmile_qr_scan"}}, {"name": "d70aabc914d5bf0bc621a09235a2d6c4", "fusion_lat": 0.0, "type": "electric_scooter", "lat": 38.91708583333333, "is_reserved": 0, "is_disabled": 0, "fusion_lon": 0.0, "bike_id": "d70aabc914d5bf0bc621a09235a2d6c4", "lon": -77.02999416666667, "rental_uris": {"ios": "https://dc.lft.to/lastmile_qr_scan", "android": "https://dc.lft.to/lastmile_qr_scan"}}, {"name": "6fb7a54124e481f07c558df013885fa4", "fusion_lat": 0.0, "type": "electric_bike", "lat": 38.85416516666667, "is_reserved": 0, "is_disabled": 0, "fusion_lon": 0.0, "bike_id": "6fb7a54124e481f07c558df013885fa4", "lon": -77.11824866666667, "rental_uris": {"ios": "https://dc.lft.to/lastmile_qr_scan", "android": "https://dc.lft.to/lastmile_qr_scan"}}, {"name": "9248942ed98238fc82a409e24e8e3431", "fusion_lat": 0.0, "type": "electric_scooter", "lat": 38.90393183333333, "is_reserved": 0, "is_disabled": 0, "fusion_lon": 0.0, "bike_id": "9248942ed98238fc82a409e24e8e3431", "lon": -77.05047966666666, "rental_uris": {"ios": "https://dc.lft.to/lastmile_qr_scan", "android": "https://dc.lft.to/lastmile_qr_scan"}}, {"name": "44de42306025f9919353bb13d12e53be", "fusion_lat": 0.0, "type": "electric_scooter", "lat": 38.893626833333336, "is_reserved": 0, "is_disabled": 0, "fusion_lon": 0.0, "bike_id": "44de42306025f9919353bb13d12e53be", "lon": -77.01993266666666, "rental_uris": {"ios": "https://dc.lft.to/lastmile_qr_scan", "android": "https://dc.lft.to/lastmile_qr_scan"}}, {"name": "a2123f5698bda27e5ce88b1cc95ce76c", "fusion_lat": 0.0, "type": "electric_bike", "lat": 38.892226, "is_reserved": 0, "is_disabled": 0, "fusion_lon": 0.0, "bike_id": "a2123f5698bda27e5ce88b1cc95ce76c", "lon": -76.9702, "rental_uris": {"ios": "https://dc.lft.to/lastmile_qr_scan", "android": "https://dc.lft.to/lastmile_qr_scan"}}, {"name": "84167d393075314922e44aae27be0804", "fusion_lat": 0.0, "type": "electric_scooter", "lat": 38.9427655, "is_reserved": 0, "is_disabled": 0, "fusion_lon": 0.0, "bike_id": "84167d393075314922e44aae27be0804", "lon": -77.0325965, "rental_uris": {"ios": "https://dc.lft.to/lastmile_qr_scan", "android": "https://dc.lft.to/lastmile_qr_scan"}}, {"name": "062d7a9e04c7ec87cffad538eb845d04", "fusion_lat": 0.0, "type": "electric_scooter", "lat": 38.9405585, "is_reserved": 0, "is_disabled": 0, "fusion_lon": 0.0, "bike_id": "062d7a9e04c7ec87cffad538eb845d04", "lon": -77.03289183333334, "rental_uris": {"ios": "https://dc.lft.to/lastmile_qr_scan", "android": "https://dc.lft.to/lastmile_qr_scan"}}, {"name": "bb9b7d565f9fe2272165b15bc8d94dbe", "fusion_lat": 0.0, "type": "electric_scooter", "lat": 38.89771266666666, "is_reserved": 0, "is_disabled": 0, "fusion_lon": 0.0, "bike_id": "bb9b7d565f9fe2272165b15bc8d94dbe", "lon": -76.97722, "rental_uris": {"ios": "https://dc.lft.to/lastmile_qr_scan", "android": "https://dc.lft.to/lastmile_qr_scan"}}, {"name": "81fbc677a90aae73227812cefee841d2", "fusion_lat": 0.0, "type": "electric_scooter", "lat": 38.900386166666664, "is_reserved": 0, "is_disabled": 0, "fusion_lon": 0.0, "bike_id": "81fbc677a90aae73227812cefee841d2", "lon": -77.01188416666666, "rental_uris": {"ios": "https://dc.lft.to/lastmile_qr_scan", "android": "https://dc.lft.to/lastmile_qr_scan"}}, {"name": "3080d82e9284791f3aeeb4c92412edb0", "fusion_lat": 0.0, "type": "electric_scooter", "lat": 38.90080233333333, "is_reserved": 0, "is_disabled": 0, "fusion_lon": 0.0, "bike_id": "3080d82e9284791f3aeeb4c92412edb0", "lon": -77.049868, "rental_uris": {"ios": "https://dc.lft.to/lastmile_qr_scan", "android": "https://dc.lft.to/lastmile_qr_scan"}}, {"name": "850f09da5f79a3c877743fdf8c878bf4", "fusion_lat": 0.0, "type": "electric_scooter", "lat": 38.918126666666666, "is_reserved": 0, "is_disabled": 0, "fusion_lon": 0.0, "bike_id": "850f09da5f79a3c877743fdf8c878bf4", "lon": -77.03212016666667, "rental_uris": {"ios": "https://dc.lft.to/lastmile_qr_scan", "android": "https://dc.lft.to/lastmile_qr_scan"}}, {"name": "92771fdd91b5fe7fae3d0fa380c4dbd1", "fusion_lat": 0.0, "type": "electric_scooter", "lat": 38.8859895, "is_reserved": 0, "is_disabled": 0, "fusion_lon": 0.0, "bike_id": "92771fdd91b5fe7fae3d0fa380c4dbd1", "lon": -77.0176215, "rental_uris": {"ios": "https://dc.lft.to/lastmile_qr_scan", "android": "https://dc.lft.to/lastmile_qr_scan"}}, {"name": "80e7e2e4955240fd8058473507804222", "fusion_lat": 0.0, "type": "electric_bike", "lat": 38.96873316666667, "is_reserved": 0, "is_disabled": 0, "fusion_lon": 0.0, "bike_id": "80e7e2e4955240fd8058473507804222", "lon": -77.03339066666666, "rental_uris": {"ios": "https://dc.lft.to/lastmile_qr_scan", "android": "https://dc.lft.to/lastmile_qr_scan"}}, {"name": "b72a943d4554111f7b9f32d919349627", "fusion_lat": 0.0, "type": "electric_scooter", "lat": 38.91879516666667, "is_reserved": 0, "is_disabled": 0, "fusion_lon": 0.0, "bike_id": "b72a943d4554111f7b9f32d919349627", "lon": -77.04348183333333, "rental_uris": {"ios": "https://dc.lft.to/lastmile_qr_scan", "android": "https://dc.lft.to/lastmile_qr_scan"}}, {"name": "8b7560cc07b459118e2107ab1c10476b", "fusion_lat": 0.0, "type": "electric_scooter", "lat": 38.899636666666666, "is_reserved": 0, "is_disabled": 0, "fusion_lon": 0.0, "bike_id": "8b7560cc07b459118e2107ab1c10476b", "lon": -77.03123533333333, "rental_uris": {"ios": "https://dc.lft.to/lastmile_qr_scan", "android": "https://dc.lft.to/lastmile_qr_scan"}}, {"name": "3afd505d19acf63ca0607150bb20c53c", "fusion_lat": 0.0, "type": "electric_scooter", "lat": 38.902640166666664, "is_reserved": 0, "is_disabled": 0, "fusion_lon": 0.0, "bike_id": "3afd505d19acf63ca0607150bb20c53c", "lon": -77.031422, "rental_uris": {"ios": "https://dc.lft.to/lastmile_qr_scan", "android": "https://dc.lft.to/lastmile_qr_scan"}}, {"name": "8d4aa49b69cad1dd558b179e0913c483", "fusion_lat": 0.0, "type": "electric_scooter", "lat": 38.9273715, "is_reserved": 0, "is_disabled": 0, "fusion_lon": 0.0, "bike_id": "8d4aa49b69cad1dd558b179e0913c483", "lon": -77.034271, "rental_uris": {"ios": "https://dc.lft.to/lastmile_qr_scan", "android": "https://dc.lft.to/lastmile_qr_scan"}}, {"name": "a114862062bf27c85955aab6f4cb9820", "fusion_lat": 0.0, "type": "electric_bike", "lat": 38.959188166666664, "is_reserved": 0, "is_disabled": 0, "fusion_lon": 0.0, "bike_id": "a114862062bf27c85955aab6f4cb9820", "lon": -77.00154183333333, "rental_uris": {"ios": "https://dc.lft.to/lastmile_qr_scan", "android": "https://dc.lft.to/lastmile_qr_scan"}}, {"name": "939931bd95451eceb4775d8a3b71e703", "fusion_lat": 0.0, "type": "electric_scooter", "lat": 38.893547166666664, "is_reserved": 0, "is_disabled": 0, "fusion_lon": 0.0, "bike_id": "939931bd95451eceb4775d8a3b71e703", "lon": -76.94946983333334, "rental_uris": {"ios": "https://dc.lft.to/lastmile_qr_scan", "android": "https://dc.lft.to/lastmile_qr_scan"}}, {"name": "4acee768e78a36a557870bb6efa8541a", "fusion_lat": 0.0, "type": "electric_scooter", "lat": 38.89708366666667, "is_reserved": 0, "is_disabled": 0, "fusion_lon": 0.0, "bike_id": "4acee768e78a36a557870bb6efa8541a", "lon": -77.0325625, "rental_uris": {"ios": "https://dc.lft.to/lastmile_qr_scan", "android": "https://dc.lft.to/lastmile_qr_scan"}}, {"name": "9bb166e1887d76ca06097f657d9b2975", "fusion_lat": 0.0, "type": "electric_scooter", "lat": 38.937199666666665, "is_reserved": 0, "is_disabled": 0, "fusion_lon": 0.0, "bike_id": "9bb166e1887d76ca06097f657d9b2975", "lon": -77.036474, "rental_uris": {"ios": "https://dc.lft.to/lastmile_qr_scan", "android": "https://dc.lft.to/lastmile_qr_scan"}}, {"name": "e64afa199945434179038f4ebd2d8cfd", "fusion_lat": 0.0, "type": "electric_scooter", "lat": 38.9012755, "is_reserved": 0, "is_disabled": 0, "fusion_lon": 0.0, "bike_id": "e64afa199945434179038f4ebd2d8cfd", "lon": -77.04010616666666, "rental_uris": {"ios": "https://dc.lft.to/lastmile_qr_scan", "android": "https://dc.lft.to/lastmile_qr_scan"}}, {"name": "996ab517debe7e9f789bf1f534470b8d", "fusion_lat": 0.0, "type": "electric_scooter", "lat": 38.91504233333333, "is_reserved": 0, "is_disabled": 0, "fusion_lon": 0.0, "bike_id": "996ab517debe7e9f789bf1f534470b8d", "lon": -77.03238833333333, "rental_uris": {"ios": "https://dc.lft.to/lastmile_qr_scan", "android": "https://dc.lft.to/lastmile_qr_scan"}}, {"name": "9d25937eb451f03a186137616649ea44", "fusion_lat": 0.0, "type": "electric_bike", "lat": 39.1056625, "is_reserved": 0, "is_disabled": 0, "fusion_lon": 0.0, "bike_id": "9d25937eb451f03a186137616649ea44", "lon": -77.15266866666667, "rental_uris": {"ios": "https://dc.lft.to/lastmile_qr_scan", "android": "https://dc.lft.to/lastmile_qr_scan"}}, {"name": "fb1a1d9dad8b255b60aedbbb9e4f8dff", "fusion_lat": 0.0, "type": "electric_scooter", "lat": 38.876565666666664, "is_reserved": 0, "is_disabled": 0, "fusion_lon": 0.0, "bike_id": "fb1a1d9dad8b255b60aedbbb9e4f8dff", "lon": -76.96507633333333, "rental_uris": {"ios": "https://dc.lft.to/lastmile_qr_scan", "android": "https://dc.lft.to/lastmile_qr_scan"}}, {"name": "0897b101b9f28b42c92522079e4d320c", "fusion_lat": 0.0, "type": "electric_scooter", "lat": 38.89668316666667, "is_reserved": 0, "is_disabled": 0, "fusion_lon": 0.0, "bike_id": "0897b101b9f28b42c92522079e4d320c", "lon": -77.04665766666666, "rental_uris": {"ios": "https://dc.lft.to/lastmile_qr_scan", "android": "https://dc.lft.to/lastmile_qr_scan"}}, {"name": "09391a50459021629f34c588b0ac192c", "fusion_lat": 0.0, "type": "electric_scooter", "lat": 38.92372133333333, "is_reserved": 0, "is_disabled": 0, "fusion_lon": 0.0, "bike_id": "09391a50459021629f34c588b0ac192c", "lon": -77.05029866666666, "rental_uris": {"ios": "https://dc.lft.to/lastmile_qr_scan", "android": "https://dc.lft.to/lastmile_qr_scan"}}, {"name": "f5182d240ee267d3e3b971ebc0139407", "fusion_lat": 0.0, "type": "electric_scooter", "lat": 38.895641166666664, "is_reserved": 0, "is_disabled": 0, "fusion_lon": 0.0, "bike_id": "f5182d240ee267d3e3b971ebc0139407", "lon": -77.04657383333333, "rental_uris": {"ios": "https://dc.lft.to/lastmile_qr_scan", "android": "https://dc.lft.to/lastmile_qr_scan"}}, {"name": "b22ab281fead17ad7d45180bd8ef7c87", "fusion_lat": 0.0, "type": "electric_bike", "lat": 38.886922166666665, "is_reserved": 0, "is_disabled": 0, "fusion_lon": 0.0, "bike_id": "b22ab281fead17ad7d45180bd8ef7c87", "lon": -77.16268983333333, "rental_uris": {"ios": "https://dc.lft.to/lastmile_qr_scan", "android": "https://dc.lft.to/lastmile_qr_scan"}}, {"name": "ef28b10b3821c2eef5d759816664037e", "fusion_lat": 0.0, "type": "electric_scooter", "lat": 38.909738, "is_reserved": 0, "is_disabled": 0, "fusion_lon": 0.0, "bike_id": "ef28b10b3821c2eef5d759816664037e", "lon": -77.03682116666667, "rental_uris": {"ios": "https://dc.lft.to/lastmile_qr_scan", "android": "https://dc.lft.to/lastmile_qr_scan"}}, {"name": "b5aa59748f0823007c4ebb02664565ca", "fusion_lat": 0.0, "type": "electric_scooter", "lat": 38.9119825, "is_reserved": 0, "is_disabled": 0, "fusion_lon": 0.0, "bike_id": "b5aa59748f0823007c4ebb02664565ca", "lon": -77.044956, "rental_uris": {"ios": "https://dc.lft.to/lastmile_qr_scan", "android": "https://dc.lft.to/lastmile_qr_scan"}}, {"name": "ed1bac6db9c06032b45d924f9acf1429", "fusion_lat": 0.0, "type": "electric_scooter", "lat": 38.90086266666667, "is_reserved": 0, "is_disabled": 0, "fusion_lon": 0.0, "bike_id": "ed1bac6db9c06032b45d924f9acf1429", "lon": -77.032155, "rental_uris": {"ios": "https://dc.lft.to/lastmile_qr_scan", "android": "https://dc.lft.to/lastmile_qr_scan"}}, {"name": "9952625f1b1960700754484ba5a77a74", "fusion_lat": 0.0, "type": "electric_scooter", "lat": 38.90268716666667, "is_reserved": 0, "is_disabled": 0, "fusion_lon": 0.0, "bike_id": "9952625f1b1960700754484ba5a77a74", "lon": -77.05318916666667, "rental_uris": {"ios": "https://dc.lft.to/lastmile_qr_scan", "android": "https://dc.lft.to/lastmile_qr_scan"}}, {"name": "8576855a544467cc206d7d1a09a9d853", "fusion_lat": 0.0, "type": "electric_scooter", "lat": 38.94509133333333, "is_reserved": 0, "is_disabled": 0, "fusion_lon": 0.0, "bike_id": "8576855a544467cc206d7d1a09a9d853", "lon": -77.031474, "rental_uris": {"ios": "https://dc.lft.to/lastmile_qr_scan", "android": "https://dc.lft.to/lastmile_qr_scan"}}, {"name": "1ca99e130f06661a42c3c7ba3cb63245", "fusion_lat": 0.0, "type": "electric_bike", "lat": 38.955554, "is_reserved": 0, "is_disabled": 0, "fusion_lon": 0.0, "bike_id": "1ca99e130f06661a42c3c7ba3cb63245", "lon": -77.016116, "rental_uris": {"ios": "https://dc.lft.to/lastmile_qr_scan", "android": "https://dc.lft.to/lastmile_qr_scan"}}, {"name": "091d48117b82871b66cf174c34e2f542", "fusion_lat": 0.0, "type": "electric_scooter", "lat": 38.905814166666666, "is_reserved": 0, "is_disabled": 0, "fusion_lon": 0.0, "bike_id": "091d48117b82871b66cf174c34e2f542", "lon": -77.02762483333333, "rental_uris": {"ios": "https://dc.lft.to/lastmile_qr_scan", "android": "https://dc.lft.to/lastmile_qr_scan"}}, {"name": "5bf11166c0835424f1b8acb30fd93155", "fusion_lat": 0.0, "type": "electric_scooter", "lat": 38.922447166666664, "is_reserved": 0, "is_disabled": 0, "fusion_lon": 0.0, "bike_id": "5bf11166c0835424f1b8acb30fd93155", "lon": -77.03344783333333, "rental_uris": {"ios": "https://dc.lft.to/lastmile_qr_scan", "android": "https://dc.lft.to/lastmile_qr_scan"}}, {"name": "c65127c750416b0b600d8030be3bb6b2", "fusion_lat": 0.0, "type": "electric_scooter", "lat": 38.935849166666664, "is_reserved": 0, "is_disabled": 0, "fusion_lon": 0.0, "bike_id": "c65127c750416b0b600d8030be3bb6b2", "lon": -76.9910465, "rental_uris": {"ios": "https://dc.lft.to/lastmile_qr_scan", "android": "https://dc.lft.to/lastmile_qr_scan"}}, {"name": "b2a84bf8141c02a9d5a54d3bede37e1e", "fusion_lat": 0.0, "type": "electric_scooter", "lat": 38.899723, "is_reserved": 0, "is_disabled": 0, "fusion_lon": 0.0, "bike_id": "b2a84bf8141c02a9d5a54d3bede37e1e", "lon": -77.03389633333333, "rental_uris": {"ios": "https://dc.lft.to/lastmile_qr_scan", "android": "https://dc.lft.to/lastmile_qr_scan"}}, {"name": "6d2027b9ea0bfe78191118030b00b1ff", "fusion_lat": 0.0, "type": "electric_bike", "lat": 38.83817333333333, "is_reserved": 0, "is_disabled": 0, "fusion_lon": 0.0, "bike_id": "6d2027b9ea0bfe78191118030b00b1ff", "lon": -77.09523016666667, "rental_uris": {"ios": "https://dc.lft.to/lastmile_qr_scan", "android": "https://dc.lft.to/lastmile_qr_scan"}}, {"name": "a070532cc6317573da1efaedb219c394", "fusion_lat": 0.0, "type": "electric_scooter", "lat": 38.91592816666667, "is_reserved": 0, "is_disabled": 0, "fusion_lon": 0.0, "bike_id": "a070532cc6317573da1efaedb219c394", "lon": -77.032052, "rental_uris": {"ios": "https://dc.lft.to/lastmile_qr_scan", "android": "https://dc.lft.to/lastmile_qr_scan"}}, {"name": "86da84034bbfd31e04b576bcd69c8f24", "fusion_lat": 0.0, "type": "electric_scooter", "lat": 38.895445333333335, "is_reserved": 0, "is_disabled": 0, "fusion_lon": 0.0, "bike_id": "86da84034bbfd31e04b576bcd69c8f24", "lon": -77.046438, "rental_uris": {"ios": "https://dc.lft.to/lastmile_qr_scan", "android": "https://dc.lft.to/lastmile_qr_scan"}}, {"name": "55995d01adf3709a661038099dd9b7c5", "fusion_lat": 0.0, "type": "electric_scooter", "lat": 38.92535133333333, "is_reserved": 0, "is_disabled": 0, "fusion_lon": 0.0, "bike_id": "55995d01adf3709a661038099dd9b7c5", "lon": -77.05550116666667, "rental_uris": {"ios": "https://dc.lft.to/lastmile_qr_scan", "android": "https://dc.lft.to/lastmile_qr_scan"}}, {"name": "23da1dd4f60ff077240535db5e679a07", "fusion_lat": 0.0, "type": "electric_scooter", "lat": 38.90156266666666, "is_reserved": 0, "is_disabled": 0, "fusion_lon": 0.0, "bike_id": "23da1dd4f60ff077240535db5e679a07", "lon": -76.930588, "rental_uris": {"ios": "https://dc.lft.to/lastmile_qr_scan", "android": "https://dc.lft.to/lastmile_qr_scan"}}, {"name": "407878bc5b41b0aaef73ac0079c4b0cd", "fusion_lat": 0.0, "type": "electric_scooter", "lat": 38.923649166666664, "is_reserved": 0, "is_disabled": 0, "fusion_lon": 0.0, "bike_id": "407878bc5b41b0aaef73ac0079c4b0cd", "lon": -77.050931, "rental_uris": {"ios": "https://dc.lft.to/lastmile_qr_scan", "android": "https://dc.lft.to/lastmile_qr_scan"}}, {"name": "8ab24fa3407335b8babf4fc8926d2611", "fusion_lat": 0.0, "type": "electric_scooter", "lat": 38.89404583333334, "is_reserved": 0, "is_disabled": 0, "fusion_lon": 0.0, "bike_id": "8ab24fa3407335b8babf4fc8926d2611", "lon": -76.94805116666667, "rental_uris": {"ios": "https://dc.lft.to/lastmile_qr_scan", "android": "https://dc.lft.to/lastmile_qr_scan"}}, {"name": "cf63a39587cf8b32a71256555a92c93e", "fusion_lat": 0.0, "type": "electric_scooter", "lat": 38.8571405, "is_reserved": 0, "is_disabled": 0, "fusion_lon": 0.0, "bike_id": "cf63a39587cf8b32a71256555a92c93e", "lon": -76.98123833333334, "rental_uris": {"ios": "https://dc.lft.to/lastmile_qr_scan", "android": "https://dc.lft.to/lastmile_qr_scan"}}, {"name": "c9a7593ab7a01534a83bad72413b0cca", "fusion_lat": 0.0, "type": "electric_scooter", "lat": 38.92244516666667, "is_reserved": 0, "is_disabled": 0, "fusion_lon": 0.0, "bike_id": "c9a7593ab7a01534a83bad72413b0cca", "lon": -77.04244716666666, "rental_uris": {"ios": "https://dc.lft.to/lastmile_qr_scan", "android": "https://dc.lft.to/lastmile_qr_scan"}}, {"name": "67d4d4695a156fdd38f244cf0caa2197", "fusion_lat": 0.0, "type": "electric_scooter", "lat": 38.887486833333334, "is_reserved": 0, "is_disabled": 0, "fusion_lon": 0.0, "bike_id": "67d4d4695a156fdd38f244cf0caa2197", "lon": -77.02128766666667, "rental_uris": {"ios": "https://dc.lft.to/lastmile_qr_scan", "android": "https://dc.lft.to/lastmile_qr_scan"}}, {"name": "4add3b3b4113b7b7affdb855c92706ae", "fusion_lat": 0.0, "type": "electric_scooter", "lat": 38.884349, "is_reserved": 0, "is_disabled": 0, "fusion_lon": 0.0, "bike_id": "4add3b3b4113b7b7affdb855c92706ae", "lon": -76.95750866666667, "rental_uris": {"ios": "https://dc.lft.to/lastmile_qr_scan", "android": "https://dc.lft.to/lastmile_qr_scan"}}, {"name": "85397d23928e69ad3a3a7cb25e39cb7b", "fusion_lat": 0.0, "type": "electric_scooter", "lat": 38.91523, "is_reserved": 0, "is_disabled": 0, "fusion_lon": 0.0, "bike_id": "85397d23928e69ad3a3a7cb25e39cb7b", "lon": -77.04492233333333, "rental_uris": {"ios": "https://dc.lft.to/lastmile_qr_scan", "android": "https://dc.lft.to/lastmile_qr_scan"}}, {"name": "86fd258fe95afe6a088ece4672bc90b9", "fusion_lat": 0.0, "type": "electric_scooter", "lat": 38.897303, "is_reserved": 0, "is_disabled": 0, "fusion_lon": 0.0, "bike_id": "86fd258fe95afe6a088ece4672bc90b9", "lon": -77.0265785, "rental_uris": {"ios": "https://dc.lft.to/lastmile_qr_scan", "android": "https://dc.lft.to/lastmile_qr_scan"}}, {"name": "36c0322eecbde691c7f2fb9a5ca0c568", "fusion_lat": 0.0, "type": "electric_scooter", "lat": 38.90495216666667, "is_reserved": 0, "is_disabled": 0, "fusion_lon": 0.0, "bike_id": "36c0322eecbde691c7f2fb9a5ca0c568", "lon": -77.04183183333333, "rental_uris": {"ios": "https://dc.lft.to/lastmile_qr_scan", "android": "https://dc.lft.to/lastmile_qr_scan"}}, {"name": "887cb7a9b293073884dbc29134782eb3", "fusion_lat": 0.0, "type": "electric_scooter", "lat": 38.93335616666667, "is_reserved": 0, "is_disabled": 0, "fusion_lon": 0.0, "bike_id": "887cb7a9b293073884dbc29134782eb3", "lon": -77.03259983333334, "rental_uris": {"ios": "https://dc.lft.to/lastmile_qr_scan", "android": "https://dc.lft.to/lastmile_qr_scan"}}, {"name": "f0791825c9a7b9c9ed1d122d6f28fce0", "fusion_lat": 0.0, "type": "electric_scooter", "lat": 38.91413716666667, "is_reserved": 0, "is_disabled": 0, "fusion_lon": 0.0, "bike_id": "f0791825c9a7b9c9ed1d122d6f28fce0", "lon": -77.04563983333334, "rental_uris": {"ios": "https://dc.lft.to/lastmile_qr_scan", "android": "https://dc.lft.to/lastmile_qr_scan"}}, {"name": "f440c88005b1dc26370740249a6f81fa", "fusion_lat": 0.0, "type": "electric_scooter", "lat": 38.902595166666664, "is_reserved": 0, "is_disabled": 0, "fusion_lon": 0.0, "bike_id": "f440c88005b1dc26370740249a6f81fa", "lon": -77.0025355, "rental_uris": {"ios": "https://dc.lft.to/lastmile_qr_scan", "android": "https://dc.lft.to/lastmile_qr_scan"}}, {"name": "76bc5ad5bbe2d257992ad996755693d1", "fusion_lat": 0.0, "type": "electric_scooter", "lat": 38.89236616666667, "is_reserved": 0, "is_disabled": 0, "fusion_lon": 0.0, "bike_id": "76bc5ad5bbe2d257992ad996755693d1", "lon": -77.05008683333334, "rental_uris": {"ios": "https://dc.lft.to/lastmile_qr_scan", "android": "https://dc.lft.to/lastmile_qr_scan"}}, {"name": "48118efa9ce872523aa1e7e893ef79a2", "fusion_lat": 0.0, "type": "electric_scooter", "lat": 38.8922985, "is_reserved": 0, "is_disabled": 0, "fusion_lon": 0.0, "bike_id": "48118efa9ce872523aa1e7e893ef79a2", "lon": -77.02629516666667, "rental_uris": {"ios": "https://dc.lft.to/lastmile_qr_scan", "android": "https://dc.lft.to/lastmile_qr_scan"}}, {"name": "20f70fad192060fbd41524f263cd8eed", "fusion_lat": 0.0, "type": "electric_scooter", "lat": 38.892247166666664, "is_reserved": 0, "is_disabled": 0, "fusion_lon": 0.0, "bike_id": "20f70fad192060fbd41524f263cd8eed", "lon": -77.0262655, "rental_uris": {"ios": "https://dc.lft.to/lastmile_qr_scan", "android": "https://dc.lft.to/lastmile_qr_scan"}}, {"name": "f24c8ec0020606f02bd6d9639d78dddb", "fusion_lat": 0.0, "type": "electric_scooter", "lat": 38.9243195, "is_reserved": 0, "is_disabled": 0, "fusion_lon": 0.0, "bike_id": "f24c8ec0020606f02bd6d9639d78dddb", "lon": -77.01947733333333, "rental_uris": {"ios": "https://dc.lft.to/lastmile_qr_scan", "android": "https://dc.lft.to/lastmile_qr_scan"}}, {"name": "989df434a01d962453b6f2efa7edcd95", "fusion_lat": 0.0, "type": "electric_scooter", "lat": 38.936252, "is_reserved": 0, "is_disabled": 0, "fusion_lon": 0.0, "bike_id": "989df434a01d962453b6f2efa7edcd95", "lon": -77.03211566666667, "rental_uris": {"ios": "https://dc.lft.to/lastmile_qr_scan", "android": "https://dc.lft.to/lastmile_qr_scan"}}, {"name": "b0a965846cb90ad689fb803d3c07f0f8", "fusion_lat": 0.0, "type": "electric_scooter", "lat": 38.918125333333336, "is_reserved": 0, "is_disabled": 0, "fusion_lon": 0.0, "bike_id": "b0a965846cb90ad689fb803d3c07f0f8", "lon": -77.024254, "rental_uris": {"ios": "https://dc.lft.to/lastmile_qr_scan", "android": "https://dc.lft.to/lastmile_qr_scan"}}, {"name": "3950da29ee39a80ae557cba9fe95fa85", "fusion_lat": 0.0, "type": "electric_scooter", "lat": 38.929449, "is_reserved": 0, "is_disabled": 0, "fusion_lon": 0.0, "bike_id": "3950da29ee39a80ae557cba9fe95fa85", "lon": -76.99745133333333, "rental_uris": {"ios": "https://dc.lft.to/lastmile_qr_scan", "android": "https://dc.lft.to/lastmile_qr_scan"}}, {"name": "afa2af268aef5e49a1bd1dc4dec100ac", "fusion_lat": 0.0, "type": "electric_bike", "lat": 38.95332166666667, "is_reserved": 0, "is_disabled": 0, "fusion_lon": 0.0, "bike_id": "afa2af268aef5e49a1bd1dc4dec100ac", "lon": -77.015708, "rental_uris": {"ios": "https://dc.lft.to/lastmile_qr_scan", "android": "https://dc.lft.to/lastmile_qr_scan"}}, {"name": "4223aa581f706cf35eaf9f27e026833e", "fusion_lat": 0.0, "type": "electric_scooter", "lat": 38.928929333333336, "is_reserved": 0, "is_disabled": 0, "fusion_lon": 0.0, "bike_id": "4223aa581f706cf35eaf9f27e026833e", "lon": -77.0165905, "rental_uris": {"ios": "https://dc.lft.to/lastmile_qr_scan", "android": "https://dc.lft.to/lastmile_qr_scan"}}, {"name": "7b389734faafa8fa59593e7fe70d0b63", "fusion_lat": 0.0, "type": "electric_scooter", "lat": 38.89542566666667, "is_reserved": 0, "is_disabled": 0, "fusion_lon": 0.0, "bike_id": "7b389734faafa8fa59593e7fe70d0b63", "lon": -77.02434683333334, "rental_uris": {"ios": "https://dc.lft.to/lastmile_qr_scan", "android": "https://dc.lft.to/lastmile_qr_scan"}}, {"name": "69ace246f2489ab3ed143e9de6aba446", "fusion_lat": 0.0, "type": "electric_scooter", "lat": 38.88027666666667, "is_reserved": 0, "is_disabled": 0, "fusion_lon": 0.0, "bike_id": "69ace246f2489ab3ed143e9de6aba446", "lon": -77.02483883333333, "rental_uris": {"ios": "https://dc.lft.to/lastmile_qr_scan", "android": "https://dc.lft.to/lastmile_qr_scan"}}, {"name": "33bdc280ba15c2e86cc8cfd8840f7119", "fusion_lat": 0.0, "type": "electric_scooter", "lat": 38.906768166666666, "is_reserved": 0, "is_disabled": 0, "fusion_lon": 0.0, "bike_id": "33bdc280ba15c2e86cc8cfd8840f7119", "lon": -77.038676, "rental_uris": {"ios": "https://dc.lft.to/lastmile_qr_scan", "android": "https://dc.lft.to/lastmile_qr_scan"}}, {"name": "55a545d90ff78dac486351c60cd6b432", "fusion_lat": 0.0, "type": "electric_scooter", "lat": 38.90033716666667, "is_reserved": 0, "is_disabled": 0, "fusion_lon": 0.0, "bike_id": "55a545d90ff78dac486351c60cd6b432", "lon": -76.99869266666667, "rental_uris": {"ios": "https://dc.lft.to/lastmile_qr_scan", "android": "https://dc.lft.to/lastmile_qr_scan"}}, {"name": "a87acc7a720675f8eeb720bdab26dbc7", "fusion_lat": 0.0, "type": "electric_scooter", "lat": 38.8936155, "is_reserved": 0, "is_disabled": 0, "fusion_lon": 0.0, "bike_id": "a87acc7a720675f8eeb720bdab26dbc7", "lon": -77.00333566666667, "rental_uris": {"ios": "https://dc.lft.to/lastmile_qr_scan", "android": "https://dc.lft.to/lastmile_qr_scan"}}, {"name": "6d48e154420f4b18f0aecd548bda4ed5", "fusion_lat": 0.0, "type": "electric_scooter", "lat": 38.924689666666666, "is_reserved": 0, "is_disabled": 0, "fusion_lon": 0.0, "bike_id": "6d48e154420f4b18f0aecd548bda4ed5", "lon": -77.0328065, "rental_uris": {"ios": "https://dc.lft.to/lastmile_qr_scan", "android": "https://dc.lft.to/lastmile_qr_scan"}}, {"name": "f8c8d143c42ee332295c02b4df6b9b09", "fusion_lat": 0.0, "type": "electric_scooter", "lat": 38.9072075, "is_reserved": 0, "is_disabled": 0, "fusion_lon": 0.0, "bike_id": "f8c8d143c42ee332295c02b4df6b9b09", "lon": -77.00063716666666, "rental_uris": {"ios": "https://dc.lft.to/lastmile_qr_scan", "android": "https://dc.lft.to/lastmile_qr_scan"}}, {"name": "ed45ed90c270f2dd9363adbfc74abc32", "fusion_lat": 0.0, "type": "electric_scooter", "lat": 38.908779333333335, "is_reserved": 0, "is_disabled": 0, "fusion_lon": 0.0, "bike_id": "ed45ed90c270f2dd9363adbfc74abc32", "lon": -77.085897, "rental_uris": {"ios": "https://dc.lft.to/lastmile_qr_scan", "android": "https://dc.lft.to/lastmile_qr_scan"}}, {"name": "bd2adae6e2fd8666b4c60838f4ef5b92", "fusion_lat": 0.0, "type": "electric_scooter", "lat": 38.9389405, "is_reserved": 0, "is_disabled": 0, "fusion_lon": 0.0, "bike_id": "bd2adae6e2fd8666b4c60838f4ef5b92", "lon": -77.024596, "rental_uris": {"ios": "https://dc.lft.to/lastmile_qr_scan", "android": "https://dc.lft.to/lastmile_qr_scan"}}, {"name": "f11c67f83cdd4a7c843aa6ff28533ed7", "fusion_lat": 0.0, "type": "electric_scooter", "lat": 38.93606066666667, "is_reserved": 0, "is_disabled": 0, "fusion_lon": 0.0, "bike_id": "f11c67f83cdd4a7c843aa6ff28533ed7", "lon": -77.0560055, "rental_uris": {"ios": "https://dc.lft.to/lastmile_qr_scan", "android": "https://dc.lft.to/lastmile_qr_scan"}}, {"name": "2d85a35e010e5ad9fe5dff7ad7242ef3", "fusion_lat": 0.0, "type": "electric_bike", "lat": 38.94595866666667, "is_reserved": 0, "is_disabled": 0, "fusion_lon": 0.0, "bike_id": "2d85a35e010e5ad9fe5dff7ad7242ef3", "lon": -77.002691, "rental_uris": {"ios": "https://dc.lft.to/lastmile_qr_scan", "android": "https://dc.lft.to/lastmile_qr_scan"}}, {"name": "fc6134e20ae21ecc54159029bdb95abb", "fusion_lat": 0.0, "type": "electric_scooter", "lat": 38.892399833333336, "is_reserved": 0, "is_disabled": 0, "fusion_lon": 0.0, "bike_id": "fc6134e20ae21ecc54159029bdb95abb", "lon": -77.03198816666666, "rental_uris": {"ios": "https://dc.lft.to/lastmile_qr_scan", "android": "https://dc.lft.to/lastmile_qr_scan"}}, {"name": "729d3e05f187bba0cca3777a1d76569b", "fusion_lat": 0.0, "type": "electric_scooter", "lat": 38.911243166666665, "is_reserved": 0, "is_disabled": 0, "fusion_lon": 0.0, "bike_id": "729d3e05f187bba0cca3777a1d76569b", "lon": -77.038585, "rental_uris": {"ios": "https://dc.lft.to/lastmile_qr_scan", "android": "https://dc.lft.to/lastmile_qr_scan"}}, {"name": "9a7ed3326a1930aade31f0ec69bd6123", "fusion_lat": 0.0, "type": "electric_scooter", "lat": 38.902582833333334, "is_reserved": 0, "is_disabled": 0, "fusion_lon": 0.0, "bike_id": "9a7ed3326a1930aade31f0ec69bd6123", "lon": -77.00258333333333, "rental_uris": {"ios": "https://dc.lft.to/lastmile_qr_scan", "android": "https://dc.lft.to/lastmile_qr_scan"}}, {"name": "557481cdd92a5015403f331d2972fe71", "fusion_lat": 0.0, "type": "electric_bike", "lat": 38.858548166666665, "is_reserved": 0, "is_disabled": 0, "fusion_lon": 0.0, "bike_id": "557481cdd92a5015403f331d2972fe71", "lon": -77.097505, "rental_uris": {"ios": "https://dc.lft.to/lastmile_qr_scan", "android": "https://dc.lft.to/lastmile_qr_scan"}}, {"name": "7e2a4a0f50759621a83cef72a28a6263", "fusion_lat": 0.0, "type": "electric_scooter", "lat": 38.902723, "is_reserved": 0, "is_disabled": 0, "fusion_lon": 0.0, "bike_id": "7e2a4a0f50759621a83cef72a28a6263", "lon": -77.05319, "rental_uris": {"ios": "https://dc.lft.to/lastmile_qr_scan", "android": "https://dc.lft.to/lastmile_qr_scan"}}, {"name": "ea906222cfe41e6ce69c94350c3cc84a", "fusion_lat": 0.0, "type": "electric_scooter", "lat": 38.921139833333335, "is_reserved": 0, "is_disabled": 0, "fusion_lon": 0.0, "bike_id": "ea906222cfe41e6ce69c94350c3cc84a", "lon": -77.031841, "rental_uris": {"ios": "https://dc.lft.to/lastmile_qr_scan", "android": "https://dc.lft.to/lastmile_qr_scan"}}, {"name": "463515dbc730b2ef67ce195fb0e4f0ea", "fusion_lat": 0.0, "type": "electric_scooter", "lat": 38.863813, "is_reserved": 0, "is_disabled": 0, "fusion_lon": 0.0, "bike_id": "463515dbc730b2ef67ce195fb0e4f0ea", "lon": -76.99059383333334, "rental_uris": {"ios": "https://dc.lft.to/lastmile_qr_scan", "android": "https://dc.lft.to/lastmile_qr_scan"}}, {"name": "834f99804f49ca7d3b90a4cb80306c1b", "fusion_lat": 0.0, "type": "electric_scooter", "lat": 38.893954, "is_reserved": 0, "is_disabled": 0, "fusion_lon": 0.0, "bike_id": "834f99804f49ca7d3b90a4cb80306c1b", "lon": -77.02992933333333, "rental_uris": {"ios": "https://dc.lft.to/lastmile_qr_scan", "android": "https://dc.lft.to/lastmile_qr_scan"}}, {"name": "6870eaa4b14e03b40e7beefb29c523ab", "fusion_lat": 0.0, "type": "electric_scooter", "lat": 38.909633166666666, "is_reserved": 0, "is_disabled": 0, "fusion_lon": 0.0, "bike_id": "6870eaa4b14e03b40e7beefb29c523ab", "lon": -77.04609583333334, "rental_uris": {"ios": "https://dc.lft.to/lastmile_qr_scan", "android": "https://dc.lft.to/lastmile_qr_scan"}}, {"name": "72d99f64490d811bea0f2191eccd4de6", "fusion_lat": 0.0, "type": "electric_scooter", "lat": 38.86665, "is_reserved": 0, "is_disabled": 0, "fusion_lon": 0.0, "bike_id": "72d99f64490d811bea0f2191eccd4de6", "lon": -76.98878766666667, "rental_uris": {"ios": "https://dc.lft.to/lastmile_qr_scan", "android": "https://dc.lft.to/lastmile_qr_scan"}}, {"name": "60474956e1d254a52bc3a1162316b9d1", "fusion_lat": 0.0, "type": "electric_scooter", "lat": 38.925961, "is_reserved": 0, "is_disabled": 0, "fusion_lon": 0.0, "bike_id": "60474956e1d254a52bc3a1162316b9d1", "lon": -77.02608383333333, "rental_uris": {"ios": "https://dc.lft.to/lastmile_qr_scan", "android": "https://dc.lft.to/lastmile_qr_scan"}}, {"name": "3900c1c290e503184400bfb39ca00610", "fusion_lat": 0.0, "type": "electric_scooter", "lat": 38.931266, "is_reserved": 0, "is_disabled": 0, "fusion_lon": 0.0, "bike_id": "3900c1c290e503184400bfb39ca00610", "lon": -77.0360605, "rental_uris": {"ios": "https://dc.lft.to/lastmile_qr_scan", "android": "https://dc.lft.to/lastmile_qr_scan"}}, {"name": "98dcc890237a0ce880928d138f612201", "fusion_lat": 0.0, "type": "electric_scooter", "lat": 38.93085883333333, "is_reserved": 0, "is_disabled": 0, "fusion_lon": 0.0, "bike_id": "98dcc890237a0ce880928d138f612201", "lon": -77.028106, "rental_uris": {"ios": "https://dc.lft.to/lastmile_qr_scan", "android": "https://dc.lft.to/lastmile_qr_scan"}}, {"name": "75e7fda4453b0486d4041df9852f8d3a", "fusion_lat": 0.0, "type": "electric_scooter", "lat": 38.89518916666667, "is_reserved": 0, "is_disabled": 0, "fusion_lon": 0.0, "bike_id": "75e7fda4453b0486d4041df9852f8d3a", "lon": -77.01122366666667, "rental_uris": {"ios": "https://dc.lft.to/lastmile_qr_scan", "android": "https://dc.lft.to/lastmile_qr_scan"}}, {"name": "c7cfa61df5486fd348a1ae9ba07773ed", "fusion_lat": 0.0, "type": "electric_scooter", "lat": 38.92369583333333, "is_reserved": 0, "is_disabled": 0, "fusion_lon": 0.0, "bike_id": "c7cfa61df5486fd348a1ae9ba07773ed", "lon": -77.058406, "rental_uris": {"ios": "https://dc.lft.to/lastmile_qr_scan", "android": "https://dc.lft.to/lastmile_qr_scan"}}, {"name": "3b9bf4a4a4fe9b667d4b2889f1cb45cd", "fusion_lat": 0.0, "type": "electric_scooter", "lat": 38.925186, "is_reserved": 0, "is_disabled": 0, "fusion_lon": 0.0, "bike_id": "3b9bf4a4a4fe9b667d4b2889f1cb45cd", "lon": -77.00173583333333, "rental_uris": {"ios": "https://dc.lft.to/lastmile_qr_scan", "android": "https://dc.lft.to/lastmile_qr_scan"}}, {"name": "34c850ab60adf4ce5939edac3a5e61f4", "fusion_lat": 0.0, "type": "electric_scooter", "lat": 38.894574666666664, "is_reserved": 0, "is_disabled": 0, "fusion_lon": 0.0, "bike_id": "34c850ab60adf4ce5939edac3a5e61f4", "lon": -77.04539516666667, "rental_uris": {"ios": "https://dc.lft.to/lastmile_qr_scan", "android": "https://dc.lft.to/lastmile_qr_scan"}}, {"name": "3600ddc056fd501df1cdd84ba09763b6", "fusion_lat": 0.0, "type": "electric_scooter", "lat": 38.90974333333333, "is_reserved": 0, "is_disabled": 0, "fusion_lon": 0.0, "bike_id": "3600ddc056fd501df1cdd84ba09763b6", "lon": -77.02746666666667, "rental_uris": {"ios": "https://dc.lft.to/lastmile_qr_scan", "android": "https://dc.lft.to/lastmile_qr_scan"}}, {"name": "e943bc8123c6bf51272d95852034d51f", "fusion_lat": 0.0, "type": "electric_scooter", "lat": 38.901952, "is_reserved": 0, "is_disabled": 0, "fusion_lon": 0.0, "bike_id": "e943bc8123c6bf51272d95852034d51f", "lon": -76.98191916666667, "rental_uris": {"ios": "https://dc.lft.to/lastmile_qr_scan", "android": "https://dc.lft.to/lastmile_qr_scan"}}, {"name": "32e5f8439c710c986adf2fd5bc7f78ac", "fusion_lat": 0.0, "type": "electric_scooter", "lat": 38.883740833333334, "is_reserved": 0, "is_disabled": 0, "fusion_lon": 0.0, "bike_id": "32e5f8439c710c986adf2fd5bc7f78ac", "lon": -76.92373566666667, "rental_uris": {"ios": "https://dc.lft.to/lastmile_qr_scan", "android": "https://dc.lft.to/lastmile_qr_scan"}}, {"name": "7da9414782bae18f9ffed528e0bc791a", "fusion_lat": 0.0, "type": "electric_scooter", "lat": 38.9127435, "is_reserved": 0, "is_disabled": 0, "fusion_lon": 0.0, "bike_id": "7da9414782bae18f9ffed528e0bc791a", "lon": -77.03721483333334, "rental_uris": {"ios": "https://dc.lft.to/lastmile_qr_scan", "android": "https://dc.lft.to/lastmile_qr_scan"}}, {"name": "bff6a50a578b3837e43fd1941ab4e434", "fusion_lat": 0.0, "type": "electric_scooter", "lat": 38.917704666666666, "is_reserved": 0, "is_disabled": 0, "fusion_lon": 0.0, "bike_id": "bff6a50a578b3837e43fd1941ab4e434", "lon": -77.09666983333334, "rental_uris": {"ios": "https://dc.lft.to/lastmile_qr_scan", "android": "https://dc.lft.to/lastmile_qr_scan"}}, {"name": "a8a25b480611a92b6edfb9fb7defb225", "fusion_lat": 0.0, "type": "electric_scooter", "lat": 38.866636166666666, "is_reserved": 0, "is_disabled": 0, "fusion_lon": 0.0, "bike_id": "a8a25b480611a92b6edfb9fb7defb225", "lon": -76.988826, "rental_uris": {"ios": "https://dc.lft.to/lastmile_qr_scan", "android": "https://dc.lft.to/lastmile_qr_scan"}}, {"name": "4b159608ee7c780d589101094365fe7c", "fusion_lat": 0.0, "type": "electric_scooter", "lat": 38.90649, "is_reserved": 0, "is_disabled": 0, "fusion_lon": 0.0, "bike_id": "4b159608ee7c780d589101094365fe7c", "lon": -77.00590166666667, "rental_uris": {"ios": "https://dc.lft.to/lastmile_qr_scan", "android": "https://dc.lft.to/lastmile_qr_scan"}}, {"name": "986a2e81a4d89464859a201bc0fc57c9", "fusion_lat": 0.0, "type": "electric_scooter", "lat": 38.925258166666666, "is_reserved": 0, "is_disabled": 0, "fusion_lon": 0.0, "bike_id": "986a2e81a4d89464859a201bc0fc57c9", "lon": -77.0332715, "rental_uris": {"ios": "https://dc.lft.to/lastmile_qr_scan", "android": "https://dc.lft.to/lastmile_qr_scan"}}, {"name": "1fdff8a2564b12bf156adff730a7f51d", "fusion_lat": 0.0, "type": "electric_scooter", "lat": 38.902740333333334, "is_reserved": 0, "is_disabled": 0, "fusion_lon": 0.0, "bike_id": "1fdff8a2564b12bf156adff730a7f51d", "lon": -77.04383033333333, "rental_uris": {"ios": "https://dc.lft.to/lastmile_qr_scan", "android": "https://dc.lft.to/lastmile_qr_scan"}}, {"name": "3ce0c322fa1013091155236a7c33d9a7", "fusion_lat": 0.0, "type": "electric_scooter", "lat": 38.90152766666667, "is_reserved": 0, "is_disabled": 0, "fusion_lon": 0.0, "bike_id": "3ce0c322fa1013091155236a7c33d9a7", "lon": -77.00890033333333, "rental_uris": {"ios": "https://dc.lft.to/lastmile_qr_scan", "android": "https://dc.lft.to/lastmile_qr_scan"}}, {"name": "15273a9078e7b61759bb6999bdecaa4a", "fusion_lat": 0.0, "type": "electric_scooter", "lat": 38.9053035, "is_reserved": 0, "is_disabled": 0, "fusion_lon": 0.0, "bike_id": "15273a9078e7b61759bb6999bdecaa4a", "lon": -77.030519, "rental_uris": {"ios": "https://dc.lft.to/lastmile_qr_scan", "android": "https://dc.lft.to/lastmile_qr_scan"}}, {"name": "8277c0a5ba08c4e1c1b1e822f29c4595", "fusion_lat": 0.0, "type": "electric_scooter", "lat": 38.906909, "is_reserved": 0, "is_disabled": 0, "fusion_lon": 0.0, "bike_id": "8277c0a5ba08c4e1c1b1e822f29c4595", "lon": -77.04668616666666, "rental_uris": {"ios": "https://dc.lft.to/lastmile_qr_scan", "android": "https://dc.lft.to/lastmile_qr_scan"}}, {"name": "7de8be1e15189ac47aa6a47aac94f090", "fusion_lat": 0.0, "type": "electric_scooter", "lat": 38.8962165, "is_reserved": 0, "is_disabled": 0, "fusion_lon": 0.0, "bike_id": "7de8be1e15189ac47aa6a47aac94f090", "lon": -77.04467133333333, "rental_uris": {"ios": "https://dc.lft.to/lastmile_qr_scan", "android": "https://dc.lft.to/lastmile_qr_scan"}}, {"name": "361ea08f17430a345e58af4f60119486", "fusion_lat": 0.0, "type": "electric_scooter", "lat": 38.922959666666664, "is_reserved": 0, "is_disabled": 0, "fusion_lon": 0.0, "bike_id": "361ea08f17430a345e58af4f60119486", "lon": -77.02073966666667, "rental_uris": {"ios": "https://dc.lft.to/lastmile_qr_scan", "android": "https://dc.lft.to/lastmile_qr_scan"}}, {"name": "31a874bb7761aae7757e20739d7d48ea", "fusion_lat": 0.0, "type": "electric_bike", "lat": 38.905379, "is_reserved": 0, "is_disabled": 0, "fusion_lon": 0.0, "bike_id": "31a874bb7761aae7757e20739d7d48ea", "lon": -76.99804483333334, "rental_uris": {"ios": "https://dc.lft.to/lastmile_qr_scan", "android": "https://dc.lft.to/lastmile_qr_scan"}}, {"name": "d1803e72d6c012c9c6b458b16e113602", "fusion_lat": 0.0, "type": "electric_scooter", "lat": 38.913563833333335, "is_reserved": 0, "is_disabled": 0, "fusion_lon": 0.0, "bike_id": "d1803e72d6c012c9c6b458b16e113602", "lon": -77.04352433333334, "rental_uris": {"ios": "https://dc.lft.to/lastmile_qr_scan", "android": "https://dc.lft.to/lastmile_qr_scan"}}, {"name": "52813be5367b53c5e92cce10cd4b4426", "fusion_lat": 0.0, "type": "electric_scooter", "lat": 38.9170315, "is_reserved": 0, "is_disabled": 0, "fusion_lon": 0.0, "bike_id": "52813be5367b53c5e92cce10cd4b4426", "lon": -77.038926, "rental_uris": {"ios": "https://dc.lft.to/lastmile_qr_scan", "android": "https://dc.lft.to/lastmile_qr_scan"}}, {"name": "cc036136a645e4b6c3390f3946e45b46", "fusion_lat": 0.0, "type": "electric_scooter", "lat": 38.908720833333334, "is_reserved": 0, "is_disabled": 0, "fusion_lon": 0.0, "bike_id": "cc036136a645e4b6c3390f3946e45b46", "lon": -77.02717316666667, "rental_uris": {"ios": "https://dc.lft.to/lastmile_qr_scan", "android": "https://dc.lft.to/lastmile_qr_scan"}}, {"name": "5b19299088372598717ac4aebb01a23a", "fusion_lat": 0.0, "type": "electric_scooter", "lat": 38.9055535, "is_reserved": 0, "is_disabled": 0, "fusion_lon": 0.0, "bike_id": "5b19299088372598717ac4aebb01a23a", "lon": -77.040973, "rental_uris": {"ios": "https://dc.lft.to/lastmile_qr_scan", "android": "https://dc.lft.to/lastmile_qr_scan"}}, {"name": "792cfe7391be4314065a6b646d421d2a", "fusion_lat": 0.0, "type": "electric_scooter", "lat": 38.93720716666667, "is_reserved": 0, "is_disabled": 0, "fusion_lon": 0.0, "bike_id": "792cfe7391be4314065a6b646d421d2a", "lon": -77.0365205, "rental_uris": {"ios": "https://dc.lft.to/lastmile_qr_scan", "android": "https://dc.lft.to/lastmile_qr_scan"}}, {"name": "4e7075984897b973c41fe925f9c3afc4", "fusion_lat": 0.0, "type": "electric_scooter", "lat": 38.9000925, "is_reserved": 0, "is_disabled": 0, "fusion_lon": 0.0, "bike_id": "4e7075984897b973c41fe925f9c3afc4", "lon": -77.02720966666666, "rental_uris": {"ios": "https://dc.lft.to/lastmile_qr_scan", "android": "https://dc.lft.to/lastmile_qr_scan"}}, {"name": "132f40d4eb00dd51a707a9aaaa6f1ca8", "fusion_lat": 0.0, "type": "electric_scooter", "lat": 38.91121066666667, "is_reserved": 0, "is_disabled": 0, "fusion_lon": 0.0, "bike_id": "132f40d4eb00dd51a707a9aaaa6f1ca8", "lon": -77.04415716666666, "rental_uris": {"ios": "https://dc.lft.to/lastmile_qr_scan", "android": "https://dc.lft.to/lastmile_qr_scan"}}, {"name": "2ea5943a30d2fa413f5d00c0066b0887", "fusion_lat": 0.0, "type": "electric_bike", "lat": 38.990943, "is_reserved": 0, "is_disabled": 0, "fusion_lon": 0.0, "bike_id": "2ea5943a30d2fa413f5d00c0066b0887", "lon": -76.87495466666667, "rental_uris": {"ios": "https://dc.lft.to/lastmile_qr_scan", "android": "https://dc.lft.to/lastmile_qr_scan"}}, {"name": "a9b37fdb525d40ebfeecf33a89780680", "fusion_lat": 0.0, "type": "electric_scooter", "lat": 38.900572, "is_reserved": 0, "is_disabled": 0, "fusion_lon": 0.0, "bike_id": "a9b37fdb525d40ebfeecf33a89780680", "lon": -77.04331183333333, "rental_uris": {"ios": "https://dc.lft.to/lastmile_qr_scan", "android": "https://dc.lft.to/lastmile_qr_scan"}}, {"name": "02acf5a01e7a04e0f3b269a545104938", "fusion_lat": 0.0, "type": "electric_scooter", "lat": 38.9018165, "is_reserved": 0, "is_disabled": 0, "fusion_lon": 0.0, "bike_id": "02acf5a01e7a04e0f3b269a545104938", "lon": -77.03210833333333, "rental_uris": {"ios": "https://dc.lft.to/lastmile_qr_scan", "android": "https://dc.lft.to/lastmile_qr_scan"}}, {"name": "345ca6c06c177e6174b57b24960e7439", "fusion_lat": 0.0, "type": "electric_scooter", "lat": 38.898677666666664, "is_reserved": 0, "is_disabled": 0, "fusion_lon": 0.0, "bike_id": "345ca6c06c177e6174b57b24960e7439", "lon": -77.0317535, "rental_uris": {"ios": "https://dc.lft.to/lastmile_qr_scan", "android": "https://dc.lft.to/lastmile_qr_scan"}}, {"name": "077dfd11e4975ba3ee58c76fd59ca66d", "fusion_lat": 0.0, "type": "electric_scooter", "lat": 38.924482166666664, "is_reserved": 0, "is_disabled": 0, "fusion_lon": 0.0, "bike_id": "077dfd11e4975ba3ee58c76fd59ca66d", "lon": -77.0297735, "rental_uris": {"ios": "https://dc.lft.to/lastmile_qr_scan", "android": "https://dc.lft.to/lastmile_qr_scan"}}, {"name": "a4a8243b4db8695937488454273309b2", "fusion_lat": 0.0, "type": "electric_scooter", "lat": 38.94968333333333, "is_reserved": 0, "is_disabled": 0, "fusion_lon": 0.0, "bike_id": "a4a8243b4db8695937488454273309b2", "lon": -77.0271785, "rental_uris": {"ios": "https://dc.lft.to/lastmile_qr_scan", "android": "https://dc.lft.to/lastmile_qr_scan"}}, {"name": "809a1b5464eda25014b4595cc42c1b7e", "fusion_lat": 0.0, "type": "electric_bike", "lat": 38.88047433333333, "is_reserved": 0, "is_disabled": 0, "fusion_lon": 0.0, "bike_id": "809a1b5464eda25014b4595cc42c1b7e", "lon": -77.01322966666666, "rental_uris": {"ios": "https://dc.lft.to/lastmile_qr_scan", "android": "https://dc.lft.to/lastmile_qr_scan"}}, {"name": "f09a4b4a04a3e98657fcaf2869d7834f", "fusion_lat": 0.0, "type": "electric_scooter", "lat": 38.911288, "is_reserved": 0, "is_disabled": 0, "fusion_lon": 0.0, "bike_id": "f09a4b4a04a3e98657fcaf2869d7834f", "lon": -77.04357116666667, "rental_uris": {"ios": "https://dc.lft.to/lastmile_qr_scan", "android": "https://dc.lft.to/lastmile_qr_scan"}}, {"name": "18f7004e7ccf76846d4277d88192ff6e", "fusion_lat": 0.0, "type": "electric_scooter", "lat": 38.9111895, "is_reserved": 0, "is_disabled": 0, "fusion_lon": 0.0, "bike_id": "18f7004e7ccf76846d4277d88192ff6e", "lon": -77.04528366666666, "rental_uris": {"ios": "https://dc.lft.to/lastmile_qr_scan", "android": "https://dc.lft.to/lastmile_qr_scan"}}, {"name": "fa44503baca491c83228258c3a96beac", "fusion_lat": 0.0, "type": "electric_scooter", "lat": 38.898886166666664, "is_reserved": 0, "is_disabled": 0, "fusion_lon": 0.0, "bike_id": "fa44503baca491c83228258c3a96beac", "lon": -77.03334733333334, "rental_uris": {"ios": "https://dc.lft.to/lastmile_qr_scan", "android": "https://dc.lft.to/lastmile_qr_scan"}}, {"name": "d2ea2b39b19c1d8e930c9e9f98709204", "fusion_lat": 0.0, "type": "electric_scooter", "lat": 38.902800666666664, "is_reserved": 0, "is_disabled": 0, "fusion_lon": 0.0, "bike_id": "d2ea2b39b19c1d8e930c9e9f98709204", "lon": -77.03406033333333, "rental_uris": {"ios": "https://dc.lft.to/lastmile_qr_scan", "android": "https://dc.lft.to/lastmile_qr_scan"}}, {"name": "fdf34b9ea153203fbef5a59efc6883fd", "fusion_lat": 0.0, "type": "electric_scooter", "lat": 38.9047585, "is_reserved": 0, "is_disabled": 0, "fusion_lon": 0.0, "bike_id": "fdf34b9ea153203fbef5a59efc6883fd", "lon": -77.03544966666666, "rental_uris": {"ios": "https://dc.lft.to/lastmile_qr_scan", "android": "https://dc.lft.to/lastmile_qr_scan"}}, {"name": "450b93a513f177072003181d19b1ce8e", "fusion_lat": 0.0, "type": "electric_scooter", "lat": 38.881432833333335, "is_reserved": 0, "is_disabled": 0, "fusion_lon": 0.0, "bike_id": "450b93a513f177072003181d19b1ce8e", "lon": -76.9855615, "rental_uris": {"ios": "https://dc.lft.to/lastmile_qr_scan", "android": "https://dc.lft.to/lastmile_qr_scan"}}, {"name": "c7a19d49d7124ec751e3333b64c17992", "fusion_lat": 0.0, "type": "electric_scooter", "lat": 38.916905166666666, "is_reserved": 0, "is_disabled": 0, "fusion_lon": 0.0, "bike_id": "c7a19d49d7124ec751e3333b64c17992", "lon": -77.024561, "rental_uris": {"ios": "https://dc.lft.to/lastmile_qr_scan", "android": "https://dc.lft.to/lastmile_qr_scan"}}, {"name": "c7882a81da151d25a56a16a8b573d76b", "fusion_lat": 0.0, "type": "electric_scooter", "lat": 38.89096716666667, "is_reserved": 0, "is_disabled": 0, "fusion_lon": 0.0, "bike_id": "c7882a81da151d25a56a16a8b573d76b", "lon": -76.9872985, "rental_uris": {"ios": "https://dc.lft.to/lastmile_qr_scan", "android": "https://dc.lft.to/lastmile_qr_scan"}}, {"name": "72480330de241178d7f8313c141e2876", "fusion_lat": 0.0, "type": "electric_scooter", "lat": 38.90289533333333, "is_reserved": 0, "is_disabled": 0, "fusion_lon": 0.0, "bike_id": "72480330de241178d7f8313c141e2876", "lon": -77.034415, "rental_uris": {"ios": "https://dc.lft.to/lastmile_qr_scan", "android": "https://dc.lft.to/lastmile_qr_scan"}}, {"name": "09487e6c64254dc328fc4500c41a95c0", "fusion_lat": 0.0, "type": "electric_scooter", "lat": 38.8622095, "is_reserved": 0, "is_disabled": 0, "fusion_lon": 0.0, "bike_id": "09487e6c64254dc328fc4500c41a95c0", "lon": -76.99494316666667, "rental_uris": {"ios": "https://dc.lft.to/lastmile_qr_scan", "android": "https://dc.lft.to/lastmile_qr_scan"}}, {"name": "c4adcaee76e596c03301b683a2cae623", "fusion_lat": 0.0, "type": "electric_scooter", "lat": 38.9118945, "is_reserved": 0, "is_disabled": 0, "fusion_lon": 0.0, "bike_id": "c4adcaee76e596c03301b683a2cae623", "lon": -77.03203266666667, "rental_uris": {"ios": "https://dc.lft.to/lastmile_qr_scan", "android": "https://dc.lft.to/lastmile_qr_scan"}}, {"name": "8dbdde6db4e669ac80834cf00ff82b48", "fusion_lat": 0.0, "type": "electric_scooter", "lat": 38.9325895, "is_reserved": 0, "is_disabled": 0, "fusion_lon": 0.0, "bike_id": "8dbdde6db4e669ac80834cf00ff82b48", "lon": -77.03995316666666, "rental_uris": {"ios": "https://dc.lft.to/lastmile_qr_scan", "android": "https://dc.lft.to/lastmile_qr_scan"}}, {"name": "7ec2c29146fd1b991c80fbc2c8ba41b2", "fusion_lat": 0.0, "type": "electric_bike", "lat": 38.870966, "is_reserved": 0, "is_disabled": 0, "fusion_lon": 0.0, "bike_id": "7ec2c29146fd1b991c80fbc2c8ba41b2", "lon": -77.0119965, "rental_uris": {"ios": "https://dc.lft.to/lastmile_qr_scan", "android": "https://dc.lft.to/lastmile_qr_scan"}}, {"name": "8556fa1a210d0b7a7d7291ed4309b7d1", "fusion_lat": 0.0, "type": "electric_scooter", "lat": 38.906018333333336, "is_reserved": 0, "is_disabled": 0, "fusion_lon": 0.0, "bike_id": "8556fa1a210d0b7a7d7291ed4309b7d1", "lon": -77.07008933333333, "rental_uris": {"ios": "https://dc.lft.to/lastmile_qr_scan", "android": "https://dc.lft.to/lastmile_qr_scan"}}, {"name": "5ccde6d14ef417c29a3a7f5d8888bab8", "fusion_lat": 0.0, "type": "electric_scooter", "lat": 38.868367, "is_reserved": 0, "is_disabled": 0, "fusion_lon": 0.0, "bike_id": "5ccde6d14ef417c29a3a7f5d8888bab8", "lon": -76.98611633333333, "rental_uris": {"ios": "https://dc.lft.to/lastmile_qr_scan", "android": "https://dc.lft.to/lastmile_qr_scan"}},