{"data": {"bikes": [{"lat": 38.920576833333335, "is_disabled": 0, "type": "electric_scooter", "lon": -77.0424255, "bike_id": "fbe17907ed3b85bdc51bc3dab3028e1f", "fusion_lat": 0.0, "name": "fbe17907ed3b85bdc51bc3dab3028e1f", "is_reserved": 0, "rental_uris": {"android": "https://dc.lft.to/lastmile_qr_scan", "ios": "https://dc.lft.to/lastmile_qr_scan"}, "fusion_lon": 0.0}, {"lat": 38.90139766666667, "is_disabled": 0, "type": "electric_scooter", "lon": -77.04155483333334, "bike_id": "6e7c8fc8512f824a28e6bd83a5d4f0ad", "fusion_lat": 0.0, "name": "6e7c8fc8512f824a28e6bd83a5d4f0ad", "is_reserved": 0, "rental_uris": {"android": "https://dc.lft.to/lastmile_qr_scan", "ios": "https://dc.lft.to/lastmile_qr_scan"}, "fusion_lon": 0.0}, {"lat": 38.90163416666667, "is_disabled": 0, "type": "electric_scooter", "lon": -77.02495333333333, "bike_id": "9f6b28a736c704ca02f9cbfe8e11d54c", "fusion_lat": 0.0, "name": "9f6b28a736c704ca02f9cbfe8e11d54c", "is_reserved": 0, "rental_uris": {"android": "https://dc.lft.to/lastmile_qr_scan", "ios": "https://dc.lft.to/lastmile_qr_scan"}, "fusion_lon": 0.0}, {"lat": 38.920015, "is_disabled": 0, "type": "electric_scooter", "lon": -77.023946, "bike_id": "2d12fdc05937d7df2f051bdfab2f8bb6", "fusion_lat": 0.0, "name": "2d12fdc05937d7df2f051bdfab2f8bb6", "is_reserved": 0, "rental_uris": {"android": "https://dc.lft.to/lastmile_qr_scan", "ios": "https://dc.lft.to/lastmile_qr_scan"}, "fusion_lon": 0.0}, {"lat": 38.908647333333334, "is_disabled": 0, "type": "electric_bike", "lon": -77.0015255, "bike_id": "38ee3f408f40467be219af45714f8d81", "fusion_lat": 0.0, "name": "38ee3f408f40467be219af45714f8d81", "is_reserved": 0, "rental_uris": {"android": "https://dc.lft.to/lastmile_qr_scan", "ios": "https://dc.lft.to/lastmile_qr_scan"}, "fusion_lon": 0.0}, {"lat": 38.85735916666667, "is_disabled": 0, "type": "electric_scooter", "lon": -76.99436266666666, "bike_id": "df6102e3a831bee077d79f87a96ace3e", "fusion_lat": 0.0, "name": "df6102e3a831bee077d79f87a96ace3e", "is_reserved": 0, "rental_uris": {"android": "https://dc.lft.to/lastmile_qr_scan", "ios": "https://dc.lft.to/lastmile_qr_scan"}, "fusion_lon": 0.0}, {"lat": 38.90955616666667, "is_disabled": 0, "type": "electric_scooter", "lon": -77.03420016666666, "bike_id": "3e79593652c14ca4a6a443be106cc29a", "fusion_lat": 0.0, "name": "3e79593652c14ca4a6a443be106cc29a", "is_reserved": 0, "rental_uris": {"android": "https://dc.lft.to/lastmile_qr_scan", "ios": "https://dc.lft.to/lastmile_qr_scan"}, "fusion_lon": 0.0}, {"lat": 38.9168895, "is_disabled": 0, "type": "electric_scooter", "lon": -77.03069333333333, "bike_id": "df7ca465bab25d7330296ec5c4d0123a", "fusion_lat": 0.0, "name": "df7ca465bab25d7330296ec5c4d0123a", "is_reserved": 0, "rental_uris": {"android": "https://dc.lft.to/lastmile_qr_scan", "ios": "https://dc.lft.to/lastmile_qr_scan"}, "fusion_lon": 0.0}, {"lat": 38.94442166666666, "is_disabled": 0, "type": "electric_scooter", "lon": -77.023397, "bike_id": "4e42115d667c051bc33a952d663ae19e", "fusion_lat": 0.0, "name": "4e42115d667c051bc33a952d663ae19e", "is_reserved": 0, "rental_uris": {"android": "https://dc.lft.to/lastmile_qr_scan", "ios": "https://dc.lft.to/lastmile_qr_scan"}, "fusion_lon": 0.0}, {"lat": 38.94450366666667, "is_disabled": 0, "type": "electric_scooter", "lon": -77.06028016666667, "bike_id": "ae2f1a3ce79cc9ae8184727ae17e20e4", "fusion_lat": 0.0, "name": "ae2f1a3ce79cc9ae8184727ae17e20e4", "is_reserved": 0, "rental_uris": {"android": "https://dc.lft.to/lastmile_qr_scan", "ios": "https://dc.lft.to/lastmile_qr_scan"}, "fusion_lon": 0.0}, {"lat": 38.90957566666667, "is_disabled": 0, "type": "electric_scooter", "lon": -77.03743816666666, "bike_id": "ad70a97e94e1748f9f9d89441d8721ec", "fusion_lat": 0.0, "name": "ad70a97e94e1748f9f9d89441d8721ec", "is_reserved": 0, "rental_uris": {"android": "https://dc.lft.to/lastmile_qr_scan", "ios": "https://dc.lft.to/lastmile_qr_scan"}, "fusion_lon": 0.0}, {"lat": 38.85809783333333, "is_disabled": 0, "type": "electric_scooter", "lon": -76.98653916666666, "bike_id": "ddcb3448a5a55b519bb7bbbcf8c61164", "fusion_lat": 0.0, "name": "ddcb3448a5a55b519bb7bbbcf8c61164", "is_reserved": 0, "rental_uris": {"android": "https://dc.lft.to/lastmile_qr_scan", "ios": "https://dc.lft.to/lastmile_qr_scan"}, "fusion_lon": 0.0}, {"lat": 38.8974315, "is_disabled": 0, "type": "electric_scooter", "lon": -77.04796833333333, "bike_id": "df770e20b4e04f471528edca7187f393", "fusion_lat": 0.0, "name": "df770e20b4e04f471528edca7187f393", "is_reserved": 0, "rental_uris": {"android": "https://dc.lft.to/lastmile_qr_scan", "ios": "https://dc.lft.to/lastmile_qr_scan"}, "fusion_lon": 0.0}, {"lat": 38.911171333333336, "is_disabled": 0, "type": "electric_scooter", "lon": -77.00337683333333, "bike_id": "87b8c53e5e5d27e69080983a8cdab9fe", "fusion_lat": 0.0, "name": "87b8c53e5e5d27e69080983a8cdab9fe", "is_reserved": 0, "rental_uris": {"android": "https://dc.lft.to/lastmile_qr_scan", "ios": "https://dc.lft.to/lastmile_qr_scan"}, "fusion_lon": 0.0}, {"lat": 38.87425966666667, "is_disabled": 0, "type": "electric_bike", "lon": -77.08580733333334, "bike_id": "ae39c4fddd78cb6e84d3543872aff79a", "fusion_lat": 0.0, "name": "ae39c4fddd78cb6e84d3543872aff79a", "is_reserved": 0, "rental_uris": {"android": "https://dc.lft.to/lastmile_qr_scan", "ios": "https://dc.lft.to/lastmile_qr_scan"}, "fusion_lon": 0.0}, {"lat": 38.92383483333333, "is_disabled": 0, "type": "electric_scooter", "lon": -77.03664016666667, "bike_id": "24db8b1e14ba29362d26fb59bee310e8", "fusion_lat": 0.0, "name": "24db8b1e14ba29362d26fb59bee310e8", "is_reserved": 0, "rental_uris": {"android": "https://dc.lft.to/lastmile_qr_scan", "ios": "https://dc.lft.to/lastmile_qr_scan"}, "fusion_lon": 0.0}, {"lat": 38.916898333333336, "is_disabled": 0, "type": "electric_scooter", "lon": -77.042737, "bike_id": "567a384a71c6c3831c8807d9d53b4253", "fusion_lat": 0.0, "name": "567a384a71c6c3831c8807d9d53b4253", "is_reserved": 0, "rental_uris": {"android": "https://dc.lft.to/lastmile_qr_scan", "ios": "https://dc.lft.to/lastmile_qr_scan"}, "fusion_lon": 0.0}, {"lat": 38.90405066666667, "is_disabled": 0, "type": "electric_bike", "lon": -77.06525516666666, "bike_id": "c7ae2a710818245fb467374594d0d6a9", "fusion_lat": 0.0, "name": "c7ae2a710818245fb467374594d0d6a9", "is_reserved": 0, "rental_uris": {"android": "https://dc.lft.to/lastmile_qr_scan", "ios": "https://dc.lft.to/lastmile_qr_scan"}, "fusion_lon": 0.0}, {"lat": 38.87964183333333, "is_disabled": 0, "type": "electric_scooter", "lon": -77.0174735, "bike_id": "e684959db173d3387b959268b73d2f5d", "fusion_lat": 0.0, "name": "e684959db173d3387b959268b73d2f5d", "is_reserved": 0, "rental_uris": {"android": "https://dc.lft.to/lastmile_qr_scan", "ios": "https://dc.lft.to/lastmile_qr_scan"}, "fusion_lon": 0.0}, {"lat": 38.924676166666664, "is_disabled": 0, "type": "electric_bike", "lon": -77.20844016666666, "bike_id": "ab487e0879a11e65d0823731c395cf2e", "fusion_lat": 0.0, "name": "ab487e0879a11e65d0823731c395cf2e", "is_reserved": 0, "rental_uris": {"android": "https://dc.lft.to/lastmile_qr_scan", "ios": "https://dc.lft.to/lastmile_qr_scan"}, "fusion_lon": 0.0}, {"lat": 38.90037266666667, "is_disabled": 0, "type": "electric_scooter", "lon": -77.00593116666667, "bike_id": "60b988e669b68fe93f0eb6926c422e8a", "fusion_lat": 0.0, "name": "60b988e669b68fe93f0eb6926c422e8a", "is_reserved": 0, "rental_uris": {"android": "https://dc.lft.to/lastmile_qr_scan", "ios": "https://dc.lft.to/lastmile_qr_scan"}, "fusion_lon": 0.0}, {"lat": 38.91407733333333, "is_disabled": 0, "type": "electric_scooter", "lon": -76.98925683333333, "bike_id": "c7b6b377a900acc0187b6d8a279a447c", "fusion_lat": 0.0, "name": "c7b6b377a900acc0187b6d8a279a447c", "is_reserved": 0, "rental_uris": {"android": "https://dc.lft.to/lastmile_qr_scan", "ios": "https://dc.lft.to/lastmile_qr_scan"}, "fusion_lon": 0.0}, {"lat": 38.92570633333333, "is_disabled": 0, "type": "electric_scooter", "lon": -77.02567366666666, "bike_id": "e12518f4d1ab16c1f307461535141a96", "fusion_lat": 0.0, "name": "e12518f4d1ab16c1f307461535141a96", "is_reserved": 0, "rental_uris": {"android": "https://dc.lft.to/lastmile_qr_scan", "ios": "https://dc.lft.to/lastmile_qr_scan"}, "fusion_lon": 0.0}, {"lat": 38.935937333333335, "is_disabled": 0, "type": "electric_scooter", "lon": -77.0352965, "bike_id": "8303bb7c534b29b3f52bc112ad2dcd48", "fusion_lat": 0.0, "name": "8303bb7c534b29b3f52bc112ad2dcd48", "is_reserved": 0, "rental_uris": {"android": "https://dc.lft.to/lastmile_qr_scan", "ios": "https://dc.lft.to/lastmile_qr_scan"}, "fusion_lon": 0.0}, {"lat": 38.9244625, "is_disabled": 0, "type": "electric_scooter", "lon": -76.99334383333333, "bike_id": "8c686b737a3025ab825683ecf5f73a65", "fusion_lat": 0.0, "name": "8c686b737a3025ab825683ecf5f73a65", "is_reserved": 0, "rental_uris": {"android": "https://dc.lft.to/lastmile_qr_scan", "ios": "https://dc.lft.to/lastmile_qr_scan"}, "fusion_lon": 0.0}, {"lat": 38.909739, "is_disabled": 0, "type": "electric_scooter", "lon": -77.03944566666667, "bike_id": "9e8438c04a15449e1a5835843773c9a7", "fusion_lat": 0.0, "name": "9e8438c04a15449e1a5835843773c9a7", "is_reserved": 0, "rental_uris": {"android": "https://dc.lft.to/lastmile_qr_scan", "ios": "https://dc.lft.to/lastmile_qr_scan"}, "fusion_lon": 0.0}, {"lat": 38.872902833333335, "is_disabled": 0, "type": "electric_scooter", "lon": -77.00987883333333, "bike_id": "0e17e347cb01b142b0753a37be5a582b", "fusion_lat": 0.0, "name": "0e17e347cb01b142b0753a37be5a582b", "is_reserved": 0, "rental_uris": {"android": "https://dc.lft.to/lastmile_qr_scan", "ios": "https://dc.lft.to/lastmile_qr_scan"}, "fusion_lon": 0.0}, {"lat": 38.87863, "is_disabled": 0, "type": "electric_scooter", "lon": -77.00746366666667, "bike_id": "c0533e68abcae9c7050c3f27bddd362c", "fusion_lat": 0.0, "name": "c0533e68abcae9c7050c3f27bddd362c", "is_reserved": 0, "rental_uris": {"android": "https://dc.lft.to/lastmile_qr_scan", "ios": "https://dc.lft.to/lastmile_qr_scan"}, "fusion_lon": 0.0}, {"lat": 38.916730333333334, "is_disabled": 0, "type": "electric_scooter", "lon": -77.02390283333334, "bike_id": "698cf31a55b69ab7f101f011516a4350", "fusion_lat": 0.0, "name": "698cf31a55b69ab7f101f011516a4350", "is_reserved": 0, "rental_uris": {"android": "https://dc.lft.to/lastmile_qr_scan", "ios": "https://dc.lft.to/lastmile_qr_scan"}, "fusion_lon": 0.0}, {"lat": 38.898771333333336, "is_disabled": 0, "type": "electric_scooter", "lon": -77.02035116666667, "bike_id": "5ef81657b22614f8bfce55d8cf3a66d0", "fusion_lat": 0.0, "name": "5ef81657b22614f8bfce55d8cf3a66d0", "is_reserved": 0, "rental_uris": {"android": "https://dc.lft.to/lastmile_qr_scan", "ios": "https://dc.lft.to/lastmile_qr_scan"}, "fusion_lon": 0.0}, {"lat": 38.87733133333333, "is_disabled": 0, "type": "electric_bike", "lon": -76.981096, "bike_id": "42b4a128e9b289c11d4f36569423b5ce", "fusion_lat": 0.0, "name": "42b4a128e9b289c11d4f36569423b5ce", "is_reserved": 0, "rental_uris": {"android": "https://dc.lft.to/lastmile_qr_scan", "ios": "https://dc.lft.to/lastmile_qr_scan"}, "fusion_lon": 0.0}, {"lat": 38.866743666666665, "is_disabled": 0, "type": "electric_scooter", "lon": -76.9853845, "bike_id": "632da92b390d66859fc41b4f21352397", "fusion_lat": 0.0, "name": "632da92b390d66859fc41b4f21352397", "is_reserved": 0, "rental_uris": {"android": "https://dc.lft.to/lastmile_qr_scan", "ios": "https://dc.lft.to/lastmile_qr_scan"}, "fusion_lon": 0.0}, {"lat": 38.92066583333333, "is_disabled": 0, "type": "electric_scooter", "lon": -77.04809383333334, "bike_id": "812db9d4ca540280f460734b5afaa432", "fusion_lat": 0.0, "name": "812db9d4ca540280f460734b5afaa432", "is_reserved": 0, "rental_uris": {"android": "https://dc.lft.to/lastmile_qr_scan", "ios": "https://dc.lft.to/lastmile_qr_scan"}, "fusion_lon": 0.0}, {"lat": 38.900131, "is_disabled": 0, "type": "electric_scooter", "lon": -77.0119735, "bike_id": "77664c743d374d25a6a13ed6c1fedc08", "fusion_lat": 0.0, "name": "77664c743d374d25a6a13ed6c1fedc08", "is_reserved": 0, "rental_uris": {"android": "https://dc.lft.to/lastmile_qr_scan", "ios": "https://dc.lft.to/lastmile_qr_scan"}, "fusion_lon": 0.0}, {"lat": 38.83232016666667, "is_disabled": 0, "type": "electric_bike", "lon": -77.0497015, "bike_id": "0a127bad33863483236f665536c8fcfd", "fusion_lat": 0.0, "name": "0a127bad33863483236f665536c8fcfd", "is_reserved": 0, "rental_uris": {"android": "https://dc.lft.to/lastmile_qr_scan", "ios": "https://dc.lft.to/lastmile_qr_scan"}, "fusion_lon": 0.0}, {"lat": 38.917495, "is_disabled": 0, "type": "electric_scooter", "lon": -77.028039, "bike_id": "115563b5d21d9cbed5786914cc243cf1", "fusion_lat": 0.0, "name": "115563b5d21d9cbed5786914cc243cf1", "is_reserved": 0, "rental_uris": {"android": "https://dc.lft.to/lastmile_qr_scan", "ios": "https://dc.lft.to/lastmile_qr_scan"}, "fusion_lon": 0.0}, {"lat": 38.897426333333335, "is_disabled": 0, "type": "electric_scooter", "lon": -77.00075616666666, "bike_id": "423f42bb6aa2f7247e36b31536e9d6a9", "fusion_lat": 0.0, "name": "423f42bb6aa2f7247e36b31536e9d6a9", "is_reserved": 0, "rental_uris": {"android": "https://dc.lft.to/lastmile_qr_scan", "ios": "https://dc.lft.to/lastmile_qr_scan"}, "fusion_lon": 0.0}, {"lat": 38.93320333333333, "is_disabled": 0, "type": "electric_scooter", "lon": -77.04518466666667, "bike_id": "18590987c25597620831b30c315b5f81", "fusion_lat": 0.0, "name": "18590987c25597620831b30c315b5f81", "is_reserved": 0, "rental_uris": {"android": "https://dc.lft.to/lastmile_qr_scan", "ios": "https://dc.lft.to/lastmile_qr_scan"}, "fusion_lon": 0.0}, {"lat": 38.90092816666667, "is_disabled": 0, "type": "electric_scooter", "lon": -77.0506145, "bike_id": "cf264d4a7ecc6da202af82520b527425", "fusion_lat": 0.0, "name": "cf264d4a7ecc6da202af82520b527425", "is_reserved": 0, "rental_uris": {"android": "https://dc.lft.to/lastmile_qr_scan", "ios": "https://dc.lft.to/lastmile_qr_scan"}, "fusion_lon": 0.0}, {"lat": 38.903545, "is_disabled": 0, "type": "electric_scooter", "lon": -77.01621183333333, "bike_id": "eb1405ace73bd7ce823a2efdcc309d16", "fusion_lat": 0.0, "name": "eb1405ace73bd7ce823a2efdcc309d16", "is_reserved": 0, "rental_uris": {"android": "https://dc.lft.to/lastmile_qr_scan", "ios": "https://dc.lft.to/lastmile_qr_scan"}, "fusion_lon": 0.0}, {"lat": 38.836905, "is_disabled": 0, "type": "electric_scooter", "lon": -77.10309366666667, "bike_id": "586b0fab45bc098076aed2c5d0b4f9e1", "fusion_lat": 0.0, "name": "586b0fab45bc098076aed2c5d0b4f9e1", "is_reserved": 0, "rental_uris": {"android": "https://dc.lft.to/lastmile_qr_scan", "ios": "https://dc.lft.to/lastmile_qr_scan"}, "fusion_lon": 0.0}, {"lat": 38.881152, "is_disabled": 0, "type": "electric_scooter", "lon": -76.98335716666666, "bike_id": "02bcb1675773d77ee4925734897557c2", "fusion_lat": 0.0, "name": "02bcb1675773d77ee4925734897557c2", "is_reserved": 0, "rental_uris": {"android": "https://dc.lft.to/lastmile_qr_scan", "ios": "https://dc.lft.to/lastmile_qr_scan"}, "fusion_lon": 0.0}, {"lat": 38.916391, "is_disabled": 0, "type": "electric_scooter", "lon": -77.032976, "bike_id": "3643e1560abede9758666e6ad66102c0", "fusion_lat": 0.0, "name": "3643e1560abede9758666e6ad66102c0", "is_reserved": 0, "rental_uris": {"android": "https://dc.lft.to/lastmile_qr_scan", "ios": "https://dc.lft.to/lastmile_qr_scan"}, "fusion_lon": 0.0}, {"lat": 38.87147866666667, "is_disabled": 0, "type": "electric_bike", "lon": -76.93707233333333, "bike_id": "6fc1518980c1eb7b812fec648cfce249", "fusion_lat": 0.0, "name": "6fc1518980c1eb7b812fec648cfce249", "is_reserved": 0, "rental_uris": {"android": "https://dc.lft.to/lastmile_qr_scan", "ios": "https://dc.lft.to/lastmile_qr_scan"}, "fusion_lon": 0.0}, {"lat": 38.93662966666667, "is_disabled": 0, "type": "electric_scooter", "lon": -77.05934383333333, "bike_id": "244b2921d46040b0d56933f3ca98f484", "fusion_lat": 0.0, "name": "244b2921d46040b0d56933f3ca98f484", "is_reserved": 0, "rental_uris": {"android": "https://dc.lft.to/lastmile_qr_scan", "ios": "https://dc.lft.to/lastmile_qr_scan"}, "fusion_lon": 0.0}, {"lat": 38.845651333333336, "is_disabled": 0, "type": "electric_bike", "lon": -77.096265, "bike_id": "f9a407ded6e4914c38f82fa671d78157", "fusion_lat": 0.0, "name": "f9a407ded6e4914c38f82fa671d78157", "is_reserved": 0, "rental_uris": {"android": "https://dc.lft.to/lastmile_qr_scan", "ios": "https://dc.lft.to/lastmile_qr_scan"}, "fusion_lon": 0.0}, {"lat": 38.867099833333334, "is_disabled": 0, "type": "electric_scooter", "lon": -76.9872665, "bike_id": "53cc38060f9510e7bac4fe8eb50ba544", "fusion_lat": 0.0, "name": "53cc38060f9510e7bac4fe8eb50ba544", "is_reserved": 0, "rental_uris": {"android": "https://dc.lft.to/lastmile_qr_scan", "ios": "https://dc.lft.to/lastmile_qr_scan"}, "fusion_lon": 0.0}, {"lat": 38.92708316666667, "is_disabled": 0, "type": "electric_scooter", "lon": -77.02085233333334, "bike_id": "52d4d102d9cdbc515ca8d6dbe20b0f13", "fusion_lat": 0.0, "name": "52d4d102d9cdbc515ca8d6dbe20b0f13", "is_reserved": 0, "rental_uris": {"android": "https://dc.lft.to/lastmile_qr_scan", "ios": "https://dc.lft.to/lastmile_qr_scan"}, "fusion_lon": 0.0}, {"lat": 38.9314375, "is_disabled": 0, "type": "electric_scooter", "lon": -77.04143233333333, "bike_id": "d4644bb2f19e3960b5e35cfbda94a24a", "fusion_lat": 0.0, "name": "d4644bb2f19e3960b5e35cfbda94a24a", "is_reserved": 0, "rental_uris": {"android": "https://dc.lft.to/lastmile_qr_scan", "ios": "https://dc.lft.to/lastmile_qr_scan"}, "fusion_lon": 0.0}, {"lat": 38.866482500000004, "is_disabled": 0, "type": "electric_scooter", "lon": -76.988865, "bike_id": "1a5ae08cd3337b360d95165b701b7003", "fusion_lat": 0.0, "name": "1a5ae08cd3337b360d95165b701b7003", "is_reserved": 0, "rental_uris": {"android": "https://dc.lft.to/lastmile_qr_scan", "ios": "https://dc.lft.to/lastmile_qr_scan"}, "fusion_lon": 0.0}, {"lat": 38.92148383333333, "is_disabled": 0, "type": "electric_scooter", "lon": -77.03347783333334, "bike_id": "c1ec27e7fad59e928053b61c1138da22", "fusion_lat": 0.0, "name": "c1ec27e7fad59e928053b61c1138da22", "is_reserved": 0, "rental_uris": {"android": "https://dc.lft.to/lastmile_qr_scan", "ios": "https://dc.lft.to/lastmile_qr_scan"}, "fusion_lon": 0.0}, {"lat": 38.9230875, "is_disabled": 0, "type": "electric_scooter", "lon": -77.03963933333333, "bike_id": "a83bb580ea0fe32bb611524700053278", "fusion_lat": 0.0, "name": "a83bb580ea0fe32bb611524700053278", "is_reserved": 0, "rental_uris": {"android": "https://dc.lft.to/lastmile_qr_scan", "ios": "https://dc.lft.to/lastmile_qr_scan"}, "fusion_lon": 0.0}, {"lat": 38.90568566666666, "is_disabled": 0, "type": "electric_scooter", "lon": -77.02958016666666, "bike_id": "9082fc2e55ecd9cab818326f7e8841d1", "fusion_lat": 0.0, "name": "9082fc2e55ecd9cab818326f7e8841d1", "is_reserved": 0, "rental_uris": {"android": "https://dc.lft.to/lastmile_qr_scan", "ios": "https://dc.lft.to/lastmile_qr_scan"}, "fusion_lon": 0.0}, {"lat": 38.91360266666667, "is_disabled": 0, "type": "electric_scooter", "lon": -77.0691735, "bike_id": "588c0152be5bd55b66ce058a6cdcf51d", "fusion_lat": 0.0, "name": "588c0152be5bd55b66ce058a6cdcf51d", "is_reserved": 0, "rental_uris": {"android": "https://dc.lft.to/lastmile_qr_scan", "ios": "https://dc.lft.to/lastmile_qr_scan"}, "fusion_lon": 0.0}, {"lat": 38.928131666666665, "is_disabled": 0, "type": "electric_scooter", "lon": -77.05433433333333, "bike_id": "4b52ec8bc38e68e151423b7747a30b4b", "fusion_lat": 0.0, "name": "4b52ec8bc38e68e151423b7747a30b4b", "is_reserved": 0, "rental_uris": {"android": "https://dc.lft.to/lastmile_qr_scan", "ios": "https://dc.lft.to/lastmile_qr_scan"}, "fusion_lon": 0.0}, {"lat": 38.9210395, "is_disabled": 0, "type": "electric_scooter", "lon": -77.0457455, "bike_id": "81fe5c26722a7fd4acea17c48c59f697", "fusion_lat": 0.0, "name": "81fe5c26722a7fd4acea17c48c59f697", "is_reserved": 0, "rental_uris": {"android": "https://dc.lft.to/lastmile_qr_scan", "ios": "https://dc.lft.to/lastmile_qr_scan"}, "fusion_lon": 0.0}, {"lat": 38.92576066666667, "is_disabled": 0, "type": "electric_scooter", "lon": -77.052778, "bike_id": "89323588f353aa51a39c7a5c66af6cf8", "fusion_lat": 0.0, "name": "89323588f353aa51a39c7a5c66af6cf8", "is_reserved": 0, "rental_uris": {"android": "https://dc.lft.to/lastmile_qr_scan", "ios": "https://dc.lft.to/lastmile_qr_scan"}, "fusion_lon": 0.0}, {"lat": 38.914610333333336, "is_disabled": 0, "type": "electric_scooter", "lon": -77.00217583333334, "bike_id": "86fc8a9aa3958b4e4c547b7c8bd73621", "fusion_lat": 0.0, "name": "86fc8a9aa3958b4e4c547b7c8bd73621", "is_reserved": 0, "rental_uris": {"android": "https://dc.lft.to/lastmile_qr_scan", "ios": "https://dc.lft.to/lastmile_qr_scan"}, "fusion_lon": 0.0}, {"lat": 38.89844316666667, "is_disabled": 0, "type": "electric_scooter", "lon": -76.944602, "bike_id": "771b712defc7348a8c668d9246d179d9", "fusion_lat": 0.0, "name": "771b712defc7348a8c668d9246d179d9", "is_reserved": 0, "rental_uris": {"android": "https://dc.lft.to/lastmile_qr_scan", "ios": "https://dc.lft.to/lastmile_qr_scan"}, "fusion_lon": 0.0}, {"lat": 38.90561683333333, "is_disabled": 0, "type": "electric_bike", "lon": -77.00495616666667, "bike_id": "f8472127d77d90cac42a2c3edbbf0ba8", "fusion_lat": 0.0, "name": "f8472127d77d90cac42a2c3edbbf0ba8", "is_reserved": 0, "rental_uris": {"android": "https://dc.lft.to/lastmile_qr_scan", "ios": "https://dc.lft.to/lastmile_qr_scan"}, "fusion_lon": 0.0}, {"lat": 38.862843166666664, "is_disabled": 0, "type": "electric_scooter", "lon": -76.99236316666666, "bike_id": "5cdfdddf2837e1dee791f646f4e5c13e", "fusion_lat": 0.0, "name": "5cdfdddf2837e1dee791f646f4e5c13e", "is_reserved": 0, "rental_uris": {"android": "https://dc.lft.to/lastmile_qr_scan", "ios": "https://dc.lft.to/lastmile_qr_scan"}, "fusion_lon": 0.0}, {"lat": 39.075048833333334, "is_disabled": 0, "type": "electric_bike", "lon": -77.1190485, "bike_id": "918d263c44cdd3499e05670dea84f8d1", "fusion_lat": 0.0, "name": "918d263c44cdd3499e05670dea84f8d1", "is_reserved": 0, "rental_uris": {"android": "https://dc.lft.to/lastmile_qr_scan", "ios": "https://dc.lft.to/lastmile_qr_scan"}, "fusion_lon": 0.0}, {"lat": 38.903215833333334, "is_disabled": 0, "type": "electric_scooter", "lon": -77.05224533333333, "bike_id": "73010011297261a620177ff2097f43e2", "fusion_lat": 0.0, "name": "73010011297261a620177ff2097f43e2", "is_reserved": 0, "rental_uris": {"android": "https://dc.lft.to/lastmile_qr_scan", "ios": "https://dc.lft.to/lastmile_qr_scan"}, "fusion_lon": 0.0}, {"lat": 38.9187625, "is_disabled": 0, "type": "electric_scooter", "lon": -77.03503583333334, "bike_id": "f93f17f71a13a7b5400da96e9dfcb7f3", "fusion_lat": 0.0, "name": "f93f17f71a13a7b5400da96e9dfcb7f3", "is_reserved": 0, "rental_uris": {"android": "https://dc.lft.to/lastmile_qr_scan", "ios": "https://dc.lft.to/lastmile_qr_scan"}, "fusion_lon": 0.0}, {"lat": 38.905862166666665, "is_disabled": 0, "type": "electric_scooter", "lon": -76.9861655, "bike_id": "55789e7eb424eb1b2aa63eeee4ea3985", "fusion_lat": 0.0, "name": "55789e7eb424eb1b2aa63eeee4ea3985", "is_reserved": 0, "rental_uris": {"android": "https://dc.lft.to/lastmile_qr_scan", "ios": "https://dc.lft.to/lastmile_qr_scan"}, "fusion_lon": 0.0}, {"lat": 38.939105, "is_disabled": 0, "type": "electric_scooter", "lon": -77.066774, "bike_id": "d646b15df238d6feed6d4f2329ff7fe1", "fusion_lat": 0.0, "name": "d646b15df238d6feed6d4f2329ff7fe1", "is_reserved": 0, "rental_uris": {"android": "https://dc.lft.to/lastmile_qr_scan", "ios": "https://dc.lft.to/lastmile_qr_scan"}, "fusion_lon": 0.0}, {"lat": 38.90862466666667, "is_disabled": 0, "type": "electric_bike", "lon": -76.94011216666667, "bike_id": "b7832bcf571281baa6ed887da3b9dd8c", "fusion_lat": 0.0, "name": "b7832bcf571281baa6ed887da3b9dd8c", "is_reserved": 0, "rental_uris": {"android": "https://dc.lft.to/lastmile_qr_scan", "ios": "https://dc.lft.to/lastmile_qr_scan"}, "fusion_lon": 0.0}, {"lat": 38.92885483333333, "is_disabled": 0, "type": "electric_scooter", "lon": -77.05747166666667, "bike_id": "8048f3907683d715c7cbed3b84914d86", "fusion_lat": 0.0, "name": "8048f3907683d715c7cbed3b84914d86", "is_reserved": 0, "rental_uris": {"android": "https://dc.lft.to/lastmile_qr_scan", "ios": "https://dc.lft.to/lastmile_qr_scan"}, "fusion_lon": 0.0}, {"lat": 38.89655333333333, "is_disabled": 0, "type": "electric_scooter", "lon": -77.0052215, "bike_id": "b102b7ba0a20166491d21d69d37e57a3", "fusion_lat": 0.0, "name": "b102b7ba0a20166491d21d69d37e57a3", "is_reserved": 0, "rental_uris": {"android": "https://dc.lft.to/lastmile_qr_scan", "ios": "https://dc.lft.to/lastmile_qr_scan"}, "fusion_lon": 0.0}, {"lat": 38.845084166666666, "is_disabled": 0, "type": "electric_bike", "lon": -76.9935585, "bike_id": "2bb7d685ae61995db9f90213b94e6fe1", "fusion_lat": 0.0, "name": "2bb7d685ae61995db9f90213b94e6fe1", "is_reserved": 0, "rental_uris": {"android": "https://dc.lft.to/lastmile_qr_scan", "ios": "https://dc.lft.to/lastmile_qr_scan"}, "fusion_lon": 0.0}, {"lat": 38.92117366666667, "is_disabled": 0, "type": "electric_scooter", "lon": -77.04575033333333, "bike_id": "5de171307939cf6908b783c4bb60b2ac", "fusion_lat": 0.0, "name": "5de171307939cf6908b783c4bb60b2ac", "is_reserved": 0, "rental_uris": {"android": "https://dc.lft.to/lastmile_qr_scan", "ios": "https://dc.lft.to/lastmile_qr_scan"}, "fusion_lon": 0.0}, {"lat": 38.867054833333334, "is_disabled": 0, "type": "electric_scooter", "lon": -76.987274, "bike_id": "d7b310adbf699b17dbe6a683eb438bd2", "fusion_lat": 0.0, "name": "d7b310adbf699b17dbe6a683eb438bd2", "is_reserved": 0, "rental_uris": {"android": "https://dc.lft.to/lastmile_qr_scan", "ios": "https://dc.lft.to/lastmile_qr_scan"}, "fusion_lon": 0.0}, {"lat": 38.90772783333333, "is_disabled": 0, "type": "electric_scooter", "lon": -77.03859816666667, "bike_id": "dc57d47648fa3c13c6a0e59c45318be3", "fusion_lat": 0.0, "name": "dc57d47648fa3c13c6a0e59c45318be3", "is_reserved": 0, "rental_uris": {"android": "https://dc.lft.to/lastmile_qr_scan", "ios": "https://dc.lft.to/lastmile_qr_scan"}, "fusion_lon": 0.0}, {"lat": 38.86886833333333, "is_disabled": 0, "type": "electric_scooter", "lon": -76.98315533333333, "bike_id": "952fbf029b15070053f05840b266727f", "fusion_lat": 0.0, "name": "952fbf029b15070053f05840b266727f", "is_reserved": 0, "rental_uris": {"android": "https://dc.lft.to/lastmile_qr_scan", "ios": "https://dc.lft.to/lastmile_qr_scan"}, "fusion_lon": 0.0}, {"lat": 38.8825715, "is_disabled": 0, "type": "electric_scooter", "lon": -77.00438366666667, "bike_id": "b5a6e1bd8fbf2bfa3863a53b3a19cb41", "fusion_lat": 0.0, "name": "b5a6e1bd8fbf2bfa3863a53b3a19cb41", "is_reserved": 0, "rental_uris": {"android": "https://dc.lft.to/lastmile_qr_scan", "ios": "https://dc.lft.to/lastmile_qr_scan"}, "fusion_lon": 0.0}, {"lat": 38.90581566666667, "is_disabled": 0, "type": "electric_scooter", "lon": -77.00839316666666, "bike_id": "ed79825c8a566556f712a62c0c368a84", "fusion_lat": 0.0, "name": "ed79825c8a566556f712a62c0c368a84", "is_reserved": 0, "rental_uris": {"android": "https://dc.lft.to/lastmile_qr_scan", "ios": "https://dc.lft.to/lastmile_qr_scan"}, "fusion_lon": 0.0}, {"lat": 38.90017516666666, "is_disabled": 0, "type": "electric_scooter", "lon": -77.04038883333334, "bike_id": "51b644d29c6e20eb3e61b46ae9cb3a62", "fusion_lat": 0.0, "name": "51b644d29c6e20eb3e61b46ae9cb3a62", "is_reserved": 0, "rental_uris": {"android": "https://dc.lft.to/lastmile_qr_scan", "ios": "https://dc.lft.to/lastmile_qr_scan"}, "fusion_lon": 0.0}, {"lat": 38.903759666666666, "is_disabled": 0, "type": "electric_scooter", "lon": -77.0163925, "bike_id": "32576c201febdb4ee4456adc08923ef1", "fusion_lat": 0.0, "name": "32576c201febdb4ee4456adc08923ef1", "is_reserved": 0, "rental_uris": {"android": "https://dc.lft.to/lastmile_qr_scan", "ios": "https://dc.lft.to/lastmile_qr_scan"}, "fusion_lon": 0.0}, {"lat": 38.900509166666666, "is_disabled": 0, "type": "electric_scooter", "lon": -77.01300133333334, "bike_id": "d091cbe7c94af0f4025b39a7219f5f39", "fusion_lat": 0.0, "name": "d091cbe7c94af0f4025b39a7219f5f39", "is_reserved": 0, "rental_uris": {"android": "https://dc.lft.to/lastmile_qr_scan", "ios": "https://dc.lft.to/lastmile_qr_scan"}, "fusion_lon": 0.0}, {"lat": 38.898994333333334, "is_disabled": 0, "type": "electric_scooter", "lon": -76.99729916666666, "bike_id": "aac4f1ac506304c05cf30c56f31e7900", "fusion_lat": 0.0, "name": "aac4f1ac506304c05cf30c56f31e7900", "is_reserved": 0, "rental_uris": {"android": "https://dc.lft.to/lastmile_qr_scan", "ios": "https://dc.lft.to/lastmile_qr_scan"}, "fusion_lon": 0.0}, {"lat": 38.90293416666667, "is_disabled": 0, "type": "electric_scooter", "lon": -77.00219883333334, "bike_id": "e946f299e11879430154aff0a87137bf", "fusion_lat": 0.0, "name": "e946f299e11879430154aff0a87137bf", "is_reserved": 0, "rental_uris": {"android": "https://dc.lft.to/lastmile_qr_scan", "ios": "https://dc.lft.to/lastmile_qr_scan"}, "fusion_lon": 0.0}, {"lat": 38.9118415, "is_disabled": 0, "type": "electric_scooter", "lon": -77.00262716666667, "bike_id": "6aa05a316b100b27cbed53218b4b4372", "fusion_lat": 0.0, "name": "6aa05a316b100b27cbed53218b4b4372", "is_reserved": 0, "rental_uris": {"android": "https://dc.lft.to/lastmile_qr_scan", "ios": "https://dc.lft.to/lastmile_qr_scan"}, "fusion_lon": 0.0}, {"lat": 38.90990983333333, "is_disabled": 0, "type": "electric_scooter", "lon": -76.99735266666667, "bike_id": "b4b59855ce0a31f9301bd8c063284e85", "fusion_lat": 0.0, "name": "b4b59855ce0a31f9301bd8c063284e85", "is_reserved": 0, "rental_uris": {"android": "https://dc.lft.to/lastmile_qr_scan", "ios": "https://dc.lft.to/lastmile_qr_scan"}, "fusion_lon": 0.0}, {"lat": 38.91774516666667, "is_disabled": 0, "type": "electric_scooter", "lon": -77.03662716666666, "bike_id": "649a0e4e2fa249e65e19b174a2ec4dea", "fusion_lat": 0.0, "name": "649a0e4e2fa249e65e19b174a2ec4dea", "is_reserved": 0, "rental_uris": {"android": "https://dc.lft.to/lastmile_qr_scan", "ios": "https://dc.lft.to/lastmile_qr_scan"}, "fusion_lon": 0.0}, {"lat": 38.893966166666665, "is_disabled": 0, "type": "electric_scooter", "lon": -77.04997916666666, "bike_id": "e09ab6966991d16d1e92869ee11c9f09", "fusion_lat": 0.0, "name": "e09ab6966991d16d1e92869ee11c9f09", "is_reserved": 0, "rental_uris": {"android": "https://dc.lft.to/lastmile_qr_scan", "ios": "https://dc.lft.to/lastmile_qr_scan"}, "fusion_lon": 0.0}, {"lat": 38.923186333333334, "is_disabled": 0, "type": "electric_scooter", "lon": -77.02798566666667, "bike_id": "6b413a747e2dc415623d84bfa667aff1", "fusion_lat": 0.0, "name": "6b413a747e2dc415623d84bfa667aff1", "is_reserved": 0, "rental_uris": {"android": "https://dc.lft.to/lastmile_qr_scan", "ios": "https://dc.lft.to/lastmile_qr_scan"}, "fusion_lon": 0.0}, {"lat": 38.928651, "is_disabled": 0, "type": "electric_scooter", "lon": -77.01948433333334, "bike_id": "ef0e5db4a5dce3a5d1a12d2329ff40b4", "fusion_lat": 0.0, "name": "ef0e5db4a5dce3a5d1a12d2329ff40b4", "is_reserved": 0, "rental_uris": {"android": "https://dc.lft.to/lastmile_qr_scan", "ios": "https://dc.lft.to/lastmile_qr_scan"}, "fusion_lon": 0.0}, {"lat": 38.90082183333333, "is_disabled": 0, "type": "electric_scooter", "lon": -77.00206683333333, "bike_id": "3ca1a1f80db5cc6c007f1c7632f11a45", "fusion_lat": 0.0, "name": "3ca1a1f80db5cc6c007f1c7632f11a45", "is_reserved": 0, "rental_uris": {"android": "https://dc.lft.to/lastmile_qr_scan", "ios": "https://dc.lft.to/lastmile_qr_scan"}, "fusion_lon": 0.0}, {"lat": 38.92761183333333, "is_disabled": 0, "type": "electric_scooter", "lon": -77.03252033333334, "bike_id": "b07cffa59ae13499c4272731e41c127a", "fusion_lat": 0.0, "name": "b07cffa59ae13499c4272731e41c127a", "is_reserved": 0, "rental_uris": {"android": "https://dc.lft.to/lastmile_qr_scan", "ios": "https://dc.lft.to/lastmile_qr_scan"}, "fusion_lon": 0.0}, {"lat": 38.918305333333336, "is_disabled": 0, "type": "electric_scooter", "lon": -77.02394616666666, "bike_id": "13736a40e8add2f4e18a83ef356b545e", "fusion_lat": 0.0, "name": "13736a40e8add2f4e18a83ef356b545e", "is_reserved": 0, "rental_uris": {"android": "https://dc.lft.to/lastmile_qr_scan", "ios": "https://dc.lft.to/lastmile_qr_scan"}, "fusion_lon": 0.0}, {"lat": 38.917085666666665, "is_disabled": 0, "type": "electric_scooter", "lon": -77.038653, "bike_id": "7bdd1536a26277cc5ac7a09bedfca2da", "fusion_lat": 0.0, "name": "7bdd1536a26277cc5ac7a09bedfca2da", "is_reserved": 0, "rental_uris": {"android": "https://dc.lft.to/lastmile_qr_scan", "ios": "https://dc.lft.to/lastmile_qr_scan"}, "fusion_lon": 0.0}, {"lat": 39.00476166666667, "is_disabled": 0, "type": "electric_bike", "lon": -76.90135616666667, "bike_id": "1c2f4e7d46663998b087b7a4ebd50eba", "fusion_lat": 0.0, "name": "1c2f4e7d46663998b087b7a4ebd50eba", "is_reserved": 0, "rental_uris": {"android": "https://dc.lft.to/lastmile_qr_scan", "ios": "https://dc.lft.to/lastmile_qr_scan"}, "fusion_lon": 0.0}, {"lat": 38.882895500000004, "is_disabled": 0, "type": "electric_scooter", "lon": -77.0175315, "bike_id": "f1555e8ebef167b0f65101040f4ba421", "fusion_lat": 0.0, "name": "f1555e8ebef167b0f65101040f4ba421", "is_reserved": 0, "rental_uris": {"android": "https://dc.lft.to/lastmile_qr_scan", "ios": "https://dc.lft.to/lastmile_qr_scan"}, "fusion_lon": 0.0}, {"lat": 38.90576266666667, "is_disabled": 0, "type": "electric_scooter", "lon": -77.007213, "bike_id": "ded4bb878933b13186b8b3159bb8215c", "fusion_lat": 0.0, "name": "ded4bb878933b13186b8b3159bb8215c", "is_reserved": 0, "rental_uris": {"android": "https://dc.lft.to/lastmile_qr_scan", "ios": "https://dc.lft.to/lastmile_qr_scan"}, "fusion_lon": 0.0}, {"lat": 38.92794966666666, "is_disabled": 0, "type": "electric_scooter", "lon": -77.03817416666666, "bike_id": "e62b8b2d546e6a0283509251f0a028dd", "fusion_lat": 0.0, "name": "e62b8b2d546e6a0283509251f0a028dd", "is_reserved": 0, "rental_uris": {"android": "https://dc.lft.to/lastmile_qr_scan", "ios": "https://dc.lft.to/lastmile_qr_scan"}, "fusion_lon": 0.0}, {"lat": 38.932444833333335, "is_disabled": 0, "type": "electric_scooter", "lon": -77.0294355, "bike_id": "71221bff807d4690410035ad99fa93da", "fusion_lat": 0.0, "name": "71221bff807d4690410035ad99fa93da", "is_reserved": 0, "rental_uris": {"android": "https://dc.lft.to/lastmile_qr_scan", "ios": "https://dc.lft.to/lastmile_qr_scan"}, "fusion_lon": 0.0}, {"lat": 38.82871933333333, "is_disabled": 0, "type": "electric_bike", "lon": -77.11225983333334, "bike_id": "3dd2db47a1ed4ed99bc26dcabf98116d", "fusion_lat": 0.0, "name": "3dd2db47a1ed4ed99bc26dcabf98116d", "is_reserved": 0, "rental_uris": {"android": "https://dc.lft.to/lastmile_qr_scan", "ios": "https://dc.lft.to/lastmile_qr_scan"}, "fusion_lon": 0.0}, {"lat": 38.91954666666667, "is_disabled": 0, "type": "electric_scooter", "lon": -76.98076933333333, "bike_id": "1adf7620a1764c7a47229aba855fa86f", "fusion_lat": 0.0, "name": "1adf7620a1764c7a47229aba855fa86f", "is_reserved": 0, "rental_uris": {"android": "https://dc.lft.to/lastmile_qr_scan", "ios": "https://dc.lft.to/lastmile_qr_scan"}, "fusion_lon": 0.0}, {"lat": 38.902300833333335, "is_disabled": 0, "type": "electric_scooter", "lon": -77.02836683333334, "bike_id": "b4adf4db756e35e0a171a565c62c2ccf", "fusion_lat": 0.0, "name": "b4adf4db756e35e0a171a565c62c2ccf", "is_reserved": 0, "rental_uris": {"android": "https://dc.lft.to/lastmile_qr_scan", "ios": "https://dc.lft.to/lastmile_qr_scan"}, "fusion_lon": 0.0}, {"lat": 38.93323516666667, "is_disabled": 0, "type": "electric_scooter", "lon": -77.04368816666667, "bike_id": "fec93579b772dcd517162b8506e5b36a", "fusion_lat": 0.0, "name": "fec93579b772dcd517162b8506e5b36a", "is_reserved": 0, "rental_uris": {"android": "https://dc.lft.to/lastmile_qr_scan", "ios": "https://dc.lft.to/lastmile_qr_scan"}, "fusion_lon": 0.0}, {"lat": 38.9088555, "is_disabled": 0, "type": "electric_bike", "lon": -77.03198633333334, "bike_id": "e8244614b401aa5715811ea44227e420", "fusion_lat": 0.0, "name": "e8244614b401aa5715811ea44227e420", "is_reserved": 0, "rental_uris": {"android": "https://dc.lft.to/lastmile_qr_scan", "ios": "https://dc.lft.to/lastmile_qr_scan"}, "fusion_lon": 0.0}, {"lat": 38.89820733333333, "is_disabled": 0, "type": "electric_scooter", "lon": -77.03029333333333, "bike_id": "d4fbb294630dc813957206b46f21c2cd", "fusion_lat": 0.0, "name": "d4fbb294630dc813957206b46f21c2cd", "is_reserved": 0, "rental_uris": {"android": "https://dc.lft.to/lastmile_qr_scan", "ios": "https://dc.lft.to/lastmile_qr_scan"}, "fusion_lon": 0.0}, {"lat": 38.91723183333333, "is_disabled": 0, "type": "electric_scooter", "lon": -77.04587033333334, "bike_id": "3fe81617cd3be9a1d7542bf434cc30c7", "fusion_lat": 0.0, "name": "3fe81617cd3be9a1d7542bf434cc30c7", "is_reserved": 0, "rental_uris": {"android": "https://dc.lft.to/lastmile_qr_scan", "ios": "https://dc.lft.to/lastmile_qr_scan"}, "fusion_lon": 0.0}, {"lat": 38.8557515, "is_disabled": 0, "type": "electric_bike", "lon": -77.11144716666666, "bike_id": "489149419b921ce3a10b55fa85752df2", "fusion_lat": 0.0, "name": "489149419b921ce3a10b55fa85752df2", "is_reserved": 0, "rental_uris": {"android": "https://dc.lft.to/lastmile_qr_scan", "ios": "https://dc.lft.to/lastmile_qr_scan"}, "fusion_lon": 0.0}, {"lat": 38.9146515, "is_disabled": 0, "type": "electric_scooter", "lon": -77.0142905, "bike_id": "cd4ddab11ad12f7b7dfe3203b8d80f94", "fusion_lat": 0.0, "name": "cd4ddab11ad12f7b7dfe3203b8d80f94", "is_reserved": 0, "rental_uris": {"android": "https://dc.lft.to/lastmile_qr_scan", "ios": "https://dc.lft.to/lastmile_qr_scan"}, "fusion_lon": 0.0}, {"lat": 38.87726833333333, "is_disabled": 0, "type": "electric_scooter", "lon": -77.00333066666667, "bike_id": "4fd97f6b3aee8308dc3e24d2f7deed81", "fusion_lat": 0.0, "name": "4fd97f6b3aee8308dc3e24d2f7deed81", "is_reserved": 0, "rental_uris": {"android": "https://dc.lft.to/lastmile_qr_scan", "ios": "https://dc.lft.to/lastmile_qr_scan"}, "fusion_lon": 0.0}, {"lat": 38.870688666666666, "is_disabled": 0, "type": "electric_bike", "lon": -76.9784415, "bike_id": "1bf49f92364ad6be5700fbca3abc22c0", "fusion_lat": 0.0, "name": "1bf49f92364ad6be5700fbca3abc22c0", "is_reserved": 0, "rental_uris": {"android": "https://dc.lft.to/lastmile_qr_scan", "ios": "https://dc.lft.to/lastmile_qr_scan"}, "fusion_lon": 0.0}, {"lat": 38.88798166666667, "is_disabled": 0, "type": "electric_scooter", "lon": -76.9336065, "bike_id": "9614a871a06a09c4cb0ee7e1afa2f7ea", "fusion_lat": 0.0, "name": "9614a871a06a09c4cb0ee7e1afa2f7ea", "is_reserved": 0, "rental_uris": {"android": "https://dc.lft.to/lastmile_qr_scan", "ios": "https://dc.lft.to/lastmile_qr_scan"}, "fusion_lon": 0.0}, {"lat": 38.92359316666667, "is_disabled": 0, "type": "electric_scooter", "lon": -77.05430116666666, "bike_id": "f1ebc076edd90f0b53509366ff57d251", "fusion_lat": 0.0, "name": "f1ebc076edd90f0b53509366ff57d251", "is_reserved": 0, "rental_uris": {"android": "https://dc.lft.to/lastmile_qr_scan", "ios": "https://dc.lft.to/lastmile_qr_scan"}, "fusion_lon": 0.0}, {"lat": 38.827848333333336, "is_disabled": 0, "type": "electric_bike", "lon": -77.00921933333333, "bike_id": "ed773f8e17fb33e4e9e906473ee4250a", "fusion_lat": 0.0, "name": "ed773f8e17fb33e4e9e906473ee4250a", "is_reserved": 0, "rental_uris": {"android": "https://dc.lft.to/lastmile_qr_scan", "ios": "https://dc.lft.to/lastmile_qr_scan"}, "fusion_lon": 0.0}, {"lat": 38.915494, "is_disabled": 0, "type": "electric_scooter", "lon": -77.01039066666667, "bike_id": "9f3a58d4f1d685a443c923b57e706f72", "fusion_lat": 0.0, "name": "9f3a58d4f1d685a443c923b57e706f72", "is_reserved": 0, "rental_uris": {"android": "https://dc.lft.to/lastmile_qr_scan", "ios": "https://dc.lft.to/lastmile_qr_scan"}, "fusion_lon": 0.0}, {"lat": 38.909714666666666, "is_disabled": 0, "type": "electric_bike", "lon": -77.08827416666666, "bike_id": "2517d47d6d844fe51dee15822424c0c7", "fusion_lat": 0.0, "name": "2517d47d6d844fe51dee15822424c0c7", "is_reserved": 0, "rental_uris": {"android": "https://dc.lft.to/lastmile_qr_scan", "ios": "https://dc.lft.to/lastmile_qr_scan"}, "fusion_lon": 0.0}, {"lat": 38.93295216666667, "is_disabled": 0, "type": "electric_scooter", "lon": -77.04532616666667, "bike_id": "403d6f3ee3ee0f22a507dfff32581fc0", "fusion_lat": 0.0, "name": "403d6f3ee3ee0f22a507dfff32581fc0", "is_reserved": 0, "rental_uris": {"android": "https://dc.lft.to/lastmile_qr_scan", "ios": "https://dc.lft.to/lastmile_qr_scan"}, "fusion_lon": 0.0}, {"lat": 38.92466066666667, "is_disabled": 0, "type": "electric_bike", "lon": -77.03756016666667, "bike_id": "36c3cf9d448078a22fe157816aef3da3", "fusion_lat": 0.0, "name": "36c3cf9d448078a22fe157816aef3da3", "is_reserved": 0, "rental_uris": {"android": "https://dc.lft.to/lastmile_qr_scan", "ios": "https://dc.lft.to/lastmile_qr_scan"}, "fusion_lon": 0.0}, {"lat": 38.984286833333336, "is_disabled": 0, "type": "electric_scooter", "lon": -77.02670533333334, "bike_id": "9022d88e7487c485f28e3a64cd0454b9", "fusion_lat": 0.0, "name": "9022d88e7487c485f28e3a64cd0454b9", "is_reserved": 0, "rental_uris": {"android": "https://dc.lft.to/lastmile_qr_scan", "ios": "https://dc.lft.to/lastmile_qr_scan"}, "fusion_lon": 0.0}, {"lat": 38.924076666666664, "is_disabled": 0, "type": "electric_scooter", "lon": -77.03420766666666, "bike_id": "de6c7dbcf36b44335cc2392a28286121", "fusion_lat": 0.0, "name": "de6c7dbcf36b44335cc2392a28286121", "is_reserved": 0, "rental_uris": {"android": "https://dc.lft.to/lastmile_qr_scan", "ios": "https://dc.lft.to/lastmile_qr_scan"}, "fusion_lon": 0.0}, {"lat": 38.92655666666667, "is_disabled": 0, "type": "electric_scooter", "lon": -77.02418533333334, "bike_id": "1a996e82956599aa820d442f989fdf17", "fusion_lat": 0.0, "name": "1a996e82956599aa820d442f989fdf17", "is_reserved": 0, "rental_uris": {"android": "https://dc.lft.to/lastmile_qr_scan", "ios": "https://dc.lft.to/lastmile_qr_scan"}, "fusion_lon": 0.0}, {"lat": 38.930292333333334, "is_disabled": 0, "type": "electric_scooter", "lon": -77.02053433333333, "bike_id": "6f09897e9ed2c350d9eee00ee51ddad4", "fusion_lat": 0.0, "name": "6f09897e9ed2c350d9eee00ee51ddad4", "is_reserved": 0, "rental_uris": {"android": "https://dc.lft.to/lastmile_qr_scan", "ios": "https://dc.lft.to/lastmile_qr_scan"}, "fusion_lon": 0.0}, {"lat": 38.929662666666665, "is_disabled": 0, "type": "electric_scooter", "lon": -77.032112, "bike_id": "f675009a0dbc40143169979f31bfdcae", "fusion_lat": 0.0, "name": "f675009a0dbc40143169979f31bfdcae", "is_reserved": 0, "rental_uris": {"android": "https://dc.lft.to/lastmile_qr_scan", "ios": "https://dc.lft.to/lastmile_qr_scan"}, "fusion_lon": 0.0}, {"lat": 38.866573333333335, "is_disabled": 0, "type": "electric_scooter", "lon": -76.98894966666667, "bike_id": "ef052b182c058ef6b17800fa43a1de6b", "fusion_lat": 0.0, "name": "ef052b182c058ef6b17800fa43a1de6b", "is_reserved": 0, "rental_uris": {"android": "https://dc.lft.to/lastmile_qr_scan", "ios": "https://dc.lft.to/lastmile_qr_scan"}, "fusion_lon": 0.0}, {"lat": 38.9244085, "is_disabled": 0, "type": "electric_scooter", "lon": -77.033617, "bike_id": "54e6588440c4a733e42a6047e79bf073", "fusion_lat": 0.0, "name": "54e6588440c4a733e42a6047e79bf073", "is_reserved": 0, "rental_uris": {"android": "https://dc.lft.to/lastmile_qr_scan", "ios": "https://dc.lft.to/lastmile_qr_scan"}, "fusion_lon": 0.0}, {"lat": 38.914637166666665, "is_disabled": 0, "type": "electric_scooter", "lon": -77.06689566666667, "bike_id": "b0f86f4ead012af13f1f273130dd5ff0", "fusion_lat": 0.0, "name": "b0f86f4ead012af13f1f273130dd5ff0", "is_reserved": 0, "rental_uris": {"android": "https://dc.lft.to/lastmile_qr_scan", "ios": "https://dc.lft.to/lastmile_qr_scan"}, "fusion_lon": 0.0}, {"lat": 38.924281, "is_disabled": 0, "type": "electric_scooter", "lon": -77.0341695, "bike_id": "a87101e96f131f40e27e111eef6d7b0a", "fusion_lat": 0.0, "name": "a87101e96f131f40e27e111eef6d7b0a", "is_reserved": 0, "rental_uris": {"android": "https://dc.lft.to/lastmile_qr_scan", "ios": "https://dc.lft.to/lastmile_qr_scan"}, "fusion_lon": 0.0}, {"lat": 38.90994416666667, "is_disabled": 0, "type": "electric_scooter", "lon": -76.99738916666666, "bike_id": "e7087110154d30b4dab32f2d33415b66", "fusion_lat": 0.0, "name": "e7087110154d30b4dab32f2d33415b66", "is_reserved": 0, "rental_uris": {"android": "https://dc.lft.to/lastmile_qr_scan", "ios": "https://dc.lft.to/lastmile_qr_scan"}, "fusion_lon": 0.0}, {"lat": 38.9148125, "is_disabled": 0, "type": "electric_scooter", "lon": -77.03257316666667, "bike_id": "906a3de6fcb359ae5474181264998d14", "fusion_lat": 0.0, "name": "906a3de6fcb359ae5474181264998d14", "is_reserved": 0, "rental_uris": {"android": "https://dc.lft.to/lastmile_qr_scan", "ios": "https://dc.lft.to/lastmile_qr_scan"}, "fusion_lon": 0.0}, {"lat": 38.807461, "is_disabled": 0, "type": "electric_bike", "lon": -77.09431083333334, "bike_id": "c9a5d18873b213d4506cbfdf712e4c67", "fusion_lat": 0.0, "name": "c9a5d18873b213d4506cbfdf712e4c67", "is_reserved": 0, "rental_uris": {"android": "https://dc.lft.to/lastmile_qr_scan", "ios": "https://dc.lft.to/lastmile_qr_scan"}, "fusion_lon": 0.0}, {"lat": 38.94712216666667, "is_disabled": 0, "type": "electric_scooter", "lon": -77.019332, "bike_id": "77ac7a937413ed89c9975355d8b3a56f", "fusion_lat": 0.0, "name": "77ac7a937413ed89c9975355d8b3a56f", "is_reserved": 0, "rental_uris": {"android": "https://dc.lft.to/lastmile_qr_scan", "ios": "https://dc.lft.to/lastmile_qr_scan"}, "fusion_lon": 0.0}, {"lat": 38.93536433333333, "is_disabled": 0, "type": "electric_scooter", "lon": -77.03423716666667, "bike_id": "a3f669d67548abce93a2ed19904235c3", "fusion_lat": 0.0, "name": "a3f669d67548abce93a2ed19904235c3", "is_reserved": 0, "rental_uris": {"android": "https://dc.lft.to/lastmile_qr_scan", "ios": "https://dc.lft.to/lastmile_qr_scan"}, "fusion_lon": 0.0}, {"lat": 38.9219455, "is_disabled": 0, "type": "electric_scooter", "lon": -77.04125916666666, "bike_id": "e9d150a5cac3a1fa455829c2581d8ce8", "fusion_lat": 0.0, "name": "e9d150a5cac3a1fa455829c2581d8ce8", "is_reserved": 0, "rental_uris": {"android": "https://dc.lft.to/lastmile_qr_scan", "ios": "https://dc.lft.to/lastmile_qr_scan"}, "fusion_lon": 0.0}, {"lat": 38.93639433333333, "is_disabled": 0, "type": "electric_scooter", "lon": -77.02480166666666, "bike_id": "5a5248b7a3b854d95647e412183c541f", "fusion_lat": 0.0, "name": "5a5248b7a3b854d95647e412183c541f", "is_reserved": 0, "rental_uris": {"android": "https://dc.lft.to/lastmile_qr_scan", "ios": "https://dc.lft.to/lastmile_qr_scan"}, "fusion_lon": 0.0}, {"lat": 38.90813266666667, "is_disabled": 0, "type": "electric_scooter", "lon": -77.06362166666666, "bike_id": "6712b63c5d789165424c6cb01b20606e", "fusion_lat": 0.0, "name": "6712b63c5d789165424c6cb01b20606e", "is_reserved": 0, "rental_uris": {"android": "https://dc.lft.to/lastmile_qr_scan", "ios": "https://dc.lft.to/lastmile_qr_scan"}, "fusion_lon": 0.0}, {"lat": 38.88489283333333, "is_disabled": 0, "type": "electric_scooter", "lon": -77.03476066666667, "bike_id": "a67f08d1ba712b505a4855ff58104f07", "fusion_lat": 0.0, "name": "a67f08d1ba712b505a4855ff58104f07", "is_reserved": 0, "rental_uris": {"android": "https://dc.lft.to/lastmile_qr_scan", "ios": "https://dc.lft.to/lastmile_qr_scan"}, "fusion_lon": 0.0}, {"lat": 38.925329, "is_disabled": 0, "type": "electric_scooter", "lon": -77.04419766666666, "bike_id": "3f9cb2d110d4fd5a8bcc69e6c67df3d4", "fusion_lat": 0.0, "name": "3f9cb2d110d4fd5a8bcc69e6c67df3d4", "is_reserved": 0, "rental_uris": {"android": "https://dc.lft.to/lastmile_qr_scan", "ios": "https://dc.lft.to/lastmile_qr_scan"}, "fusion_lon": 0.0}, {"lat": 38.928512, "is_disabled": 0, "type": "electric_bike", "lon": -77.10674966666667, "bike_id": "601456e6c634b6d0c3d62f2b8f498de6", "fusion_lat": 0.0, "name": "601456e6c634b6d0c3d62f2b8f498de6", "is_reserved": 0, "rental_uris": {"android": "https://dc.lft.to/lastmile_qr_scan", "ios": "https://dc.lft.to/lastmile_qr_scan"}, "fusion_lon": 0.0}, {"lat": 38.9003575, "is_disabled": 0, "type": "electric_scooter", "lon": -76.99380616666667, "bike_id": "57d4ae8f073fb738d6e1b807dc7302bf", "fusion_lat": 0.0, "name": "57d4ae8f073fb738d6e1b807dc7302bf", "is_reserved": 0, "rental_uris": {"android": "https://dc.lft.to/lastmile_qr_scan", "ios": "https://dc.lft.to/lastmile_qr_scan"}, "fusion_lon": 0.0}, {"lat": 38.89766683333333, "is_disabled": 0, "type": "electric_scooter", "lon": -77.05010133333333, "bike_id": "9b8519cb2b20bc37a6dbfac14f66d8ec", "fusion_lat": 0.0, "name": "9b8519cb2b20bc37a6dbfac14f66d8ec", "is_reserved": 0, "rental_uris": {"android": "https://dc.lft.to/lastmile_qr_scan", "ios": "https://dc.lft.to/lastmile_qr_scan"}, "fusion_lon": 0.0}, {"lat": 38.901831666666666, "is_disabled": 0, "type": "electric_scooter", "lon": -77.023979, "bike_id": "0818d0deb9dcecb3ad6e535b92e399ac", "fusion_lat": 0.0, "name": "0818d0deb9dcecb3ad6e535b92e399ac", "is_reserved": 0, "rental_uris": {"android": "https://dc.lft.to/lastmile_qr_scan", "ios": "https://dc.lft.to/lastmile_qr_scan"}, "fusion_lon": 0.0}, {"lat": 38.930764, "is_disabled": 0, "type": "electric_scooter", "lon": -77.07761883333333, "bike_id": "92b2fade531aa0920711dac89b9c3951", "fusion_lat": 0.0, "name": "92b2fade531aa0920711dac89b9c3951", "is_reserved": 0, "rental_uris": {"android": "https://dc.lft.to/lastmile_qr_scan", "ios": "https://dc.lft.to/lastmile_qr_scan"}, "fusion_lon": 0.0}, {"lat": 38.8848215, "is_disabled": 0, "type": "electric_scooter", "lon": -76.94523283333334, "bike_id": "456ff2f29e5288f242283458878dabed", "fusion_lat": 0.0, "name": "456ff2f29e5288f242283458878dabed", "is_reserved": 0, "rental_uris": {"android": "https://dc.lft.to/lastmile_qr_scan", "ios": "https://dc.lft.to/lastmile_qr_scan"}, "fusion_lon": 0.0}, {"lat": 38.917893666666664, "is_disabled": 0, "type": "electric_scooter", "lon": -77.02233783333334, "bike_id": "989da7677a5f66a9202a087cbf4a0bd7", "fusion_lat": 0.0, "name": "989da7677a5f66a9202a087cbf4a0bd7", "is_reserved": 0, "rental_uris": {"android": "https://dc.lft.to/lastmile_qr_scan", "ios": "https://dc.lft.to/lastmile_qr_scan"}, "fusion_lon": 0.0}, {"lat": 38.9003275, "is_disabled": 0, "type": "electric_scooter", "lon": -76.9837085, "bike_id": "b6d630c19e288adca0016496ca3e9387", "fusion_lat": 0.0, "name": "b6d630c19e288adca0016496ca3e9387", "is_reserved": 0, "rental_uris": {"android": "https://dc.lft.to/lastmile_qr_scan", "ios": "https://dc.lft.to/lastmile_qr_scan"}, "fusion_lon": 0.0}, {"lat": 38.93144083333333, "is_disabled": 0, "type": "electric_scooter", "lon": -77.02143816666667, "bike_id": "8693aba26fd40aa8ab1f9d603f35025b", "fusion_lat": 0.0, "name": "8693aba26fd40aa8ab1f9d603f35025b", "is_reserved": 0, "rental_uris": {"android": "https://dc.lft.to/lastmile_qr_scan", "ios": "https://dc.lft.to/lastmile_qr_scan"}, "fusion_lon": 0.0}, {"lat": 38.850283166666664, "is_disabled": 0, "type": "electric_bike", "lon": -77.098059, "bike_id": "3186891d74484dc11d25cebdeddf8fc0", "fusion_lat": 0.0, "name": "3186891d74484dc11d25cebdeddf8fc0", "is_reserved": 0, "rental_uris": {"android": "https://dc.lft.to/lastmile_qr_scan", "ios": "https://dc.lft.to/lastmile_qr_scan"}, "fusion_lon": 0.0}, {"lat": 38.940669, "is_disabled": 0, "type": "electric_scooter", "lon": -76.994594, "bike_id": "5c03b44b77745e4314846879429d053f", "fusion_lat": 0.0, "name": "5c03b44b77745e4314846879429d053f", "is_reserved": 0, "rental_uris": {"android": "https://dc.lft.to/lastmile_qr_scan", "ios": "https://dc.lft.to/lastmile_qr_scan"}, "fusion_lon": 0.0}, {"lat": 38.90266733333333, "is_disabled": 0, "type": "electric_scooter", "lon": -77.0199805, "bike_id": "9263a17014d660c08f090011d58e5d02", "fusion_lat": 0.0, "name": "9263a17014d660c08f090011d58e5d02", "is_reserved": 0, "rental_uris": {"android": "https://dc.lft.to/lastmile_qr_scan", "ios": "https://dc.lft.to/lastmile_qr_scan"}, "fusion_lon": 0.0}, {"lat": 38.93511483333333, "is_disabled": 0, "type": "electric_scooter", "lon": -77.03672333333333, "bike_id": "06e6e205fe59f606d733f174597c6910", "fusion_lat": 0.0, "name": "06e6e205fe59f606d733f174597c6910", "is_reserved": 0, "rental_uris": {"android": "https://dc.lft.to/lastmile_qr_scan", "ios": "https://dc.lft.to/lastmile_qr_scan"}, "fusion_lon": 0.0}, {"lat": 38.90926416666667, "is_disabled": 0, "type": "electric_scooter", "lon": -77.03857083333334, "bike_id": "064fa147b5a24a5f82abd4a715ad069c", "fusion_lat": 0.0, "name": "064fa147b5a24a5f82abd4a715ad069c", "is_reserved": 0, "rental_uris": {"android": "https://dc.lft.to/lastmile_qr_scan", "ios": "https://dc.lft.to/lastmile_qr_scan"}, "fusion_lon": 0.0}, {"lat": 38.861595333333334, "is_disabled": 0, "type": "electric_bike", "lon": -77.13091433333334, "bike_id": "84bda4c364cb8feced105492693f747e", "fusion_lat": 0.0, "name": "84bda4c364cb8feced105492693f747e", "is_reserved": 0, "rental_uris": {"android": "https://dc.lft.to/lastmile_qr_scan", "ios": "https://dc.lft.to/lastmile_qr_scan"}, "fusion_lon": 0.0}, {"lat": 38.86255166666667, "is_disabled": 0, "type": "electric_scooter", "lon": -76.99509483333334, "bike_id": "69958a7a3e1e270e0f35f43a1f2191f8", "fusion_lat": 0.0, "name": "69958a7a3e1e270e0f35f43a1f2191f8", "is_reserved": 0, "rental_uris": {"android": "https://dc.lft.to/lastmile_qr_scan", "ios": "https://dc.lft.to/lastmile_qr_scan"}, "fusion_lon": 0.0}, {"lat": 38.920473666666666, "is_disabled": 0, "type": "electric_scooter", "lon": -77.0242985, "bike_id": "3da4e038e996c1036570bb34e113d0b4", "fusion_lat": 0.0, "name": "3da4e038e996c1036570bb34e113d0b4", "is_reserved": 0, "rental_uris": {"android": "https://dc.lft.to/lastmile_qr_scan", "ios": "https://dc.lft.to/lastmile_qr_scan"}, "fusion_lon": 0.0}, {"lat": 38.908525166666664, "is_disabled": 0, "type": "electric_scooter", "lon": -77.04771416666667, "bike_id": "3feaadcec645e0000204f66c07a7c4fb", "fusion_lat": 0.0, "name": "3feaadcec645e0000204f66c07a7c4fb", "is_reserved": 0, "rental_uris": {"android": "https://dc.lft.to/lastmile_qr_scan", "ios": "https://dc.lft.to/lastmile_qr_scan"}, "fusion_lon": 0.0}, {"lat": 38.9409255, "is_disabled": 0, "type": "electric_scooter", "lon": -77.0230405, "bike_id": "d1fc0e779b32605146ef3f1296f21652", "fusion_lat": 0.0, "name": "d1fc0e779b32605146ef3f1296f21652", "is_reserved": 0, "rental_uris": {"android": "https://dc.lft.to/lastmile_qr_scan", "ios": "https://dc.lft.to/lastmile_qr_scan"}, "fusion_lon": 0.0}, {"lat": 38.87979833333333, "is_disabled": 0, "type": "electric_bike", "lon": -76.916018, "bike_id": "5aada9a566c3ed8e1e1754c6ae6d5940", "fusion_lat": 0.0, "name": "5aada9a566c3ed8e1e1754c6ae6d5940", "is_reserved": 0, "rental_uris": {"android": "https://dc.lft.to/lastmile_qr_scan", "ios": "https://dc.lft.to/lastmile_qr_scan"}, "fusion_lon": 0.0}, {"lat": 38.902502, "is_disabled": 0, "type": "electric_scooter", "lon": -77.04592683333334, "bike_id": "f41366d0e6ef6d61a57fd6565f4fc5f8", "fusion_lat": 0.0, "name": "f41366d0e6ef6d61a57fd6565f4fc5f8", "is_reserved": 0, "rental_uris": {"android": "https://dc.lft.to/lastmile_qr_scan", "ios": "https://dc.lft.to/lastmile_qr_scan"}, "fusion_lon": 0.0}, {"lat": 38.889245, "is_disabled": 0, "type": "electric_scooter", "lon": -76.97368466666667, "bike_id": "65a54bfd89c9759483bee6742ed25ffa", "fusion_lat": 0.0, "name": "65a54bfd89c9759483bee6742ed25ffa", "is_reserved": 0, "rental_uris": {"android": "https://dc.lft.to/lastmile_qr_scan", "ios": "https://dc.lft.to/lastmile_qr_scan"}, "fusion_lon": 0.0}, {"lat": 38.81342, "is_disabled": 0, "type": "electric_bike", "lon": -77.04927116666667, "bike_id": "ffdbf9fdd1d80e61939d0440d1f9b214", "fusion_lat": 0.0, "name": "ffdbf9fdd1d80e61939d0440d1f9b214", "is_reserved": 0, "rental_uris": {"android": "https://dc.lft.to/lastmile_qr_scan", "ios": "https://dc.lft.to/lastmile_qr_scan"}, "fusion_lon": 0.0}, {"lat": 38.8901095, "is_disabled": 0, "type": "electric_scooter", "lon": -77.00046466666667, "bike_id": "6011ac97f222ae8e66c30861bb974c5b", "fusion_lat": 0.0, "name": "6011ac97f222ae8e66c30861bb974c5b", "is_reserved": 0, "rental_uris": {"android": "https://dc.lft.to/lastmile_qr_scan", "ios": "https://dc.lft.to/lastmile_qr_scan"}, "fusion_lon": 0.0}, {"lat": 38.884329666666666, "is_disabled": 0, "type": "electric_scooter", "lon": -76.95756483333334, "bike_id": "19a5c0a3142820458df3455fa6e7c085", "fusion_lat": 0.0, "name": "19a5c0a3142820458df3455fa6e7c085", "is_reserved": 0, "rental_uris": {"android": "https://dc.lft.to/lastmile_qr_scan", "ios": "https://dc.lft.to/lastmile_qr_scan"}, "fusion_lon": 0.0}, {"lat": 38.902819666666666, "is_disabled": 0, "type": "electric_scooter", "lon": -77.03640333333334, "bike_id": "5dcc4efa29c8a6f06e856d7815e0718a", "fusion_lat": 0.0, "name": "5dcc4efa29c8a6f06e856d7815e0718a", "is_reserved": 0, "rental_uris": {"android": "https://dc.lft.to/lastmile_qr_scan", "ios": "https://dc.lft.to/lastmile_qr_scan"}, "fusion_lon": 0.0}, {"lat": 38.855025499999996, "is_disabled": 0, "type": "electric_bike", "lon": -76.98424316666667, "bike_id": "8c65711bd8b3ce1254690029ca6cf550", "fusion_lat": 0.0, "name": "8c65711bd8b3ce1254690029ca6cf550", "is_reserved": 0, "rental_uris": {"android": "https://dc.lft.to/lastmile_qr_scan", "ios": "https://dc.lft.to/lastmile_qr_scan"}, "fusion_lon": 0.0}, {"lat": 38.8976095, "is_disabled": 0, "type": "electric_scooter", "lon": -76.941849, "bike_id": "5e66580ee62fbdb2115794ff6c58c740", "fusion_lat": 0.0, "name": "5e66580ee62fbdb2115794ff6c58c740", "is_reserved": 0, "rental_uris": {"android": "https://dc.lft.to/lastmile_qr_scan", "ios": "https://dc.lft.to/lastmile_qr_scan"}, "fusion_lon": 0.0}, {"lat": 38.90538683333333, "is_disabled": 0, "type": "electric_scooter", "lon": -77.05681466666667, "bike_id": "144fd6974cdf19c2f61dbf390467770f", "fusion_lat": 0.0, "name": "144fd6974cdf19c2f61dbf390467770f", "is_reserved": 0, "rental_uris": {"android": "https://dc.lft.to/lastmile_qr_scan", "ios": "https://dc.lft.to/lastmile_qr_scan"}, "fusion_lon": 0.0}, {"lat": 38.9369425, "is_disabled": 0, "type": "electric_scooter", "lon": -77.03264983333334, "bike_id": "2f70d7dfc5db512e49b1741a6d95a731", "fusion_lat": 0.0, "name": "2f70d7dfc5db512e49b1741a6d95a731", "is_reserved": 0, "rental_uris": {"android": "https://dc.lft.to/lastmile_qr_scan", "ios": "https://dc.lft.to/lastmile_qr_scan"}, "fusion_lon": 0.0}, {"lat": 38.90168366666666, "is_disabled": 0, "type": "electric_scooter", "lon": -77.01861366666667, "bike_id": "f6379fe65022dcfa098d0bd7855d7950", "fusion_lat": 0.0, "name": "f6379fe65022dcfa098d0bd7855d7950", "is_reserved": 0, "rental_uris": {"android": "https://dc.lft.to/lastmile_qr_scan", "ios": "https://dc.lft.to/lastmile_qr_scan"}, "fusion_lon": 0.0}, {"lat": 38.92377333333334, "is_disabled": 0, "type": "electric_scooter", "lon": -77.03061483333333, "bike_id": "727fa94f0ff139d70c4c24321a28234f", "fusion_lat": 0.0, "name": "727fa94f0ff139d70c4c24321a28234f", "is_reserved": 0, "rental_uris": {"android": "https://dc.lft.to/lastmile_qr_scan", "ios": "https://dc.lft.to/lastmile_qr_scan"}, "fusion_lon": 0.0}, {"lat": 38.91479783333333, "is_disabled": 0, "type": "electric_scooter", "lon": -77.01378083333333, "bike_id": "73ce7890d26ee9c54da73462186aa9fa", "fusion_lat": 0.0, "name": "73ce7890d26ee9c54da73462186aa9fa", "is_reserved": 0, "rental_uris": {"android": "https://dc.lft.to/lastmile_qr_scan", "ios": "https://dc.lft.to/lastmile_qr_scan"}, "fusion_lon": 0.0}, {"lat": 38.9203555, "is_disabled": 0, "type": "electric_scooter", "lon": -77.04183083333334, "bike_id": "b53e8c03a0580bc6acba04bfbd60549f", "fusion_lat": 0.0, "name": "b53e8c03a0580bc6acba04bfbd60549f", "is_reserved": 0, "rental_uris": {"android": "https://dc.lft.to/lastmile_qr_scan", "ios": "https://dc.lft.to/lastmile_qr_scan"}, "fusion_lon": 0.0}, {"lat": 38.911068, "is_disabled": 0, "type": "electric_scooter", "lon": -77.04815783333333, "bike_id": "9661e54993bf65d6f5fbfbe1fae23c9a", "fusion_lat": 0.0, "name": "9661e54993bf65d6f5fbfbe1fae23c9a", "is_reserved": 0, "rental_uris": {"android": "https://dc.lft.to/lastmile_qr_scan", "ios": "https://dc.lft.to/lastmile_qr_scan"}, "fusion_lon": 0.0}, {"lat": 38.9060655, "is_disabled": 0, "type": "electric_scooter", "lon": -76.98981966666666, "bike_id": "52a4aa1a46158fd632970aafab7f9685", "fusion_lat": 0.0, "name": "52a4aa1a46158fd632970aafab7f9685", "is_reserved": 0, "rental_uris": {"android": "https://dc.lft.to/lastmile_qr_scan", "ios": "https://dc.lft.to/lastmile_qr_scan"}, "fusion_lon": 0.0}, {"lat": 38.90324566666666, "is_disabled": 0, "type": "electric_scooter", "lon": -77.04212333333334, "bike_id": "764bf2dd8a19b69a84b2d0d4bfd1b431", "fusion_lat": 0.0, "name": "764bf2dd8a19b69a84b2d0d4bfd1b431", "is_reserved": 0, "rental_uris": {"android": "https://dc.lft.to/lastmile_qr_scan", "ios": "https://dc.lft.to/lastmile_qr_scan"}, "fusion_lon": 0.0}, {"lat": 38.834229, "is_disabled": 0, "type": "electric_bike", "lon": -77.10369583333333, "bike_id": "fabb8c3f8a546eaccabf07815f8ee400", "fusion_lat": 0.0, "name": "fabb8c3f8a546eaccabf07815f8ee400", "is_reserved": 0, "rental_uris": {"android": "https://dc.lft.to/lastmile_qr_scan", "ios": "https://dc.lft.to/lastmile_qr_scan"}, "fusion_lon": 0.0}, {"lat": 38.934459, "is_disabled": 0, "type": "electric_scooter", "lon": -77.0309225, "bike_id": "4f32e83744033f20db4d1966cc19cfda", "fusion_lat": 0.0, "name": "4f32e83744033f20db4d1966cc19cfda", "is_reserved": 0, "rental_uris": {"android": "https://dc.lft.to/lastmile_qr_scan", "ios": "https://dc.lft.to/lastmile_qr_scan"}, "fusion_lon": 0.0}, {"lat": 38.90030866666667, "is_disabled": 0, "type": "electric_scooter", "lon": -76.9837645, "bike_id": "58ae438a2f19ea508773d549258e7478", "fusion_lat": 0.0, "name": "58ae438a2f19ea508773d549258e7478", "is_reserved": 0, "rental_uris": {"android": "https://dc.lft.to/lastmile_qr_scan", "ios": "https://dc.lft.to/lastmile_qr_scan"}, "fusion_lon": 0.0}, {"lat": 38.8593425, "is_disabled": 0, "type": "electric_scooter", "lon": -76.99717, "bike_id": "7b8ca134bc67bcfe09c4a22a9da8e4bc", "fusion_lat": 0.0, "name": "7b8ca134bc67bcfe09c4a22a9da8e4bc", "is_reserved": 0, "rental_uris": {"android": "https://dc.lft.to/lastmile_qr_scan", "ios": "https://dc.lft.to/lastmile_qr_scan"}, "fusion_lon": 0.0}, {"lat": 38.8446655, "is_disabled": 0, "type": "electric_bike", "lon": -76.98756033333333, "bike_id": "97db7bc39b728618804c31cf624c47e2", "fusion_lat": 0.0, "name": "97db7bc39b728618804c31cf624c47e2", "is_reserved": 0, "rental_uris": {"android": "https://dc.lft.to/lastmile_qr_scan", "ios": "https://dc.lft.to/lastmile_qr_scan"}, "fusion_lon": 0.0}, {"lat": 38.865257666666665, "is_disabled": 0, "type": "electric_scooter", "lon": -76.990255, "bike_id": "c000b5f4e713f6853e3eaf38112809b4", "fusion_lat": 0.0, "name": "c000b5f4e713f6853e3eaf38112809b4", "is_reserved": 0, "rental_uris": {"android": "https://dc.lft.to/lastmile_qr_scan", "ios": "https://dc.lft.to/lastmile_qr_scan"}, "fusion_lon": 0.0}, {"lat": 38.905003666666666, "is_disabled": 0, "type": "electric_scooter", "lon": -77.02951333333333, "bike_id": "140c1e26660f9fed1a5920867264664e", "fusion_lat": 0.0, "name": "140c1e26660f9fed1a5920867264664e", "is_reserved": 0, "rental_uris": {"android": "https://dc.lft.to/lastmile_qr_scan", "ios": "https://dc.lft.to/lastmile_qr_scan"}, "fusion_lon": 0.0}, {"lat": 38.92406716666667, "is_disabled": 0, "type": "electric_scooter", "lon": -77.0273465, "bike_id": "34550ca85aae04aaa66309a39fdcd746", "fusion_lat": 0.0, "name": "34550ca85aae04aaa66309a39fdcd746", "is_reserved": 0, "rental_uris": {"android": "https://dc.lft.to/lastmile_qr_scan", "ios": "https://dc.lft.to/lastmile_qr_scan"}, "fusion_lon": 0.0}, {"lat": 38.876298, "is_disabled": 0, "type": "electric_scooter", "lon": -76.96531366666666, "bike_id": "dc2123563e88b4e5380dbf326700fb23", "fusion_lat": 0.0, "name": "dc2123563e88b4e5380dbf326700fb23", "is_reserved": 0, "rental_uris": {"android": "https://dc.lft.to/lastmile_qr_scan", "ios": "https://dc.lft.to/lastmile_qr_scan"}, "fusion_lon": 0.0}, {"lat": 38.869972833333335, "is_disabled": 0, "type": "electric_bike", "lon": -77.06569333333333, "bike_id": "b9e51f622fae7749987e1332ae083051", "fusion_lat": 0.0, "name": "b9e51f622fae7749987e1332ae083051", "is_reserved": 0, "rental_uris": {"android": "https://dc.lft.to/lastmile_qr_scan", "ios": "https://dc.lft.to/lastmile_qr_scan"}, "fusion_lon": 0.0}, {"lat": 38.94154016666667, "is_disabled": 0, "type": "electric_scooter", "lon": -77.03276666666666, "bike_id": "d6271f3371b99bed0573ba9d4977af7f", "fusion_lat": 0.0, "name": "d6271f3371b99bed0573ba9d4977af7f", "is_reserved": 0, "rental_uris": {"android": "https://dc.lft.to/lastmile_qr_scan", "ios": "https://dc.lft.to/lastmile_qr_scan"}, "fusion_lon": 0.0}, {"lat": 38.91952416666667, "is_disabled": 0, "type": "electric_scooter", "lon": -77.04876466666667, "bike_id": "43fd508c313be0b566f6d2440de460f9", "fusion_lat": 0.0, "name": "43fd508c313be0b566f6d2440de460f9", "is_reserved": 0, "rental_uris": {"android": "https://dc.lft.to/lastmile_qr_scan", "ios": "https://dc.lft.to/lastmile_qr_scan"}, "fusion_lon": 0.0}, {"lat": 38.8734185, "is_disabled": 0, "type": "electric_scooter", "lon": -76.9916345, "bike_id": "e763a62b7bb8fc46545e5f3098223f4a", "fusion_lat": 0.0, "name": "e763a62b7bb8fc46545e5f3098223f4a", "is_reserved": 0, "rental_uris": {"android": "https://dc.lft.to/lastmile_qr_scan", "ios": "https://dc.lft.to/lastmile_qr_scan"}, "fusion_lon": 0.0}, {"lat": 38.9023755, "is_disabled": 0, "type": "electric_scooter", "lon": -77.02597316666666, "bike_id": "27eda960cf74bbc65916d2311fb897c9", "fusion_lat": 0.0, "name": "27eda960cf74bbc65916d2311fb897c9", "is_reserved": 0, "rental_uris": {"android": "https://dc.lft.to/lastmile_qr_scan", "ios": "https://dc.lft.to/lastmile_qr_scan"}, "fusion_lon": 0.0}, {"lat": 38.90125866666666, "is_disabled": 0, "type": "electric_scooter", "lon": -77.03317983333334, "bike_id": "3aa425040aa0e2a7cc9612d602e221fa", "fusion_lat": 0.0, "name": "3aa425040aa0e2a7cc9612d602e221fa", "is_reserved": 0, "rental_uris": {"android": "https://dc.lft.to/lastmile_qr_scan", "ios": "https://dc.lft.to/lastmile_qr_scan"}, "fusion_lon": 0.0}, {"lat": 38.876292, "is_disabled": 0, "type": "electric_scooter", "lon": -76.96524016666666, "bike_id": "ada9b3f6033bf4d95f5044bd2df7de11", "fusion_lat": 0.0, "name": "ada9b3f6033bf4d95f5044bd2df7de11", "is_reserved": 0, "rental_uris": {"android": "https://dc.lft.to/lastmile_qr_scan", "ios": "https://dc.lft.to/lastmile_qr_scan"}, "fusion_lon": 0.0}, {"lat": 38.95070366666667, "is_disabled": 0, "type": "electric_scooter", "lon": -77.06658366666667, "bike_id": "7dc147c65dad21dfff688e71235e82bf", "fusion_lat": 0.0, "name": "7dc147c65dad21dfff688e71235e82bf", "is_reserved": 0, "rental_uris": {"android": "https://dc.lft.to/lastmile_qr_scan", "ios": "https://dc.lft.to/lastmile_qr_scan"}, "fusion_lon": 0.0}, {"lat": 38.900326, "is_disabled": 0, "type": "electric_scooter", "lon": -77.0441945, "bike_id": "52eb9fefff57aedc249adcc1435a7e01", "fusion_lat": 0.0, "name": "52eb9fefff57aedc249adcc1435a7e01", "is_reserved": 0, "rental_uris": {"android": "https://dc.lft.to/lastmile_qr_scan", "ios": "https://dc.lft.to/lastmile_qr_scan"}, "fusion_lon": 0.0}, {"lat": 38.903643833333334, "is_disabled": 0, "type": "electric_scooter", "lon": -77.043448, "bike_id": "6d106726537d15daf7fa89f7aabe789a", "fusion_lat": 0.0, "name": "6d106726537d15daf7fa89f7aabe789a", "is_reserved": 0, "rental_uris": {"android": "https://dc.lft.to/lastmile_qr_scan", "ios": "https://dc.lft.to/lastmile_qr_scan"}, "fusion_lon": 0.0}, {"lat": 38.90729133333333, "is_disabled": 0, "type": "electric_scooter", "lon": -77.04783366666666, "bike_id": "d86eeca22400d73e58b112dd097895b0", "fusion_lat": 0.0, "name": "d86eeca22400d73e58b112dd097895b0", "is_reserved": 0, "rental_uris": {"android": "https://dc.lft.to/lastmile_qr_scan", "ios": "https://dc.lft.to/lastmile_qr_scan"}, "fusion_lon": 0.0}, {"lat": 38.9112055, "is_disabled": 0, "type": "electric_scooter", "lon": -77.04222016666667, "bike_id": "44b9ef1c1619783a74b52ddd9807ff3d", "fusion_lat": 0.0, "name": "44b9ef1c1619783a74b52ddd9807ff3d", "is_reserved": 0, "rental_uris": {"android": "https://dc.lft.to/lastmile_qr_scan", "ios": "https://dc.lft.to/lastmile_qr_scan"}, "fusion_lon": 0.0}, {"lat": 38.9224775, "is_disabled": 0, "type": "electric_scooter", "lon": -77.030845, "bike_id": "fb07aed103333f0e37207f7257fbc8e4", "fusion_lat": 0.0, "name": "fb07aed103333f0e37207f7257fbc8e4", "is_reserved": 0, "rental_uris": {"android": "https://dc.lft.to/lastmile_qr_scan", "ios": "https://dc.lft.to/lastmile_qr_scan"}, "fusion_lon": 0.0}, {"lat": 38.94170666666667, "is_disabled": 0, "type": "electric_scooter", "lon": -77.03284366666666, "bike_id": "fe1ab1c82e5d87e6862f20060bf6d598", "fusion_lat": 0.0, "name": "fe1ab1c82e5d87e6862f20060bf6d598", "is_reserved": 0, "rental_uris": {"android": "https://dc.lft.to/lastmile_qr_scan", "ios": "https://dc.lft.to/lastmile_qr_scan"}, "fusion_lon": 0.0}, {"lat": 38.865061, "is_disabled": 0, "type": "electric_scooter", "lon": -76.99006633333333, "bike_id": "ddf841dce0d781cffa063cd5137c692d", "fusion_lat": 0.0, "name": "ddf841dce0d781cffa063cd5137c692d", "is_reserved": 0, "rental_uris": {"android": "https://dc.lft.to/lastmile_qr_scan", "ios": "https://dc.lft.to/lastmile_qr_scan"}, "fusion_lon": 0.0}, {"lat": 38.92255333333333, "is_disabled": 0, "type": "electric_scooter", "lon": -77.04246133333334, "bike_id": "2a5fc8050fc831f9d805819614909f4c", "fusion_lat": 0.0, "name": "2a5fc8050fc831f9d805819614909f4c", "is_reserved": 0, "rental_uris": {"android": "https://dc.lft.to/lastmile_qr_scan", "ios": "https://dc.lft.to/lastmile_qr_scan"}, "fusion_lon": 0.0}, {"lat": 38.92117016666667, "is_disabled": 0, "type": "electric_scooter", "lon": -77.04160783333333, "bike_id": "fb10232d7d3eac5d2b77c9da76db5c39", "fusion_lat": 0.0, "name": "fb10232d7d3eac5d2b77c9da76db5c39", "is_reserved": 0, "rental_uris": {"android": "https://dc.lft.to/lastmile_qr_scan", "ios": "https://dc.lft.to/lastmile_qr_scan"}, "fusion_lon": 0.0}, {"lat": 38.9340295, "is_disabled": 0, "type": "electric_scooter", "lon": -77.02466633333333, "bike_id": "dc20fdef480feb0278de9fb7c46fc2ff", "fusion_lat": 0.0, "name": "dc20fdef480feb0278de9fb7c46fc2ff", "is_reserved": 0, "rental_uris": {"android": "https://dc.lft.to/lastmile_qr_scan", "ios": "https://dc.lft.to/lastmile_qr_scan"}, "fusion_lon": 0.0}, {"lat": 38.9166465, "is_disabled": 0, "type": "electric_scooter", "lon": -77.047258, "bike_id": "b69ad784f296f5f49ef15637ac8b40aa", "fusion_lat": 0.0, "name": "b69ad784f296f5f49ef15637ac8b40aa", "is_reserved": 0, "rental_uris": {"android": "https://dc.lft.to/lastmile_qr_scan", "ios": "https://dc.lft.to/lastmile_qr_scan"}, "fusion_lon": 0.0}, {"lat": 38.895429166666666, "is_disabled": 0, "type": "electric_scooter", "lon": -77.00437233333334, "bike_id": "b6c0831c314f12dc7c75bd9a5fff5ec6", "fusion_lat": 0.0, "name": "b6c0831c314f12dc7c75bd9a5fff5ec6", "is_reserved": 0, "rental_uris": {"android": "https://dc.lft.to/lastmile_qr_scan", "ios": "https://dc.lft.to/lastmile_qr_scan"}, "fusion_lon": 0.0}, {"lat": 38.842696333333336, "is_disabled": 0, "type": "electric_bike", "lon": -76.98843616666667, "bike_id": "3ea67f2196fb44fc2e8794cd030b47aa", "fusion_lat": 0.0, "name": "3ea67f2196fb44fc2e8794cd030b47aa", "is_reserved": 0, "rental_uris": {"android": "https://dc.lft.to/lastmile_qr_scan", "ios": "https://dc.lft.to/lastmile_qr_scan"}, "fusion_lon": 0.0}, {"lat": 38.9014005, "is_disabled": 0, "type": "electric_scooter", "lon": -77.02925616666667, "bike_id": "3fbce4007bdba4fe871834316d19c397", "fusion_lat": 0.0, "name": "3fbce4007bdba4fe871834316d19c397", "is_reserved": 0, "rental_uris": {"android": "https://dc.lft.to/lastmile_qr_scan", "ios": "https://dc.lft.to/lastmile_qr_scan"}, "fusion_lon": 0.0}, {"lat": 38.8848775, "is_disabled": 0, "type": "electric_scooter", "lon": -77.03473633333333, "bike_id": "c0dbc2f0d1b8d173bb654f2c54701581", "fusion_lat": 0.0, "name": "c0dbc2f0d1b8d173bb654f2c54701581", "is_reserved": 0, "rental_uris": {"android": "https://dc.lft.to/lastmile_qr_scan", "ios": "https://dc.lft.to/lastmile_qr_scan"}, "fusion_lon": 0.0}, {"lat": 38.926486, "is_disabled": 0, "type": "electric_scooter", "lon": -76.99747666666667, "bike_id": "a65cbfb5fd42274ddfaf2eae986f994c", "fusion_lat": 0.0, "name": "a65cbfb5fd42274ddfaf2eae986f994c", "is_reserved": 0, "rental_uris": {"android": "https://dc.lft.to/lastmile_qr_scan", "ios": "https://dc.lft.to/lastmile_qr_scan"}, "fusion_lon": 0.0}, {"lat": 38.98274333333333, "is_disabled": 0, "type": "electric_bike", "lon": -77.02539866666666, "bike_id": "499ab333cc9a620fb8405565fd6da840", "fusion_lat": 0.0, "name": "499ab333cc9a620fb8405565fd6da840", "is_reserved": 0, "rental_uris": {"android": "https://dc.lft.to/lastmile_qr_scan", "ios": "https://dc.lft.to/lastmile_qr_scan"}, "fusion_lon": 0.0}, {"lat": 38.856807333333336, "is_disabled": 0, "type": "electric_scooter", "lon": -76.981774, "bike_id": "4d9c11bc123d39aadbc6ec02805f9445", "fusion_lat": 0.0, "name": "4d9c11bc123d39aadbc6ec02805f9445", "is_reserved": 0, "rental_uris": {"android": "https://dc.lft.to/lastmile_qr_scan", "ios": "https://dc.lft.to/lastmile_qr_scan"}, "fusion_lon": 0.0}, {"lat": 38.896153, "is_disabled": 0, "type": "electric_scooter", "lon": -77.0214265, "bike_id": "316badad707832759656e46367cf5f70", "fusion_lat": 0.0, "name": "316badad707832759656e46367cf5f70", "is_reserved": 0, "rental_uris": {"android": "https://dc.lft.to/lastmile_qr_scan", "ios": "https://dc.lft.to/lastmile_qr_scan"}, "fusion_lon": 0.0}, {"lat": 38.837239333333336, "is_disabled": 0, "type": "electric_bike", "lon": -76.99766883333334, "bike_id": "96effe66c550c7310a2669024f932fd5", "fusion_lat": 0.0, "name": "96effe66c550c7310a2669024f932fd5", "is_reserved": 0, "rental_uris": {"android": "https://dc.lft.to/lastmile_qr_scan", "ios": "https://dc.lft.to/lastmile_qr_scan"}, "fusion_lon": 0.0}, {"lat": 38.922469166666666, "is_disabled": 0, "type": "electric_scooter", "lon": -77.03085533333334, "bike_id": "4a6ba5dbd1e20a74364e28636ab802ca", "fusion_lat": 0.0, "name": "4a6ba5dbd1e20a74364e28636ab802ca", "is_reserved": 0, "rental_uris": {"android": "https://dc.lft.to/lastmile_qr_scan", "ios": "https://dc.lft.to/lastmile_qr_scan"}, "fusion_lon": 0.0}, {"lat": 38.927387833333334, "is_disabled": 0, "type": "electric_scooter", "lon": -77.02595233333334, "bike_id": "0a4aabd3e7fb7710c67c2a4fd2549945", "fusion_lat": 0.0, "name": "0a4aabd3e7fb7710c67c2a4fd2549945", "is_reserved": 0, "rental_uris": {"android": "https://dc.lft.to/lastmile_qr_scan", "ios": "https://dc.lft.to/lastmile_qr_scan"}, "fusion_lon": 0.0}, {"lat": 38.914014333333334, "is_disabled": 0, "type": "electric_scooter", "lon": -77.02605866666667, "bike_id": "fda577a78a2383397b6434529e9d32f9", "fusion_lat": 0.0, "name": "fda577a78a2383397b6434529e9d32f9", "is_reserved": 0, "rental_uris": {"android": "https://dc.lft.to/lastmile_qr_scan", "ios": "https://dc.lft.to/lastmile_qr_scan"}, "fusion_lon": 0.0}, {"lat": 38.920851166666665, "is_disabled": 0, "type": "electric_scooter", "lon": -77.04200466666667, "bike_id": "2275f3ac5362b3cdb81da93644584bd9", "fusion_lat": 0.0, "name": "2275f3ac5362b3cdb81da93644584bd9", "is_reserved": 0, "rental_uris": {"android": "https://dc.lft.to/lastmile_qr_scan", "ios": "https://dc.lft.to/lastmile_qr_scan"}, "fusion_lon": 0.0}, {"lat": 38.898408, "is_disabled": 0, "type": "electric_scooter", "lon": -76.98176066666667, "bike_id": "f3f26fa02761e0464d8eb418ea5fa222", "fusion_lat": 0.0, "name": "f3f26fa02761e0464d8eb418ea5fa222", "is_reserved": 0, "rental_uris": {"android": "https://dc.lft.to/lastmile_qr_scan", "ios": "https://dc.lft.to/lastmile_qr_scan"}, "fusion_lon": 0.0}, {"lat": 38.926103, "is_disabled": 0, "type": "electric_scooter", "lon": -77.05690866666667, "bike_id": "0b845751924ca1d90bee958fed317d2d", "fusion_lat": 0.0, "name": "0b845751924ca1d90bee958fed317d2d", "is_reserved": 0, "rental_uris": {"android": "https://dc.lft.to/lastmile_qr_scan", "ios": "https://dc.lft.to/lastmile_qr_scan"}, "fusion_lon": 0.0}, {"lat": 38.921813, "is_disabled": 0, "type": "electric_scooter", "lon": -77.04712283333333, "bike_id": "99e2f47e95274d281869955dfb2816c0", "fusion_lat": 0.0, "name": "99e2f47e95274d281869955dfb2816c0", "is_reserved": 0, "rental_uris": {"android": "https://dc.lft.to/lastmile_qr_scan", "ios": "https://dc.lft.to/lastmile_qr_scan"}, "fusion_lon": 0.0}, {"lat": 38.88578566666666, "is_disabled": 0, "type": "electric_scooter", "lon": -76.91910483333334, "bike_id": "72e37c8c301a98d30db13f78bfa58574", "fusion_lat": 0.0, "name": "72e37c8c301a98d30db13f78bfa58574", "is_reserved": 0, "rental_uris": {"android": "https://dc.lft.to/lastmile_qr_scan", "ios": "https://dc.lft.to/lastmile_qr_scan"}, "fusion_lon": 0.0}, {"lat": 38.954034666666665, "is_disabled": 0, "type": "electric_scooter", "lon": -77.027452, "bike_id": "15954fd6e972acfac43ebf4cd8a1cdfa", "fusion_lat": 0.0, "name": "15954fd6e972acfac43ebf4cd8a1cdfa", "is_reserved": 0, "rental_uris": {"android": "https://dc.lft.to/lastmile_qr_scan", "ios": "https://dc.lft.to/lastmile_qr_scan"}, "fusion_lon": 0.0}, {"lat": 38.93736233333333, "is_disabled": 0, "type": "electric_scooter", "lon": -77.0347425, "bike_id": "10aece70323dd59bd983979b3a4193e1", "fusion_lat": 0.0, "name": "10aece70323dd59bd983979b3a4193e1", "is_reserved": 0, "rental_uris": {"android": "https://dc.lft.to/lastmile_qr_scan", "ios": "https://dc.lft.to/lastmile_qr_scan"}, "fusion_lon": 0.0}, {"lat": 38.9006925, "is_disabled": 0, "type": "electric_scooter", "lon": -77.00198566666667, "bike_id": "0ebb7aa44e23ec94f781d2218becee2e", "fusion_lat": 0.0, "name": "0ebb7aa44e23ec94f781d2218becee2e", "is_reserved": 0, "rental_uris": {"android": "https://dc.lft.to/lastmile_qr_scan", "ios": "https://dc.lft.to/lastmile_qr_scan"}, "fusion_lon": 0.0}, {"lat": 38.892268666666666, "is_disabled": 0, "type": "electric_scooter", "lon": -77.0487595, "bike_id": "4140fc8ed633861f79265ba6bd667d73", "fusion_lat": 0.0, "name": "4140fc8ed633861f79265ba6bd667d73", "is_reserved": 0, "rental_uris": {"android": "https://dc.lft.to/lastmile_qr_scan", "ios": "https://dc.lft.to/lastmile_qr_scan"}, "fusion_lon": 0.0}, {"lat": 38.96162666666667, "is_disabled": 0, "type": "electric_scooter", "lon": -77.02790916666666, "bike_id": "ae29b25d7abe479725b68ea691627fb2", "fusion_lat": 0.0, "name": "ae29b25d7abe479725b68ea691627fb2", "is_reserved": 0, "rental_uris": {"android": "https://dc.lft.to/lastmile_qr_scan", "ios": "https://dc.lft.to/lastmile_qr_scan"}, "fusion_lon": 0.0}, {"lat": 38.9132445, "is_disabled": 0, "type": "electric_scooter", "lon": -77.03262433333333, "bike_id": "1c3c466d4bb9326e11ecd454c5a6aabe", "fusion_lat": 0.0, "name": "1c3c466d4bb9326e11ecd454c5a6aabe", "is_reserved": 0, "rental_uris": {"android": "https://dc.lft.to/lastmile_qr_scan", "ios": "https://dc.lft.to/lastmile_qr_scan"}, "fusion_lon": 0.0}, {"lat": 38.92058633333333, "is_disabled": 0, "type": "electric_scooter", "lon": -77.04339933333333, "bike_id": "fee0240c6f8758cac28989e6160790b7", "fusion_lat": 0.0, "name": "fee0240c6f8758cac28989e6160790b7", "is_reserved": 0, "rental_uris": {"android": "https://dc.lft.to/lastmile_qr_scan", "ios": "https://dc.lft.to/lastmile_qr_scan"}, "fusion_lon": 0.0}, {"lat": 38.90892083333333, "is_disabled": 0, "type": "electric_scooter", "lon": -77.04410016666667, "bike_id": "c4ac753eeaedf9b2cde5bdbafc3e439e", "fusion_lat": 0.0, "name": "c4ac753eeaedf9b2cde5bdbafc3e439e", "is_reserved": 0, "rental_uris": {"android": "https://dc.lft.to/lastmile_qr_scan", "ios": "https://dc.lft.to/lastmile_qr_scan"}, "fusion_lon": 0.0}, {"lat": 38.91492983333333, "is_disabled": 0, "type": "electric_scooter", "lon": -77.0325945, "bike_id": "902014046f7b9438938510019ead5747", "fusion_lat": 0.0, "name": "902014046f7b9438938510019ead5747", "is_reserved": 0, "rental_uris": {"android": "https://dc.lft.to/lastmile_qr_scan", "ios": "https://dc.lft.to/lastmile_qr_scan"}, "fusion_lon": 0.0}, {"lat": 38.9166885, "is_disabled": 0, "type": "electric_scooter", "lon": -77.03347066666667, "bike_id": "effd5959dc2725044b893684ee80332b", "fusion_lat": 0.0, "name": "effd5959dc2725044b893684ee80332b", "is_reserved": 0, "rental_uris": {"android": "https://dc.lft.to/lastmile_qr_scan", "ios": "https://dc.lft.to/lastmile_qr_scan"}, "fusion_lon": 0.0}, {"lat": 38.8922865, "is_disabled": 0, "type": "electric_scooter", "lon": -77.05002516666667, "bike_id": "c5c283286c92123cb039c41235b658ee", "fusion_lat": 0.0, "name": "c5c283286c92123cb039c41235b658ee", "is_reserved": 0, "rental_uris": {"android": "https://dc.lft.to/lastmile_qr_scan", "ios": "https://dc.lft.to/lastmile_qr_scan"}, "fusion_lon": 0.0}, {"lat": 38.9309775, "is_disabled": 0, "type": "electric_scooter", "lon": -77.032644, "bike_id": "82d57ba1612df204c4e05e8971212743", "fusion_lat": 0.0, "name": "82d57ba1612df204c4e05e8971212743", "is_reserved": 0, "rental_uris": {"android": "https://dc.lft.to/lastmile_qr_scan", "ios": "https://dc.lft.to/lastmile_qr_scan"}, "fusion_lon": 0.0}, {"lat": 38.86621266666667, "is_disabled": 0, "type": "electric_bike", "lon": -76.94569166666666, "bike_id": "8f718dcfbe3f09fc0332eaad3eafe73b", "fusion_lat": 0.0, "name": "8f718dcfbe3f09fc0332eaad3eafe73b", "is_reserved": 0, "rental_uris": {"android": "https://dc.lft.to/lastmile_qr_scan", "ios": "https://dc.lft.to/lastmile_qr_scan"}, "fusion_lon": 0.0}, {"lat": 38.919172833333334, "is_disabled": 0, "type": "electric_scooter", "lon": -77.048144, "bike_id": "e7730792dd52a3f97251b86b93ff4965", "fusion_lat": 0.0, "name": "e7730792dd52a3f97251b86b93ff4965", "is_reserved": 0, "rental_uris": {"android": "https://dc.lft.to/lastmile_qr_scan", "ios": "https://dc.lft.to/lastmile_qr_scan"}, "fusion_lon": 0.0}, {"lat": 38.95956566666667, "is_disabled": 0, "type": "electric_bike", "lon": -77.10092233333333, "bike_id": "68b1de6cdf42413345ac9aecc1ca9833", "fusion_lat": 0.0, "name": "68b1de6cdf42413345ac9aecc1ca9833", "is_reserved": 0, "rental_uris": {"android": "https://dc.lft.to/lastmile_qr_scan", "ios": "https://dc.lft.to/lastmile_qr_scan"}, "fusion_lon": 0.0}, {"lat": 38.8990395, "is_disabled": 0, "type": "electric_scooter", "lon": -77.032155, "bike_id": "9a6623e216fb5fc7ce213c7213aaa6e9", "fusion_lat": 0.0, "name": "9a6623e216fb5fc7ce213c7213aaa6e9", "is_reserved": 0, "rental_uris": {"android": "https://dc.lft.to/lastmile_qr_scan", "ios": "https://dc.lft.to/lastmile_qr_scan"}, "fusion_lon": 0.0}, {"lat": 38.91778016666667, "is_disabled": 0, "type": "electric_scooter", "lon": -77.042981, "bike_id": "9c632c04c3b5a8068312994404adc493", "fusion_lat": 0.0, "name": "9c632c04c3b5a8068312994404adc493", "is_reserved": 0, "rental_uris": {"android": "https://dc.lft.to/lastmile_qr_scan", "ios": "https://dc.lft.to/lastmile_qr_scan"}, "fusion_lon": 0.0}, {"lat": 38.872284666666665, "is_disabled": 0, "type": "electric_bike", "lon": -77.01163683333333, "bike_id": "1794421a2cfd7081fe818d4678d1eec2", "fusion_lat": 0.0, "name": "1794421a2cfd7081fe818d4678d1eec2", "is_reserved": 0, "rental_uris": {"android": "https://dc.lft.to/lastmile_qr_scan", "ios": "https://dc.lft.to/lastmile_qr_scan"}, "fusion_lon": 0.0}, {"lat": 38.896828, "is_disabled": 0, "type": "electric_scooter", "lon": -76.93536566666667, "bike_id": "7ab6e0c6811fbe8e8f9e2ef63a3dd917", "fusion_lat": 0.0, "name": "7ab6e0c6811fbe8e8f9e2ef63a3dd917", "is_reserved": 0, "rental_uris": {"android": "https://dc.lft.to/lastmile_qr_scan", "ios": "https://dc.lft.to/lastmile_qr_scan"}, "fusion_lon": 0.0}, {"lat": 38.9188115, "is_disabled": 0, "type": "electric_scooter", "lon": -77.03486033333333, "bike_id": "f20c59d5fa5a19c1950304a4d5958fd0", "fusion_lat": 0.0, "name": "f20c59d5fa5a19c1950304a4d5958fd0", "is_reserved": 0, "rental_uris": {"android": "https://dc.lft.to/lastmile_qr_scan", "ios": "https://dc.lft.to/lastmile_qr_scan"}, "fusion_lon": 0.0}, {"lat": 38.92346666666667, "is_disabled": 0, "type": "electric_scooter", "lon": -77.03393783333334, "bike_id": "c7a07627429b208dd1f619d379f0888f", "fusion_lat": 0.0, "name": "c7a07627429b208dd1f619d379f0888f", "is_reserved": 0, "rental_uris": {"android": "https://dc.lft.to/lastmile_qr_scan", "ios": "https://dc.lft.to/lastmile_qr_scan"}, "fusion_lon": 0.0}, {"lat": 38.85189033333333, "is_disabled": 0, "type": "electric_bike", "lon": -76.96111566666667, "bike_id": "998bc01fb3c593d92b1e57558eb59760", "fusion_lat": 0.0, "name": "998bc01fb3c593d92b1e57558eb59760", "is_reserved": 0, "rental_uris": {"android": "https://dc.lft.to/lastmile_qr_scan", "ios": "https://dc.lft.to/lastmile_qr_scan"}, "fusion_lon": 0.0}, {"lat": 38.944343833333335, "is_disabled": 0, "type": "electric_scooter", "lon": -77.0150445, "bike_id": "3e6e0f9bb3ee0be6b4ebb5ef90b06a41", "fusion_lat": 0.0, "name": "3e6e0f9bb3ee0be6b4ebb5ef90b06a41", "is_reserved": 0, "rental_uris": {"android": "https://dc.lft.to/lastmile_qr_scan", "ios": "https://dc.lft.to/lastmile_qr_scan"}, "fusion_lon": 0.0}, {"lat": 38.901159, "is_disabled": 0, "type": "electric_scooter", "lon": -77.025255, "bike_id": "7157f9b5de1b0baddae0dbdcb87d278b", "fusion_lat": 0.0, "name": "7157f9b5de1b0baddae0dbdcb87d278b", "is_reserved": 0, "rental_uris": {"android": "https://dc.lft.to/lastmile_qr_scan", "ios": "https://dc.lft.to/lastmile_qr_scan"}, "fusion_lon": 0.0}, {"lat": 38.931859, "is_disabled": 0, "type": "electric_scooter", "lon": -77.036586, "bike_id": "e17ba4f542154c9aaa64a67cf484cc81", "fusion_lat": 0.0, "name": "e17ba4f542154c9aaa64a67cf484cc81", "is_reserved": 0, "rental_uris": {"android": "https://dc.lft.to/lastmile_qr_scan", "ios": "https://dc.lft.to/lastmile_qr_scan"}, "fusion_lon": 0.0}, {"lat": 38.94392366666667, "is_disabled": 0, "type": "electric_scooter", "lon": -77.0198365, "bike_id": "fd03cd80a4334aa65ec579412d50f13a", "fusion_lat": 0.0, "name": "fd03cd80a4334aa65ec579412d50f13a", "is_reserved": 0, "rental_uris": {"android": "https://dc.lft.to/lastmile_qr_scan", "ios": "https://dc.lft.to/lastmile_qr_scan"}, "fusion_lon": 0.0}, {"lat": 38.990036, "is_disabled": 0, "type": "electric_bike", "lon": -77.00443933333334, "bike_id": "044590ef74c74ea2065b765e98646493", "fusion_lat": 0.0, "name": "044590ef74c74ea2065b765e98646493", "is_reserved": 0, "rental_uris": {"android": "https://dc.lft.to/lastmile_qr_scan", "ios": "https://dc.lft.to/lastmile_qr_scan"}, "fusion_lon": 0.0}, {"lat": 38.855184333333334, "is_disabled": 0, "type": "electric_bike", "lon": -77.12015016666666, "bike_id": "8c672b0d1e74b0a01bae48f4ead864b1", "fusion_lat": 0.0, "name": "8c672b0d1e74b0a01bae48f4ead864b1", "is_reserved": 0, "rental_uris": {"android": "https://dc.lft.to/lastmile_qr_scan", "ios": "https://dc.lft.to/lastmile_qr_scan"}, "fusion_lon": 0.0}, {"lat": 38.90015833333333, "is_disabled": 0, "type": "electric_scooter", "lon": -77.01200133333333, "bike_id": "176833c231b622679eb4faa5251bf63f", "fusion_lat": 0.0, "name": "176833c231b622679eb4faa5251bf63f", "is_reserved": 0, "rental_uris": {"android": "https://dc.lft.to/lastmile_qr_scan", "ios": "https://dc.lft.to/lastmile_qr_scan"}, "fusion_lon": 0.0}, {"lat": 38.92572833333333, "is_disabled": 0, "type": "electric_scooter", "lon": -76.98611116666666, "bike_id": "ae5b1d118d409511c532da82f2060758", "fusion_lat": 0.0, "name": "ae5b1d118d409511c532da82f2060758", "is_reserved": 0, "rental_uris": {"android": "https://dc.lft.to/lastmile_qr_scan", "ios": "https://dc.lft.to/lastmile_qr_scan"}, "fusion_lon": 0.0}, {"lat": 38.842940166666665, "is_disabled": 0, "type": "electric_scooter", "lon": -76.99949083333334, "bike_id": "cdd649465a4676dbb37572fdb1ffbf16", "fusion_lat": 0.0, "name": "cdd649465a4676dbb37572fdb1ffbf16", "is_reserved": 0, "rental_uris": {"android": "https://dc.lft.to/lastmile_qr_scan", "ios": "https://dc.lft.to/lastmile_qr_scan"}, "fusion_lon": 0.0}, {"lat": 38.934914666666664, "is_disabled": 0, "type": "electric_scooter", "lon": -77.0362255, "bike_id": "f21c356d99cb078a9c97439d328d9942", "fusion_lat": 0.0, "name": "f21c356d99cb078a9c97439d328d9942", "is_reserved": 0, "rental_uris": {"android": "https://dc.lft.to/lastmile_qr_scan", "ios": "https://dc.lft.to/lastmile_qr_scan"}, "fusion_lon": 0.0}, {"lat": 38.92373516666667, "is_disabled": 0, "type": "electric_scooter", "lon": -77.02919616666667, "bike_id": "a7fcfc153ae3d8a0db4e0bc0020ab915", "fusion_lat": 0.0, "name": "a7fcfc153ae3d8a0db4e0bc0020ab915", "is_reserved": 0, "rental_uris": {"android": "https://dc.lft.to/lastmile_qr_scan", "ios": "https://dc.lft.to/lastmile_qr_scan"}, "fusion_lon": 0.0}, {"lat": 38.901243666666666, "is_disabled": 0, "type": "electric_scooter", "lon": -77.0333835, "bike_id": "9c74a2e46995b70c1c40fe98bd4b9da2", "fusion_lat": 0.0, "name": "9c74a2e46995b70c1c40fe98bd4b9da2", "is_reserved": 0, "rental_uris": {"android": "https://dc.lft.to/lastmile_qr_scan", "ios": "https://dc.lft.to/lastmile_qr_scan"}, "fusion_lon": 0.0}, {"lat": 38.902417, "is_disabled": 0, "type": "electric_scooter", "lon": -77.05360133333333, "bike_id": "d6488043684339a9943d30a151ac9efb", "fusion_lat": 0.0, "name": "d6488043684339a9943d30a151ac9efb", "is_reserved": 0, "rental_uris": {"android": "https://dc.lft.to/lastmile_qr_scan", "ios": "https://dc.lft.to/lastmile_qr_scan"}, "fusion_lon": 0.0}, {"lat": 38.877799, "is_disabled": 0, "type": "electric_scooter", "lon": -76.99507533333333, "bike_id": "00277dc7f9194a8e884e780d05f649dd", "fusion_lat": 0.0, "name": "00277dc7f9194a8e884e780d05f649dd", "is_reserved": 0, "rental_uris": {"android": "https://dc.lft.to/lastmile_qr_scan", "ios": "https://dc.lft.to/lastmile_qr_scan"}, "fusion_lon": 0.0}, {"lat": 38.919941666666666, "is_disabled": 0, "type": "electric_scooter", "lon": -77.02396333333333, "bike_id": "1953317414011ec180fce634a8089fc2", "fusion_lat": 0.0, "name": "1953317414011ec180fce634a8089fc2", "is_reserved": 0, "rental_uris": {"android": "https://dc.lft.to/lastmile_qr_scan", "ios": "https://dc.lft.to/lastmile_qr_scan"}, "fusion_lon": 0.0}, {"lat": 38.884899, "is_disabled": 0, "type": "electric_scooter", "lon": -77.00707433333334, "bike_id": "028239813a6670749970a74130e68d4e", "fusion_lat": 0.0, "name": "028239813a6670749970a74130e68d4e", "is_reserved": 0, "rental_uris": {"android": "https://dc.lft.to/lastmile_qr_scan", "ios": "https://dc.lft.to/lastmile_qr_scan"}, "fusion_lon": 0.0}, {"lat": 38.89730383333333, "is_disabled": 0, "type": "electric_scooter", "lon": -77.04993066666667, "bike_id": "50157d171489eaf6ce0950b2e4117c7c", "fusion_lat": 0.0, "name": "50157d171489eaf6ce0950b2e4117c7c", "is_reserved": 0, "rental_uris": {"android": "https://dc.lft.to/lastmile_qr_scan", "ios": "https://dc.lft.to/lastmile_qr_scan"}, "fusion_lon": 0.0}, {"lat": 38.9170515, "is_disabled": 0, "type": "electric_scooter", "lon": -77.00112983333334, "bike_id": "b1d4a1d44d6bc9cbedfc583b887405d5", "fusion_lat": 0.0, "name": "b1d4a1d44d6bc9cbedfc583b887405d5", "is_reserved": 0, "rental_uris": {"android": "https://dc.lft.to/lastmile_qr_scan", "ios": "https://dc.lft.to/lastmile_qr_scan"}, "fusion_lon": 0.0}, {"lat": 38.92253983333333, "is_disabled": 0, "type": "electric_scooter", "lon": -77.04145, "bike_id": "b640bf03b8310f0ed62689dd5089643b", "fusion_lat": 0.0, "name": "b640bf03b8310f0ed62689dd5089643b", "is_reserved": 0, "rental_uris": {"android": "https://dc.lft.to/lastmile_qr_scan", "ios": "https://dc.lft.to/lastmile_qr_scan"}, "fusion_lon": 0.0}, {"lat": 38.95646766666667, "is_disabled": 0, "type": "electric_bike", "lon": -77.02252433333334, "bike_id": "e6da9891c5a2c6e1579b3254b89fbcd1", "fusion_lat": 0.0, "name": "e6da9891c5a2c6e1579b3254b89fbcd1", "is_reserved": 0, "rental_uris": {"android": "https://dc.lft.to/lastmile_qr_scan", "ios": "https://dc.lft.to/lastmile_qr_scan"}, "fusion_lon": 0.0}, {"lat": 38.88491616666667, "is_disabled": 0, "type": "electric_scooter", "lon": -77.00720483333333, "bike_id": "c94cf1d8734e2aa87f86eb2945be0bed", "fusion_lat": 0.0, "name": "c94cf1d8734e2aa87f86eb2945be0bed", "is_reserved": 0, "rental_uris": {"android": "https://dc.lft.to/lastmile_qr_scan", "ios": "https://dc.lft.to/lastmile_qr_scan"}, "fusion_lon": 0.0}, {"lat": 38.89557716666667, "is_disabled": 0, "type": "electric_scooter", "lon": -76.93078466666667, "bike_id": "0006d0975df44f4855a3a0a527927b66", "fusion_lat": 0.0, "name": "0006d0975df44f4855a3a0a527927b66", "is_reserved": 0, "rental_uris": {"android": "https://dc.lft.to/lastmile_qr_scan", "ios": "https://dc.lft.to/lastmile_qr_scan"}, "fusion_lon": 0.0}, {"lat": 38.902715666666666, "is_disabled": 0, "type": "electric_scooter", "lon": -77.00327383333334, "bike_id": "25c37f3a736394a193762ac4089616e1", "fusion_lat": 0.0, "name": "25c37f3a736394a193762ac4089616e1", "is_reserved": 0, "rental_uris": {"android": "https://dc.lft.to/lastmile_qr_scan", "ios": "https://dc.lft.to/lastmile_qr_scan"}, "fusion_lon": 0.0}, {"lat": 38.9282125, "is_disabled": 0, "type": "electric_scooter", "lon": -77.026238, "bike_id": "d9ca3544069adbdc1bd81e6a21ce1734", "fusion_lat": 0.0, "name": "d9ca3544069adbdc1bd81e6a21ce1734", "is_reserved": 0, "rental_uris": {"android": "https://dc.lft.to/lastmile_qr_scan", "ios": "https://dc.lft.to/lastmile_qr_scan"}, "fusion_lon": 0.0}, {"lat": 38.91925833333333, "is_disabled": 0, "type": "electric_scooter", "lon": -77.031855, "bike_id": "03492c0dcd960fccdf054ec08824facb", "fusion_lat": 0.0, "name": "03492c0dcd960fccdf054ec08824facb", "is_reserved": 0, "rental_uris": {"android": "https://dc.lft.to/lastmile_qr_scan", "ios": "https://dc.lft.to/lastmile_qr_scan"}, "fusion_lon": 0.0}, {"lat": 38.90290683333333, "is_disabled": 0, "type": "electric_scooter", "lon": -77.03853466666666, "bike_id": "4fd256ecef563bf8204ae4894f9ca7f6", "fusion_lat": 0.0, "name": "4fd256ecef563bf8204ae4894f9ca7f6", "is_reserved": 0, "rental_uris": {"android": "https://dc.lft.to/lastmile_qr_scan", "ios": "https://dc.lft.to/lastmile_qr_scan"}, "fusion_lon": 0.0}, {"lat": 38.939417666666664, "is_disabled": 0, "type": "electric_bike", "lon": -77.36083883333333, "bike_id": "a0f74acbbecdd552428dd0ad37c8705d", "fusion_lat": 0.0, "name": "a0f74acbbecdd552428dd0ad37c8705d", "is_reserved": 0, "rental_uris": {"android": "https://dc.lft.to/lastmile_qr_scan", "ios": "https://dc.lft.to/lastmile_qr_scan"}, "fusion_lon": 0.0}, {"lat": 38.9528115, "is_disabled": 0, "type": "electric_bike", "lon": -76.9459325, "bike_id": "1907b207c712a28eff422a813c097e34", "fusion_lat": 0.0, "name": "1907b207c712a28eff422a813c097e34", "is_reserved": 0, "rental_uris": {"android": "https://dc.lft.to/lastmile_qr_scan", "ios": "https://dc.lft.to/lastmile_qr_scan"}, "fusion_lon": 0.0}, {"lat": 38.92031166666666, "is_disabled": 0, "type": "electric_scooter", "lon": -77.03049483333334, "bike_id": "94b575b594672e6bc729001b5dc420b9", "fusion_lat": 0.0, "name": "94b575b594672e6bc729001b5dc420b9", "is_reserved": 0, "rental_uris": {"android": "https://dc.lft.to/lastmile_qr_scan", "ios": "https://dc.lft.to/lastmile_qr_scan"}, "fusion_lon": 0.0}, {"lat": 38.930806, "is_disabled": 0, "type": "electric_scooter", "lon": -77.03415516666666, "bike_id": "6968b755b883811d064cb6ee4368ccde", "fusion_lat": 0.0, "name": "6968b755b883811d064cb6ee4368ccde", "is_reserved": 0, "rental_uris": {"android": "https://dc.lft.to/lastmile_qr_scan", "ios": "https://dc.lft.to/lastmile_qr_scan"}, "fusion_lon": 0.0}, {"lat": 38.9850625, "is_disabled": 0, "type": "electric_bike", "lon": -76.98206433333333, "bike_id": "b3654dfc491812c86deeef87c1003bc6", "fusion_lat": 0.0, "name": "b3654dfc491812c86deeef87c1003bc6", "is_reserved": 0, "rental_uris": {"android": "https://dc.lft.to/lastmile_qr_scan", "ios": "https://dc.lft.to/lastmile_qr_scan"}, "fusion_lon": 0.0}, {"lat": 38.895458833333336, "is_disabled": 0, "type": "electric_scooter", "lon": -77.02287116666666, "bike_id": "fa9006b7440171d356c9e75b075e7929", "fusion_lat": 0.0, "name": "fa9006b7440171d356c9e75b075e7929", "is_reserved": 0, "rental_uris": {"android": "https://dc.lft.to/lastmile_qr_scan", "ios": "https://dc.lft.to/lastmile_qr_scan"}, "fusion_lon": 0.0}, {"lat": 38.805780166666665, "is_disabled": 0, "type": "electric_bike", "lon": -77.06861133333334, "bike_id": "0d37318e9ab469265c854a30b87d8471", "fusion_lat": 0.0, "name": "0d37318e9ab469265c854a30b87d8471", "is_reserved": 0, "rental_uris": {"android": "https://dc.lft.to/lastmile_qr_scan", "ios": "https://dc.lft.to/lastmile_qr_scan"}, "fusion_lon": 0.0}, {"lat": 38.92049083333333, "is_disabled": 0, "type": "electric_scooter", "lon": -77.02436, "bike_id": "0998b72c3e22d39ac9b5e990af423e54", "fusion_lat": 0.0, "name": "0998b72c3e22d39ac9b5e990af423e54", "is_reserved": 0, "rental_uris": {"android": "https://dc.lft.to/lastmile_qr_scan", "ios": "https://dc.lft.to/lastmile_qr_scan"}, "fusion_lon": 0.0}, {"lat": 38.892473333333335, "is_disabled": 0, "type": "electric_scooter", "lon": -77.039556, "bike_id": "ea81541774fea42ee6429559e38e7233", "fusion_lat": 0.0, "name": "ea81541774fea42ee6429559e38e7233", "is_reserved": 0, "rental_uris": {"android": "https://dc.lft.to/lastmile_qr_scan", "ios": "https://dc.lft.to/lastmile_qr_scan"}, "fusion_lon": 0.0}, {"lat": 38.864266, "is_disabled": 0, "type": "electric_bike", "lon": -76.97427116666667, "bike_id": "aac68d1ec561ef64b66a53de11f63f89", "fusion_lat": 0.0, "name": "aac68d1ec561ef64b66a53de11f63f89", "is_reserved": 0, "rental_uris": {"android": "https://dc.lft.to/lastmile_qr_scan", "ios": "https://dc.lft.to/lastmile_qr_scan"}, "fusion_lon": 0.0}, {"lat": 38.90195383333333, "is_disabled": 0, "type": "electric_scooter", "lon": -77.02372766666667, "bike_id": "5a48289d89fc10f926741952bdc59dd4", "fusion_lat": 0.0, "name": "5a48289d89fc10f926741952bdc59dd4", "is_reserved": 0, "rental_uris": {"android": "https://dc.lft.to/lastmile_qr_scan", "ios": "https://dc.lft.to/lastmile_qr_scan"}, "fusion_lon": 0.0}, {"lat": 38.9013425, "is_disabled": 0, "type": "electric_scooter", "lon": -77.04997883333333, "bike_id": "1a6807e65bedd3e83df7f0ba7b8480fd", "fusion_lat": 0.0, "name": "1a6807e65bedd3e83df7f0ba7b8480fd", "is_reserved": 0, "rental_uris": {"android": "https://dc.lft.to/lastmile_qr_scan", "ios": "https://dc.lft.to/lastmile_qr_scan"}, "fusion_lon": 0.0}, {"lat": 38.92008466666667, "is_disabled": 0, "type": "electric_bike", "lon": -77.045308, "bike_id": "aa43ca6503284d406b91062874bc8544", "fusion_lat": 0.0, "name": "aa43ca6503284d406b91062874bc8544", "is_reserved": 0, "rental_uris": {"android": "https://dc.lft.to/lastmile_qr_scan", "ios": "https://dc.lft.to/lastmile_qr_scan"}, "fusion_lon": 0.0}, {"lat": 38.90006116666667, "is_disabled": 0, "type": "electric_scooter", "lon": -76.995711, "bike_id": "40f199c3eaa728de84f7baa9a095a808", "fusion_lat": 0.0, "name": "40f199c3eaa728de84f7baa9a095a808", "is_reserved": 0, "rental_uris": {"android": "https://dc.lft.to/lastmile_qr_scan", "ios": "https://dc.lft.to/lastmile_qr_scan"}, "fusion_lon": 0.0}, {"lat": 38.9007995, "is_disabled": 0, "type": "electric_scooter", "lon": -77.05055133333333, "bike_id": "be7efdb2e8fe12b9c8f1162ba31ffa66", "fusion_lat": 0.0, "name": "be7efdb2e8fe12b9c8f1162ba31ffa66", "is_reserved": 0, "rental_uris": {"android": "https://dc.lft.to/lastmile_qr_scan", "ios": "https://dc.lft.to/lastmile_qr_scan"}, "fusion_lon": 0.0}, {"lat": 38.923494, "is_disabled": 0, "type": "electric_scooter", "lon": -77.03418966666666, "bike_id": "075218af94f97d31b65a86b5b7016c14", "fusion_lat": 0.0, "name": "075218af94f97d31b65a86b5b7016c14", "is_reserved": 0, "rental_uris": {"android": "https://dc.lft.to/lastmile_qr_scan", "ios": "https://dc.lft.to/lastmile_qr_scan"}, "fusion_lon": 0.0}, {"lat": 38.91478016666667, "is_disabled": 0, "type": "electric_scooter", "lon": -77.03233516666667, "bike_id": "a5b741ea197e50a25cada043b4b4ca12", "fusion_lat": 0.0, "name": "a5b741ea197e50a25cada043b4b4ca12", "is_reserved": 0, "rental_uris": {"android": "https://dc.lft.to/lastmile_qr_scan", "ios": "https://dc.lft.to/lastmile_qr_scan"}, "fusion_lon": 0.0}, {"lat": 38.918857333333335, "is_disabled": 0, "type": "electric_scooter", "lon": -77.03508816666667, "bike_id": "4e655092aaf5c75900590852c9d093b8", "fusion_lat": 0.0, "name": "4e655092aaf5c75900590852c9d093b8", "is_reserved": 0, "rental_uris": {"android": "https://dc.lft.to/lastmile_qr_scan", "ios": "https://dc.lft.to/lastmile_qr_scan"}, "fusion_lon": 0.0}, {"lat": 38.89229233333333, "is_disabled": 0, "type": "electric_scooter", "lon": -77.05002816666666, "bike_id": "4869c0d8ae5de72eca83a01ed4ba6b4d", "fusion_lat": 0.0, "name": "4869c0d8ae5de72eca83a01ed4ba6b4d", "is_reserved": 0, "rental_uris": {"android": "https://dc.lft.to/lastmile_qr_scan", "ios": "https://dc.lft.to/lastmile_qr_scan"}, "fusion_lon": 0.0},