{"data": {"bikes": [{"fusion_lat": 0.0, "lon": -76.99148466666666, "is_reserved": 0, "bike_id": "9d9fb9028598787fba782b9aef7cacc2", "fusion_lon": 0.0, "rental_uris": {"android": "https://dc.lft.to/lastmile_qr_scan", "ios": "https://dc.lft.to/lastmile_qr_scan"}, "name": "9d9fb9028598787fba782b9aef7cacc2", "type": "electric_scooter", "lat": 38.885933333333334, "is_disabled": 0}, {"fusion_lat": 0.0, "lon": -76.995299, "is_reserved": 0, "bike_id": "74dfc27130f72b6402786f799f846f68", "fusion_lon": 0.0, "rental_uris": {"android": "https://dc.lft.to/lastmile_qr_scan", "ios": "https://dc.lft.to/lastmile_qr_scan"}, "name": "74dfc27130f72b6402786f799f846f68", "type": "electric_scooter", "lat": 38.8837485, "is_disabled": 0}, {"fusion_lat": 0.0, "lon": -77.03155866666667, "is_reserved": 0, "bike_id": "e3970f310ba6b9ce5a58ea9903616d10", "fusion_lon": 0.0, "rental_uris": {"android": "https://dc.lft.to/lastmile_qr_scan", "ios": "https://dc.lft.to/lastmile_qr_scan"}, "name": "e3970f310ba6b9ce5a58ea9903616d10", "type": "electric_scooter", "lat": 38.9191955, "is_disabled": 0}, {"fusion_lat": 0.0, "lon": -77.03718633333334, "is_reserved": 0, "bike_id": "efea6e7d1c1eb1b34f5374bff6e1df14", "fusion_lon": 0.0, "rental_uris": {"android": "https://dc.lft.to/lastmile_qr_scan", "ios": "https://dc.lft.to/lastmile_qr_scan"}, "name": "efea6e7d1c1eb1b34f5374bff6e1df14", "type": "electric_scooter", "lat": 38.91694966666667, "is_disabled": 0}, {"fusion_lat": 0.0, "lon": -77.03521233333333, "is_reserved": 0, "bike_id": "0c627703f03b67cf2e3b59f4138327bd", "fusion_lon": 0.0, "rental_uris": {"android": "https://dc.lft.to/lastmile_qr_scan", "ios": "https://dc.lft.to/lastmile_qr_scan"}, "name": "0c627703f03b67cf2e3b59f4138327bd", "type": "electric_scooter", "lat": 38.922602166666664, "is_disabled": 0}, {"fusion_lat": 0.0, "lon": -77.04694066666667, "is_reserved": 0, "bike_id": "b0ca7785df77cf0aa36a1d789213217d", "fusion_lon": 0.0, "rental_uris": {"android": "https://dc.lft.to/lastmile_qr_scan", "ios": "https://dc.lft.to/lastmile_qr_scan"}, "name": "b0ca7785df77cf0aa36a1d789213217d", "type": "electric_bike", "lat": 39.023967166666665, "is_disabled": 0}, {"fusion_lat": 0.0, "lon": -77.05893466666667, "is_reserved": 0, "bike_id": "1e1057cb748d58d70e014b77588f1158", "fusion_lon": 0.0, "rental_uris": {"android": "https://dc.lft.to/lastmile_qr_scan", "ios": "https://dc.lft.to/lastmile_qr_scan"}, "name": "1e1057cb748d58d70e014b77588f1158", "type": "electric_scooter", "lat": 38.9429975, "is_disabled": 0}, {"fusion_lat": 0.0, "lon": -77.0225055, "is_reserved": 0, "bike_id": "c209f182ae549618eb42529c1722da8d", "fusion_lon": 0.0, "rental_uris": {"android": "https://dc.lft.to/lastmile_qr_scan", "ios": "https://dc.lft.to/lastmile_qr_scan"}, "name": "c209f182ae549618eb42529c1722da8d", "type": "electric_scooter", "lat": 38.916394833333335, "is_disabled": 0}, {"fusion_lat": 0.0, "lon": -77.01864433333333, "is_reserved": 0, "bike_id": "80994d787d07db84dc9eebe514038c5b", "fusion_lon": 0.0, "rental_uris": {"android": "https://dc.lft.to/lastmile_qr_scan", "ios": "https://dc.lft.to/lastmile_qr_scan"}, "name": "80994d787d07db84dc9eebe514038c5b", "type": "electric_scooter", "lat": 38.973709, "is_disabled": 0}, {"fusion_lat": 0.0, "lon": -77.0395975, "is_reserved": 0, "bike_id": "f51b4bfebb14f24599d6f2d90e4874fe", "fusion_lon": 0.0, "rental_uris": {"android": "https://dc.lft.to/lastmile_qr_scan", "ios": "https://dc.lft.to/lastmile_qr_scan"}, "name": "f51b4bfebb14f24599d6f2d90e4874fe", "type": "electric_scooter", "lat": 38.8925315, "is_disabled": 0}, {"fusion_lat": 0.0, "lon": -77.06463116666667, "is_reserved": 0, "bike_id": "8f0b554212302468ba56a23f3241643e", "fusion_lon": 0.0, "rental_uris": {"android": "https://dc.lft.to/lastmile_qr_scan", "ios": "https://dc.lft.to/lastmile_qr_scan"}, "name": "8f0b554212302468ba56a23f3241643e", "type": "electric_scooter", "lat": 38.927458, "is_disabled": 0}, {"fusion_lat": 0.0, "lon": -77.03782783333334, "is_reserved": 0, "bike_id": "0ee5a6c61685118da0906b1544c5586d", "fusion_lon": 0.0, "rental_uris": {"android": "https://dc.lft.to/lastmile_qr_scan", "ios": "https://dc.lft.to/lastmile_qr_scan"}, "name": "0ee5a6c61685118da0906b1544c5586d", "type": "electric_scooter", "lat": 38.91698983333333, "is_disabled": 0}, {"fusion_lat": 0.0, "lon": -76.9735415, "is_reserved": 0, "bike_id": "1291e8b0eab30de7ba2d4f13fe641bd7", "fusion_lon": 0.0, "rental_uris": {"android": "https://dc.lft.to/lastmile_qr_scan", "ios": "https://dc.lft.to/lastmile_qr_scan"}, "name": "1291e8b0eab30de7ba2d4f13fe641bd7", "type": "electric_scooter", "lat": 38.8656055, "is_disabled": 0}, {"fusion_lat": 0.0, "lon": -76.98227766666666, "is_reserved": 0, "bike_id": "730405d5f270057ff58f78f292863f73", "fusion_lon": 0.0, "rental_uris": {"android": "https://dc.lft.to/lastmile_qr_scan", "ios": "https://dc.lft.to/lastmile_qr_scan"}, "name": "730405d5f270057ff58f78f292863f73", "type": "electric_scooter", "lat": 38.88651766666667, "is_disabled": 0}, {"fusion_lat": 0.0, "lon": -77.04362833333333, "is_reserved": 0, "bike_id": "f40ec47df934002d9ccd1f1365b7142f", "fusion_lon": 0.0, "rental_uris": {"android": "https://dc.lft.to/lastmile_qr_scan", "ios": "https://dc.lft.to/lastmile_qr_scan"}, "name": "f40ec47df934002d9ccd1f1365b7142f", "type": "electric_scooter", "lat": 38.92064716666667, "is_disabled": 0}, {"fusion_lat": 0.0, "lon": -77.00660333333333, "is_reserved": 0, "bike_id": "2d6f8516e9684259f9e41e23ada60f55", "fusion_lon": 0.0, "rental_uris": {"android": "https://dc.lft.to/lastmile_qr_scan", "ios": "https://dc.lft.to/lastmile_qr_scan"}, "name": "2d6f8516e9684259f9e41e23ada60f55", "type": "electric_scooter", "lat": 38.94461533333333, "is_disabled": 0}, {"fusion_lat": 0.0, "lon": -77.01585133333333, "is_reserved": 0, "bike_id": "77c905766f6179a8961ede866043dca9", "fusion_lon": 0.0, "rental_uris": {"android": "https://dc.lft.to/lastmile_qr_scan", "ios": "https://dc.lft.to/lastmile_qr_scan"}, "name": "77c905766f6179a8961ede866043dca9", "type": "electric_scooter", "lat": 38.88615883333333, "is_disabled": 0}, {"fusion_lat": 0.0, "lon": -77.11184983333334, "is_reserved": 0, "bike_id": "3fa5806f7534c6fec7957b6a84a9c65b", "fusion_lon": 0.0, "rental_uris": {"android": "https://dc.lft.to/lastmile_qr_scan", "ios": "https://dc.lft.to/lastmile_qr_scan"}, "name": "3fa5806f7534c6fec7957b6a84a9c65b", "type": "electric_bike", "lat": 38.855109666666664, "is_disabled": 0}, {"fusion_lat": 0.0, "lon": -77.03493333333333, "is_reserved": 0, "bike_id": "de50c5abbdde42a3d039b6fd2d12bd3f", "fusion_lon": 0.0, "rental_uris": {"android": "https://dc.lft.to/lastmile_qr_scan", "ios": "https://dc.lft.to/lastmile_qr_scan"}, "name": "de50c5abbdde42a3d039b6fd2d12bd3f", "type": "electric_scooter", "lat": 38.924813666666665, "is_disabled": 0}, {"fusion_lat": 0.0, "lon": -77.02689433333333, "is_reserved": 0, "bike_id": "a81c1a5f07432f6d4d5c1d8b99f7ecfc", "fusion_lon": 0.0, "rental_uris": {"android": "https://dc.lft.to/lastmile_qr_scan", "ios": "https://dc.lft.to/lastmile_qr_scan"}, "name": "a81c1a5f07432f6d4d5c1d8b99f7ecfc", "type": "electric_scooter", "lat": 38.90124766666667, "is_disabled": 0}, {"fusion_lat": 0.0, "lon": -77.03228533333333, "is_reserved": 0, "bike_id": "1bbe2cb80db8032bb2863c5e78edd92f", "fusion_lon": 0.0, "rental_uris": {"android": "https://dc.lft.to/lastmile_qr_scan", "ios": "https://dc.lft.to/lastmile_qr_scan"}, "name": "1bbe2cb80db8032bb2863c5e78edd92f", "type": "electric_scooter", "lat": 38.928701, "is_disabled": 0}, {"fusion_lat": 0.0, "lon": -77.18740433333333, "is_reserved": 0, "bike_id": "18741b91e9d73ff87a73d714770b9f86", "fusion_lon": 0.0, "rental_uris": {"android": "https://dc.lft.to/lastmile_qr_scan", "ios": "https://dc.lft.to/lastmile_qr_scan"}, "name": "18741b91e9d73ff87a73d714770b9f86", "type": "electric_bike", "lat": 38.89355966666667, "is_disabled": 0}, {"fusion_lat": 0.0, "lon": -77.01211483333333, "is_reserved": 0, "bike_id": "28b459139cf89acddc74eeb9343393ea", "fusion_lon": 0.0, "rental_uris": {"android": "https://dc.lft.to/lastmile_qr_scan", "ios": "https://dc.lft.to/lastmile_qr_scan"}, "name": "28b459139cf89acddc74eeb9343393ea", "type": "electric_scooter", "lat": 38.87090533333333, "is_disabled": 0}, {"fusion_lat": 0.0, "lon": -76.9836955, "is_reserved": 0, "bike_id": "1827371682c53e57f9e6d214a4319a9d", "fusion_lon": 0.0, "rental_uris": {"android": "https://dc.lft.to/lastmile_qr_scan", "ios": "https://dc.lft.to/lastmile_qr_scan"}, "name": "1827371682c53e57f9e6d214a4319a9d", "type": "electric_scooter", "lat": 38.91494983333333, "is_disabled": 0}, {"fusion_lat": 0.0, "lon": -77.03865016666667, "is_reserved": 0, "bike_id": "c872743b40f08456d02c94738eaca640", "fusion_lon": 0.0, "rental_uris": {"android": "https://dc.lft.to/lastmile_qr_scan", "ios": "https://dc.lft.to/lastmile_qr_scan"}, "name": "c872743b40f08456d02c94738eaca640", "type": "electric_scooter", "lat": 38.921545333333334, "is_disabled": 0}, {"fusion_lat": 0.0, "lon": -77.06290466666667, "is_reserved": 0, "bike_id": "069f31385ed7b70b5e7041d4a22bb6bf", "fusion_lon": 0.0, "rental_uris": {"android": "https://dc.lft.to/lastmile_qr_scan", "ios": "https://dc.lft.to/lastmile_qr_scan"}, "name": "069f31385ed7b70b5e7041d4a22bb6bf", "type": "electric_scooter", "lat": 38.90437266666667, "is_disabled": 0}, {"fusion_lat": 0.0, "lon": -77.00264233333333, "is_reserved": 0, "bike_id": "cbb7d02f0ce744fb5ebff235659dc547", "fusion_lon": 0.0, "rental_uris": {"android": "https://dc.lft.to/lastmile_qr_scan", "ios": "https://dc.lft.to/lastmile_qr_scan"}, "name": "cbb7d02f0ce744fb5ebff235659dc547", "type": "electric_bike", "lat": 38.911621, "is_disabled": 0}, {"fusion_lat": 0.0, "lon": -77.042998, "is_reserved": 0, "bike_id": "085d44a5c7a260d2942d6095e4ec7774", "fusion_lon": 0.0, "rental_uris": {"android": "https://dc.lft.to/lastmile_qr_scan", "ios": "https://dc.lft.to/lastmile_qr_scan"}, "name": "085d44a5c7a260d2942d6095e4ec7774", "type": "electric_scooter", "lat": 38.92300066666667, "is_disabled": 0}, {"fusion_lat": 0.0, "lon": -76.93000616666667, "is_reserved": 0, "bike_id": "f9571354a57ae377285fad76a2b065be", "fusion_lon": 0.0, "rental_uris": {"android": "https://dc.lft.to/lastmile_qr_scan", "ios": "https://dc.lft.to/lastmile_qr_scan"}, "name": "f9571354a57ae377285fad76a2b065be", "type": "electric_scooter", "lat": 38.90187, "is_disabled": 0}, {"fusion_lat": 0.0, "lon": -77.03201583333333, "is_reserved": 0, "bike_id": "71979f664b2379f0ee3bdc2d51835909", "fusion_lon": 0.0, "rental_uris": {"android": "https://dc.lft.to/lastmile_qr_scan", "ios": "https://dc.lft.to/lastmile_qr_scan"}, "name": "71979f664b2379f0ee3bdc2d51835909", "type": "electric_scooter", "lat": 38.919596166666665, "is_disabled": 0}, {"fusion_lat": 0.0, "lon": -77.10915483333333, "is_reserved": 0, "bike_id": "92f22848c6f558ceab9c0a534796171c", "fusion_lon": 0.0, "rental_uris": {"android": "https://dc.lft.to/lastmile_qr_scan", "ios": "https://dc.lft.to/lastmile_qr_scan"}, "name": "92f22848c6f558ceab9c0a534796171c", "type": "electric_bike", "lat": 39.052037166666665, "is_disabled": 0}, {"fusion_lat": 0.0, "lon": -77.0011985, "is_reserved": 0, "bike_id": "3c1e3dacb2df79c5cae8695f9ac70b11", "fusion_lon": 0.0, "rental_uris": {"android": "https://dc.lft.to/lastmile_qr_scan", "ios": "https://dc.lft.to/lastmile_qr_scan"}, "name": "3c1e3dacb2df79c5cae8695f9ac70b11", "type": "electric_scooter", "lat": 38.917039, "is_disabled": 0}, {"fusion_lat": 0.0, "lon": -77.028307, "is_reserved": 0, "bike_id": "966f4850984dbc3dda7cda61d831e394", "fusion_lon": 0.0, "rental_uris": {"android": "https://dc.lft.to/lastmile_qr_scan", "ios": "https://dc.lft.to/lastmile_qr_scan"}, "name": "966f4850984dbc3dda7cda61d831e394", "type": "electric_scooter", "lat": 38.924783833333336, "is_disabled": 0}, {"fusion_lat": 0.0, "lon": -77.03663716666667, "is_reserved": 0, "bike_id": "6400c1f861559a685a2d308dac59a127", "fusion_lon": 0.0, "rental_uris": {"android": "https://dc.lft.to/lastmile_qr_scan", "ios": "https://dc.lft.to/lastmile_qr_scan"}, "name": "6400c1f861559a685a2d308dac59a127", "type": "electric_scooter", "lat": 38.922953, "is_disabled": 0}, {"fusion_lat": 0.0, "lon": -77.05595583333333, "is_reserved": 0, "bike_id": "088217f41380a498b39e1dd101717cbd", "fusion_lon": 0.0, "rental_uris": {"android": "https://dc.lft.to/lastmile_qr_scan", "ios": "https://dc.lft.to/lastmile_qr_scan"}, "name": "088217f41380a498b39e1dd101717cbd", "type": "electric_scooter", "lat": 38.937052, "is_disabled": 0}, {"fusion_lat": 0.0, "lon": -77.01418333333334, "is_reserved": 0, "bike_id": "29921c22abdc7df37a612e1e24f32eae", "fusion_lon": 0.0, "rental_uris": {"android": "https://dc.lft.to/lastmile_qr_scan", "ios": "https://dc.lft.to/lastmile_qr_scan"}, "name": "29921c22abdc7df37a612e1e24f32eae", "type": "electric_scooter", "lat": 38.92872416666667, "is_disabled": 0}, {"fusion_lat": 0.0, "lon": -77.0278085, "is_reserved": 0, "bike_id": "97af0fbacff5bd04ed7653c7ec4578ae", "fusion_lon": 0.0, "rental_uris": {"android": "https://dc.lft.to/lastmile_qr_scan", "ios": "https://dc.lft.to/lastmile_qr_scan"}, "name": "97af0fbacff5bd04ed7653c7ec4578ae", "type": "electric_scooter", "lat": 38.92768233333334, "is_disabled": 0}, {"fusion_lat": 0.0, "lon": -77.04661216666666, "is_reserved": 0, "bike_id": "24e52a8f95f4330c21a2a036b5abd2cd", "fusion_lon": 0.0, "rental_uris": {"android": "https://dc.lft.to/lastmile_qr_scan", "ios": "https://dc.lft.to/lastmile_qr_scan"}, "name": "24e52a8f95f4330c21a2a036b5abd2cd", "type": "electric_scooter", "lat": 38.91276, "is_disabled": 0}, {"fusion_lat": 0.0, "lon": -77.04684516666667, "is_reserved": 0, "bike_id": "e9d9558daa593554da336ac60e460326", "fusion_lon": 0.0, "rental_uris": {"android": "https://dc.lft.to/lastmile_qr_scan", "ios": "https://dc.lft.to/lastmile_qr_scan"}, "name": "e9d9558daa593554da336ac60e460326", "type": "electric_scooter", "lat": 38.903575833333335, "is_disabled": 0}, {"fusion_lat": 0.0, "lon": -77.07279433333333, "is_reserved": 0, "bike_id": "5586db29e502174ccf0ff79c8762be2e", "fusion_lon": 0.0, "rental_uris": {"android": "https://dc.lft.to/lastmile_qr_scan", "ios": "https://dc.lft.to/lastmile_qr_scan"}, "name": "5586db29e502174ccf0ff79c8762be2e", "type": "electric_scooter", "lat": 38.934897, "is_disabled": 0}, {"fusion_lat": 0.0, "lon": -76.96466883333333, "is_reserved": 0, "bike_id": "6919c100a74fc884972af4cade24a371", "fusion_lon": 0.0, "rental_uris": {"android": "https://dc.lft.to/lastmile_qr_scan", "ios": "https://dc.lft.to/lastmile_qr_scan"}, "name": "6919c100a74fc884972af4cade24a371", "type": "electric_scooter", "lat": 38.9344705, "is_disabled": 0}, {"fusion_lat": 0.0, "lon": -76.98747433333334, "is_reserved": 0, "bike_id": "b9358dc338026cbb645f105db7b5f54a", "fusion_lon": 0.0, "rental_uris": {"android": "https://dc.lft.to/lastmile_qr_scan", "ios": "https://dc.lft.to/lastmile_qr_scan"}, "name": "b9358dc338026cbb645f105db7b5f54a", "type": "electric_scooter", "lat": 38.844864666666666, "is_disabled": 0}, {"fusion_lat": 0.0, "lon": -77.04190783333334, "is_reserved": 0, "bike_id": "f386692894014de7329efcbd5cacd84a", "fusion_lon": 0.0, "rental_uris": {"android": "https://dc.lft.to/lastmile_qr_scan", "ios": "https://dc.lft.to/lastmile_qr_scan"}, "name": "f386692894014de7329efcbd5cacd84a", "type": "electric_scooter", "lat": 38.91983583333333, "is_disabled": 0}, {"fusion_lat": 0.0, "lon": -77.032643, "is_reserved": 0, "bike_id": "f77f2dac7064e327c2667feeba904c70", "fusion_lon": 0.0, "rental_uris": {"android": "https://dc.lft.to/lastmile_qr_scan", "ios": "https://dc.lft.to/lastmile_qr_scan"}, "name": "f77f2dac7064e327c2667feeba904c70", "type": "electric_scooter", "lat": 38.92743316666667, "is_disabled": 0}, {"fusion_lat": 0.0, "lon": -76.9853445, "is_reserved": 0, "bike_id": "bf569f4aa71a81db366841ed11b879b9", "fusion_lon": 0.0, "rental_uris": {"android": "https://dc.lft.to/lastmile_qr_scan", "ios": "https://dc.lft.to/lastmile_qr_scan"}, "name": "bf569f4aa71a81db366841ed11b879b9", "type": "electric_scooter", "lat": 38.9102435, "is_disabled": 0}, {"fusion_lat": 0.0, "lon": -77.0254695, "is_reserved": 0, "bike_id": "2e23241436be32370f5f55d167284ae2", "fusion_lon": 0.0, "rental_uris": {"android": "https://dc.lft.to/lastmile_qr_scan", "ios": "https://dc.lft.to/lastmile_qr_scan"}, "name": "2e23241436be32370f5f55d167284ae2", "type": "electric_scooter", "lat": 38.952596666666665, "is_disabled": 0}, {"fusion_lat": 0.0, "lon": -77.02674833333333, "is_reserved": 0, "bike_id": "9eb151dc110c800c45fc36f3f5dd2784", "fusion_lon": 0.0, "rental_uris": {"android": "https://dc.lft.to/lastmile_qr_scan", "ios": "https://dc.lft.to/lastmile_qr_scan"}, "name": "9eb151dc110c800c45fc36f3f5dd2784", "type": "electric_scooter", "lat": 38.927741833333336, "is_disabled": 0}, {"fusion_lat": 0.0, "lon": -77.02956666666667, "is_reserved": 0, "bike_id": "1e46c842f85417f99c0df91d72dc4689", "fusion_lon": 0.0, "rental_uris": {"android": "https://dc.lft.to/lastmile_qr_scan", "ios": "https://dc.lft.to/lastmile_qr_scan"}, "name": "1e46c842f85417f99c0df91d72dc4689", "type": "electric_scooter", "lat": 38.93244833333333, "is_disabled": 0}, {"fusion_lat": 0.0, "lon": -77.0268445, "is_reserved": 0, "bike_id": "0c96ebd05162b73803f82b6bf37057a8", "fusion_lon": 0.0, "rental_uris": {"android": "https://dc.lft.to/lastmile_qr_scan", "ios": "https://dc.lft.to/lastmile_qr_scan"}, "name": "0c96ebd05162b73803f82b6bf37057a8", "type": "electric_scooter", "lat": 38.9848955, "is_disabled": 0}, {"fusion_lat": 0.0, "lon": -76.99190166666666, "is_reserved": 0, "bike_id": "64510d9592ff234364489e9aba03df7a", "fusion_lon": 0.0, "rental_uris": {"android": "https://dc.lft.to/lastmile_qr_scan", "ios": "https://dc.lft.to/lastmile_qr_scan"}, "name": "64510d9592ff234364489e9aba03df7a", "type": "electric_scooter", "lat": 38.900276166666664, "is_disabled": 0}, {"fusion_lat": 0.0, "lon": -77.03773316666667, "is_reserved": 0, "bike_id": "9bfa393ce49204e0d68139a87cc7d8c1", "fusion_lon": 0.0, "rental_uris": {"android": "https://dc.lft.to/lastmile_qr_scan", "ios": "https://dc.lft.to/lastmile_qr_scan"}, "name": "9bfa393ce49204e0d68139a87cc7d8c1", "type": "electric_scooter", "lat": 38.917103833333336, "is_disabled": 0}, {"fusion_lat": 0.0, "lon": -77.03187583333333, "is_reserved": 0, "bike_id": "81a0a37aaafc7410a3b120b05e041d27", "fusion_lon": 0.0, "rental_uris": {"android": "https://dc.lft.to/lastmile_qr_scan", "ios": "https://dc.lft.to/lastmile_qr_scan"}, "name": "81a0a37aaafc7410a3b120b05e041d27", "type": "electric_scooter", "lat": 38.884073, "is_disabled": 0}, {"fusion_lat": 0.0, "lon": -76.9920915, "is_reserved": 0, "bike_id": "f64a2c03069bcd3000d55aa2aff0527d", "fusion_lon": 0.0, "rental_uris": {"android": "https://dc.lft.to/lastmile_qr_scan", "ios": "https://dc.lft.to/lastmile_qr_scan"}, "name": "f64a2c03069bcd3000d55aa2aff0527d", "type": "electric_scooter", "lat": 38.89522766666666, "is_disabled": 0}, {"fusion_lat": 0.0, "lon": -76.99697616666667, "is_reserved": 0, "bike_id": "9c852e4d521df550eb39df7a2b724bb7", "fusion_lon": 0.0, "rental_uris": {"android": "https://dc.lft.to/lastmile_qr_scan", "ios": "https://dc.lft.to/lastmile_qr_scan"}, "name": "9c852e4d521df550eb39df7a2b724bb7", "type": "electric_scooter", "lat": 38.9083615, "is_disabled": 0}, {"fusion_lat": 0.0, "lon": -77.0241025, "is_reserved": 0, "bike_id": "889a192089b425f2612c24a9ef271dc0", "fusion_lon": 0.0, "rental_uris": {"android": "https://dc.lft.to/lastmile_qr_scan", "ios": "https://dc.lft.to/lastmile_qr_scan"}, "name": "889a192089b425f2612c24a9ef271dc0", "type": "electric_scooter", "lat": 38.91961216666667, "is_disabled": 0}, {"fusion_lat": 0.0, "lon": -77.02697266666667, "is_reserved": 0, "bike_id": "d8488705d0d04c4d5dd59bd0b6063fe7", "fusion_lon": 0.0, "rental_uris": {"android": "https://dc.lft.to/lastmile_qr_scan", "ios": "https://dc.lft.to/lastmile_qr_scan"}, "name": "d8488705d0d04c4d5dd59bd0b6063fe7", "type": "electric_scooter", "lat": 38.9489, "is_disabled": 0}, {"fusion_lat": 0.0, "lon": -77.0353255, "is_reserved": 0, "bike_id": "ae911a16d682479b71542706c1fbc689", "fusion_lon": 0.0, "rental_uris": {"android": "https://dc.lft.to/lastmile_qr_scan", "ios": "https://dc.lft.to/lastmile_qr_scan"}, "name": "ae911a16d682479b71542706c1fbc689", "type": "electric_scooter", "lat": 38.91549766666667, "is_disabled": 0}, {"fusion_lat": 0.0, "lon": -77.0179805, "is_reserved": 0, "bike_id": "dd71db3ea22130a545e8da6e88f18744", "fusion_lon": 0.0, "rental_uris": {"android": "https://dc.lft.to/lastmile_qr_scan", "ios": "https://dc.lft.to/lastmile_qr_scan"}, "name": "dd71db3ea22130a545e8da6e88f18744", "type": "electric_scooter", "lat": 38.89303816666666, "is_disabled": 0}, {"fusion_lat": 0.0, "lon": -77.04365766666666, "is_reserved": 0, "bike_id": "b399b65d4c2ea0210c1f9d8c168b9cd5", "fusion_lon": 0.0, "rental_uris": {"android": "https://dc.lft.to/lastmile_qr_scan", "ios": "https://dc.lft.to/lastmile_qr_scan"}, "name": "b399b65d4c2ea0210c1f9d8c168b9cd5", "type": "electric_scooter", "lat": 38.902978, "is_disabled": 0}, {"fusion_lat": 0.0, "lon": -77.0325845, "is_reserved": 0, "bike_id": "e4159cc925e1516df8f97d81372c1717", "fusion_lon": 0.0, "rental_uris": {"android": "https://dc.lft.to/lastmile_qr_scan", "ios": "https://dc.lft.to/lastmile_qr_scan"}, "name": "e4159cc925e1516df8f97d81372c1717", "type": "electric_scooter", "lat": 38.932535333333334, "is_disabled": 0}, {"fusion_lat": 0.0, "lon": -76.95018716666667, "is_reserved": 0, "bike_id": "828e8d5ca2821726fe73a17a1bf24443", "fusion_lon": 0.0, "rental_uris": {"android": "https://dc.lft.to/lastmile_qr_scan", "ios": "https://dc.lft.to/lastmile_qr_scan"}, "name": "828e8d5ca2821726fe73a17a1bf24443", "type": "electric_scooter", "lat": 38.893896166666664, "is_disabled": 0}, {"fusion_lat": 0.0, "lon": -77.0859405, "is_reserved": 0, "bike_id": "d2f8189f71536a865d6d254c9dd0316b", "fusion_lon": 0.0, "rental_uris": {"android": "https://dc.lft.to/lastmile_qr_scan", "ios": "https://dc.lft.to/lastmile_qr_scan"}, "name": "d2f8189f71536a865d6d254c9dd0316b", "type": "electric_scooter", "lat": 38.9086715, "is_disabled": 0}, {"fusion_lat": 0.0, "lon": -77.044573, "is_reserved": 0, "bike_id": "a075cfe589408726911f2f7071d6aac6", "fusion_lon": 0.0, "rental_uris": {"android": "https://dc.lft.to/lastmile_qr_scan", "ios": "https://dc.lft.to/lastmile_qr_scan"}, "name": "a075cfe589408726911f2f7071d6aac6", "type": "electric_scooter", "lat": 38.91880366666667, "is_disabled": 0}, {"fusion_lat": 0.0, "lon": -76.93261466666667, "is_reserved": 0, "bike_id": "f4a06bd3e2ec2889aea5d36ba122e8ca", "fusion_lon": 0.0, "rental_uris": {"android": "https://dc.lft.to/lastmile_qr_scan", "ios": "https://dc.lft.to/lastmile_qr_scan"}, "name": "f4a06bd3e2ec2889aea5d36ba122e8ca", "type": "electric_scooter", "lat": 38.898918, "is_disabled": 0}, {"fusion_lat": 0.0, "lon": -77.00618383333334, "is_reserved": 0, "bike_id": "57251151d5e36146df28bb6978154dca", "fusion_lon": 0.0, "rental_uris": {"android": "https://dc.lft.to/lastmile_qr_scan", "ios": "https://dc.lft.to/lastmile_qr_scan"}, "name": "57251151d5e36146df28bb6978154dca", "type": "electric_scooter", "lat": 38.9085455, "is_disabled": 0}, {"fusion_lat": 0.0, "lon": -77.04270616666666, "is_reserved": 0, "bike_id": "9028b1b5ee22fdd1a08017f7cc7cb39f", "fusion_lon": 0.0, "rental_uris": {"android": "https://dc.lft.to/lastmile_qr_scan", "ios": "https://dc.lft.to/lastmile_qr_scan"}, "name": "9028b1b5ee22fdd1a08017f7cc7cb39f", "type": "electric_scooter", "lat": 38.91332383333334, "is_disabled": 0}, {"fusion_lat": 0.0, "lon": -77.02462766666666, "is_reserved": 0, "bike_id": "7d6b216bbabcc1bc1693f510f27008c5", "fusion_lon": 0.0, "rental_uris": {"android": "https://dc.lft.to/lastmile_qr_scan", "ios": "https://dc.lft.to/lastmile_qr_scan"}, "name": "7d6b216bbabcc1bc1693f510f27008c5", "type": "electric_scooter", "lat": 38.89742483333333, "is_disabled": 0}, {"fusion_lat": 0.0, "lon": -77.0347635, "is_reserved": 0, "bike_id": "21d46efa417df607e9f57cdd10997245", "fusion_lon": 0.0, "rental_uris": {"android": "https://dc.lft.to/lastmile_qr_scan", "ios": "https://dc.lft.to/lastmile_qr_scan"}, "name": "21d46efa417df607e9f57cdd10997245", "type": "electric_scooter", "lat": 38.925390666666665, "is_disabled": 0}, {"fusion_lat": 0.0, "lon": -77.04256533333333, "is_reserved": 0, "bike_id": "43dc0d44c85636eb44b295e6472bc04c", "fusion_lon": 0.0, "rental_uris": {"android": "https://dc.lft.to/lastmile_qr_scan", "ios": "https://dc.lft.to/lastmile_qr_scan"}, "name": "43dc0d44c85636eb44b295e6472bc04c", "type": "electric_scooter", "lat": 38.922414, "is_disabled": 0}, {"fusion_lat": 0.0, "lon": -77.03220783333333, "is_reserved": 0, "bike_id": "bfcacf2a9463c976ecda507d3275957d", "fusion_lon": 0.0, "rental_uris": {"android": "https://dc.lft.to/lastmile_qr_scan", "ios": "https://dc.lft.to/lastmile_qr_scan"}, "name": "bfcacf2a9463c976ecda507d3275957d", "type": "electric_scooter", "lat": 38.8922085, "is_disabled": 0}, {"fusion_lat": 0.0, "lon": -77.04501283333333, "is_reserved": 0, "bike_id": "45d907e4d5d514a8c36894c7199149d5", "fusion_lon": 0.0, "rental_uris": {"android": "https://dc.lft.to/lastmile_qr_scan", "ios": "https://dc.lft.to/lastmile_qr_scan"}, "name": "45d907e4d5d514a8c36894c7199149d5", "type": "electric_scooter", "lat": 38.90517033333333, "is_disabled": 0}, {"fusion_lat": 0.0, "lon": -77.07881233333333, "is_reserved": 0, "bike_id": "d6cc2acd748f35110eaceca3d9235ba4", "fusion_lon": 0.0, "rental_uris": {"android": "https://dc.lft.to/lastmile_qr_scan", "ios": "https://dc.lft.to/lastmile_qr_scan"}, "name": "d6cc2acd748f35110eaceca3d9235ba4", "type": "electric_bike", "lat": 38.95026083333333, "is_disabled": 0}, {"fusion_lat": 0.0, "lon": -76.94197983333333, "is_reserved": 0, "bike_id": "7913255de5d87d1fd96e2982130a1f08", "fusion_lon": 0.0, "rental_uris": {"android": "https://dc.lft.to/lastmile_qr_scan", "ios": "https://dc.lft.to/lastmile_qr_scan"}, "name": "7913255de5d87d1fd96e2982130a1f08", "type": "electric_scooter", "lat": 38.89376466666667, "is_disabled": 0}, {"fusion_lat": 0.0, "lon": -76.9976055, "is_reserved": 0, "bike_id": "62056434a9afd927fd35ced50e411204", "fusion_lon": 0.0, "rental_uris": {"android": "https://dc.lft.to/lastmile_qr_scan", "ios": "https://dc.lft.to/lastmile_qr_scan"}, "name": "62056434a9afd927fd35ced50e411204", "type": "electric_scooter", "lat": 38.887694, "is_disabled": 0}, {"fusion_lat": 0.0, "lon": -77.0375945, "is_reserved": 0, "bike_id": "c1eaee488f26cacfdc1bca9267b1471d", "fusion_lon": 0.0, "rental_uris": {"android": "https://dc.lft.to/lastmile_qr_scan", "ios": "https://dc.lft.to/lastmile_qr_scan"}, "name": "c1eaee488f26cacfdc1bca9267b1471d", "type": "electric_scooter", "lat": 38.9112385, "is_disabled": 0}, {"fusion_lat": 0.0, "lon": -77.03151133333333, "is_reserved": 0, "bike_id": "b722e1569d5ae94cf6b3d06fe59facc1", "fusion_lon": 0.0, "rental_uris": {"android": "https://dc.lft.to/lastmile_qr_scan", "ios": "https://dc.lft.to/lastmile_qr_scan"}, "name": "b722e1569d5ae94cf6b3d06fe59facc1", "type": "electric_scooter", "lat": 38.92786983333333, "is_disabled": 0}, {"fusion_lat": 0.0, "lon": -77.04355583333333, "is_reserved": 0, "bike_id": "41caad7f03981adf7e166dcda5d43f81", "fusion_lon": 0.0, "rental_uris": {"android": "https://dc.lft.to/lastmile_qr_scan", "ios": "https://dc.lft.to/lastmile_qr_scan"}, "name": "41caad7f03981adf7e166dcda5d43f81", "type": "electric_scooter", "lat": 38.892334166666664, "is_disabled": 0}, {"fusion_lat": 0.0, "lon": -76.94681633333333, "is_reserved": 0, "bike_id": "f72a5be9748547dd3efee6994df47114", "fusion_lon": 0.0, "rental_uris": {"android": "https://dc.lft.to/lastmile_qr_scan", "ios": "https://dc.lft.to/lastmile_qr_scan"}, "name": "f72a5be9748547dd3efee6994df47114", "type": "electric_scooter", "lat": 38.886306, "is_disabled": 0}, {"fusion_lat": 0.0, "lon": -77.03841833333334, "is_reserved": 0, "bike_id": "e2aa59ee4593f9e1cf52d3a8f6cb410c", "fusion_lon": 0.0, "rental_uris": {"android": "https://dc.lft.to/lastmile_qr_scan", "ios": "https://dc.lft.to/lastmile_qr_scan"}, "name": "e2aa59ee4593f9e1cf52d3a8f6cb410c", "type": "electric_scooter", "lat": 38.925330833333334, "is_disabled": 0}, {"fusion_lat": 0.0, "lon": -77.04502416666666, "is_reserved": 0, "bike_id": "25f60b546232c78d67acf22af7f9a101", "fusion_lon": 0.0, "rental_uris": {"android": "https://dc.lft.to/lastmile_qr_scan", "ios": "https://dc.lft.to/lastmile_qr_scan"}, "name": "25f60b546232c78d67acf22af7f9a101", "type": "electric_scooter", "lat": 38.911081833333334, "is_disabled": 0}, {"fusion_lat": 0.0, "lon": -77.003816, "is_reserved": 0, "bike_id": "559a3d40387957eba15c1688ebd0b02c", "fusion_lon": 0.0, "rental_uris": {"android": "https://dc.lft.to/lastmile_qr_scan", "ios": "https://dc.lft.to/lastmile_qr_scan"}, "name": "559a3d40387957eba15c1688ebd0b02c", "type": "electric_scooter", "lat": 38.8763975, "is_disabled": 0}, {"fusion_lat": 0.0, "lon": -77.00338166666667, "is_reserved": 0, "bike_id": "ec61b49f3d1c39a38466eb9851ca4ff2", "fusion_lon": 0.0, "rental_uris": {"android": "https://dc.lft.to/lastmile_qr_scan", "ios": "https://dc.lft.to/lastmile_qr_scan"}, "name": "ec61b49f3d1c39a38466eb9851ca4ff2", "type": "electric_scooter", "lat": 38.903605, "is_disabled": 0}, {"fusion_lat": 0.0, "lon": -76.91866733333333, "is_reserved": 0, "bike_id": "8943ceef0a454333f3a50f530728f498", "fusion_lon": 0.0, "rental_uris": {"android": "https://dc.lft.to/lastmile_qr_scan", "ios": "https://dc.lft.to/lastmile_qr_scan"}, "name": "8943ceef0a454333f3a50f530728f498", "type": "electric_scooter", "lat": 38.890980666666664, "is_disabled": 0}, {"fusion_lat": 0.0, "lon": -76.94575983333333, "is_reserved": 0, "bike_id": "27d0ef8d3e6d29778a91a970cccf78db", "fusion_lon": 0.0, "rental_uris": {"android": "https://dc.lft.to/lastmile_qr_scan", "ios": "https://dc.lft.to/lastmile_qr_scan"}, "name": "27d0ef8d3e6d29778a91a970cccf78db", "type": "electric_bike", "lat": 38.93745416666667, "is_disabled": 0}, {"fusion_lat": 0.0, "lon": -77.03638, "is_reserved": 0, "bike_id": "b3ed9834f2fa321793145d0da4c236e7", "fusion_lon": 0.0, "rental_uris": {"android": "https://dc.lft.to/lastmile_qr_scan", "ios": "https://dc.lft.to/lastmile_qr_scan"}, "name": "b3ed9834f2fa321793145d0da4c236e7", "type": "electric_scooter", "lat": 38.936822666666664, "is_disabled": 0}, {"fusion_lat": 0.0, "lon": -77.04659783333334, "is_reserved": 0, "bike_id": "0b2ac18e12d07c3ad1d6acd1cdfcaf0a", "fusion_lon": 0.0, "rental_uris": {"android": "https://dc.lft.to/lastmile_qr_scan", "ios": "https://dc.lft.to/lastmile_qr_scan"}, "name": "0b2ac18e12d07c3ad1d6acd1cdfcaf0a", "type": "electric_scooter", "lat": 38.89672366666667, "is_disabled": 0}, {"fusion_lat": 0.0, "lon": -77.05022133333334, "is_reserved": 0, "bike_id": "df8485280e3546367081a2630d78f849", "fusion_lon": 0.0, "rental_uris": {"android": "https://dc.lft.to/lastmile_qr_scan", "ios": "https://dc.lft.to/lastmile_qr_scan"}, "name": "df8485280e3546367081a2630d78f849", "type": "electric_scooter", "lat": 38.9235535, "is_disabled": 0}, {"fusion_lat": 0.0, "lon": -76.980296, "is_reserved": 0, "bike_id": "70df93b2380268609f7eb0c603f980df", "fusion_lon": 0.0, "rental_uris": {"android": "https://dc.lft.to/lastmile_qr_scan", "ios": "https://dc.lft.to/lastmile_qr_scan"}, "name": "70df93b2380268609f7eb0c603f980df", "type": "electric_scooter", "lat": 38.853112, "is_disabled": 0}, {"fusion_lat": 0.0, "lon": -77.0389865, "is_reserved": 0, "bike_id": "cd10cff4dbb8294d18c82d4da8d24f51", "fusion_lon": 0.0, "rental_uris": {"android": "https://dc.lft.to/lastmile_qr_scan", "ios": "https://dc.lft.to/lastmile_qr_scan"}, "name": "cd10cff4dbb8294d18c82d4da8d24f51", "type": "electric_scooter", "lat": 38.914694833333336, "is_disabled": 0}, {"fusion_lat": 0.0, "lon": -77.08036283333334, "is_reserved": 0, "bike_id": "3547fb3c4fac0330ac39fde460c81078", "fusion_lon": 0.0, "rental_uris": {"android": "https://dc.lft.to/lastmile_qr_scan", "ios": "https://dc.lft.to/lastmile_qr_scan"}, "name": "3547fb3c4fac0330ac39fde460c81078", "type": "electric_scooter", "lat": 38.94952416666667, "is_disabled": 0}, {"fusion_lat": 0.0, "lon": -77.023204, "is_reserved": 0, "bike_id": "70748bf4e62380e252e7a7e0a6745dc1", "fusion_lon": 0.0, "rental_uris": {"android": "https://dc.lft.to/lastmile_qr_scan", "ios": "https://dc.lft.to/lastmile_qr_scan"}, "name": "70748bf4e62380e252e7a7e0a6745dc1", "type": "electric_scooter", "lat": 38.95521333333333, "is_disabled": 0}, {"fusion_lat": 0.0, "lon": -77.03954583333334, "is_reserved": 0, "bike_id": "c3bb396270979770d9252475a05e4a7a", "fusion_lon": 0.0, "rental_uris": {"android": "https://dc.lft.to/lastmile_qr_scan", "ios": "https://dc.lft.to/lastmile_qr_scan"}, "name": "c3bb396270979770d9252475a05e4a7a", "type": "electric_scooter", "lat": 38.892426, "is_disabled": 0}, {"fusion_lat": 0.0, "lon": -77.00971583333333, "is_reserved": 0, "bike_id": "00cb338e9aa8ac52c3ce916f5a2ecd1d", "fusion_lon": 0.0, "rental_uris": {"android": "https://dc.lft.to/lastmile_qr_scan", "ios": "https://dc.lft.to/lastmile_qr_scan"}, "name": "00cb338e9aa8ac52c3ce916f5a2ecd1d", "type": "electric_scooter", "lat": 38.8960995, "is_disabled": 0}, {"fusion_lat": 0.0, "lon": -77.03173383333333, "is_reserved": 0, "bike_id": "bf5b1a347d9a19e0bfc12e034684fbf1", "fusion_lon": 0.0, "rental_uris": {"android": "https://dc.lft.to/lastmile_qr_scan", "ios": "https://dc.lft.to/lastmile_qr_scan"}, "name": "bf5b1a347d9a19e0bfc12e034684fbf1", "type": "electric_scooter", "lat": 38.897734666666665, "is_disabled": 0}, {"fusion_lat": 0.0, "lon": -77.01257066666666, "is_reserved": 0, "bike_id": "4978ae21f4041c6b631bafe5d318d11d", "fusion_lon": 0.0, "rental_uris": {"android": "https://dc.lft.to/lastmile_qr_scan", "ios": "https://dc.lft.to/lastmile_qr_scan"}, "name": "4978ae21f4041c6b631bafe5d318d11d", "type": "electric_scooter", "lat": 38.8924435, "is_disabled": 0}, {"fusion_lat": 0.0, "lon": -77.02421183333334, "is_reserved": 0, "bike_id": "598d07f4689250ffb41dc73b1809a4f5", "fusion_lon": 0.0, "rental_uris": {"android": "https://dc.lft.to/lastmile_qr_scan", "ios": "https://dc.lft.to/lastmile_qr_scan"}, "name": "598d07f4689250ffb41dc73b1809a4f5", "type": "electric_scooter", "lat": 38.897569, "is_disabled": 0}, {"fusion_lat": 0.0, "lon": -77.053444, "is_reserved": 0, "bike_id": "bf770012e3d4560ce7a079aa818c6959", "fusion_lon": 0.0, "rental_uris": {"android": "https://dc.lft.to/lastmile_qr_scan", "ios": "https://dc.lft.to/lastmile_qr_scan"}, "name": "bf770012e3d4560ce7a079aa818c6959", "type": "electric_scooter", "lat": 38.9234185, "is_disabled": 0}, {"fusion_lat": 0.0, "lon": -77.00020266666667, "is_reserved": 0, "bike_id": "26efd602e1af4e5511543f558692d35e", "fusion_lon": 0.0, "rental_uris": {"android": "https://dc.lft.to/lastmile_qr_scan", "ios": "https://dc.lft.to/lastmile_qr_scan"}, "name": "26efd602e1af4e5511543f558692d35e", "type": "electric_scooter", "lat": 38.9077505, "is_disabled": 0}, {"fusion_lat": 0.0, "lon": -77.01166916666666, "is_reserved": 0, "bike_id": "91ebc4ffe3be5d5c7414dc80894f730b", "fusion_lon": 0.0, "rental_uris": {"android": "https://dc.lft.to/lastmile_qr_scan", "ios": "https://dc.lft.to/lastmile_qr_scan"}, "name": "91ebc4ffe3be5d5c7414dc80894f730b", "type": "electric_scooter", "lat": 38.900297333333334, "is_disabled": 0}, {"fusion_lat": 0.0, "lon": -77.06335016666667, "is_reserved": 0, "bike_id": "a840ab704ede8333903900a0cc22b2bf", "fusion_lon": 0.0, "rental_uris": {"android": "https://dc.lft.to/lastmile_qr_scan", "ios": "https://dc.lft.to/lastmile_qr_scan"}, "name": "a840ab704ede8333903900a0cc22b2bf", "type": "electric_scooter", "lat": 38.907648333333334, "is_disabled": 0}, {"fusion_lat": 0.0, "lon": -76.98693283333333, "is_reserved": 0, "bike_id": "7fd074d226a838d25ca01c8131eaf4b3", "fusion_lon": 0.0, "rental_uris": {"android": "https://dc.lft.to/lastmile_qr_scan", "ios": "https://dc.lft.to/lastmile_qr_scan"}, "name": "7fd074d226a838d25ca01c8131eaf4b3", "type": "electric_scooter", "lat": 38.862559166666664, "is_disabled": 0}, {"fusion_lat": 0.0, "lon": -77.028736, "is_reserved": 0, "bike_id": "8b550112cb200e5ca1c1ac5332bb249a", "fusion_lon": 0.0, "rental_uris": {"android": "https://dc.lft.to/lastmile_qr_scan", "ios": "https://dc.lft.to/lastmile_qr_scan"}, "name": "8b550112cb200e5ca1c1ac5332bb249a", "type": "electric_scooter", "lat": 38.950906, "is_disabled": 0}, {"fusion_lat": 0.0, "lon": -77.06297433333333, "is_reserved": 0, "bike_id": "70a57be80d93d3718b2a279b3ccb4957", "fusion_lon": 0.0, "rental_uris": {"android": "https://dc.lft.to/lastmile_qr_scan", "ios": "https://dc.lft.to/lastmile_qr_scan"}, "name": "70a57be80d93d3718b2a279b3ccb4957", "type": "electric_scooter", "lat": 38.903972, "is_disabled": 0}, {"fusion_lat": 0.0, "lon": -77.02178333333333, "is_reserved": 0, "bike_id": "798b4f6ab09d50dbff7a865e20d57868", "fusion_lon": 0.0, "rental_uris": {"android": "https://dc.lft.to/lastmile_qr_scan", "ios": "https://dc.lft.to/lastmile_qr_scan"}, "name": "798b4f6ab09d50dbff7a865e20d57868", "type": "electric_scooter", "lat": 38.897519, "is_disabled": 0}, {"fusion_lat": 0.0, "lon": -77.13240566666667, "is_reserved": 0, "bike_id": "864943eaf9bdb99ea5190d94187d64cd", "fusion_lon": 0.0, "rental_uris": {"android": "https://dc.lft.to/lastmile_qr_scan", "ios": "https://dc.lft.to/lastmile_qr_scan"}, "name": "864943eaf9bdb99ea5190d94187d64cd", "type": "electric_bike", "lat": 38.80574133333333, "is_disabled": 0}, {"fusion_lat": 0.0, "lon": -77.0214845, "is_reserved": 0, "bike_id": "b4bcf466bf389a8cbfe5456c2c4a3d30", "fusion_lon": 0.0, "rental_uris": {"android": "https://dc.lft.to/lastmile_qr_scan", "ios": "https://dc.lft.to/lastmile_qr_scan"}, "name": "b4bcf466bf389a8cbfe5456c2c4a3d30", "type": "electric_scooter", "lat": 38.923239, "is_disabled": 0}, {"fusion_lat": 0.0, "lon": -77.0326655, "is_reserved": 0, "bike_id": "49c5c8b47ad732dc428cdd10a60f4b83", "fusion_lon": 0.0, "rental_uris": {"android": "https://dc.lft.to/lastmile_qr_scan", "ios": "https://dc.lft.to/lastmile_qr_scan"}, "name": "49c5c8b47ad732dc428cdd10a60f4b83", "type": "electric_scooter", "lat": 38.90476666666667, "is_disabled": 0}, {"fusion_lat": 0.0, "lon": -76.98196466666667, "is_reserved": 0, "bike_id": "4e50dca00597f1f071dc47545e143e62", "fusion_lon": 0.0, "rental_uris": {"android": "https://dc.lft.to/lastmile_qr_scan", "ios": "https://dc.lft.to/lastmile_qr_scan"}, "name": "4e50dca00597f1f071dc47545e143e62", "type": "electric_scooter", "lat": 38.902825666666665, "is_disabled": 0}, {"fusion_lat": 0.0, "lon": -77.02765833333333, "is_reserved": 0, "bike_id": "4f636d2ce76cff75fe1edeb1ddd23044", "fusion_lon": 0.0, "rental_uris": {"android": "https://dc.lft.to/lastmile_qr_scan", "ios": "https://dc.lft.to/lastmile_qr_scan"}, "name": "4f636d2ce76cff75fe1edeb1ddd23044", "type": "electric_scooter", "lat": 38.954201, "is_disabled": 0}, {"fusion_lat": 0.0, "lon": -77.03159766666667, "is_reserved": 0, "bike_id": "936a56fd9b624f8886dc37989ebf9ea0", "fusion_lon": 0.0, "rental_uris": {"android": "https://dc.lft.to/lastmile_qr_scan", "ios": "https://dc.lft.to/lastmile_qr_scan"}, "name": "936a56fd9b624f8886dc37989ebf9ea0", "type": "electric_scooter", "lat": 38.9060645, "is_disabled": 0}, {"fusion_lat": 0.0, "lon": -77.02282316666667, "is_reserved": 0, "bike_id": "64835cb6d618e65565fdddd75402cc45", "fusion_lon": 0.0, "rental_uris": {"android": "https://dc.lft.to/lastmile_qr_scan", "ios": "https://dc.lft.to/lastmile_qr_scan"}, "name": "64835cb6d618e65565fdddd75402cc45", "type": "electric_scooter", "lat": 38.93537283333333, "is_disabled": 0}, {"fusion_lat": 0.0, "lon": -76.99603733333333, "is_reserved": 0, "bike_id": "283a94812e31bf389fa1a15a53bf489f", "fusion_lon": 0.0, "rental_uris": {"android": "https://dc.lft.to/lastmile_qr_scan", "ios": "https://dc.lft.to/lastmile_qr_scan"}, "name": "283a94812e31bf389fa1a15a53bf489f", "type": "electric_scooter", "lat": 38.89225483333333, "is_disabled": 0}, {"fusion_lat": 0.0, "lon": -77.01217116666666, "is_reserved": 0, "bike_id": "efe9e79df4413e3fdd04e4f76f62e8f5", "fusion_lon": 0.0, "rental_uris": {"android": "https://dc.lft.to/lastmile_qr_scan", "ios": "https://dc.lft.to/lastmile_qr_scan"}, "name": "efe9e79df4413e3fdd04e4f76f62e8f5", "type": "electric_bike", "lat": 38.87095633333333, "is_disabled": 0}, {"fusion_lat": 0.0, "lon": -77.02301416666667, "is_reserved": 0, "bike_id": "bb3f7bdf0e36870f6e31d8254efea4ed", "fusion_lon": 0.0, "rental_uris": {"android": "https://dc.lft.to/lastmile_qr_scan", "ios": "https://dc.lft.to/lastmile_qr_scan"}, "name": "bb3f7bdf0e36870f6e31d8254efea4ed", "type": "electric_scooter", "lat": 38.92719916666667, "is_disabled": 0}, {"fusion_lat": 0.0, "lon": -77.04224883333333, "is_reserved": 0, "bike_id": "dec8219c4c2c9571038fc8e535ca3d6c", "fusion_lon": 0.0, "rental_uris": {"android": "https://dc.lft.to/lastmile_qr_scan", "ios": "https://dc.lft.to/lastmile_qr_scan"}, "name": "dec8219c4c2c9571038fc8e535ca3d6c", "type": "electric_scooter", "lat": 38.9217755, "is_disabled": 0}, {"fusion_lat": 0.0, "lon": -77.01367966666666, "is_reserved": 0, "bike_id": "f7eea022aa9fa90d8a0e2264a5310d3e", "fusion_lon": 0.0, "rental_uris": {"android": "https://dc.lft.to/lastmile_qr_scan", "ios": "https://dc.lft.to/lastmile_qr_scan"}, "name": "f7eea022aa9fa90d8a0e2264a5310d3e", "type": "electric_scooter", "lat": 38.887061, "is_disabled": 0}, {"fusion_lat": 0.0, "lon": -77.02551516666666, "is_reserved": 0, "bike_id": "c65b7c0db8dac409c438ed174e5170d5", "fusion_lon": 0.0, "rental_uris": {"android": "https://dc.lft.to/lastmile_qr_scan", "ios": "https://dc.lft.to/lastmile_qr_scan"}, "name": "c65b7c0db8dac409c438ed174e5170d5", "type": "electric_scooter", "lat": 38.924721, "is_disabled": 0}, {"fusion_lat": 0.0, "lon": -77.01312933333334, "is_reserved": 0, "bike_id": "a686262dfe853aee0981418e3483c968", "fusion_lon": 0.0, "rental_uris": {"android": "https://dc.lft.to/lastmile_qr_scan", "ios": "https://dc.lft.to/lastmile_qr_scan"}, "name": "a686262dfe853aee0981418e3483c968", "type": "electric_scooter", "lat": 38.9006065, "is_disabled": 0}, {"fusion_lat": 0.0, "lon": -77.08939416666666, "is_reserved": 0, "bike_id": "9e7dd18f20cd8ba7675189684d870b98", "fusion_lon": 0.0, "rental_uris": {"android": "https://dc.lft.to/lastmile_qr_scan", "ios": "https://dc.lft.to/lastmile_qr_scan"}, "name": "9e7dd18f20cd8ba7675189684d870b98", "type": "electric_bike", "lat": 38.841111, "is_disabled": 0}, {"fusion_lat": 0.0, "lon": -77.0127195, "is_reserved": 0, "bike_id": "6ee242ee2e649fc5ea93b627755b5def", "fusion_lon": 0.0, "rental_uris": {"android": "https://dc.lft.to/lastmile_qr_scan", "ios": "https://dc.lft.to/lastmile_qr_scan"}, "name": "6ee242ee2e649fc5ea93b627755b5def", "type": "electric_scooter", "lat": 38.914167166666665, "is_disabled": 0}, {"fusion_lat": 0.0, "lon": -76.95099716666667, "is_reserved": 0, "bike_id": "5be8c1db6f6ee9e062d2560e34fa749e", "fusion_lon": 0.0, "rental_uris": {"android": "https://dc.lft.to/lastmile_qr_scan", "ios": "https://dc.lft.to/lastmile_qr_scan"}, "name": "5be8c1db6f6ee9e062d2560e34fa749e", "type": "electric_scooter", "lat": 38.8844865, "is_disabled": 0}, {"fusion_lat": 0.0, "lon": -76.93365183333333, "is_reserved": 0, "bike_id": "cd5a0af321bb4d003fd8b9708c9802c2", "fusion_lon": 0.0, "rental_uris": {"android": "https://dc.lft.to/lastmile_qr_scan", "ios": "https://dc.lft.to/lastmile_qr_scan"}, "name": "cd5a0af321bb4d003fd8b9708c9802c2", "type": "electric_scooter", "lat": 38.899148, "is_disabled": 0}, {"fusion_lat": 0.0, "lon": -77.0349855, "is_reserved": 0, "bike_id": "c183a9a73861bbe491e23529f7d7d26a", "fusion_lon": 0.0, "rental_uris": {"android": "https://dc.lft.to/lastmile_qr_scan", "ios": "https://dc.lft.to/lastmile_qr_scan"}, "name": "c183a9a73861bbe491e23529f7d7d26a", "type": "electric_scooter", "lat": 38.92342566666667, "is_disabled": 0}, {"fusion_lat": 0.0, "lon": -77.02401666666667, "is_reserved": 0, "bike_id": "5bf36e0e97285f33dcc0ae6484b82514", "fusion_lon": 0.0, "rental_uris": {"android": "https://dc.lft.to/lastmile_qr_scan", "ios": "https://dc.lft.to/lastmile_qr_scan"}, "name": "5bf36e0e97285f33dcc0ae6484b82514", "type": "electric_scooter", "lat": 38.92000216666667, "is_disabled": 0}, {"fusion_lat": 0.0, "lon": -77.015311, "is_reserved": 0, "bike_id": "d46a21596010fc0a79ca0c1cb3affc30", "fusion_lon": 0.0, "rental_uris": {"android": "https://dc.lft.to/lastmile_qr_scan", "ios": "https://dc.lft.to/lastmile_qr_scan"}, "name": "d46a21596010fc0a79ca0c1cb3affc30", "type": "electric_bike", "lat": 38.9186515, "is_disabled": 0}, {"fusion_lat": 0.0, "lon": -76.9937495, "is_reserved": 0, "bike_id": "bc1fbb4f0f7364db04f71bbbc0edfcf3", "fusion_lon": 0.0, "rental_uris": {"android": "https://dc.lft.to/lastmile_qr_scan", "ios": "https://dc.lft.to/lastmile_qr_scan"}, "name": "bc1fbb4f0f7364db04f71bbbc0edfcf3", "type": "electric_bike", "lat": 38.971871166666666, "is_disabled": 0}, {"fusion_lat": 0.0, "lon": -77.008748, "is_reserved": 0, "bike_id": "ad3c8b19154cb4e59a863c1e4b48eebc", "fusion_lon": 0.0, "rental_uris": {"android": "https://dc.lft.to/lastmile_qr_scan", "ios": "https://dc.lft.to/lastmile_qr_scan"}, "name": "ad3c8b19154cb4e59a863c1e4b48eebc", "type": "electric_bike", "lat": 38.9058275, "is_disabled": 0}, {"fusion_lat": 0.0, "lon": -77.0574505, "is_reserved": 0, "bike_id": "aac5d7a9cabbe29bce8f1620a578042c", "fusion_lon": 0.0, "rental_uris": {"android": "https://dc.lft.to/lastmile_qr_scan", "ios": "https://dc.lft.to/lastmile_qr_scan"}, "name": "aac5d7a9cabbe29bce8f1620a578042c", "type": "electric_scooter", "lat": 38.9339105, "is_disabled": 0}, {"fusion_lat": 0.0, "lon": -77.02949683333334, "is_reserved": 0, "bike_id": "b9092a8ac4728a9d3342d57df8492fa7", "fusion_lon": 0.0, "rental_uris": {"android": "https://dc.lft.to/lastmile_qr_scan", "ios": "https://dc.lft.to/lastmile_qr_scan"}, "name": "b9092a8ac4728a9d3342d57df8492fa7", "type": "electric_scooter", "lat": 38.91685916666667, "is_disabled": 0}, {"fusion_lat": 0.0, "lon": -77.02489466666667, "is_reserved": 0, "bike_id": "8e009a88d00f596118eeb9a6a5ce1dfd", "fusion_lon": 0.0, "rental_uris": {"android": "https://dc.lft.to/lastmile_qr_scan", "ios": "https://dc.lft.to/lastmile_qr_scan"}, "name": "8e009a88d00f596118eeb9a6a5ce1dfd", "type": "electric_scooter", "lat": 38.93759683333333, "is_disabled": 0}, {"fusion_lat": 0.0, "lon": -76.99944483333333, "is_reserved": 0, "bike_id": "cfcb52fd10b6d8ae8cc86d2f8f37c723", "fusion_lon": 0.0, "rental_uris": {"android": "https://dc.lft.to/lastmile_qr_scan", "ios": "https://dc.lft.to/lastmile_qr_scan"}, "name": "cfcb52fd10b6d8ae8cc86d2f8f37c723", "type": "electric_scooter", "lat": 38.84302683333333, "is_disabled": 0}, {"fusion_lat": 0.0, "lon": -77.062821, "is_reserved": 0, "bike_id": "32cc7c573551db488aa64b2924b0694f", "fusion_lon": 0.0, "rental_uris": {"android": "https://dc.lft.to/lastmile_qr_scan", "ios": "https://dc.lft.to/lastmile_qr_scan"}, "name": "32cc7c573551db488aa64b2924b0694f", "type": "electric_scooter", "lat": 38.9058775, "is_disabled": 0}, {"fusion_lat": 0.0, "lon": -76.94872483333333, "is_reserved": 0, "bike_id": "01168dd30ec25ecdf9e70e0f02303052", "fusion_lon": 0.0, "rental_uris": {"android": "https://dc.lft.to/lastmile_qr_scan", "ios": "https://dc.lft.to/lastmile_qr_scan"}, "name": "01168dd30ec25ecdf9e70e0f02303052", "type": "electric_scooter", "lat": 38.895498, "is_disabled": 0}, {"fusion_lat": 0.0, "lon": -76.9985395, "is_reserved": 0, "bike_id": "6524cbd56c0029210e72aa47442f1780", "fusion_lon": 0.0, "rental_uris": {"android": "https://dc.lft.to/lastmile_qr_scan", "ios": "https://dc.lft.to/lastmile_qr_scan"}, "name": "6524cbd56c0029210e72aa47442f1780", "type": "electric_scooter", "lat": 38.9001895, "is_disabled": 0}, {"fusion_lat": 0.0, "lon": -77.07329233333333, "is_reserved": 0, "bike_id": "a4f7a797c33456f007192e072e18d5bd", "fusion_lon": 0.0, "rental_uris": {"android": "https://dc.lft.to/lastmile_qr_scan", "ios": "https://dc.lft.to/lastmile_qr_scan"}, "name": "a4f7a797c33456f007192e072e18d5bd", "type": "electric_scooter", "lat": 38.9260835, "is_disabled": 0}, {"fusion_lat": 0.0, "lon": -77.01072833333333, "is_reserved": 0, "bike_id": "75f4a910ab4c9b735427fdee62f4e7b3", "fusion_lon": 0.0, "rental_uris": {"android": "https://dc.lft.to/lastmile_qr_scan", "ios": "https://dc.lft.to/lastmile_qr_scan"}, "name": "75f4a910ab4c9b735427fdee62f4e7b3", "type": "electric_scooter", "lat": 38.91768533333333, "is_disabled": 0}, {"fusion_lat": 0.0, "lon": -77.01862833333334, "is_reserved": 0, "bike_id": "3ebe6c8df7331d263bacd84d7ce500b8", "fusion_lon": 0.0, "rental_uris": {"android": "https://dc.lft.to/lastmile_qr_scan", "ios": "https://dc.lft.to/lastmile_qr_scan"}, "name": "3ebe6c8df7331d263bacd84d7ce500b8", "type": "electric_scooter", "lat": 38.97368433333333, "is_disabled": 0}, {"fusion_lat": 0.0, "lon": -76.99631, "is_reserved": 0, "bike_id": "95ab0ac94c4ee6e1ddd3e4ea157e6f46", "fusion_lon": 0.0, "rental_uris": {"android": "https://dc.lft.to/lastmile_qr_scan", "ios": "https://dc.lft.to/lastmile_qr_scan"}, "name": "95ab0ac94c4ee6e1ddd3e4ea157e6f46", "type": "electric_scooter", "lat": 38.900080333333335, "is_disabled": 0}, {"fusion_lat": 0.0, "lon": -77.04192883333333, "is_reserved": 0, "bike_id": "0524afa9266f738ef93624a84386038d", "fusion_lon": 0.0, "rental_uris": {"android": "https://dc.lft.to/lastmile_qr_scan", "ios": "https://dc.lft.to/lastmile_qr_scan"}, "name": "0524afa9266f738ef93624a84386038d", "type": "electric_scooter", "lat": 38.91970666666667, "is_disabled": 0}, {"fusion_lat": 0.0, "lon": -77.03828633333333, "is_reserved": 0, "bike_id": "b3f0c4f0924ccab19a0203c648ec5e43", "fusion_lon": 0.0, "rental_uris": {"android": "https://dc.lft.to/lastmile_qr_scan", "ios": "https://dc.lft.to/lastmile_qr_scan"}, "name": "b3f0c4f0924ccab19a0203c648ec5e43", "type": "electric_scooter", "lat": 38.9313485, "is_disabled": 0}, {"fusion_lat": 0.0, "lon": -77.022233, "is_reserved": 0, "bike_id": "d47720c18b750ea580789212ab344ea2", "fusion_lon": 0.0, "rental_uris": {"android": "https://dc.lft.to/lastmile_qr_scan", "ios": "https://dc.lft.to/lastmile_qr_scan"}, "name": "d47720c18b750ea580789212ab344ea2", "type": "electric_scooter", "lat": 38.93553416666666, "is_disabled": 0}, {"fusion_lat": 0.0, "lon": -77.0212945, "is_reserved": 0, "bike_id": "2b85b8140af260d92c77595bcc8c20db", "fusion_lon": 0.0, "rental_uris": {"android": "https://dc.lft.to/lastmile_qr_scan", "ios": "https://dc.lft.to/lastmile_qr_scan"}, "name": "2b85b8140af260d92c77595bcc8c20db", "type": "electric_scooter", "lat": 38.924143666666666, "is_disabled": 0}, {"fusion_lat": 0.0, "lon": -76.99581233333333, "is_reserved": 0, "bike_id": "b6fd49a6820298a69cac1b58b04fdd4d", "fusion_lon": 0.0, "rental_uris": {"android": "https://dc.lft.to/lastmile_qr_scan", "ios": "https://dc.lft.to/lastmile_qr_scan"}, "name": "b6fd49a6820298a69cac1b58b04fdd4d", "type": "electric_bike", "lat": 38.8529335, "is_disabled": 0}, {"fusion_lat": 0.0, "lon": -77.02470533333333, "is_reserved": 0, "bike_id": "d60bb40af0ba7145d6a0d38832a6dcde", "fusion_lon": 0.0, "rental_uris": {"android": "https://dc.lft.to/lastmile_qr_scan", "ios": "https://dc.lft.to/lastmile_qr_scan"}, "name": "d60bb40af0ba7145d6a0d38832a6dcde", "type": "electric_scooter", "lat": 38.933109, "is_disabled": 0}, {"fusion_lat": 0.0, "lon": -77.04108916666667, "is_reserved": 0, "bike_id": "188aa045964708430ba891b80cb3f83b", "fusion_lon": 0.0, "rental_uris": {"android": "https://dc.lft.to/lastmile_qr_scan", "ios": "https://dc.lft.to/lastmile_qr_scan"}, "name": "188aa045964708430ba891b80cb3f83b", "type": "electric_scooter", "lat": 38.927999166666666, "is_disabled": 0}, {"fusion_lat": 0.0, "lon": -77.02736933333334, "is_reserved": 0, "bike_id": "d1103a6f469157157d65f9d6c7a029dc", "fusion_lon": 0.0, "rental_uris": {"android": "https://dc.lft.to/lastmile_qr_scan", "ios": "https://dc.lft.to/lastmile_qr_scan"}, "name": "d1103a6f469157157d65f9d6c7a029dc", "type": "electric_scooter", "lat": 38.897514, "is_disabled": 0}, {"fusion_lat": 0.0, "lon": -77.02415583333334, "is_reserved": 0, "bike_id": "8cc30e482b788f58ce31470cb98efe20", "fusion_lon": 0.0, "rental_uris": {"android": "https://dc.lft.to/lastmile_qr_scan", "ios": "https://dc.lft.to/lastmile_qr_scan"}, "name": "8cc30e482b788f58ce31470cb98efe20", "type": "electric_scooter", "lat": 38.89257416666667, "is_disabled": 0}, {"fusion_lat": 0.0, "lon": -77.03256216666666, "is_reserved": 0, "bike_id": "4277d170867a38c59c78f139314eb36b", "fusion_lon": 0.0, "rental_uris": {"android": "https://dc.lft.to/lastmile_qr_scan", "ios": "https://dc.lft.to/lastmile_qr_scan"}, "name": "4277d170867a38c59c78f139314eb36b", "type": "electric_scooter", "lat": 38.926511, "is_disabled": 0}, {"fusion_lat": 0.0, "lon": -77.03378366666666, "is_reserved": 0, "bike_id": "2b6bacfa4e352747cba0c7a007e7730c", "fusion_lon": 0.0, "rental_uris": {"android": "https://dc.lft.to/lastmile_qr_scan", "ios": "https://dc.lft.to/lastmile_qr_scan"}, "name": "2b6bacfa4e352747cba0c7a007e7730c", "type": "electric_scooter", "lat": 38.9083615, "is_disabled": 0}, {"fusion_lat": 0.0, "lon": -77.009189, "is_reserved": 0, "bike_id": "4185f6c30d7291c5650e0c28e572986d", "fusion_lon": 0.0, "rental_uris": {"android": "https://dc.lft.to/lastmile_qr_scan", "ios": "https://dc.lft.to/lastmile_qr_scan"}, "name": "4185f6c30d7291c5650e0c28e572986d", "type": "electric_scooter", "lat": 38.895612, "is_disabled": 0}, {"fusion_lat": 0.0, "lon": -77.01967866666666, "is_reserved": 0, "bike_id": "623b7505bfbdccc979adc435cdddb9a3", "fusion_lon": 0.0, "rental_uris": {"android": "https://dc.lft.to/lastmile_qr_scan", "ios": "https://dc.lft.to/lastmile_qr_scan"}, "name": "623b7505bfbdccc979adc435cdddb9a3", "type": "electric_scooter", "lat": 38.88330283333333, "is_disabled": 0}, {"fusion_lat": 0.0, "lon": -77.04611616666666, "is_reserved": 0, "bike_id": "e6854e4dc35604ce0a477c3f9b931e53", "fusion_lon": 0.0, "rental_uris": {"android": "https://dc.lft.to/lastmile_qr_scan", "ios": "https://dc.lft.to/lastmile_qr_scan"}, "name": "e6854e4dc35604ce0a477c3f9b931e53", "type": "electric_scooter", "lat": 38.91615, "is_disabled": 0}, {"fusion_lat": 0.0, "lon": -77.34303833333334, "is_reserved": 0, "bike_id": "da694972b85ab07eaf69f9636dad13c6", "fusion_lon": 0.0, "rental_uris": {"android": "https://dc.lft.to/lastmile_qr_scan", "ios": "https://dc.lft.to/lastmile_qr_scan"}, "name": "da694972b85ab07eaf69f9636dad13c6", "type": "electric_bike", "lat": 38.946100666666666, "is_disabled": 0}, {"fusion_lat": 0.0, "lon": -77.023907, "is_reserved": 0, "bike_id": "e4bdee1547a0c58f713c0e6d736be622", "fusion_lon": 0.0, "rental_uris": {"android": "https://dc.lft.to/lastmile_qr_scan", "ios": "https://dc.lft.to/lastmile_qr_scan"}, "name": "e4bdee1547a0c58f713c0e6d736be622", "type": "electric_scooter", "lat": 38.90814616666667, "is_disabled": 0}, {"fusion_lat": 0.0, "lon": -77.0458755, "is_reserved": 0, "bike_id": "7d0f49a7526da26b7dabb6fccb436ea7", "fusion_lon": 0.0, "rental_uris": {"android": "https://dc.lft.to/lastmile_qr_scan", "ios": "https://dc.lft.to/lastmile_qr_scan"}, "name": "7d0f49a7526da26b7dabb6fccb436ea7", "type": "electric_scooter", "lat": 38.92129833333333, "is_disabled": 0}, {"fusion_lat": 0.0, "lon": -77.04228916666666, "is_reserved": 0, "bike_id": "637e4927441993f9956d9f37aa96617e", "fusion_lon": 0.0, "rental_uris": {"android": "https://dc.lft.to/lastmile_qr_scan", "ios": "https://dc.lft.to/lastmile_qr_scan"}, "name": "637e4927441993f9956d9f37aa96617e", "type": "electric_scooter", "lat": 38.931542, "is_disabled": 0}, {"fusion_lat": 0.0, "lon": -76.98068116666667, "is_reserved": 0, "bike_id": "80988c0fdaa7cd687d829f09fd2e14c6", "fusion_lon": 0.0, "rental_uris": {"android": "https://dc.lft.to/lastmile_qr_scan", "ios": "https://dc.lft.to/lastmile_qr_scan"}, "name": "80988c0fdaa7cd687d829f09fd2e14c6", "type": "electric_scooter", "lat": 38.90167266666667, "is_disabled": 0}, {"fusion_lat": 0.0, "lon": -77.02230816666666, "is_reserved": 0, "bike_id": "50bc0aa3e70e840b1e3ba93277227f7e", "fusion_lon": 0.0, "rental_uris": {"android": "https://dc.lft.to/lastmile_qr_scan", "ios": "https://dc.lft.to/lastmile_qr_scan"}, "name": "50bc0aa3e70e840b1e3ba93277227f7e", "type": "electric_scooter", "lat": 38.89220916666667, "is_disabled": 0}, {"fusion_lat": 0.0, "lon": -77.03196566666666, "is_reserved": 0, "bike_id": "57ab11d802e48259772b112845aba67d", "fusion_lon": 0.0, "rental_uris": {"android": "https://dc.lft.to/lastmile_qr_scan", "ios": "https://dc.lft.to/lastmile_qr_scan"}, "name": "57ab11d802e48259772b112845aba67d", "type": "electric_scooter", "lat": 38.91338483333333, "is_disabled": 0}, {"fusion_lat": 0.0, "lon": -77.03430483333334, "is_reserved": 0, "bike_id": "525981b42cc406151db84beb658eb2ae", "fusion_lon": 0.0, "rental_uris": {"android": "https://dc.lft.to/lastmile_qr_scan", "ios": "https://dc.lft.to/lastmile_qr_scan"}, "name": "525981b42cc406151db84beb658eb2ae", "type": "electric_scooter", "lat": 38.9194175, "is_disabled": 0}, {"fusion_lat": 0.0, "lon": -77.0061905, "is_reserved": 0, "bike_id": "7358d1c96e6d503e933a27cbf0023801", "fusion_lon": 0.0, "rental_uris": {"android": "https://dc.lft.to/lastmile_qr_scan", "ios": "https://dc.lft.to/lastmile_qr_scan"}, "name": "7358d1c96e6d503e933a27cbf0023801", "type": "electric_scooter", "lat": 38.87173116666666, "is_disabled": 0}, {"fusion_lat": 0.0, "lon": -77.034847, "is_reserved": 0, "bike_id": "8d8118cef40475d671a40a42da55d8ba", "fusion_lon": 0.0, "rental_uris": {"android": "https://dc.lft.to/lastmile_qr_scan", "ios": "https://dc.lft.to/lastmile_qr_scan"}, "name": "8d8118cef40475d671a40a42da55d8ba", "type": "electric_scooter", "lat": 38.92155983333333, "is_disabled": 0}, {"fusion_lat": 0.0, "lon": -77.03264666666666, "is_reserved": 0, "bike_id": "e27dfba325616c186608d2a2e5e2d14c", "fusion_lon": 0.0, "rental_uris": {"android": "https://dc.lft.to/lastmile_qr_scan", "ios": "https://dc.lft.to/lastmile_qr_scan"}, "name": "e27dfba325616c186608d2a2e5e2d14c", "type": "electric_scooter", "lat": 38.934060333333335, "is_disabled": 0}, {"fusion_lat": 0.0, "lon": -77.00245916666667, "is_reserved": 0, "bike_id": "98841f2d88516681bd8f02f668edac56", "fusion_lon": 0.0, "rental_uris": {"android": "https://dc.lft.to/lastmile_qr_scan", "ios": "https://dc.lft.to/lastmile_qr_scan"}, "name": "98841f2d88516681bd8f02f668edac56", "type": "electric_bike", "lat": 38.87494933333333, "is_disabled": 0}, {"fusion_lat": 0.0, "lon": -77.0325355, "is_reserved": 0, "bike_id": "12661d297cbfacdd008720d0d69812d3", "fusion_lon": 0.0, "rental_uris": {"android": "https://dc.lft.to/lastmile_qr_scan", "ios": "https://dc.lft.to/lastmile_qr_scan"}, "name": "12661d297cbfacdd008720d0d69812d3", "type": "electric_scooter", "lat": 38.9182205, "is_disabled": 0}, {"fusion_lat": 0.0, "lon": -77.043353, "is_reserved": 0, "bike_id": "ee09e7c769bebb04b486c55ec613d02c", "fusion_lon": 0.0, "rental_uris": {"android": "https://dc.lft.to/lastmile_qr_scan", "ios": "https://dc.lft.to/lastmile_qr_scan"}, "name": "ee09e7c769bebb04b486c55ec613d02c", "type": "electric_scooter", "lat": 38.892298333333336, "is_disabled": 0}, {"fusion_lat": 0.0, "lon": -76.98387366666667, "is_reserved": 0, "bike_id": "360d4341a3fbda1990d3cf004bd06f29", "fusion_lon": 0.0, "rental_uris": {"android": "https://dc.lft.to/lastmile_qr_scan", "ios": "https://dc.lft.to/lastmile_qr_scan"}, "name": "360d4341a3fbda1990d3cf004bd06f29", "type": "electric_scooter", "lat": 38.926938166666666, "is_disabled": 0}, {"fusion_lat": 0.0, "lon": -77.04505333333333, "is_reserved": 0, "bike_id": "a4d0eb3d29017bbbbe09bfc7a48ed610", "fusion_lon": 0.0, "rental_uris": {"android": "https://dc.lft.to/lastmile_qr_scan", "ios": "https://dc.lft.to/lastmile_qr_scan"}, "name": "a4d0eb3d29017bbbbe09bfc7a48ed610", "type": "electric_scooter", "lat": 38.91114016666667, "is_disabled": 0}, {"fusion_lat": 0.0, "lon": -77.020639, "is_reserved": 0, "bike_id": "d1103c70d01f589a95af4c60bb11362d", "fusion_lon": 0.0, "rental_uris": {"android": "https://dc.lft.to/lastmile_qr_scan", "ios": "https://dc.lft.to/lastmile_qr_scan"}, "name": "d1103c70d01f589a95af4c60bb11362d", "type": "electric_scooter", "lat": 38.921871333333335, "is_disabled": 0}, {"fusion_lat": 0.0, "lon": -77.07818366666666, "is_reserved": 0, "bike_id": "14dc8e397415e06d63ccc87dd6fc8624", "fusion_lon": 0.0, "rental_uris": {"android": "https://dc.lft.to/lastmile_qr_scan", "ios": "https://dc.lft.to/lastmile_qr_scan"}, "name": "14dc8e397415e06d63ccc87dd6fc8624", "type": "electric_bike", "lat": 38.93640083333333, "is_disabled": 0}, {"fusion_lat": 0.0, "lon": -77.02699566666666, "is_reserved": 0, "bike_id": "1389a656f11bf7b76d6b693e0e3bbd0c", "fusion_lon": 0.0, "rental_uris": {"android": "https://dc.lft.to/lastmile_qr_scan", "ios": "https://dc.lft.to/lastmile_qr_scan"}, "name": "1389a656f11bf7b76d6b693e0e3bbd0c", "type": "electric_scooter", "lat": 38.915776666666666, "is_disabled": 0}, {"fusion_lat": 0.0, "lon": -76.98839766666667, "is_reserved": 0, "bike_id": "889140ca52f9537e93aed50c12566fcb", "fusion_lon": 0.0, "rental_uris": {"android": "https://dc.lft.to/lastmile_qr_scan", "ios": "https://dc.lft.to/lastmile_qr_scan"}, "name": "889140ca52f9537e93aed50c12566fcb", "type": "electric_bike", "lat": 38.8427745, "is_disabled": 0}, {"fusion_lat": 0.0, "lon": -76.976083, "is_reserved": 0, "bike_id": "4c59580c6129ebf4625bbbb1bce16cbf", "fusion_lon": 0.0, "rental_uris": {"android": "https://dc.lft.to/lastmile_qr_scan", "ios": "https://dc.lft.to/lastmile_qr_scan"}, "name": "4c59580c6129ebf4625bbbb1bce16cbf", "type": "electric_scooter", "lat": 38.91298033333333, "is_disabled": 0}, {"fusion_lat": 0.0, "lon": -77.036192, "is_reserved": 0, "bike_id": "36ac10541756de30006f0ecd0eef6ab1", "fusion_lon": 0.0, "rental_uris": {"android": "https://dc.lft.to/lastmile_qr_scan", "ios": "https://dc.lft.to/lastmile_qr_scan"}, "name": "36ac10541756de30006f0ecd0eef6ab1", "type": "electric_scooter", "lat": 38.93043316666667, "is_disabled": 0}, {"fusion_lat": 0.0, "lon": -77.0261445, "is_reserved": 0, "bike_id": "87741b2dec1d423d17ad18e15f09c7d4", "fusion_lon": 0.0, "rental_uris": {"android": "https://dc.lft.to/lastmile_qr_scan", "ios": "https://dc.lft.to/lastmile_qr_scan"}, "name": "87741b2dec1d423d17ad18e15f09c7d4", "type": "electric_scooter", "lat": 38.89430683333333, "is_disabled": 0}, {"fusion_lat": 0.0, "lon": -77.03221683333334, "is_reserved": 0, "bike_id": "d1a3ec4b93c6d22782b15b25bbe2e61e", "fusion_lon": 0.0, "rental_uris": {"android": "https://dc.lft.to/lastmile_qr_scan", "ios": "https://dc.lft.to/lastmile_qr_scan"}, "name": "d1a3ec4b93c6d22782b15b25bbe2e61e", "type": "electric_scooter", "lat": 38.91785383333333, "is_disabled": 0}, {"fusion_lat": 0.0, "lon": -77.03642766666667, "is_reserved": 0, "bike_id": "bb3c8df096710d2d5d3bd2446d6ca2c5", "fusion_lon": 0.0, "rental_uris": {"android": "https://dc.lft.to/lastmile_qr_scan", "ios": "https://dc.lft.to/lastmile_qr_scan"}, "name": "bb3c8df096710d2d5d3bd2446d6ca2c5", "type": "electric_scooter", "lat": 38.92111216666667, "is_disabled": 0}, {"fusion_lat": 0.0, "lon": -77.02804366666666, "is_reserved": 0, "bike_id": "2d2cac38e2a1e380518b23b4d1c48fbf", "fusion_lon": 0.0, "rental_uris": {"android": "https://dc.lft.to/lastmile_qr_scan", "ios": "https://dc.lft.to/lastmile_qr_scan"}, "name": "2d2cac38e2a1e380518b23b4d1c48fbf", "type": "electric_scooter", "lat": 38.9097595, "is_disabled": 0}, {"fusion_lat": 0.0, "lon": -76.9810965, "is_reserved": 0, "bike_id": "e4b7bb5097d946374e51c5f6de9a67f2", "fusion_lon": 0.0, "rental_uris": {"android": "https://dc.lft.to/lastmile_qr_scan", "ios": "https://dc.lft.to/lastmile_qr_scan"}, "name": "e4b7bb5097d946374e51c5f6de9a67f2", "type": "electric_scooter", "lat": 38.90395083333333, "is_disabled": 0}, {"fusion_lat": 0.0, "lon": -77.04246666666667, "is_reserved": 0, "bike_id": "24a85de45a9810ff8fc04e62f1383b43", "fusion_lon": 0.0, "rental_uris": {"android": "https://dc.lft.to/lastmile_qr_scan", "ios": "https://dc.lft.to/lastmile_qr_scan"}, "name": "24a85de45a9810ff8fc04e62f1383b43", "type": "electric_scooter", "lat": 38.91696316666667, "is_disabled": 0}, {"fusion_lat": 0.0, "lon": -76.9852805, "is_reserved": 0, "bike_id": "c748e6cf73ef95acc21786ee27348f2f", "fusion_lon": 0.0, "rental_uris": {"android": "https://dc.lft.to/lastmile_qr_scan", "ios": "https://dc.lft.to/lastmile_qr_scan"}, "name": "c748e6cf73ef95acc21786ee27348f2f", "type": "electric_scooter", "lat": 38.866594166666665, "is_disabled": 0}, {"fusion_lat": 0.0, "lon": -77.04652866666666, "is_reserved": 0, "bike_id": "4ea3a0076ae8350e0d5922198a248b3e", "fusion_lon": 0.0, "rental_uris": {"android": "https://dc.lft.to/lastmile_qr_scan", "ios": "https://dc.lft.to/lastmile_qr_scan"}, "name": "4ea3a0076ae8350e0d5922198a248b3e", "type": "electric_scooter", "lat": 38.90342733333333, "is_disabled": 0}, {"fusion_lat": 0.0, "lon": -77.02769983333333, "is_reserved": 0, "bike_id": "0e4bddcf8f76d7a88f22bb2fd2900290", "fusion_lon": 0.0, "rental_uris": {"android": "https://dc.lft.to/lastmile_qr_scan", "ios": "https://dc.lft.to/lastmile_qr_scan"}, "name": "0e4bddcf8f76d7a88f22bb2fd2900290", "type": "electric_scooter", "lat": 38.929804833333336, "is_disabled": 0}, {"fusion_lat": 0.0, "lon": -76.990135, "is_reserved": 0, "bike_id": "170b498827753868ec6eb1c40c347261", "fusion_lon": 0.0, "rental_uris": {"android": "https://dc.lft.to/lastmile_qr_scan", "ios": "https://dc.lft.to/lastmile_qr_scan"}, "name": "170b498827753868ec6eb1c40c347261", "type": "electric_scooter", "lat": 38.881843333333336, "is_disabled": 0}, {"fusion_lat": 0.0, "lon": -77.00067383333334, "is_reserved": 0, "bike_id": "5e7a1a30dce2ccef38d8c8d1aa9b3624", "fusion_lon": 0.0, "rental_uris": {"android": "https://dc.lft.to/lastmile_qr_scan", "ios": "https://dc.lft.to/lastmile_qr_scan"}, "name": "5e7a1a30dce2ccef38d8c8d1aa9b3624", "type": "electric_scooter", "lat": 38.89992783333334, "is_disabled": 0}, {"fusion_lat": 0.0, "lon": -77.02509883333333, "is_reserved": 0, "bike_id": "61c1b1bd669a726e706ff0fc99aa0aef", "fusion_lon": 0.0, "rental_uris": {"android": "https://dc.lft.to/lastmile_qr_scan", "ios": "https://dc.lft.to/lastmile_qr_scan"}, "name": "61c1b1bd669a726e706ff0fc99aa0aef", "type": "electric_scooter", "lat": 38.92101733333333, "is_disabled": 0}, {"fusion_lat": 0.0, "lon": -77.0329445, "is_reserved": 0, "bike_id": "d3f91f66b8a3a30fdbe558a899fa7ef6", "fusion_lon": 0.0, "rental_uris": {"android": "https://dc.lft.to/lastmile_qr_scan", "ios": "https://dc.lft.to/lastmile_qr_scan"}, "name": "d3f91f66b8a3a30fdbe558a899fa7ef6", "type": "electric_scooter", "lat": 38.92838183333333, "is_disabled": 0}, {"fusion_lat": 0.0, "lon": -77.043264, "is_reserved": 0, "bike_id": "399b750b2df010627a6069f537987be2", "fusion_lon": 0.0, "rental_uris": {"android": "https://dc.lft.to/lastmile_qr_scan", "ios": "https://dc.lft.to/lastmile_qr_scan"}, "name": "399b750b2df010627a6069f537987be2", "type": "electric_scooter", "lat": 38.892245, "is_disabled": 0}, {"fusion_lat": 0.0, "lon": -77.00729566666666, "is_reserved": 0, "bike_id": "54beac1791fd7791a736671091fc79be", "fusion_lon": 0.0, "rental_uris": {"android": "https://dc.lft.to/lastmile_qr_scan", "ios": "https://dc.lft.to/lastmile_qr_scan"}, "name": "54beac1791fd7791a736671091fc79be", "type": "electric_scooter", "lat": 38.90553216666667, "is_disabled": 0}, {"fusion_lat": 0.0, "lon": -77.03468833333334, "is_reserved": 0, "bike_id": "64cca3be6c690c80dc4d62963f2aed6f", "fusion_lon": 0.0, "rental_uris": {"android": "https://dc.lft.to/lastmile_qr_scan", "ios": "https://dc.lft.to/lastmile_qr_scan"}, "name": "64cca3be6c690c80dc4d62963f2aed6f", "type": "electric_scooter", "lat": 38.90563816666667, "is_disabled": 0}, {"fusion_lat": 0.0, "lon": -77.0382655, "is_reserved": 0, "bike_id": "350d24d6e70978924a21c9d0ec2715c4", "fusion_lon": 0.0, "rental_uris": {"android": "https://dc.lft.to/lastmile_qr_scan", "ios": "https://dc.lft.to/lastmile_qr_scan"}, "name": "350d24d6e70978924a21c9d0ec2715c4", "type": "electric_scooter", "lat": 38.911201, "is_disabled": 0}, {"fusion_lat": 0.0, "lon": -76.9989985, "is_reserved": 0, "bike_id": "2a4eedd3b2bab3d5252552ff6ff0077d", "fusion_lon": 0.0, "rental_uris": {"android": "https://dc.lft.to/lastmile_qr_scan", "ios": "https://dc.lft.to/lastmile_qr_scan"}, "name": "2a4eedd3b2bab3d5252552ff6ff0077d", "type": "electric_scooter", "lat": 38.948177333333334, "is_disabled": 0}, {"fusion_lat": 0.0, "lon": -77.127329, "is_reserved": 0, "bike_id": "46f8e61ffe70a3739715d7a2af1edc39", "fusion_lon": 0.0, "rental_uris": {"android": "https://dc.lft.to/lastmile_qr_scan", "ios": "https://dc.lft.to/lastmile_qr_scan"}, "name": "46f8e61ffe70a3739715d7a2af1edc39", "type": "electric_bike", "lat": 38.895660166666666, "is_disabled": 0}, {"fusion_lat": 0.0, "lon": -76.999377, "is_reserved": 0, "bike_id": "d400ebb315247572cde2e951f2cfdfdb", "fusion_lon": 0.0, "rental_uris": {"android": "https://dc.lft.to/lastmile_qr_scan", "ios": "https://dc.lft.to/lastmile_qr_scan"}, "name": "d400ebb315247572cde2e951f2cfdfdb", "type": "electric_scooter", "lat": 38.843031, "is_disabled": 0}, {"fusion_lat": 0.0, "lon": -77.01297716666667, "is_reserved": 0, "bike_id": "3cc8339631775ca3d95d941ee796ff85", "fusion_lon": 0.0, "rental_uris": {"android": "https://dc.lft.to/lastmile_qr_scan", "ios": "https://dc.lft.to/lastmile_qr_scan"}, "name": "3cc8339631775ca3d95d941ee796ff85", "type": "electric_scooter", "lat": 38.90196566666667, "is_disabled": 0}, {"fusion_lat": 0.0, "lon": -77.04143766666667, "is_reserved": 0, "bike_id": "4a99e58106d6d08a45533ee6e55719b9", "fusion_lon": 0.0, "rental_uris": {"android": "https://dc.lft.to/lastmile_qr_scan", "ios": "https://dc.lft.to/lastmile_qr_scan"}, "name": "4a99e58106d6d08a45533ee6e55719b9", "type": "electric_bike", "lat": 38.823155666666665, "is_disabled": 0}, {"fusion_lat": 0.0, "lon": -76.930766, "is_reserved": 0, "bike_id": "19761323fb6bc7ad06c0723c41dd04c2", "fusion_lon": 0.0, "rental_uris": {"android": "https://dc.lft.to/lastmile_qr_scan", "ios": "https://dc.lft.to/lastmile_qr_scan"}, "name": "19761323fb6bc7ad06c0723c41dd04c2", "type": "electric_scooter", "lat": 38.901686, "is_disabled": 0}, {"fusion_lat": 0.0, "lon": -77.03695916666666, "is_reserved": 0, "bike_id": "ffd3427b3b3ea13ae091693fdd59c670", "fusion_lon": 0.0, "rental_uris": {"android": "https://dc.lft.to/lastmile_qr_scan", "ios": "https://dc.lft.to/lastmile_qr_scan"}, "name": "ffd3427b3b3ea13ae091693fdd59c670", "type": "electric_scooter", "lat": 38.926146, "is_disabled": 0}, {"fusion_lat": 0.0, "lon": -77.02131533333333, "is_reserved": 0, "bike_id": "4a93a0197bddfa18045b1ca3645cda9a", "fusion_lon": 0.0, "rental_uris": {"android": "https://dc.lft.to/lastmile_qr_scan", "ios": "https://dc.lft.to/lastmile_qr_scan"}, "name": "4a93a0197bddfa18045b1ca3645cda9a", "type": "electric_scooter", "lat": 38.89629733333334, "is_disabled": 0}, {"fusion_lat": 0.0, "lon": -77.13929466666667, "is_reserved": 0, "bike_id": "9780845b5b8cec5befc28e38392a8e6b", "fusion_lon": 0.0, "rental_uris": {"android": "https://dc.lft.to/lastmile_qr_scan", "ios": "https://dc.lft.to/lastmile_qr_scan"}, "name": "9780845b5b8cec5befc28e38392a8e6b", "type": "electric_bike", "lat": 38.872936833333334, "is_disabled": 0}, {"fusion_lat": 0.0, "lon": -77.0424105, "is_reserved": 0, "bike_id": "6b2aba394e9f59b3e99f84be0c082fa8", "fusion_lon": 0.0, "rental_uris": {"android": "https://dc.lft.to/lastmile_qr_scan", "ios": "https://dc.lft.to/lastmile_qr_scan"}, "name": "6b2aba394e9f59b3e99f84be0c082fa8", "type": "electric_scooter", "lat": 38.92184866666667, "is_disabled": 0}, {"fusion_lat": 0.0, "lon": -77.03296633333333, "is_reserved": 0, "bike_id": "301932b5bee1c177e03cdaa196ccd7c2", "fusion_lon": 0.0, "rental_uris": {"android": "https://dc.lft.to/lastmile_qr_scan", "ios": "https://dc.lft.to/lastmile_qr_scan"}, "name": "301932b5bee1c177e03cdaa196ccd7c2", "type": "electric_scooter", "lat": 38.9378665, "is_disabled": 0}, {"fusion_lat": 0.0, "lon": -76.9720605, "is_reserved": 0, "bike_id": "c3e6365ca6f3ae9be015627a257af508", "fusion_lon": 0.0, "rental_uris": {"android": "https://dc.lft.to/lastmile_qr_scan", "ios": "https://dc.lft.to/lastmile_qr_scan"}, "name": "c3e6365ca6f3ae9be015627a257af508", "type": "electric_bike", "lat": 38.892916166666666, "is_disabled": 0}, {"fusion_lat": 0.0, "lon": -77.0166555, "is_reserved": 0, "bike_id": "003a04ca6b2d73ae4f4e67edda43e4a7", "fusion_lon": 0.0, "rental_uris": {"android": "https://dc.lft.to/lastmile_qr_scan", "ios": "https://dc.lft.to/lastmile_qr_scan"}, "name": "003a04ca6b2d73ae4f4e67edda43e4a7", "type": "electric_scooter", "lat": 38.88127, "is_disabled": 0}, {"fusion_lat": 0.0, "lon": -77.03356166666667, "is_reserved": 0, "bike_id": "b7880d868b3e3d51b9655d69375dcd8b", "fusion_lon": 0.0, "rental_uris": {"android": "https://dc.lft.to/lastmile_qr_scan", "ios": "https://dc.lft.to/lastmile_qr_scan"}, "name": "b7880d868b3e3d51b9655d69375dcd8b", "type": "electric_scooter", "lat": 38.90727, "is_disabled": 0}, {"fusion_lat": 0.0, "lon": -76.9954885, "is_reserved": 0, "bike_id": "c7f1132f8d1d1539ff9c689438833d8c", "fusion_lon": 0.0, "rental_uris": {"android": "https://dc.lft.to/lastmile_qr_scan", "ios": "https://dc.lft.to/lastmile_qr_scan"}, "name": "c7f1132f8d1d1539ff9c689438833d8c", "type": "electric_scooter", "lat": 38.926674, "is_disabled": 0}, {"fusion_lat": 0.0, "lon": -76.98096633333333, "is_reserved": 0, "bike_id": "0df0310bdb80b7e8e0ad9c998cc0e50f", "fusion_lon": 0.0, "rental_uris": {"android": "https://dc.lft.to/lastmile_qr_scan", "ios": "https://dc.lft.to/lastmile_qr_scan"}, "name": "0df0310bdb80b7e8e0ad9c998cc0e50f", "type": "electric_bike", "lat": 38.9535665, "is_disabled": 0}, {"fusion_lat": 0.0, "lon": -77.019818, "is_reserved": 0, "bike_id": "ec7eec57cb070a9ec077aa97b9b466a6", "fusion_lon": 0.0, "rental_uris": {"android": "https://dc.lft.to/lastmile_qr_scan", "ios": "https://dc.lft.to/lastmile_qr_scan"}, "name": "ec7eec57cb070a9ec077aa97b9b466a6", "type": "electric_scooter", "lat": 38.91097533333333, "is_disabled": 0}, {"fusion_lat": 0.0, "lon": -77.01973783333334, "is_reserved": 0, "bike_id": "3916edb6ea4654b49345eb55655cde9c", "fusion_lon": 0.0, "rental_uris": {"android": "https://dc.lft.to/lastmile_qr_scan", "ios": "https://dc.lft.to/lastmile_qr_scan"}, "name": "3916edb6ea4654b49345eb55655cde9c", "type": "electric_scooter", "lat": 38.91276416666667, "is_disabled": 0}, {"fusion_lat": 0.0, "lon": -77.01037383333333, "is_reserved": 0, "bike_id": "08e9c8a2cefc68f74c5a2c042c3e133f", "fusion_lon": 0.0, "rental_uris": {"android": "https://dc.lft.to/lastmile_qr_scan", "ios": "https://dc.lft.to/lastmile_qr_scan"}, "name": "08e9c8a2cefc68f74c5a2c042c3e133f", "type": "electric_scooter", "lat": 38.91914516666667, "is_disabled": 0}, {"fusion_lat": 0.0, "lon": -77.02396816666666, "is_reserved": 0, "bike_id": "beecef5313c7aa80d75e8733e9c94d17", "fusion_lon": 0.0, "rental_uris": {"android": "https://dc.lft.to/lastmile_qr_scan", "ios": "https://dc.lft.to/lastmile_qr_scan"}, "name": "beecef5313c7aa80d75e8733e9c94d17", "type": "electric_scooter", "lat": 38.919937, "is_disabled": 0}, {"fusion_lat": 0.0, "lon": -77.03136616666667, "is_reserved": 0, "bike_id": "8a65f05f96e31c009812a2ad27d47726", "fusion_lon": 0.0, "rental_uris": {"android": "https://dc.lft.to/lastmile_qr_scan", "ios": "https://dc.lft.to/lastmile_qr_scan"}, "name": "8a65f05f96e31c009812a2ad27d47726", "type": "electric_scooter", "lat": 38.92573016666667, "is_disabled": 0}, {"fusion_lat": 0.0, "lon": -77.026115, "is_reserved": 0, "bike_id": "ca12764b0be4e8313f27dfaafb962956", "fusion_lon": 0.0, "rental_uris": {"android": "https://dc.lft.to/lastmile_qr_scan", "ios": "https://dc.lft.to/lastmile_qr_scan"}, "name": "ca12764b0be4e8313f27dfaafb962956", "type": "electric_scooter", "lat": 38.908619333333334, "is_disabled": 0}, {"fusion_lat": 0.0, "lon": -77.03513333333333, "is_reserved": 0, "bike_id": "90adc370585dbe8560038e0211cba16c", "fusion_lon": 0.0, "rental_uris": {"android": "https://dc.lft.to/lastmile_qr_scan", "ios": "https://dc.lft.to/lastmile_qr_scan"}, "name": "90adc370585dbe8560038e0211cba16c", "type": "electric_scooter", "lat": 38.9215625, "is_disabled": 0}, {"fusion_lat": 0.0, "lon": -77.01354166666667, "is_reserved": 0, "bike_id": "72005ff58479576d0169033a6b2b8f72", "fusion_lon": 0.0, "rental_uris": {"android": "https://dc.lft.to/lastmile_qr_scan", "ios": "https://dc.lft.to/lastmile_qr_scan"}, "name": "72005ff58479576d0169033a6b2b8f72", "type": "electric_scooter", "lat": 38.869728, "is_disabled": 0}, {"fusion_lat": 0.0, "lon": -77.0245525, "is_reserved": 0, "bike_id": "c3f93cdfbd4bfe17bf43a4abf0d7b8d7", "fusion_lon": 0.0, "rental_uris": {"android": "https://dc.lft.to/lastmile_qr_scan", "ios": "https://dc.lft.to/lastmile_qr_scan"}, "name": "c3f93cdfbd4bfe17bf43a4abf0d7b8d7", "type": "electric_scooter", "lat": 38.920581, "is_disabled": 0}, {"fusion_lat": 0.0, "lon": -77.04873683333334, "is_reserved": 0, "bike_id": "f4295d9d1ef3dd6443304b71e2d5892b", "fusion_lon": 0.0, "rental_uris": {"android": "https://dc.lft.to/lastmile_qr_scan", "ios": "https://dc.lft.to/lastmile_qr_scan"}, "name": "f4295d9d1ef3dd6443304b71e2d5892b", "type": "electric_scooter", "lat": 38.909771666666664, "is_disabled": 0}, {"fusion_lat": 0.0, "lon": -76.99547416666667, "is_reserved": 0, "bike_id": "1e9180131627fd1135dd55f61e5f1964", "fusion_lon": 0.0, "rental_uris": {"android": "https://dc.lft.to/lastmile_qr_scan", "ios": "https://dc.lft.to/lastmile_qr_scan"}, "name": "1e9180131627fd1135dd55f61e5f1964", "type": "electric_scooter", "lat": 38.862615, "is_disabled": 0}, {"fusion_lat": 0.0, "lon": -76.93133, "is_reserved": 0, "bike_id": "0400066d1f2a75789dae0df47b446175", "fusion_lon": 0.0, "rental_uris": {"android": "https://dc.lft.to/lastmile_qr_scan", "ios": "https://dc.lft.to/lastmile_qr_scan"}, "name": "0400066d1f2a75789dae0df47b446175", "type": "electric_scooter", "lat": 38.876124, "is_disabled": 0}, {"fusion_lat": 0.0, "lon": -77.02360233333333, "is_reserved": 0, "bike_id": "81379c34672382c88e637f4d11ea7ea2", "fusion_lon": 0.0, "rental_uris": {"android": "https://dc.lft.to/lastmile_qr_scan", "ios": "https://dc.lft.to/lastmile_qr_scan"}, "name": "81379c34672382c88e637f4d11ea7ea2", "type": "electric_scooter", "lat": 38.892172, "is_disabled": 0}, {"fusion_lat": 0.0, "lon": -77.03916333333333, "is_reserved": 0, "bike_id": "6ad55bfbce49f4ef2faf77da4d1d6740", "fusion_lon": 0.0, "rental_uris": {"android": "https://dc.lft.to/lastmile_qr_scan", "ios": "https://dc.lft.to/lastmile_qr_scan"}, "name": "6ad55bfbce49f4ef2faf77da4d1d6740", "type": "electric_scooter", "lat": 38.923185833333335, "is_disabled": 0}, {"fusion_lat": 0.0, "lon": -76.98822183333333, "is_reserved": 0, "bike_id": "480fa8da58cfcf978eae42f938d7e4f1", "fusion_lon": 0.0, "rental_uris": {"android": "https://dc.lft.to/lastmile_qr_scan", "ios": "https://dc.lft.to/lastmile_qr_scan"}, "name": "480fa8da58cfcf978eae42f938d7e4f1", "type": "electric_scooter", "lat": 38.890752666666664, "is_disabled": 0}, {"fusion_lat": 0.0, "lon": -77.00792, "is_reserved": 0, "bike_id": "871e58ff8c5b09beda08d9cd694784ca", "fusion_lon": 0.0, "rental_uris": {"android": "https://dc.lft.to/lastmile_qr_scan", "ios": "https://dc.lft.to/lastmile_qr_scan"}, "name": "871e58ff8c5b09beda08d9cd694784ca", "type": "electric_bike", "lat": 38.94925416666667, "is_disabled": 0}, {"fusion_lat": 0.0, "lon": -77.038395, "is_reserved": 0, "bike_id": "9e135e6583c66f903da876619defc0b6", "fusion_lon": 0.0, "rental_uris": {"android": "https://dc.lft.to/lastmile_qr_scan", "ios": "https://dc.lft.to/lastmile_qr_scan"}, "name": "9e135e6583c66f903da876619defc0b6", "type": "electric_scooter", "lat": 38.912433, "is_disabled": 0}, {"fusion_lat": 0.0, "lon": -77.01690266666667, "is_reserved": 0, "bike_id": "5467d05334b70070712347b440706302", "fusion_lon": 0.0, "rental_uris": {"android": "https://dc.lft.to/lastmile_qr_scan", "ios": "https://dc.lft.to/lastmile_qr_scan"}, "name": "5467d05334b70070712347b440706302", "type": "electric_scooter", "lat": 38.87211883333333, "is_disabled": 0}, {"fusion_lat": 0.0, "lon": -77.03474466666667, "is_reserved": 0, "bike_id": "2c70fe76d8cc0b6a456d86e8a48a89a0", "fusion_lon": 0.0, "rental_uris": {"android": "https://dc.lft.to/lastmile_qr_scan", "ios": "https://dc.lft.to/lastmile_qr_scan"}, "name": "2c70fe76d8cc0b6a456d86e8a48a89a0", "type": "electric_scooter", "lat": 38.917118, "is_disabled": 0}, {"fusion_lat": 0.0, "lon": -77.04648016666667, "is_reserved": 0, "bike_id": "45143f2def9eaeed107d212aaa387254", "fusion_lon": 0.0, "rental_uris": {"android": "https://dc.lft.to/lastmile_qr_scan", "ios": "https://dc.lft.to/lastmile_qr_scan"}, "name": "45143f2def9eaeed107d212aaa387254", "type": "electric_bike", "lat": 39.05506966666667, "is_disabled": 0}, {"fusion_lat": 0.0, "lon": -77.02716483333333, "is_reserved": 0, "bike_id": "2153f7fb6e597d04fe021d498ab5ef0c", "fusion_lon": 0.0, "rental_uris": {"android": "https://dc.lft.to/lastmile_qr_scan", "ios": "https://dc.lft.to/lastmile_qr_scan"}, "name": "2153f7fb6e597d04fe021d498ab5ef0c", "type": "electric_scooter", "lat": 38.925744333333334, "is_disabled": 0}, {"fusion_lat": 0.0, "lon": -77.02184883333334, "is_reserved": 0, "bike_id": "b50590395803b7a040210b2d1634e470", "fusion_lon": 0.0, "rental_uris": {"android": "https://dc.lft.to/lastmile_qr_scan", "ios": "https://dc.lft.to/lastmile_qr_scan"}, "name": "b50590395803b7a040210b2d1634e470", "type": "electric_scooter", "lat": 38.90957933333333, "is_disabled": 0}, {"fusion_lat": 0.0, "lon": -76.95657166666666, "is_reserved": 0, "bike_id": "d181ca2c74182016b04f5fbe9b631e11", "fusion_lon": 0.0, "rental_uris": {"android": "https://dc.lft.to/lastmile_qr_scan", "ios": "https://dc.lft.to/lastmile_qr_scan"}, "name": "d181ca2c74182016b04f5fbe9b631e11", "type": "electric_scooter", "lat": 38.89623366666667, "is_disabled": 0}, {"fusion_lat": 0.0, "lon": -76.9684035, "is_reserved": 0, "bike_id": "366119c1b044238f59d9661d779e9e72", "fusion_lon": 0.0, "rental_uris": {"android": "https://dc.lft.to/lastmile_qr_scan", "ios": "https://dc.lft.to/lastmile_qr_scan"}, "name": "366119c1b044238f59d9661d779e9e72", "type": "electric_bike", "lat": 38.943249, "is_disabled": 0}, {"fusion_lat": 0.0, "lon": -77.02403433333333, "is_reserved": 0, "bike_id": "2d66f0e95248bd9bb454f2c32b1f864b", "fusion_lon": 0.0, "rental_uris": {"android": "https://dc.lft.to/lastmile_qr_scan", "ios": "https://dc.lft.to/lastmile_qr_scan"}, "name": "2d66f0e95248bd9bb454f2c32b1f864b", "type": "electric_scooter", "lat": 38.93111916666667, "is_disabled": 0}, {"fusion_lat": 0.0, "lon": -77.046638, "is_reserved": 0, "bike_id": "5e01e94aa4d44c6d7a3faf681b07c1f6", "fusion_lon": 0.0, "rental_uris": {"android": "https://dc.lft.to/lastmile_qr_scan", "ios": "https://dc.lft.to/lastmile_qr_scan"}, "name": "5e01e94aa4d44c6d7a3faf681b07c1f6", "type": "electric_scooter", "lat": 38.90395816666667, "is_disabled": 0}, {"fusion_lat": 0.0, "lon": -76.88402033333334, "is_reserved": 0, "bike_id": "64082fcf3e7358e0292be2e8052485d5", "fusion_lon": 0.0, "rental_uris": {"android": "https://dc.lft.to/lastmile_qr_scan", "ios": "https://dc.lft.to/lastmile_qr_scan"}, "name": "64082fcf3e7358e0292be2e8052485d5", "type": "electric_bike", "lat": 38.93167583333334, "is_disabled": 0}, {"fusion_lat": 0.0, "lon": -77.018113, "is_reserved": 0, "bike_id": "96ad9d7853b3ae503ee1262bb1f1a05c", "fusion_lon": 0.0, "rental_uris": {"android": "https://dc.lft.to/lastmile_qr_scan", "ios": "https://dc.lft.to/lastmile_qr_scan"}, "name": "96ad9d7853b3ae503ee1262bb1f1a05c", "type": "electric_scooter", "lat": 38.96485533333333, "is_disabled": 0}, {"fusion_lat": 0.0, "lon": -77.00720283333334, "is_reserved": 0, "bike_id": "31f226afaf7c9c34b18a7737bc32fe39", "fusion_lon": 0.0, "rental_uris": {"android": "https://dc.lft.to/lastmile_qr_scan", "ios": "https://dc.lft.to/lastmile_qr_scan"}, "name": "31f226afaf7c9c34b18a7737bc32fe39", "type": "electric_scooter", "lat": 38.87666083333333, "is_disabled": 0}, {"fusion_lat": 0.0, "lon": -76.9273605, "is_reserved": 0, "bike_id": "09d216b3fe72128c1b73d79608d6688c", "fusion_lon": 0.0, "rental_uris": {"android": "https://dc.lft.to/lastmile_qr_scan", "ios": "https://dc.lft.to/lastmile_qr_scan"}, "name": "09d216b3fe72128c1b73d79608d6688c", "type": "electric_scooter", "lat": 38.88965433333333, "is_disabled": 0}, {"fusion_lat": 0.0, "lon": -77.01940933333333, "is_reserved": 0, "bike_id": "00a4683dfc98984fa6c4fa19ea102964", "fusion_lon": 0.0, "rental_uris": {"android": "https://dc.lft.to/lastmile_qr_scan", "ios": "https://dc.lft.to/lastmile_qr_scan"}, "name": "00a4683dfc98984fa6c4fa19ea102964", "type": "electric_scooter", "lat": 38.9469895, "is_disabled": 0}, {"fusion_lat": 0.0, "lon": -76.99507233333334, "is_reserved": 0, "bike_id": "1cbda0a06b241b25088420de47c7036d", "fusion_lon": 0.0, "rental_uris": {"android": "https://dc.lft.to/lastmile_qr_scan", "ios": "https://dc.lft.to/lastmile_qr_scan"}, "name": "1cbda0a06b241b25088420de47c7036d", "type": "electric_scooter", "lat": 38.882811333333336, "is_disabled": 0}, {"fusion_lat": 0.0, "lon": -77.04250933333333, "is_reserved": 0, "bike_id": "7b334ca38a3a0118ff9f30c509537905", "fusion_lon": 0.0, "rental_uris": {"android": "https://dc.lft.to/lastmile_qr_scan", "ios": "https://dc.lft.to/lastmile_qr_scan"}, "name": "7b334ca38a3a0118ff9f30c509537905", "type": "electric_scooter", "lat": 38.92543, "is_disabled": 0}, {"fusion_lat": 0.0, "lon": -77.03866016666667, "is_reserved": 0, "bike_id": "2cbde9bddd0996017155c53e1410f5d8", "fusion_lon": 0.0, "rental_uris": {"android": "https://dc.lft.to/lastmile_qr_scan", "ios": "https://dc.lft.to/lastmile_qr_scan"}, "name": "2cbde9bddd0996017155c53e1410f5d8", "type": "electric_scooter", "lat": 38.9079125, "is_disabled": 0}, {"fusion_lat": 0.0, "lon": -77.0573125, "is_reserved": 0, "bike_id": "88d9a0e080cb0b8623c98cc06d52d582", "fusion_lon": 0.0, "rental_uris": {"android": "https://dc.lft.to/lastmile_qr_scan", "ios": "https://dc.lft.to/lastmile_qr_scan"}, "name": "88d9a0e080cb0b8623c98cc06d52d582", "type": "electric_scooter", "lat": 38.9335925, "is_disabled": 0}, {"fusion_lat": 0.0, "lon": -76.98288316666667, "is_reserved": 0, "bike_id": "048241b9c86f904fe2c368e184edcbcc", "fusion_lon": 0.0, "rental_uris": {"android": "https://dc.lft.to/lastmile_qr_scan", "ios": "https://dc.lft.to/lastmile_qr_scan"}, "name": "048241b9c86f904fe2c368e184edcbcc", "type": "electric_scooter", "lat": 38.90044666666667, "is_disabled": 0}, {"fusion_lat": 0.0, "lon": -76.93158266666667, "is_reserved": 0, "bike_id": "908244db005094953fb967cae41fd5a5", "fusion_lon": 0.0, "rental_uris": {"android": "https://dc.lft.to/lastmile_qr_scan", "ios": "https://dc.lft.to/lastmile_qr_scan"}, "name": "908244db005094953fb967cae41fd5a5", "type": "electric_scooter", "lat": 38.89876483333333, "is_disabled": 0}, {"fusion_lat": 0.0, "lon": -77.01747383333333, "is_reserved": 0, "bike_id": "d292c39f71add79584d401a98d278cdb", "fusion_lon": 0.0, "rental_uris": {"android": "https://dc.lft.to/lastmile_qr_scan", "ios": "https://dc.lft.to/lastmile_qr_scan"}, "name": "d292c39f71add79584d401a98d278cdb", "type": "electric_scooter", "lat": 38.902629, "is_disabled": 0}, {"fusion_lat": 0.0, "lon": -77.03674833333334, "is_reserved": 0, "bike_id": "4c2bf418e22e5788ff90e7b3b32f85cc", "fusion_lon": 0.0, "rental_uris": {"android": "https://dc.lft.to/lastmile_qr_scan", "ios": "https://dc.lft.to/lastmile_qr_scan"}, "name": "4c2bf418e22e5788ff90e7b3b32f85cc", "type": "electric_scooter", "lat": 38.90688, "is_disabled": 0}, {"fusion_lat": 0.0, "lon": -77.02098483333333, "is_reserved": 0, "bike_id": "255b59afcf6e781e385a294612c50d71", "fusion_lon": 0.0, "rental_uris": {"android": "https://dc.lft.to/lastmile_qr_scan", "ios": "https://dc.lft.to/lastmile_qr_scan"}, "name": "255b59afcf6e781e385a294612c50d71", "type": "electric_scooter", "lat": 38.885158833333335, "is_disabled": 0}, {"fusion_lat": 0.0, "lon": -77.03958466666667, "is_reserved": 0, "bike_id": "eb88d90356d454f2e478bb01dc2d2d3f", "fusion_lon": 0.0, "rental_uris": {"android": "https://dc.lft.to/lastmile_qr_scan", "ios": "https://dc.lft.to/lastmile_qr_scan"}, "name": "eb88d90356d454f2e478bb01dc2d2d3f", "type": "electric_scooter", "lat": 38.89246816666667, "is_disabled": 0}, {"fusion_lat": 0.0, "lon": -77.07971283333333, "is_reserved": 0, "bike_id": "3ddb0d435ad5a40d6d34ba04f771167f", "fusion_lon": 0.0, "rental_uris": {"android": "https://dc.lft.to/lastmile_qr_scan", "ios": "https://dc.lft.to/lastmile_qr_scan"}, "name": "3ddb0d435ad5a40d6d34ba04f771167f", "type": "electric_scooter", "lat": 38.925828333333335, "is_disabled": 0}, {"fusion_lat": 0.0, "lon": -77.03641833333333, "is_reserved": 0, "bike_id": "a7a7eb594ea4c337934d6c069e642c49", "fusion_lon": 0.0, "rental_uris": {"android": "https://dc.lft.to/lastmile_qr_scan", "ios": "https://dc.lft.to/lastmile_qr_scan"}, "name": "a7a7eb594ea4c337934d6c069e642c49", "type": "electric_scooter", "lat": 38.922636, "is_disabled": 0}, {"fusion_lat": 0.0, "lon": -77.01947866666667, "is_reserved": 0, "bike_id": "92f1eac8ce11dcb883814be05ecb8029", "fusion_lon": 0.0, "rental_uris": {"android": "https://dc.lft.to/lastmile_qr_scan", "ios": "https://dc.lft.to/lastmile_qr_scan"}, "name": "92f1eac8ce11dcb883814be05ecb8029", "type": "electric_bike", "lat": 38.92420383333334, "is_disabled": 0}, {"fusion_lat": 0.0, "lon": -77.02091033333333, "is_reserved": 0, "bike_id": "574a968b378792dd3d66486a1cd1b8f3", "fusion_lon": 0.0, "rental_uris": {"android": "https://dc.lft.to/lastmile_qr_scan", "ios": "https://dc.lft.to/lastmile_qr_scan"}, "name": "574a968b378792dd3d66486a1cd1b8f3", "type": "electric_scooter", "lat": 38.911262666666666, "is_disabled": 0}, {"fusion_lat": 0.0, "lon": -77.05153966666667, "is_reserved": 0, "bike_id": "00dcd9070829699a91778439f4ac68f0", "fusion_lon": 0.0, "rental_uris": {"android": "https://dc.lft.to/lastmile_qr_scan", "ios": "https://dc.lft.to/lastmile_qr_scan"}, "name": "00dcd9070829699a91778439f4ac68f0", "type": "electric_scooter", "lat": 38.899521666666665, "is_disabled": 0}, {"fusion_lat": 0.0, "lon": -76.99531783333333, "is_reserved": 0, "bike_id": "ad9a979ecf54ecb8df9e5168242cf12f", "fusion_lon": 0.0, "rental_uris": {"android": "https://dc.lft.to/lastmile_qr_scan", "ios": "https://dc.lft.to/lastmile_qr_scan"}, "name": "ad9a979ecf54ecb8df9e5168242cf12f", "type": "electric_scooter", "lat": 38.88373383333333, "is_disabled": 0}, {"fusion_lat": 0.0, "lon": -77.044036, "is_reserved": 0, "bike_id": "361b13d2a085305b8bd6d936aaf83697", "fusion_lon": 0.0, "rental_uris": {"android": "https://dc.lft.to/lastmile_qr_scan", "ios": "https://dc.lft.to/lastmile_qr_scan"}, "name": "361b13d2a085305b8bd6d936aaf83697", "type": "electric_scooter", "lat": 38.896323833333334, "is_disabled": 0}, {"fusion_lat": 0.0, "lon": -77.03914166666667, "is_reserved": 0, "bike_id": "4725bd4341feb764f84fedf5eaa416f0", "fusion_lon": 0.0, "rental_uris": {"android": "https://dc.lft.to/lastmile_qr_scan", "ios": "https://dc.lft.to/lastmile_qr_scan"}, "name": "4725bd4341feb764f84fedf5eaa416f0", "type": "electric_scooter", "lat": 38.9231325, "is_disabled": 0}, {"fusion_lat": 0.0, "lon": -77.01103316666666, "is_reserved": 0, "bike_id": "48aaa3007a12f2258b4cea432acdb987", "fusion_lon": 0.0, "rental_uris": {"android": "https://dc.lft.to/lastmile_qr_scan", "ios": "https://dc.lft.to/lastmile_qr_scan"}, "name": "48aaa3007a12f2258b4cea432acdb987", "type": "electric_scooter", "lat": 38.903706, "is_disabled": 0}, {"fusion_lat": 0.0, "lon": -77.04654616666667, "is_reserved": 0, "bike_id": "58617c788989079a38908a0a303aaeee", "fusion_lon": 0.0, "rental_uris": {"android": "https://dc.lft.to/lastmile_qr_scan", "ios": "https://dc.lft.to/lastmile_qr_scan"}, "name": "58617c788989079a38908a0a303aaeee", "type": "electric_scooter", "lat": 38.90005283333333, "is_disabled": 0}, {"fusion_lat": 0.0, "lon": -77.03834233333333, "is_reserved": 0, "bike_id": "b0bd0cf70ba7bbbfbcd1a1119a30561b", "fusion_lon": 0.0, "rental_uris": {"android": "https://dc.lft.to/lastmile_qr_scan", "ios": "https://dc.lft.to/lastmile_qr_scan"}, "name": "b0bd0cf70ba7bbbfbcd1a1119a30561b", "type": "electric_scooter", "lat": 38.9037755, "is_disabled": 0}, {"fusion_lat": 0.0, "lon": -77.0050165, "is_reserved": 0, "bike_id": "8c60d69ad16b263368f2f7cdb01bd2bc", "fusion_lon": 0.0, "rental_uris": {"android": "https://dc.lft.to/lastmile_qr_scan", "ios": "https://dc.lft.to/lastmile_qr_scan"}, "name": "8c60d69ad16b263368f2f7cdb01bd2bc", "type": "electric_scooter", "lat": 38.916882666666666, "is_disabled": 0}, {"fusion_lat": 0.0, "lon": -77.02375966666666, "is_reserved": 0, "bike_id": "edf4eef6db8143fbd882a523d9d44da5", "fusion_lon": 0.0, "rental_uris": {"android": "https://dc.lft.to/lastmile_qr_scan", "ios": "https://dc.lft.to/lastmile_qr_scan"}, "name": "edf4eef6db8143fbd882a523d9d44da5", "type": "electric_scooter", "lat": 38.894011, "is_disabled": 0}, {"fusion_lat": 0.0, "lon": -77.02578, "is_reserved": 0, "bike_id": "d3326ec5095968646e43c35b526637e2", "fusion_lon": 0.0, "rental_uris": {"android": "https://dc.lft.to/lastmile_qr_scan", "ios": "https://dc.lft.to/lastmile_qr_scan"}, "name": "d3326ec5095968646e43c35b526637e2", "type": "electric_scooter", "lat": 38.92528983333333, "is_disabled": 0}, {"fusion_lat": 0.0, "lon": -77.022142, "is_reserved": 0, "bike_id": "6b624ce3389366e0672b99da2d91caed", "fusion_lon": 0.0, "rental_uris": {"android": "https://dc.lft.to/lastmile_qr_scan", "ios": "https://dc.lft.to/lastmile_qr_scan"}, "name": "6b624ce3389366e0672b99da2d91caed", "type": "electric_scooter", "lat": 38.929973, "is_disabled": 0}, {"fusion_lat": 0.0, "lon": -77.0317265, "is_reserved": 0, "bike_id": "d0ce52cedaf10d511ce990d215c9eeca", "fusion_lon": 0.0, "rental_uris": {"android": "https://dc.lft.to/lastmile_qr_scan", "ios": "https://dc.lft.to/lastmile_qr_scan"}, "name": "d0ce52cedaf10d511ce990d215c9eeca", "type": "electric_scooter", "lat": 38.918041833333334, "is_disabled": 0}, {"fusion_lat": 0.0, "lon": -77.02095683333333, "is_reserved": 0, "bike_id": "c3a221979a37b5fe9611b7fe47bb390e", "fusion_lon": 0.0, "rental_uris": {"android": "https://dc.lft.to/lastmile_qr_scan", "ios": "https://dc.lft.to/lastmile_qr_scan"}, "name": "c3a221979a37b5fe9611b7fe47bb390e", "type": "electric_scooter", "lat": 38.93263816666666, "is_disabled": 0}, {"fusion_lat": 0.0, "lon": -77.0686615, "is_reserved": 0, "bike_id": "821d0ef5720bc9e674efb5cd4d7513c1", "fusion_lon": 0.0, "rental_uris": {"android": "https://dc.lft.to/lastmile_qr_scan", "ios": "https://dc.lft.to/lastmile_qr_scan"}, "name": "821d0ef5720bc9e674efb5cd4d7513c1", "type": "electric_bike", "lat": 38.805808666666664, "is_disabled": 0}, {"fusion_lat": 0.0, "lon": -76.89531833333334, "is_reserved": 0, "bike_id": "81f1dad335d71045443fa36092ead52b", "fusion_lon": 0.0, "rental_uris": {"android": "https://dc.lft.to/lastmile_qr_scan", "ios": "https://dc.lft.to/lastmile_qr_scan"}, "name": "81f1dad335d71045443fa36092ead52b", "type": "electric_bike", "lat": 38.945524666666664, "is_disabled": 0}, {"fusion_lat": 0.0, "lon": -76.9914645, "is_reserved": 0, "bike_id": "d9dd4ba8315cbd17f3e4cf930cf55eb7", "fusion_lon": 0.0, "rental_uris": {"android": "https://dc.lft.to/lastmile_qr_scan", "ios": "https://dc.lft.to/lastmile_qr_scan"}, "name": "d9dd4ba8315cbd17f3e4cf930cf55eb7", "type": "electric_scooter", "lat": 38.893435833333335, "is_disabled": 0}, {"fusion_lat": 0.0, "lon": -77.0019735, "is_reserved": 0, "bike_id": "d37a1853f1537a528ef8b2d9f4e1913a", "fusion_lon": 0.0, "rental_uris": {"android": "https://dc.lft.to/lastmile_qr_scan", "ios": "https://dc.lft.to/lastmile_qr_scan"}, "name": "d37a1853f1537a528ef8b2d9f4e1913a", "type": "electric_scooter", "lat": 38.9168515, "is_disabled": 0}, {"fusion_lat": 0.0, "lon": -77.02287666666666, "is_reserved": 0, "bike_id": "08efaa682fe34d104fb65220da1d529a", "fusion_lon": 0.0, "rental_uris": {"android": "https://dc.lft.to/lastmile_qr_scan", "ios": "https://dc.lft.to/lastmile_qr_scan"}, "name": "08efaa682fe34d104fb65220da1d529a", "type": "electric_scooter", "lat": 38.914291, "is_disabled": 0}, {"fusion_lat": 0.0, "lon": -77.02729366666667, "is_reserved": 0, "bike_id": "670697bfc881553b51805e6cf1081e1b", "fusion_lon": 0.0, "rental_uris": {"android": "https://dc.lft.to/lastmile_qr_scan", "ios": "https://dc.lft.to/lastmile_qr_scan"}, "name": "670697bfc881553b51805e6cf1081e1b", "type": "electric_scooter", "lat": 38.940876333333335, "is_disabled": 0}, {"fusion_lat": 0.0, "lon": -77.03440033333334, "is_reserved": 0, "bike_id": "15d38e774e83731ceae4355843f25f4a", "fusion_lon": 0.0, "rental_uris": {"android": "https://dc.lft.to/lastmile_qr_scan", "ios": "https://dc.lft.to/lastmile_qr_scan"}, "name": "15d38e774e83731ceae4355843f25f4a", "type": "electric_scooter", "lat": 38.918068166666664, "is_disabled": 0}, {"fusion_lat": 0.0, "lon": -77.0061715, "is_reserved": 0, "bike_id": "b68c7940a993a1d0da15f709e6d5b439", "fusion_lon": 0.0, "rental_uris": {"android": "https://dc.lft.to/lastmile_qr_scan", "ios": "https://dc.lft.to/lastmile_qr_scan"}, "name": "b68c7940a993a1d0da15f709e6d5b439", "type": "electric_scooter", "lat": 38.871750666666664, "is_disabled": 0}, {"fusion_lat": 0.0, "lon": -77.03212916666666, "is_reserved": 0, "bike_id": "9ba0766d9f12805189ab3f50655b45ec", "fusion_lon": 0.0, "rental_uris": {"android": "https://dc.lft.to/lastmile_qr_scan", "ios": "https://dc.lft.to/lastmile_qr_scan"}, "name": "9ba0766d9f12805189ab3f50655b45ec", "type": "electric_scooter", "lat": 38.907348166666665, "is_disabled": 0}, {"fusion_lat": 0.0, "lon": -77.063301, "is_reserved": 0, "bike_id": "d53bd1f08c08e6c3e7d1746c30e53e81", "fusion_lon": 0.0, "rental_uris": {"android": "https://dc.lft.to/lastmile_qr_scan", "ios": "https://dc.lft.to/lastmile_qr_scan"}, "name": "d53bd1f08c08e6c3e7d1746c30e53e81", "type": "electric_scooter", "lat": 38.94421533333333, "is_disabled": 0}, {"fusion_lat": 0.0, "lon": -76.93731833333334, "is_reserved": 0, "bike_id": "c17389bd830ae2d08877032d3eb5d53b", "fusion_lon": 0.0, "rental_uris": {"android": "https://dc.lft.to/lastmile_qr_scan", "ios": "https://dc.lft.to/lastmile_qr_scan"}, "name": "c17389bd830ae2d08877032d3eb5d53b", "type": "electric_scooter", "lat": 38.89016216666667, "is_disabled": 0}, {"fusion_lat": 0.0, "lon": -77.00740466666667, "is_reserved": 0, "bike_id": "838e4b481e20332616bd6a23e31b79f8", "fusion_lon": 0.0, "rental_uris": {"android": "https://dc.lft.to/lastmile_qr_scan", "ios": "https://dc.lft.to/lastmile_qr_scan"}, "name": "838e4b481e20332616bd6a23e31b79f8", "type": "electric_scooter", "lat": 38.897799166666665, "is_disabled": 0}, {"fusion_lat": 0.0, "lon": -77.023275, "is_reserved": 0, "bike_id": "3cf8195bd011123bb0e2254795318120", "fusion_lon": 0.0, "rental_uris": {"android": "https://dc.lft.to/lastmile_qr_scan", "ios": "https://dc.lft.to/lastmile_qr_scan"}, "name": "3cf8195bd011123bb0e2254795318120", "type": "electric_scooter", "lat": 38.92712433333333, "is_disabled": 0}, {"fusion_lat": 0.0, "lon": -77.0151525, "is_reserved": 0, "bike_id": "d810af24253e5aed1d901bd5fa2a51ea", "fusion_lon": 0.0, "rental_uris": {"android": "https://dc.lft.to/lastmile_qr_scan", "ios": "https://dc.lft.to/lastmile_qr_scan"}, "name": "d810af24253e5aed1d901bd5fa2a51ea", "type": "electric_scooter", "lat": 38.892458833333336, "is_disabled": 0}, {"fusion_lat": 0.0, "lon": -76.974412, "is_reserved": 0, "bike_id": "580af4fb118b087f166eda1ac0c5a016", "fusion_lon": 0.0, "rental_uris": {"android": "https://dc.lft.to/lastmile_qr_scan", "ios": "https://dc.lft.to/lastmile_qr_scan"}, "name": "580af4fb118b087f166eda1ac0c5a016", "type": "electric_bike", "lat": 38.86420916666667, "is_disabled": 0}, {"fusion_lat": 0.0, "lon": -77.00599266666667, "is_reserved": 0, "bike_id": "ef1e9f204abbd3c808a6885565a541c5", "fusion_lon": 0.0, "rental_uris": {"android": "https://dc.lft.to/lastmile_qr_scan", "ios": "https://dc.lft.to/lastmile_qr_scan"}, "name": "ef1e9f204abbd3c808a6885565a541c5", "type": "electric_scooter", "lat": 38.8851865, "is_disabled": 0}, {"fusion_lat": 0.0, "lon": -77.02701016666667, "is_reserved": 0, "bike_id": "01ad572cae37d9042db2c682ae63d22b", "fusion_lon": 0.0, "rental_uris": {"android": "https://dc.lft.to/lastmile_qr_scan", "ios": "https://dc.lft.to/lastmile_qr_scan"}, "name": "01ad572cae37d9042db2c682ae63d22b", "type": "electric_scooter", "lat": 38.902592, "is_disabled": 0}, {"fusion_lat": 0.0, "lon": -77.022154, "is_reserved": 0, "bike_id": "27ad44b1a50e656a99512fee956832d7", "fusion_lon": 0.0, "rental_uris": {"android": "https://dc.lft.to/lastmile_qr_scan", "ios": "https://dc.lft.to/lastmile_qr_scan"},