{"data": {"bikes": [{"lon": -76.924078, "is_reserved": 0, "is_disabled": 0, "type": "electric_scooter", "lat": 38.8899095, "rental_uris": {"ios": "https://dc.lft.to/lastmile_qr_scan", "android": "https://dc.lft.to/lastmile_qr_scan"}, "fusion_lat": 0.0, "fusion_lon": 0.0, "bike_id": "a60dc940635f2ee2e14a9ed4cd77527d", "name": "a60dc940635f2ee2e14a9ed4cd77527d"}, {"lon": -77.03211783333333, "is_reserved": 0, "is_disabled": 0, "type": "electric_scooter", "lat": 38.89405983333333, "rental_uris": {"ios": "https://dc.lft.to/lastmile_qr_scan", "android": "https://dc.lft.to/lastmile_qr_scan"}, "fusion_lat": 0.0, "fusion_lon": 0.0, "bike_id": "36759975baa8d7d61074bc55c5cdbb6e", "name": "36759975baa8d7d61074bc55c5cdbb6e"}, {"lon": -77.0137725, "is_reserved": 0, "is_disabled": 0, "type": "electric_scooter", "lat": 38.86720566666666, "rental_uris": {"ios": "https://dc.lft.to/lastmile_qr_scan", "android": "https://dc.lft.to/lastmile_qr_scan"}, "fusion_lat": 0.0, "fusion_lon": 0.0, "bike_id": "25b6e24bb8803b49e5b0785d0e5cd316", "name": "25b6e24bb8803b49e5b0785d0e5cd316"}, {"lon": -77.02975066666667, "is_reserved": 0, "is_disabled": 0, "type": "electric_scooter", "lat": 38.893202, "rental_uris": {"ios": "https://dc.lft.to/lastmile_qr_scan", "android": "https://dc.lft.to/lastmile_qr_scan"}, "fusion_lat": 0.0, "fusion_lon": 0.0, "bike_id": "ca14fa8adb09708a38e155d20af7284f", "name": "ca14fa8adb09708a38e155d20af7284f"}, {"lon": -76.93414116666666, "is_reserved": 0, "is_disabled": 0, "type": "electric_bike", "lat": 38.946240833333334, "rental_uris": {"ios": "https://dc.lft.to/lastmile_qr_scan", "android": "https://dc.lft.to/lastmile_qr_scan"}, "fusion_lat": 0.0, "fusion_lon": 0.0, "bike_id": "65f8f723116368b8792e5f8545a46bcd", "name": "65f8f723116368b8792e5f8545a46bcd"}, {"lon": -77.01260433333333, "is_reserved": 0, "is_disabled": 0, "type": "electric_scooter", "lat": 38.87630083333333, "rental_uris": {"ios": "https://dc.lft.to/lastmile_qr_scan", "android": "https://dc.lft.to/lastmile_qr_scan"}, "fusion_lat": 0.0, "fusion_lon": 0.0, "bike_id": "8635850efff61d9fdb053d687b4d906e", "name": "8635850efff61d9fdb053d687b4d906e"}, {"lon": -77.0057765, "is_reserved": 0, "is_disabled": 0, "type": "electric_scooter", "lat": 38.885324833333335, "rental_uris": {"ios": "https://dc.lft.to/lastmile_qr_scan", "android": "https://dc.lft.to/lastmile_qr_scan"}, "fusion_lat": 0.0, "fusion_lon": 0.0, "bike_id": "8d4fe8d5c0f453f977cfa4c59e0f82b8", "name": "8d4fe8d5c0f453f977cfa4c59e0f82b8"}, {"lon": -77.00578316666666, "is_reserved": 0, "is_disabled": 0, "type": "electric_scooter", "lat": 38.8853275, "rental_uris": {"ios": "https://dc.lft.to/lastmile_qr_scan", "android": "https://dc.lft.to/lastmile_qr_scan"}, "fusion_lat": 0.0, "fusion_lon": 0.0, "bike_id": "6c9ce706a0d26f14f581951bdbc9f001", "name": "6c9ce706a0d26f14f581951bdbc9f001"}, {"lon": -77.0345615, "is_reserved": 0, "is_disabled": 0, "type": "electric_scooter", "lat": 38.908413833333334, "rental_uris": {"ios": "https://dc.lft.to/lastmile_qr_scan", "android": "https://dc.lft.to/lastmile_qr_scan"}, "fusion_lat": 0.0, "fusion_lon": 0.0, "bike_id": "9e782b3927f2bc94a4e150a21720be22", "name": "9e782b3927f2bc94a4e150a21720be22"}, {"lon": -76.94722816666666, "is_reserved": 0, "is_disabled": 0, "type": "electric_scooter", "lat": 38.89736, "rental_uris": {"ios": "https://dc.lft.to/lastmile_qr_scan", "android": "https://dc.lft.to/lastmile_qr_scan"}, "fusion_lat": 0.0, "fusion_lon": 0.0, "bike_id": "35d83aa17dfd2ef743c385f105045067", "name": "35d83aa17dfd2ef743c385f105045067"}, {"lon": -76.97382216666666, "is_reserved": 0, "is_disabled": 0, "type": "electric_scooter", "lat": 38.883747, "rental_uris": {"ios": "https://dc.lft.to/lastmile_qr_scan", "android": "https://dc.lft.to/lastmile_qr_scan"}, "fusion_lat": 0.0, "fusion_lon": 0.0, "bike_id": "bb5ea45a7f737fcd31e8e4cee7dd106a", "name": "bb5ea45a7f737fcd31e8e4cee7dd106a"}, {"lon": -77.01766483333333, "is_reserved": 0, "is_disabled": 0, "type": "electric_scooter", "lat": 38.92111516666667, "rental_uris": {"ios": "https://dc.lft.to/lastmile_qr_scan", "android": "https://dc.lft.to/lastmile_qr_scan"}, "fusion_lat": 0.0, "fusion_lon": 0.0, "bike_id": "d9698e63e4ee730dd407e3cc8f485b4d", "name": "d9698e63e4ee730dd407e3cc8f485b4d"}, {"lon": -77.00323533333334, "is_reserved": 0, "is_disabled": 0, "type": "electric_scooter", "lat": 38.84037883333333, "rental_uris": {"ios": "https://dc.lft.to/lastmile_qr_scan", "android": "https://dc.lft.to/lastmile_qr_scan"}, "fusion_lat": 0.0, "fusion_lon": 0.0, "bike_id": "b80bbde04954d4dae40a94d1c0542367", "name": "b80bbde04954d4dae40a94d1c0542367"}, {"lon": -77.05662733333334, "is_reserved": 0, "is_disabled": 0, "type": "electric_scooter", "lat": 38.96544083333333, "rental_uris": {"ios": "https://dc.lft.to/lastmile_qr_scan", "android": "https://dc.lft.to/lastmile_qr_scan"}, "fusion_lat": 0.0, "fusion_lon": 0.0, "bike_id": "b18ca61b9f6661071b9169b3932319a8", "name": "b18ca61b9f6661071b9169b3932319a8"}, {"lon": -77.04631983333333, "is_reserved": 0, "is_disabled": 0, "type": "electric_scooter", "lat": 38.918036666666666, "rental_uris": {"ios": "https://dc.lft.to/lastmile_qr_scan", "android": "https://dc.lft.to/lastmile_qr_scan"}, "fusion_lat": 0.0, "fusion_lon": 0.0, "bike_id": "cda2b7d7ed30b2ac7ce21eb29b555514", "name": "cda2b7d7ed30b2ac7ce21eb29b555514"}, {"lon": -77.02728633333334, "is_reserved": 0, "is_disabled": 0, "type": "electric_scooter", "lat": 38.939802, "rental_uris": {"ios": "https://dc.lft.to/lastmile_qr_scan", "android": "https://dc.lft.to/lastmile_qr_scan"}, "fusion_lat": 0.0, "fusion_lon": 0.0, "bike_id": "64c78dae93f82fd0721e0c9cadbef029", "name": "64c78dae93f82fd0721e0c9cadbef029"}, {"lon": -77.02227016666667, "is_reserved": 0, "is_disabled": 0, "type": "electric_scooter", "lat": 38.90557116666667, "rental_uris": {"ios": "https://dc.lft.to/lastmile_qr_scan", "android": "https://dc.lft.to/lastmile_qr_scan"}, "fusion_lat": 0.0, "fusion_lon": 0.0, "bike_id": "1dd81d12b1ff9bb2fb80d9963b201681", "name": "1dd81d12b1ff9bb2fb80d9963b201681"}, {"lon": -77.00305466666667, "is_reserved": 0, "is_disabled": 0, "type": "electric_scooter", "lat": 38.89224183333333, "rental_uris": {"ios": "https://dc.lft.to/lastmile_qr_scan", "android": "https://dc.lft.to/lastmile_qr_scan"}, "fusion_lat": 0.0, "fusion_lon": 0.0, "bike_id": "599b9975ffedb9b4b16884fec0f1d062", "name": "599b9975ffedb9b4b16884fec0f1d062"}, {"lon": -77.034706, "is_reserved": 0, "is_disabled": 0, "type": "electric_scooter", "lat": 38.90638383333334, "rental_uris": {"ios": "https://dc.lft.to/lastmile_qr_scan", "android": "https://dc.lft.to/lastmile_qr_scan"}, "fusion_lat": 0.0, "fusion_lon": 0.0, "bike_id": "4f7b05ee282dea4f262b17f3ac42fa54", "name": "4f7b05ee282dea4f262b17f3ac42fa54"}, {"lon": -77.010248, "is_reserved": 0, "is_disabled": 0, "type": "electric_scooter", "lat": 38.906255333333334, "rental_uris": {"ios": "https://dc.lft.to/lastmile_qr_scan", "android": "https://dc.lft.to/lastmile_qr_scan"}, "fusion_lat": 0.0, "fusion_lon": 0.0, "bike_id": "2f7f3bf4d9f1576e86f71e292540d777", "name": "2f7f3bf4d9f1576e86f71e292540d777"}, {"lon": -77.04094766666667, "is_reserved": 0, "is_disabled": 0, "type": "electric_scooter", "lat": 38.90243066666667, "rental_uris": {"ios": "https://dc.lft.to/lastmile_qr_scan", "android": "https://dc.lft.to/lastmile_qr_scan"}, "fusion_lat": 0.0, "fusion_lon": 0.0, "bike_id": "7b91d47446dabf159e22139ca68390af", "name": "7b91d47446dabf159e22139ca68390af"}, {"lon": -77.02856866666667, "is_reserved": 0, "is_disabled": 0, "type": "electric_scooter", "lat": 38.912699, "rental_uris": {"ios": "https://dc.lft.to/lastmile_qr_scan", "android": "https://dc.lft.to/lastmile_qr_scan"}, "fusion_lat": 0.0, "fusion_lon": 0.0, "bike_id": "92e04eeda02a4ce48aceb88c51427688", "name": "92e04eeda02a4ce48aceb88c51427688"}, {"lon": -77.04337516666666, "is_reserved": 0, "is_disabled": 0, "type": "electric_scooter", "lat": 38.89827716666667, "rental_uris": {"ios": "https://dc.lft.to/lastmile_qr_scan", "android": "https://dc.lft.to/lastmile_qr_scan"}, "fusion_lat": 0.0, "fusion_lon": 0.0, "bike_id": "b0d1552ab14c37dcbbca70d2e20e718d", "name": "b0d1552ab14c37dcbbca70d2e20e718d"}, {"lon": -77.02501766666667, "is_reserved": 0, "is_disabled": 0, "type": "electric_scooter", "lat": 38.92068283333333, "rental_uris": {"ios": "https://dc.lft.to/lastmile_qr_scan", "android": "https://dc.lft.to/lastmile_qr_scan"}, "fusion_lat": 0.0, "fusion_lon": 0.0, "bike_id": "c67ffffd4cc64f41d15a5bf248220a98", "name": "c67ffffd4cc64f41d15a5bf248220a98"}, {"lon": -76.9873595, "is_reserved": 0, "is_disabled": 0, "type": "electric_scooter", "lat": 38.86707366666667, "rental_uris": {"ios": "https://dc.lft.to/lastmile_qr_scan", "android": "https://dc.lft.to/lastmile_qr_scan"}, "fusion_lat": 0.0, "fusion_lon": 0.0, "bike_id": "6ec138092398bb9fffd323946a84b8c9", "name": "6ec138092398bb9fffd323946a84b8c9"}, {"lon": -76.95203233333334, "is_reserved": 0, "is_disabled": 0, "type": "electric_bike", "lat": 38.9366765, "rental_uris": {"ios": "https://dc.lft.to/lastmile_qr_scan", "android": "https://dc.lft.to/lastmile_qr_scan"}, "fusion_lat": 0.0, "fusion_lon": 0.0, "bike_id": "774fa5601e3b04d7a9a125d681835827", "name": "774fa5601e3b04d7a9a125d681835827"}, {"lon": -77.04677683333334, "is_reserved": 0, "is_disabled": 0, "type": "electric_scooter", "lat": 38.903227333333334, "rental_uris": {"ios": "https://dc.lft.to/lastmile_qr_scan", "android": "https://dc.lft.to/lastmile_qr_scan"}, "fusion_lat": 0.0, "fusion_lon": 0.0, "bike_id": "0b1586a037df1fff33e45c16a86c424d", "name": "0b1586a037df1fff33e45c16a86c424d"}, {"lon": -77.0148995, "is_reserved": 0, "is_disabled": 0, "type": "electric_bike", "lat": 38.972941, "rental_uris": {"ios": "https://dc.lft.to/lastmile_qr_scan", "android": "https://dc.lft.to/lastmile_qr_scan"}, "fusion_lat": 0.0, "fusion_lon": 0.0, "bike_id": "15b8407dbb2ffe490d3327255d70f910", "name": "15b8407dbb2ffe490d3327255d70f910"}, {"lon": -77.0388805, "is_reserved": 0, "is_disabled": 0, "type": "electric_scooter", "lat": 38.90649233333333, "rental_uris": {"ios": "https://dc.lft.to/lastmile_qr_scan", "android": "https://dc.lft.to/lastmile_qr_scan"}, "fusion_lat": 0.0, "fusion_lon": 0.0, "bike_id": "54472408f0922ff6a4c8b1ad80eddcce", "name": "54472408f0922ff6a4c8b1ad80eddcce"}, {"lon": -77.02347683333333, "is_reserved": 0, "is_disabled": 0, "type": "electric_scooter", "lat": 38.922594, "rental_uris": {"ios": "https://dc.lft.to/lastmile_qr_scan", "android": "https://dc.lft.to/lastmile_qr_scan"}, "fusion_lat": 0.0, "fusion_lon": 0.0, "bike_id": "5775c1123d500f0efecf80fa8c6e3ece", "name": "5775c1123d500f0efecf80fa8c6e3ece"}, {"lon": -77.03932016666667, "is_reserved": 0, "is_disabled": 0, "type": "electric_scooter", "lat": 38.92495516666666, "rental_uris": {"ios": "https://dc.lft.to/lastmile_qr_scan", "android": "https://dc.lft.to/lastmile_qr_scan"}, "fusion_lat": 0.0, "fusion_lon": 0.0, "bike_id": "0bf55929acc05aaa18944eb6cf4fdd63", "name": "0bf55929acc05aaa18944eb6cf4fdd63"}, {"lon": -77.04403466666666, "is_reserved": 0, "is_disabled": 0, "type": "electric_scooter", "lat": 38.90235933333334, "rental_uris": {"ios": "https://dc.lft.to/lastmile_qr_scan", "android": "https://dc.lft.to/lastmile_qr_scan"}, "fusion_lat": 0.0, "fusion_lon": 0.0, "bike_id": "00f9873b6a61e236254c1cb03c322950", "name": "00f9873b6a61e236254c1cb03c322950"}, {"lon": -77.033289, "is_reserved": 0, "is_disabled": 0, "type": "electric_scooter", "lat": 38.898491, "rental_uris": {"ios": "https://dc.lft.to/lastmile_qr_scan", "android": "https://dc.lft.to/lastmile_qr_scan"}, "fusion_lat": 0.0, "fusion_lon": 0.0, "bike_id": "b7a446e397b62abb7d4bf383b9946dc6", "name": "b7a446e397b62abb7d4bf383b9946dc6"}, {"lon": -77.03441766666667, "is_reserved": 0, "is_disabled": 0, "type": "electric_scooter", "lat": 38.917989666666664, "rental_uris": {"ios": "https://dc.lft.to/lastmile_qr_scan", "android": "https://dc.lft.to/lastmile_qr_scan"}, "fusion_lat": 0.0, "fusion_lon": 0.0, "bike_id": "9f08a44b3fb26a476790b80b64d125c0", "name": "9f08a44b3fb26a476790b80b64d125c0"}, {"lon": -77.05117333333334, "is_reserved": 0, "is_disabled": 0, "type": "electric_bike", "lat": 38.945553833333335, "rental_uris": {"ios": "https://dc.lft.to/lastmile_qr_scan", "android": "https://dc.lft.to/lastmile_qr_scan"}, "fusion_lat": 0.0, "fusion_lon": 0.0, "bike_id": "4e68bdb6d8cbd42ae3c4edd7334c54dc", "name": "4e68bdb6d8cbd42ae3c4edd7334c54dc"}, {"lon": -76.96440283333334, "is_reserved": 0, "is_disabled": 0, "type": "electric_scooter", "lat": 38.93463883333333, "rental_uris": {"ios": "https://dc.lft.to/lastmile_qr_scan", "android": "https://dc.lft.to/lastmile_qr_scan"}, "fusion_lat": 0.0, "fusion_lon": 0.0, "bike_id": "04e869e1062457cefcf26b5ba9a5b1c9", "name": "04e869e1062457cefcf26b5ba9a5b1c9"}, {"lon": -77.044508, "is_reserved": 0, "is_disabled": 0, "type": "electric_scooter", "lat": 38.909882, "rental_uris": {"ios": "https://dc.lft.to/lastmile_qr_scan", "android": "https://dc.lft.to/lastmile_qr_scan"}, "fusion_lat": 0.0, "fusion_lon": 0.0, "bike_id": "8d258e1d8b95f37621cfd2869f41d594", "name": "8d258e1d8b95f37621cfd2869f41d594"}, {"lon": -77.03874816666666, "is_reserved": 0, "is_disabled": 0, "type": "electric_scooter", "lat": 38.934302, "rental_uris": {"ios": "https://dc.lft.to/lastmile_qr_scan", "android": "https://dc.lft.to/lastmile_qr_scan"}, "fusion_lat": 0.0, "fusion_lon": 0.0, "bike_id": "9957b18e73ec192f4d13b50f2c5cad72", "name": "9957b18e73ec192f4d13b50f2c5cad72"}, {"lon": -77.06363116666667, "is_reserved": 0, "is_disabled": 0, "type": "electric_scooter", "lat": 38.944130333333334, "rental_uris": {"ios": "https://dc.lft.to/lastmile_qr_scan", "android": "https://dc.lft.to/lastmile_qr_scan"}, "fusion_lat": 0.0, "fusion_lon": 0.0, "bike_id": "5b242b1138281cbf0cf641dda41352a7", "name": "5b242b1138281cbf0cf641dda41352a7"}, {"lon": -77.10722483333333, "is_reserved": 0, "is_disabled": 0, "type": "electric_bike", "lat": 38.85556016666666, "rental_uris": {"ios": "https://dc.lft.to/lastmile_qr_scan", "android": "https://dc.lft.to/lastmile_qr_scan"}, "fusion_lat": 0.0, "fusion_lon": 0.0, "bike_id": "016cfa0b4ad175056b0a2fb49d3c07e6", "name": "016cfa0b4ad175056b0a2fb49d3c07e6"}, {"lon": -77.05621483333333, "is_reserved": 0, "is_disabled": 0, "type": "electric_bike", "lat": 38.857283, "rental_uris": {"ios": "https://dc.lft.to/lastmile_qr_scan", "android": "https://dc.lft.to/lastmile_qr_scan"}, "fusion_lat": 0.0, "fusion_lon": 0.0, "bike_id": "5fa05d0660e334a2bc90bfc06308b701", "name": "5fa05d0660e334a2bc90bfc06308b701"}, {"lon": -77.040198, "is_reserved": 0, "is_disabled": 0, "type": "electric_scooter", "lat": 38.903777, "rental_uris": {"ios": "https://dc.lft.to/lastmile_qr_scan", "android": "https://dc.lft.to/lastmile_qr_scan"}, "fusion_lat": 0.0, "fusion_lon": 0.0, "bike_id": "97cd7217565e673276934621203f966f", "name": "97cd7217565e673276934621203f966f"}, {"lon": -77.01303533333333, "is_reserved": 0, "is_disabled": 0, "type": "electric_bike", "lat": 38.8814565, "rental_uris": {"ios": "https://dc.lft.to/lastmile_qr_scan", "android": "https://dc.lft.to/lastmile_qr_scan"}, "fusion_lat": 0.0, "fusion_lon": 0.0, "bike_id": "49c7c2f8a23c7820dd7547ac00f7ffdb", "name": "49c7c2f8a23c7820dd7547ac00f7ffdb"}, {"lon": -76.99481266666666, "is_reserved": 0, "is_disabled": 0, "type": "electric_scooter", "lat": 38.86217933333333, "rental_uris": {"ios": "https://dc.lft.to/lastmile_qr_scan", "android": "https://dc.lft.to/lastmile_qr_scan"}, "fusion_lat": 0.0, "fusion_lon": 0.0, "bike_id": "c4012e8ff726f70d9d2ae9d4bdaafb75", "name": "c4012e8ff726f70d9d2ae9d4bdaafb75"}, {"lon": -77.04030816666666, "is_reserved": 0, "is_disabled": 0, "type": "electric_scooter", "lat": 38.89884833333333, "rental_uris": {"ios": "https://dc.lft.to/lastmile_qr_scan", "android": "https://dc.lft.to/lastmile_qr_scan"}, "fusion_lat": 0.0, "fusion_lon": 0.0, "bike_id": "6ab790667dfb8990936ba9d4913c2a5d", "name": "6ab790667dfb8990936ba9d4913c2a5d"}, {"lon": -77.03208083333334, "is_reserved": 0, "is_disabled": 0, "type": "electric_scooter", "lat": 38.92064666666667, "rental_uris": {"ios": "https://dc.lft.to/lastmile_qr_scan", "android": "https://dc.lft.to/lastmile_qr_scan"}, "fusion_lat": 0.0, "fusion_lon": 0.0, "bike_id": "a1e478cc3b3a6e0c0792af53e0357ceb", "name": "a1e478cc3b3a6e0c0792af53e0357ceb"}, {"lon": -77.024816, "is_reserved": 0, "is_disabled": 0, "type": "electric_scooter", "lat": 38.916122333333334, "rental_uris": {"ios": "https://dc.lft.to/lastmile_qr_scan", "android": "https://dc.lft.to/lastmile_qr_scan"}, "fusion_lat": 0.0, "fusion_lon": 0.0, "bike_id": "c70045616d7f8dd7c8786da2384158da", "name": "c70045616d7f8dd7c8786da2384158da"}, {"lon": -77.04682833333334, "is_reserved": 0, "is_disabled": 0, "type": "electric_scooter", "lat": 38.9051055, "rental_uris": {"ios": "https://dc.lft.to/lastmile_qr_scan", "android": "https://dc.lft.to/lastmile_qr_scan"}, "fusion_lat": 0.0, "fusion_lon": 0.0, "bike_id": "01cbe47c0b4cdbd34d691e396ba87f4f", "name": "01cbe47c0b4cdbd34d691e396ba87f4f"}, {"lon": -77.079953, "is_reserved": 0, "is_disabled": 0, "type": "electric_scooter", "lat": 38.923719, "rental_uris": {"ios": "https://dc.lft.to/lastmile_qr_scan", "android": "https://dc.lft.to/lastmile_qr_scan"}, "fusion_lat": 0.0, "fusion_lon": 0.0, "bike_id": "996a57bad796000369644c93cb233d59", "name": "996a57bad796000369644c93cb233d59"}, {"lon": -76.973315, "is_reserved": 0, "is_disabled": 0, "type": "electric_bike", "lat": 38.850621, "rental_uris": {"ios": "https://dc.lft.to/lastmile_qr_scan", "android": "https://dc.lft.to/lastmile_qr_scan"}, "fusion_lat": 0.0, "fusion_lon": 0.0, "bike_id": "9e5b2a8c1c71370ed7e0af59edb73b97", "name": "9e5b2a8c1c71370ed7e0af59edb73b97"}, {"lon": -77.03971266666667, "is_reserved": 0, "is_disabled": 0, "type": "electric_scooter", "lat": 38.906276166666665, "rental_uris": {"ios": "https://dc.lft.to/lastmile_qr_scan", "android": "https://dc.lft.to/lastmile_qr_scan"}, "fusion_lat": 0.0, "fusion_lon": 0.0, "bike_id": "48891a328f0812f89a7753332e274261", "name": "48891a328f0812f89a7753332e274261"}, {"lon": -77.024441, "is_reserved": 0, "is_disabled": 0, "type": "electric_scooter", "lat": 38.923713, "rental_uris": {"ios": "https://dc.lft.to/lastmile_qr_scan", "android": "https://dc.lft.to/lastmile_qr_scan"}, "fusion_lat": 0.0, "fusion_lon": 0.0, "bike_id": "192e3f9630db0f89fc217f26663eacc4", "name": "192e3f9630db0f89fc217f26663eacc4"}, {"lon": -77.00868766666666, "is_reserved": 0, "is_disabled": 0, "type": "electric_scooter", "lat": 38.906521, "rental_uris": {"ios": "https://dc.lft.to/lastmile_qr_scan", "android": "https://dc.lft.to/lastmile_qr_scan"}, "fusion_lat": 0.0, "fusion_lon": 0.0, "bike_id": "7689952d9e313e0927e9d36d84566faa", "name": "7689952d9e313e0927e9d36d84566faa"}, {"lon": -77.050915, "is_reserved": 0, "is_disabled": 0, "type": "electric_scooter", "lat": 38.923441333333336, "rental_uris": {"ios": "https://dc.lft.to/lastmile_qr_scan", "android": "https://dc.lft.to/lastmile_qr_scan"}, "fusion_lat": 0.0, "fusion_lon": 0.0, "bike_id": "126e93290084cdfa308815f9027737f3", "name": "126e93290084cdfa308815f9027737f3"}, {"lon": -77.04685883333333, "is_reserved": 0, "is_disabled": 0, "type": "electric_scooter", "lat": 38.903502833333334, "rental_uris": {"ios": "https://dc.lft.to/lastmile_qr_scan", "android": "https://dc.lft.to/lastmile_qr_scan"}, "fusion_lat": 0.0, "fusion_lon": 0.0, "bike_id": "cdc29d2f1f1e476c84ba4e6f502fb423", "name": "cdc29d2f1f1e476c84ba4e6f502fb423"}, {"lon": -77.03334066666666, "is_reserved": 0, "is_disabled": 0, "type": "electric_scooter", "lat": 38.919144, "rental_uris": {"ios": "https://dc.lft.to/lastmile_qr_scan", "android": "https://dc.lft.to/lastmile_qr_scan"}, "fusion_lat": 0.0, "fusion_lon": 0.0, "bike_id": "37156acb31d743e74a332f9ca8f5f15c", "name": "37156acb31d743e74a332f9ca8f5f15c"}, {"lon": -77.03334616666666, "is_reserved": 0, "is_disabled": 0, "type": "electric_scooter", "lat": 38.919126166666665, "rental_uris": {"ios": "https://dc.lft.to/lastmile_qr_scan", "android": "https://dc.lft.to/lastmile_qr_scan"}, "fusion_lat": 0.0, "fusion_lon": 0.0, "bike_id": "ef60a6019fc982f10bf078dd315368e3", "name": "ef60a6019fc982f10bf078dd315368e3"}, {"lon": -77.02170166666667, "is_reserved": 0, "is_disabled": 0, "type": "electric_scooter", "lat": 38.887449833333335, "rental_uris": {"ios": "https://dc.lft.to/lastmile_qr_scan", "android": "https://dc.lft.to/lastmile_qr_scan"}, "fusion_lat": 0.0, "fusion_lon": 0.0, "bike_id": "c636da3874c9c258ac3ef4e3591fa420", "name": "c636da3874c9c258ac3ef4e3591fa420"}, {"lon": -77.02224766666667, "is_reserved": 0, "is_disabled": 0, "type": "electric_scooter", "lat": 38.9127015, "rental_uris": {"ios": "https://dc.lft.to/lastmile_qr_scan", "android": "https://dc.lft.to/lastmile_qr_scan"}, "fusion_lat": 0.0, "fusion_lon": 0.0, "bike_id": "c814770fea9f91f63f47c4001fb2cce5", "name": "c814770fea9f91f63f47c4001fb2cce5"}, {"lon": -77.00348816666667, "is_reserved": 0, "is_disabled": 0, "type": "electric_scooter", "lat": 38.893566666666665, "rental_uris": {"ios": "https://dc.lft.to/lastmile_qr_scan", "android": "https://dc.lft.to/lastmile_qr_scan"}, "fusion_lat": 0.0, "fusion_lon": 0.0, "bike_id": "427aa27b7208feabf3b2f6c2137f0ead", "name": "427aa27b7208feabf3b2f6c2137f0ead"}, {"lon": -76.983715, "is_reserved": 0, "is_disabled": 0, "type": "electric_scooter", "lat": 38.90642166666667, "rental_uris": {"ios": "https://dc.lft.to/lastmile_qr_scan", "android": "https://dc.lft.to/lastmile_qr_scan"}, "fusion_lat": 0.0, "fusion_lon": 0.0, "bike_id": "44796d60f78688e592a75b05fa708460", "name": "44796d60f78688e592a75b05fa708460"}, {"lon": -77.10178616666667, "is_reserved": 0, "is_disabled": 0, "type": "electric_bike", "lat": 38.9180985, "rental_uris": {"ios": "https://dc.lft.to/lastmile_qr_scan", "android": "https://dc.lft.to/lastmile_qr_scan"}, "fusion_lat": 0.0, "fusion_lon": 0.0, "bike_id": "ac7fe4303bc8d4de6fa7240a9e7cbd1e", "name": "ac7fe4303bc8d4de6fa7240a9e7cbd1e"}, {"lon": -76.9811815, "is_reserved": 0, "is_disabled": 0, "type": "electric_bike", "lat": 38.89670133333333, "rental_uris": {"ios": "https://dc.lft.to/lastmile_qr_scan", "android": "https://dc.lft.to/lastmile_qr_scan"}, "fusion_lat": 0.0, "fusion_lon": 0.0, "bike_id": "a83cea074c31010e22e2f0ab48e82085", "name": "a83cea074c31010e22e2f0ab48e82085"}, {"lon": -77.025945, "is_reserved": 0, "is_disabled": 0, "type": "electric_scooter", "lat": 38.91276766666667, "rental_uris": {"ios": "https://dc.lft.to/lastmile_qr_scan", "android": "https://dc.lft.to/lastmile_qr_scan"}, "fusion_lat": 0.0, "fusion_lon": 0.0, "bike_id": "decad642b57565692280f1f7413e4179", "name": "decad642b57565692280f1f7413e4179"}, {"lon": -77.03494333333333, "is_reserved": 0, "is_disabled": 0, "type": "electric_scooter", "lat": 38.9327415, "rental_uris": {"ios": "https://dc.lft.to/lastmile_qr_scan", "android": "https://dc.lft.to/lastmile_qr_scan"}, "fusion_lat": 0.0, "fusion_lon": 0.0, "bike_id": "74135ef96bcaa525d53cf54339f40f6c", "name": "74135ef96bcaa525d53cf54339f40f6c"}, {"lon": -77.06816283333333, "is_reserved": 0, "is_disabled": 0, "type": "electric_scooter", "lat": 38.944727, "rental_uris": {"ios": "https://dc.lft.to/lastmile_qr_scan", "android": "https://dc.lft.to/lastmile_qr_scan"}, "fusion_lat": 0.0, "fusion_lon": 0.0, "bike_id": "ffa03dd75560f64ac40e4bc9649c29f7", "name": "ffa03dd75560f64ac40e4bc9649c29f7"}, {"lon": -77.02158983333334, "is_reserved": 0, "is_disabled": 0, "type": "electric_scooter", "lat": 38.926052, "rental_uris": {"ios": "https://dc.lft.to/lastmile_qr_scan", "android": "https://dc.lft.to/lastmile_qr_scan"}, "fusion_lat": 0.0, "fusion_lon": 0.0, "bike_id": "c190b964668b14363768392d55917957", "name": "c190b964668b14363768392d55917957"}, {"lon": -77.02796233333333, "is_reserved": 0, "is_disabled": 0, "type": "electric_scooter", "lat": 38.930820833333335, "rental_uris": {"ios": "https://dc.lft.to/lastmile_qr_scan", "android": "https://dc.lft.to/lastmile_qr_scan"}, "fusion_lat": 0.0, "fusion_lon": 0.0, "bike_id": "69e08087a382fea9a812d1758fb38748", "name": "69e08087a382fea9a812d1758fb38748"}, {"lon": -77.05239416666667, "is_reserved": 0, "is_disabled": 0, "type": "electric_scooter", "lat": 38.9246625, "rental_uris": {"ios": "https://dc.lft.to/lastmile_qr_scan", "android": "https://dc.lft.to/lastmile_qr_scan"}, "fusion_lat": 0.0, "fusion_lon": 0.0, "bike_id": "b16ca4c0d3eb7c965e107fb74d4db067", "name": "b16ca4c0d3eb7c965e107fb74d4db067"}, {"lon": -76.9833165, "is_reserved": 0, "is_disabled": 0, "type": "electric_bike", "lat": 38.9660905, "rental_uris": {"ios": "https://dc.lft.to/lastmile_qr_scan", "android": "https://dc.lft.to/lastmile_qr_scan"}, "fusion_lat": 0.0, "fusion_lon": 0.0, "bike_id": "0419b8159ab6de806b46d7d7079a42b1", "name": "0419b8159ab6de806b46d7d7079a42b1"}, {"lon": -77.039844, "is_reserved": 0, "is_disabled": 0, "type": "electric_scooter", "lat": 38.90578466666667, "rental_uris": {"ios": "https://dc.lft.to/lastmile_qr_scan", "android": "https://dc.lft.to/lastmile_qr_scan"}, "fusion_lat": 0.0, "fusion_lon": 0.0, "bike_id": "2b8fed2b17555a15e458e122933deab6", "name": "2b8fed2b17555a15e458e122933deab6"}, {"lon": -77.11216033333334, "is_reserved": 0, "is_disabled": 0, "type": "electric_bike", "lat": 38.812182166666666, "rental_uris": {"ios": "https://dc.lft.to/lastmile_qr_scan", "android": "https://dc.lft.to/lastmile_qr_scan"}, "fusion_lat": 0.0, "fusion_lon": 0.0, "bike_id": "7becefc4efc429669d58e0ad05ba3fd8", "name": "7becefc4efc429669d58e0ad05ba3fd8"}, {"lon": -76.93728633333333, "is_reserved": 0, "is_disabled": 0, "type": "electric_scooter", "lat": 38.8910355, "rental_uris": {"ios": "https://dc.lft.to/lastmile_qr_scan", "android": "https://dc.lft.to/lastmile_qr_scan"}, "fusion_lat": 0.0, "fusion_lon": 0.0, "bike_id": "7759aa200e9d94a6b79c6a1990ff8aca", "name": "7759aa200e9d94a6b79c6a1990ff8aca"}, {"lon": -76.99615583333333, "is_reserved": 0, "is_disabled": 0, "type": "electric_scooter", "lat": 38.886183333333335, "rental_uris": {"ios": "https://dc.lft.to/lastmile_qr_scan", "android": "https://dc.lft.to/lastmile_qr_scan"}, "fusion_lat": 0.0, "fusion_lon": 0.0, "bike_id": "2e8e0d9bcf27950e1ea80433a66cbd96", "name": "2e8e0d9bcf27950e1ea80433a66cbd96"}, {"lon": -77.03219033333333, "is_reserved": 0, "is_disabled": 0, "type": "electric_scooter", "lat": 38.91639416666666, "rental_uris": {"ios": "https://dc.lft.to/lastmile_qr_scan", "android": "https://dc.lft.to/lastmile_qr_scan"}, "fusion_lat": 0.0, "fusion_lon": 0.0, "bike_id": "1337cabccd724f9ff5eb72113ad38f5c", "name": "1337cabccd724f9ff5eb72113ad38f5c"}, {"lon": -77.037098, "is_reserved": 0, "is_disabled": 0, "type": "electric_scooter", "lat": 38.92643916666667, "rental_uris": {"ios": "https://dc.lft.to/lastmile_qr_scan", "android": "https://dc.lft.to/lastmile_qr_scan"}, "fusion_lat": 0.0, "fusion_lon": 0.0, "bike_id": "0698d199b1136afed30417eefd4f8ebe", "name": "0698d199b1136afed30417eefd4f8ebe"}, {"lon": -77.08530833333333, "is_reserved": 0, "is_disabled": 0, "type": "electric_bike", "lat": 38.856472333333336, "rental_uris": {"ios": "https://dc.lft.to/lastmile_qr_scan", "android": "https://dc.lft.to/lastmile_qr_scan"}, "fusion_lat": 0.0, "fusion_lon": 0.0, "bike_id": "7012f3fa46d1903a1e71da0c83e57a01", "name": "7012f3fa46d1903a1e71da0c83e57a01"}, {"lon": -77.01107133333333, "is_reserved": 0, "is_disabled": 0, "type": "electric_scooter", "lat": 38.903442, "rental_uris": {"ios": "https://dc.lft.to/lastmile_qr_scan", "android": "https://dc.lft.to/lastmile_qr_scan"}, "fusion_lat": 0.0, "fusion_lon": 0.0, "bike_id": "7b8c99b80288739cd86d458037c7d852", "name": "7b8c99b80288739cd86d458037c7d852"}, {"lon": -77.0175835, "is_reserved": 0, "is_disabled": 0, "type": "electric_scooter", "lat": 38.877196, "rental_uris": {"ios": "https://dc.lft.to/lastmile_qr_scan", "android": "https://dc.lft.to/lastmile_qr_scan"}, "fusion_lat": 0.0, "fusion_lon": 0.0, "bike_id": "4054219d94bbcc7abb071a2832dbdafb", "name": "4054219d94bbcc7abb071a2832dbdafb"}, {"lon": -77.04837216666667, "is_reserved": 0, "is_disabled": 0, "type": "electric_scooter", "lat": 38.913361333333334, "rental_uris": {"ios": "https://dc.lft.to/lastmile_qr_scan", "android": "https://dc.lft.to/lastmile_qr_scan"}, "fusion_lat": 0.0, "fusion_lon": 0.0, "bike_id": "c9863c28a1e11ac830c77404d76989a8", "name": "c9863c28a1e11ac830c77404d76989a8"}, {"lon": -77.00336783333333, "is_reserved": 0, "is_disabled": 0, "type": "electric_scooter", "lat": 38.89356383333333, "rental_uris": {"ios": "https://dc.lft.to/lastmile_qr_scan", "android": "https://dc.lft.to/lastmile_qr_scan"}, "fusion_lat": 0.0, "fusion_lon": 0.0, "bike_id": "5b2415b89c4ab5406c4d6346b5c67306", "name": "5b2415b89c4ab5406c4d6346b5c67306"}, {"lon": -77.03183483333333, "is_reserved": 0, "is_disabled": 0, "type": "electric_scooter", "lat": 38.907707333333335, "rental_uris": {"ios": "https://dc.lft.to/lastmile_qr_scan", "android": "https://dc.lft.to/lastmile_qr_scan"}, "fusion_lat": 0.0, "fusion_lon": 0.0, "bike_id": "34a4acc1f3726e5c1c820e49c08fd03d", "name": "34a4acc1f3726e5c1c820e49c08fd03d"}, {"lon": -76.94841516666666, "is_reserved": 0, "is_disabled": 0, "type": "electric_scooter", "lat": 38.894837, "rental_uris": {"ios": "https://dc.lft.to/lastmile_qr_scan", "android": "https://dc.lft.to/lastmile_qr_scan"}, "fusion_lat": 0.0, "fusion_lon": 0.0, "bike_id": "40c68b1e03839415821ee2db874e4087", "name": "40c68b1e03839415821ee2db874e4087"}, {"lon": -77.00597116666667, "is_reserved": 0, "is_disabled": 0, "type": "electric_scooter", "lat": 38.87734433333333, "rental_uris": {"ios": "https://dc.lft.to/lastmile_qr_scan", "android": "https://dc.lft.to/lastmile_qr_scan"}, "fusion_lat": 0.0, "fusion_lon": 0.0, "bike_id": "4f3f5588198008b7c61b1339f669d654", "name": "4f3f5588198008b7c61b1339f669d654"}, {"lon": -77.01588116666667, "is_reserved": 0, "is_disabled": 0, "type": "electric_scooter", "lat": 38.897328, "rental_uris": {"ios": "https://dc.lft.to/lastmile_qr_scan", "android": "https://dc.lft.to/lastmile_qr_scan"}, "fusion_lat": 0.0, "fusion_lon": 0.0, "bike_id": "c54ea7f7b6c015cef7e4fc29cb888be5", "name": "c54ea7f7b6c015cef7e4fc29cb888be5"}, {"lon": -77.00484233333333, "is_reserved": 0, "is_disabled": 0, "type": "electric_scooter", "lat": 38.9259125, "rental_uris": {"ios": "https://dc.lft.to/lastmile_qr_scan", "android": "https://dc.lft.to/lastmile_qr_scan"}, "fusion_lat": 0.0, "fusion_lon": 0.0, "bike_id": "4e4bc5fd06a4c0e3b59159ca7ae3f937", "name": "4e4bc5fd06a4c0e3b59159ca7ae3f937"}, {"lon": -76.93161333333333, "is_reserved": 0, "is_disabled": 0, "type": "electric_scooter", "lat": 38.898778166666666, "rental_uris": {"ios": "https://dc.lft.to/lastmile_qr_scan", "android": "https://dc.lft.to/lastmile_qr_scan"}, "fusion_lat": 0.0, "fusion_lon": 0.0, "bike_id": "d3c7a85ae573da7e55a83d1c0a16b570", "name": "d3c7a85ae573da7e55a83d1c0a16b570"}, {"lon": -76.94120516666666, "is_reserved": 0, "is_disabled": 0, "type": "electric_scooter", "lat": 38.90792616666667, "rental_uris": {"ios": "https://dc.lft.to/lastmile_qr_scan", "android": "https://dc.lft.to/lastmile_qr_scan"}, "fusion_lat": 0.0, "fusion_lon": 0.0, "bike_id": "0edc994c7025851c647117d47ff981fe", "name": "0edc994c7025851c647117d47ff981fe"}, {"lon": -77.0616635, "is_reserved": 0, "is_disabled": 0, "type": "electric_scooter", "lat": 38.942277, "rental_uris": {"ios": "https://dc.lft.to/lastmile_qr_scan", "android": "https://dc.lft.to/lastmile_qr_scan"}, "fusion_lat": 0.0, "fusion_lon": 0.0, "bike_id": "12f2d35d8bc1859890fa3cd5b1be04c9", "name": "12f2d35d8bc1859890fa3cd5b1be04c9"}, {"lon": -77.02425, "is_reserved": 0, "is_disabled": 0, "type": "electric_scooter", "lat": 38.905609166666665, "rental_uris": {"ios": "https://dc.lft.to/lastmile_qr_scan", "android": "https://dc.lft.to/lastmile_qr_scan"}, "fusion_lat": 0.0, "fusion_lon": 0.0, "bike_id": "609a6055802f30bf16578a28f1fa3efe", "name": "609a6055802f30bf16578a28f1fa3efe"}, {"lon": -77.02720016666666, "is_reserved": 0, "is_disabled": 0, "type": "electric_scooter", "lat": 38.906675, "rental_uris": {"ios": "https://dc.lft.to/lastmile_qr_scan", "android": "https://dc.lft.to/lastmile_qr_scan"}, "fusion_lat": 0.0, "fusion_lon": 0.0, "bike_id": "2c1d313dd79cc3a4c9dd886c90e017e3", "name": "2c1d313dd79cc3a4c9dd886c90e017e3"}, {"lon": -77.03823666666666, "is_reserved": 0, "is_disabled": 0, "type": "electric_scooter", "lat": 38.90776566666667, "rental_uris": {"ios": "https://dc.lft.to/lastmile_qr_scan", "android": "https://dc.lft.to/lastmile_qr_scan"}, "fusion_lat": 0.0, "fusion_lon": 0.0, "bike_id": "f2e7082c1a53f0e6aef33f712f12a9a7", "name": "f2e7082c1a53f0e6aef33f712f12a9a7"}, {"lon": -76.98681066666667, "is_reserved": 0, "is_disabled": 0, "type": "electric_scooter", "lat": 38.855636, "rental_uris": {"ios": "https://dc.lft.to/lastmile_qr_scan", "android": "https://dc.lft.to/lastmile_qr_scan"}, "fusion_lat": 0.0, "fusion_lon": 0.0, "bike_id": "9a0cb645eee65f02caee10863c4f09d4", "name": "9a0cb645eee65f02caee10863c4f09d4"}, {"lon": -77.02771633333333, "is_reserved": 0, "is_disabled": 0, "type": "electric_scooter", "lat": 38.92981, "rental_uris": {"ios": "https://dc.lft.to/lastmile_qr_scan", "android": "https://dc.lft.to/lastmile_qr_scan"}, "fusion_lat": 0.0, "fusion_lon": 0.0, "bike_id": "64952c1b8b2dbac55ee507887211d298", "name": "64952c1b8b2dbac55ee507887211d298"}, {"lon": -77.02417883333334, "is_reserved": 0, "is_disabled": 0, "type": "electric_scooter", "lat": 38.89229516666666, "rental_uris": {"ios": "https://dc.lft.to/lastmile_qr_scan", "android": "https://dc.lft.to/lastmile_qr_scan"}, "fusion_lat": 0.0, "fusion_lon": 0.0, "bike_id": "d2abb969d911324b9e5d60e660660181", "name": "d2abb969d911324b9e5d60e660660181"}, {"lon": -77.01547633333334, "is_reserved": 0, "is_disabled": 0, "type": "electric_scooter", "lat": 38.88482, "rental_uris": {"ios": "https://dc.lft.to/lastmile_qr_scan", "android": "https://dc.lft.to/lastmile_qr_scan"}, "fusion_lat": 0.0, "fusion_lon": 0.0, "bike_id": "9be7f72139cd279933fdc83cfd8f85b1", "name": "9be7f72139cd279933fdc83cfd8f85b1"}, {"lon": -76.98772716666667, "is_reserved": 0, "is_disabled": 0, "type": "electric_scooter", "lat": 38.911989, "rental_uris": {"ios": "https://dc.lft.to/lastmile_qr_scan", "android": "https://dc.lft.to/lastmile_qr_scan"}, "fusion_lat": 0.0, "fusion_lon": 0.0, "bike_id": "2d15beb1c7aaa16fd2295c6e29298444", "name": "2d15beb1c7aaa16fd2295c6e29298444"}, {"lon": -77.0075275, "is_reserved": 0, "is_disabled": 0, "type": "electric_scooter", "lat": 38.90043083333333, "rental_uris": {"ios": "https://dc.lft.to/lastmile_qr_scan", "android": "https://dc.lft.to/lastmile_qr_scan"}, "fusion_lat": 0.0, "fusion_lon": 0.0, "bike_id": "0a1c82f11a15cbc89d959a20ccf1037b", "name": "0a1c82f11a15cbc89d959a20ccf1037b"}, {"lon": -76.988834, "is_reserved": 0, "is_disabled": 0, "type": "electric_scooter", "lat": 38.90209566666667, "rental_uris": {"ios": "https://dc.lft.to/lastmile_qr_scan", "android": "https://dc.lft.to/lastmile_qr_scan"}, "fusion_lat": 0.0, "fusion_lon": 0.0, "bike_id": "8c1cd748be5f75791c38c530ff01bb52", "name": "8c1cd748be5f75791c38c530ff01bb52"}, {"lon": -77.05265, "is_reserved": 0, "is_disabled": 0, "type": "electric_scooter", "lat": 38.92563633333333, "rental_uris": {"ios": "https://dc.lft.to/lastmile_qr_scan", "android": "https://dc.lft.to/lastmile_qr_scan"}, "fusion_lat": 0.0, "fusion_lon": 0.0, "bike_id": "9952885ab12dfb59a33cecd8d392c1fc", "name": "9952885ab12dfb59a33cecd8d392c1fc"}, {"lon": -77.03438066666666, "is_reserved": 0, "is_disabled": 0, "type": "electric_scooter", "lat": 38.91008883333333, "rental_uris": {"ios": "https://dc.lft.to/lastmile_qr_scan", "android": "https://dc.lft.to/lastmile_qr_scan"}, "fusion_lat": 0.0, "fusion_lon": 0.0, "bike_id": "05f0e48d24a0814e1bad61821c037e60", "name": "05f0e48d24a0814e1bad61821c037e60"}, {"lon": -77.01557066666666, "is_reserved": 0, "is_disabled": 0, "type": "electric_scooter", "lat": 38.872567833333335, "rental_uris": {"ios": "https://dc.lft.to/lastmile_qr_scan", "android": "https://dc.lft.to/lastmile_qr_scan"}, "fusion_lat": 0.0, "fusion_lon": 0.0, "bike_id": "955f28f224589f681d6b0a2e7e99cfb9", "name": "955f28f224589f681d6b0a2e7e99cfb9"}, {"lon": -76.99492183333334, "is_reserved": 0, "is_disabled": 0, "type": "electric_scooter", "lat": 38.925792333333334, "rental_uris": {"ios": "https://dc.lft.to/lastmile_qr_scan", "android": "https://dc.lft.to/lastmile_qr_scan"}, "fusion_lat": 0.0, "fusion_lon": 0.0, "bike_id": "70ff28797a63e56edce36899dbae69e1", "name": "70ff28797a63e56edce36899dbae69e1"}, {"lon": -76.98935266666666, "is_reserved": 0, "is_disabled": 0, "type": "electric_scooter", "lat": 38.865889833333334, "rental_uris": {"ios": "https://dc.lft.to/lastmile_qr_scan", "android": "https://dc.lft.to/lastmile_qr_scan"}, "fusion_lat": 0.0, "fusion_lon": 0.0, "bike_id": "340f76d65003abc8e8b648121f339cca", "name": "340f76d65003abc8e8b648121f339cca"}, {"lon": -77.043592, "is_reserved": 0, "is_disabled": 0, "type": "electric_scooter", "lat": 38.92111033333333, "rental_uris": {"ios": "https://dc.lft.to/lastmile_qr_scan", "android": "https://dc.lft.to/lastmile_qr_scan"}, "fusion_lat": 0.0, "fusion_lon": 0.0, "bike_id": "027e3481b8299ce23082b2e62fd505b4", "name": "027e3481b8299ce23082b2e62fd505b4"}, {"lon": -77.0391155, "is_reserved": 0, "is_disabled": 0, "type": "electric_scooter", "lat": 38.9127145, "rental_uris": {"ios": "https://dc.lft.to/lastmile_qr_scan", "android": "https://dc.lft.to/lastmile_qr_scan"}, "fusion_lat": 0.0, "fusion_lon": 0.0, "bike_id": "77183e980e04caffeb119a9e9bb44e85", "name": "77183e980e04caffeb119a9e9bb44e85"}, {"lon": -77.03277516666667, "is_reserved": 0, "is_disabled": 0, "type": "electric_scooter", "lat": 38.9303305, "rental_uris": {"ios": "https://dc.lft.to/lastmile_qr_scan", "android": "https://dc.lft.to/lastmile_qr_scan"}, "fusion_lat": 0.0, "fusion_lon": 0.0, "bike_id": "d7c2415aa496fd7221de9b5abe6e09c6", "name": "d7c2415aa496fd7221de9b5abe6e09c6"}, {"lon": -76.97557233333333, "is_reserved": 0, "is_disabled": 0, "type": "electric_scooter", "lat": 38.902607333333336, "rental_uris": {"ios": "https://dc.lft.to/lastmile_qr_scan", "android": "https://dc.lft.to/lastmile_qr_scan"}, "fusion_lat": 0.0, "fusion_lon": 0.0, "bike_id": "f93bbfa156de5b7e0906f774441a103e", "name": "f93bbfa156de5b7e0906f774441a103e"}, {"lon": -77.03986066666667, "is_reserved": 0, "is_disabled": 0, "type": "electric_bike", "lat": 38.80297866666667, "rental_uris": {"ios": "https://dc.lft.to/lastmile_qr_scan", "android": "https://dc.lft.to/lastmile_qr_scan"}, "fusion_lat": 0.0, "fusion_lon": 0.0, "bike_id": "6f2a1f9235a1a685f8c97dabeb0aea97", "name": "6f2a1f9235a1a685f8c97dabeb0aea97"}, {"lon": -77.039584, "is_reserved": 0, "is_disabled": 0, "type": "electric_scooter", "lat": 38.902780666666665, "rental_uris": {"ios": "https://dc.lft.to/lastmile_qr_scan", "android": "https://dc.lft.to/lastmile_qr_scan"}, "fusion_lat": 0.0, "fusion_lon": 0.0, "bike_id": "de3499e9c1274e96c625ac20abcdde46", "name": "de3499e9c1274e96c625ac20abcdde46"}, {"lon": -77.00211983333334, "is_reserved": 0, "is_disabled": 0, "type": "electric_scooter", "lat": 38.90527316666667, "rental_uris": {"ios": "https://dc.lft.to/lastmile_qr_scan", "android": "https://dc.lft.to/lastmile_qr_scan"}, "fusion_lat": 0.0, "fusion_lon": 0.0, "bike_id": "9425c55c9fcc65603279299e8b858ab2", "name": "9425c55c9fcc65603279299e8b858ab2"}, {"lon": -77.01748283333333, "is_reserved": 0, "is_disabled": 0, "type": "electric_scooter", "lat": 38.87664183333333, "rental_uris": {"ios": "https://dc.lft.to/lastmile_qr_scan", "android": "https://dc.lft.to/lastmile_qr_scan"}, "fusion_lat": 0.0, "fusion_lon": 0.0, "bike_id": "fd0940a1379a755110218273bafeb818", "name": "fd0940a1379a755110218273bafeb818"}, {"lon": -77.04346633333333, "is_reserved": 0, "is_disabled": 0, "type": "electric_scooter", "lat": 38.907145666666665, "rental_uris": {"ios": "https://dc.lft.to/lastmile_qr_scan", "android": "https://dc.lft.to/lastmile_qr_scan"}, "fusion_lat": 0.0, "fusion_lon": 0.0, "bike_id": "68f23d2f2048704542539e6abe05c1b3", "name": "68f23d2f2048704542539e6abe05c1b3"}, {"lon": -77.033197, "is_reserved": 0, "is_disabled": 0, "type": "electric_scooter", "lat": 38.91626766666667, "rental_uris": {"ios": "https://dc.lft.to/lastmile_qr_scan", "android": "https://dc.lft.to/lastmile_qr_scan"}, "fusion_lat": 0.0, "fusion_lon": 0.0, "bike_id": "62bb11ec0f5d3744abfc40b4bd61c309", "name": "62bb11ec0f5d3744abfc40b4bd61c309"}, {"lon": -77.03141766666667, "is_reserved": 0, "is_disabled": 0, "type": "electric_scooter", "lat": 38.8973215, "rental_uris": {"ios": "https://dc.lft.to/lastmile_qr_scan", "android": "https://dc.lft.to/lastmile_qr_scan"}, "fusion_lat": 0.0, "fusion_lon": 0.0, "bike_id": "146409ba44003582326da486bfec374d", "name": "146409ba44003582326da486bfec374d"}, {"lon": -77.04560716666667, "is_reserved": 0, "is_disabled": 0, "type": "electric_scooter", "lat": 38.90751083333333, "rental_uris": {"ios": "https://dc.lft.to/lastmile_qr_scan", "android": "https://dc.lft.to/lastmile_qr_scan"}, "fusion_lat": 0.0, "fusion_lon": 0.0, "bike_id": "c7f4c900591b1853516281ff1d57c665", "name": "c7f4c900591b1853516281ff1d57c665"}, {"lon": -77.03853283333333, "is_reserved": 0, "is_disabled": 0, "type": "electric_scooter", "lat": 38.909442, "rental_uris": {"ios": "https://dc.lft.to/lastmile_qr_scan", "android": "https://dc.lft.to/lastmile_qr_scan"}, "fusion_lat": 0.0, "fusion_lon": 0.0, "bike_id": "32ebf7de67ba71694f966d01e2203c89", "name": "32ebf7de67ba71694f966d01e2203c89"}, {"lon": -77.00710216666667, "is_reserved": 0, "is_disabled": 0, "type": "electric_scooter", "lat": 38.876852, "rental_uris": {"ios": "https://dc.lft.to/lastmile_qr_scan", "android": "https://dc.lft.to/lastmile_qr_scan"}, "fusion_lat": 0.0, "fusion_lon": 0.0, "bike_id": "c9c14880a855c2c7054e00bbc7a79c80", "name": "c9c14880a855c2c7054e00bbc7a79c80"}, {"lon": -76.9906595, "is_reserved": 0, "is_disabled": 0, "type": "electric_scooter", "lat": 38.8636775, "rental_uris": {"ios": "https://dc.lft.to/lastmile_qr_scan", "android": "https://dc.lft.to/lastmile_qr_scan"}, "fusion_lat": 0.0, "fusion_lon": 0.0, "bike_id": "61fabc30374c7f46b3dad65ffd4f5eb2", "name": "61fabc30374c7f46b3dad65ffd4f5eb2"}, {"lon": -77.02753283333334, "is_reserved": 0, "is_disabled": 0, "type": "electric_scooter", "lat": 38.93201583333333, "rental_uris": {"ios": "https://dc.lft.to/lastmile_qr_scan", "android": "https://dc.lft.to/lastmile_qr_scan"}, "fusion_lat": 0.0, "fusion_lon": 0.0, "bike_id": "2613af020dd6612a3c9cee4e88669ef0", "name": "2613af020dd6612a3c9cee4e88669ef0"}, {"lon": -77.03749683333334, "is_reserved": 0, "is_disabled": 0, "type": "electric_scooter", "lat": 38.90563066666667, "rental_uris": {"ios": "https://dc.lft.to/lastmile_qr_scan", "android": "https://dc.lft.to/lastmile_qr_scan"}, "fusion_lat": 0.0, "fusion_lon": 0.0, "bike_id": "32e1a4b261e64313c6fd68412fa26053", "name": "32e1a4b261e64313c6fd68412fa26053"}, {"lon": -77.0603755, "is_reserved": 0, "is_disabled": 0, "type": "electric_scooter", "lat": 38.939107166666666, "rental_uris": {"ios": "https://dc.lft.to/lastmile_qr_scan", "android": "https://dc.lft.to/lastmile_qr_scan"}, "fusion_lat": 0.0, "fusion_lon": 0.0, "bike_id": "544a2e4c5c6faeacd5ec85e7c2340640", "name": "544a2e4c5c6faeacd5ec85e7c2340640"}, {"lon": -77.02296116666666, "is_reserved": 0, "is_disabled": 0, "type": "electric_scooter", "lat": 38.91609166666667, "rental_uris": {"ios": "https://dc.lft.to/lastmile_qr_scan", "android": "https://dc.lft.to/lastmile_qr_scan"}, "fusion_lat": 0.0, "fusion_lon": 0.0, "bike_id": "30e45439f33ebb4bb0f23ec1e6409045", "name": "30e45439f33ebb4bb0f23ec1e6409045"}, {"lon": -77.02714033333334, "is_reserved": 0, "is_disabled": 0, "type": "electric_scooter", "lat": 38.917661, "rental_uris": {"ios": "https://dc.lft.to/lastmile_qr_scan", "android": "https://dc.lft.to/lastmile_qr_scan"}, "fusion_lat": 0.0, "fusion_lon": 0.0, "bike_id": "e98a3ca56be72f7f07f28d12b4c33b24", "name": "e98a3ca56be72f7f07f28d12b4c33b24"}, {"lon": -77.03659033333334, "is_reserved": 0, "is_disabled": 0, "type": "electric_scooter", "lat": 38.912862833333335, "rental_uris": {"ios": "https://dc.lft.to/lastmile_qr_scan", "android": "https://dc.lft.to/lastmile_qr_scan"}, "fusion_lat": 0.0, "fusion_lon": 0.0, "bike_id": "37f553ab904ebc4d0d04fac32dd6b841", "name": "37f553ab904ebc4d0d04fac32dd6b841"}, {"lon": -77.04238866666667, "is_reserved": 0, "is_disabled": 0, "type": "electric_scooter", "lat": 38.945525, "rental_uris": {"ios": "https://dc.lft.to/lastmile_qr_scan", "android": "https://dc.lft.to/lastmile_qr_scan"}, "fusion_lat": 0.0, "fusion_lon": 0.0, "bike_id": "d2c755ff6caba483d910bbb6b5a69ac9", "name": "d2c755ff6caba483d910bbb6b5a69ac9"}, {"lon": -77.007038, "is_reserved": 0, "is_disabled": 0, "type": "electric_scooter", "lat": 38.89674683333333, "rental_uris": {"ios": "https://dc.lft.to/lastmile_qr_scan", "android": "https://dc.lft.to/lastmile_qr_scan"}, "fusion_lat": 0.0, "fusion_lon": 0.0, "bike_id": "b4b39dd0f4ee1d9e02bcb516f1aac5cc", "name": "b4b39dd0f4ee1d9e02bcb516f1aac5cc"}, {"lon": -77.0450645, "is_reserved": 0, "is_disabled": 0, "type": "electric_scooter", "lat": 38.912775833333335, "rental_uris": {"ios": "https://dc.lft.to/lastmile_qr_scan", "android": "https://dc.lft.to/lastmile_qr_scan"}, "fusion_lat": 0.0, "fusion_lon": 0.0, "bike_id": "ef3d46ead6a039e28bfed8db993f8d50", "name": "ef3d46ead6a039e28bfed8db993f8d50"}, {"lon": -76.941227, "is_reserved": 0, "is_disabled": 0, "type": "electric_scooter", "lat": 38.90794833333333, "rental_uris": {"ios": "https://dc.lft.to/lastmile_qr_scan", "android": "https://dc.lft.to/lastmile_qr_scan"}, "fusion_lat": 0.0, "fusion_lon": 0.0, "bike_id": "14e4738f2b46249e363a7c2aa3b573a7", "name": "14e4738f2b46249e363a7c2aa3b573a7"}, {"lon": -77.027548, "is_reserved": 0, "is_disabled": 0, "type": "electric_scooter", "lat": 38.95415666666667, "rental_uris": {"ios": "https://dc.lft.to/lastmile_qr_scan", "android": "https://dc.lft.to/lastmile_qr_scan"}, "fusion_lat": 0.0, "fusion_lon": 0.0, "bike_id": "de7e086fe3e462aec2c72b4594e0390b", "name": "de7e086fe3e462aec2c72b4594e0390b"}, {"lon": -77.0328685, "is_reserved": 0, "is_disabled": 0, "type": "electric_scooter", "lat": 38.89918883333333, "rental_uris": {"ios": "https://dc.lft.to/lastmile_qr_scan", "android": "https://dc.lft.to/lastmile_qr_scan"}, "fusion_lat": 0.0, "fusion_lon": 0.0, "bike_id": "385fa4f76e89f0e6d0e7e761926b60a8", "name": "385fa4f76e89f0e6d0e7e761926b60a8"}, {"lon": -77.06395733333333, "is_reserved": 0, "is_disabled": 0, "type": "electric_scooter", "lat": 38.9290845, "rental_uris": {"ios": "https://dc.lft.to/lastmile_qr_scan", "android": "https://dc.lft.to/lastmile_qr_scan"}, "fusion_lat": 0.0, "fusion_lon": 0.0, "bike_id": "8ebed74d286020f088dfad74cdbb1c76", "name": "8ebed74d286020f088dfad74cdbb1c76"}, {"lon": -77.029593, "is_reserved": 0, "is_disabled": 0, "type": "electric_scooter", "lat": 38.921428166666665, "rental_uris": {"ios": "https://dc.lft.to/lastmile_qr_scan", "android": "https://dc.lft.to/lastmile_qr_scan"}, "fusion_lat": 0.0, "fusion_lon": 0.0, "bike_id": "8303e68bef084dc7a8569ae26eb918be", "name": "8303e68bef084dc7a8569ae26eb918be"}, {"lon": -77.001976, "is_reserved": 0, "is_disabled": 0, "type": "electric_scooter", "lat": 38.90239966666667, "rental_uris": {"ios": "https://dc.lft.to/lastmile_qr_scan", "android": "https://dc.lft.to/lastmile_qr_scan"}, "fusion_lat": 0.0, "fusion_lon": 0.0, "bike_id": "a758a81ef9c47a70d58266d721c82394", "name": "a758a81ef9c47a70d58266d721c82394"}, {"lon": -77.06281783333333, "is_reserved": 0, "is_disabled": 0, "type": "electric_scooter", "lat": 38.90573916666666, "rental_uris": {"ios": "https://dc.lft.to/lastmile_qr_scan", "android": "https://dc.lft.to/lastmile_qr_scan"}, "fusion_lat": 0.0, "fusion_lon": 0.0, "bike_id": "ef0f2c38c9940c3294d405aebb572a36", "name": "ef0f2c38c9940c3294d405aebb572a36"}, {"lon": -76.965397, "is_reserved": 0, "is_disabled": 0, "type": "electric_scooter", "lat": 38.91845433333334, "rental_uris": {"ios": "https://dc.lft.to/lastmile_qr_scan", "android": "https://dc.lft.to/lastmile_qr_scan"}, "fusion_lat": 0.0, "fusion_lon": 0.0, "bike_id": "2b61665b26f9efcd4aa99fddc15128b3", "name": "2b61665b26f9efcd4aa99fddc15128b3"}, {"lon": -77.02473883333333, "is_reserved": 0, "is_disabled": 0, "type": "electric_scooter", "lat": 38.93099566666667, "rental_uris": {"ios": "https://dc.lft.to/lastmile_qr_scan", "android": "https://dc.lft.to/lastmile_qr_scan"}, "fusion_lat": 0.0, "fusion_lon": 0.0, "bike_id": "b77b207dda4bbbff857ca1095cfab7c9", "name": "b77b207dda4bbbff857ca1095cfab7c9"}, {"lon": -77.063474, "is_reserved": 0, "is_disabled": 0, "type": "electric_scooter", "lat": 38.90849, "rental_uris": {"ios": "https://dc.lft.to/lastmile_qr_scan", "android": "https://dc.lft.to/lastmile_qr_scan"}, "fusion_lat": 0.0, "fusion_lon": 0.0, "bike_id": "9ad822e8454d5f31b8e091725b05bb3c", "name": "9ad822e8454d5f31b8e091725b05bb3c"}, {"lon": -77.0628595, "is_reserved": 0, "is_disabled": 0, "type": "electric_scooter", "lat": 38.9037155, "rental_uris": {"ios": "https://dc.lft.to/lastmile_qr_scan", "android": "https://dc.lft.to/lastmile_qr_scan"}, "fusion_lat": 0.0, "fusion_lon": 0.0, "bike_id": "567a5ac8f2ea21dcdb5b12ef7d9f92d1", "name": "567a5ac8f2ea21dcdb5b12ef7d9f92d1"}, {"lon": -77.04493366666667, "is_reserved": 0, "is_disabled": 0, "type": "electric_scooter", "lat": 38.909175, "rental_uris": {"ios": "https://dc.lft.to/lastmile_qr_scan", "android": "https://dc.lft.to/lastmile_qr_scan"}, "fusion_lat": 0.0, "fusion_lon": 0.0, "bike_id": "c5e58c2fea4959e72b0d8e1dce63bf60", "name": "c5e58c2fea4959e72b0d8e1dce63bf60"}, {"lon": -77.000654, "is_reserved": 0, "is_disabled": 0, "type": "electric_scooter", "lat": 38.8929035, "rental_uris": {"ios": "https://dc.lft.to/lastmile_qr_scan", "android": "https://dc.lft.to/lastmile_qr_scan"}, "fusion_lat": 0.0, "fusion_lon": 0.0, "bike_id": "5afd0d4effac77fdc64e2fe2983e4946", "name": "5afd0d4effac77fdc64e2fe2983e4946"}, {"lon": -77.040807, "is_reserved": 0, "is_disabled": 0, "type": "electric_scooter", "lat": 38.90509083333333, "rental_uris": {"ios": "https://dc.lft.to/lastmile_qr_scan", "android": "https://dc.lft.to/lastmile_qr_scan"}, "fusion_lat": 0.0, "fusion_lon": 0.0, "bike_id": "98592a079a6b63e80432afcfc23b320f", "name": "98592a079a6b63e80432afcfc23b320f"}, {"lon": -77.04227483333334, "is_reserved": 0, "is_disabled": 0, "type": "electric_scooter", "lat": 38.897330333333336, "rental_uris": {"ios": "https://dc.lft.to/lastmile_qr_scan", "android": "https://dc.lft.to/lastmile_qr_scan"}, "fusion_lat": 0.0, "fusion_lon": 0.0, "bike_id": "732511464963eb6f7d8409419c0778a5", "name": "732511464963eb6f7d8409419c0778a5"}, {"lon": -77.03441966666666, "is_reserved": 0, "is_disabled": 0, "type": "electric_scooter", "lat": 38.9100655, "rental_uris": {"ios": "https://dc.lft.to/lastmile_qr_scan", "android": "https://dc.lft.to/lastmile_qr_scan"}, "fusion_lat": 0.0, "fusion_lon": 0.0, "bike_id": "7fd23bb7ad60874b8d3731aa954a7d0f", "name": "7fd23bb7ad60874b8d3731aa954a7d0f"}, {"lon": -77.0297305, "is_reserved": 0, "is_disabled": 0, "type": "electric_scooter", "lat": 38.89632066666667, "rental_uris": {"ios": "https://dc.lft.to/lastmile_qr_scan", "android": "https://dc.lft.to/lastmile_qr_scan"}, "fusion_lat": 0.0, "fusion_lon": 0.0, "bike_id": "0f2d496e086a31e2aa1bd1a1d30c10ef", "name": "0f2d496e086a31e2aa1bd1a1d30c10ef"}, {"lon": -77.02177533333334, "is_reserved": 0, "is_disabled": 0, "type": "electric_scooter", "lat": 38.943123, "rental_uris": {"ios": "https://dc.lft.to/lastmile_qr_scan", "android": "https://dc.lft.to/lastmile_qr_scan"}, "fusion_lat": 0.0, "fusion_lon": 0.0, "bike_id": "73b1723878c4220617893b1899d8e80f", "name": "73b1723878c4220617893b1899d8e80f"}, {"lon": -77.0239845, "is_reserved": 0, "is_disabled": 0, "type": "electric_scooter", "lat": 38.93709233333333, "rental_uris": {"ios": "https://dc.lft.to/lastmile_qr_scan", "android": "https://dc.lft.to/lastmile_qr_scan"}, "fusion_lat": 0.0, "fusion_lon": 0.0, "bike_id": "6e9d43b738552dd5c9b7c366f93263e5", "name": "6e9d43b738552dd5c9b7c366f93263e5"}, {"lon": -77.05038466666667, "is_reserved": 0, "is_disabled": 0, "type": "electric_scooter", "lat": 38.89653416666667, "rental_uris": {"ios": "https://dc.lft.to/lastmile_qr_scan", "android": "https://dc.lft.to/lastmile_qr_scan"}, "fusion_lat": 0.0, "fusion_lon": 0.0, "bike_id": "1108896aaf012b18ec31c13b630b147e", "name": "1108896aaf012b18ec31c13b630b147e"}, {"lon": -77.01395116666667, "is_reserved": 0, "is_disabled": 0, "type": "electric_scooter", "lat": 38.880297166666665, "rental_uris": {"ios": "https://dc.lft.to/lastmile_qr_scan", "android": "https://dc.lft.to/lastmile_qr_scan"}, "fusion_lat": 0.0, "fusion_lon": 0.0, "bike_id": "6e65f6bb8af180330eeb704dc5a87eed", "name": "6e65f6bb8af180330eeb704dc5a87eed"}, {"lon": -76.97909166666666, "is_reserved": 0, "is_disabled": 0, "type": "electric_scooter", "lat": 38.8943605, "rental_uris": {"ios": "https://dc.lft.to/lastmile_qr_scan", "android": "https://dc.lft.to/lastmile_qr_scan"}, "fusion_lat": 0.0, "fusion_lon": 0.0, "bike_id": "6087f8f9b199b3ab04913acb6b602df4", "name": "6087f8f9b199b3ab04913acb6b602df4"}, {"lon": -77.02500716666667, "is_reserved": 0, "is_disabled": 0, "type": "electric_scooter", "lat": 38.920677166666664, "rental_uris": {"ios": "https://dc.lft.to/lastmile_qr_scan", "android": "https://dc.lft.to/lastmile_qr_scan"}, "fusion_lat": 0.0, "fusion_lon": 0.0, "bike_id": "e6982f6645e9cec18e1807545fc96aec", "name": "e6982f6645e9cec18e1807545fc96aec"}, {"lon": -77.038447, "is_reserved": 0, "is_disabled": 0, "type": "electric_scooter", "lat": 38.903907, "rental_uris": {"ios": "https://dc.lft.to/lastmile_qr_scan", "android": "https://dc.lft.to/lastmile_qr_scan"}, "fusion_lat": 0.0, "fusion_lon": 0.0, "bike_id": "ffc38feb7a057cbe2da21be10ef610e1", "name": "ffc38feb7a057cbe2da21be10ef610e1"}, {"lon": -77.10685866666667, "is_reserved": 0, "is_disabled": 0, "type": "electric_bike", "lat": 38.93578816666667, "rental_uris": {"ios": "https://dc.lft.to/lastmile_qr_scan", "android": "https://dc.lft.to/lastmile_qr_scan"}, "fusion_lat": 0.0, "fusion_lon": 0.0, "bike_id": "cd4dd77f222edafc61f2b1c8edef93fa", "name": "cd4dd77f222edafc61f2b1c8edef93fa"}, {"lon": -77.02975433333333, "is_reserved": 0, "is_disabled": 0, "type": "electric_scooter", "lat": 38.89749183333333, "rental_uris": {"ios": "https://dc.lft.to/lastmile_qr_scan", "android": "https://dc.lft.to/lastmile_qr_scan"}, "fusion_lat": 0.0, "fusion_lon": 0.0, "bike_id": "140c13a2837653bb9781b4b93811f238", "name": "140c13a2837653bb9781b4b93811f238"}, {"lon": -77.00536816666667, "is_reserved": 0, "is_disabled": 0, "type": "electric_scooter", "lat": 38.879371166666665, "rental_uris": {"ios": "https://dc.lft.to/lastmile_qr_scan", "android": "https://dc.lft.to/lastmile_qr_scan"}, "fusion_lat": 0.0, "fusion_lon": 0.0, "bike_id": "d182883dfa1b9336c83bdf34f5da1f62", "name": "d182883dfa1b9336c83bdf34f5da1f62"}, {"lon": -77.00967583333333, "is_reserved": 0, "is_disabled": 0, "type": "electric_scooter", "lat": 38.90785183333333, "rental_uris": {"ios": "https://dc.lft.to/lastmile_qr_scan", "android": "https://dc.lft.to/lastmile_qr_scan"}, "fusion_lat": 0.0, "fusion_lon": 0.0, "bike_id": "445dfb7cd35783a2dab65e5d11ce74ea", "name": "445dfb7cd35783a2dab65e5d11ce74ea"}, {"lon": -76.99766866666667, "is_reserved": 0, "is_disabled": 0, "type": "electric_scooter", "lat": 38.900426833333334, "rental_uris": {"ios": "https://dc.lft.to/lastmile_qr_scan", "android": "https://dc.lft.to/lastmile_qr_scan"}, "fusion_lat": 0.0, "fusion_lon": 0.0, "bike_id": "1f603ebe7194b1075769913d1281f9cb", "name": "1f603ebe7194b1075769913d1281f9cb"}, {"lon": -77.04174616666667, "is_reserved": 0, "is_disabled": 0, "type": "electric_scooter", "lat": 38.917272, "rental_uris": {"ios": "https://dc.lft.to/lastmile_qr_scan", "android": "https://dc.lft.to/lastmile_qr_scan"}, "fusion_lat": 0.0, "fusion_lon": 0.0, "bike_id": "92ca24ddcb6d86f8b7e9fdd40a6e3553", "name": "92ca24ddcb6d86f8b7e9fdd40a6e3553"}, {"lon": -77.03101266666667, "is_reserved": 0, "is_disabled": 0, "type": "electric_scooter", "lat": 38.92571566666667, "rental_uris": {"ios": "https://dc.lft.to/lastmile_qr_scan", "android": "https://dc.lft.to/lastmile_qr_scan"}, "fusion_lat": 0.0, "fusion_lon": 0.0, "bike_id": "0bf4124240e9def44513145f16ea017f", "name": "0bf4124240e9def44513145f16ea017f"}, {"lon": -77.062157, "is_reserved": 0, "is_disabled": 0, "type": "electric_scooter", "lat": 38.90530066666667, "rental_uris": {"ios": "https://dc.lft.to/lastmile_qr_scan", "android": "https://dc.lft.to/lastmile_qr_scan"}, "fusion_lat": 0.0, "fusion_lon": 0.0, "bike_id": "38d8c3deb00d0e780fcb87b663244284", "name": "38d8c3deb00d0e780fcb87b663244284"}, {"lon": -77.03206033333333, "is_reserved": 0, "is_disabled": 0, "type": "electric_scooter", "lat": 38.91863466666667, "rental_uris": {"ios": "https://dc.lft.to/lastmile_qr_scan", "android": "https://dc.lft.to/lastmile_qr_scan"}, "fusion_lat": 0.0, "fusion_lon": 0.0, "bike_id": "2070600bc83b95accd658c52b61a1a17", "name": "2070600bc83b95accd658c52b61a1a17"}, {"lon": -77.01563733333333, "is_reserved": 0, "is_disabled": 0, "type": "electric_scooter", "lat": 38.891746499999996, "rental_uris": {"ios": "https://dc.lft.to/lastmile_qr_scan", "android": "https://dc.lft.to/lastmile_qr_scan"}, "fusion_lat": 0.0, "fusion_lon": 0.0, "bike_id": "dfe8044907817ebae98e3f8ee194bd90", "name": "dfe8044907817ebae98e3f8ee194bd90"}, {"lon": -77.023168, "is_reserved": 0, "is_disabled": 0, "type": "electric_scooter", "lat": 38.92791416666667, "rental_uris": {"ios": "https://dc.lft.to/lastmile_qr_scan", "android": "https://dc.lft.to/lastmile_qr_scan"}, "fusion_lat": 0.0, "fusion_lon": 0.0, "bike_id": "623230503e5edefc83fa629da70a9cb5", "name": "623230503e5edefc83fa629da70a9cb5"}, {"lon": -77.02812616666667, "is_reserved": 0, "is_disabled": 0, "type": "electric_scooter", "lat": 38.8923655, "rental_uris": {"ios": "https://dc.lft.to/lastmile_qr_scan", "android": "https://dc.lft.to/lastmile_qr_scan"}, "fusion_lat": 0.0, "fusion_lon": 0.0, "bike_id": "6a606bc34bfd9a137b064534bdbf08de", "name": "6a606bc34bfd9a137b064534bdbf08de"}, {"lon": -77.02633383333334, "is_reserved": 0, "is_disabled": 0, "type": "electric_scooter", "lat": 38.980578, "rental_uris": {"ios": "https://dc.lft.to/lastmile_qr_scan", "android": "https://dc.lft.to/lastmile_qr_scan"}, "fusion_lat": 0.0, "fusion_lon": 0.0, "bike_id": "bedee338558865b1776dd59866208d14", "name": "bedee338558865b1776dd59866208d14"}, {"lon": -77.06887366666666, "is_reserved": 0, "is_disabled": 0, "type": "electric_scooter", "lat": 38.9051435, "rental_uris": {"ios": "https://dc.lft.to/lastmile_qr_scan", "android": "https://dc.lft.to/lastmile_qr_scan"}, "fusion_lat": 0.0, "fusion_lon": 0.0, "bike_id": "431f5a5334cf0d85d78df4c9606e090d", "name": "431f5a5334cf0d85d78df4c9606e090d"}, {"lon": -76.94570516666667, "is_reserved": 0, "is_disabled": 0, "type": "electric_bike", "lat": 38.86624033333333, "rental_uris": {"ios": "https://dc.lft.to/lastmile_qr_scan", "android": "https://dc.lft.to/lastmile_qr_scan"}, "fusion_lat": 0.0, "fusion_lon": 0.0, "bike_id": "9a35fe930194d5e593405c3b1292c1f9", "name": "9a35fe930194d5e593405c3b1292c1f9"}, {"lon": -76.99679116666667, "is_reserved": 0, "is_disabled": 0, "type": "electric_scooter", "lat": 38.88698866666667, "rental_uris": {"ios": "https://dc.lft.to/lastmile_qr_scan", "android": "https://dc.lft.to/lastmile_qr_scan"}, "fusion_lat": 0.0, "fusion_lon": 0.0, "bike_id": "57db97d4d0162bc3d23394a8adc68573", "name": "57db97d4d0162bc3d23394a8adc68573"}, {"lon": -77.03108183333333, "is_reserved": 0, "is_disabled": 0, "type": "electric_scooter", "lat": 38.929720333333336, "rental_uris": {"ios": "https://dc.lft.to/lastmile_qr_scan", "android": "https://dc.lft.to/lastmile_qr_scan"}, "fusion_lat": 0.0, "fusion_lon": 0.0, "bike_id": "f36012d33adcfc5901b98921f40a12ad", "name": "f36012d33adcfc5901b98921f40a12ad"}, {"lon": -76.87497066666667, "is_reserved": 0, "is_disabled": 0, "type": "electric_bike", "lat": 38.990889333333335, "rental_uris": {"ios": "https://dc.lft.to/lastmile_qr_scan", "android": "https://dc.lft.to/lastmile_qr_scan"}, "fusion_lat": 0.0, "fusion_lon": 0.0, "bike_id": "6483db8c305011ab1096e99215ffd5a8", "name": "6483db8c305011ab1096e99215ffd5a8"}, {"lon": -77.03849916666667, "is_reserved": 0, "is_disabled": 0, "type": "electric_scooter", "lat": 38.912091, "rental_uris": {"ios": "https://dc.lft.to/lastmile_qr_scan", "android": "https://dc.lft.to/lastmile_qr_scan"}, "fusion_lat": 0.0, "fusion_lon": 0.0, "bike_id": "a38ee699f03f937ddcbb6526331d24d7", "name": "a38ee699f03f937ddcbb6526331d24d7"}, {"lon": -77.0222895, "is_reserved": 0, "is_disabled": 0, "type": "electric_scooter", "lat": 38.91267933333334, "rental_uris": {"ios": "https://dc.lft.to/lastmile_qr_scan", "android": "https://dc.lft.to/lastmile_qr_scan"}, "fusion_lat": 0.0, "fusion_lon": 0.0, "bike_id": "01ba4c7defdd6f6de0253f9366da3658", "name": "01ba4c7defdd6f6de0253f9366da3658"}, {"lon": -77.00337216666667, "is_reserved": 0, "is_disabled": 0, "type": "electric_scooter", "lat": 38.89504866666667, "rental_uris": {"ios": "https://dc.lft.to/lastmile_qr_scan", "android": "https://dc.lft.to/lastmile_qr_scan"}, "fusion_lat": 0.0, "fusion_lon": 0.0, "bike_id": "6e64dbff15d763d9be632e4e8d2741b1", "name": "6e64dbff15d763d9be632e4e8d2741b1"}, {"lon": -77.112176, "is_reserved": 0, "is_disabled": 0, "type": "electric_bike", "lat": 38.828769666666666, "rental_uris": {"ios": "https://dc.lft.to/lastmile_qr_scan", "android": "https://dc.lft.to/lastmile_qr_scan"}, "fusion_lat": 0.0, "fusion_lon": 0.0, "bike_id": "24d1b74e6166278a33bea32aecb7e7b7", "name": "24d1b74e6166278a33bea32aecb7e7b7"}, {"lon": -77.03823666666666, "is_reserved": 0, "is_disabled": 0, "type": "electric_scooter", "lat": 38.90779466666667, "rental_uris": {"ios": "https://dc.lft.to/lastmile_qr_scan", "android": "https://dc.lft.to/lastmile_qr_scan"}, "fusion_lat": 0.0, "fusion_lon": 0.0, "bike_id": "fc963dc8891a0212688f3b4ede34e8ba", "name": "fc963dc8891a0212688f3b4ede34e8ba"}, {"lon": -76.983819, "is_reserved": 0, "is_disabled": 0, "type": "electric_scooter", "lat": 38.899737, "rental_uris": {"ios": "https://dc.lft.to/lastmile_qr_scan", "android": "https://dc.lft.to/lastmile_qr_scan"}, "fusion_lat": 0.0, "fusion_lon": 0.0, "bike_id": "ec7b3a6750acaf0fdf6e464938908f58", "name": "ec7b3a6750acaf0fdf6e464938908f58"}, {"lon": -77.03183416666667, "is_reserved": 0, "is_disabled": 0, "type": "electric_scooter", "lat": 38.921091833333335, "rental_uris": {"ios": "https://dc.lft.to/lastmile_qr_scan", "android": "https://dc.lft.to/lastmile_qr_scan"}, "fusion_lat": 0.0, "fusion_lon": 0.0, "bike_id": "96101d39bf0ce9b0b0d7c897807d0197", "name": "96101d39bf0ce9b0b0d7c897807d0197"}, {"lon": -77.01508833333334, "is_reserved": 0, "is_disabled": 0, "type": "electric_scooter", "lat": 38.899372, "rental_uris": {"ios": "https://dc.lft.to/lastmile_qr_scan", "android": "https://dc.lft.to/lastmile_qr_scan"}, "fusion_lat": 0.0, "fusion_lon": 0.0, "bike_id": "2710cc5cfe13a16cf2e7e36ded1586ed", "name": "2710cc5cfe13a16cf2e7e36ded1586ed"}, {"lon": -77.0272425, "is_reserved": 0, "is_disabled": 0, "type": "electric_scooter", "lat": 38.901328, "rental_uris": {"ios": "https://dc.lft.to/lastmile_qr_scan", "android": "https://dc.lft.to/lastmile_qr_scan"}, "fusion_lat": 0.0, "fusion_lon": 0.0, "bike_id": "6600a041113318b3ff42c79f963d6d47", "name": "6600a041113318b3ff42c79f963d6d47"}, {"lon": -76.9315865, "is_reserved": 0, "is_disabled": 0, "type": "electric_scooter", "lat": 38.8987805, "rental_uris": {"ios": "https://dc.lft.to/lastmile_qr_scan", "android": "https://dc.lft.to/lastmile_qr_scan"}, "fusion_lat": 0.0, "fusion_lon": 0.0, "bike_id": "11f39ff9f2de3065baac0e67d2f24f48", "name": "11f39ff9f2de3065baac0e67d2f24f48"}, {"lon": -77.0253025, "is_reserved": 0, "is_disabled": 0, "type": "electric_scooter", "lat": 38.90563366666667, "rental_uris": {"ios": "https://dc.lft.to/lastmile_qr_scan", "android": "https://dc.lft.to/lastmile_qr_scan"}, "fusion_lat": 0.0, "fusion_lon": 0.0, "bike_id": "13d20e5b79e6e74a92c8d62d747dd511", "name": "13d20e5b79e6e74a92c8d62d747dd511"}, {"lon": -76.980422, "is_reserved": 0, "is_disabled": 0, "type": "electric_scooter", "lat": 38.9167875, "rental_uris": {"ios": "https://dc.lft.to/lastmile_qr_scan", "android": "https://dc.lft.to/lastmile_qr_scan"}, "fusion_lat": 0.0, "fusion_lon": 0.0, "bike_id": "69e569ae97b3643f9cec22cf262be45d", "name": "69e569ae97b3643f9cec22cf262be45d"}, {"lon": -77.03362633333333, "is_reserved": 0, "is_disabled": 0, "type": "electric_scooter", "lat": 38.91191166666667, "rental_uris": {"ios": "https://dc.lft.to/lastmile_qr_scan", "android": "https://dc.lft.to/lastmile_qr_scan"}, "fusion_lat": 0.0, "fusion_lon": 0.0, "bike_id": "84182af675715cbf1d6723eb5f494722", "name": "84182af675715cbf1d6723eb5f494722"}, {"lon": -77.03330183333334, "is_reserved": 0, "is_disabled": 0, "type": "electric_scooter", "lat": 38.898537166666664, "rental_uris": {"ios": "https://dc.lft.to/lastmile_qr_scan", "android": "https://dc.lft.to/lastmile_qr_scan"}, "fusion_lat": 0.0, "fusion_lon": 0.0, "bike_id": "393eb11adbeabbfc3bac4329cf3a01ef", "name": "393eb11adbeabbfc3bac4329cf3a01ef"}, {"lon": -77.02229833333334, "is_reserved": 0, "is_disabled": 0, "type": "electric_scooter", "lat": 38.887671, "rental_uris": {"ios": "https://dc.lft.to/lastmile_qr_scan", "android": "https://dc.lft.to/lastmile_qr_scan"}, "fusion_lat": 0.0, "fusion_lon": 0.0, "bike_id": "00278018bbd4771b6f1eba037a0517af", "name": "00278018bbd4771b6f1eba037a0517af"}, {"lon": -77.036348, "is_reserved": 0, "is_disabled": 0, "type": "electric_scooter", "lat": 38.931677666666666, "rental_uris": {"ios": "https://dc.lft.to/lastmile_qr_scan", "android": "https://dc.lft.to/lastmile_qr_scan"}, "fusion_lat": 0.0, "fusion_lon": 0.0, "bike_id": "4e81d1928e97770cdea17f49be8d2d9a", "name": "4e81d1928e97770cdea17f49be8d2d9a"}, {"lon": -77.05436233333333, "is_reserved": 0, "is_disabled": 0, "type": "electric_scooter", "lat": 38.896029166666665, "rental_uris": {"ios": "https://dc.lft.to/lastmile_qr_scan", "android": "https://dc.lft.to/lastmile_qr_scan"}, "fusion_lat": 0.0, "fusion_lon": 0.0, "bike_id": "e98a2ce6383aff7d11f2e6e76371e80f", "name": "e98a2ce6383aff7d11f2e6e76371e80f"}, {"lon": -77.00737983333333, "is_reserved": 0, "is_disabled": 0, "type": "electric_scooter", "lat": 38.89842316666667, "rental_uris": {"ios": "https://dc.lft.to/lastmile_qr_scan", "android": "https://dc.lft.to/lastmile_qr_scan"}, "fusion_lat": 0.0, "fusion_lon": 0.0, "bike_id": "30525306e739baad8747aadadf01a11f", "name": "30525306e739baad8747aadadf01a11f"}, {"lon": -77.024918, "is_reserved": 0, "is_disabled": 0, "type": "electric_bike", "lat": 38.9740635, "rental_uris": {"ios": "https://dc.lft.to/lastmile_qr_scan", "android": "https://dc.lft.to/lastmile_qr_scan"}, "fusion_lat": 0.0, "fusion_lon": 0.0, "bike_id": "98f9ba040b3dec3c62b0a800dba55d48", "name": "98f9ba040b3dec3c62b0a800dba55d48"}, {"lon": -77.0086575, "is_reserved": 0, "is_disabled": 0, "type": "electric_scooter", "lat": 38.90567, "rental_uris": {"ios": "https://dc.lft.to/lastmile_qr_scan", "android": "https://dc.lft.to/lastmile_qr_scan"}, "fusion_lat": 0.0, "fusion_lon": 0.0, "bike_id": "41934bcc53a674b510a47aef598a2c02", "name": "41934bcc53a674b510a47aef598a2c02"}, {"lon": -77.024023, "is_reserved": 0, "is_disabled": 0, "type": "electric_scooter", "lat": 38.931036666666664, "rental_uris": {"ios": "https://dc.lft.to/lastmile_qr_scan", "android": "https://dc.lft.to/lastmile_qr_scan"}, "fusion_lat": 0.0, "fusion_lon": 0.0, "bike_id": "063429130ebe2550f0d57a07ad799ef0", "name": "063429130ebe2550f0d57a07ad799ef0"}, {"lon": -76.96561966666667, "is_reserved": 0, "is_disabled": 0, "type": "electric_scooter", "lat": 38.918510166666664, "rental_uris": {"ios": "https://dc.lft.to/lastmile_qr_scan", "android": "https://dc.lft.to/lastmile_qr_scan"}, "fusion_lat": 0.0, "fusion_lon": 0.0, "bike_id": "255080031b23a5ebafc38c1c5c358216", "name": "255080031b23a5ebafc38c1c5c358216"}, {"lon": -77.00898966666666, "is_reserved": 0, "is_disabled": 0, "type": "electric_scooter", "lat": 38.9057205, "rental_uris": {"ios": "https://dc.lft.to/lastmile_qr_scan", "android": "https://dc.lft.to/lastmile_qr_scan"}, "fusion_lat": 0.0, "fusion_lon": 0.0, "bike_id": "5a935944a8b7da7c53de77ea2c4c800c", "name": "5a935944a8b7da7c53de77ea2c4c800c"}, {"lon": -77.0296175, "is_reserved": 0, "is_disabled": 0, "type": "electric_scooter", "lat": 38.921472666666666, "rental_uris": {"ios": "https://dc.lft.to/lastmile_qr_scan", "android": "https://dc.lft.to/lastmile_qr_scan"}, "fusion_lat": 0.0, "fusion_lon": 0.0, "bike_id": "cd1b98e9e1e762394cb50766da58f73d", "name": "cd1b98e9e1e762394cb50766da58f73d"}, {"lon": -77.02642666666667, "is_reserved": 0, "is_disabled": 0, "type": "electric_scooter", "lat": 38.902393333333336, "rental_uris": {"ios": "https://dc.lft.to/lastmile_qr_scan", "android": "https://dc.lft.to/lastmile_qr_scan"}, "fusion_lat": 0.0, "fusion_lon": 0.0, "bike_id": "ea78339a6dcb053af72ebde55af3ca94", "name": "ea78339a6dcb053af72ebde55af3ca94"}, {"lon": -77.028121, "is_reserved": 0, "is_disabled": 0, "type": "electric_scooter", "lat": 38.96140333333334, "rental_uris": {"ios": "https://dc.lft.to/lastmile_qr_scan", "android": "https://dc.lft.to/lastmile_qr_scan"}, "fusion_lat": 0.0, "fusion_lon": 0.0, "bike_id": "54d42599bc11adaa8a7472d56c9a1273", "name": "54d42599bc11adaa8a7472d56c9a1273"}, {"lon": -76.99073266666667, "is_reserved": 0, "is_disabled": 0, "type": "electric_bike", "lat": 38.898097, "rental_uris": {"ios": "https://dc.lft.to/lastmile_qr_scan", "android": "https://dc.lft.to/lastmile_qr_scan"}, "fusion_lat": 0.0, "fusion_lon": 0.0, "bike_id": "0c667c26b421464aab9b5b3bfeb74d55", "name": "0c667c26b421464aab9b5b3bfeb74d55"}, {"lon": -77.02487383333333, "is_reserved": 0, "is_disabled": 0, "type": "electric_scooter", "lat": 38.942017, "rental_uris": {"ios": "https://dc.lft.to/lastmile_qr_scan", "android": "https://dc.lft.to/lastmile_qr_scan"}, "fusion_lat": 0.0, "fusion_lon": 0.0, "bike_id": "b6f96359b0abab708474f17d00a3dec2", "name": "b6f96359b0abab708474f17d00a3dec2"}, {"lon": -76.994934, "is_reserved": 0, "is_disabled": 0, "type": "electric_scooter", "lat": 38.8624155, "rental_uris": {"ios": "https://dc.lft.to/lastmile_qr_scan", "android": "https://dc.lft.to/lastmile_qr_scan"}, "fusion_lat": 0.0, "fusion_lon": 0.0, "bike_id": "7cd9199b020b2045498a03b758e4ea5f", "name": "7cd9199b020b2045498a03b758e4ea5f"}, {"lon": -77.03482616666666, "is_reserved": 0, "is_disabled": 0, "type": "electric_scooter", "lat": 38.9112175, "rental_uris": {"ios": "https://dc.lft.to/lastmile_qr_scan", "android": "https://dc.lft.to/lastmile_qr_scan"}, "fusion_lat": 0.0, "fusion_lon": 0.0, "bike_id": "ad35468ad14def2ff59e2c1d900a68b1", "name": "ad35468ad14def2ff59e2c1d900a68b1"}, {"lon": -77.00346516666667, "is_reserved": 0, "is_disabled": 0, "type": "electric_scooter", "lat": 38.89688966666667, "rental_uris": {"ios": "https://dc.lft.to/lastmile_qr_scan", "android": "https://dc.lft.to/lastmile_qr_scan"}, "fusion_lat": 0.0, "fusion_lon": 0.0, "bike_id": "2672c8bd6f170793c62bd24127c35038", "name": "2672c8bd6f170793c62bd24127c35038"}, {"lon": -77.04338, "is_reserved": 0, "is_disabled": 0, "type": "electric_scooter", "lat": 38.914536166666664, "rental_uris": {"ios": "https://dc.lft.to/lastmile_qr_scan", "android": "https://dc.lft.to/lastmile_qr_scan"}, "fusion_lat": 0.0, "fusion_lon": 0.0, "bike_id": "30891f467e1656471c2ab05cfb263d94", "name": "30891f467e1656471c2ab05cfb263d94"}, {"lon": -77.04819966666666, "is_reserved": 0, "is_disabled": 0, "type": "electric_scooter", "lat": 38.914905, "rental_uris": {"ios": "https://dc.lft.to/lastmile_qr_scan", "android": "https://dc.lft.to/lastmile_qr_scan"}, "fusion_lat": 0.0, "fusion_lon": 0.0, "bike_id": "721784820cf27e0e105b6d1e68540ec8", "name": "721784820cf27e0e105b6d1e68540ec8"}, {"lon": -77.034483, "is_reserved": 0, "is_disabled": 0, "type": "electric_scooter", "lat": 38.917993333333335, "rental_uris": {"ios": "https://dc.lft.to/lastmile_qr_scan", "android": "https://dc.lft.to/lastmile_qr_scan"}, "fusion_lat": 0.0, "fusion_lon": 0.0, "bike_id": "01e0e48fa45b28ce139c2d52a52b17c9", "name": "01e0e48fa45b28ce139c2d52a52b17c9"}, {"lon": -77.044761, "is_reserved": 0, "is_disabled": 0, "type": "electric_scooter", "lat": 38.907191833333336, "rental_uris": {"ios": "https://dc.lft.to/lastmile_qr_scan", "android": "https://dc.lft.to/lastmile_qr_scan"}, "fusion_lat": 0.0, "fusion_lon": 0.0, "bike_id": "78610d77f85e56ee82b60a5151a24b43", "name": "78610d77f85e56ee82b60a5151a24b43"}, {"lon": -76.99011283333333, "is_reserved": 0, "is_disabled": 0, "type": "electric_scooter", "lat": 38.86111483333333, "rental_uris": {"ios": "https://dc.lft.to/lastmile_qr_scan", "android": "https://dc.lft.to/lastmile_qr_scan"}, "fusion_lat": 0.0, "fusion_lon": 0.0, "bike_id": "607e848ec9505bad016a57c9c2a6df08", "name": "607e848ec9505bad016a57c9c2a6df08"}, {"lon": -77.0248975, "is_reserved": 0, "is_disabled": 0, "type": "electric_bike", "lat": 38.97367033333333, "rental_uris": {"ios": "https://dc.lft.to/lastmile_qr_scan", "android": "https://dc.lft.to/lastmile_qr_scan"}, "fusion_lat": 0.0, "fusion_lon": 0.0, "bike_id": "b1ade60b9acbf98f27958e2478fb2567", "name": "b1ade60b9acbf98f27958e2478fb2567"}, {"lon": -77.06287816666666, "is_reserved": 0, "is_disabled": 0, "type": "electric_scooter", "lat": 38.904532333333336, "rental_uris": {"ios": "https://dc.lft.to/lastmile_qr_scan", "android": "https://dc.lft.to/lastmile_qr_scan"}, "fusion_lat": 0.0, "fusion_lon": 0.0, "bike_id": "d236655bb2499b3376ecf7d3bf6734b9", "name": "d236655bb2499b3376ecf7d3bf6734b9"}, {"lon": -77.0114835, "is_reserved": 0, "is_disabled": 0, "type": "electric_scooter", "lat": 38.896069, "rental_uris": {"ios": "https://dc.lft.to/lastmile_qr_scan", "android": "https://dc.lft.to/lastmile_qr_scan"}, "fusion_lat": 0.0, "fusion_lon": 0.0, "bike_id": "821d68dffc662d492cbb0838d3ba0e5d", "name": "821d68dffc662d492cbb0838d3ba0e5d"}, {"lon": -76.96554266666666, "is_reserved": 0, "is_disabled": 0, "type": "electric_scooter", "lat": 38.91847666666666, "rental_uris": {"ios": "https://dc.lft.to/lastmile_qr_scan", "android": "https://dc.lft.to/lastmile_qr_scan"}, "fusion_lat": 0.0, "fusion_lon": 0.0, "bike_id": "f5f182ae0e9a6ccecfb44a072c506d9e", "name": "f5f182ae0e9a6ccecfb44a072c506d9e"}, {"lon": -76.957592, "is_reserved": 0, "is_disabled": 0, "type": "electric_scooter", "lat": 38.88431466666667, "rental_uris": {"ios": "https://dc.lft.to/lastmile_qr_scan", "android": "https://dc.lft.to/lastmile_qr_scan"}, "fusion_lat": 0.0, "fusion_lon": 0.0, "bike_id": "1b89a14b6c549f451ed198c20a2f5ca5", "name": "1b89a14b6c549f451ed198c20a2f5ca5"}, {"lon": -77.02494016666667, "is_reserved": 0, "is_disabled": 0, "type": "electric_scooter", "lat": 38.941858333333336, "rental_uris": {"ios": "https://dc.lft.to/lastmile_qr_scan", "android": "https://dc.lft.to/lastmile_qr_scan"}, "fusion_lat": 0.0, "fusion_lon": 0.0, "bike_id": "9a0f6e7d12a5aca1528e899d6d616b24", "name": "9a0f6e7d12a5aca1528e899d6d616b24"}, {"lon": -76.996331, "is_reserved": 0, "is_disabled": 0, "type": "electric_scooter", "lat": 38.8462085, "rental_uris": {"ios": "https://dc.lft.to/lastmile_qr_scan", "android": "https://dc.lft.to/lastmile_qr_scan"}, "fusion_lat": 0.0, "fusion_lon": 0.0, "bike_id": "3e9b7bb825751bfa74dfca510e83be98", "name": "3e9b7bb825751bfa74dfca510e83be98"}, {"lon": -76.967149, "is_reserved": 0, "is_disabled": 0, "type": "electric_scooter", "lat": 38.86950483333333, "rental_uris": {"ios": "https://dc.lft.to/lastmile_qr_scan", "android": "https://dc.lft.to/lastmile_qr_scan"}, "fusion_lat": 0.0, "fusion_lon": 0.0, "bike_id": "96fd8d7ff39d7228a5ebb3d80ac5e1b4", "name": "96fd8d7ff39d7228a5ebb3d80ac5e1b4"}, {"lon": -77.071214, "is_reserved": 0, "is_disabled": 0, "type": "electric_scooter", "lat": 38.919759666666664, "rental_uris": {"ios": "https://dc.lft.to/lastmile_qr_scan", "android": "https://dc.lft.to/lastmile_qr_scan"}, "fusion_lat": 0.0, "fusion_lon": 0.0, "bike_id": "8a459e821433d9153c19570f3dae089e", "name": "8a459e821433d9153c19570f3dae089e"}, {"lon": -77.02697483333333, "is_reserved": 0, "is_disabled": 0, "type": "electric_scooter", "lat": 38.908456, "rental_uris": {"ios": "https://dc.lft.to/lastmile_qr_scan", "android": "https://dc.lft.to/lastmile_qr_scan"}, "fusion_lat": 0.0, "fusion_lon": 0.0, "bike_id": "612743f163941039a9c7abc5098bdb25", "name": "612743f163941039a9c7abc5098bdb25"}, {"lon": -77.02184016666666, "is_reserved": 0, "is_disabled": 0, "type": "electric_scooter", "lat": 38.89977416666667, "rental_uris": {"ios": "https://dc.lft.to/lastmile_qr_scan", "android": "https://dc.lft.to/lastmile_qr_scan"}, "fusion_lat": 0.0, "fusion_lon": 0.0, "bike_id": "bc6bb2dd805bcadf3b2a3b6a846c8e7d", "name": "bc6bb2dd805bcadf3b2a3b6a846c8e7d"}, {"lon": -77.04193616666667, "is_reserved": 0, "is_disabled": 0, "type": "electric_scooter", "lat": 38.9233405, "rental_uris": {"ios": "https://dc.lft.to/lastmile_qr_scan", "android": "https://dc.lft.to/lastmile_qr_scan"}, "fusion_lat": 0.0, "fusion_lon": 0.0, "bike_id": "493f1dfa323c22501826ebf998f91cf4", "name": "493f1dfa323c22501826ebf998f91cf4"}, {"lon": -77.02586816666667, "is_reserved": 0, "is_disabled": 0, "type": "electric_scooter", "lat": 38.8952205, "rental_uris": {"ios": "https://dc.lft.to/lastmile_qr_scan", "android": "https://dc.lft.to/lastmile_qr_scan"}, "fusion_lat": 0.0, "fusion_lon": 0.0, "bike_id": "11670543d37f25d1ea1669a05722e69f", "name": "11670543d37f25d1ea1669a05722e69f"}, {"lon": -77.12267366666667, "is_reserved": 0, "is_disabled": 0, "type": "electric_bike", "lat": 38.897350833333334, "rental_uris": {"ios": "https://dc.lft.to/lastmile_qr_scan", "android": "https://dc.lft.to/lastmile_qr_scan"}, "fusion_lat": 0.0, "fusion_lon": 0.0, "bike_id": "97e14c4d6f17ff02f8ac6128479fdd60", "name": "97e14c4d6f17ff02f8ac6128479fdd60"}, {"lon": -76.92214633333333, "is_reserved": 0, "is_disabled": 0, "type": "electric_scooter", "lat": 38.89936866666667, "rental_uris": {"ios": "https://dc.lft.to/lastmile_qr_scan", "android": "https://dc.lft.to/lastmile_qr_scan"}, "fusion_lat": 0.0, "fusion_lon": 0.0, "bike_id": "d867bbd998d0c3405ccbd3214bc706a3", "name": "d867bbd998d0c3405ccbd3214bc706a3"}, {"lon": -77.23390733333333, "is_reserved": 0, "is_disabled": 0, "type": "electric_bike", "lat": 38.924954, "rental_uris": {"ios": "https://dc.lft.to/lastmile_qr_scan", "android": "https://dc.lft.to/lastmile_qr_scan"}, "fusion_lat": 0.0, "fusion_lon": 0.0, "bike_id": "718068bcc22a5084fb66ccc95e89b0c3", "name": "718068bcc22a5084fb66ccc95e89b0c3"}, {"lon": -76.9165985, "is_reserved": 0, "is_disabled": 0, "type": "electric_bike", "lat": 38.868583, "rental_uris": {"ios": "https://dc.lft.to/lastmile_qr_scan", "android": "https://dc.lft.to/lastmile_qr_scan"}, "fusion_lat": 0.0, "fusion_lon": 0.0, "bike_id": "852b984d6b3b23fe97151a9463ddf264", "name": "852b984d6b3b23fe97151a9463ddf264"}, {"lon": -77.07131383333333, "is_reserved": 0, "is_disabled": 0, "type": "electric_scooter", "lat": 38.9197305, "rental_uris": {"ios": "https://dc.lft.to/lastmile_qr_scan", "android": "https://dc.lft.to/lastmile_qr_scan"}, "fusion_lat": 0.0, "fusion_lon": 0.0, "bike_id": "9bfde345f97faad61cbee15005ffb1b3", "name": "9bfde345f97faad61cbee15005ffb1b3"}, {"lon": -76.94246966666667, "is_reserved": 0, "is_disabled": 0, "type": "electric_scooter", "lat": 38.896787, "rental_uris": {"ios": "https://dc.lft.to/lastmile_qr_scan", "android": "https://dc.lft.to/lastmile_qr_scan"}, "fusion_lat": 0.0, "fusion_lon": 0.0, "bike_id": "a3c62274d055f6942b5ee08235ed9440", "name": "a3c62274d055f6942b5ee08235ed9440"}, {"lon": -77.043748, "is_reserved": 0, "is_disabled": 0, "type": "electric_scooter", "lat": 38.9064225, "rental_uris": {"ios": "https://dc.lft.to/lastmile_qr_scan", "android": "https://dc.lft.to/lastmile_qr_scan"}, "fusion_lat": 0.0, "fusion_lon": 0.0, "bike_id": "7e550edad79f355fd0c644f4538e2bc2", "name": "7e550edad79f355fd0c644f4538e2bc2"}, {"lon": -77.04009183333334, "is_reserved": 0, "is_disabled": 0, "type": "electric_scooter", "lat": 38.913151666666664, "rental_uris": {"ios": "https://dc.lft.to/lastmile_qr_scan", "android": "https://dc.lft.to/lastmile_qr_scan"}, "fusion_lat": 0.0, "fusion_lon": 0.0, "bike_id": "95b44ac11e74acf4b8d2cea8b1b39186", "name": "95b44ac11e74acf4b8d2cea8b1b39186"}, {"lon": -77.0136775, "is_reserved": 0, "is_disabled": 0, "type": "electric_scooter", "lat": 38.88706633333334, "rental_uris": {"ios": "https://dc.lft.to/lastmile_qr_scan", "android": "https://dc.lft.to/lastmile_qr_scan"}, "fusion_lat": 0.0, "fusion_lon": 0.0, "bike_id": "55d54cd0f5c22629967e414129048241", "name": "55d54cd0f5c22629967e414129048241"}, {"lon": -77.0384525, "is_reserved": 0, "is_disabled": 0, "type": "electric_scooter", "lat": 38.912071166666664, "rental_uris": {"ios": "https://dc.lft.to/lastmile_qr_scan", "android": "https://dc.lft.to/lastmile_qr_scan"}, "fusion_lat": 0.0, "fusion_lon": 0.0, "bike_id": "a4a971aed29b7675e936cee49acedfaa", "name": "a4a971aed29b7675e936cee49acedfaa"}, {"lon": -77.02576266666667, "is_reserved": 0, "is_disabled": 0, "type": "electric_scooter", "lat": 38.925101833333336, "rental_uris": {"ios": "https://dc.lft.to/lastmile_qr_scan", "android": "https://dc.lft.to/lastmile_qr_scan"}, "fusion_lat": 0.0, "fusion_lon": 0.0, "bike_id": "badd471a15460b8b06b58618b5256031", "name": "badd471a15460b8b06b58618b5256031"}, {"lon": -76.989152, "is_reserved": 0, "is_disabled": 0, "type": "electric_scooter", "lat": 38.86628983333333, "rental_uris": {"ios": "https://dc.lft.to/lastmile_qr_scan", "android": "https://dc.lft.to/lastmile_qr_scan"}, "fusion_lat": 0.0, "fusion_lon": 0.0, "bike_id": "05d7c281366b9c129ef56f32dcbdf9f6", "name": "05d7c281366b9c129ef56f32dcbdf9f6"}, {"lon": -76.973057, "is_reserved": 0, "is_disabled": 0, "type": "electric_scooter", "lat": 38.919901833333334, "rental_uris": {"ios": "https://dc.lft.to/lastmile_qr_scan", "android": "https://dc.lft.to/lastmile_qr_scan"}, "fusion_lat": 0.0, "fusion_lon": 0.0, "bike_id": "bb3ecb8671e59b0dda7c4b82ac6b1f9f", "name": "bb3ecb8671e59b0dda7c4b82ac6b1f9f"}, {"lon": -77.02373266666666, "is_reserved": 0, "is_disabled": 0, "type": "electric_scooter", "lat": 38.892225833333335, "rental_uris": {"ios": "https://dc.lft.to/lastmile_qr_scan", "android": "https://dc.lft.to/lastmile_qr_scan"}, "fusion_lat": 0.0, "fusion_lon": 0.0, "bike_id": "2d761f647c065fb9b5bb339ae4406b7f", "name": "2d761f647c065fb9b5bb339ae4406b7f"}, {"lon": -77.03248933333333, "is_reserved": 0, "is_disabled": 0, "type": "electric_bike", "lat": 38.929307333333334, "rental_uris": {"ios": "https://dc.lft.to/lastmile_qr_scan", "android": "https://dc.lft.to/lastmile_qr_scan"}, "fusion_lat": 0.0, "fusion_lon": 0.0, "bike_id": "79cc45e653adfb26cc5a506d67c6b296", "name": "79cc45e653adfb26cc5a506d67c6b296"}, {"lon": -76.96506916666667, "is_reserved": 0, "is_disabled": 0, "type": "electric_scooter", "lat": 38.8764685, "rental_uris": {"ios": "https://dc.lft.to/lastmile_qr_scan", "android": "https://dc.lft.to/lastmile_qr_scan"}, "fusion_lat": 0.0, "fusion_lon": 0.0, "bike_id": "be023c5b007bb8f6dccd37eef9a6dfb9", "name": "be023c5b007bb8f6dccd37eef9a6dfb9"}, {"lon": -77.01751483333334, "is_reserved": 0, "is_disabled": 0, "type": "electric_scooter", "lat": 38.90870433333333, "rental_uris": {"ios": "https://dc.lft.to/lastmile_qr_scan", "android": "https://dc.lft.to/lastmile_qr_scan"}, "fusion_lat": 0.0, "fusion_lon": 0.0, "bike_id": "baa0a10b06bf2c6dd74fa8001aa77bda", "name": "baa0a10b06bf2c6dd74fa8001aa77bda"}, {"lon": -77.0437005, "is_reserved": 0, "is_disabled": 0, "type": "electric_scooter", "lat": 38.9040465, "rental_uris": {"ios": "https://dc.lft.to/lastmile_qr_scan", "android": "https://dc.lft.to/lastmile_qr_scan"}, "fusion_lat": 0.0, "fusion_lon": 0.0, "bike_id": "253cfb752b54c8162f91af63919c96b7", "name": "253cfb752b54c8162f91af63919c96b7"}, {"lon": -77.04657416666667, "is_reserved": 0, "is_disabled": 0, "type": "electric_scooter", "lat": 38.90433983333333, "rental_uris": {"ios": "https://dc.lft.to/lastmile_qr_scan", "android": "https://dc.lft.to/lastmile_qr_scan"}, "fusion_lat": 0.0, "fusion_lon": 0.0, "bike_id": "2703838d4c56dbc4562aa1eeffcd8e51", "name": "2703838d4c56dbc4562aa1eeffcd8e51"}, {"lon": -77.04347633333333, "is_reserved": 0, "is_disabled": 0, "type": "electric_scooter", "lat": 38.9032695, "rental_uris": {"ios": "https://dc.lft.to/lastmile_qr_scan", "android": "https://dc.lft.to/lastmile_qr_scan"}, "fusion_lat": 0.0, "fusion_lon": 0.0, "bike_id": "538e166e295f330f0267ae224a45f003", "name": "538e166e295f330f0267ae224a45f003"}, {"lon": -76.99489983333333, "is_reserved": 0, "is_disabled": 0, "type": "electric_scooter", "lat": 38.862435, "rental_uris": {"ios": "https://dc.lft.to/lastmile_qr_scan", "android": "https://dc.lft.to/lastmile_qr_scan"}, "fusion_lat": 0.0, "fusion_lon": 0.0, "bike_id": "97447e1744e63d8bc76cdfdb4168eab3", "name": "97447e1744e63d8bc76cdfdb4168eab3"}, {"lon": -77.04388916666667, "is_reserved": 0, "is_disabled": 0, "type": "electric_scooter", "lat": 38.922754166666664, "rental_uris": {"ios": "https://dc.lft.to/lastmile_qr_scan", "android": "https://dc.lft.to/lastmile_qr_scan"}, "fusion_lat": 0.0, "fusion_lon": 0.0, "bike_id": "79d55b055d4f48a337c97004ca37c260", "name": "79d55b055d4f48a337c97004ca37c260"}, {"lon": -77.03272233333334, "is_reserved": 0, "is_disabled": 0, "type": "electric_scooter", "lat": 38.91559916666667, "rental_uris": {"ios": "https://dc.lft.to/lastmile_qr_scan", "android": "https://dc.lft.to/lastmile_qr_scan"}, "fusion_lat": 0.0, "fusion_lon": 0.0, "bike_id": "b471acc0835ef7a7ce01044d9ee38abd", "name": "b471acc0835ef7a7ce01044d9ee38abd"}, {"lon": -77.04901133333334, "is_reserved": 0, "is_disabled": 0, "type": "electric_scooter", "lat": 38.89251733333333, "rental_uris": {"ios": "https://dc.lft.to/lastmile_qr_scan", "android": "https://dc.lft.to/lastmile_qr_scan"}, "fusion_lat": 0.0, "fusion_lon": 0.0, "bike_id": "0c9939095bbd67e6e41c42043e1b3127", "name": "0c9939095bbd67e6e41c42043e1b3127"}, {"lon": -77.00801983333334, "is_reserved": 0, "is_disabled": 0, "type": "electric_scooter", "lat": 38.876547, "rental_uris": {"ios": "https://dc.lft.to/lastmile_qr_scan", "android": "https://dc.lft.to/lastmile_qr_scan"}, "fusion_lat": 0.0, "fusion_lon": 0.0, "bike_id": "99603b319a00d0d4fe4738b113383a3a", "name": "99603b319a00d0d4fe4738b113383a3a"}, {"lon": -77.02315233333333, "is_reserved": 0, "is_disabled": 0, "type": "electric_scooter", "lat": 38.899907166666665, "rental_uris": {"ios": "https://dc.lft.to/lastmile_qr_scan", "android": "https://dc.lft.to/lastmile_qr_scan"}, "fusion_lat": 0.0, "fusion_lon": 0.0, "bike_id": "c2009b3896bf6724fe336ae703b51ea9", "name": "c2009b3896bf6724fe336ae703b51ea9"}, {"lon": -77.04528666666667, "is_reserved": 0, "is_disabled": 0, "type": "electric_scooter", "lat": 38.902543333333334, "rental_uris": {"ios": "https://dc.lft.to/lastmile_qr_scan", "android": "https://dc.lft.to/lastmile_qr_scan"}, "fusion_lat": 0.0, "fusion_lon": 0.0, "bike_id": "cc4c7a19cbcb31a46dcdbaa12ee93da9", "name": "cc4c7a19cbcb31a46dcdbaa12ee93da9"}, {"lon": -77.34407916666666, "is_reserved": 0, "is_disabled": 0, "type": "electric_bike", "lat": 38.94598116666667, "rental_uris": {"ios": "https://dc.lft.to/lastmile_qr_scan", "android": "https://dc.lft.to/lastmile_qr_scan"}, "fusion_lat": 0.0, "fusion_lon": 0.0, "bike_id": "a15418100d0be53c288dca5af0b23e48", "name": "a15418100d0be53c288dca5af0b23e48"}, {"lon": -77.02809416666666, "is_reserved": 0, "is_disabled": 0, "type": "electric_scooter", "lat": 38.89933533333333, "rental_uris": {"ios": "https://dc.lft.to/lastmile_qr_scan", "android": "https://dc.lft.to/lastmile_qr_scan"}, "fusion_lat": 0.0, "fusion_lon": 0.0, "bike_id": "b16766b5c283ea5c167d657c079e7c37", "name": "b16766b5c283ea5c167d657c079e7c37"}, {"lon": -77.0020805, "is_reserved": 0, "is_disabled": 0, "type": "electric_scooter", "lat": 38.9003195, "rental_uris": {"ios": "https://dc.lft.to/lastmile_qr_scan", "android": "https://dc.lft.to/lastmile_qr_scan"}, "fusion_lat": 0.0, "fusion_lon": 0.0, "bike_id": "b88a1db8365f36581a7be4a3bb1992f0", "name": "b88a1db8365f36581a7be4a3bb1992f0"}, {"lon": -77.02844016666667, "is_reserved": 0, "is_disabled": 0, "type": "electric_scooter", "lat": 38.9237195, "rental_uris": {"ios": "https://dc.lft.to/lastmile_qr_scan", "android": "https://dc.lft.to/lastmile_qr_scan"}, "fusion_lat": 0.0, "fusion_lon": 0.0, "bike_id": "cab6ba71cd97bc36f5261e222b129101", "name": "cab6ba71cd97bc36f5261e222b129101"}, {"lon": -77.01761283333333, "is_reserved": 0, "is_disabled": 0, "type": "electric_scooter", "lat": 38.87723316666667, "rental_uris": {"ios": "https://dc.lft.to/lastmile_qr_scan", "android": "https://dc.lft.to/lastmile_qr_scan"}, "fusion_lat": 0.0, "fusion_lon": 0.0, "bike_id": "2ba5f8f17bd108cbbf780897128f4c16", "name": "2ba5f8f17bd108cbbf780897128f4c16"}, {"lon": -77.017728, "is_reserved": 0, "is_disabled": 0, "type": "electric_scooter", "lat": 38.921175833333336, "rental_uris": {"ios": "https://dc.lft.to/lastmile_qr_scan", "android": "https://dc.lft.to/lastmile_qr_scan"}, "fusion_lat": 0.0, "fusion_lon": 0.0, "bike_id": "fa8a1de8462ce536c29e4ea4f8c4168e", "name": "fa8a1de8462ce536c29e4ea4f8c4168e"}, {"lon": -77.04535533333333, "is_reserved": 0, "is_disabled": 0, "type": "electric_scooter", "lat": 38.91396683333333, "rental_uris": {"ios": "https://dc.lft.to/lastmile_qr_scan", "android": "https://dc.lft.to/lastmile_qr_scan"}, "fusion_lat": 0.0, "fusion_lon": 0.0, "bike_id": "6ded62a2c580fd1d1f919cfe638ce9bf", "name": "6ded62a2c580fd1d1f919cfe638ce9bf"}, {"lon": -76.948553, "is_reserved": 0, "is_disabled": 0, "type": "electric_scooter", "lat": 38.88303966666667, "rental_uris": {"ios": "https://dc.lft.to/lastmile_qr_scan", "android": "https://dc.lft.to/lastmile_qr_scan"}, "fusion_lat": 0.0, "fusion_lon": 0.0, "bike_id": "fa16e9e1411c37fcb7e7daa3cd693fef", "name": "fa16e9e1411c37fcb7e7daa3cd693fef"}, {"lon": -77.036636, "is_reserved": 0, "is_disabled": 0, "type": "electric_scooter", "lat": 38.91725, "rental_uris": {"ios": "https://dc.lft.to/lastmile_qr_scan", "android": "https://dc.lft.to/lastmile_qr_scan"}, "fusion_lat": 0.0, "fusion_lon": 0.0, "bike_id": "4dd903084f6a246d1ac043136e70216b", "name": "4dd903084f6a246d1ac043136e70216b"}, {"lon": -76.98885616666666, "is_reserved": 0, "is_disabled": 0, "type": "electric_scooter", "lat": 38.86671333333334, "rental_uris": {"ios": "https://dc.lft.to/lastmile_qr_scan", "android": "https://dc.lft.to/lastmile_qr_scan"}, "fusion_lat": 0.0, "fusion_lon": 0.0, "bike_id": "d5295a0226073fbd71d61fff7aa00cb7", "name": "d5295a0226073fbd71d61fff7aa00cb7"}, {"lon": -76.99027933333333, "is_reserved": 0, "is_disabled": 0, "type": "electric_scooter", "lat": 38.860753, "rental_uris": {"ios": "https://dc.lft.to/lastmile_qr_scan", "android": "https://dc.lft.to/lastmile_qr_scan"}, "fusion_lat": 0.0, "fusion_lon": 0.0, "bike_id": "19f5138eb963eaf42b7c857ef36f7277", "name": "19f5138eb963eaf42b7c857ef36f7277"}, {"lon": -76.96558533333334, "is_reserved": 0, "is_disabled": 0, "type": "electric_scooter", "lat": 38.91847, "rental_uris": {"ios": "https://dc.lft.to/lastmile_qr_scan", "android": "https://dc.lft.to/lastmile_qr_scan"}, "fusion_lat": 0.0, "fusion_lon": 0.0, "bike_id": "12bb171400f45ea3b6aba556d25ef20e", "name": "12bb171400f45ea3b6aba556d25ef20e"}, {"lon": -77.14325633333333, "is_reserved": 0, "is_disabled": 0, "type": "electric_bike", "lat": 39.054585333333335, "rental_uris": {"ios": "https://dc.lft.to/lastmile_qr_scan", "android": "https://dc.lft.to/lastmile_qr_scan"}, "fusion_lat": 0.0, "fusion_lon": 0.0, "bike_id": "469207e1b78d37b2af55179936a6330e", "name": "469207e1b78d37b2af55179936a6330e"}, {"lon": -77.0055565, "is_reserved": 0, "is_disabled": 0, "type": "electric_scooter", "lat": 38.911842666666665, "rental_uris": {"ios": "https://dc.lft.to/lastmile_qr_scan", "android": "https://dc.lft.to/lastmile_qr_scan"}, "fusion_lat": 0.0, "fusion_lon": 0.0, "bike_id": "00e56d9b3318aadb22546444e6f3fe48", "name": "00e56d9b3318aadb22546444e6f3fe48"}, {"lon": -77.061869, "is_reserved": 0, "is_disabled": 0, "type": "electric_scooter", "lat": 38.93014, "rental_uris": {"ios": "https://dc.lft.to/lastmile_qr_scan", "android": "https://dc.lft.to/lastmile_qr_scan"}, "fusion_lat": 0.0, "fusion_lon": 0.0, "bike_id": "e81c5a32d89ae381f07bcfb00b6ee06b", "name": "e81c5a32d89ae381f07bcfb00b6ee06b"}, {"lon": -76.994953, "is_reserved": 0, "is_disabled": 0, "type": "electric_scooter", "lat": 38.86220466666666, "rental_uris": {"ios": "https://dc.lft.to/lastmile_qr_scan", "android": "https://dc.lft.to/lastmile_qr_scan"}, "fusion_lat": 0.0, "fusion_lon": 0.0, "bike_id": "a11dd4f466d334cce7abf911adb95396", "name": "a11dd4f466d334cce7abf911adb95396"}, {"lon": -77.03522483333333, "is_reserved": 0, "is_disabled": 0, "type": "electric_scooter", "lat": 38.932773166666664, "rental_uris": {"ios": "https://dc.lft.to/lastmile_qr_scan", "android": "https://dc.lft.to/lastmile_qr_scan"}, "fusion_lat": 0.0, "fusion_lon": 0.0, "bike_id": "e0efd0a5a3adc94af399501ee15b6cae", "name": "e0efd0a5a3adc94af399501ee15b6cae"}, {"lon": -77.00824066666667, "is_reserved": 0, "is_disabled": 0, "type": "electric_bike", "lat": 38.88727133333333, "rental_uris": {"ios": "https://dc.lft.to/lastmile_qr_scan", "android": "https://dc.lft.to/lastmile_qr_scan"}, "fusion_lat": 0.0, "fusion_lon": 0.0, "bike_id": "f129fda75889e07af1d3a1b65b72a6e2", "name": "f129fda75889e07af1d3a1b65b72a6e2"}, {"lon": -77.04508666666666, "is_reserved": 0, "is_disabled": 0, "type": "electric_scooter", "lat": 38.886055166666665, "rental_uris": {"ios": "https://dc.lft.to/lastmile_qr_scan", "android": "https://dc.lft.to/lastmile_qr_scan"}, "fusion_lat": 0.0, "fusion_lon": 0.0, "bike_id": "ba601dcff877ed5d3219644e5a73aa6d", "name": "ba601dcff877ed5d3219644e5a73aa6d"}, {"lon": -77.03196516666667, "is_reserved": 0, "is_disabled": 0, "type": "electric_scooter", "lat": 38.9201355, "rental_uris": {"ios": "https://dc.lft.to/lastmile_qr_scan", "android": "https://dc.lft.to/lastmile_qr_scan"}, "fusion_lat": 0.0, "fusion_lon": 0.0, "bike_id": "d2e207b447522664d4bd86357d9ee6cf", "name": "d2e207b447522664d4bd86357d9ee6cf"}, {"lon": -77.038029, "is_reserved": 0, "is_disabled": 0, "type": "electric_scooter", "lat": 38.910343, "rental_uris": {"ios": "https://dc.lft.to/lastmile_qr_scan", "android": "https://dc.lft.to/lastmile_qr_scan"}, "fusion_lat": 0.0, "fusion_lon": 0.0, "bike_id": "69d0e35a17e2ee0e3f0f25398857dc39", "name": "69d0e35a17e2ee0e3f0f25398857dc39"}, {"lon": -77.0332085, "is_reserved": 0, "is_disabled": 0, "type": "electric_scooter", "lat": 38.898338833333334, "rental_uris": {"ios": "https://dc.lft.to/lastmile_qr_scan", "android": "https://dc.lft.to/lastmile_qr_scan"}, "fusion_lat": 0.0, "fusion_lon": 0.0, "bike_id": "194e2d939676fd50b85df4bbcd00c51c", "name": "194e2d939676fd50b85df4bbcd00c51c"}, {"lon": -77.037004, "is_reserved": 0, "is_disabled": 0, "type": "electric_scooter", "lat": 38.920297166666664, "rental_uris": {"ios": "https://dc.lft.to/lastmile_qr_scan", "android": "https://dc.lft.to/lastmile_qr_scan"}, "fusion_lat": 0.0, "fusion_lon": 0.0, "bike_id": "c9c1bf4a17cb743833fa84633d2633f7", "name": "c9c1bf4a17cb743833fa84633d2633f7"}, {"lon": -77.029332, "is_reserved": 0, "is_disabled": 0, "type": "electric_scooter", "lat": 38.8999505, "rental_uris": {"ios": "https://dc.lft.to/lastmile_qr_scan", "android": "https://dc.lft.to/lastmile_qr_scan"}, "fusion_lat": 0.0, "fusion_lon": 0.0, "bike_id": "e6550ac1dc156fc230fe72bb7acf08e1", "name": "e6550ac1dc156fc230fe72bb7acf08e1"}, {"lon": -77.1012555, "is_reserved": 0, "is_disabled": 0, "type": "electric_bike", "lat": 38.852104, "rental_uris": {"ios": "https://dc.lft.to/lastmile_qr_scan", "android": "https://dc.lft.to/lastmile_qr_scan"}, "fusion_lat": 0.0, "fusion_lon": 0.0, "bike_id": "39573cb77733ae59a1805191f3160bc5", "name": "39573cb77733ae59a1805191f3160bc5"}, {"lon": -77.04593983333334, "is_reserved": 0, "is_disabled": 0, "type": "electric_scooter", "lat": 38.896086833333335, "rental_uris": {"ios": "https://dc.lft.to/lastmile_qr_scan", "android": "https://dc.lft.to/lastmile_qr_scan"}, "fusion_lat": 0.0, "fusion_lon": 0.0, "bike_id": "4016620275901abc86008916932e7ca4", "name": "4016620275901abc86008916932e7ca4"}, {"lon": -77.03053483333333, "is_reserved": 0, "is_disabled": 0, "type": "electric_scooter", "lat": 38.9398015, "rental_uris": {"ios": "https://dc.lft.to/lastmile_qr_scan", "android": "https://dc.lft.to/lastmile_qr_scan"}, "fusion_lat": 0.0, "fusion_lon": 0.0, "bike_id": "9039bf965ae03c85e3abaf63befe3d30", "name": "9039bf965ae03c85e3abaf63befe3d30"}, {"lon": -77.04188316666666, "is_reserved": 0, "is_disabled": 0, "type": "electric_scooter", "lat": 38.911405333333335, "rental_uris": {"ios": "https://dc.lft.to/lastmile_qr_scan", "android": "https://dc.lft.to/lastmile_qr_scan"}, "fusion_lat": 0.0, "fusion_lon": 0.0, "bike_id": "9cee15bdad6aae3914010935334dd225", "name": "9cee15bdad6aae3914010935334dd225"}, {"lon": -77.037389, "is_reserved": 0, "is_disabled": 0, "type": "electric_scooter", "lat": 38.930828, "rental_uris": {"ios": "https://dc.lft.to/lastmile_qr_scan", "android": "https://dc.lft.to/lastmile_qr_scan"}, "fusion_lat": 0.0, "fusion_lon": 0.0, "bike_id": "77607bee5712e3e69839ef58eed206b6", "name": "77607bee5712e3e69839ef58eed206b6"}, {"lon": -77.04748266666667, "is_reserved": 0, "is_disabled": 0, "type": "electric_scooter", "lat": 38.90976783333333, "rental_uris": {"ios": "https://dc.lft.to/lastmile_qr_scan", "android": "https://dc.lft.to/lastmile_qr_scan"}, "fusion_lat": 0.0, "fusion_lon": 0.0, "bike_id": "d8ecc2ec1eb06deb7eefe750b1d925a4", "name": "d8ecc2ec1eb06deb7eefe750b1d925a4"}, {"lon": -77.014044, "is_reserved": 0, "is_disabled": 0, "type": "electric_scooter", "lat": 38.87904566666667, "rental_uris": {"ios": "https://dc.lft.to/lastmile_qr_scan", "android": "https://dc.lft.to/lastmile_qr_scan"}, "fusion_lat": 0.0, "fusion_lon": 0.0, "bike_id": "db018f8ec12c0be035f768d1450d20ad", "name": "db018f8ec12c0be035f768d1450d20ad"}, {"lon": -77.02114133333333, "is_reserved": 0, "is_disabled": 0, "type": "electric_scooter", "lat": 38.917366666666666, "rental_uris": {"ios": "https://dc.lft.to/lastmile_qr_scan", "android": "https://dc.lft.to/lastmile_qr_scan"}, "fusion_lat": 0.0, "fusion_lon": 0.0, "bike_id": "f07d061009b10f29551b93cdde824bfb", "name": "f07d061009b10f29551b93cdde824bfb"}, {"lon": -77.03796083333333, "is_reserved": 0, "is_disabled": 0, "type": "electric_scooter", "lat": 38.92631883333333, "rental_uris": {"ios": "https://dc.lft.to/lastmile_qr_scan", "android": "https://dc.lft.to/lastmile_qr_scan"}, "fusion_lat": 0.0, "fusion_lon": 0.0, "bike_id": "74bad69a2d3e206ea5bb23953850e9c9", "name": "74bad69a2d3e206ea5bb23953850e9c9"}, {"lon": -77.043501, "is_reserved": 0, "is_disabled": 0, "type": "electric_scooter", "lat": 38.910620333333334, "rental_uris": {"ios": "https://dc.lft.to/lastmile_qr_scan", "android": "https://dc.lft.to/lastmile_qr_scan"}, "fusion_lat": 0.0, "fusion_lon": 0.0, "bike_id": "f58017ee6b436815b44e66f81c10f37a", "name": "f58017ee6b436815b44e66f81c10f37a"}, {"lon": -76.99959416666667, "is_reserved": 0, "is_disabled": 0, "type": "electric_scooter", "lat": 38.89320166666667, "rental_uris": {"ios": "https://dc.lft.to/lastmile_qr_scan", "android": "https://dc.lft.to/lastmile_qr_scan"}, "fusion_lat": 0.0, "fusion_lon": 0.0, "bike_id": "7e9a478971eb378598fd2ab8f4f8068c", "name": "7e9a478971eb378598fd2ab8f4f8068c"}, {"lon": -76.99515383333333, "is_reserved": 0, "is_disabled": 0, "type": "electric_bike", "lat": 38.9337975, "rental_uris": {"ios": "https://dc.lft.to/lastmile_qr_scan", "android": "https://dc.lft.to/lastmile_qr_scan"}, "fusion_lat": 0.0, "fusion_lon": 0.0, "bike_id": "e7c55ed74487a4ad694e2bcafb7c1884", "name": "e7c55ed74487a4ad694e2bcafb7c1884"}, {"lon": -77.01107916666666, "is_reserved": 0, "is_disabled": 0, "type": "electric_scooter", "lat": 38.90782933333333, "rental_uris": {"ios": "https://dc.lft.to/lastmile_qr_scan", "android": "https://dc.lft.to/lastmile_qr_scan"},