{"data": {"bikes": [{"name": "30f7c0c3d4c2be99c5626a5d5bb0f83e", "fusion_lat": 0.0, "type": "electric_scooter", "lat": 38.92421916666667, "is_reserved": 0, "is_disabled": 0, "fusion_lon": 0.0, "bike_id": "30f7c0c3d4c2be99c5626a5d5bb0f83e", "lon": -77.01952016666667, "rental_uris": {"ios": "https://dc.lft.to/lastmile_qr_scan", "android": "https://dc.lft.to/lastmile_qr_scan"}}, {"name": "78a4472006edad1871942ab34196cc58", "fusion_lat": 0.0, "type": "electric_scooter", "lat": 38.895490333333335, "is_reserved": 0, "is_disabled": 0, "fusion_lon": 0.0, "bike_id": "78a4472006edad1871942ab34196cc58", "lon": -77.0468745, "rental_uris": {"ios": "https://dc.lft.to/lastmile_qr_scan", "android": "https://dc.lft.to/lastmile_qr_scan"}}, {"name": "2f1e268e32ff4b7f919a8794a6bc7d3d", "fusion_lat": 0.0, "type": "electric_scooter", "lat": 38.892200833333334, "is_reserved": 0, "is_disabled": 0, "fusion_lon": 0.0, "bike_id": "2f1e268e32ff4b7f919a8794a6bc7d3d", "lon": -77.04332766666667, "rental_uris": {"ios": "https://dc.lft.to/lastmile_qr_scan", "android": "https://dc.lft.to/lastmile_qr_scan"}}, {"name": "1026a4f9055d5ed6170917ad2bc8c9c3", "fusion_lat": 0.0, "type": "electric_scooter", "lat": 38.919262833333335, "is_reserved": 0, "is_disabled": 0, "fusion_lon": 0.0, "bike_id": "1026a4f9055d5ed6170917ad2bc8c9c3", "lon": -77.0241705, "rental_uris": {"ios": "https://dc.lft.to/lastmile_qr_scan", "android": "https://dc.lft.to/lastmile_qr_scan"}}, {"name": "03e58f341b19ce8d28fb2ac4c7aded0d", "fusion_lat": 0.0, "type": "electric_scooter", "lat": 38.92880683333333, "is_reserved": 0, "is_disabled": 0, "fusion_lon": 0.0, "bike_id": "03e58f341b19ce8d28fb2ac4c7aded0d", "lon": -77.04123966666667, "rental_uris": {"ios": "https://dc.lft.to/lastmile_qr_scan", "android": "https://dc.lft.to/lastmile_qr_scan"}}, {"name": "8cfa100f50a38126547f1bfec787e67a", "fusion_lat": 0.0, "type": "electric_bike", "lat": 38.9548005, "is_reserved": 0, "is_disabled": 0, "fusion_lon": 0.0, "bike_id": "8cfa100f50a38126547f1bfec787e67a", "lon": -77.08244766666667, "rental_uris": {"ios": "https://dc.lft.to/lastmile_qr_scan", "android": "https://dc.lft.to/lastmile_qr_scan"}}, {"name": "9806000a482268e575bfff7fc6c8bf5f", "fusion_lat": 0.0, "type": "electric_scooter", "lat": 38.9148015, "is_reserved": 0, "is_disabled": 0, "fusion_lon": 0.0, "bike_id": "9806000a482268e575bfff7fc6c8bf5f", "lon": -77.00983283333333, "rental_uris": {"ios": "https://dc.lft.to/lastmile_qr_scan", "android": "https://dc.lft.to/lastmile_qr_scan"}}, {"name": "9ee6fc169ebdd8af9cfc840486b43560", "fusion_lat": 0.0, "type": "electric_scooter", "lat": 38.93359366666667, "is_reserved": 0, "is_disabled": 0, "fusion_lon": 0.0, "bike_id": "9ee6fc169ebdd8af9cfc840486b43560", "lon": -77.057328, "rental_uris": {"ios": "https://dc.lft.to/lastmile_qr_scan", "android": "https://dc.lft.to/lastmile_qr_scan"}}, {"name": "9af006896abe4eddaea6496149238207", "fusion_lat": 0.0, "type": "electric_scooter", "lat": 38.90468466666667, "is_reserved": 0, "is_disabled": 0, "fusion_lon": 0.0, "bike_id": "9af006896abe4eddaea6496149238207", "lon": -77.0415045, "rental_uris": {"ios": "https://dc.lft.to/lastmile_qr_scan", "android": "https://dc.lft.to/lastmile_qr_scan"}}, {"name": "57a7b629962c276d3e8234ebf3daeead", "fusion_lat": 0.0, "type": "electric_scooter", "lat": 38.909548, "is_reserved": 0, "is_disabled": 0, "fusion_lon": 0.0, "bike_id": "57a7b629962c276d3e8234ebf3daeead", "lon": -77.04550933333333, "rental_uris": {"ios": "https://dc.lft.to/lastmile_qr_scan", "android": "https://dc.lft.to/lastmile_qr_scan"}}, {"name": "4a94ca668a3ea740265a0242b11bf8d4", "fusion_lat": 0.0, "type": "electric_scooter", "lat": 38.896589, "is_reserved": 0, "is_disabled": 0, "fusion_lon": 0.0, "bike_id": "4a94ca668a3ea740265a0242b11bf8d4", "lon": -77.04888116666666, "rental_uris": {"ios": "https://dc.lft.to/lastmile_qr_scan", "android": "https://dc.lft.to/lastmile_qr_scan"}}, {"name": "81ed4494ed1d045a2c46af6a3f85fd2a", "fusion_lat": 0.0, "type": "electric_scooter", "lat": 38.95923833333333, "is_reserved": 0, "is_disabled": 0, "fusion_lon": 0.0, "bike_id": "81ed4494ed1d045a2c46af6a3f85fd2a", "lon": -77.033248, "rental_uris": {"ios": "https://dc.lft.to/lastmile_qr_scan", "android": "https://dc.lft.to/lastmile_qr_scan"}}, {"name": "e3fa4b456d6ce1af52bd36e5217b27e8", "fusion_lat": 0.0, "type": "electric_scooter", "lat": 38.90113316666667, "is_reserved": 0, "is_disabled": 0, "fusion_lon": 0.0, "bike_id": "e3fa4b456d6ce1af52bd36e5217b27e8", "lon": -77.05166583333333, "rental_uris": {"ios": "https://dc.lft.to/lastmile_qr_scan", "android": "https://dc.lft.to/lastmile_qr_scan"}}, {"name": "82764df40fc4cbb3f1c045691010c271", "fusion_lat": 0.0, "type": "electric_scooter", "lat": 38.89798783333333, "is_reserved": 0, "is_disabled": 0, "fusion_lon": 0.0, "bike_id": "82764df40fc4cbb3f1c045691010c271", "lon": -76.99497833333334, "rental_uris": {"ios": "https://dc.lft.to/lastmile_qr_scan", "android": "https://dc.lft.to/lastmile_qr_scan"}}, {"name": "68c1bf1d8f248e8d24e4f2feb08eb899", "fusion_lat": 0.0, "type": "electric_scooter", "lat": 38.9234185, "is_reserved": 0, "is_disabled": 0, "fusion_lon": 0.0, "bike_id": "68c1bf1d8f248e8d24e4f2feb08eb899", "lon": -77.0510145, "rental_uris": {"ios": "https://dc.lft.to/lastmile_qr_scan", "android": "https://dc.lft.to/lastmile_qr_scan"}}, {"name": "8d0d0331f8d43acc142c34febdd6a0f2", "fusion_lat": 0.0, "type": "electric_scooter", "lat": 38.896277833333336, "is_reserved": 0, "is_disabled": 0, "fusion_lon": 0.0, "bike_id": "8d0d0331f8d43acc142c34febdd6a0f2", "lon": -77.026801, "rental_uris": {"ios": "https://dc.lft.to/lastmile_qr_scan", "android": "https://dc.lft.to/lastmile_qr_scan"}}, {"name": "6a21a5ad404504e709eda103cd3e8089", "fusion_lat": 0.0, "type": "electric_scooter", "lat": 38.9004275, "is_reserved": 0, "is_disabled": 0, "fusion_lon": 0.0, "bike_id": "6a21a5ad404504e709eda103cd3e8089", "lon": -76.91917833333333, "rental_uris": {"ios": "https://dc.lft.to/lastmile_qr_scan", "android": "https://dc.lft.to/lastmile_qr_scan"}}, {"name": "631c8256ace56f253082f24298a97828", "fusion_lat": 0.0, "type": "electric_bike", "lat": 38.9103175, "is_reserved": 0, "is_disabled": 0, "fusion_lon": 0.0, "bike_id": "631c8256ace56f253082f24298a97828", "lon": -77.034436, "rental_uris": {"ios": "https://dc.lft.to/lastmile_qr_scan", "android": "https://dc.lft.to/lastmile_qr_scan"}}, {"name": "079f809a0ffcae18186a0a70123ae1b8", "fusion_lat": 0.0, "type": "electric_scooter", "lat": 38.8621775, "is_reserved": 0, "is_disabled": 0, "fusion_lon": 0.0, "bike_id": "079f809a0ffcae18186a0a70123ae1b8", "lon": -76.9949095, "rental_uris": {"ios": "https://dc.lft.to/lastmile_qr_scan", "android": "https://dc.lft.to/lastmile_qr_scan"}}, {"name": "0f380f539b8d4f2b31ef2b887b79a991", "fusion_lat": 0.0, "type": "electric_scooter", "lat": 38.9033635, "is_reserved": 0, "is_disabled": 0, "fusion_lon": 0.0, "bike_id": "0f380f539b8d4f2b31ef2b887b79a991", "lon": -77.0382045, "rental_uris": {"ios": "https://dc.lft.to/lastmile_qr_scan", "android": "https://dc.lft.to/lastmile_qr_scan"}}, {"name": "f4d1bf154571e2edb41788596ee39cd9", "fusion_lat": 0.0, "type": "electric_scooter", "lat": 38.906749833333336, "is_reserved": 0, "is_disabled": 0, "fusion_lon": 0.0, "bike_id": "f4d1bf154571e2edb41788596ee39cd9", "lon": -77.03827933333334, "rental_uris": {"ios": "https://dc.lft.to/lastmile_qr_scan", "android": "https://dc.lft.to/lastmile_qr_scan"}}, {"name": "ebfa05ab30e50c76e210cc3cff1d3a0f", "fusion_lat": 0.0, "type": "electric_scooter", "lat": 38.9186265, "is_reserved": 0, "is_disabled": 0, "fusion_lon": 0.0, "bike_id": "ebfa05ab30e50c76e210cc3cff1d3a0f", "lon": -77.04474933333333, "rental_uris": {"ios": "https://dc.lft.to/lastmile_qr_scan", "android": "https://dc.lft.to/lastmile_qr_scan"}}, {"name": "ff75e11e36933450158987db4ce4d5d0", "fusion_lat": 0.0, "type": "electric_bike", "lat": 38.86547233333334, "is_reserved": 0, "is_disabled": 0, "fusion_lon": 0.0, "bike_id": "ff75e11e36933450158987db4ce4d5d0", "lon": -76.974185, "rental_uris": {"ios": "https://dc.lft.to/lastmile_qr_scan", "android": "https://dc.lft.to/lastmile_qr_scan"}}, {"name": "7513d72f112430273d303cd52bc442ef", "fusion_lat": 0.0, "type": "electric_scooter", "lat": 38.90082233333333, "is_reserved": 0, "is_disabled": 0, "fusion_lon": 0.0, "bike_id": "7513d72f112430273d303cd52bc442ef", "lon": -77.05908366666667, "rental_uris": {"ios": "https://dc.lft.to/lastmile_qr_scan", "android": "https://dc.lft.to/lastmile_qr_scan"}}, {"name": "beed6f29cba702c9517b79cacb57372a", "fusion_lat": 0.0, "type": "electric_scooter", "lat": 38.936446833333335, "is_reserved": 0, "is_disabled": 0, "fusion_lon": 0.0, "bike_id": "beed6f29cba702c9517b79cacb57372a", "lon": -77.02086333333334, "rental_uris": {"ios": "https://dc.lft.to/lastmile_qr_scan", "android": "https://dc.lft.to/lastmile_qr_scan"}}, {"name": "22b0d81eed4d92e02c3cac880110a463", "fusion_lat": 0.0, "type": "electric_scooter", "lat": 38.89837033333333, "is_reserved": 0, "is_disabled": 0, "fusion_lon": 0.0, "bike_id": "22b0d81eed4d92e02c3cac880110a463", "lon": -77.0483715, "rental_uris": {"ios": "https://dc.lft.to/lastmile_qr_scan", "android": "https://dc.lft.to/lastmile_qr_scan"}}, {"name": "ed4fd65bc1963b0731de4c977abb44e0", "fusion_lat": 0.0, "type": "electric_scooter", "lat": 38.911224, "is_reserved": 0, "is_disabled": 0, "fusion_lon": 0.0, "bike_id": "ed4fd65bc1963b0731de4c977abb44e0", "lon": -77.03741233333334, "rental_uris": {"ios": "https://dc.lft.to/lastmile_qr_scan", "android": "https://dc.lft.to/lastmile_qr_scan"}}, {"name": "c2cd0bb49b38fa28ecdc5dbc66c58c6b", "fusion_lat": 0.0, "type": "electric_scooter", "lat": 38.903221, "is_reserved": 0, "is_disabled": 0, "fusion_lon": 0.0, "bike_id": "c2cd0bb49b38fa28ecdc5dbc66c58c6b", "lon": -77.05173766666667, "rental_uris": {"ios": "https://dc.lft.to/lastmile_qr_scan", "android": "https://dc.lft.to/lastmile_qr_scan"}}, {"name": "191d0dcb3ee6cb1afb5979f4d1f56b89", "fusion_lat": 0.0, "type": "electric_scooter", "lat": 38.89220816666667, "is_reserved": 0, "is_disabled": 0, "fusion_lon": 0.0, "bike_id": "191d0dcb3ee6cb1afb5979f4d1f56b89", "lon": -77.04370016666667, "rental_uris": {"ios": "https://dc.lft.to/lastmile_qr_scan", "android": "https://dc.lft.to/lastmile_qr_scan"}}, {"name": "3e159e0dbfcf51a4c388f5614939d575", "fusion_lat": 0.0, "type": "electric_scooter", "lat": 38.890178, "is_reserved": 0, "is_disabled": 0, "fusion_lon": 0.0, "bike_id": "3e159e0dbfcf51a4c388f5614939d575", "lon": -76.93736816666667, "rental_uris": {"ios": "https://dc.lft.to/lastmile_qr_scan", "android": "https://dc.lft.to/lastmile_qr_scan"}}, {"name": "d7f2e05ccbb9baea6d5683b5168b6d52", "fusion_lat": 0.0, "type": "electric_scooter", "lat": 38.894049, "is_reserved": 0, "is_disabled": 0, "fusion_lon": 0.0, "bike_id": "d7f2e05ccbb9baea6d5683b5168b6d52", "lon": -77.02183566666666, "rental_uris": {"ios": "https://dc.lft.to/lastmile_qr_scan", "android": "https://dc.lft.to/lastmile_qr_scan"}}, {"name": "6f44449861b458f6ed86be3ae58c2c53", "fusion_lat": 0.0, "type": "electric_scooter", "lat": 38.90137566666667, "is_reserved": 0, "is_disabled": 0, "fusion_lon": 0.0, "bike_id": "6f44449861b458f6ed86be3ae58c2c53", "lon": -77.0424485, "rental_uris": {"ios": "https://dc.lft.to/lastmile_qr_scan", "android": "https://dc.lft.to/lastmile_qr_scan"}}, {"name": "766da12340784e0ad1c4dba598b85b82", "fusion_lat": 0.0, "type": "electric_scooter", "lat": 38.90148833333333, "is_reserved": 0, "is_disabled": 0, "fusion_lon": 0.0, "bike_id": "766da12340784e0ad1c4dba598b85b82", "lon": -77.04400133333333, "rental_uris": {"ios": "https://dc.lft.to/lastmile_qr_scan", "android": "https://dc.lft.to/lastmile_qr_scan"}}, {"name": "c2f07b0bd5449f67e58926c8906f5ca9", "fusion_lat": 0.0, "type": "electric_scooter", "lat": 38.909619, "is_reserved": 0, "is_disabled": 0, "fusion_lon": 0.0, "bike_id": "c2f07b0bd5449f67e58926c8906f5ca9", "lon": -77.03951533333333, "rental_uris": {"ios": "https://dc.lft.to/lastmile_qr_scan", "android": "https://dc.lft.to/lastmile_qr_scan"}}, {"name": "e9d79fa30ffae5c7b1939b5b1def4015", "fusion_lat": 0.0, "type": "electric_scooter", "lat": 38.88356316666667, "is_reserved": 0, "is_disabled": 0, "fusion_lon": 0.0, "bike_id": "e9d79fa30ffae5c7b1939b5b1def4015", "lon": -76.99611783333333, "rental_uris": {"ios": "https://dc.lft.to/lastmile_qr_scan", "android": "https://dc.lft.to/lastmile_qr_scan"}}, {"name": "a71d7fdba59b0586120dcbcde82f4d10", "fusion_lat": 0.0, "type": "electric_scooter", "lat": 38.91997816666667, "is_reserved": 0, "is_disabled": 0, "fusion_lon": 0.0, "bike_id": "a71d7fdba59b0586120dcbcde82f4d10", "lon": -76.95810316666666, "rental_uris": {"ios": "https://dc.lft.to/lastmile_qr_scan", "android": "https://dc.lft.to/lastmile_qr_scan"}}, {"name": "38c322a43301b051cf9ca6f6236b1c5e", "fusion_lat": 0.0, "type": "electric_scooter", "lat": 38.923629, "is_reserved": 0, "is_disabled": 0, "fusion_lon": 0.0, "bike_id": "38c322a43301b051cf9ca6f6236b1c5e", "lon": -77.05084366666667, "rental_uris": {"ios": "https://dc.lft.to/lastmile_qr_scan", "android": "https://dc.lft.to/lastmile_qr_scan"}}, {"name": "e9eddbe59a79b17414560eb8584699a6", "fusion_lat": 0.0, "type": "electric_scooter", "lat": 38.900459833333336, "is_reserved": 0, "is_disabled": 0, "fusion_lon": 0.0, "bike_id": "e9eddbe59a79b17414560eb8584699a6", "lon": -77.0074675, "rental_uris": {"ios": "https://dc.lft.to/lastmile_qr_scan", "android": "https://dc.lft.to/lastmile_qr_scan"}}, {"name": "8184f8da0a48c53bf4a7d3ea546ea814", "fusion_lat": 0.0, "type": "electric_scooter", "lat": 38.90060866666666, "is_reserved": 0, "is_disabled": 0, "fusion_lon": 0.0, "bike_id": "8184f8da0a48c53bf4a7d3ea546ea814", "lon": -77.0453455, "rental_uris": {"ios": "https://dc.lft.to/lastmile_qr_scan", "android": "https://dc.lft.to/lastmile_qr_scan"}}, {"name": "107a36a25aacae184f74e97f907e4181", "fusion_lat": 0.0, "type": "electric_scooter", "lat": 38.906555, "is_reserved": 0, "is_disabled": 0, "fusion_lon": 0.0, "bike_id": "107a36a25aacae184f74e97f907e4181", "lon": -77.03872083333333, "rental_uris": {"ios": "https://dc.lft.to/lastmile_qr_scan", "android": "https://dc.lft.to/lastmile_qr_scan"}}, {"name": "18753cd61599fd136be3ffa7dd83db62", "fusion_lat": 0.0, "type": "electric_scooter", "lat": 38.936104, "is_reserved": 0, "is_disabled": 0, "fusion_lon": 0.0, "bike_id": "18753cd61599fd136be3ffa7dd83db62", "lon": -77.0586425, "rental_uris": {"ios": "https://dc.lft.to/lastmile_qr_scan", "android": "https://dc.lft.to/lastmile_qr_scan"}}, {"name": "1b06a3fd0e0c2de59ffd4d9b8773a1fc", "fusion_lat": 0.0, "type": "electric_scooter", "lat": 38.91716183333333, "is_reserved": 0, "is_disabled": 0, "fusion_lon": 0.0, "bike_id": "1b06a3fd0e0c2de59ffd4d9b8773a1fc", "lon": -77.04177266666666, "rental_uris": {"ios": "https://dc.lft.to/lastmile_qr_scan", "android": "https://dc.lft.to/lastmile_qr_scan"}}, {"name": "e8926c5c6ad07f9e7615df16a82e7278", "fusion_lat": 0.0, "type": "electric_scooter", "lat": 38.920288, "is_reserved": 0, "is_disabled": 0, "fusion_lon": 0.0, "bike_id": "e8926c5c6ad07f9e7615df16a82e7278", "lon": -77.07156266666667, "rental_uris": {"ios": "https://dc.lft.to/lastmile_qr_scan", "android": "https://dc.lft.to/lastmile_qr_scan"}}, {"name": "2177038446e24493e3e05e1806ed5acc", "fusion_lat": 0.0, "type": "electric_scooter", "lat": 38.8962865, "is_reserved": 0, "is_disabled": 0, "fusion_lon": 0.0, "bike_id": "2177038446e24493e3e05e1806ed5acc", "lon": -77.02963083333333, "rental_uris": {"ios": "https://dc.lft.to/lastmile_qr_scan", "android": "https://dc.lft.to/lastmile_qr_scan"}}, {"name": "7253c8c1dc2f88c1cfbd87d8975de65a", "fusion_lat": 0.0, "type": "electric_bike", "lat": 38.964975333333335, "is_reserved": 0, "is_disabled": 0, "fusion_lon": 0.0, "bike_id": "7253c8c1dc2f88c1cfbd87d8975de65a", "lon": -77.06491266666667, "rental_uris": {"ios": "https://dc.lft.to/lastmile_qr_scan", "android": "https://dc.lft.to/lastmile_qr_scan"}}, {"name": "da3551cc31175904fc54ef51723c546e", "fusion_lat": 0.0, "type": "electric_scooter", "lat": 38.92611016666667, "is_reserved": 0, "is_disabled": 0, "fusion_lon": 0.0, "bike_id": "da3551cc31175904fc54ef51723c546e", "lon": -77.02164033333334, "rental_uris": {"ios": "https://dc.lft.to/lastmile_qr_scan", "android": "https://dc.lft.to/lastmile_qr_scan"}}, {"name": "394ffb07e1ab3fa86c34b687bb10e06b", "fusion_lat": 0.0, "type": "electric_scooter", "lat": 38.894768, "is_reserved": 0, "is_disabled": 0, "fusion_lon": 0.0, "bike_id": "394ffb07e1ab3fa86c34b687bb10e06b", "lon": -77.00135066666667, "rental_uris": {"ios": "https://dc.lft.to/lastmile_qr_scan", "android": "https://dc.lft.to/lastmile_qr_scan"}}, {"name": "000f7c481e3c8367fafb12f996543a03", "fusion_lat": 0.0, "type": "electric_scooter", "lat": 38.9057775, "is_reserved": 0, "is_disabled": 0, "fusion_lon": 0.0, "bike_id": "000f7c481e3c8367fafb12f996543a03", "lon": -77.043867, "rental_uris": {"ios": "https://dc.lft.to/lastmile_qr_scan", "android": "https://dc.lft.to/lastmile_qr_scan"}}, {"name": "d563765df1a9cbf83a13ae6ffc0bddff", "fusion_lat": 0.0, "type": "electric_scooter", "lat": 38.898524333333334, "is_reserved": 0, "is_disabled": 0, "fusion_lon": 0.0, "bike_id": "d563765df1a9cbf83a13ae6ffc0bddff", "lon": -77.02929866666666, "rental_uris": {"ios": "https://dc.lft.to/lastmile_qr_scan", "android": "https://dc.lft.to/lastmile_qr_scan"}}, {"name": "4aa10d347c8c6990915179990be4c533", "fusion_lat": 0.0, "type": "electric_scooter", "lat": 38.905750833333336, "is_reserved": 0, "is_disabled": 0, "fusion_lon": 0.0, "bike_id": "4aa10d347c8c6990915179990be4c533", "lon": -77.0060385, "rental_uris": {"ios": "https://dc.lft.to/lastmile_qr_scan", "android": "https://dc.lft.to/lastmile_qr_scan"}}, {"name": "8882ba1c77cfe3517ad1e958fefb55fe", "fusion_lat": 0.0, "type": "electric_scooter", "lat": 38.900241333333334, "is_reserved": 0, "is_disabled": 0, "fusion_lon": 0.0, "bike_id": "8882ba1c77cfe3517ad1e958fefb55fe", "lon": -77.03722366666666, "rental_uris": {"ios": "https://dc.lft.to/lastmile_qr_scan", "android": "https://dc.lft.to/lastmile_qr_scan"}}, {"name": "7825b9e18f9300ca37ae53b1c27b704e", "fusion_lat": 0.0, "type": "electric_scooter", "lat": 38.91492266666667, "is_reserved": 0, "is_disabled": 0, "fusion_lon": 0.0, "bike_id": "7825b9e18f9300ca37ae53b1c27b704e", "lon": -77.01228233333333, "rental_uris": {"ios": "https://dc.lft.to/lastmile_qr_scan", "android": "https://dc.lft.to/lastmile_qr_scan"}}, {"name": "2e02fcc00058b11d8196c74e85df7e1f", "fusion_lat": 0.0, "type": "electric_scooter", "lat": 38.90062616666667, "is_reserved": 0, "is_disabled": 0, "fusion_lon": 0.0, "bike_id": "2e02fcc00058b11d8196c74e85df7e1f", "lon": -77.0463735, "rental_uris": {"ios": "https://dc.lft.to/lastmile_qr_scan", "android": "https://dc.lft.to/lastmile_qr_scan"}}, {"name": "27cbb924c935b12b1dd88fa3a07e0647", "fusion_lat": 0.0, "type": "electric_scooter", "lat": 38.9207465, "is_reserved": 0, "is_disabled": 0, "fusion_lon": 0.0, "bike_id": "27cbb924c935b12b1dd88fa3a07e0647", "lon": -77.0316445, "rental_uris": {"ios": "https://dc.lft.to/lastmile_qr_scan", "android": "https://dc.lft.to/lastmile_qr_scan"}}, {"name": "0fa898d7fb4636556fc6b8164c5a736c", "fusion_lat": 0.0, "type": "electric_scooter", "lat": 38.903752833333336, "is_reserved": 0, "is_disabled": 0, "fusion_lon": 0.0, "bike_id": "0fa898d7fb4636556fc6b8164c5a736c", "lon": -77.03177383333333, "rental_uris": {"ios": "https://dc.lft.to/lastmile_qr_scan", "android": "https://dc.lft.to/lastmile_qr_scan"}}, {"name": "1534088ec6fd266ec271392a84b5ba85", "fusion_lat": 0.0, "type": "electric_scooter", "lat": 38.86241716666667, "is_reserved": 0, "is_disabled": 0, "fusion_lon": 0.0, "bike_id": "1534088ec6fd266ec271392a84b5ba85", "lon": -76.99501083333334, "rental_uris": {"ios": "https://dc.lft.to/lastmile_qr_scan", "android": "https://dc.lft.to/lastmile_qr_scan"}}, {"name": "21a6c18d212452fed49bc1910dbe103e", "fusion_lat": 0.0, "type": "electric_scooter", "lat": 38.9013925, "is_reserved": 0, "is_disabled": 0, "fusion_lon": 0.0, "bike_id": "21a6c18d212452fed49bc1910dbe103e", "lon": -76.99121533333333, "rental_uris": {"ios": "https://dc.lft.to/lastmile_qr_scan", "android": "https://dc.lft.to/lastmile_qr_scan"}}, {"name": "b5fe82ed1c4d587580e6659a1fb22e9f", "fusion_lat": 0.0, "type": "electric_bike", "lat": 38.84159183333333, "is_reserved": 0, "is_disabled": 0, "fusion_lon": 0.0, "bike_id": "b5fe82ed1c4d587580e6659a1fb22e9f", "lon": -77.08890416666667, "rental_uris": {"ios": "https://dc.lft.to/lastmile_qr_scan", "android": "https://dc.lft.to/lastmile_qr_scan"}}, {"name": "4da8292f4923488c087cb5fbed97e585", "fusion_lat": 0.0, "type": "electric_scooter", "lat": 38.92911383333333, "is_reserved": 0, "is_disabled": 0, "fusion_lon": 0.0, "bike_id": "4da8292f4923488c087cb5fbed97e585", "lon": -77.03253583333333, "rental_uris": {"ios": "https://dc.lft.to/lastmile_qr_scan", "android": "https://dc.lft.to/lastmile_qr_scan"}}, {"name": "0a6d728ab586ae9b02ed74f8667c1b45", "fusion_lat": 0.0, "type": "electric_scooter", "lat": 38.89885433333333, "is_reserved": 0, "is_disabled": 0, "fusion_lon": 0.0, "bike_id": "0a6d728ab586ae9b02ed74f8667c1b45", "lon": -76.9317425, "rental_uris": {"ios": "https://dc.lft.to/lastmile_qr_scan", "android": "https://dc.lft.to/lastmile_qr_scan"}}, {"name": "9a07e273e5030c46a4f8f9ca7c2be7c6", "fusion_lat": 0.0, "type": "electric_bike", "lat": 39.051930666666664, "is_reserved": 0, "is_disabled": 0, "fusion_lon": 0.0, "bike_id": "9a07e273e5030c46a4f8f9ca7c2be7c6", "lon": -77.109226, "rental_uris": {"ios": "https://dc.lft.to/lastmile_qr_scan", "android": "https://dc.lft.to/lastmile_qr_scan"}}, {"name": "b418ec7e1d535be453e590dd3c51c8df", "fusion_lat": 0.0, "type": "electric_scooter", "lat": 38.91561266666667, "is_reserved": 0, "is_disabled": 0, "fusion_lon": 0.0, "bike_id": "b418ec7e1d535be453e590dd3c51c8df", "lon": -77.02955033333333, "rental_uris": {"ios": "https://dc.lft.to/lastmile_qr_scan", "android": "https://dc.lft.to/lastmile_qr_scan"}}, {"name": "83a9d3cb47462726a07e9a81e744ade3", "fusion_lat": 0.0, "type": "electric_scooter", "lat": 38.91399533333333, "is_reserved": 0, "is_disabled": 0, "fusion_lon": 0.0, "bike_id": "83a9d3cb47462726a07e9a81e744ade3", "lon": -77.03910883333333, "rental_uris": {"ios": "https://dc.lft.to/lastmile_qr_scan", "android": "https://dc.lft.to/lastmile_qr_scan"}}, {"name": "0446e75d99f24c4d9e5da3f5c84973fb", "fusion_lat": 0.0, "type": "electric_scooter", "lat": 38.9097665, "is_reserved": 0, "is_disabled": 0, "fusion_lon": 0.0, "bike_id": "0446e75d99f24c4d9e5da3f5c84973fb", "lon": -77.0487285, "rental_uris": {"ios": "https://dc.lft.to/lastmile_qr_scan", "android": "https://dc.lft.to/lastmile_qr_scan"}}, {"name": "7aa50ebcd01aec30ee39197d6190b7ac", "fusion_lat": 0.0, "type": "electric_scooter", "lat": 38.89995833333333, "is_reserved": 0, "is_disabled": 0, "fusion_lon": 0.0, "bike_id": "7aa50ebcd01aec30ee39197d6190b7ac", "lon": -77.02716433333333, "rental_uris": {"ios": "https://dc.lft.to/lastmile_qr_scan", "android": "https://dc.lft.to/lastmile_qr_scan"}}, {"name": "6993569c9e12e5af6ce4d5b616b4c706", "fusion_lat": 0.0, "type": "electric_scooter", "lat": 38.915550833333334, "is_reserved": 0, "is_disabled": 0, "fusion_lon": 0.0, "bike_id": "6993569c9e12e5af6ce4d5b616b4c706", "lon": -77.02559283333333, "rental_uris": {"ios": "https://dc.lft.to/lastmile_qr_scan", "android": "https://dc.lft.to/lastmile_qr_scan"}}, {"name": "84ecbfe40b4c3fedf6c92e8bd3c95e10", "fusion_lat": 0.0, "type": "electric_bike", "lat": 38.9227605, "is_reserved": 0, "is_disabled": 0, "fusion_lon": 0.0, "bike_id": "84ecbfe40b4c3fedf6c92e8bd3c95e10", "lon": -77.02244766666666, "rental_uris": {"ios": "https://dc.lft.to/lastmile_qr_scan", "android": "https://dc.lft.to/lastmile_qr_scan"}}, {"name": "6f4747353f2270cef0a351b1b1d2388e", "fusion_lat": 0.0, "type": "electric_scooter", "lat": 38.908581, "is_reserved": 0, "is_disabled": 0, "fusion_lon": 0.0, "bike_id": "6f4747353f2270cef0a351b1b1d2388e", "lon": -77.02712966666667, "rental_uris": {"ios": "https://dc.lft.to/lastmile_qr_scan", "android": "https://dc.lft.to/lastmile_qr_scan"}}, {"name": "91ab326189e73dbecf55f11677f8ad7c", "fusion_lat": 0.0, "type": "electric_bike", "lat": 38.99087033333333, "is_reserved": 0, "is_disabled": 0, "fusion_lon": 0.0, "bike_id": "91ab326189e73dbecf55f11677f8ad7c", "lon": -76.8749845, "rental_uris": {"ios": "https://dc.lft.to/lastmile_qr_scan", "android": "https://dc.lft.to/lastmile_qr_scan"}}, {"name": "d22b758b31ab51334606d3056d0545cf", "fusion_lat": 0.0, "type": "electric_scooter", "lat": 38.92288633333333, "is_reserved": 0, "is_disabled": 0, "fusion_lon": 0.0, "bike_id": "d22b758b31ab51334606d3056d0545cf", "lon": -77.02073083333333, "rental_uris": {"ios": "https://dc.lft.to/lastmile_qr_scan", "android": "https://dc.lft.to/lastmile_qr_scan"}}, {"name": "7f08551c0ca21e6e8a123b3c57a36483", "fusion_lat": 0.0, "type": "electric_scooter", "lat": 38.89894866666667, "is_reserved": 0, "is_disabled": 0, "fusion_lon": 0.0, "bike_id": "7f08551c0ca21e6e8a123b3c57a36483", "lon": -76.931795, "rental_uris": {"ios": "https://dc.lft.to/lastmile_qr_scan", "android": "https://dc.lft.to/lastmile_qr_scan"}}, {"name": "5a34ffcf231a602b61f95c7f863efd2d", "fusion_lat": 0.0, "type": "electric_scooter", "lat": 38.912031166666665, "is_reserved": 0, "is_disabled": 0, "fusion_lon": 0.0, "bike_id": "5a34ffcf231a602b61f95c7f863efd2d", "lon": -77.04463016666666, "rental_uris": {"ios": "https://dc.lft.to/lastmile_qr_scan", "android": "https://dc.lft.to/lastmile_qr_scan"}}, {"name": "4798b0787e3a6f24d9ee8c0e4ca77ef2", "fusion_lat": 0.0, "type": "electric_scooter", "lat": 38.91690783333333, "is_reserved": 0, "is_disabled": 0, "fusion_lon": 0.0, "bike_id": "4798b0787e3a6f24d9ee8c0e4ca77ef2", "lon": -77.03896866666666, "rental_uris": {"ios": "https://dc.lft.to/lastmile_qr_scan", "android": "https://dc.lft.to/lastmile_qr_scan"}}, {"name": "a09d1133843ae69efa58070adc6b1a04", "fusion_lat": 0.0, "type": "electric_bike", "lat": 38.90530583333334, "is_reserved": 0, "is_disabled": 0, "fusion_lon": 0.0, "bike_id": "a09d1133843ae69efa58070adc6b1a04", "lon": -76.99809566666667, "rental_uris": {"ios": "https://dc.lft.to/lastmile_qr_scan", "android": "https://dc.lft.to/lastmile_qr_scan"}}, {"name": "73e6c5e4ca3587515585397d9da64078", "fusion_lat": 0.0, "type": "electric_scooter", "lat": 38.93714516666667, "is_reserved": 0, "is_disabled": 0, "fusion_lon": 0.0, "bike_id": "73e6c5e4ca3587515585397d9da64078", "lon": -77.03651516666666, "rental_uris": {"ios": "https://dc.lft.to/lastmile_qr_scan", "android": "https://dc.lft.to/lastmile_qr_scan"}}, {"name": "8217b116850374bb45843144911ce4b0", "fusion_lat": 0.0, "type": "electric_scooter", "lat": 38.91858, "is_reserved": 0, "is_disabled": 0, "fusion_lon": 0.0, "bike_id": "8217b116850374bb45843144911ce4b0", "lon": -77.044536, "rental_uris": {"ios": "https://dc.lft.to/lastmile_qr_scan", "android": "https://dc.lft.to/lastmile_qr_scan"}}, {"name": "24d6b7b0d1042265cd1524be1930fa7e", "fusion_lat": 0.0, "type": "electric_scooter", "lat": 38.90541416666667, "is_reserved": 0, "is_disabled": 0, "fusion_lon": 0.0, "bike_id": "24d6b7b0d1042265cd1524be1930fa7e", "lon": -77.04082333333334, "rental_uris": {"ios": "https://dc.lft.to/lastmile_qr_scan", "android": "https://dc.lft.to/lastmile_qr_scan"}}, {"name": "91b7974fc6a4b586bc79fad11ed1ce61", "fusion_lat": 0.0, "type": "electric_scooter", "lat": 38.94434533333333, "is_reserved": 0, "is_disabled": 0, "fusion_lon": 0.0, "bike_id": "91b7974fc6a4b586bc79fad11ed1ce61", "lon": -77.063549, "rental_uris": {"ios": "https://dc.lft.to/lastmile_qr_scan", "android": "https://dc.lft.to/lastmile_qr_scan"}}, {"name": "2f33fa76c6271efd1ab59695ffd510bb", "fusion_lat": 0.0, "type": "electric_scooter", "lat": 38.890867166666666, "is_reserved": 0, "is_disabled": 0, "fusion_lon": 0.0, "bike_id": "2f33fa76c6271efd1ab59695ffd510bb", "lon": -76.99790333333334, "rental_uris": {"ios": "https://dc.lft.to/lastmile_qr_scan", "android": "https://dc.lft.to/lastmile_qr_scan"}}, {"name": "7bde001c654dd0c5c9a64a1925d87df4", "fusion_lat": 0.0, "type": "electric_scooter", "lat": 38.87005033333333, "is_reserved": 0, "is_disabled": 0, "fusion_lon": 0.0, "bike_id": "7bde001c654dd0c5c9a64a1925d87df4", "lon": -77.012257, "rental_uris": {"ios": "https://dc.lft.to/lastmile_qr_scan", "android": "https://dc.lft.to/lastmile_qr_scan"}}, {"name": "3fa11e759cc13f0f2d44f9e4e3869c3b", "fusion_lat": 0.0, "type": "electric_scooter", "lat": 38.90036166666667, "is_reserved": 0, "is_disabled": 0, "fusion_lon": 0.0, "bike_id": "3fa11e759cc13f0f2d44f9e4e3869c3b", "lon": -77.00628366666666, "rental_uris": {"ios": "https://dc.lft.to/lastmile_qr_scan", "android": "https://dc.lft.to/lastmile_qr_scan"}}, {"name": "1fb4495a375e4392aee3f8c5529a77ab", "fusion_lat": 0.0, "type": "electric_scooter", "lat": 38.903281, "is_reserved": 0, "is_disabled": 0, "fusion_lon": 0.0, "bike_id": "1fb4495a375e4392aee3f8c5529a77ab", "lon": -77.031886, "rental_uris": {"ios": "https://dc.lft.to/lastmile_qr_scan", "android": "https://dc.lft.to/lastmile_qr_scan"}}, {"name": "5e8037ada3d043aeb70d08de0e646c15", "fusion_lat": 0.0, "type": "electric_scooter", "lat": 38.932625333333334, "is_reserved": 0, "is_disabled": 0, "fusion_lon": 0.0, "bike_id": "5e8037ada3d043aeb70d08de0e646c15", "lon": -77.03499816666667, "rental_uris": {"ios": "https://dc.lft.to/lastmile_qr_scan", "android": "https://dc.lft.to/lastmile_qr_scan"}}, {"name": "0a8bb094fa3df8781b6f91aedb4ace6b", "fusion_lat": 0.0, "type": "electric_bike", "lat": 38.96546583333333, "is_reserved": 0, "is_disabled": 0, "fusion_lon": 0.0, "bike_id": "0a8bb094fa3df8781b6f91aedb4ace6b", "lon": -77.03514883333334, "rental_uris": {"ios": "https://dc.lft.to/lastmile_qr_scan", "android": "https://dc.lft.to/lastmile_qr_scan"}}, {"name": "2667c788719fb693ec1f774214927fd9", "fusion_lat": 0.0, "type": "electric_scooter", "lat": 38.887422, "is_reserved": 0, "is_disabled": 0, "fusion_lon": 0.0, "bike_id": "2667c788719fb693ec1f774214927fd9", "lon": -77.02225183333333, "rental_uris": {"ios": "https://dc.lft.to/lastmile_qr_scan", "android": "https://dc.lft.to/lastmile_qr_scan"}}, {"name": "4505e4f7223cc25bf12eb0b0bb05b5b2", "fusion_lat": 0.0, "type": "electric_scooter", "lat": 38.930725333333335, "is_reserved": 0, "is_disabled": 0, "fusion_lon": 0.0, "bike_id": "4505e4f7223cc25bf12eb0b0bb05b5b2", "lon": -77.03401783333334, "rental_uris": {"ios": "https://dc.lft.to/lastmile_qr_scan", "android": "https://dc.lft.to/lastmile_qr_scan"}}, {"name": "1e851773e648eee39f4d01dce3c28b6f", "fusion_lat": 0.0, "type": "electric_scooter", "lat": 38.90053566666667, "is_reserved": 0, "is_disabled": 0, "fusion_lon": 0.0, "bike_id": "1e851773e648eee39f4d01dce3c28b6f", "lon": -77.031687, "rental_uris": {"ios": "https://dc.lft.to/lastmile_qr_scan", "android": "https://dc.lft.to/lastmile_qr_scan"}}, {"name": "ba15dba79453f63b52480900747ee1df", "fusion_lat": 0.0, "type": "electric_scooter", "lat": 38.900181333333336, "is_reserved": 0, "is_disabled": 0, "fusion_lon": 0.0, "bike_id": "ba15dba79453f63b52480900747ee1df", "lon": -77.01160366666667, "rental_uris": {"ios": "https://dc.lft.to/lastmile_qr_scan", "android": "https://dc.lft.to/lastmile_qr_scan"}}, {"name": "8db4cf3136629aa6c79ecd27c235030c", "fusion_lat": 0.0, "type": "electric_scooter", "lat": 38.90367283333333, "is_reserved": 0, "is_disabled": 0, "fusion_lon": 0.0, "bike_id": "8db4cf3136629aa6c79ecd27c235030c", "lon": -77.05372533333333, "rental_uris": {"ios": "https://dc.lft.to/lastmile_qr_scan", "android": "https://dc.lft.to/lastmile_qr_scan"}}, {"name": "597c3741da9641586ee607628b540ad2", "fusion_lat": 0.0, "type": "electric_scooter", "lat": 38.86566666666667, "is_reserved": 0, "is_disabled": 0, "fusion_lon": 0.0, "bike_id": "597c3741da9641586ee607628b540ad2", "lon": -76.9855795, "rental_uris": {"ios": "https://dc.lft.to/lastmile_qr_scan", "android": "https://dc.lft.to/lastmile_qr_scan"}}, {"name": "e2a499dc64544268a0d7691865c89dc6", "fusion_lat": 0.0, "type": "electric_scooter", "lat": 38.91266666666667, "is_reserved": 0, "is_disabled": 0, "fusion_lon": 0.0, "bike_id": "e2a499dc64544268a0d7691865c89dc6", "lon": -77.0608895, "rental_uris": {"ios": "https://dc.lft.to/lastmile_qr_scan", "android": "https://dc.lft.to/lastmile_qr_scan"}}, {"name": "45dfa78f39934d859302f91c2d7412ea", "fusion_lat": 0.0, "type": "electric_scooter", "lat": 38.895895333333335, "is_reserved": 0, "is_disabled": 0, "fusion_lon": 0.0, "bike_id": "45dfa78f39934d859302f91c2d7412ea", "lon": -76.9372195, "rental_uris": {"ios": "https://dc.lft.to/lastmile_qr_scan", "android": "https://dc.lft.to/lastmile_qr_scan"}}, {"name": "beba5e22ba43b9a630bd16c89b5ec460", "fusion_lat": 0.0, "type": "electric_scooter", "lat": 38.9098175, "is_reserved": 0, "is_disabled": 0, "fusion_lon": 0.0, "bike_id": "beba5e22ba43b9a630bd16c89b5ec460", "lon": -77.0455565, "rental_uris": {"ios": "https://dc.lft.to/lastmile_qr_scan", "android": "https://dc.lft.to/lastmile_qr_scan"}}, {"name": "bc467a9e30ecd94af2c4593764c818e3", "fusion_lat": 0.0, "type": "electric_scooter", "lat": 38.904456333333336, "is_reserved": 0, "is_disabled": 0, "fusion_lon": 0.0, "bike_id": "bc467a9e30ecd94af2c4593764c818e3", "lon": -76.99625816666666, "rental_uris": {"ios": "https://dc.lft.to/lastmile_qr_scan", "android": "https://dc.lft.to/lastmile_qr_scan"}}, {"name": "b6fec38f4a9698e57ee93417f73fc912", "fusion_lat": 0.0, "type": "electric_scooter", "lat": 38.903156, "is_reserved": 0, "is_disabled": 0, "fusion_lon": 0.0, "bike_id": "b6fec38f4a9698e57ee93417f73fc912", "lon": -77.03474, "rental_uris": {"ios": "https://dc.lft.to/lastmile_qr_scan", "android": "https://dc.lft.to/lastmile_qr_scan"}}, {"name": "535774553d86df30cb7c523dfa5e0f69", "fusion_lat": 0.0, "type": "electric_scooter", "lat": 38.92005266666666, "is_reserved": 0, "is_disabled": 0, "fusion_lon": 0.0, "bike_id": "535774553d86df30cb7c523dfa5e0f69", "lon": -77.04169966666667, "rental_uris": {"ios": "https://dc.lft.to/lastmile_qr_scan", "android": "https://dc.lft.to/lastmile_qr_scan"}}, {"name": "eb3c9f80bbf279794490a2d1267c9f4f", "fusion_lat": 0.0, "type": "electric_scooter", "lat": 38.878358666666664, "is_reserved": 0, "is_disabled": 0, "fusion_lon": 0.0, "bike_id": "eb3c9f80bbf279794490a2d1267c9f4f", "lon": -76.990414, "rental_uris": {"ios": "https://dc.lft.to/lastmile_qr_scan", "android": "https://dc.lft.to/lastmile_qr_scan"}}, {"name": "77c6c827b6a7ec3b7a761d6145b63d43", "fusion_lat": 0.0, "type": "electric_scooter", "lat": 38.84294833333333, "is_reserved": 0, "is_disabled": 0, "fusion_lon": 0.0, "bike_id": "77c6c827b6a7ec3b7a761d6145b63d43", "lon": -76.99951816666666, "rental_uris": {"ios": "https://dc.lft.to/lastmile_qr_scan", "android": "https://dc.lft.to/lastmile_qr_scan"}}, {"name": "34a6a3e81a85e098ef46068219afc8a3", "fusion_lat": 0.0, "type": "electric_scooter", "lat": 38.90658066666667, "is_reserved": 0, "is_disabled": 0, "fusion_lon": 0.0, "bike_id": "34a6a3e81a85e098ef46068219afc8a3", "lon": -77.005914, "rental_uris": {"ios": "https://dc.lft.to/lastmile_qr_scan", "android": "https://dc.lft.to/lastmile_qr_scan"}}, {"name": "50fff8a5b71950f2130083b2e94376d5", "fusion_lat": 0.0, "type": "electric_scooter", "lat": 38.93486016666667, "is_reserved": 0, "is_disabled": 0, "fusion_lon": 0.0, "bike_id": "50fff8a5b71950f2130083b2e94376d5", "lon": -77.03281516666667, "rental_uris": {"ios": "https://dc.lft.to/lastmile_qr_scan", "android": "https://dc.lft.to/lastmile_qr_scan"}}, {"name": "4fda8790f4e33d9eee7293d828c522f1", "fusion_lat": 0.0, "type": "electric_scooter", "lat": 38.91003, "is_reserved": 0, "is_disabled": 0, "fusion_lon": 0.0, "bike_id": "4fda8790f4e33d9eee7293d828c522f1", "lon": -76.9941295, "rental_uris": {"ios": "https://dc.lft.to/lastmile_qr_scan", "android": "https://dc.lft.to/lastmile_qr_scan"}}, {"name": "ea3c11b93cb06557e7fe17a59bff0787", "fusion_lat": 0.0, "type": "electric_scooter", "lat": 38.91556083333333, "is_reserved": 0, "is_disabled": 0, "fusion_lon": 0.0, "bike_id": "ea3c11b93cb06557e7fe17a59bff0787", "lon": -77.02017833333333, "rental_uris": {"ios": "https://dc.lft.to/lastmile_qr_scan", "android": "https://dc.lft.to/lastmile_qr_scan"}}, {"name": "70e7ac9190de6b7197982cc352174d6f", "fusion_lat": 0.0, "type": "electric_scooter", "lat": 38.912127166666664, "is_reserved": 0, "is_disabled": 0, "fusion_lon": 0.0, "bike_id": "70e7ac9190de6b7197982cc352174d6f", "lon": -77.07604666666667, "rental_uris": {"ios": "https://dc.lft.to/lastmile_qr_scan", "android": "https://dc.lft.to/lastmile_qr_scan"}}, {"name": "d2d8f266cd0cda60fc8db69db213fccf", "fusion_lat": 0.0, "type": "electric_scooter", "lat": 38.898552, "is_reserved": 0, "is_disabled": 0, "fusion_lon": 0.0, "bike_id": "d2d8f266cd0cda60fc8db69db213fccf", "lon": -77.03165116666666, "rental_uris": {"ios": "https://dc.lft.to/lastmile_qr_scan", "android": "https://dc.lft.to/lastmile_qr_scan"}}, {"name": "e3b8745c46198cee66954afe31f84013", "fusion_lat": 0.0, "type": "electric_scooter", "lat": 38.856166333333334, "is_reserved": 0, "is_disabled": 0, "fusion_lon": 0.0, "bike_id": "e3b8745c46198cee66954afe31f84013", "lon": -76.98024883333333, "rental_uris": {"ios": "https://dc.lft.to/lastmile_qr_scan", "android": "https://dc.lft.to/lastmile_qr_scan"}}, {"name": "f30bb7740eb6355c5a8244dd41c141fc", "fusion_lat": 0.0, "type": "electric_bike", "lat": 38.854267166666666, "is_reserved": 0, "is_disabled": 0, "fusion_lon": 0.0, "bike_id": "f30bb7740eb6355c5a8244dd41c141fc", "lon": -76.909563, "rental_uris": {"ios": "https://dc.lft.to/lastmile_qr_scan", "android": "https://dc.lft.to/lastmile_qr_scan"}}, {"name": "796346a132032212503ef3ec2cd30865", "fusion_lat": 0.0, "type": "electric_scooter", "lat": 38.912685, "is_reserved": 0, "is_disabled": 0, "fusion_lon": 0.0, "bike_id": "796346a132032212503ef3ec2cd30865", "lon": -77.03157, "rental_uris": {"ios": "https://dc.lft.to/lastmile_qr_scan", "android": "https://dc.lft.to/lastmile_qr_scan"}}, {"name": "9ab7846b77109fd92218c9a13795e29e", "fusion_lat": 0.0, "type": "electric_scooter", "lat": 38.885639166666664, "is_reserved": 0, "is_disabled": 0, "fusion_lon": 0.0, "bike_id": "9ab7846b77109fd92218c9a13795e29e", "lon": -76.94869516666667, "rental_uris": {"ios": "https://dc.lft.to/lastmile_qr_scan", "android": "https://dc.lft.to/lastmile_qr_scan"}}, {"name": "d470dad06213c3e81c968c9ac075bc41", "fusion_lat": 0.0, "type": "electric_scooter", "lat": 38.935294166666665, "is_reserved": 0, "is_disabled": 0, "fusion_lon": 0.0, "bike_id": "d470dad06213c3e81c968c9ac075bc41", "lon": -77.03414866666667, "rental_uris": {"ios": "https://dc.lft.to/lastmile_qr_scan", "android": "https://dc.lft.to/lastmile_qr_scan"}}, {"name": "2c6351ecb53793d48b09707b9f40a5e4", "fusion_lat": 0.0, "type": "electric_bike", "lat": 38.81050616666667, "is_reserved": 0, "is_disabled": 0, "fusion_lon": 0.0, "bike_id": "2c6351ecb53793d48b09707b9f40a5e4", "lon": -77.08511433333334, "rental_uris": {"ios": "https://dc.lft.to/lastmile_qr_scan", "android": "https://dc.lft.to/lastmile_qr_scan"}}, {"name": "1350194a38a78657494292d1e75db083", "fusion_lat": 0.0, "type": "electric_scooter", "lat": 38.904247166666664, "is_reserved": 0, "is_disabled": 0, "fusion_lon": 0.0, "bike_id": "1350194a38a78657494292d1e75db083", "lon": -77.05330266666667, "rental_uris": {"ios": "https://dc.lft.to/lastmile_qr_scan", "android": "https://dc.lft.to/lastmile_qr_scan"}}, {"name": "71ccec66c25f34a3e2979f05508166e1", "fusion_lat": 0.0, "type": "electric_scooter", "lat": 38.911931, "is_reserved": 0, "is_disabled": 0, "fusion_lon": 0.0, "bike_id": "71ccec66c25f34a3e2979f05508166e1", "lon": -77.00778116666666, "rental_uris": {"ios": "https://dc.lft.to/lastmile_qr_scan", "android": "https://dc.lft.to/lastmile_qr_scan"}}, {"name": "d76d3e351264d6c508ae7d2a20581ad5", "fusion_lat": 0.0, "type": "electric_bike", "lat": 39.02682316666667, "is_reserved": 0, "is_disabled": 0, "fusion_lon": 0.0, "bike_id": "d76d3e351264d6c508ae7d2a20581ad5", "lon": -77.1260535, "rental_uris": {"ios": "https://dc.lft.to/lastmile_qr_scan", "android": "https://dc.lft.to/lastmile_qr_scan"}}, {"name": "c290038135da88f601aa86f3ec0d0a74", "fusion_lat": 0.0, "type": "electric_scooter", "lat": 38.89890716666667, "is_reserved": 0, "is_disabled": 0, "fusion_lon": 0.0, "bike_id": "c290038135da88f601aa86f3ec0d0a74", "lon": -77.03278066666667, "rental_uris": {"ios": "https://dc.lft.to/lastmile_qr_scan", "android": "https://dc.lft.to/lastmile_qr_scan"}}, {"name": "b1cb9495a96046611a66c367c4c49119", "fusion_lat": 0.0, "type": "electric_scooter", "lat": 38.89356, "is_reserved": 0, "is_disabled": 0, "fusion_lon": 0.0, "bike_id": "b1cb9495a96046611a66c367c4c49119", "lon": -77.00335833333334, "rental_uris": {"ios": "https://dc.lft.to/lastmile_qr_scan", "android": "https://dc.lft.to/lastmile_qr_scan"}}, {"name": "33281d6bb5c0f9b77b2d2ee365a9fa2b", "fusion_lat": 0.0, "type": "electric_scooter", "lat": 38.892216, "is_reserved": 0, "is_disabled": 0, "fusion_lon": 0.0, "bike_id": "33281d6bb5c0f9b77b2d2ee365a9fa2b", "lon": -77.0454215, "rental_uris": {"ios": "https://dc.lft.to/lastmile_qr_scan", "android": "https://dc.lft.to/lastmile_qr_scan"}}, {"name": "283e56db9c896b46bf64ba2b9ef733a0", "fusion_lat": 0.0, "type": "electric_scooter", "lat": 38.92161983333333, "is_reserved": 0, "is_disabled": 0, "fusion_lon": 0.0, "bike_id": "283e56db9c896b46bf64ba2b9ef733a0", "lon": -76.99388683333333, "rental_uris": {"ios": "https://dc.lft.to/lastmile_qr_scan", "android": "https://dc.lft.to/lastmile_qr_scan"}}, {"name": "e50315a3646d27d4dccf779711e85700", "fusion_lat": 0.0, "type": "electric_scooter", "lat": 38.92907966666667, "is_reserved": 0, "is_disabled": 0, "fusion_lon": 0.0, "bike_id": "e50315a3646d27d4dccf779711e85700", "lon": -77.0216505, "rental_uris": {"ios": "https://dc.lft.to/lastmile_qr_scan", "android": "https://dc.lft.to/lastmile_qr_scan"}}, {"name": "e1cb7ca151b187c95ca87ded6ef25c24", "fusion_lat": 0.0, "type": "electric_scooter", "lat": 38.88045783333333, "is_reserved": 0, "is_disabled": 0, "fusion_lon": 0.0, "bike_id": "e1cb7ca151b187c95ca87ded6ef25c24", "lon": -77.00453566666667, "rental_uris": {"ios": "https://dc.lft.to/lastmile_qr_scan", "android": "https://dc.lft.to/lastmile_qr_scan"}}, {"name": "ce59847f38e276de3d28637fdd16e329", "fusion_lat": 0.0, "type": "electric_scooter", "lat": 38.91109433333333, "is_reserved": 0, "is_disabled": 0, "fusion_lon": 0.0, "bike_id": "ce59847f38e276de3d28637fdd16e329", "lon": -77.042331, "rental_uris": {"ios": "https://dc.lft.to/lastmile_qr_scan", "android": "https://dc.lft.to/lastmile_qr_scan"}}, {"name": "24e635df83f19d2ebd24eb25a4bdbbd7", "fusion_lat": 0.0, "type": "electric_scooter", "lat": 38.91544616666667, "is_reserved": 0, "is_disabled": 0, "fusion_lon": 0.0, "bike_id": "24e635df83f19d2ebd24eb25a4bdbbd7", "lon": -77.0245445, "rental_uris": {"ios": "https://dc.lft.to/lastmile_qr_scan", "android": "https://dc.lft.to/lastmile_qr_scan"}}, {"name": "ce9670c73814f81fffc598ce9e6147cb", "fusion_lat": 0.0, "type": "electric_scooter", "lat": 38.905137833333335, "is_reserved": 0, "is_disabled": 0, "fusion_lon": 0.0, "bike_id": "ce9670c73814f81fffc598ce9e6147cb", "lon": -77.06628816666667, "rental_uris": {"ios": "https://dc.lft.to/lastmile_qr_scan", "android": "https://dc.lft.to/lastmile_qr_scan"}}, {"name": "ebc8c98df231d64eb8a4835e8bc37114", "fusion_lat": 0.0, "type": "electric_scooter", "lat": 38.924847166666666, "is_reserved": 0, "is_disabled": 0, "fusion_lon": 0.0, "bike_id": "ebc8c98df231d64eb8a4835e8bc37114", "lon": -77.02715983333333, "rental_uris": {"ios": "https://dc.lft.to/lastmile_qr_scan", "android": "https://dc.lft.to/lastmile_qr_scan"}}, {"name": "b523ff8338e9fe63f2f1f8c0c06938bb", "fusion_lat": 0.0, "type": "electric_scooter", "lat": 38.90844333333333, "is_reserved": 0, "is_disabled": 0, "fusion_lon": 0.0, "bike_id": "b523ff8338e9fe63f2f1f8c0c06938bb", "lon": -77.01260333333333, "rental_uris": {"ios": "https://dc.lft.to/lastmile_qr_scan", "android": "https://dc.lft.to/lastmile_qr_scan"}}, {"name": "3b3a5016f6d67708d31600fc08d8f596", "fusion_lat": 0.0, "type": "electric_scooter", "lat": 38.8961935, "is_reserved": 0, "is_disabled": 0, "fusion_lon": 0.0, "bike_id": "3b3a5016f6d67708d31600fc08d8f596", "lon": -77.01025833333334, "rental_uris": {"ios": "https://dc.lft.to/lastmile_qr_scan", "android": "https://dc.lft.to/lastmile_qr_scan"}}, {"name": "887ee42ebb439a3a290352a3ea9d6d04", "fusion_lat": 0.0, "type": "electric_scooter", "lat": 38.936060833333336, "is_reserved": 0, "is_disabled": 0, "fusion_lon": 0.0, "bike_id": "887ee42ebb439a3a290352a3ea9d6d04", "lon": -77.0586445, "rental_uris": {"ios": "https://dc.lft.to/lastmile_qr_scan", "android": "https://dc.lft.to/lastmile_qr_scan"}}, {"name": "74c5b4095b5cf1f222cc2b16f065b22d", "fusion_lat": 0.0, "type": "electric_bike", "lat": 38.942725333333335, "is_reserved": 0, "is_disabled": 0, "fusion_lon": 0.0, "bike_id": "74c5b4095b5cf1f222cc2b16f065b22d", "lon": -76.98075366666667, "rental_uris": {"ios": "https://dc.lft.to/lastmile_qr_scan", "android": "https://dc.lft.to/lastmile_qr_scan"}}, {"name": "9b39845d6c700ac0df9db1717b5e55d3", "fusion_lat": 0.0, "type": "electric_scooter", "lat": 38.922897666666664, "is_reserved": 0, "is_disabled": 0, "fusion_lon": 0.0, "bike_id": "9b39845d6c700ac0df9db1717b5e55d3", "lon": -77.04254533333334, "rental_uris": {"ios": "https://dc.lft.to/lastmile_qr_scan", "android": "https://dc.lft.to/lastmile_qr_scan"}}, {"name": "55068d2cea49cf87918cebce0aa59fc7", "fusion_lat": 0.0, "type": "electric_scooter", "lat": 38.8988385, "is_reserved": 0, "is_disabled": 0, "fusion_lon": 0.0, "bike_id": "55068d2cea49cf87918cebce0aa59fc7", "lon": -76.93176183333334, "rental_uris": {"ios": "https://dc.lft.to/lastmile_qr_scan", "android": "https://dc.lft.to/lastmile_qr_scan"}}, {"name": "b115550509d44461e307039da03d4676", "fusion_lat": 0.0, "type": "electric_scooter", "lat": 38.90025583333333, "is_reserved": 0, "is_disabled": 0, "fusion_lon": 0.0, "bike_id": "b115550509d44461e307039da03d4676", "lon": -77.03337383333333, "rental_uris": {"ios": "https://dc.lft.to/lastmile_qr_scan", "android": "https://dc.lft.to/lastmile_qr_scan"}}, {"name": "0c3551c3899fcd687a8f8b28e57fd952", "fusion_lat": 0.0, "type": "electric_scooter", "lat": 38.911226, "is_reserved": 0, "is_disabled": 0, "fusion_lon": 0.0, "bike_id": "0c3551c3899fcd687a8f8b28e57fd952", "lon": -77.03303716666667, "rental_uris": {"ios": "https://dc.lft.to/lastmile_qr_scan", "android": "https://dc.lft.to/lastmile_qr_scan"}}, {"name": "9808dc9ceac96c4d0ba4856f050f2fd3", "fusion_lat": 0.0, "type": "electric_scooter", "lat": 38.91011833333334, "is_reserved": 0, "is_disabled": 0, "fusion_lon": 0.0, "bike_id": "9808dc9ceac96c4d0ba4856f050f2fd3", "lon": -76.993906, "rental_uris": {"ios": "https://dc.lft.to/lastmile_qr_scan", "android": "https://dc.lft.to/lastmile_qr_scan"}}, {"name": "a2659ae9ab7592c95b1a1b7f79e0aeb0", "fusion_lat": 0.0, "type": "electric_scooter", "lat": 38.8666215, "is_reserved": 0, "is_disabled": 0, "fusion_lon": 0.0, "bike_id": "a2659ae9ab7592c95b1a1b7f79e0aeb0", "lon": -76.98883366666666, "rental_uris": {"ios": "https://dc.lft.to/lastmile_qr_scan", "android": "https://dc.lft.to/lastmile_qr_scan"}}, {"name": "c4bba409916abfbf5c1930cebf078a56", "fusion_lat": 0.0, "type": "electric_scooter", "lat": 38.899985, "is_reserved": 0, "is_disabled": 0, "fusion_lon": 0.0, "bike_id": "c4bba409916abfbf5c1930cebf078a56", "lon": -77.0112595, "rental_uris": {"ios": "https://dc.lft.to/lastmile_qr_scan", "android": "https://dc.lft.to/lastmile_qr_scan"}}, {"name": "25cc643ed7e838b36fb2f67be532f7b7", "fusion_lat": 0.0, "type": "electric_scooter", "lat": 38.92481316666667, "is_reserved": 0, "is_disabled": 0, "fusion_lon": 0.0, "bike_id": "25cc643ed7e838b36fb2f67be532f7b7", "lon": -77.02898933333333, "rental_uris": {"ios": "https://dc.lft.to/lastmile_qr_scan", "android": "https://dc.lft.to/lastmile_qr_scan"}}, {"name": "380254e813a49d9758c45916fcb921b9", "fusion_lat": 0.0, "type": "electric_scooter", "lat": 38.91107933333333, "is_reserved": 0, "is_disabled": 0, "fusion_lon": 0.0, "bike_id": "380254e813a49d9758c45916fcb921b9", "lon": -77.01186133333333, "rental_uris": {"ios": "https://dc.lft.to/lastmile_qr_scan", "android": "https://dc.lft.to/lastmile_qr_scan"}}, {"name": "96dcf63a01f101015e5f9071b57f9fa2", "fusion_lat": 0.0, "type": "electric_scooter", "lat": 38.90378883333333, "is_reserved": 0, "is_disabled": 0, "fusion_lon": 0.0, "bike_id": "96dcf63a01f101015e5f9071b57f9fa2", "lon": -77.0450915, "rental_uris": {"ios": "https://dc.lft.to/lastmile_qr_scan", "android": "https://dc.lft.to/lastmile_qr_scan"}}, {"name": "ae2154dd9b4ecb61f3f75f8019168b7b", "fusion_lat": 0.0, "type": "electric_scooter", "lat": 38.9029035, "is_reserved": 0, "is_disabled": 0, "fusion_lon": 0.0, "bike_id": "ae2154dd9b4ecb61f3f75f8019168b7b", "lon": -77.04613516666667, "rental_uris": {"ios": "https://dc.lft.to/lastmile_qr_scan", "android": "https://dc.lft.to/lastmile_qr_scan"}}, {"name": "45bf8013e2a0e61544187df85fea7d2e", "fusion_lat": 0.0, "type": "electric_scooter", "lat": 38.887463, "is_reserved": 0, "is_disabled": 0, "fusion_lon": 0.0, "bike_id": "45bf8013e2a0e61544187df85fea7d2e", "lon": -77.00255033333333, "rental_uris": {"ios": "https://dc.lft.to/lastmile_qr_scan", "android": "https://dc.lft.to/lastmile_qr_scan"}}, {"name": "50aeac9cce22512e2057065ca995c200", "fusion_lat": 0.0, "type": "electric_scooter", "lat": 38.92797683333333, "is_reserved": 0, "is_disabled": 0, "fusion_lon": 0.0, "bike_id": "50aeac9cce22512e2057065ca995c200", "lon": -77.01412216666667, "rental_uris": {"ios": "https://dc.lft.to/lastmile_qr_scan", "android": "https://dc.lft.to/lastmile_qr_scan"}}, {"name": "3dac113b421d1ee581a3435718e21f0e", "fusion_lat": 0.0, "type": "electric_scooter", "lat": 38.86828933333334, "is_reserved": 0, "is_disabled": 0, "fusion_lon": 0.0, "bike_id": "3dac113b421d1ee581a3435718e21f0e", "lon": -76.98611866666667, "rental_uris": {"ios": "https://dc.lft.to/lastmile_qr_scan", "android": "https://dc.lft.to/lastmile_qr_scan"}}, {"name": "caa70204b11215f2423670bc28bcb5c6", "fusion_lat": 0.0, "type": "electric_scooter", "lat": 38.924801, "is_reserved": 0, "is_disabled": 0, "fusion_lon": 0.0, "bike_id": "caa70204b11215f2423670bc28bcb5c6", "lon": -77.02997666666667, "rental_uris": {"ios": "https://dc.lft.to/lastmile_qr_scan", "android": "https://dc.lft.to/lastmile_qr_scan"}}, {"name": "70a99c275e08e49e8609ba3ef083d77d", "fusion_lat": 0.0, "type": "electric_scooter", "lat": 38.88581766666667, "is_reserved": 0, "is_disabled": 0, "fusion_lon": 0.0, "bike_id": "70a99c275e08e49e8609ba3ef083d77d", "lon": -76.99507166666666, "rental_uris": {"ios": "https://dc.lft.to/lastmile_qr_scan", "android": "https://dc.lft.to/lastmile_qr_scan"}}, {"name": "858ea46cefcdeba3654dfd241f724ae5", "fusion_lat": 0.0, "type": "electric_scooter", "lat": 38.92746133333333, "is_reserved": 0, "is_disabled": 0, "fusion_lon": 0.0, "bike_id": "858ea46cefcdeba3654dfd241f724ae5", "lon": -77.02302933333333, "rental_uris": {"ios": "https://dc.lft.to/lastmile_qr_scan", "android": "https://dc.lft.to/lastmile_qr_scan"}}, {"name": "a24c757444e852cfc3fc132ff930e883", "fusion_lat": 0.0, "type": "electric_scooter", "lat": 38.92312166666667, "is_reserved": 0, "is_disabled": 0, "fusion_lon": 0.0, "bike_id": "a24c757444e852cfc3fc132ff930e883", "lon": -77.03528316666667, "rental_uris": {"ios": "https://dc.lft.to/lastmile_qr_scan", "android": "https://dc.lft.to/lastmile_qr_scan"}}, {"name": "8568d9e1783b25e37063a73e0bd799ed", "fusion_lat": 0.0, "type": "electric_scooter", "lat": 38.9077675, "is_reserved": 0, "is_disabled": 0, "fusion_lon": 0.0, "bike_id": "8568d9e1783b25e37063a73e0bd799ed", "lon": -77.07168383333334, "rental_uris": {"ios": "https://dc.lft.to/lastmile_qr_scan", "android": "https://dc.lft.to/lastmile_qr_scan"}}, {"name": "c1b2cfdfb6cd340ce4edc7c581970e9e", "fusion_lat": 0.0, "type": "electric_scooter", "lat": 38.9158955, "is_reserved": 0, "is_disabled": 0, "fusion_lon": 0.0, "bike_id": "c1b2cfdfb6cd340ce4edc7c581970e9e", "lon": -77.0425455, "rental_uris": {"ios": "https://dc.lft.to/lastmile_qr_scan", "android": "https://dc.lft.to/lastmile_qr_scan"}}, {"name": "04b3850517f81b39a8b6525e553fa22b", "fusion_lat": 0.0, "type": "electric_scooter", "lat": 38.876687833333335, "is_reserved": 0, "is_disabled": 0, "fusion_lon": 0.0, "bike_id": "04b3850517f81b39a8b6525e553fa22b", "lon": -77.00075, "rental_uris": {"ios": "https://dc.lft.to/lastmile_qr_scan", "android": "https://dc.lft.to/lastmile_qr_scan"}}, {"name": "af318efca403d8298e22c083e1323a50", "fusion_lat": 0.0, "type": "electric_scooter", "lat": 38.872299166666664, "is_reserved": 0, "is_disabled": 0, "fusion_lon": 0.0, "bike_id": "af318efca403d8298e22c083e1323a50", "lon": -77.0117325, "rental_uris": {"ios": "https://dc.lft.to/lastmile_qr_scan", "android": "https://dc.lft.to/lastmile_qr_scan"}}, {"name": "e35fec54f2367bb4572b6d68c0c6e175", "fusion_lat": 0.0, "type": "electric_scooter", "lat": 38.903896333333336, "is_reserved": 0, "is_disabled": 0, "fusion_lon": 0.0, "bike_id": "e35fec54f2367bb4572b6d68c0c6e175", "lon": -77.03896166666667, "rental_uris": {"ios": "https://dc.lft.to/lastmile_qr_scan", "android": "https://dc.lft.to/lastmile_qr_scan"}}, {"name": "0ddec7de15756f7d3d822140f07af708", "fusion_lat": 0.0, "type": "electric_scooter", "lat": 38.89229066666667, "is_reserved": 0, "is_disabled": 0, "fusion_lon": 0.0, "bike_id": "0ddec7de15756f7d3d822140f07af708", "lon": -77.02149216666666, "rental_uris": {"ios": "https://dc.lft.to/lastmile_qr_scan", "android": "https://dc.lft.to/lastmile_qr_scan"}}, {"name": "f2cb30b3d66fe5ba076066ce1623abb9", "fusion_lat": 0.0, "type": "electric_scooter", "lat": 38.895704333333335, "is_reserved": 0, "is_disabled": 0, "fusion_lon": 0.0, "bike_id": "f2cb30b3d66fe5ba076066ce1623abb9", "lon": -77.02567266666667, "rental_uris": {"ios": "https://dc.lft.to/lastmile_qr_scan", "android": "https://dc.lft.to/lastmile_qr_scan"}}, {"name": "1e22fa67422adcf37a27d6b88c396d0b", "fusion_lat": 0.0, "type": "electric_bike", "lat": 39.03051083333333, "is_reserved": 0, "is_disabled": 0, "fusion_lon": 0.0, "bike_id": "1e22fa67422adcf37a27d6b88c396d0b", "lon": -77.09486, "rental_uris": {"ios": "https://dc.lft.to/lastmile_qr_scan", "android": "https://dc.lft.to/lastmile_qr_scan"}}, {"name": "57c72ecf27f279a0952ddcfd33486389", "fusion_lat": 0.0, "type": "electric_scooter", "lat": 38.90662716666667, "is_reserved": 0, "is_disabled": 0, "fusion_lon": 0.0, "bike_id": "57c72ecf27f279a0952ddcfd33486389", "lon": -77.02705583333334, "rental_uris": {"ios": "https://dc.lft.to/lastmile_qr_scan", "android": "https://dc.lft.to/lastmile_qr_scan"}}, {"name": "b3c904170c4c07c6eefbbc1181810b22", "fusion_lat": 0.0, "type": "electric_scooter", "lat": 38.887346666666666, "is_reserved": 0, "is_disabled": 0, "fusion_lon": 0.0, "bike_id": "b3c904170c4c07c6eefbbc1181810b22", "lon": -77.01534483333333, "rental_uris": {"ios": "https://dc.lft.to/lastmile_qr_scan", "android": "https://dc.lft.to/lastmile_qr_scan"}}, {"name": "b8d3bcc6b058af9af09a0be361f0213d", "fusion_lat": 0.0, "type": "electric_scooter", "lat": 38.90710266666667, "is_reserved": 0, "is_disabled": 0, "fusion_lon": 0.0, "bike_id": "b8d3bcc6b058af9af09a0be361f0213d", "lon": -77.0513355, "rental_uris": {"ios": "https://dc.lft.to/lastmile_qr_scan", "android": "https://dc.lft.to/lastmile_qr_scan"}}, {"name": "e7534aff661e36d843df6e644d5ef541", "fusion_lat": 0.0, "type": "electric_scooter", "lat": 38.893767833333335, "is_reserved": 0, "is_disabled": 0, "fusion_lon": 0.0, "bike_id": "e7534aff661e36d843df6e644d5ef541", "lon": -77.04777766666666, "rental_uris": {"ios": "https://dc.lft.to/lastmile_qr_scan", "android": "https://dc.lft.to/lastmile_qr_scan"}}, {"name": "454884b6c9cacde71d02edfa04fa415f", "fusion_lat": 0.0, "type": "electric_scooter", "lat": 38.91798333333333, "is_reserved": 0, "is_disabled": 0, "fusion_lon": 0.0, "bike_id": "454884b6c9cacde71d02edfa04fa415f", "lon": -77.00176033333334, "rental_uris": {"ios": "https://dc.lft.to/lastmile_qr_scan", "android": "https://dc.lft.to/lastmile_qr_scan"}}, {"name": "3b0c2b93ba7d1f0579d730633fa7e4ce", "fusion_lat": 0.0, "type": "electric_scooter", "lat": 38.887417166666665, "is_reserved": 0, "is_disabled": 0, "fusion_lon": 0.0, "bike_id": "3b0c2b93ba7d1f0579d730633fa7e4ce", "lon": -77.002511, "rental_uris": {"ios": "https://dc.lft.to/lastmile_qr_scan", "android": "https://dc.lft.to/lastmile_qr_scan"}}, {"name": "da1fcfb496731e613b31b5b350fb8bce", "fusion_lat": 0.0, "type": "electric_scooter", "lat": 38.87504966666667, "is_reserved": 0, "is_disabled": 0, "fusion_lon": 0.0, "bike_id": "da1fcfb496731e613b31b5b350fb8bce", "lon": -77.00142333333334, "rental_uris": {"ios": "https://dc.lft.to/lastmile_qr_scan", "android": "https://dc.lft.to/lastmile_qr_scan"}}, {"name": "a5a2bb0da4ddbfab717ddbf52fac0cd2", "fusion_lat": 0.0, "type": "electric_scooter", "lat": 38.90849633333333, "is_reserved": 0, "is_disabled": 0, "fusion_lon": 0.0, "bike_id": "a5a2bb0da4ddbfab717ddbf52fac0cd2", "lon": -77.0008885, "rental_uris": {"ios": "https://dc.lft.to/lastmile_qr_scan", "android": "https://dc.lft.to/lastmile_qr_scan"}}, {"name": "c1e3ce64f1b74f114edd95afe0542aa9", "fusion_lat": 0.0, "type": "electric_scooter", "lat": 38.897313, "is_reserved": 0, "is_disabled": 0, "fusion_lon": 0.0, "bike_id": "c1e3ce64f1b74f114edd95afe0542aa9", "lon": -77.03285216666667, "rental_uris": {"ios": "https://dc.lft.to/lastmile_qr_scan", "android": "https://dc.lft.to/lastmile_qr_scan"}}, {"name": "10c8d2ecdf3b97e21457ccffe634cda5", "fusion_lat": 0.0, "type": "electric_scooter", "lat": 38.91087683333333, "is_reserved": 0, "is_disabled": 0, "fusion_lon": 0.0, "bike_id": "10c8d2ecdf3b97e21457ccffe634cda5", "lon": -77.04488333333333, "rental_uris": {"ios": "https://dc.lft.to/lastmile_qr_scan", "android": "https://dc.lft.to/lastmile_qr_scan"}}, {"name": "08650a13e14b7633859be2541d32cd7a", "fusion_lat": 0.0, "type": "electric_scooter", "lat": 38.9371335, "is_reserved": 0, "is_disabled": 0, "fusion_lon": 0.0, "bike_id": "08650a13e14b7633859be2541d32cd7a", "lon": -77.036537, "rental_uris": {"ios": "https://dc.lft.to/lastmile_qr_scan", "android": "https://dc.lft.to/lastmile_qr_scan"}}, {"name": "277a3415d6d1523c641c0ff056103a42", "fusion_lat": 0.0, "type": "electric_scooter", "lat": 38.9273255, "is_reserved": 0, "is_disabled": 0, "fusion_lon": 0.0, "bike_id": "277a3415d6d1523c641c0ff056103a42", "lon": -77.03444783333333, "rental_uris": {"ios": "https://dc.lft.to/lastmile_qr_scan", "android": "https://dc.lft.to/lastmile_qr_scan"}}, {"name": "c57261be3b31d08e24b7e80f64278075", "fusion_lat": 0.0, "type": "electric_scooter", "lat": 38.90154116666667, "is_reserved": 0, "is_disabled": 0, "fusion_lon": 0.0, "bike_id": "c57261be3b31d08e24b7e80f64278075", "lon": -77.04033933333334, "rental_uris": {"ios": "https://dc.lft.to/lastmile_qr_scan", "android": "https://dc.lft.to/lastmile_qr_scan"}}, {"name": "0c2a5903590985b2dd73cfd14a388a53", "fusion_lat": 0.0, "type": "electric_bike", "lat": 38.95906083333333, "is_reserved": 0, "is_disabled": 0, "fusion_lon": 0.0, "bike_id": "0c2a5903590985b2dd73cfd14a388a53", "lon": -77.00155716666667, "rental_uris": {"ios": "https://dc.lft.to/lastmile_qr_scan", "android": "https://dc.lft.to/lastmile_qr_scan"}}, {"name": "ae88ed1e4e29df0c02d21bbcffe02543", "fusion_lat": 0.0, "type": "electric_scooter", "lat": 38.91880616666667, "is_reserved": 0, "is_disabled": 0, "fusion_lon": 0.0, "bike_id": "ae88ed1e4e29df0c02d21bbcffe02543", "lon": -77.04350966666667, "rental_uris": {"ios": "https://dc.lft.to/lastmile_qr_scan", "android": "https://dc.lft.to/lastmile_qr_scan"}}, {"name": "ea63644a08fd1d5383338b9212a9cb11", "fusion_lat": 0.0, "type": "electric_bike", "lat": 38.968651333333334, "is_reserved": 0, "is_disabled": 0, "fusion_lon": 0.0, "bike_id": "ea63644a08fd1d5383338b9212a9cb11", "lon": -77.03330933333334, "rental_uris": {"ios": "https://dc.lft.to/lastmile_qr_scan", "android": "https://dc.lft.to/lastmile_qr_scan"}}, {"name": "e7e599dada478f05e4a5cb66ca4a4f0c", "fusion_lat": 0.0, "type": "electric_scooter", "lat": 38.917392166666666, "is_reserved": 0, "is_disabled": 0, "fusion_lon": 0.0, "bike_id": "e7e599dada478f05e4a5cb66ca4a4f0c", "lon": -77.0318925, "rental_uris": {"ios": "https://dc.lft.to/lastmile_qr_scan", "android": "https://dc.lft.to/lastmile_qr_scan"}}, {"name": "c02dff6247f7c8da02cbf6f6721943e9", "fusion_lat": 0.0, "type": "electric_scooter", "lat": 38.9029625, "is_reserved": 0, "is_disabled": 0, "fusion_lon": 0.0, "bike_id": "c02dff6247f7c8da02cbf6f6721943e9", "lon": -77.02328666666666, "rental_uris": {"ios": "https://dc.lft.to/lastmile_qr_scan", "android": "https://dc.lft.to/lastmile_qr_scan"}}, {"name": "a974348988e17195a8a10ab9971b2a8d", "fusion_lat": 0.0, "type": "electric_scooter", "lat": 38.899611666666665, "is_reserved": 0, "is_disabled": 0, "fusion_lon": 0.0, "bike_id": "a974348988e17195a8a10ab9971b2a8d", "lon": -77.031226, "rental_uris": {"ios": "https://dc.lft.to/lastmile_qr_scan", "android": "https://dc.lft.to/lastmile_qr_scan"}}, {"name": "cf21b32285bc1b8b0e877f206cccd321", "fusion_lat": 0.0, "type": "electric_scooter", "lat": 38.885908, "is_reserved": 0, "is_disabled": 0, "fusion_lon": 0.0, "bike_id": "cf21b32285bc1b8b0e877f206cccd321", "lon": -77.01765616666667, "rental_uris": {"ios": "https://dc.lft.to/lastmile_qr_scan", "android": "https://dc.lft.to/lastmile_qr_scan"}}, {"name": "5fbd21f9b482a04e21743296c0beabea", "fusion_lat": 0.0, "type": "electric_scooter", "lat": 38.893466333333336, "is_reserved": 0, "is_disabled": 0, "fusion_lon": 0.0, "bike_id": "5fbd21f9b482a04e21743296c0beabea", "lon": -76.9495125, "rental_uris": {"ios": "https://dc.lft.to/lastmile_qr_scan", "android": "https://dc.lft.to/lastmile_qr_scan"}}, {"name": "c1409c45b62e3849ab584a26bb5a35d2", "fusion_lat": 0.0, "type": "electric_scooter", "lat": 38.9226945, "is_reserved": 0, "is_disabled": 0, "fusion_lon": 0.0, "bike_id": "c1409c45b62e3849ab584a26bb5a35d2", "lon": -77.04250366666666, "rental_uris": {"ios": "https://dc.lft.to/lastmile_qr_scan", "android": "https://dc.lft.to/lastmile_qr_scan"}}, {"name": "cdd56397e004f431f07f45dab11efc9d", "fusion_lat": 0.0, "type": "electric_scooter", "lat": 38.935771333333335, "is_reserved": 0, "is_disabled": 0, "fusion_lon": 0.0, "bike_id": "cdd56397e004f431f07f45dab11efc9d", "lon": -76.9910925, "rental_uris": {"ios": "https://dc.lft.to/lastmile_qr_scan", "android": "https://dc.lft.to/lastmile_qr_scan"}}, {"name": "25faa8ac3f717f2596693ab2a1ebd9c5", "fusion_lat": 0.0, "type": "electric_scooter", "lat": 38.88427133333333, "is_reserved": 0, "is_disabled": 0, "fusion_lon": 0.0, "bike_id": "25faa8ac3f717f2596693ab2a1ebd9c5", "lon": -76.95754116666667, "rental_uris": {"ios": "https://dc.lft.to/lastmile_qr_scan", "android": "https://dc.lft.to/lastmile_qr_scan"}}, {"name": "ae1d26cca8038908911b48b82b43d9e8", "fusion_lat": 0.0, "type": "electric_scooter", "lat": 38.92359483333333, "is_reserved": 0, "is_disabled": 0, "fusion_lon": 0.0, "bike_id": "ae1d26cca8038908911b48b82b43d9e8", "lon": -77.050854, "rental_uris": {"ios": "https://dc.lft.to/lastmile_qr_scan", "android": "https://dc.lft.to/lastmile_qr_scan"}}, {"name": "4e11de918fda958604d0b60ebc9b06ab", "fusion_lat": 0.0, "type": "electric_scooter", "lat": 38.904777, "is_reserved": 0, "is_disabled": 0, "fusion_lon": 0.0, "bike_id": "4e11de918fda958604d0b60ebc9b06ab", "lon": -77.0418175, "rental_uris": {"ios": "https://dc.lft.to/lastmile_qr_scan", "android": "https://dc.lft.to/lastmile_qr_scan"}}, {"name": "85fd081f584a78a68b5684e03e409490", "fusion_lat": 0.0, "type": "electric_scooter", "lat": 38.90250133333333, "is_reserved": 0, "is_disabled": 0, "fusion_lon": 0.0, "bike_id": "85fd081f584a78a68b5684e03e409490", "lon": -77.00261516666667, "rental_uris": {"ios": "https://dc.lft.to/lastmile_qr_scan", "android": "https://dc.lft.to/lastmile_qr_scan"}}, {"name": "2b71567e9b42705724a3f30b2f697d40", "fusion_lat": 0.0, "type": "electric_scooter", "lat": 38.914052, "is_reserved": 0, "is_disabled": 0, "fusion_lon": 0.0, "bike_id": "2b71567e9b42705724a3f30b2f697d40", "lon": -77.04572816666666, "rental_uris": {"ios": "https://dc.lft.to/lastmile_qr_scan", "android": "https://dc.lft.to/lastmile_qr_scan"}}, {"name": "f24dc02fc579f704a2f4e6e05e020916", "fusion_lat": 0.0, "type": "electric_scooter", "lat": 38.89965733333333, "is_reserved": 0, "is_disabled": 0, "fusion_lon": 0.0, "bike_id": "f24dc02fc579f704a2f4e6e05e020916", "lon": -77.03370133333334, "rental_uris": {"ios": "https://dc.lft.to/lastmile_qr_scan", "android": "https://dc.lft.to/lastmile_qr_scan"}}, {"name": "874fa837c3ae21e5b48ca14ab44eb09d", "fusion_lat": 0.0, "type": "electric_scooter", "lat": 38.90150366666667, "is_reserved": 0, "is_disabled": 0, "fusion_lon": 0.0, "bike_id": "874fa837c3ae21e5b48ca14ab44eb09d", "lon": -76.93066416666667, "rental_uris": {"ios": "https://dc.lft.to/lastmile_qr_scan", "android": "https://dc.lft.to/lastmile_qr_scan"}}, {"name": "e52a94b6dfd988cb292e562c4a8d0a3d", "fusion_lat": 0.0, "type": "electric_scooter", "lat": 38.895354833333336, "is_reserved": 0, "is_disabled": 0, "fusion_lon": 0.0, "bike_id": "e52a94b6dfd988cb292e562c4a8d0a3d", "lon": -77.04648966666667, "rental_uris": {"ios": "https://dc.lft.to/lastmile_qr_scan", "android": "https://dc.lft.to/lastmile_qr_scan"}}, {"name": "295e7dd7f4ddf70e63315219d1b787e2", "fusion_lat": 0.0, "type": "electric_scooter", "lat": 38.933274833333336, "is_reserved": 0, "is_disabled": 0, "fusion_lon": 0.0, "bike_id": "295e7dd7f4ddf70e63315219d1b787e2", "lon": -77.03268483333333, "rental_uris": {"ios": "https://dc.lft.to/lastmile_qr_scan", "android": "https://dc.lft.to/lastmile_qr_scan"}}, {"name": "17efd5c41acbbae156cc45683e399eff", "fusion_lat": 0.0, "type": "electric_scooter", "lat": 38.925310333333336, "is_reserved": 0, "is_disabled": 0, "fusion_lon": 0.0, "bike_id": "17efd5c41acbbae156cc45683e399eff", "lon": -77.055581, "rental_uris": {"ios": "https://dc.lft.to/lastmile_qr_scan", "android": "https://dc.lft.to/lastmile_qr_scan"}}, {"name": "760176b9b2233366db1fe77de6415cde", "fusion_lat": 0.0, "type": "electric_scooter", "lat": 38.9223495, "is_reserved": 0, "is_disabled": 0, "fusion_lon": 0.0, "bike_id": "760176b9b2233366db1fe77de6415cde", "lon": -77.03349066666667, "rental_uris": {"ios": "https://dc.lft.to/lastmile_qr_scan", "android": "https://dc.lft.to/lastmile_qr_scan"}}, {"name": "4489178c8d7fad8fc95a2bb3c58eede9", "fusion_lat": 0.0, "type": "electric_scooter", "lat": 38.915202666666666, "is_reserved": 0, "is_disabled": 0, "fusion_lon": 0.0, "bike_id": "4489178c8d7fad8fc95a2bb3c58eede9", "lon": -77.044976, "rental_uris": {"ios": "https://dc.lft.to/lastmile_qr_scan", "android": "https://dc.lft.to/lastmile_qr_scan"}}, {"name": "335c97f01db6e7b7276f6f3c19d840dc", "fusion_lat": 0.0, "type": "electric_scooter", "lat": 38.89399233333333, "is_reserved": 0, "is_disabled": 0, "fusion_lon": 0.0, "bike_id": "335c97f01db6e7b7276f6f3c19d840dc", "lon": -76.94807666666667, "rental_uris": {"ios": "https://dc.lft.to/lastmile_qr_scan", "android": "https://dc.lft.to/lastmile_qr_scan"}}, {"name": "c7c06cfb17d23f514d479f0f02d988a1", "fusion_lat": 0.0, "type": "electric_scooter", "lat": 38.857073166666666, "is_reserved": 0, "is_disabled": 0, "fusion_lon": 0.0, "bike_id": "c7c06cfb17d23f514d479f0f02d988a1", "lon": -76.98140666666667, "rental_uris": {"ios": "https://dc.lft.to/lastmile_qr_scan", "android": "https://dc.lft.to/lastmile_qr_scan"}}, {"name": "2eeba1d611d0dcfb8dc34035f568cf33", "fusion_lat": 0.0, "type": "electric_bike", "lat": 38.83807866666667, "is_reserved": 0, "is_disabled": 0, "fusion_lon": 0.0, "bike_id": "2eeba1d611d0dcfb8dc34035f568cf33", "lon": -77.095254, "rental_uris": {"ios": "https://dc.lft.to/lastmile_qr_scan", "android": "https://dc.lft.to/lastmile_qr_scan"}}, {"name": "efa9220630df912ba60c6123e4e98acd", "fusion_lat": 0.0, "type": "electric_scooter", "lat": 38.898310333333335, "is_reserved": 0, "is_disabled": 0, "fusion_lon": 0.0, "bike_id": "efa9220630df912ba60c6123e4e98acd", "lon": -76.94646416666667, "rental_uris": {"ios": "https://dc.lft.to/lastmile_qr_scan", "android": "https://dc.lft.to/lastmile_qr_scan"}}, {"name": "f93adc49c661c5b7aa50346f417a09fa", "fusion_lat": 0.0, "type": "electric_scooter", "lat": 38.923635, "is_reserved": 0, "is_disabled": 0, "fusion_lon": 0.0, "bike_id": "f93adc49c661c5b7aa50346f417a09fa", "lon": -77.050307, "rental_uris": {"ios": "https://dc.lft.to/lastmile_qr_scan", "android": "https://dc.lft.to/lastmile_qr_scan"}}, {"name": "b1e1d14619840fadeefdade85d2e4fad", "fusion_lat": 0.0, "type": "electric_scooter", "lat": 38.89511816666667, "is_reserved": 0, "is_disabled": 0, "fusion_lon": 0.0, "bike_id": "b1e1d14619840fadeefdade85d2e4fad", "lon": -76.94892233333333, "rental_uris": {"ios": "https://dc.lft.to/lastmile_qr_scan", "android": "https://dc.lft.to/lastmile_qr_scan"}}, {"name": "196118e17c89931b4da486871502e2df", "fusion_lat": 0.0, "type": "electric_bike", "lat": 38.8272285, "is_reserved": 0, "is_disabled": 0, "fusion_lon": 0.0, "bike_id": "196118e17c89931b4da486871502e2df", "lon": -77.00862066666667, "rental_uris": {"ios": "https://dc.lft.to/lastmile_qr_scan", "android": "https://dc.lft.to/lastmile_qr_scan"}}, {"name": "8489fc149c5cdb070758d0b599e0eb00", "fusion_lat": 0.0, "type": "electric_scooter", "lat": 38.88019116666667, "is_reserved": 0, "is_disabled": 0, "fusion_lon": 0.0, "bike_id": "8489fc149c5cdb070758d0b599e0eb00", "lon": -76.9313515, "rental_uris": {"ios": "https://dc.lft.to/lastmile_qr_scan", "android": "https://dc.lft.to/lastmile_qr_scan"}}, {"name": "79a4192c58faadd68df8a2a978109a29", "fusion_lat": 0.0, "type": "electric_scooter", "lat": 38.89224983333333, "is_reserved": 0, "is_disabled": 0, "fusion_lon": 0.0, "bike_id": "79a4192c58faadd68df8a2a978109a29", "lon": -77.00310583333334, "rental_uris": {"ios": "https://dc.lft.to/lastmile_qr_scan", "android": "https://dc.lft.to/lastmile_qr_scan"}}, {"name": "3951bab423d78ec6353512384ac6e545", "fusion_lat": 0.0, "type": "electric_scooter", "lat": 38.910636333333336, "is_reserved": 0, "is_disabled": 0, "fusion_lon": 0.0, "bike_id": "3951bab423d78ec6353512384ac6e545", "lon": -77.0457725, "rental_uris": {"ios": "https://dc.lft.to/lastmile_qr_scan", "android": "https://dc.lft.to/lastmile_qr_scan"}}, {"name": "5ed7d5523e955f934f58fa94fc587790", "fusion_lat": 0.0, "type": "electric_scooter", "lat": 38.929801499999996, "is_reserved": 0, "is_disabled": 0, "fusion_lon": 0.0, "bike_id": "5ed7d5523e955f934f58fa94fc587790", "lon": -77.02612133333334, "rental_uris": {"ios": "https://dc.lft.to/lastmile_qr_scan", "android": "https://dc.lft.to/lastmile_qr_scan"}}, {"name": "b886603ea59fbfa66191242d04f1df00", "fusion_lat": 0.0, "type": "electric_scooter", "lat": 38.94201483333333, "is_reserved": 0, "is_disabled": 0, "fusion_lon": 0.0, "bike_id": "b886603ea59fbfa66191242d04f1df00", "lon": -77.025182, "rental_uris": {"ios": "https://dc.lft.to/lastmile_qr_scan", "android": "https://dc.lft.to/lastmile_qr_scan"}}, {"name": "99e26b535a1fd390f3594e2784d1d5d1", "fusion_lat": 0.0, "type": "electric_scooter", "lat": 38.90120866666667, "is_reserved": 0, "is_disabled": 0, "fusion_lon": 0.0, "bike_id": "99e26b535a1fd390f3594e2784d1d5d1", "lon": -77.03174916666667, "rental_uris": {"ios": "https://dc.lft.to/lastmile_qr_scan", "android": "https://dc.lft.to/lastmile_qr_scan"}}, {"name": "635335fbec55abef9bd4ba32b56e532c", "fusion_lat": 0.0, "type": "electric_scooter", "lat": 38.920523333333335, "is_reserved": 0, "is_disabled": 0, "fusion_lon": 0.0, "bike_id": "635335fbec55abef9bd4ba32b56e532c", "lon": -77.02425133333334, "rental_uris": {"ios": "https://dc.lft.to/lastmile_qr_scan", "android": "https://dc.lft.to/lastmile_qr_scan"}}, {"name": "ddf019fd7c9e35727e56452fe2c45580", "fusion_lat": 0.0, "type": "electric_scooter", "lat": 38.89895333333333, "is_reserved": 0, "is_disabled": 0, "fusion_lon": 0.0, "bike_id": "ddf019fd7c9e35727e56452fe2c45580", "lon": -77.03270983333333, "rental_uris": {"ios": "https://dc.lft.to/lastmile_qr_scan", "android": "https://dc.lft.to/lastmile_qr_scan"}}, {"name": "f2650f87a9e82b57e95a6632276a7f01", "fusion_lat": 0.0, "type": "electric_scooter", "lat": 38.9082765, "is_reserved": 0, "is_disabled": 0, "fusion_lon": 0.0, "bike_id": "f2650f87a9e82b57e95a6632276a7f01", "lon": -77.03658866666666, "rental_uris": {"ios": "https://dc.lft.to/lastmile_qr_scan", "android": "https://dc.lft.to/lastmile_qr_scan"}}, {"name": "c26ded0a1b605dcd8fb28aa48dbdd443", "fusion_lat": 0.0, "type": "electric_scooter", "lat": 38.900272666666666, "is_reserved": 0, "is_disabled": 0, "fusion_lon": 0.0, "bike_id": "c26ded0a1b605dcd8fb28aa48dbdd443", "lon": -76.997638, "rental_uris": {"ios": "https://dc.lft.to/lastmile_qr_scan", "android": "https://dc.lft.to/lastmile_qr_scan"}}, {"name": "77f8726234571aa40f2c0e8ee75f43dd", "fusion_lat": 0.0, "type": "electric_scooter", "lat": 38.894933333333334, "is_reserved": 0, "is_disabled": 0, "fusion_lon": 0.0, "bike_id": "77f8726234571aa40f2c0e8ee75f43dd", "lon": -77.02386433333334, "rental_uris": {"ios": "https://dc.lft.to/lastmile_qr_scan", "android": "https://dc.lft.to/lastmile_qr_scan"}}, {"name": "ba8f024fe3f7bb1da7f6c3b35ec31fe1", "fusion_lat": 0.0, "type": "electric_scooter", "lat": 38.9279525, "is_reserved": 0, "is_disabled": 0, "fusion_lon": 0.0, "bike_id": "ba8f024fe3f7bb1da7f6c3b35ec31fe1", "lon": -77.05356833333333, "rental_uris": {"ios": "https://dc.lft.to/lastmile_qr_scan", "android": "https://dc.lft.to/lastmile_qr_scan"}}, {"name": "049f83f1cb546185ab4cd81bbcfe1ab9", "fusion_lat": 0.0, "type": "electric_scooter", "lat": 38.918975, "is_reserved": 0, "is_disabled": 0, "fusion_lon": 0.0, "bike_id": "049f83f1cb546185ab4cd81bbcfe1ab9", "lon": -77.05290966666666, "rental_uris": {"ios": "https://dc.lft.to/lastmile_qr_scan", "android": "https://dc.lft.to/lastmile_qr_scan"}}, {"name": "b41a42dc10fb6d0a6b3c64fc2a87636e", "fusion_lat": 0.0, "type": "electric_scooter", "lat": 38.90790633333334, "is_reserved": 0, "is_disabled": 0, "fusion_lon": 0.0, "bike_id": "b41a42dc10fb6d0a6b3c64fc2a87636e", "lon": -77.048239, "rental_uris": {"ios": "https://dc.lft.to/lastmile_qr_scan", "android": "https://dc.lft.to/lastmile_qr_scan"}}, {"name": "9ee7b0feb912da96af7ac255fbbda8c5", "fusion_lat": 0.0, "type": "electric_bike", "lat": 38.96501466666667, "is_reserved": 0, "is_disabled": 0, "fusion_lon": 0.0, "bike_id": "9ee7b0feb912da96af7ac255fbbda8c5", "lon": -77.10335533333334, "rental_uris": {"ios": "https://dc.lft.to/lastmile_qr_scan", "android": "https://dc.lft.to/lastmile_qr_scan"}}, {"name": "4589dd5866c4c407a30b6d134d062ae0", "fusion_lat": 0.0, "type": "electric_scooter", "lat": 38.900862333333336, "is_reserved": 0, "is_disabled": 0, "fusion_lon": 0.0, "bike_id": "4589dd5866c4c407a30b6d134d062ae0", "lon": -77.03214566666666, "rental_uris": {"ios": "https://dc.lft.to/lastmile_qr_scan", "android": "https://dc.lft.to/lastmile_qr_scan"}}, {"name": "cfde7159d814930372ee3a88f21fc965", "fusion_lat": 0.0, "type": "electric_scooter", "lat": 38.921516833333335, "is_reserved": 0, "is_disabled": 0, "fusion_lon": 0.0, "bike_id": "cfde7159d814930372ee3a88f21fc965", "lon": -77.0351245, "rental_uris": {"ios": "https://dc.lft.to/lastmile_qr_scan", "android": "https://dc.lft.to/lastmile_qr_scan"}}, {"name": "cee371bfb125c9e977f75a9b2f32ec50", "fusion_lat": 0.0, "type": "electric_scooter", "lat": 38.897339, "is_reserved": 0, "is_disabled": 0, "fusion_lon": 0.0, "bike_id": "cee371bfb125c9e977f75a9b2f32ec50", "lon": -76.94255866666667, "rental_uris": {"ios": "https://dc.lft.to/lastmile_qr_scan", "android": "https://dc.lft.to/lastmile_qr_scan"}}, {"name": "6a0dfa061cf181b17a541f84cc571e0f", "fusion_lat": 0.0, "type": "electric_scooter", "lat": 38.933820833333336, "is_reserved": 0, "is_disabled": 0, "fusion_lon": 0.0, "bike_id": "6a0dfa061cf181b17a541f84cc571e0f", "lon": -77.05768933333333, "rental_uris": {"ios": "https://dc.lft.to/lastmile_qr_scan", "android": "https://dc.lft.to/lastmile_qr_scan"}}, {"name": "b0e63d06f29a1b210e0afcbe684f34ef", "fusion_lat": 0.0, "type": "electric_scooter", "lat": 38.913066, "is_reserved": 0, "is_disabled": 0, "fusion_lon": 0.0, "bike_id": "b0e63d06f29a1b210e0afcbe684f34ef", "lon": -77.02173266666667, "rental_uris": {"ios": "https://dc.lft.to/lastmile_qr_scan", "android": "https://dc.lft.to/lastmile_qr_scan"}}, {"name": "221ede19d48f68adf593d97bf4076cd3", "fusion_lat": 0.0, "type": "electric_scooter", "lat": 38.90419516666667, "is_reserved": 0, "is_disabled": 0, "fusion_lon": 0.0, "bike_id": "221ede19d48f68adf593d97bf4076cd3", "lon": -77.04645866666667, "rental_uris": {"ios": "https://dc.lft.to/lastmile_qr_scan", "android": "https://dc.lft.to/lastmile_qr_scan"}}, {"name": "69b0380eb03b1e5fa8a27cbde17a87de", "fusion_lat": 0.0, "type": "electric_scooter", "lat": 38.90010316666667, "is_reserved": 0, "is_disabled": 0, "fusion_lon": 0.0, "bike_id": "69b0380eb03b1e5fa8a27cbde17a87de", "lon": -77.033418, "rental_uris": {"ios": "https://dc.lft.to/lastmile_qr_scan", "android": "https://dc.lft.to/lastmile_qr_scan"}}, {"name": "b4bbc6353a1d65606c2a874601cb0092", "fusion_lat": 0.0, "type": "electric_scooter", "lat": 38.90378616666667, "is_reserved": 0, "is_disabled": 0, "fusion_lon": 0.0, "bike_id": "b4bbc6353a1d65606c2a874601cb0092", "lon": -77.04366883333333, "rental_uris": {"ios": "https://dc.lft.to/lastmile_qr_scan", "android": "https://dc.lft.to/lastmile_qr_scan"}}, {"name": "3658d7828153160870e913a708bcb351", "fusion_lat": 0.0, "type": "electric_scooter", "lat": 38.9226525, "is_reserved": 0, "is_disabled": 0, "fusion_lon": 0.0, "bike_id": "3658d7828153160870e913a708bcb351", "lon": -77.02243016666667, "rental_uris": {"ios": "https://dc.lft.to/lastmile_qr_scan", "android": "https://dc.lft.to/lastmile_qr_scan"}}, {"name": "48788c3b6eac34a8029c16bcb584cb44", "fusion_lat": 0.0, "type": "electric_scooter", "lat": 38.93703633333333, "is_reserved": 0, "is_disabled": 0, "fusion_lon": 0.0, "bike_id": "48788c3b6eac34a8029c16bcb584cb44", "lon": -77.05601516666667, "rental_uris": {"ios": "https://dc.lft.to/lastmile_qr_scan", "android": "https://dc.lft.to/lastmile_qr_scan"}}, {"name": "cde3451ba0f3f5c5141178f0c7dbdceb", "fusion_lat": 0.0, "type": "electric_scooter", "lat": 38.9247425, "is_reserved": 0, "is_disabled": 0, "fusion_lon": 0.0, "bike_id": "cde3451ba0f3f5c5141178f0c7dbdceb", "lon": -77.05217833333333, "rental_uris": {"ios": "https://dc.lft.to/lastmile_qr_scan", "android": "https://dc.lft.to/lastmile_qr_scan"}}, {"name": "6eeb09a1f05f6b760dc7212c1405d16a", "fusion_lat": 0.0, "type": "electric_scooter", "lat": 38.90382433333333, "is_reserved": 0, "is_disabled": 0, "fusion_lon": 0.0, "bike_id": "6eeb09a1f05f6b760dc7212c1405d16a", "lon": -77.04511366666667, "rental_uris": {"ios": "https://dc.lft.to/lastmile_qr_scan", "android": "https://dc.lft.to/lastmile_qr_scan"}}, {"name": "37898af3a4520b60f67221113a39a6c4", "fusion_lat": 0.0, "type": "electric_scooter", "lat": 38.94292216666667, "is_reserved": 0, "is_disabled": 0, "fusion_lon": 0.0, "bike_id": "37898af3a4520b60f67221113a39a6c4", "lon": -77.02173633333334, "rental_uris": {"ios": "https://dc.lft.to/lastmile_qr_scan", "android": "https://dc.lft.to/lastmile_qr_scan"}}, {"name": "4f6413b903a44b6f14973d33b3c42147", "fusion_lat": 0.0, "type": "electric_scooter", "lat": 38.90513583333333, "is_reserved": 0, "is_disabled": 0, "fusion_lon": 0.0, "bike_id": "4f6413b903a44b6f14973d33b3c42147", "lon": -77.041503, "rental_uris": {"ios": "https://dc.lft.to/lastmile_qr_scan", "android": "https://dc.lft.to/lastmile_qr_scan"}}, {"name": "97d9efd0e959e2f78da1876bb5215eff", "fusion_lat": 0.0, "type": "electric_scooter", "lat": 38.93387466666667, "is_reserved": 0, "is_disabled": 0, "fusion_lon": 0.0, "bike_id": "97d9efd0e959e2f78da1876bb5215eff", "lon": -77.03583466666667, "rental_uris": {"ios": "https://dc.lft.to/lastmile_qr_scan", "android": "https://dc.lft.to/lastmile_qr_scan"}}, {"name": "80ac17e5b84f13468ec39cdee858455f", "fusion_lat": 0.0, "type": "electric_scooter", "lat": 38.877564666666665, "is_reserved": 0, "is_disabled": 0, "fusion_lon": 0.0, "bike_id": "80ac17e5b84f13468ec39cdee858455f", "lon": -76.994253, "rental_uris": {"ios": "https://dc.lft.to/lastmile_qr_scan", "android": "https://dc.lft.to/lastmile_qr_scan"}}, {"name": "11722fae1980267d92dc9635863d5dfb", "fusion_lat": 0.0, "type": "electric_scooter", "lat": 38.9111295, "is_reserved": 0, "is_disabled": 0, "fusion_lon": 0.0, "bike_id": "11722fae1980267d92dc9635863d5dfb", "lon": -77.04350383333333, "rental_uris": {"ios": "https://dc.lft.to/lastmile_qr_scan", "android": "https://dc.lft.to/lastmile_qr_scan"}}, {"name": "92ac05b2a80a125f7dd8a6071af8fc82", "fusion_lat": 0.0, "type": "electric_scooter", "lat": 38.883137833333336, "is_reserved": 0, "is_disabled": 0, "fusion_lon": 0.0, "bike_id": "92ac05b2a80a125f7dd8a6071af8fc82", "lon": -77.02366416666666, "rental_uris": {"ios": "https://dc.lft.to/lastmile_qr_scan", "android": "https://dc.lft.to/lastmile_qr_scan"}}, {"name": "c6b9c39fc32347c508be9eed7bf99599", "fusion_lat": 0.0, "type": "electric_scooter", "lat": 38.931478166666665, "is_reserved": 0, "is_disabled": 0, "fusion_lon": 0.0, "bike_id": "c6b9c39fc32347c508be9eed7bf99599", "lon": -77.038984, "rental_uris": {"ios": "https://dc.lft.to/lastmile_qr_scan", "android": "https://dc.lft.to/lastmile_qr_scan"}}, {"name": "64758a69bc99705f1070e25dbad6845b", "fusion_lat": 0.0, "type": "electric_bike", "lat": 38.89211866666667, "is_reserved": 0, "is_disabled": 0, "fusion_lon": 0.0, "bike_id": "64758a69bc99705f1070e25dbad6845b", "lon": -77.10782166666667, "rental_uris": {"ios": "https://dc.lft.to/lastmile_qr_scan", "android": "https://dc.lft.to/lastmile_qr_scan"}}, {"name": "58a670b5ce5a6828b68c29889747295d", "fusion_lat": 0.0, "type": "electric_scooter", "lat": 38.91107083333333, "is_reserved": 0, "is_disabled": 0, "fusion_lon": 0.0, "bike_id": "58a670b5ce5a6828b68c29889747295d", "lon": -77.0735205, "rental_uris": {"ios": "https://dc.lft.to/lastmile_qr_scan", "android": "https://dc.lft.to/lastmile_qr_scan"}}, {"name": "53d82c9d1c3f2b1ae7a1a5ac4e009ad5", "fusion_lat": 0.0, "type": "electric_scooter", "lat": 38.912749833333336, "is_reserved": 0, "is_disabled": 0, "fusion_lon": 0.0, "bike_id": "53d82c9d1c3f2b1ae7a1a5ac4e009ad5", "lon": -77.03157783333333, "rental_uris": {"ios": "https://dc.lft.to/lastmile_qr_scan", "android": "https://dc.lft.to/lastmile_qr_scan"}}, {"name": "caecf05cdf1a45ace5a5054dca955b4e", "fusion_lat": 0.0, "type": "electric_scooter", "lat": 38.86568966666667, "is_reserved": 0, "is_disabled": 0, "fusion_lon": 0.0, "bike_id": "caecf05cdf1a45ace5a5054dca955b4e", "lon": -76.98947616666666, "rental_uris": {"ios": "https://dc.lft.to/lastmile_qr_scan", "android": "https://dc.lft.to/lastmile_qr_scan"}}, {"name": "4516b1c9db9b818bdeae3d1f9bc68745", "fusion_lat": 0.0, "type": "electric_bike", "lat": 38.85157983333333, "is_reserved": 0, "is_disabled": 0, "fusion_lon": 0.0, "bike_id": "4516b1c9db9b818bdeae3d1f9bc68745", "lon": -77.12879216666667, "rental_uris": {"ios": "https://dc.lft.to/lastmile_qr_scan", "android": "https://dc.lft.to/lastmile_qr_scan"}}, {"name": "5fedfac59325c9beb378e361b6d170c7", "fusion_lat": 0.0, "type": "electric_scooter", "lat": 38.936703666666666, "is_reserved": 0, "is_disabled": 0, "fusion_lon": 0.0, "bike_id": "5fedfac59325c9beb378e361b6d170c7", "lon": -77.03592783333333, "rental_uris": {"ios": "https://dc.lft.to/lastmile_qr_scan", "android": "https://dc.lft.to/lastmile_qr_scan"}}, {"name": "ba727c7c8c5856533fbdeecd1d9a0504", "fusion_lat": 0.0, "type": "electric_scooter", "lat": 38.9249245, "is_reserved": 0, "is_disabled": 0, "fusion_lon": 0.0, "bike_id": "ba727c7c8c5856533fbdeecd1d9a0504", "lon": -77.03558716666667, "rental_uris": {"ios": "https://dc.lft.to/lastmile_qr_scan", "android": "https://dc.lft.to/lastmile_qr_scan"}}, {"name": "262140754047717bc38af370eedb3566", "fusion_lat": 0.0, "type": "electric_scooter", "lat": 38.90203483333333, "is_reserved": 0, "is_disabled": 0, "fusion_lon": 0.0, "bike_id": "262140754047717bc38af370eedb3566", "lon": -76.98201083333333, "rental_uris": {"ios": "https://dc.lft.to/lastmile_qr_scan", "android": "https://dc.lft.to/lastmile_qr_scan"}}, {"name": "993a098e5669636061638ec36eb71ad9", "fusion_lat": 0.0, "type": "electric_scooter", "lat": 38.89474466666667, "is_reserved": 0, "is_disabled": 0, "fusion_lon": 0.0, "bike_id": "993a098e5669636061638ec36eb71ad9", "lon": -76.9840155, "rental_uris": {"ios": "https://dc.lft.to/lastmile_qr_scan", "android": "https://dc.lft.to/lastmile_qr_scan"}}, {"name": "45207620b3c0e9dd990f10a4f82481e1", "fusion_lat": 0.0, "type": "electric_scooter", "lat": 38.9611245, "is_reserved": 0, "is_disabled": 0, "fusion_lon": 0.0, "bike_id": "45207620b3c0e9dd990f10a4f82481e1", "lon": -77.02815466666667, "rental_uris": {"ios": "https://dc.lft.to/lastmile_qr_scan", "android": "https://dc.lft.to/lastmile_qr_scan"}}, {"name": "e7953c822f85ffaf0ac6b1360ab75157", "fusion_lat": 0.0, "type": "electric_scooter", "lat": 38.94310333333333, "is_reserved": 0, "is_disabled": 0, "fusion_lon": 0.0, "bike_id": "e7953c822f85ffaf0ac6b1360ab75157", "lon": -77.0592385, "rental_uris": {"ios": "https://dc.lft.to/lastmile_qr_scan", "android": "https://dc.lft.to/lastmile_qr_scan"}}, {"name": "d6b9f856d2d7230723b36044e7e7de51", "fusion_lat": 0.0, "type": "electric_bike", "lat": 38.87269516666667, "is_reserved": 0, "is_disabled": 0, "fusion_lon": 0.0, "bike_id": "d6b9f856d2d7230723b36044e7e7de51", "lon": -77.01695916666667, "rental_uris": {"ios": "https://dc.lft.to/lastmile_qr_scan", "android": "https://dc.lft.to/lastmile_qr_scan"}}, {"name": "206277bb83e0dfa94918ec071d34012e", "fusion_lat": 0.0, "type": "electric_scooter", "lat": 38.8694285, "is_reserved": 0, "is_disabled": 0, "fusion_lon": 0.0, "bike_id": "206277bb83e0dfa94918ec071d34012e", "lon": -76.97856, "rental_uris": {"ios": "https://dc.lft.to/lastmile_qr_scan", "android": "https://dc.lft.to/lastmile_qr_scan"}}, {"name": "f7346b9a8732494415faf1534e370da7", "fusion_lat": 0.0, "type": "electric_scooter", "lat": 38.9012755, "is_reserved": 0, "is_disabled": 0, "fusion_lon": 0.0, "bike_id": "f7346b9a8732494415faf1534e370da7", "lon": -77.04479833333333, "rental_uris": {"ios": "https://dc.lft.to/lastmile_qr_scan", "android": "https://dc.lft.to/lastmile_qr_scan"}}, {"name": "98760a5d80f7a94d79f4313efe466c33", "fusion_lat": 0.0, "type": "electric_scooter", "lat": 38.930726166666666, "is_reserved": 0, "is_disabled": 0, "fusion_lon": 0.0, "bike_id": "98760a5d80f7a94d79f4313efe466c33", "lon": -77.0340525, "rental_uris": {"ios": "https://dc.lft.to/lastmile_qr_scan", "android": "https://dc.lft.to/lastmile_qr_scan"}}, {"name": "c549ffb2f9d8bb5a033bd1cc8910dd8e", "fusion_lat": 0.0, "type": "electric_scooter", "lat": 38.92490683333333, "is_reserved": 0, "is_disabled": 0, "fusion_lon": 0.0, "bike_id": "c549ffb2f9d8bb5a033bd1cc8910dd8e", "lon": -77.0271555, "rental_uris": {"ios": "https://dc.lft.to/lastmile_qr_scan", "android": "https://dc.lft.to/lastmile_qr_scan"}}, {"name": "2704fa85bd1784c21b85582e3705be62", "fusion_lat": 0.0, "type": "electric_scooter", "lat": 38.90079583333333, "is_reserved": 0, "is_disabled": 0, "fusion_lon": 0.0, "bike_id": "2704fa85bd1784c21b85582e3705be62", "lon": -77.05913466666667, "rental_uris": {"ios": "https://dc.lft.to/lastmile_qr_scan", "android": "https://dc.lft.to/lastmile_qr_scan"}}, {"name": "8400c54372fc8395cd6e24a46ca1294e", "fusion_lat": 0.0, "type": "electric_scooter", "lat": 38.899164999999996, "is_reserved": 0, "is_disabled": 0, "fusion_lon": 0.0, "bike_id": "8400c54372fc8395cd6e24a46ca1294e", "lon": -76.933862, "rental_uris": {"ios": "https://dc.lft.to/lastmile_qr_scan", "android": "https://dc.lft.to/lastmile_qr_scan"}}, {"name": "5fd8f0c2db44863403d894f5537227c3", "fusion_lat": 0.0, "type": "electric_bike", "lat": 38.880556166666665, "is_reserved": 0, "is_disabled": 0, "fusion_lon": 0.0, "bike_id": "5fd8f0c2db44863403d894f5537227c3", "lon": -77.0252105, "rental_uris": {"ios": "https://dc.lft.to/lastmile_qr_scan", "android": "https://dc.lft.to/lastmile_qr_scan"}}, {"name": "e4417e86161a5eb14021ec0597439438", "fusion_lat": 0.0, "type": "electric_scooter", "lat": 38.901378333333334, "is_reserved": 0, "is_disabled": 0, "fusion_lon": 0.0, "bike_id": "e4417e86161a5eb14021ec0597439438", "lon": -77.04242583333334, "rental_uris": {"ios": "https://dc.lft.to/lastmile_qr_scan", "android": "https://dc.lft.to/lastmile_qr_scan"}}, {"name": "36d487c0c900299e432a875fe6381d9e", "fusion_lat": 0.0, "type": "electric_bike", "lat": 38.928521833333335, "is_reserved": 0, "is_disabled": 0, "fusion_lon": 0.0, "bike_id": "36d487c0c900299e432a875fe6381d9e", "lon": -77.22216316666666, "rental_uris": {"ios": "https://dc.lft.to/lastmile_qr_scan", "android": "https://dc.lft.to/lastmile_qr_scan"}}, {"name": "7a74734acf9991d1224de695d3919534", "fusion_lat": 0.0, "type": "electric_scooter", "lat": 38.90670033333333, "is_reserved": 0, "is_disabled": 0, "fusion_lon": 0.0, "bike_id": "7a74734acf9991d1224de695d3919534", "lon": -77.0270975, "rental_uris": {"ios": "https://dc.lft.to/lastmile_qr_scan", "android": "https://dc.lft.to/lastmile_qr_scan"}}, {"name": "beab7838465eac981f02c5a2fd2460f1", "fusion_lat": 0.0, "type": "electric_scooter", "lat": 38.90718016666667, "is_reserved": 0, "is_disabled": 0, "fusion_lon": 0.0, "bike_id": "beab7838465eac981f02c5a2fd2460f1", "lon": -77.03267816666667, "rental_uris": {"ios": "https://dc.lft.to/lastmile_qr_scan", "android": "https://dc.lft.to/lastmile_qr_scan"}}, {"name": "c77b1e4f92baacc9be9082565cf969b0", "fusion_lat": 0.0, "type": "electric_scooter", "lat": 38.956457666666665, "is_reserved": 0, "is_disabled": 0, "fusion_lon": 0.0, "bike_id": "c77b1e4f92baacc9be9082565cf969b0", "lon": -77.0329295, "rental_uris": {"ios": "https://dc.lft.to/lastmile_qr_scan", "android": "https://dc.lft.to/lastmile_qr_scan"}}, {"name": "1704356bf1586a704f73822487c2cde1", "fusion_lat": 0.0, "type": "electric_scooter", "lat": 38.89764266666667, "is_reserved": 0, "is_disabled": 0, "fusion_lon": 0.0, "bike_id": "1704356bf1586a704f73822487c2cde1", "lon": -77.02797233333334, "rental_uris": {"ios": "https://dc.lft.to/lastmile_qr_scan", "android": "https://dc.lft.to/lastmile_qr_scan"}}, {"name": "cf3c51bccecef840a24cd981d1fa83ce", "fusion_lat": 0.0, "type": "electric_bike", "lat": 38.935187666666664, "is_reserved": 0, "is_disabled": 0, "fusion_lon": 0.0, "bike_id": "cf3c51bccecef840a24cd981d1fa83ce", "lon": -76.95062266666666, "rental_uris": {"ios": "https://dc.lft.to/lastmile_qr_scan", "android": "https://dc.lft.to/lastmile_qr_scan"}}, {"name": "f5836b5c6d64c3cf86896bfff8bbe9a8", "fusion_lat": 0.0, "type": "electric_scooter", "lat": 38.895563833333334, "is_reserved": 0, "is_disabled": 0, "fusion_lon": 0.0, "bike_id": "f5836b5c6d64c3cf86896bfff8bbe9a8", "lon": -77.05009, "rental_uris": {"ios": "https://dc.lft.to/lastmile_qr_scan", "android": "https://dc.lft.to/lastmile_qr_scan"}}, {"name": "8faf3b98e7d7308e4277dfe375f92ed2", "fusion_lat": 0.0, "type": "electric_scooter", "lat": 38.86240866666667, "is_reserved": 0, "is_disabled": 0, "fusion_lon": 0.0, "bike_id": "8faf3b98e7d7308e4277dfe375f92ed2", "lon": -76.99504766666666, "rental_uris": {"ios": "https://dc.lft.to/lastmile_qr_scan", "android": "https://dc.lft.to/lastmile_qr_scan"}}, {"name": "4840d714c5dffe36695def1f918aba50", "fusion_lat": 0.0, "type": "electric_scooter", "lat": 38.865367, "is_reserved": 0, "is_disabled": 0, "fusion_lon": 0.0, "bike_id": "4840d714c5dffe36695def1f918aba50", "lon": -76.98709433333333, "rental_uris": {"ios": "https://dc.lft.to/lastmile_qr_scan", "android": "https://dc.lft.to/lastmile_qr_scan"}}, {"name": "064d15813062ab40d5c8c50ed2d368cf", "fusion_lat": 0.0, "type": "electric_scooter", "lat": 38.92739516666666, "is_reserved": 0, "is_disabled": 0, "fusion_lon": 0.0, "bike_id": "064d15813062ab40d5c8c50ed2d368cf", "lon": -77.01200333333334, "rental_uris": {"ios": "https://dc.lft.to/lastmile_qr_scan", "android": "https://dc.lft.to/lastmile_qr_scan"}}, {"name": "085a4c7182d57fee357f3e55a14f0ceb", "fusion_lat": 0.0, "type": "electric_scooter", "lat": 38.898527, "is_reserved": 0, "is_disabled": 0, "fusion_lon": 0.0, "bike_id": "085a4c7182d57fee357f3e55a14f0ceb", "lon": -77.03163466666666, "rental_uris": {"ios": "https://dc.lft.to/lastmile_qr_scan", "android": "https://dc.lft.to/lastmile_qr_scan"}}, {"name": "77ee34cd1b3943204e0bfd37b1e054f3", "fusion_lat": 0.0, "type": "electric_bike", "lat": 39.088555166666666, "is_reserved": 0, "is_disabled": 0, "fusion_lon": 0.0, "bike_id": "77ee34cd1b3943204e0bfd37b1e054f3", "lon": -77.178476, "rental_uris": {"ios": "https://dc.lft.to/lastmile_qr_scan", "android": "https://dc.lft.to/lastmile_qr_scan"}}, {"name": "c965bc67e1a4d01446d24f627e1d5b7e", "fusion_lat": 0.0, "type": "electric_scooter", "lat": 38.90269966666666, "is_reserved": 0, "is_disabled": 0, "fusion_lon": 0.0, "bike_id": "c965bc67e1a4d01446d24f627e1d5b7e", "lon": -77.03664583333334, "rental_uris": {"ios": "https://dc.lft.to/lastmile_qr_scan", "android": "https://dc.lft.to/lastmile_qr_scan"}}, {"name": "7f189bc336ba38ce91d87b459f2e5ec2", "fusion_lat": 0.0, "type": "electric_scooter", "lat": 38.91173366666666, "is_reserved": 0, "is_disabled": 0, "fusion_lon": 0.0, "bike_id": "7f189bc336ba38ce91d87b459f2e5ec2", "lon": -77.02347883333333, "rental_uris": {"ios": "https://dc.lft.to/lastmile_qr_scan", "android": "https://dc.lft.to/lastmile_qr_scan"}}, {"name": "ad45d22e9c11bf24f4bd7b34b3711bd5", "fusion_lat": 0.0, "type": "electric_scooter", "lat": 38.883327666666666, "is_reserved": 0, "is_disabled": 0, "fusion_lon": 0.0, "bike_id": "ad45d22e9c11bf24f4bd7b34b3711bd5", "lon": -77.01543616666666, "rental_uris": {"ios": "https://dc.lft.to/lastmile_qr_scan", "android": "https://dc.lft.to/lastmile_qr_scan"}}, {"name": "a41901c5a747d88117fc311812ac7383", "fusion_lat": 0.0, "type": "electric_scooter", "lat": 38.9234795, "is_reserved": 0, "is_disabled": 0, "fusion_lon": 0.0, "bike_id": "a41901c5a747d88117fc311812ac7383", "lon": -77.01911316666667, "rental_uris": {"ios": "https://dc.lft.to/lastmile_qr_scan", "android": "https://dc.lft.to/lastmile_qr_scan"}}, {"name": "44c7091dae7bcf29257f1a2c2896eb78", "fusion_lat": 0.0, "type": "electric_scooter", "lat": 38.931667, "is_reserved": 0, "is_disabled": 0, "fusion_lon": 0.0, "bike_id": "44c7091dae7bcf29257f1a2c2896eb78", "lon": -77.03635683333333, "rental_uris": {"ios": "https://dc.lft.to/lastmile_qr_scan", "android": "https://dc.lft.to/lastmile_qr_scan"}}, {"name": "72b80fc316c457bfbc24b184435681a6", "fusion_lat": 0.0, "type": "electric_scooter", "lat": 38.92626633333333, "is_reserved": 0, "is_disabled": 0, "fusion_lon": 0.0, "bike_id": "72b80fc316c457bfbc24b184435681a6", "lon": -77.03516166666667, "rental_uris": {"ios": "https://dc.lft.to/lastmile_qr_scan", "android": "https://dc.lft.to/lastmile_qr_scan"}}, {"name": "1822399a8505930dab416e1d4411bb95", "fusion_lat": 0.0, "type": "electric_scooter", "lat": 38.911775, "is_reserved": 0, "is_disabled": 0, "fusion_lon": 0.0, "bike_id": "1822399a8505930dab416e1d4411bb95", "lon": -77.069288, "rental_uris": {"ios": "https://dc.lft.to/lastmile_qr_scan", "android": "https://dc.lft.to/lastmile_qr_scan"}}, {"name": "95d6d579f22a6d6f415fbdb5ba4f0812", "fusion_lat": 0.0, "type": "electric_scooter", "lat": 38.90284283333333, "is_reserved": 0, "is_disabled": 0, "fusion_lon": 0.0, "bike_id": "95d6d579f22a6d6f415fbdb5ba4f0812", "lon": -77.04613583333334, "rental_uris": {"ios": "https://dc.lft.to/lastmile_qr_scan", "android": "https://dc.lft.to/lastmile_qr_scan"}}, {"name": "0d79a438a73c351e604aa7c7795b4542", "fusion_lat": 0.0, "type": "electric_scooter", "lat": 38.9097395, "is_reserved": 0, "is_disabled": 0, "fusion_lon": 0.0, "bike_id": "0d79a438a73c351e604aa7c7795b4542", "lon": -77.01129583333334, "rental_uris": {"ios": "https://dc.lft.to/lastmile_qr_scan", "android": "https://dc.lft.to/lastmile_qr_scan"}}, {"name": "8222feff23ce9be4d3f3ec90fd408b34", "fusion_lat": 0.0, "type": "electric_scooter", "lat": 38.89883, "is_reserved": 0, "is_disabled": 0, "fusion_lon": 0.0, "bike_id": "8222feff23ce9be4d3f3ec90fd408b34", "lon": -77.033208, "rental_uris": {"ios": "https://dc.lft.to/lastmile_qr_scan", "android": "https://dc.lft.to/lastmile_qr_scan"}}, {"name": "6e49b70ee010c5e3d101cc4050a0ad8b", "fusion_lat": 0.0, "type": "electric_scooter", "lat": 38.91718133333333, "is_reserved": 0, "is_disabled": 0, "fusion_lon": 0.0, "bike_id": "6e49b70ee010c5e3d101cc4050a0ad8b", "lon": -77.008125, "rental_uris": {"ios": "https://dc.lft.to/lastmile_qr_scan", "android": "https://dc.lft.to/lastmile_qr_scan"}}, {"name": "7b0bfdd40f43509e5971f958c60b690b", "fusion_lat": 0.0, "type": "electric_scooter", "lat": 38.90018883333333, "is_reserved": 0, "is_disabled": 0, "fusion_lon": 0.0, "bike_id": "7b0bfdd40f43509e5971f958c60b690b", "lon": -77.0321975, "rental_uris": {"ios": "https://dc.lft.to/lastmile_qr_scan", "android": "https://dc.lft.to/lastmile_qr_scan"}}, {"name": "7bc4a37d28a5d4131b72128f4f1b43a0", "fusion_lat": 0.0, "type": "electric_scooter", "lat": 38.9206555, "is_reserved": 0, "is_disabled": 0, "fusion_lon": 0.0, "bike_id": "7bc4a37d28a5d4131b72128f4f1b43a0", "lon": -76.9780535, "rental_uris": {"ios": "https://dc.lft.to/lastmile_qr_scan", "android": "https://dc.lft.to/lastmile_qr_scan"}}, {"name": "4309a6636151de1a3b63dae19a513259", "fusion_lat": 0.0, "type": "electric_scooter", "lat": 38.902319, "is_reserved": 0, "is_disabled": 0, "fusion_lon": 0.0, "bike_id": "4309a6636151de1a3b63dae19a513259", "lon": -77.04335483333334, "rental_uris": {"ios": "https://dc.lft.to/lastmile_qr_scan", "android": "https://dc.lft.to/lastmile_qr_scan"}}, {"name": "9ffdaa91292cc53f7890432a7f0ff625", "fusion_lat": 0.0, "type": "electric_scooter", "lat": 38.865357, "is_reserved": 0, "is_disabled": 0, "fusion_lon": 0.0, "bike_id": "9ffdaa91292cc53f7890432a7f0ff625", "lon": -76.98712883333333, "rental_uris": {"ios": "https://dc.lft.to/lastmile_qr_scan", "android": "https://dc.lft.to/lastmile_qr_scan"}}, {"name": "6a2089cd695c791704dfa412911f90c1", "fusion_lat": 0.0, "type": "electric_scooter", "lat": 38.910084166666664, "is_reserved": 0, "is_disabled": 0, "fusion_lon": 0.0, "bike_id": "6a2089cd695c791704dfa412911f90c1", "lon": -77.04423633333333, "rental_uris": {"ios": "https://dc.lft.to/lastmile_qr_scan", "android": "https://dc.lft.to/lastmile_qr_scan"}}, {"name": "262f33d41430cbf8bc852a2c88ae2702", "fusion_lat": 0.0, "type": "electric_scooter", "lat": 38.929118833333334, "is_reserved": 0, "is_disabled": 0, "fusion_lon": 0.0, "bike_id": "262f33d41430cbf8bc852a2c88ae2702", "lon": -77.032586, "rental_uris": {"ios": "https://dc.lft.to/lastmile_qr_scan", "android": "https://dc.lft.to/lastmile_qr_scan"}}, {"name": "badf67fcb7b47b91294e863bb733486d", "fusion_lat": 0.0, "type": "electric_scooter", "lat": 38.933072833333334, "is_reserved": 0, "is_disabled": 0, "fusion_lon": 0.0, "bike_id": "badf67fcb7b47b91294e863bb733486d", "lon": -77.03769433333333, "rental_uris": {"ios": "https://dc.lft.to/lastmile_qr_scan", "android": "https://dc.lft.to/lastmile_qr_scan"}}, {"name": "4235d5594e3a974dbd6f4bcbeb95d6be", "fusion_lat": 0.0, "type": "electric_scooter", "lat": 38.8871605, "is_reserved": 0, "is_disabled": 0, "fusion_lon": 0.0, "bike_id": "4235d5594e3a974dbd6f4bcbeb95d6be", "lon": -77.0281725, "rental_uris": {"ios": "https://dc.lft.to/lastmile_qr_scan", "android": "https://dc.lft.to/lastmile_qr_scan"}}, {"name": "b589bf90533676df1047bb0400ee6ce7", "fusion_lat": 0.0, "type": "electric_scooter", "lat": 38.90628866666667, "is_reserved": 0, "is_disabled": 0, "fusion_lon": 0.0, "bike_id": "b589bf90533676df1047bb0400ee6ce7", "lon": -77.05140283333333, "rental_uris": {"ios": "https://dc.lft.to/lastmile_qr_scan", "android": "https://dc.lft.to/lastmile_qr_scan"}}, {"name": "139c4edb6be9882e1affe34d1804bb8d", "fusion_lat": 0.0, "type": "electric_scooter", "lat": 38.89611816666667, "is_reserved": 0, "is_disabled": 0, "fusion_lon": 0.0, "bike_id": "139c4edb6be9882e1affe34d1804bb8d", "lon": -77.04469233333333, "rental_uris": {"ios": "https://dc.lft.to/lastmile_qr_scan", "android": "https://dc.lft.to/lastmile_qr_scan"}},