{"data": {"bikes": [{"is_reserved": 0, "type": "electric_bike", "bike_id": "9739706b0123479a1b9f3e20bdf266e0", "lat": 38.8946295, "lon": -77.10353333333333, "rental_uris": {"android": "https://dc.lft.to/lastmile_qr_scan", "ios": "https://dc.lft.to/lastmile_qr_scan"}, "is_disabled": 0, "fusion_lat": 0.0, "name": "9739706b0123479a1b9f3e20bdf266e0", "fusion_lon": 0.0}, {"is_reserved": 0, "type": "electric_scooter", "bike_id": "761a6213a33885c2f168c1bf37fb62a9", "lat": 38.92386666666667, "lon": -77.05055933333334, "rental_uris": {"android": "https://dc.lft.to/lastmile_qr_scan", "ios": "https://dc.lft.to/lastmile_qr_scan"}, "is_disabled": 0, "fusion_lat": 0.0, "name": "761a6213a33885c2f168c1bf37fb62a9", "fusion_lon": 0.0}, {"is_reserved": 0, "type": "electric_scooter", "bike_id": "fdca2f4116ffbb693020484eeec5405b", "lat": 38.935046, "lon": -77.04276466666667, "rental_uris": {"android": "https://dc.lft.to/lastmile_qr_scan", "ios": "https://dc.lft.to/lastmile_qr_scan"}, "is_disabled": 0, "fusion_lat": 0.0, "name": "fdca2f4116ffbb693020484eeec5405b", "fusion_lon": 0.0}, {"is_reserved": 0, "type": "electric_scooter", "bike_id": "601a71bcda67fc3fea8482f85f2e56b6", "lat": 38.90022333333334, "lon": -76.98825266666667, "rental_uris": {"android": "https://dc.lft.to/lastmile_qr_scan", "ios": "https://dc.lft.to/lastmile_qr_scan"}, "is_disabled": 0, "fusion_lat": 0.0, "name": "601a71bcda67fc3fea8482f85f2e56b6", "fusion_lon": 0.0}, {"is_reserved": 0, "type": "electric_scooter", "bike_id": "4075b664a5cd2a1f09ab6d71cc7c7a12", "lat": 38.90399583333333, "lon": -77.02003483333333, "rental_uris": {"android": "https://dc.lft.to/lastmile_qr_scan", "ios": "https://dc.lft.to/lastmile_qr_scan"}, "is_disabled": 0, "fusion_lat": 0.0, "name": "4075b664a5cd2a1f09ab6d71cc7c7a12", "fusion_lon": 0.0}, {"is_reserved": 0, "type": "electric_scooter", "bike_id": "0eaa3dcbd9794db6b02e4ab937f7a4e6", "lat": 38.91733, "lon": -77.015996, "rental_uris": {"android": "https://dc.lft.to/lastmile_qr_scan", "ios": "https://dc.lft.to/lastmile_qr_scan"}, "is_disabled": 0, "fusion_lat": 0.0, "name": "0eaa3dcbd9794db6b02e4ab937f7a4e6", "fusion_lon": 0.0}, {"is_reserved": 0, "type": "electric_scooter", "bike_id": "fcfd1be69e5ab944f136632708cab7f1", "lat": 38.918271833333336, "lon": -77.02421016666666, "rental_uris": {"android": "https://dc.lft.to/lastmile_qr_scan", "ios": "https://dc.lft.to/lastmile_qr_scan"}, "is_disabled": 0, "fusion_lat": 0.0, "name": "fcfd1be69e5ab944f136632708cab7f1", "fusion_lon": 0.0}, {"is_reserved": 0, "type": "electric_scooter", "bike_id": "492f1c3ecbb80425ab73056d27766a37", "lat": 38.92611, "lon": -77.0216135, "rental_uris": {"android": "https://dc.lft.to/lastmile_qr_scan", "ios": "https://dc.lft.to/lastmile_qr_scan"}, "is_disabled": 0, "fusion_lat": 0.0, "name": "492f1c3ecbb80425ab73056d27766a37", "fusion_lon": 0.0}, {"is_reserved": 0, "type": "electric_scooter", "bike_id": "192d1a8a1c1ff3927c6b518de90aa4e9", "lat": 38.90447183333333, "lon": -76.99619566666667, "rental_uris": {"android": "https://dc.lft.to/lastmile_qr_scan", "ios": "https://dc.lft.to/lastmile_qr_scan"}, "is_disabled": 0, "fusion_lat": 0.0, "name": "192d1a8a1c1ff3927c6b518de90aa4e9", "fusion_lon": 0.0}, {"is_reserved": 0, "type": "electric_scooter", "bike_id": "98153887429011b1680a8bb6ec044072", "lat": 38.91588333333333, "lon": -77.02086566666667, "rental_uris": {"android": "https://dc.lft.to/lastmile_qr_scan", "ios": "https://dc.lft.to/lastmile_qr_scan"}, "is_disabled": 0, "fusion_lat": 0.0, "name": "98153887429011b1680a8bb6ec044072", "fusion_lon": 0.0}, {"is_reserved": 0, "type": "electric_scooter", "bike_id": "e7e4f4ccf498fc8c71ea5d8eb529a369", "lat": 38.92449933333333, "lon": -77.02034266666666, "rental_uris": {"android": "https://dc.lft.to/lastmile_qr_scan", "ios": "https://dc.lft.to/lastmile_qr_scan"}, "is_disabled": 0, "fusion_lat": 0.0, "name": "e7e4f4ccf498fc8c71ea5d8eb529a369", "fusion_lon": 0.0}, {"is_reserved": 0, "type": "electric_scooter", "bike_id": "88b798b0756091f25848ce69dc317f74", "lat": 38.91280166666667, "lon": -77.07278266666667, "rental_uris": {"android": "https://dc.lft.to/lastmile_qr_scan", "ios": "https://dc.lft.to/lastmile_qr_scan"}, "is_disabled": 0, "fusion_lat": 0.0, "name": "88b798b0756091f25848ce69dc317f74", "fusion_lon": 0.0}, {"is_reserved": 0, "type": "electric_scooter", "bike_id": "be9ad642bf3482d7156b4333543d7aaa", "lat": 38.92384416666667, "lon": -77.0505675, "rental_uris": {"android": "https://dc.lft.to/lastmile_qr_scan", "ios": "https://dc.lft.to/lastmile_qr_scan"}, "is_disabled": 0, "fusion_lat": 0.0, "name": "be9ad642bf3482d7156b4333543d7aaa", "fusion_lon": 0.0}, {"is_reserved": 0, "type": "electric_scooter", "bike_id": "af4ba73d443b834ee3016f52be7633af", "lat": 38.85650616666667, "lon": -76.9967935, "rental_uris": {"android": "https://dc.lft.to/lastmile_qr_scan", "ios": "https://dc.lft.to/lastmile_qr_scan"}, "is_disabled": 0, "fusion_lat": 0.0, "name": "af4ba73d443b834ee3016f52be7633af", "fusion_lon": 0.0}, {"is_reserved": 0, "type": "electric_scooter", "bike_id": "e713afd40f6be81462ea29979d769f5d", "lat": 38.92430233333333, "lon": -76.99675233333333, "rental_uris": {"android": "https://dc.lft.to/lastmile_qr_scan", "ios": "https://dc.lft.to/lastmile_qr_scan"}, "is_disabled": 0, "fusion_lat": 0.0, "name": "e713afd40f6be81462ea29979d769f5d", "fusion_lon": 0.0}, {"is_reserved": 0, "type": "electric_scooter", "bike_id": "a1ae5440da229ff52863a71c50a6b070", "lat": 38.920562, "lon": -77.017708, "rental_uris": {"android": "https://dc.lft.to/lastmile_qr_scan", "ios": "https://dc.lft.to/lastmile_qr_scan"}, "is_disabled": 0, "fusion_lat": 0.0, "name": "a1ae5440da229ff52863a71c50a6b070", "fusion_lon": 0.0}, {"is_reserved": 0, "type": "electric_scooter", "bike_id": "c8dea1f06c5369e9b8115d686ef11f74", "lat": 38.9403455, "lon": -77.02912433333333, "rental_uris": {"android": "https://dc.lft.to/lastmile_qr_scan", "ios": "https://dc.lft.to/lastmile_qr_scan"}, "is_disabled": 0, "fusion_lat": 0.0, "name": "c8dea1f06c5369e9b8115d686ef11f74", "fusion_lon": 0.0}, {"is_reserved": 0, "type": "electric_scooter", "bike_id": "bf887aec260d421d81f65075adab73dd", "lat": 38.91759916666667, "lon": -77.04042216666667, "rental_uris": {"android": "https://dc.lft.to/lastmile_qr_scan", "ios": "https://dc.lft.to/lastmile_qr_scan"}, "is_disabled": 0, "fusion_lat": 0.0, "name": "bf887aec260d421d81f65075adab73dd", "fusion_lon": 0.0}, {"is_reserved": 0, "type": "electric_scooter", "bike_id": "676a224120af6c789e63f495af821295", "lat": 38.92301966666667, "lon": -77.03903116666666, "rental_uris": {"android": "https://dc.lft.to/lastmile_qr_scan", "ios": "https://dc.lft.to/lastmile_qr_scan"}, "is_disabled": 0, "fusion_lat": 0.0, "name": "676a224120af6c789e63f495af821295", "fusion_lon": 0.0}, {"is_reserved": 0, "type": "electric_scooter", "bike_id": "b27e4652df1151c753e5b9c80bf22121", "lat": 38.8956425, "lon": -76.982248, "rental_uris": {"android": "https://dc.lft.to/lastmile_qr_scan", "ios": "https://dc.lft.to/lastmile_qr_scan"}, "is_disabled": 0, "fusion_lat": 0.0, "name": "b27e4652df1151c753e5b9c80bf22121", "fusion_lon": 0.0}, {"is_reserved": 0, "type": "electric_scooter", "bike_id": "e78ece029fe5ff17cf10c2589dc2653e", "lat": 38.905661333333335, "lon": -77.04156033333334, "rental_uris": {"android": "https://dc.lft.to/lastmile_qr_scan", "ios": "https://dc.lft.to/lastmile_qr_scan"}, "is_disabled": 0, "fusion_lat": 0.0, "name": "e78ece029fe5ff17cf10c2589dc2653e", "fusion_lon": 0.0}, {"is_reserved": 0, "type": "electric_scooter", "bike_id": "b48872cf5a63a364cde2216bb59768ca", "lat": 38.9126725, "lon": -77.038699, "rental_uris": {"android": "https://dc.lft.to/lastmile_qr_scan", "ios": "https://dc.lft.to/lastmile_qr_scan"}, "is_disabled": 0, "fusion_lat": 0.0, "name": "b48872cf5a63a364cde2216bb59768ca", "fusion_lon": 0.0}, {"is_reserved": 0, "type": "electric_scooter", "bike_id": "135f4f8de002a6f00f703f683350fd60", "lat": 38.910697666666664, "lon": -76.991332, "rental_uris": {"android": "https://dc.lft.to/lastmile_qr_scan", "ios": "https://dc.lft.to/lastmile_qr_scan"}, "is_disabled": 0, "fusion_lat": 0.0, "name": "135f4f8de002a6f00f703f683350fd60", "fusion_lon": 0.0}, {"is_reserved": 0, "type": "electric_scooter", "bike_id": "08322992620575a6c9c6b34aa7336fad", "lat": 38.902075833333335, "lon": -77.04892433333333, "rental_uris": {"android": "https://dc.lft.to/lastmile_qr_scan", "ios": "https://dc.lft.to/lastmile_qr_scan"}, "is_disabled": 0, "fusion_lat": 0.0, "name": "08322992620575a6c9c6b34aa7336fad", "fusion_lon": 0.0}, {"is_reserved": 0, "type": "electric_scooter", "bike_id": "3543238d2ff22d53837f9690776259a5", "lat": 38.915479833333336, "lon": -77.020884, "rental_uris": {"android": "https://dc.lft.to/lastmile_qr_scan", "ios": "https://dc.lft.to/lastmile_qr_scan"}, "is_disabled": 0, "fusion_lat": 0.0, "name": "3543238d2ff22d53837f9690776259a5", "fusion_lon": 0.0}, {"is_reserved": 0, "type": "electric_scooter", "bike_id": "4976734ccc6bc2e068410593f2d63476", "lat": 38.883218166666666, "lon": -77.0095265, "rental_uris": {"android": "https://dc.lft.to/lastmile_qr_scan", "ios": "https://dc.lft.to/lastmile_qr_scan"}, "is_disabled": 0, "fusion_lat": 0.0, "name": "4976734ccc6bc2e068410593f2d63476", "fusion_lon": 0.0}, {"is_reserved": 0, "type": "electric_scooter", "bike_id": "0cbffa3bd4e6d740ee80ff4ec5422d3d", "lat": 38.936879833333336, "lon": -77.03276533333333, "rental_uris": {"android": "https://dc.lft.to/lastmile_qr_scan", "ios": "https://dc.lft.to/lastmile_qr_scan"}, "is_disabled": 0, "fusion_lat": 0.0, "name": "0cbffa3bd4e6d740ee80ff4ec5422d3d", "fusion_lon": 0.0}, {"is_reserved": 0, "type": "electric_scooter", "bike_id": "964e9b4b7e670b1d5b356c07c681ce91", "lat": 38.929737333333335, "lon": -77.05504116666667, "rental_uris": {"android": "https://dc.lft.to/lastmile_qr_scan", "ios": "https://dc.lft.to/lastmile_qr_scan"}, "is_disabled": 0, "fusion_lat": 0.0, "name": "964e9b4b7e670b1d5b356c07c681ce91", "fusion_lon": 0.0}, {"is_reserved": 0, "type": "electric_scooter", "bike_id": "a12ac55f563dd9a831c527d30b30e7b2", "lat": 38.964094333333335, "lon": -77.03279933333333, "rental_uris": {"android": "https://dc.lft.to/lastmile_qr_scan", "ios": "https://dc.lft.to/lastmile_qr_scan"}, "is_disabled": 0, "fusion_lat": 0.0, "name": "a12ac55f563dd9a831c527d30b30e7b2", "fusion_lon": 0.0}, {"is_reserved": 0, "type": "electric_scooter", "bike_id": "6190d10df2f46e8595c69d2139701db8", "lat": 38.90713933333333, "lon": -76.99817433333334, "rental_uris": {"android": "https://dc.lft.to/lastmile_qr_scan", "ios": "https://dc.lft.to/lastmile_qr_scan"}, "is_disabled": 0, "fusion_lat": 0.0, "name": "6190d10df2f46e8595c69d2139701db8", "fusion_lon": 0.0}, {"is_reserved": 0, "type": "electric_scooter", "bike_id": "0e5aca256e8fb7f8154f50662f296d2a", "lat": 38.915828166666664, "lon": -77.012346, "rental_uris": {"android": "https://dc.lft.to/lastmile_qr_scan", "ios": "https://dc.lft.to/lastmile_qr_scan"}, "is_disabled": 0, "fusion_lat": 0.0, "name": "0e5aca256e8fb7f8154f50662f296d2a", "fusion_lon": 0.0}, {"is_reserved": 0, "type": "electric_scooter", "bike_id": "608983c8152b5382910ef7c7f96acdfe", "lat": 38.92073516666667, "lon": -77.0454835, "rental_uris": {"android": "https://dc.lft.to/lastmile_qr_scan", "ios": "https://dc.lft.to/lastmile_qr_scan"}, "is_disabled": 0, "fusion_lat": 0.0, "name": "608983c8152b5382910ef7c7f96acdfe", "fusion_lon": 0.0}, {"is_reserved": 0, "type": "electric_scooter", "bike_id": "76e611cab5b1568600665f625ce080c1", "lat": 38.901366, "lon": -77.038908, "rental_uris": {"android": "https://dc.lft.to/lastmile_qr_scan", "ios": "https://dc.lft.to/lastmile_qr_scan"}, "is_disabled": 0, "fusion_lat": 0.0, "name": "76e611cab5b1568600665f625ce080c1", "fusion_lon": 0.0}, {"is_reserved": 0, "type": "electric_scooter", "bike_id": "29807ee2f684637c40dc4783eae7e52e", "lat": 38.90113433333333, "lon": -76.9985325, "rental_uris": {"android": "https://dc.lft.to/lastmile_qr_scan", "ios": "https://dc.lft.to/lastmile_qr_scan"}, "is_disabled": 0, "fusion_lat": 0.0, "name": "29807ee2f684637c40dc4783eae7e52e", "fusion_lon": 0.0}, {"is_reserved": 0, "type": "electric_scooter", "bike_id": "55fe8e56837e3ecfbcd7d2f1a589b6ea", "lat": 38.897383166666664, "lon": -77.0021595, "rental_uris": {"android": "https://dc.lft.to/lastmile_qr_scan", "ios": "https://dc.lft.to/lastmile_qr_scan"}, "is_disabled": 0, "fusion_lat": 0.0, "name": "55fe8e56837e3ecfbcd7d2f1a589b6ea", "fusion_lon": 0.0}, {"is_reserved": 0, "type": "electric_bike", "bike_id": "2c30751aca651d574780a22f627520ef", "lat": 38.8840365, "lon": -76.96053066666667, "rental_uris": {"android": "https://dc.lft.to/lastmile_qr_scan", "ios": "https://dc.lft.to/lastmile_qr_scan"}, "is_disabled": 0, "fusion_lat": 0.0, "name": "2c30751aca651d574780a22f627520ef", "fusion_lon": 0.0}, {"is_reserved": 0, "type": "electric_bike", "bike_id": "2dbbe8ea39b30b47ec3c84bf823eb5bd", "lat": 38.78403516666667, "lon": -77.120848, "rental_uris": {"android": "https://dc.lft.to/lastmile_qr_scan", "ios": "https://dc.lft.to/lastmile_qr_scan"}, "is_disabled": 0, "fusion_lat": 0.0, "name": "2dbbe8ea39b30b47ec3c84bf823eb5bd", "fusion_lon": 0.0}, {"is_reserved": 0, "type": "electric_scooter", "bike_id": "4186ada6df1764642a3a1c6f8bb94542", "lat": 38.928326166666665, "lon": -77.026018, "rental_uris": {"android": "https://dc.lft.to/lastmile_qr_scan", "ios": "https://dc.lft.to/lastmile_qr_scan"}, "is_disabled": 0, "fusion_lat": 0.0, "name": "4186ada6df1764642a3a1c6f8bb94542", "fusion_lon": 0.0}, {"is_reserved": 0, "type": "electric_scooter", "bike_id": "b6e6104ea37f9442d1a454aa412a5466", "lat": 38.90370016666667, "lon": -77.031532, "rental_uris": {"android": "https://dc.lft.to/lastmile_qr_scan", "ios": "https://dc.lft.to/lastmile_qr_scan"}, "is_disabled": 0, "fusion_lat": 0.0, "name": "b6e6104ea37f9442d1a454aa412a5466", "fusion_lon": 0.0}, {"is_reserved": 0, "type": "electric_scooter", "bike_id": "573c9dc5b24a7503e173b39d97824167", "lat": 38.93154166666667, "lon": -77.03655383333333, "rental_uris": {"android": "https://dc.lft.to/lastmile_qr_scan", "ios": "https://dc.lft.to/lastmile_qr_scan"}, "is_disabled": 0, "fusion_lat": 0.0, "name": "573c9dc5b24a7503e173b39d97824167", "fusion_lon": 0.0}, {"is_reserved": 0, "type": "electric_scooter", "bike_id": "e2b040c82e3d426cb7d8a5c6e09eb726", "lat": 38.91774566666667, "lon": -77.04094633333334, "rental_uris": {"android": "https://dc.lft.to/lastmile_qr_scan", "ios": "https://dc.lft.to/lastmile_qr_scan"}, "is_disabled": 0, "fusion_lat": 0.0, "name": "e2b040c82e3d426cb7d8a5c6e09eb726", "fusion_lon": 0.0}, {"is_reserved": 0, "type": "electric_scooter", "bike_id": "f8b0b6e8f3962c7435788b8d469c5bd8", "lat": 38.90382816666666, "lon": -77.04201066666667, "rental_uris": {"android": "https://dc.lft.to/lastmile_qr_scan", "ios": "https://dc.lft.to/lastmile_qr_scan"}, "is_disabled": 0, "fusion_lat": 0.0, "name": "f8b0b6e8f3962c7435788b8d469c5bd8", "fusion_lon": 0.0}, {"is_reserved": 0, "type": "electric_scooter", "bike_id": "eb95b63f46a5c389a34b59c09f193bb6", "lat": 38.898882, "lon": -77.0036085, "rental_uris": {"android": "https://dc.lft.to/lastmile_qr_scan", "ios": "https://dc.lft.to/lastmile_qr_scan"}, "is_disabled": 0, "fusion_lat": 0.0, "name": "eb95b63f46a5c389a34b59c09f193bb6", "fusion_lon": 0.0}, {"is_reserved": 0, "type": "electric_scooter", "bike_id": "13f9534dede882940c8e0d185232991d", "lat": 38.93473733333333, "lon": -77.056509, "rental_uris": {"android": "https://dc.lft.to/lastmile_qr_scan", "ios": "https://dc.lft.to/lastmile_qr_scan"}, "is_disabled": 0, "fusion_lat": 0.0, "name": "13f9534dede882940c8e0d185232991d", "fusion_lon": 0.0}, {"is_reserved": 0, "type": "electric_scooter", "bike_id": "5f6ba11b8ae73144303fbb7cfdb09c06", "lat": 38.910425833333335, "lon": -77.04090033333334, "rental_uris": {"android": "https://dc.lft.to/lastmile_qr_scan", "ios": "https://dc.lft.to/lastmile_qr_scan"}, "is_disabled": 0, "fusion_lat": 0.0, "name": "5f6ba11b8ae73144303fbb7cfdb09c06", "fusion_lon": 0.0}, {"is_reserved": 0, "type": "electric_scooter", "bike_id": "0d4a91327eb7b15fa9609b0cdfac34e8", "lat": 38.92072983333333, "lon": -77.0231325, "rental_uris": {"android": "https://dc.lft.to/lastmile_qr_scan", "ios": "https://dc.lft.to/lastmile_qr_scan"}, "is_disabled": 0, "fusion_lat": 0.0, "name": "0d4a91327eb7b15fa9609b0cdfac34e8", "fusion_lon": 0.0}, {"is_reserved": 0, "type": "electric_scooter", "bike_id": "5f31cf25f68dcf6faaf8b936497acd16", "lat": 38.9338, "lon": -77.034658, "rental_uris": {"android": "https://dc.lft.to/lastmile_qr_scan", "ios": "https://dc.lft.to/lastmile_qr_scan"}, "is_disabled": 0, "fusion_lat": 0.0, "name": "5f31cf25f68dcf6faaf8b936497acd16", "fusion_lon": 0.0}, {"is_reserved": 0, "type": "electric_scooter", "bike_id": "b8d8e6b34afd8663460f8438acb96f72", "lat": 38.92603716666667, "lon": -77.02169833333333, "rental_uris": {"android": "https://dc.lft.to/lastmile_qr_scan", "ios": "https://dc.lft.to/lastmile_qr_scan"}, "is_disabled": 0, "fusion_lat": 0.0, "name": "b8d8e6b34afd8663460f8438acb96f72", "fusion_lon": 0.0}, {"is_reserved": 0, "type": "electric_scooter", "bike_id": "56e88848620c85f820c7e512d374162a", "lat": 38.90409266666666, "lon": -76.9732985, "rental_uris": {"android": "https://dc.lft.to/lastmile_qr_scan", "ios": "https://dc.lft.to/lastmile_qr_scan"}, "is_disabled": 0, "fusion_lat": 0.0, "name": "56e88848620c85f820c7e512d374162a", "fusion_lon": 0.0}, {"is_reserved": 0, "type": "electric_scooter", "bike_id": "be8d40add822b41acc3507ae172a852f", "lat": 38.917313, "lon": -77.0416975, "rental_uris": {"android": "https://dc.lft.to/lastmile_qr_scan", "ios": "https://dc.lft.to/lastmile_qr_scan"}, "is_disabled": 0, "fusion_lat": 0.0, "name": "be8d40add822b41acc3507ae172a852f", "fusion_lon": 0.0}, {"is_reserved": 0, "type": "electric_scooter", "bike_id": "2f7ab612f3c6272007d0a0d7a6a4744f", "lat": 38.91862283333333, "lon": -77.0351495, "rental_uris": {"android": "https://dc.lft.to/lastmile_qr_scan", "ios": "https://dc.lft.to/lastmile_qr_scan"}, "is_disabled": 0, "fusion_lat": 0.0, "name": "2f7ab612f3c6272007d0a0d7a6a4744f", "fusion_lon": 0.0}, {"is_reserved": 0, "type": "electric_scooter", "bike_id": "389c03ee0131d40a5104edb366dd644a", "lat": 38.89251183333333, "lon": -76.94130233333334, "rental_uris": {"android": "https://dc.lft.to/lastmile_qr_scan", "ios": "https://dc.lft.to/lastmile_qr_scan"}, "is_disabled": 0, "fusion_lat": 0.0, "name": "389c03ee0131d40a5104edb366dd644a", "fusion_lon": 0.0}, {"is_reserved": 0, "type": "electric_scooter", "bike_id": "de3d31c7e9fb530dc455999f007911c0", "lat": 38.89713533333333, "lon": -77.0075325, "rental_uris": {"android": "https://dc.lft.to/lastmile_qr_scan", "ios": "https://dc.lft.to/lastmile_qr_scan"}, "is_disabled": 0, "fusion_lat": 0.0, "name": "de3d31c7e9fb530dc455999f007911c0", "fusion_lon": 0.0}, {"is_reserved": 0, "type": "electric_scooter", "bike_id": "53cf9e0c33454213556c31f077087d2a", "lat": 38.922424666666664, "lon": -77.040218, "rental_uris": {"android": "https://dc.lft.to/lastmile_qr_scan", "ios": "https://dc.lft.to/lastmile_qr_scan"}, "is_disabled": 0, "fusion_lat": 0.0, "name": "53cf9e0c33454213556c31f077087d2a", "fusion_lon": 0.0}, {"is_reserved": 0, "type": "electric_scooter", "bike_id": "1d07802c2da145a50ffd80da16a99f29", "lat": 38.900286666666666, "lon": -76.99904716666667, "rental_uris": {"android": "https://dc.lft.to/lastmile_qr_scan", "ios": "https://dc.lft.to/lastmile_qr_scan"}, "is_disabled": 0, "fusion_lat": 0.0, "name": "1d07802c2da145a50ffd80da16a99f29", "fusion_lon": 0.0}, {"is_reserved": 0, "type": "electric_bike", "bike_id": "611eec74bab7c0f9b5ffe21bd36d945b", "lat": 38.99997966666667, "lon": -76.91804233333333, "rental_uris": {"android": "https://dc.lft.to/lastmile_qr_scan", "ios": "https://dc.lft.to/lastmile_qr_scan"}, "is_disabled": 0, "fusion_lat": 0.0, "name": "611eec74bab7c0f9b5ffe21bd36d945b", "fusion_lon": 0.0}, {"is_reserved": 0, "type": "electric_scooter", "bike_id": "ba3cd2c666a29f1c4065706f5f1c06aa", "lat": 38.919838166666665, "lon": -76.97306066666667, "rental_uris": {"android": "https://dc.lft.to/lastmile_qr_scan", "ios": "https://dc.lft.to/lastmile_qr_scan"}, "is_disabled": 0, "fusion_lat": 0.0, "name": "ba3cd2c666a29f1c4065706f5f1c06aa", "fusion_lon": 0.0}, {"is_reserved": 0, "type": "electric_scooter", "bike_id": "5e682c12bf5aa9108f62d12fe0f6e0e0", "lat": 38.917613833333334, "lon": -77.00366933333333, "rental_uris": {"android": "https://dc.lft.to/lastmile_qr_scan", "ios": "https://dc.lft.to/lastmile_qr_scan"}, "is_disabled": 0, "fusion_lat": 0.0, "name": "5e682c12bf5aa9108f62d12fe0f6e0e0", "fusion_lon": 0.0}, {"is_reserved": 0, "type": "electric_bike", "bike_id": "c3d5a292a6f8c24183c6253bf43f50cf", "lat": 39.0109135, "lon": -77.04953, "rental_uris": {"android": "https://dc.lft.to/lastmile_qr_scan", "ios": "https://dc.lft.to/lastmile_qr_scan"}, "is_disabled": 0, "fusion_lat": 0.0, "name": "c3d5a292a6f8c24183c6253bf43f50cf", "fusion_lon": 0.0}, {"is_reserved": 0, "type": "electric_scooter", "bike_id": "e544f1c8d52f60631651088fa88a6eaa", "lat": 38.92640816666667, "lon": -77.03421983333334, "rental_uris": {"android": "https://dc.lft.to/lastmile_qr_scan", "ios": "https://dc.lft.to/lastmile_qr_scan"}, "is_disabled": 0, "fusion_lat": 0.0, "name": "e544f1c8d52f60631651088fa88a6eaa", "fusion_lon": 0.0}, {"is_reserved": 0, "type": "electric_scooter", "bike_id": "de7b414dd55b62e8e7c22b4d0686b416", "lat": 38.900094, "lon": -76.98903266666667, "rental_uris": {"android": "https://dc.lft.to/lastmile_qr_scan", "ios": "https://dc.lft.to/lastmile_qr_scan"}, "is_disabled": 0, "fusion_lat": 0.0, "name": "de7b414dd55b62e8e7c22b4d0686b416", "fusion_lon": 0.0}, {"is_reserved": 0, "type": "electric_bike", "bike_id": "ee7d43212e53ea909d5b59a8bec10d08", "lat": 38.863296166666665, "lon": -76.98723733333334, "rental_uris": {"android": "https://dc.lft.to/lastmile_qr_scan", "ios": "https://dc.lft.to/lastmile_qr_scan"}, "is_disabled": 0, "fusion_lat": 0.0, "name": "ee7d43212e53ea909d5b59a8bec10d08", "fusion_lon": 0.0}, {"is_reserved": 0, "type": "electric_scooter", "bike_id": "b3350fd252595ced1f0c112691d2df2e", "lat": 38.91715033333333, "lon": -77.03837383333334, "rental_uris": {"android": "https://dc.lft.to/lastmile_qr_scan", "ios": "https://dc.lft.to/lastmile_qr_scan"}, "is_disabled": 0, "fusion_lat": 0.0, "name": "b3350fd252595ced1f0c112691d2df2e", "fusion_lon": 0.0}, {"is_reserved": 0, "type": "electric_scooter", "bike_id": "471e18168a0865cc5ba84c9261552c9a", "lat": 38.89941533333333, "lon": -76.9770445, "rental_uris": {"android": "https://dc.lft.to/lastmile_qr_scan", "ios": "https://dc.lft.to/lastmile_qr_scan"}, "is_disabled": 0, "fusion_lat": 0.0, "name": "471e18168a0865cc5ba84c9261552c9a", "fusion_lon": 0.0}, {"is_reserved": 0, "type": "electric_scooter", "bike_id": "27fcdbd9e244c15b410767949071f2e6", "lat": 38.909900666666665, "lon": -77.031811, "rental_uris": {"android": "https://dc.lft.to/lastmile_qr_scan", "ios": "https://dc.lft.to/lastmile_qr_scan"}, "is_disabled": 0, "fusion_lat": 0.0, "name": "27fcdbd9e244c15b410767949071f2e6", "fusion_lon": 0.0}, {"is_reserved": 0, "type": "electric_scooter", "bike_id": "cddd060763c5d87c9b91d55a3c6acbf2", "lat": 38.87495233333333, "lon": -77.0022795, "rental_uris": {"android": "https://dc.lft.to/lastmile_qr_scan", "ios": "https://dc.lft.to/lastmile_qr_scan"}, "is_disabled": 0, "fusion_lat": 0.0, "name": "cddd060763c5d87c9b91d55a3c6acbf2", "fusion_lon": 0.0}, {"is_reserved": 0, "type": "electric_scooter", "bike_id": "220a8a19a301a0870f984d89802c7c91", "lat": 38.94075516666667, "lon": -77.054927, "rental_uris": {"android": "https://dc.lft.to/lastmile_qr_scan", "ios": "https://dc.lft.to/lastmile_qr_scan"}, "is_disabled": 0, "fusion_lat": 0.0, "name": "220a8a19a301a0870f984d89802c7c91", "fusion_lon": 0.0}, {"is_reserved": 0, "type": "electric_scooter", "bike_id": "ca82b051c93e0f45d460bd21fc549a35", "lat": 38.89694433333333, "lon": -77.03283916666666, "rental_uris": {"android": "https://dc.lft.to/lastmile_qr_scan", "ios": "https://dc.lft.to/lastmile_qr_scan"}, "is_disabled": 0, "fusion_lat": 0.0, "name": "ca82b051c93e0f45d460bd21fc549a35", "fusion_lon": 0.0}, {"is_reserved": 0, "type": "electric_scooter", "bike_id": "4fdb3fd74e1d82cb048a725c156f4c55", "lat": 38.86373483333333, "lon": -76.9906065, "rental_uris": {"android": "https://dc.lft.to/lastmile_qr_scan", "ios": "https://dc.lft.to/lastmile_qr_scan"}, "is_disabled": 0, "fusion_lat": 0.0, "name": "4fdb3fd74e1d82cb048a725c156f4c55", "fusion_lon": 0.0}, {"is_reserved": 0, "type": "electric_scooter", "bike_id": "31c2382b29c0d4b4a8751b1025af32f3", "lat": 38.95376183333333, "lon": -77.00184366666667, "rental_uris": {"android": "https://dc.lft.to/lastmile_qr_scan", "ios": "https://dc.lft.to/lastmile_qr_scan"}, "is_disabled": 0, "fusion_lat": 0.0, "name": "31c2382b29c0d4b4a8751b1025af32f3", "fusion_lon": 0.0}, {"is_reserved": 0, "type": "electric_scooter", "bike_id": "2bd1f2f59a98d5f66119a755a87a719d", "lat": 38.9182695, "lon": -77.014714, "rental_uris": {"android": "https://dc.lft.to/lastmile_qr_scan", "ios": "https://dc.lft.to/lastmile_qr_scan"}, "is_disabled": 0, "fusion_lat": 0.0, "name": "2bd1f2f59a98d5f66119a755a87a719d", "fusion_lon": 0.0}, {"is_reserved": 0, "type": "electric_scooter", "bike_id": "9024290dcdb766c7a8766eca669155d7", "lat": 38.897407666666666, "lon": -77.026881, "rental_uris": {"android": "https://dc.lft.to/lastmile_qr_scan", "ios": "https://dc.lft.to/lastmile_qr_scan"}, "is_disabled": 0, "fusion_lat": 0.0, "name": "9024290dcdb766c7a8766eca669155d7", "fusion_lon": 0.0}, {"is_reserved": 0, "type": "electric_scooter", "bike_id": "efaaa8219d21a1c11d18e74f639acaa0", "lat": 38.930810666666666, "lon": -77.02794666666667, "rental_uris": {"android": "https://dc.lft.to/lastmile_qr_scan", "ios": "https://dc.lft.to/lastmile_qr_scan"}, "is_disabled": 0, "fusion_lat": 0.0, "name": "efaaa8219d21a1c11d18e74f639acaa0", "fusion_lon": 0.0}, {"is_reserved": 0, "type": "electric_scooter", "bike_id": "e8656fb2c512a7d7a89be8ec24b059b5", "lat": 38.92448066666667, "lon": -77.05190533333334, "rental_uris": {"android": "https://dc.lft.to/lastmile_qr_scan", "ios": "https://dc.lft.to/lastmile_qr_scan"}, "is_disabled": 0, "fusion_lat": 0.0, "name": "e8656fb2c512a7d7a89be8ec24b059b5", "fusion_lon": 0.0}, {"is_reserved": 0, "type": "electric_bike", "bike_id": "945ac4e6de03f2b61add1adf680bdcfe", "lat": 39.0002785, "lon": -77.04743766666667, "rental_uris": {"android": "https://dc.lft.to/lastmile_qr_scan", "ios": "https://dc.lft.to/lastmile_qr_scan"}, "is_disabled": 0, "fusion_lat": 0.0, "name": "945ac4e6de03f2b61add1adf680bdcfe", "fusion_lon": 0.0}, {"is_reserved": 0, "type": "electric_scooter", "bike_id": "0547f328cb483c9c76639698df9459b1", "lat": 38.92747033333333, "lon": -77.03302516666666, "rental_uris": {"android": "https://dc.lft.to/lastmile_qr_scan", "ios": "https://dc.lft.to/lastmile_qr_scan"}, "is_disabled": 0, "fusion_lat": 0.0, "name": "0547f328cb483c9c76639698df9459b1", "fusion_lon": 0.0}, {"is_reserved": 0, "type": "electric_scooter", "bike_id": "1d8b0cc1066da349dd23a893bf3b675f", "lat": 38.90858816666667, "lon": -77.00181883333333, "rental_uris": {"android": "https://dc.lft.to/lastmile_qr_scan", "ios": "https://dc.lft.to/lastmile_qr_scan"}, "is_disabled": 0, "fusion_lat": 0.0, "name": "1d8b0cc1066da349dd23a893bf3b675f", "fusion_lon": 0.0}, {"is_reserved": 0, "type": "electric_scooter", "bike_id": "24083f4388809111bdefe6c7f7c93f38", "lat": 38.93779716666667, "lon": -77.0744775, "rental_uris": {"android": "https://dc.lft.to/lastmile_qr_scan", "ios": "https://dc.lft.to/lastmile_qr_scan"}, "is_disabled": 0, "fusion_lat": 0.0, "name": "24083f4388809111bdefe6c7f7c93f38", "fusion_lon": 0.0}, {"is_reserved": 0, "type": "electric_scooter", "bike_id": "94f7426b35af7b848adf1b4536b199ae", "lat": 38.917931, "lon": -77.03186183333334, "rental_uris": {"android": "https://dc.lft.to/lastmile_qr_scan", "ios": "https://dc.lft.to/lastmile_qr_scan"}, "is_disabled": 0, "fusion_lat": 0.0, "name": "94f7426b35af7b848adf1b4536b199ae", "fusion_lon": 0.0}, {"is_reserved": 0, "type": "electric_scooter", "bike_id": "9a1fe9b6a7d8a0d9db35bb0ef3289946", "lat": 38.89948016666666, "lon": -77.0539165, "rental_uris": {"android": "https://dc.lft.to/lastmile_qr_scan", "ios": "https://dc.lft.to/lastmile_qr_scan"}, "is_disabled": 0, "fusion_lat": 0.0, "name": "9a1fe9b6a7d8a0d9db35bb0ef3289946", "fusion_lon": 0.0}, {"is_reserved": 0, "type": "electric_scooter", "bike_id": "2c895e5a2f08ae5311dd2bc129f998c3", "lat": 38.89925866666667, "lon": -76.94574833333333, "rental_uris": {"android": "https://dc.lft.to/lastmile_qr_scan", "ios": "https://dc.lft.to/lastmile_qr_scan"}, "is_disabled": 0, "fusion_lat": 0.0, "name": "2c895e5a2f08ae5311dd2bc129f998c3", "fusion_lon": 0.0}, {"is_reserved": 0, "type": "electric_scooter", "bike_id": "eda59472dda2093bbce0a66b7a6a9f55", "lat": 38.9245435, "lon": -77.0203525, "rental_uris": {"android": "https://dc.lft.to/lastmile_qr_scan", "ios": "https://dc.lft.to/lastmile_qr_scan"}, "is_disabled": 0, "fusion_lat": 0.0, "name": "eda59472dda2093bbce0a66b7a6a9f55", "fusion_lon": 0.0}, {"is_reserved": 0, "type": "electric_scooter", "bike_id": "95fc3e4c4e896cd85e2c8cc2e677ee8a", "lat": 38.900817, "lon": -77.0162965, "rental_uris": {"android": "https://dc.lft.to/lastmile_qr_scan", "ios": "https://dc.lft.to/lastmile_qr_scan"}, "is_disabled": 0, "fusion_lat": 0.0, "name": "95fc3e4c4e896cd85e2c8cc2e677ee8a", "fusion_lon": 0.0}, {"is_reserved": 0, "type": "electric_scooter", "bike_id": "21695c18fb8b09515dd1dad0c025a990", "lat": 38.92430483333333, "lon": -77.0403855, "rental_uris": {"android": "https://dc.lft.to/lastmile_qr_scan", "ios": "https://dc.lft.to/lastmile_qr_scan"}, "is_disabled": 0, "fusion_lat": 0.0, "name": "21695c18fb8b09515dd1dad0c025a990", "fusion_lon": 0.0}, {"is_reserved": 0, "type": "electric_scooter", "bike_id": "dd8ca9ff35168ff47f3501942a20713f", "lat": 38.90118, "lon": -77.031319, "rental_uris": {"android": "https://dc.lft.to/lastmile_qr_scan", "ios": "https://dc.lft.to/lastmile_qr_scan"}, "is_disabled": 0, "fusion_lat": 0.0, "name": "dd8ca9ff35168ff47f3501942a20713f", "fusion_lon": 0.0}, {"is_reserved": 0, "type": "electric_scooter", "bike_id": "beeea383bb188569cea3c9d9ab0a4fee", "lat": 38.91250133333333, "lon": -77.02857316666666, "rental_uris": {"android": "https://dc.lft.to/lastmile_qr_scan", "ios": "https://dc.lft.to/lastmile_qr_scan"}, "is_disabled": 0, "fusion_lat": 0.0, "name": "beeea383bb188569cea3c9d9ab0a4fee", "fusion_lon": 0.0}, {"is_reserved": 0, "type": "electric_bike", "bike_id": "092ce9bd8b19eeb7a41289ae0c343eef", "lat": 38.903407666666666, "lon": -77.0452975, "rental_uris": {"android": "https://dc.lft.to/lastmile_qr_scan", "ios": "https://dc.lft.to/lastmile_qr_scan"}, "is_disabled": 0, "fusion_lat": 0.0, "name": "092ce9bd8b19eeb7a41289ae0c343eef", "fusion_lon": 0.0}, {"is_reserved": 0, "type": "electric_scooter", "bike_id": "58e17e0c1ef26b6d5d48c0c088623ec1", "lat": 38.89726233333333, "lon": -76.94699966666667, "rental_uris": {"android": "https://dc.lft.to/lastmile_qr_scan", "ios": "https://dc.lft.to/lastmile_qr_scan"}, "is_disabled": 0, "fusion_lat": 0.0, "name": "58e17e0c1ef26b6d5d48c0c088623ec1", "fusion_lon": 0.0}, {"is_reserved": 0, "type": "electric_scooter", "bike_id": "61960b76ec7e8d690ca2fc1591ba27b8", "lat": 38.96028066666667, "lon": -77.02428116666667, "rental_uris": {"android": "https://dc.lft.to/lastmile_qr_scan", "ios": "https://dc.lft.to/lastmile_qr_scan"}, "is_disabled": 0, "fusion_lat": 0.0, "name": "61960b76ec7e8d690ca2fc1591ba27b8", "fusion_lon": 0.0}, {"is_reserved": 0, "type": "electric_scooter", "bike_id": "2ac03b48ee51d306ce2c763be6e1664b", "lat": 38.89283416666667, "lon": -77.0261075, "rental_uris": {"android": "https://dc.lft.to/lastmile_qr_scan", "ios": "https://dc.lft.to/lastmile_qr_scan"}, "is_disabled": 0, "fusion_lat": 0.0, "name": "2ac03b48ee51d306ce2c763be6e1664b", "fusion_lon": 0.0}, {"is_reserved": 0, "type": "electric_scooter", "bike_id": "b77124ec0f20738c2b77b75668dff77b", "lat": 38.936362, "lon": -77.07300066666667, "rental_uris": {"android": "https://dc.lft.to/lastmile_qr_scan", "ios": "https://dc.lft.to/lastmile_qr_scan"}, "is_disabled": 0, "fusion_lat": 0.0, "name": "b77124ec0f20738c2b77b75668dff77b", "fusion_lon": 0.0}, {"is_reserved": 0, "type": "electric_scooter", "bike_id": "60908427b0b6ae60ed52b00c11a11a7f", "lat": 38.87467566666667, "lon": -77.00558816666667, "rental_uris": {"android": "https://dc.lft.to/lastmile_qr_scan", "ios": "https://dc.lft.to/lastmile_qr_scan"}, "is_disabled": 0, "fusion_lat": 0.0, "name": "60908427b0b6ae60ed52b00c11a11a7f", "fusion_lon": 0.0}, {"is_reserved": 0, "type": "electric_scooter", "bike_id": "5f7a86fc829a5ccd379b1db1faa9d778", "lat": 38.9388665, "lon": -77.03255866666667, "rental_uris": {"android": "https://dc.lft.to/lastmile_qr_scan", "ios": "https://dc.lft.to/lastmile_qr_scan"}, "is_disabled": 0, "fusion_lat": 0.0, "name": "5f7a86fc829a5ccd379b1db1faa9d778", "fusion_lon": 0.0}, {"is_reserved": 0, "type": "electric_scooter", "bike_id": "9f944c4d497ae6d7d0c4a590e28afa21", "lat": 38.899072833333335, "lon": -76.933684, "rental_uris": {"android": "https://dc.lft.to/lastmile_qr_scan", "ios": "https://dc.lft.to/lastmile_qr_scan"}, "is_disabled": 0, "fusion_lat": 0.0, "name": "9f944c4d497ae6d7d0c4a590e28afa21", "fusion_lon": 0.0}, {"is_reserved": 0, "type": "electric_scooter", "bike_id": "72d894ab746baacdd8dd32717566cc67", "lat": 38.902862666666664, "lon": -77.00210233333334, "rental_uris": {"android": "https://dc.lft.to/lastmile_qr_scan", "ios": "https://dc.lft.to/lastmile_qr_scan"}, "is_disabled": 0, "fusion_lat": 0.0, "name": "72d894ab746baacdd8dd32717566cc67", "fusion_lon": 0.0}, {"is_reserved": 0, "type": "electric_scooter", "bike_id": "5ac4b3ef68d38560f1506b6ef1aba385", "lat": 38.92255466666667, "lon": -77.03657616666666, "rental_uris": {"android": "https://dc.lft.to/lastmile_qr_scan", "ios": "https://dc.lft.to/lastmile_qr_scan"}, "is_disabled": 0, "fusion_lat": 0.0, "name": "5ac4b3ef68d38560f1506b6ef1aba385", "fusion_lon": 0.0}, {"is_reserved": 0, "type": "electric_scooter", "bike_id": "dc162b77e7c76ef7854c26e4dd2b011c", "lat": 38.8522285, "lon": -76.99425716666667, "rental_uris": {"android": "https://dc.lft.to/lastmile_qr_scan", "ios": "https://dc.lft.to/lastmile_qr_scan"}, "is_disabled": 0, "fusion_lat": 0.0, "name": "dc162b77e7c76ef7854c26e4dd2b011c", "fusion_lon": 0.0}, {"is_reserved": 0, "type": "electric_scooter", "bike_id": "e440cc61d65f140b349285c61cc56ad6", "lat": 38.905671166666664, "lon": -77.03480033333334, "rental_uris": {"android": "https://dc.lft.to/lastmile_qr_scan", "ios": "https://dc.lft.to/lastmile_qr_scan"}, "is_disabled": 0, "fusion_lat": 0.0, "name": "e440cc61d65f140b349285c61cc56ad6", "fusion_lon": 0.0}, {"is_reserved": 0, "type": "electric_scooter", "bike_id": "db4f0ada19548507b5827d2e36759853", "lat": 38.9047255, "lon": -77.02975433333333, "rental_uris": {"android": "https://dc.lft.to/lastmile_qr_scan", "ios": "https://dc.lft.to/lastmile_qr_scan"}, "is_disabled": 0, "fusion_lat": 0.0, "name": "db4f0ada19548507b5827d2e36759853", "fusion_lon": 0.0}, {"is_reserved": 0, "type": "electric_scooter", "bike_id": "a3f255c49720d6e2a0be32f07ed6c6ac", "lat": 38.90524283333333, "lon": -77.06217583333333, "rental_uris": {"android": "https://dc.lft.to/lastmile_qr_scan", "ios": "https://dc.lft.to/lastmile_qr_scan"}, "is_disabled": 0, "fusion_lat": 0.0, "name": "a3f255c49720d6e2a0be32f07ed6c6ac", "fusion_lon": 0.0}, {"is_reserved": 0, "type": "electric_scooter", "bike_id": "2a0e85d6b4f0682d44f364e4897acfed", "lat": 38.90721116666667, "lon": -77.00500983333333, "rental_uris": {"android": "https://dc.lft.to/lastmile_qr_scan", "ios": "https://dc.lft.to/lastmile_qr_scan"}, "is_disabled": 0, "fusion_lat": 0.0, "name": "2a0e85d6b4f0682d44f364e4897acfed", "fusion_lon": 0.0}, {"is_reserved": 0, "type": "electric_scooter", "bike_id": "1b5417f438bfd289e686e07be4cf32bd", "lat": 38.919161333333335, "lon": -77.04586133333333, "rental_uris": {"android": "https://dc.lft.to/lastmile_qr_scan", "ios": "https://dc.lft.to/lastmile_qr_scan"}, "is_disabled": 0, "fusion_lat": 0.0, "name": "1b5417f438bfd289e686e07be4cf32bd", "fusion_lon": 0.0}, {"is_reserved": 0, "type": "electric_scooter", "bike_id": "e3c641382136a5cd3d0bc66a16ee57f5", "lat": 38.94655766666666, "lon": -77.03281216666667, "rental_uris": {"android": "https://dc.lft.to/lastmile_qr_scan", "ios": "https://dc.lft.to/lastmile_qr_scan"}, "is_disabled": 0, "fusion_lat": 0.0, "name": "e3c641382136a5cd3d0bc66a16ee57f5", "fusion_lon": 0.0}, {"is_reserved": 0, "type": "electric_scooter", "bike_id": "37af7009a4d2a061444ab1e3b8786855", "lat": 38.90566466666667, "lon": -77.04659333333333, "rental_uris": {"android": "https://dc.lft.to/lastmile_qr_scan", "ios": "https://dc.lft.to/lastmile_qr_scan"}, "is_disabled": 0, "fusion_lat": 0.0, "name": "37af7009a4d2a061444ab1e3b8786855", "fusion_lon": 0.0}, {"is_reserved": 0, "type": "electric_scooter", "bike_id": "0c5edb6201141c854d2c78bbdae847dd", "lat": 38.916764, "lon": -77.029564, "rental_uris": {"android": "https://dc.lft.to/lastmile_qr_scan", "ios": "https://dc.lft.to/lastmile_qr_scan"}, "is_disabled": 0, "fusion_lat": 0.0, "name": "0c5edb6201141c854d2c78bbdae847dd", "fusion_lon": 0.0}, {"is_reserved": 0, "type": "electric_scooter", "bike_id": "fbaa62bf69f52c409adec82f84121726", "lat": 38.8656625, "lon": -76.99025183333333, "rental_uris": {"android": "https://dc.lft.to/lastmile_qr_scan", "ios": "https://dc.lft.to/lastmile_qr_scan"}, "is_disabled": 0, "fusion_lat": 0.0, "name": "fbaa62bf69f52c409adec82f84121726", "fusion_lon": 0.0}, {"is_reserved": 0, "type": "electric_scooter", "bike_id": "37327be8cafbde895bd6b37367f1f2b9", "lat": 38.91291316666667, "lon": -76.98546316666666, "rental_uris": {"android": "https://dc.lft.to/lastmile_qr_scan", "ios": "https://dc.lft.to/lastmile_qr_scan"}, "is_disabled": 0, "fusion_lat": 0.0, "name": "37327be8cafbde895bd6b37367f1f2b9", "fusion_lon": 0.0}, {"is_reserved": 0, "type": "electric_scooter", "bike_id": "67f0258703f4f0d130dff1d85c1a5db0", "lat": 38.90975983333333, "lon": -77.03295883333334, "rental_uris": {"android": "https://dc.lft.to/lastmile_qr_scan", "ios": "https://dc.lft.to/lastmile_qr_scan"}, "is_disabled": 0, "fusion_lat": 0.0, "name": "67f0258703f4f0d130dff1d85c1a5db0", "fusion_lon": 0.0}, {"is_reserved": 0, "type": "electric_scooter", "bike_id": "a01ab2172ef5068493e635fc3ebc96c5", "lat": 38.92872533333333, "lon": -77.0270335, "rental_uris": {"android": "https://dc.lft.to/lastmile_qr_scan", "ios": "https://dc.lft.to/lastmile_qr_scan"}, "is_disabled": 0, "fusion_lat": 0.0, "name": "a01ab2172ef5068493e635fc3ebc96c5", "fusion_lon": 0.0}, {"is_reserved": 0, "type": "electric_scooter", "bike_id": "3f9ba02b20fcc92228c08ec8e5fa9e42", "lat": 38.9175205, "lon": -77.04074533333333, "rental_uris": {"android": "https://dc.lft.to/lastmile_qr_scan", "ios": "https://dc.lft.to/lastmile_qr_scan"}, "is_disabled": 0, "fusion_lat": 0.0, "name": "3f9ba02b20fcc92228c08ec8e5fa9e42", "fusion_lon": 0.0}, {"is_reserved": 0, "type": "electric_bike", "bike_id": "0b331ba1942342714048874457bc6cae", "lat": 39.08591783333333, "lon": -77.122777, "rental_uris": {"android": "https://dc.lft.to/lastmile_qr_scan", "ios": "https://dc.lft.to/lastmile_qr_scan"}, "is_disabled": 0, "fusion_lat": 0.0, "name": "0b331ba1942342714048874457bc6cae", "fusion_lon": 0.0}, {"is_reserved": 0, "type": "electric_scooter", "bike_id": "b7bf33bb01eaa3fb52a32a729132b14e", "lat": 38.92924166666667, "lon": -77.0324415, "rental_uris": {"android": "https://dc.lft.to/lastmile_qr_scan", "ios": "https://dc.lft.to/lastmile_qr_scan"}, "is_disabled": 0, "fusion_lat": 0.0, "name": "b7bf33bb01eaa3fb52a32a729132b14e", "fusion_lon": 0.0}, {"is_reserved": 0, "type": "electric_bike", "bike_id": "7e682b08fb06b138c488d9a43c6c3688", "lat": 38.97237533333333, "lon": -77.02710016666667, "rental_uris": {"android": "https://dc.lft.to/lastmile_qr_scan", "ios": "https://dc.lft.to/lastmile_qr_scan"}, "is_disabled": 0, "fusion_lat": 0.0, "name": "7e682b08fb06b138c488d9a43c6c3688", "fusion_lon": 0.0}, {"is_reserved": 0, "type": "electric_scooter", "bike_id": "7c68f78f87b9bd337a8019809b992be8", "lat": 38.90266533333333, "lon": -77.03386633333334, "rental_uris": {"android": "https://dc.lft.to/lastmile_qr_scan", "ios": "https://dc.lft.to/lastmile_qr_scan"}, "is_disabled": 0, "fusion_lat": 0.0, "name": "7c68f78f87b9bd337a8019809b992be8", "fusion_lon": 0.0}, {"is_reserved": 0, "type": "electric_scooter", "bike_id": "c1a29a7b7bd36de5cc37063b63fd8f01", "lat": 38.920515, "lon": -77.0419045, "rental_uris": {"android": "https://dc.lft.to/lastmile_qr_scan", "ios": "https://dc.lft.to/lastmile_qr_scan"}, "is_disabled": 0, "fusion_lat": 0.0, "name": "c1a29a7b7bd36de5cc37063b63fd8f01", "fusion_lon": 0.0}, {"is_reserved": 0, "type": "electric_scooter", "bike_id": "56621b0c236cf03cf45749b0695b096e", "lat": 38.89478966666667, "lon": -77.02393183333334, "rental_uris": {"android": "https://dc.lft.to/lastmile_qr_scan", "ios": "https://dc.lft.to/lastmile_qr_scan"}, "is_disabled": 0, "fusion_lat": 0.0, "name": "56621b0c236cf03cf45749b0695b096e", "fusion_lon": 0.0}, {"is_reserved": 0, "type": "electric_bike", "bike_id": "8ffbe2fac80bf7eef596ee5e92f76c67", "lat": 38.924453666666665, "lon": -77.01916833333334, "rental_uris": {"android": "https://dc.lft.to/lastmile_qr_scan", "ios": "https://dc.lft.to/lastmile_qr_scan"}, "is_disabled": 0, "fusion_lat": 0.0, "name": "8ffbe2fac80bf7eef596ee5e92f76c67", "fusion_lon": 0.0}, {"is_reserved": 0, "type": "electric_scooter", "bike_id": "02d643bbcd518638d2344dab40f48fc1", "lat": 38.90770666666667, "lon": -77.04512616666666, "rental_uris": {"android": "https://dc.lft.to/lastmile_qr_scan", "ios": "https://dc.lft.to/lastmile_qr_scan"}, "is_disabled": 0, "fusion_lat": 0.0, "name": "02d643bbcd518638d2344dab40f48fc1", "fusion_lon": 0.0}, {"is_reserved": 0, "type": "electric_scooter", "bike_id": "3a927d6e7f57b1549c1ffdab02360c08", "lat": 38.88669, "lon": -77.00194216666667, "rental_uris": {"android": "https://dc.lft.to/lastmile_qr_scan", "ios": "https://dc.lft.to/lastmile_qr_scan"}, "is_disabled": 0, "fusion_lat": 0.0, "name": "3a927d6e7f57b1549c1ffdab02360c08", "fusion_lon": 0.0}, {"is_reserved": 0, "type": "electric_bike", "bike_id": "a7cb5a579ff21b0a42c5f4611af5aaa2", "lat": 38.956399, "lon": -77.0328595, "rental_uris": {"android": "https://dc.lft.to/lastmile_qr_scan", "ios": "https://dc.lft.to/lastmile_qr_scan"}, "is_disabled": 0, "fusion_lat": 0.0, "name": "a7cb5a579ff21b0a42c5f4611af5aaa2", "fusion_lon": 0.0}, {"is_reserved": 0, "type": "electric_scooter", "bike_id": "7acc47fb707b862cb43ab95ae14cc589", "lat": 38.9018915, "lon": -76.98203583333333, "rental_uris": {"android": "https://dc.lft.to/lastmile_qr_scan", "ios": "https://dc.lft.to/lastmile_qr_scan"}, "is_disabled": 0, "fusion_lat": 0.0, "name": "7acc47fb707b862cb43ab95ae14cc589", "fusion_lon": 0.0}, {"is_reserved": 0, "type": "electric_scooter", "bike_id": "ebe2528defc1006fba890161670c63f7", "lat": 38.9255715, "lon": -77.02280016666667, "rental_uris": {"android": "https://dc.lft.to/lastmile_qr_scan", "ios": "https://dc.lft.to/lastmile_qr_scan"}, "is_disabled": 0, "fusion_lat": 0.0, "name": "ebe2528defc1006fba890161670c63f7", "fusion_lon": 0.0}, {"is_reserved": 0, "type": "electric_scooter", "bike_id": "0638377519cb22970d74e061dbb1cd07", "lat": 38.9305415, "lon": -77.03632616666667, "rental_uris": {"android": "https://dc.lft.to/lastmile_qr_scan", "ios": "https://dc.lft.to/lastmile_qr_scan"}, "is_disabled": 0, "fusion_lat": 0.0, "name": "0638377519cb22970d74e061dbb1cd07", "fusion_lon": 0.0}, {"is_reserved": 0, "type": "electric_scooter", "bike_id": "2ad9efd741d85f18ffc2ef73d647d325", "lat": 38.867147833333334, "lon": -76.98070183333333, "rental_uris": {"android": "https://dc.lft.to/lastmile_qr_scan", "ios": "https://dc.lft.to/lastmile_qr_scan"}, "is_disabled": 0, "fusion_lat": 0.0, "name": "2ad9efd741d85f18ffc2ef73d647d325", "fusion_lon": 0.0}, {"is_reserved": 0, "type": "electric_scooter", "bike_id": "dad0911d1c8866f818b5f753c0f64aa4", "lat": 38.912149666666664, "lon": -77.031764, "rental_uris": {"android": "https://dc.lft.to/lastmile_qr_scan", "ios": "https://dc.lft.to/lastmile_qr_scan"}, "is_disabled": 0, "fusion_lat": 0.0, "name": "dad0911d1c8866f818b5f753c0f64aa4", "fusion_lon": 0.0}, {"is_reserved": 0, "type": "electric_scooter", "bike_id": "f44b94f4c78a1d461d3d2be5296e0701", "lat": 38.88108483333333, "lon": -76.9950155, "rental_uris": {"android": "https://dc.lft.to/lastmile_qr_scan", "ios": "https://dc.lft.to/lastmile_qr_scan"}, "is_disabled": 0, "fusion_lat": 0.0, "name": "f44b94f4c78a1d461d3d2be5296e0701", "fusion_lon": 0.0}, {"is_reserved": 0, "type": "electric_bike", "bike_id": "4ef60c61963774cdf685606b1da35082", "lat": 38.895900166666664, "lon": -76.90687266666667, "rental_uris": {"android": "https://dc.lft.to/lastmile_qr_scan", "ios": "https://dc.lft.to/lastmile_qr_scan"}, "is_disabled": 0, "fusion_lat": 0.0, "name": "4ef60c61963774cdf685606b1da35082", "fusion_lon": 0.0}, {"is_reserved": 0, "type": "electric_scooter", "bike_id": "dcc44bcdee9b940fd24e200c4eb199cc", "lat": 38.880929333333334, "lon": -76.99508383333334, "rental_uris": {"android": "https://dc.lft.to/lastmile_qr_scan", "ios": "https://dc.lft.to/lastmile_qr_scan"}, "is_disabled": 0, "fusion_lat": 0.0, "name": "dcc44bcdee9b940fd24e200c4eb199cc", "fusion_lon": 0.0}, {"is_reserved": 0, "type": "electric_scooter", "bike_id": "202bcc7f80a24ae0d64ea051fddea8ce", "lat": 38.91131166666667, "lon": -77.03658883333334, "rental_uris": {"android": "https://dc.lft.to/lastmile_qr_scan", "ios": "https://dc.lft.to/lastmile_qr_scan"}, "is_disabled": 0, "fusion_lat": 0.0, "name": "202bcc7f80a24ae0d64ea051fddea8ce", "fusion_lon": 0.0}, {"is_reserved": 0, "type": "electric_bike", "bike_id": "7d45b4af7128684b9af5bcc93d23a82e", "lat": 38.921707833333336, "lon": -77.033734, "rental_uris": {"android": "https://dc.lft.to/lastmile_qr_scan", "ios": "https://dc.lft.to/lastmile_qr_scan"}, "is_disabled": 0, "fusion_lat": 0.0, "name": "7d45b4af7128684b9af5bcc93d23a82e", "fusion_lon": 0.0}, {"is_reserved": 0, "type": "electric_scooter", "bike_id": "a634c6097a786445e69643a52b48d614", "lat": 38.89745083333333, "lon": -77.02690833333334, "rental_uris": {"android": "https://dc.lft.to/lastmile_qr_scan", "ios": "https://dc.lft.to/lastmile_qr_scan"}, "is_disabled": 0, "fusion_lat": 0.0, "name": "a634c6097a786445e69643a52b48d614", "fusion_lon": 0.0}, {"is_reserved": 0, "type": "electric_scooter", "bike_id": "9d93feeeb08a419489e074c2e8743ab6", "lat": 38.919641, "lon": -77.04362216666667, "rental_uris": {"android": "https://dc.lft.to/lastmile_qr_scan", "ios": "https://dc.lft.to/lastmile_qr_scan"}, "is_disabled": 0, "fusion_lat": 0.0, "name": "9d93feeeb08a419489e074c2e8743ab6", "fusion_lon": 0.0}, {"is_reserved": 0, "type": "electric_scooter", "bike_id": "60f014232f5c473a50bee48b8365e425", "lat": 38.915527, "lon": -77.03256633333334, "rental_uris": {"android": "https://dc.lft.to/lastmile_qr_scan", "ios": "https://dc.lft.to/lastmile_qr_scan"}, "is_disabled": 0, "fusion_lat": 0.0, "name": "60f014232f5c473a50bee48b8365e425", "fusion_lon": 0.0}, {"is_reserved": 0, "type": "electric_scooter", "bike_id": "d0d3d59b2850545abe00bed5ebf86b22", "lat": 38.91656166666667, "lon": -77.0247625, "rental_uris": {"android": "https://dc.lft.to/lastmile_qr_scan", "ios": "https://dc.lft.to/lastmile_qr_scan"}, "is_disabled": 0, "fusion_lat": 0.0, "name": "d0d3d59b2850545abe00bed5ebf86b22", "fusion_lon": 0.0}, {"is_reserved": 0, "type": "electric_scooter", "bike_id": "4828db0ab1a89def27241b24b8695da8", "lat": 38.86588233333333, "lon": -76.97452483333333, "rental_uris": {"android": "https://dc.lft.to/lastmile_qr_scan", "ios": "https://dc.lft.to/lastmile_qr_scan"}, "is_disabled": 0, "fusion_lat": 0.0, "name": "4828db0ab1a89def27241b24b8695da8", "fusion_lon": 0.0}, {"is_reserved": 0, "type": "electric_scooter", "bike_id": "c536980ce44c4453d242b19aa2c9cac7", "lat": 38.924553, "lon": -77.05223333333333, "rental_uris": {"android": "https://dc.lft.to/lastmile_qr_scan", "ios": "https://dc.lft.to/lastmile_qr_scan"}, "is_disabled": 0, "fusion_lat": 0.0, "name": "c536980ce44c4453d242b19aa2c9cac7", "fusion_lon": 0.0}, {"is_reserved": 0, "type": "electric_scooter", "bike_id": "7bbcf8e45cc252f304e8a63f5408f3b4", "lat": 38.9399095, "lon": -77.02003816666667, "rental_uris": {"android": "https://dc.lft.to/lastmile_qr_scan", "ios": "https://dc.lft.to/lastmile_qr_scan"}, "is_disabled": 0, "fusion_lat": 0.0, "name": "7bbcf8e45cc252f304e8a63f5408f3b4", "fusion_lon": 0.0}, {"is_reserved": 0, "type": "electric_bike", "bike_id": "ad64a0e106015795461c53c0d38c8b7a", "lat": 38.9575445, "lon": -76.9801705, "rental_uris": {"android": "https://dc.lft.to/lastmile_qr_scan", "ios": "https://dc.lft.to/lastmile_qr_scan"}, "is_disabled": 0, "fusion_lat": 0.0, "name": "ad64a0e106015795461c53c0d38c8b7a", "fusion_lon": 0.0}, {"is_reserved": 0, "type": "electric_scooter", "bike_id": "b1ae5d890bf92502da310de2f0abdcd3", "lat": 38.926042, "lon": -77.021702, "rental_uris": {"android": "https://dc.lft.to/lastmile_qr_scan", "ios": "https://dc.lft.to/lastmile_qr_scan"}, "is_disabled": 0, "fusion_lat": 0.0, "name": "b1ae5d890bf92502da310de2f0abdcd3", "fusion_lon": 0.0}, {"is_reserved": 0, "type": "electric_scooter", "bike_id": "34154abce64a0263cfdd3b25e60d9d3d", "lat": 38.912706166666666, "lon": -77.0122215, "rental_uris": {"android": "https://dc.lft.to/lastmile_qr_scan", "ios": "https://dc.lft.to/lastmile_qr_scan"}, "is_disabled": 0, "fusion_lat": 0.0, "name": "34154abce64a0263cfdd3b25e60d9d3d", "fusion_lon": 0.0}, {"is_reserved": 0, "type": "electric_scooter", "bike_id": "be941dade6364312d53900750a0eacd8", "lat": 38.9185525, "lon": -77.0416745, "rental_uris": {"android": "https://dc.lft.to/lastmile_qr_scan", "ios": "https://dc.lft.to/lastmile_qr_scan"}, "is_disabled": 0, "fusion_lat": 0.0, "name": "be941dade6364312d53900750a0eacd8", "fusion_lon": 0.0}, {"is_reserved": 0, "type": "electric_scooter", "bike_id": "da6a2a7d8837ec009ead2fdf304978be", "lat": 38.900723166666666, "lon": -77.00214283333334, "rental_uris": {"android": "https://dc.lft.to/lastmile_qr_scan", "ios": "https://dc.lft.to/lastmile_qr_scan"}, "is_disabled": 0, "fusion_lat": 0.0, "name": "da6a2a7d8837ec009ead2fdf304978be", "fusion_lon": 0.0}, {"is_reserved": 0, "type": "electric_scooter", "bike_id": "4401e9fda9f5c0f356395a508e0548fa", "lat": 38.901863166666665, "lon": -77.0218975, "rental_uris": {"android": "https://dc.lft.to/lastmile_qr_scan", "ios": "https://dc.lft.to/lastmile_qr_scan"}, "is_disabled": 0, "fusion_lat": 0.0, "name": "4401e9fda9f5c0f356395a508e0548fa", "fusion_lon": 0.0}, {"is_reserved": 0, "type": "electric_scooter", "bike_id": "9fbd9e53a39aa6298c400182cfd771a2", "lat": 38.90350566666667, "lon": -76.986137, "rental_uris": {"android": "https://dc.lft.to/lastmile_qr_scan", "ios": "https://dc.lft.to/lastmile_qr_scan"}, "is_disabled": 0, "fusion_lat": 0.0, "name": "9fbd9e53a39aa6298c400182cfd771a2", "fusion_lon": 0.0}, {"is_reserved": 0, "type": "electric_scooter", "bike_id": "495d041c963885c28f1277c988ebaa5a", "lat": 38.912664, "lon": -77.03811483333334, "rental_uris": {"android": "https://dc.lft.to/lastmile_qr_scan", "ios": "https://dc.lft.to/lastmile_qr_scan"}, "is_disabled": 0, "fusion_lat": 0.0, "name": "495d041c963885c28f1277c988ebaa5a", "fusion_lon": 0.0}, {"is_reserved": 0, "type": "electric_scooter", "bike_id": "9be677fbd98a9251fe231d322c875ad3", "lat": 38.975136, "lon": -77.01737983333334, "rental_uris": {"android": "https://dc.lft.to/lastmile_qr_scan", "ios": "https://dc.lft.to/lastmile_qr_scan"}, "is_disabled": 0, "fusion_lat": 0.0, "name": "9be677fbd98a9251fe231d322c875ad3", "fusion_lon": 0.0}, {"is_reserved": 0, "type": "electric_scooter", "bike_id": "d48939bf8fab75ef70eb443f8b8e01ba", "lat": 38.91693683333333, "lon": -77.035871, "rental_uris": {"android": "https://dc.lft.to/lastmile_qr_scan", "ios": "https://dc.lft.to/lastmile_qr_scan"}, "is_disabled": 0, "fusion_lat": 0.0, "name": "d48939bf8fab75ef70eb443f8b8e01ba", "fusion_lon": 0.0}, {"is_reserved": 0, "type": "electric_bike", "bike_id": "ad6ffbde97f4395893e499d122409acb", "lat": 38.9113755, "lon": -76.99681733333334, "rental_uris": {"android": "https://dc.lft.to/lastmile_qr_scan", "ios": "https://dc.lft.to/lastmile_qr_scan"}, "is_disabled": 0, "fusion_lat": 0.0, "name": "ad6ffbde97f4395893e499d122409acb", "fusion_lon": 0.0}, {"is_reserved": 0, "type": "electric_scooter", "bike_id": "5cdc3fec6dcf437327b34b87ec57f181", "lat": 38.88370033333333, "lon": -76.995165, "rental_uris": {"android": "https://dc.lft.to/lastmile_qr_scan", "ios": "https://dc.lft.to/lastmile_qr_scan"}, "is_disabled": 0, "fusion_lat": 0.0, "name": "5cdc3fec6dcf437327b34b87ec57f181", "fusion_lon": 0.0}, {"is_reserved": 0, "type": "electric_bike", "bike_id": "8d8d33a0c73fda5ee9a5a2452f6dc513", "lat": 38.832333166666665, "lon": -76.9461805, "rental_uris": {"android": "https://dc.lft.to/lastmile_qr_scan", "ios": "https://dc.lft.to/lastmile_qr_scan"}, "is_disabled": 0, "fusion_lat": 0.0, "name": "8d8d33a0c73fda5ee9a5a2452f6dc513", "fusion_lon": 0.0}, {"is_reserved": 0, "type": "electric_scooter", "bike_id": "c00239e4c6b3e3aa7860f2f0381ad26d", "lat": 38.933346, "lon": -77.02412633333333, "rental_uris": {"android": "https://dc.lft.to/lastmile_qr_scan", "ios": "https://dc.lft.to/lastmile_qr_scan"}, "is_disabled": 0, "fusion_lat": 0.0, "name": "c00239e4c6b3e3aa7860f2f0381ad26d", "fusion_lon": 0.0}, {"is_reserved": 0, "type": "electric_scooter", "bike_id": "2adb67ff140bc0052a5162e8141a1687", "lat": 38.905139166666665, "lon": -77.05835833333333, "rental_uris": {"android": "https://dc.lft.to/lastmile_qr_scan", "ios": "https://dc.lft.to/lastmile_qr_scan"}, "is_disabled": 0, "fusion_lat": 0.0, "name": "2adb67ff140bc0052a5162e8141a1687", "fusion_lon": 0.0}, {"is_reserved": 0, "type": "electric_scooter", "bike_id": "d08528cdc1bb244fdc67bd552b4ae157", "lat": 38.94488316666666, "lon": -77.007093, "rental_uris": {"android": "https://dc.lft.to/lastmile_qr_scan", "ios": "https://dc.lft.to/lastmile_qr_scan"}, "is_disabled": 0, "fusion_lat": 0.0, "name": "d08528cdc1bb244fdc67bd552b4ae157", "fusion_lon": 0.0}, {"is_reserved": 0, "type": "electric_scooter", "bike_id": "8e0aa4ebef46d2248c76de405e10622b", "lat": 38.904744, "lon": -77.04161966666666, "rental_uris": {"android": "https://dc.lft.to/lastmile_qr_scan", "ios": "https://dc.lft.to/lastmile_qr_scan"}, "is_disabled": 0, "fusion_lat": 0.0, "name": "8e0aa4ebef46d2248c76de405e10622b", "fusion_lon": 0.0}, {"is_reserved": 0, "type": "electric_bike", "bike_id": "4f275987f5d3860bc87c0de64afc7fc7", "lat": 38.883882666666665, "lon": -76.95448116666667, "rental_uris": {"android": "https://dc.lft.to/lastmile_qr_scan", "ios": "https://dc.lft.to/lastmile_qr_scan"}, "is_disabled": 0, "fusion_lat": 0.0, "name": "4f275987f5d3860bc87c0de64afc7fc7", "fusion_lon": 0.0}, {"is_reserved": 0, "type": "electric_bike", "bike_id": "622fafa711e9c0a065446dfba226ccb3", "lat": 38.82334933333333, "lon": -77.0582085, "rental_uris": {"android": "https://dc.lft.to/lastmile_qr_scan", "ios": "https://dc.lft.to/lastmile_qr_scan"}, "is_disabled": 0, "fusion_lat": 0.0, "name": "622fafa711e9c0a065446dfba226ccb3", "fusion_lon": 0.0}, {"is_reserved": 0, "type": "electric_scooter", "bike_id": "a561f63715527e05e88abfdbf121ca55", "lat": 38.927117, "lon": -77.04048166666666, "rental_uris": {"android": "https://dc.lft.to/lastmile_qr_scan", "ios": "https://dc.lft.to/lastmile_qr_scan"}, "is_disabled": 0, "fusion_lat": 0.0, "name": "a561f63715527e05e88abfdbf121ca55", "fusion_lon": 0.0}, {"is_reserved": 0, "type": "electric_scooter", "bike_id": "a1d1d47fd7dd66909aa7d1a3c205816e", "lat": 38.900866666666666, "lon": -77.04761766666667, "rental_uris": {"android": "https://dc.lft.to/lastmile_qr_scan", "ios": "https://dc.lft.to/lastmile_qr_scan"}, "is_disabled": 0, "fusion_lat": 0.0, "name": "a1d1d47fd7dd66909aa7d1a3c205816e", "fusion_lon": 0.0}, {"is_reserved": 0, "type": "electric_scooter", "bike_id": "7ed799302c9d983ffbd6a25fd581207e", "lat": 38.91933366666667, "lon": -77.04172266666667, "rental_uris": {"android": "https://dc.lft.to/lastmile_qr_scan", "ios": "https://dc.lft.to/lastmile_qr_scan"}, "is_disabled": 0, "fusion_lat": 0.0, "name": "7ed799302c9d983ffbd6a25fd581207e", "fusion_lon": 0.0}, {"is_reserved": 0, "type": "electric_scooter", "bike_id": "0f995b7f106da214329d6d16094d375e", "lat": 38.9350705, "lon": -77.033431, "rental_uris": {"android": "https://dc.lft.to/lastmile_qr_scan", "ios": "https://dc.lft.to/lastmile_qr_scan"}, "is_disabled": 0, "fusion_lat": 0.0, "name": "0f995b7f106da214329d6d16094d375e", "fusion_lon": 0.0}, {"is_reserved": 0, "type": "electric_bike", "bike_id": "1734e6bb66b0af2818b1de5be69c3abb", "lat": 38.974204666666665, "lon": -77.01258166666666, "rental_uris": {"android": "https://dc.lft.to/lastmile_qr_scan", "ios": "https://dc.lft.to/lastmile_qr_scan"}, "is_disabled": 0, "fusion_lat": 0.0, "name": "1734e6bb66b0af2818b1de5be69c3abb", "fusion_lon": 0.0}, {"is_reserved": 0, "type": "electric_scooter", "bike_id": "2610d91bde4e26b7584f8914a6e5c997", "lat": 38.91470016666667, "lon": -77.0034505, "rental_uris": {"android": "https://dc.lft.to/lastmile_qr_scan", "ios": "https://dc.lft.to/lastmile_qr_scan"}, "is_disabled": 0, "fusion_lat": 0.0, "name": "2610d91bde4e26b7584f8914a6e5c997", "fusion_lon": 0.0}, {"is_reserved": 0, "type": "electric_scooter", "bike_id": "8dc732055247456aa43a5c28781d5d0a", "lat": 38.915626333333336, "lon": -77.02116383333333, "rental_uris": {"android": "https://dc.lft.to/lastmile_qr_scan", "ios": "https://dc.lft.to/lastmile_qr_scan"}, "is_disabled": 0, "fusion_lat": 0.0, "name": "8dc732055247456aa43a5c28781d5d0a", "fusion_lon": 0.0}, {"is_reserved": 0, "type": "electric_scooter", "bike_id": "1fd4d31e92f57e82ff7546730a3a174f", "lat": 38.89264516666667, "lon": -76.92999016666667, "rental_uris": {"android": "https://dc.lft.to/lastmile_qr_scan", "ios": "https://dc.lft.to/lastmile_qr_scan"}, "is_disabled": 0, "fusion_lat": 0.0, "name": "1fd4d31e92f57e82ff7546730a3a174f", "fusion_lon": 0.0}, {"is_reserved": 0, "type": "electric_scooter", "bike_id": "ac853886d1aa5f45e6a81cfe05d8c089", "lat": 38.89727583333333, "lon": -77.03031683333333, "rental_uris": {"android": "https://dc.lft.to/lastmile_qr_scan", "ios": "https://dc.lft.to/lastmile_qr_scan"}, "is_disabled": 0, "fusion_lat": 0.0, "name": "ac853886d1aa5f45e6a81cfe05d8c089", "fusion_lon": 0.0}, {"is_reserved": 0, "type": "electric_scooter", "bike_id": "ceaee845d80d77b1f6893874b90cbfe9", "lat": 38.899098, "lon": -77.0188945, "rental_uris": {"android": "https://dc.lft.to/lastmile_qr_scan", "ios": "https://dc.lft.to/lastmile_qr_scan"}, "is_disabled": 0, "fusion_lat": 0.0, "name": "ceaee845d80d77b1f6893874b90cbfe9", "fusion_lon": 0.0}, {"is_reserved": 0, "type": "electric_scooter", "bike_id": "b81d2151d82a2f3bf45607f965153731", "lat": 38.887202, "lon": -77.01994866666666, "rental_uris": {"android": "https://dc.lft.to/lastmile_qr_scan", "ios": "https://dc.lft.to/lastmile_qr_scan"}, "is_disabled": 0, "fusion_lat": 0.0, "name": "b81d2151d82a2f3bf45607f965153731", "fusion_lon": 0.0}, {"is_reserved": 0, "type": "electric_scooter", "bike_id": "5864f40970f6df442ae1f32af4d52bc9", "lat": 38.91730283333333, "lon": -77.03636966666667, "rental_uris": {"android": "https://dc.lft.to/lastmile_qr_scan", "ios": "https://dc.lft.to/lastmile_qr_scan"}, "is_disabled": 0, "fusion_lat": 0.0, "name": "5864f40970f6df442ae1f32af4d52bc9", "fusion_lon": 0.0}, {"is_reserved": 0, "type": "electric_scooter", "bike_id": "2de5ed2a5a2cde29411b107cf20314ef", "lat": 38.883963, "lon": -76.93047983333334, "rental_uris": {"android": "https://dc.lft.to/lastmile_qr_scan", "ios": "https://dc.lft.to/lastmile_qr_scan"}, "is_disabled": 0, "fusion_lat": 0.0, "name": "2de5ed2a5a2cde29411b107cf20314ef", "fusion_lon": 0.0}, {"is_reserved": 0, "type": "electric_scooter", "bike_id": "f6571d7658fc850a9177f973ebdc2422", "lat": 38.920395, "lon": -77.04200466666667, "rental_uris": {"android": "https://dc.lft.to/lastmile_qr_scan", "ios": "https://dc.lft.to/lastmile_qr_scan"}, "is_disabled": 0, "fusion_lat": 0.0, "name": "f6571d7658fc850a9177f973ebdc2422", "fusion_lon": 0.0}, {"is_reserved": 0, "type": "electric_scooter", "bike_id": "080da69fb5c0646ed6f2cb00fe8c890d", "lat": 38.91741433333333, "lon": -77.00918866666666, "rental_uris": {"android": "https://dc.lft.to/lastmile_qr_scan", "ios": "https://dc.lft.to/lastmile_qr_scan"}, "is_disabled": 0, "fusion_lat": 0.0, "name": "080da69fb5c0646ed6f2cb00fe8c890d", "fusion_lon": 0.0}, {"is_reserved": 0, "type": "electric_scooter", "bike_id": "485dc204e81553a6fd3267681e9e58dd", "lat": 38.896430333333335, "lon": -76.990316, "rental_uris": {"android": "https://dc.lft.to/lastmile_qr_scan", "ios": "https://dc.lft.to/lastmile_qr_scan"}, "is_disabled": 0, "fusion_lat": 0.0, "name": "485dc204e81553a6fd3267681e9e58dd", "fusion_lon": 0.0}, {"is_reserved": 0, "type": "electric_scooter", "bike_id": "33ffe132d2055dc0eb74b75dd0aa9182", "lat": 38.8961915, "lon": -76.97684633333333, "rental_uris": {"android": "https://dc.lft.to/lastmile_qr_scan", "ios": "https://dc.lft.to/lastmile_qr_scan"}, "is_disabled": 0, "fusion_lat": 0.0, "name": "33ffe132d2055dc0eb74b75dd0aa9182", "fusion_lon": 0.0}, {"is_reserved": 0, "type": "electric_scooter", "bike_id": "7e890ac74b062c1b704ec4a45dac0226", "lat": 38.926024, "lon": -77.02159283333333, "rental_uris": {"android": "https://dc.lft.to/lastmile_qr_scan", "ios": "https://dc.lft.to/lastmile_qr_scan"}, "is_disabled": 0, "fusion_lat": 0.0, "name": "7e890ac74b062c1b704ec4a45dac0226", "fusion_lon": 0.0}, {"is_reserved": 0, "type": "electric_scooter", "bike_id": "5b50e6f6314de56d2883617bef73616a", "lat": 38.89725266666667, "lon": -77.02169016666667, "rental_uris": {"android": "https://dc.lft.to/lastmile_qr_scan", "ios": "https://dc.lft.to/lastmile_qr_scan"}, "is_disabled": 0, "fusion_lat": 0.0, "name": "5b50e6f6314de56d2883617bef73616a", "fusion_lon": 0.0}, {"is_reserved": 0, "type": "electric_scooter", "bike_id": "55f7c46b21d923050ad6569e5e05d755", "lat": 38.91689216666666, "lon": -77.03767483333333, "rental_uris": {"android": "https://dc.lft.to/lastmile_qr_scan", "ios": "https://dc.lft.to/lastmile_qr_scan"}, "is_disabled": 0, "fusion_lat": 0.0, "name": "55f7c46b21d923050ad6569e5e05d755", "fusion_lon": 0.0}, {"is_reserved": 0, "type": "electric_scooter", "bike_id": "97a68b4de01a2b3d1c94ea7a9f7400c5", "lat": 38.9009675, "lon": -77.0189795, "rental_uris": {"android": "https://dc.lft.to/lastmile_qr_scan", "ios": "https://dc.lft.to/lastmile_qr_scan"}, "is_disabled": 0, "fusion_lat": 0.0, "name": "97a68b4de01a2b3d1c94ea7a9f7400c5", "fusion_lon": 0.0}, {"is_reserved": 0, "type": "electric_scooter", "bike_id": "1d147874e69fafdf8919ed6b55363178", "lat": 38.905615, "lon": -77.00584316666666, "rental_uris": {"android": "https://dc.lft.to/lastmile_qr_scan", "ios": "https://dc.lft.to/lastmile_qr_scan"}, "is_disabled": 0, "fusion_lat": 0.0, "name": "1d147874e69fafdf8919ed6b55363178", "fusion_lon": 0.0}, {"is_reserved": 0, "type": "electric_scooter", "bike_id": "b0517431c3ea25bd9a559785661bf77e", "lat": 38.93018766666667, "lon": -77.0378415, "rental_uris": {"android": "https://dc.lft.to/lastmile_qr_scan", "ios": "https://dc.lft.to/lastmile_qr_scan"}, "is_disabled": 0, "fusion_lat": 0.0, "name": "b0517431c3ea25bd9a559785661bf77e", "fusion_lon": 0.0}, {"is_reserved": 0, "type": "electric_scooter", "bike_id": "411f77feda843554f99751f0096911c1", "lat": 38.90773166666666, "lon": -77.0771285, "rental_uris": {"android": "https://dc.lft.to/lastmile_qr_scan", "ios": "https://dc.lft.to/lastmile_qr_scan"}, "is_disabled": 0, "fusion_lat": 0.0, "name": "411f77feda843554f99751f0096911c1", "fusion_lon": 0.0}, {"is_reserved": 0, "type": "electric_scooter", "bike_id": "595eb92c5e2cf1cb8fb6d56e09931073", "lat": 38.904709, "lon": -77.00717366666667, "rental_uris": {"android": "https://dc.lft.to/lastmile_qr_scan", "ios": "https://dc.lft.to/lastmile_qr_scan"}, "is_disabled": 0, "fusion_lat": 0.0, "name": "595eb92c5e2cf1cb8fb6d56e09931073", "fusion_lon": 0.0}, {"is_reserved": 0, "type": "electric_scooter", "bike_id": "50eeecbe00c3b76b2d755046f8f8b107", "lat": 38.927348333333335, "lon": -77.02252966666667, "rental_uris": {"android": "https://dc.lft.to/lastmile_qr_scan", "ios": "https://dc.lft.to/lastmile_qr_scan"}, "is_disabled": 0, "fusion_lat": 0.0, "name": "50eeecbe00c3b76b2d755046f8f8b107", "fusion_lon": 0.0}, {"is_reserved": 0, "type": "electric_scooter", "bike_id": "a0d4843b57902a01025545c27db98c6b", "lat": 38.90628233333333, "lon": -77.02502016666666, "rental_uris": {"android": "https://dc.lft.to/lastmile_qr_scan", "ios": "https://dc.lft.to/lastmile_qr_scan"}, "is_disabled": 0, "fusion_lat": 0.0, "name": "a0d4843b57902a01025545c27db98c6b", "fusion_lon": 0.0}, {"is_reserved": 0, "type": "electric_scooter", "bike_id": "464d2c529ee3337201fc9e6dcb8da69e", "lat": 38.98989316666667, "lon": -77.0335985, "rental_uris": {"android": "https://dc.lft.to/lastmile_qr_scan", "ios": "https://dc.lft.to/lastmile_qr_scan"}, "is_disabled": 0, "fusion_lat": 0.0, "name": "464d2c529ee3337201fc9e6dcb8da69e", "fusion_lon": 0.0}, {"is_reserved": 0, "type": "electric_scooter", "bike_id": "6879f6951c2a73328bf4cf47763144b1", "lat": 38.9255175, "lon": -77.053232, "rental_uris": {"android": "https://dc.lft.to/lastmile_qr_scan", "ios": "https://dc.lft.to/lastmile_qr_scan"}, "is_disabled": 0, "fusion_lat": 0.0, "name": "6879f6951c2a73328bf4cf47763144b1", "fusion_lon": 0.0}, {"is_reserved": 0, "type": "electric_bike", "bike_id": "cb51d3dee525758e5fc9af59a1ed2e81", "lat": 38.9813075, "lon": -77.0077375, "rental_uris": {"android": "https://dc.lft.to/lastmile_qr_scan", "ios": "https://dc.lft.to/lastmile_qr_scan"}, "is_disabled": 0, "fusion_lat": 0.0, "name": "cb51d3dee525758e5fc9af59a1ed2e81", "fusion_lon": 0.0}, {"is_reserved": 0, "type": "electric_scooter", "bike_id": "02e499f23089b49e255c45fc656d9eff", "lat": 38.907304, "lon": -77.00704516666667, "rental_uris": {"android": "https://dc.lft.to/lastmile_qr_scan", "ios": "https://dc.lft.to/lastmile_qr_scan"}, "is_disabled": 0, "fusion_lat": 0.0, "name": "02e499f23089b49e255c45fc656d9eff", "fusion_lon": 0.0}, {"is_reserved": 0, "type": "electric_scooter", "bike_id": "e384ad0497b3d32d9785a07c92361e25", "lat": 38.91380933333333, "lon": -77.04607016666667, "rental_uris": {"android": "https://dc.lft.to/lastmile_qr_scan", "ios": "https://dc.lft.to/lastmile_qr_scan"}, "is_disabled": 0, "fusion_lat": 0.0, "name": "e384ad0497b3d32d9785a07c92361e25", "fusion_lon": 0.0}, {"is_reserved": 0, "type": "electric_scooter", "bike_id": "dd99f184e173aac796a0995ba1c44123", "lat": 38.898639333333335, "lon": -76.9463865, "rental_uris": {"android": "https://dc.lft.to/lastmile_qr_scan", "ios": "https://dc.lft.to/lastmile_qr_scan"}, "is_disabled": 0, "fusion_lat": 0.0, "name": "dd99f184e173aac796a0995ba1c44123", "fusion_lon": 0.0}, {"is_reserved": 0, "type": "electric_scooter", "bike_id": "627325568b4679dda4349836a67c9184", "lat": 38.89066, "lon": -76.9382295, "rental_uris": {"android": "https://dc.lft.to/lastmile_qr_scan", "ios": "https://dc.lft.to/lastmile_qr_scan"}, "is_disabled": 0, "fusion_lat": 0.0, "name": "627325568b4679dda4349836a67c9184", "fusion_lon": 0.0}, {"is_reserved": 0, "type": "electric_bike", "bike_id": "c53e9da00ead0ad392bd15b8557a2dd9", "lat": 38.961329666666664, "lon": -77.02977983333334, "rental_uris": {"android": "https://dc.lft.to/lastmile_qr_scan", "ios": "https://dc.lft.to/lastmile_qr_scan"}, "is_disabled": 0, "fusion_lat": 0.0, "name": "c53e9da00ead0ad392bd15b8557a2dd9", "fusion_lon": 0.0}, {"is_reserved": 0, "type": "electric_scooter", "bike_id": "630fdd33e943e1b588c6e62dfb3755da", "lat": 38.93490516666667, "lon": -77.04448283333333, "rental_uris": {"android": "https://dc.lft.to/lastmile_qr_scan", "ios": "https://dc.lft.to/lastmile_qr_scan"}, "is_disabled": 0, "fusion_lat": 0.0, "name": "630fdd33e943e1b588c6e62dfb3755da", "fusion_lon": 0.0}, {"is_reserved": 0, "type": "electric_scooter", "bike_id": "cbd1a4e001aeaba3a33f6dc13b816de4", "lat": 38.89356183333334, "lon": -76.98679333333334, "rental_uris": {"android": "https://dc.lft.to/lastmile_qr_scan", "ios": "https://dc.lft.to/lastmile_qr_scan"}, "is_disabled": 0, "fusion_lat": 0.0, "name": "cbd1a4e001aeaba3a33f6dc13b816de4", "fusion_lon": 0.0}, {"is_reserved": 0, "type": "electric_scooter", "bike_id": "e2b9060b9635f178df7311c233679188", "lat": 38.898829666666664, "lon": -76.98832866666666, "rental_uris": {"android": "https://dc.lft.to/lastmile_qr_scan", "ios": "https://dc.lft.to/lastmile_qr_scan"}, "is_disabled": 0, "fusion_lat": 0.0, "name": "e2b9060b9635f178df7311c233679188", "fusion_lon": 0.0}, {"is_reserved": 0, "type": "electric_scooter", "bike_id": "bade370b8ebaafc7dc6a39f6352d0dda", "lat": 38.9134445, "lon": -77.02761916666667, "rental_uris": {"android": "https://dc.lft.to/lastmile_qr_scan", "ios": "https://dc.lft.to/lastmile_qr_scan"}, "is_disabled": 0, "fusion_lat": 0.0, "name": "bade370b8ebaafc7dc6a39f6352d0dda", "fusion_lon": 0.0}, {"is_reserved": 0, "type": "electric_scooter", "bike_id": "05c54aae65a9b808c84f599dbc425697", "lat": 38.915774166666665, "lon": -77.01229816666667, "rental_uris": {"android": "https://dc.lft.to/lastmile_qr_scan", "ios": "https://dc.lft.to/lastmile_qr_scan"}, "is_disabled": 0, "fusion_lat": 0.0, "name": "05c54aae65a9b808c84f599dbc425697", "fusion_lon": 0.0}, {"is_reserved": 0, "type": "electric_scooter", "bike_id": "50541e3afd1abea1d4f0809c5856c568", "lat": 38.92398583333333, "lon": -77.05061, "rental_uris": {"android": "https://dc.lft.to/lastmile_qr_scan", "ios": "https://dc.lft.to/lastmile_qr_scan"}, "is_disabled": 0, "fusion_lat": 0.0, "name": "50541e3afd1abea1d4f0809c5856c568", "fusion_lon": 0.0}, {"is_reserved": 0, "type": "electric_scooter", "bike_id": "114bcaf082ef0cfb9b3cb9d695bc4e4e", "lat": 38.921751666666665, "lon": -76.9973305, "rental_uris": {"android": "https://dc.lft.to/lastmile_qr_scan", "ios": "https://dc.lft.to/lastmile_qr_scan"}, "is_disabled": 0, "fusion_lat": 0.0, "name": "114bcaf082ef0cfb9b3cb9d695bc4e4e", "fusion_lon": 0.0}, {"is_reserved": 0, "type": "electric_scooter", "bike_id": "122017f7c63c74137a08a7017fbb16fa", "lat": 38.90394166666667, "lon": -77.0057665, "rental_uris": {"android": "https://dc.lft.to/lastmile_qr_scan", "ios": "https://dc.lft.to/lastmile_qr_scan"}, "is_disabled": 0, "fusion_lat": 0.0, "name": "122017f7c63c74137a08a7017fbb16fa", "fusion_lon": 0.0}, {"is_reserved": 0, "type": "electric_scooter", "bike_id": "8b389388c76ed57121fbaf2ff2f6edeb", "lat": 38.92316733333333, "lon": -77.03528316666667, "rental_uris": {"android": "https://dc.lft.to/lastmile_qr_scan", "ios": "https://dc.lft.to/lastmile_qr_scan"}, "is_disabled": 0, "fusion_lat": 0.0, "name": "8b389388c76ed57121fbaf2ff2f6edeb", "fusion_lon": 0.0}, {"is_reserved": 0, "type": "electric_scooter", "bike_id": "21597a12dcdf7f6bf1fb50c913513c68", "lat": 38.898274, "lon": -77.02860816666667, "rental_uris": {"android": "https://dc.lft.to/lastmile_qr_scan", "ios": "https://dc.lft.to/lastmile_qr_scan"}, "is_disabled": 0, "fusion_lat": 0.0, "name": "21597a12dcdf7f6bf1fb50c913513c68", "fusion_lon": 0.0}, {"is_reserved": 0, "type": "electric_scooter", "bike_id": "9b1067c02cbbc9e1596bb41a9197164e", "lat": 38.8947365, "lon": -77.05021783333333, "rental_uris": {"android": "https://dc.lft.to/lastmile_qr_scan", "ios": "https://dc.lft.to/lastmile_qr_scan"}, "is_disabled": 0, "fusion_lat": 0.0, "name": "9b1067c02cbbc9e1596bb41a9197164e", "fusion_lon": 0.0}, {"is_reserved": 0, "type": "electric_scooter", "bike_id": "5623de2ff4e8cdc179ec55d03278f429", "lat": 38.911175, "lon": -77.03300766666666, "rental_uris": {"android": "https://dc.lft.to/lastmile_qr_scan", "ios": "https://dc.lft.to/lastmile_qr_scan"}, "is_disabled": 0, "fusion_lat": 0.0, "name": "5623de2ff4e8cdc179ec55d03278f429", "fusion_lon": 0.0}, {"is_reserved": 0, "type": "electric_scooter", "bike_id": "fde87847db575022f7fbfb028f376312", "lat": 38.89228133333334, "lon": -77.0258905, "rental_uris": {"android": "https://dc.lft.to/lastmile_qr_scan", "ios": "https://dc.lft.to/lastmile_qr_scan"}, "is_disabled": 0, "fusion_lat": 0.0, "name": "fde87847db575022f7fbfb028f376312", "fusion_lon": 0.0}, {"is_reserved": 0, "type": "electric_bike", "bike_id": "a4515774246fe9135eb28dc44921332a", "lat": 38.94256766666667, "lon": -76.990729, "rental_uris": {"android": "https://dc.lft.to/lastmile_qr_scan", "ios": "https://dc.lft.to/lastmile_qr_scan"}, "is_disabled": 0, "fusion_lat": 0.0, "name": "a4515774246fe9135eb28dc44921332a", "fusion_lon": 0.0}, {"is_reserved": 0, "type": "electric_scooter", "bike_id": "45535341b88bf7bd9b5ec20ff3d3dc13", "lat": 38.892204666666665, "lon": -77.0480255, "rental_uris": {"android": "https://dc.lft.to/lastmile_qr_scan", "ios": "https://dc.lft.to/lastmile_qr_scan"}, "is_disabled": 0, "fusion_lat": 0.0, "name": "45535341b88bf7bd9b5ec20ff3d3dc13", "fusion_lon": 0.0}, {"is_reserved": 0, "type": "electric_scooter", "bike_id": "bc46529241fc8836b39b6aacae806f3f", "lat": 38.92158516666667, "lon": -77.0339375, "rental_uris": {"android": "https://dc.lft.to/lastmile_qr_scan", "ios": "https://dc.lft.to/lastmile_qr_scan"}, "is_disabled": 0, "fusion_lat": 0.0, "name": "bc46529241fc8836b39b6aacae806f3f", "fusion_lon": 0.0}, {"is_reserved": 0, "type": "electric_scooter", "bike_id": "6cd5ef5587dd851a2ba6ad8fa6d4173b", "lat": 38.92414816666667, "lon": -77.0201055, "rental_uris": {"android": "https://dc.lft.to/lastmile_qr_scan", "ios": "https://dc.lft.to/lastmile_qr_scan"}, "is_disabled": 0, "fusion_lat": 0.0, "name": "6cd5ef5587dd851a2ba6ad8fa6d4173b", "fusion_lon": 0.0}, {"is_reserved": 0, "type": "electric_scooter", "bike_id": "47df82eabc33b84da19c2f5f87cfb5f0", "lat": 38.90094966666667, "lon": -77.03353783333333, "rental_uris": {"android": "https://dc.lft.to/lastmile_qr_scan", "ios": "https://dc.lft.to/lastmile_qr_scan"}, "is_disabled": 0, "fusion_lat": 0.0, "name": "47df82eabc33b84da19c2f5f87cfb5f0", "fusion_lon": 0.0}, {"is_reserved": 0, "type": "electric_scooter", "bike_id": "5c58995c18cfb2886d4926f7bbb28dcd", "lat": 38.89544633333333, "lon": -76.98335783333333, "rental_uris": {"android": "https://dc.lft.to/lastmile_qr_scan", "ios": "https://dc.lft.to/lastmile_qr_scan"}, "is_disabled": 0, "fusion_lat": 0.0, "name": "5c58995c18cfb2886d4926f7bbb28dcd", "fusion_lon": 0.0}, {"is_reserved": 0, "type": "electric_scooter", "bike_id": "955632a5c33c19861b9905e3699906fe", "lat": 38.90131233333334, "lon": -76.9912245, "rental_uris": {"android": "https://dc.lft.to/lastmile_qr_scan", "ios": "https://dc.lft.to/lastmile_qr_scan"}, "is_disabled": 0, "fusion_lat": 0.0, "name": "955632a5c33c19861b9905e3699906fe", "fusion_lon": 0.0}, {"is_reserved": 0, "type": "electric_scooter", "bike_id": "a5425a16ed05c48967583cb1f9360914", "lat": 38.860184833333335, "lon": -76.96996683333333, "rental_uris": {"android": "https://dc.lft.to/lastmile_qr_scan", "ios": "https://dc.lft.to/lastmile_qr_scan"}, "is_disabled": 0, "fusion_lat": 0.0, "name": "a5425a16ed05c48967583cb1f9360914", "fusion_lon": 0.0}, {"is_reserved": 0, "type": "electric_scooter", "bike_id": "cceb792ec8af0affa7f25d7c0257e356", "lat": 38.915854833333334, "lon": -77.03188716666666, "rental_uris": {"android": "https://dc.lft.to/lastmile_qr_scan", "ios": "https://dc.lft.to/lastmile_qr_scan"}, "is_disabled": 0, "fusion_lat": 0.0, "name": "cceb792ec8af0affa7f25d7c0257e356", "fusion_lon": 0.0}, {"is_reserved": 0, "type": "electric_scooter", "bike_id": "d399ba58bdcadba472c162b6b7e74f18", "lat": 38.90966, "lon": -77.01106383333334, "rental_uris": {"android": "https://dc.lft.to/lastmile_qr_scan", "ios": "https://dc.lft.to/lastmile_qr_scan"}, "is_disabled": 0, "fusion_lat": 0.0, "name": "d399ba58bdcadba472c162b6b7e74f18", "fusion_lon": 0.0}, {"is_reserved": 0, "type": "electric_scooter", "bike_id": "867d84bc567b9b20c011e2e603f949a7", "lat": 38.933398833333335, "lon": -77.03662266666667, "rental_uris": {"android": "https://dc.lft.to/lastmile_qr_scan", "ios": "https://dc.lft.to/lastmile_qr_scan"}, "is_disabled": 0, "fusion_lat": 0.0, "name": "867d84bc567b9b20c011e2e603f949a7", "fusion_lon": 0.0}, {"is_reserved": 0, "type": "electric_scooter", "bike_id": "820f89c0c34a287189c5dc1439ad42fa", "lat": 38.90860833333333, "lon": -77.04661416666667, "rental_uris": {"android": "https://dc.lft.to/lastmile_qr_scan", "ios": "https://dc.lft.to/lastmile_qr_scan"}, "is_disabled": 0, "fusion_lat": 0.0, "name": "820f89c0c34a287189c5dc1439ad42fa", "fusion_lon": 0.0}, {"is_reserved": 0, "type": "electric_scooter", "bike_id": "bd91d942b279790978603046ffd7a999", "lat": 38.910961, "lon": -77.023847, "rental_uris": {"android": "https://dc.lft.to/lastmile_qr_scan", "ios": "https://dc.lft.to/lastmile_qr_scan"}, "is_disabled": 0, "fusion_lat": 0.0, "name": "bd91d942b279790978603046ffd7a999", "fusion_lon": 0.0}, {"is_reserved": 0, "type": "electric_scooter", "bike_id": "f71e115fcb42e46aaa1fa0068f58b300", "lat": 38.93136416666667, "lon": -77.03829116666667, "rental_uris": {"android": "https://dc.lft.to/lastmile_qr_scan", "ios": "https://dc.lft.to/lastmile_qr_scan"}, "is_disabled": 0, "fusion_lat": 0.0, "name": "f71e115fcb42e46aaa1fa0068f58b300", "fusion_lon": 0.0}, {"is_reserved": 0, "type": "electric_scooter", "bike_id": "deb21b209de18ab68a79e7620849babf", "lat": 38.916941666666666, "lon": -77.03685416666667, "rental_uris": {"android": "https://dc.lft.to/lastmile_qr_scan", "ios": "https://dc.lft.to/lastmile_qr_scan"}, "is_disabled": 0, "fusion_lat": 0.0, "name": "deb21b209de18ab68a79e7620849babf", "fusion_lon": 0.0}, {"is_reserved": 0, "type": "electric_scooter", "bike_id": "d8eab95c8b1b6e3189827d79bcd2aee2", "lat": 38.96135733333333, "lon": -77.02821833333333, "rental_uris": {"android": "https://dc.lft.to/lastmile_qr_scan", "ios": "https://dc.lft.to/lastmile_qr_scan"}, "is_disabled": 0, "fusion_lat": 0.0, "name": "d8eab95c8b1b6e3189827d79bcd2aee2", "fusion_lon": 0.0}, {"is_reserved": 0, "type": "electric_bike", "bike_id": "d6a4e6050aa8bca934c09842f77bded2", "lat": 38.94257316666667, "lon": -76.99067983333333, "rental_uris": {"android": "https://dc.lft.to/lastmile_qr_scan", "ios": "https://dc.lft.to/lastmile_qr_scan"}, "is_disabled": 0, "fusion_lat": 0.0, "name": "d6a4e6050aa8bca934c09842f77bded2", "fusion_lon": 0.0}, {"is_reserved": 0, "type": "electric_scooter", "bike_id": "a28ad748f37c7f948d90e463147d1bfe", "lat": 38.8963255, "lon": -76.927989, "rental_uris": {"android": "https://dc.lft.to/lastmile_qr_scan", "ios": "https://dc.lft.to/lastmile_qr_scan"}, "is_disabled": 0, "fusion_lat": 0.0, "name": "a28ad748f37c7f948d90e463147d1bfe", "fusion_lon": 0.0}, {"is_reserved": 0, "type": "electric_scooter", "bike_id": "2803208b299c6935d8b82f772771472f", "lat": 38.895992166666666, "lon": -77.02994883333334, "rental_uris": {"android": "https://dc.lft.to/lastmile_qr_scan", "ios": "https://dc.lft.to/lastmile_qr_scan"}, "is_disabled": 0, "fusion_lat": 0.0, "name": "2803208b299c6935d8b82f772771472f", "fusion_lon": 0.0}, {"is_reserved": 0, "type": "electric_bike", "bike_id": "f28ad24dd80a71184ae4649db513d950", "lat": 38.90373566666667, "lon": -77.05070666666667, "rental_uris": {"android": "https://dc.lft.to/lastmile_qr_scan", "ios": "https://dc.lft.to/lastmile_qr_scan"}, "is_disabled": 0, "fusion_lat": 0.0, "name": "f28ad24dd80a71184ae4649db513d950", "fusion_lon": 0.0}, {"is_reserved": 0, "type": "electric_scooter", "bike_id": "abf48aa2b3431c639e57f2aef3baf494", "lat": 38.907599833333336, "lon": -77.03213183333334, "rental_uris": {"android": "https://dc.lft.to/lastmile_qr_scan", "ios": "https://dc.lft.to/lastmile_qr_scan"}, "is_disabled": 0, "fusion_lat": 0.0, "name": "abf48aa2b3431c639e57f2aef3baf494", "fusion_lon": 0.0}, {"is_reserved": 0, "type": "electric_scooter", "bike_id": "1081b62c1296d68e8b59c6a6f11fbe50", "lat": 38.959095833333336, "lon": -77.00018, "rental_uris": {"android": "https://dc.lft.to/lastmile_qr_scan", "ios": "https://dc.lft.to/lastmile_qr_scan"}, "is_disabled": 0, "fusion_lat": 0.0, "name": "1081b62c1296d68e8b59c6a6f11fbe50", "fusion_lon": 0.0}, {"is_reserved": 0, "type": "electric_scooter", "bike_id": "5391b94219d522a12638481242a645cf", "lat": 38.94587533333333, "lon": -77.020317, "rental_uris": {"android": "https://dc.lft.to/lastmile_qr_scan", "ios": "https://dc.lft.to/lastmile_qr_scan"}, "is_disabled": 0, "fusion_lat": 0.0, "name": "5391b94219d522a12638481242a645cf", "fusion_lon": 0.0}, {"is_reserved": 0, "type": "electric_scooter", "bike_id": "5301f2ae113576be26de73e0b51572dd", "lat": 38.9018655, "lon": -77.02185416666667, "rental_uris": {"android": "https://dc.lft.to/lastmile_qr_scan", "ios": "https://dc.lft.to/lastmile_qr_scan"}, "is_disabled": 0, "fusion_lat": 0.0, "name": "5301f2ae113576be26de73e0b51572dd", "fusion_lon": 0.0}, {"is_reserved": 0, "type": "electric_bike", "bike_id": "8780ce3740a386e779bcc09a6462eb4a", "lat": 38.873402666666664, "lon": -77.018548, "rental_uris": {"android": "https://dc.lft.to/lastmile_qr_scan", "ios": "https://dc.lft.to/lastmile_qr_scan"}, "is_disabled": 0, "fusion_lat": 0.0, "name": "8780ce3740a386e779bcc09a6462eb4a", "fusion_lon": 0.0}, {"is_reserved": 0, "type": "electric_scooter", "bike_id": "793d8e67c5f2e29d8ee1032c94501d11", "lat": 38.92677666666667, "lon": -77.03202233333333, "rental_uris": {"android": "https://dc.lft.to/lastmile_qr_scan", "ios": "https://dc.lft.to/lastmile_qr_scan"}, "is_disabled": 0, "fusion_lat": 0.0, "name": "793d8e67c5f2e29d8ee1032c94501d11", "fusion_lon": 0.0}, {"is_reserved": 0, "type": "electric_scooter", "bike_id": "e8a1732bdae30cbaf60fd4139ed42de7", "lat": 38.872923166666666, "lon": -77.01075766666666, "rental_uris": {"android": "https://dc.lft.to/lastmile_qr_scan", "ios": "https://dc.lft.to/lastmile_qr_scan"}, "is_disabled": 0, "fusion_lat": 0.0, "name": "e8a1732bdae30cbaf60fd4139ed42de7", "fusion_lon": 0.0}, {"is_reserved": 0, "type": "electric_scooter", "bike_id": "0149f284e587b0dcb9544eafcbad074c", "lat": 38.90093066666667, "lon": -77.05784433333334, "rental_uris": {"android": "https://dc.lft.to/lastmile_qr_scan", "ios": "https://dc.lft.to/lastmile_qr_scan"}, "is_disabled": 0, "fusion_lat": 0.0, "name": "0149f284e587b0dcb9544eafcbad074c", "fusion_lon": 0.0}, {"is_reserved": 0, "type": "electric_scooter", "bike_id": "cbc3e0b64ea5ecad60170e163607b772", "lat": 38.89339233333333, "lon": -77.04869016666666, "rental_uris": {"android": "https://dc.lft.to/lastmile_qr_scan", "ios": "https://dc.lft.to/lastmile_qr_scan"}, "is_disabled": 0, "fusion_lat": 0.0, "name": "cbc3e0b64ea5ecad60170e163607b772", "fusion_lon": 0.0}, {"is_reserved": 0, "type": "electric_scooter", "bike_id": "ec97c7c39da185dcad66d5aa43636691", "lat": 38.93123283333333, "lon": -77.03877316666667, "rental_uris": {"android": "https://dc.lft.to/lastmile_qr_scan", "ios": "https://dc.lft.to/lastmile_qr_scan"}, "is_disabled": 0, "fusion_lat": 0.0, "name": "ec97c7c39da185dcad66d5aa43636691", "fusion_lon": 0.0}, {"is_reserved": 0, "type": "electric_scooter", "bike_id": "e5ea7f2425e519c0008210a93ddd69e9", "lat": 38.89644916666666, "lon": -77.00929683333334, "rental_uris": {"android": "https://dc.lft.to/lastmile_qr_scan", "ios": "https://dc.lft.to/lastmile_qr_scan"}, "is_disabled": 0, "fusion_lat": 0.0, "name": "e5ea7f2425e519c0008210a93ddd69e9", "fusion_lon": 0.0}, {"is_reserved": 0, "type": "electric_bike", "bike_id": "1fb9a85dfd637a8bff07904b4b3c3fa6", "lat": 38.99537016666667, "lon": -77.07442366666666, "rental_uris": {"android": "https://dc.lft.to/lastmile_qr_scan", "ios": "https://dc.lft.to/lastmile_qr_scan"}, "is_disabled": 0, "fusion_lat": 0.0, "name": "1fb9a85dfd637a8bff07904b4b3c3fa6", "fusion_lon": 0.0}, {"is_reserved": 0, "type": "electric_scooter", "bike_id": "d2a8710c202aec467f406191eff8bbc8", "lat": 38.92610066666667, "lon": -77.02155216666667, "rental_uris": {"android": "https://dc.lft.to/lastmile_qr_scan", "ios": "https://dc.lft.to/lastmile_qr_scan"}, "is_disabled": 0, "fusion_lat": 0.0, "name": "d2a8710c202aec467f406191eff8bbc8", "fusion_lon": 0.0}, {"is_reserved": 0, "type": "electric_scooter", "bike_id": "00f1a1e1bb378b63146d99580cd16cb5", "lat": 38.96645816666667, "lon": -77.008901, "rental_uris": {"android": "https://dc.lft.to/lastmile_qr_scan", "ios": "https://dc.lft.to/lastmile_qr_scan"}, "is_disabled": 0, "fusion_lat": 0.0, "name": "00f1a1e1bb378b63146d99580cd16cb5", "fusion_lon": 0.0}, {"is_reserved": 0, "type": "electric_scooter", "bike_id": "f685b35ddb2b90a7637d217552ea77f6", "lat": 38.92091, "lon": -77.03177866666667, "rental_uris": {"android": "https://dc.lft.to/lastmile_qr_scan", "ios": "https://dc.lft.to/lastmile_qr_scan"}, "is_disabled": 0, "fusion_lat": 0.0, "name": "f685b35ddb2b90a7637d217552ea77f6", "fusion_lon": 0.0}, {"is_reserved": 0, "type": "electric_scooter", "bike_id": "b6af90b9ba6fbbdaacf0ec701c4c0db2", "lat": 38.95248183333333, "lon": -77.02389616666666, "rental_uris": {"android": "https://dc.lft.to/lastmile_qr_scan", "ios": "https://dc.lft.to/lastmile_qr_scan"}, "is_disabled": 0, "fusion_lat": 0.0, "name": "b6af90b9ba6fbbdaacf0ec701c4c0db2", "fusion_lon": 0.0}, {"is_reserved": 0, "type": "electric_scooter", "bike_id": "937f1d4f650a5cb28291a6cc30ea0639", "lat": 38.93529766666666, "lon": -77.02490166666666, "rental_uris": {"android": "https://dc.lft.to/lastmile_qr_scan", "ios": "https://dc.lft.to/lastmile_qr_scan"}, "is_disabled": 0, "fusion_lat": 0.0, "name": "937f1d4f650a5cb28291a6cc30ea0639", "fusion_lon": 0.0}, {"is_reserved": 0, "type": "electric_scooter", "bike_id": "ed0ba65237c7b92f496cdd00bab75711", "lat": 38.89997066666667, "lon": -77.0271945, "rental_uris": {"android": "https://dc.lft.to/lastmile_qr_scan", "ios": "https://dc.lft.to/lastmile_qr_scan"}, "is_disabled": 0, "fusion_lat": 0.0, "name": "ed0ba65237c7b92f496cdd00bab75711", "fusion_lon": 0.0}, {"is_reserved": 0, "type": "electric_scooter", "bike_id": "c9de15f1c6005d58f5caa04401a9711b", "lat": 38.916140666666664, "lon": -77.01569233333333, "rental_uris": {"android": "https://dc.lft.to/lastmile_qr_scan", "ios": "https://dc.lft.to/lastmile_qr_scan"}, "is_disabled": 0, "fusion_lat": 0.0, "name": "c9de15f1c6005d58f5caa04401a9711b", "fusion_lon": 0.0}, {"is_reserved": 0, "type": "electric_scooter", "bike_id": "323de2d979a75835080a2a346489ad1c", "lat": 38.9056875, "lon": -77.036647, "rental_uris": {"android": "https://dc.lft.to/lastmile_qr_scan", "ios": "https://dc.lft.to/lastmile_qr_scan"}, "is_disabled": 0, "fusion_lat": 0.0, "name": "323de2d979a75835080a2a346489ad1c", "fusion_lon": 0.0}, {"is_reserved": 0, "type": "electric_scooter", "bike_id": "4f5fdcc4db5a940c24de4db739450d13", "lat": 38.89226083333333, "lon": -77.0258305, "rental_uris": {"android": "https://dc.lft.to/lastmile_qr_scan", "ios": "https://dc.lft.to/lastmile_qr_scan"}, "is_disabled": 0, "fusion_lat": 0.0, "name": "4f5fdcc4db5a940c24de4db739450d13", "fusion_lon": 0.0}, {"is_reserved": 0, "type": "electric_scooter", "bike_id": "90f92444900f21589a5a529c5cc57a71", "lat": 38.920258, "lon": -77.01030666666666, "rental_uris": {"android": "https://dc.lft.to/lastmile_qr_scan", "ios": "https://dc.lft.to/lastmile_qr_scan"}, "is_disabled": 0, "fusion_lat": 0.0, "name": "90f92444900f21589a5a529c5cc57a71", "fusion_lon": 0.0}, {"is_reserved": 0, "type": "electric_scooter", "bike_id": "90d462ceb289e5bf812c564d67219769", "lat": 38.90073183333333, "lon": -77.02993483333333, "rental_uris": {"android": "https://dc.lft.to/lastmile_qr_scan", "ios": "https://dc.lft.to/lastmile_qr_scan"}, "is_disabled": 0, "fusion_lat": 0.0, "name": "90d462ceb289e5bf812c564d67219769", "fusion_lon": 0.0}, {"is_reserved": 0, "type": "electric_scooter", "bike_id": "adfd87ce00231f2040ad8739340f1369", "lat": 38.928191166666664, "lon": -77.05440983333334, "rental_uris": {"android": "https://dc.lft.to/lastmile_qr_scan", "ios": "https://dc.lft.to/lastmile_qr_scan"}, "is_disabled": 0, "fusion_lat": 0.0, "name": "adfd87ce00231f2040ad8739340f1369", "fusion_lon": 0.0}, {"is_reserved": 0, "type": "electric_scooter", "bike_id": "139ab83477d11f2f9b73421500da3bb2", "lat": 38.90512, "lon": -77.06378966666666, "rental_uris": {"android": "https://dc.lft.to/lastmile_qr_scan", "ios": "https://dc.lft.to/lastmile_qr_scan"}, "is_disabled": 0, "fusion_lat": 0.0, "name": "139ab83477d11f2f9b73421500da3bb2", "fusion_lon": 0.0}, {"is_reserved": 0, "type": "electric_scooter", "bike_id": "aa0b2821a4b691968bc58f84c2947bad", "lat": 38.876084166666665, "lon": -76.9656495, "rental_uris": {"android": "https://dc.lft.to/lastmile_qr_scan", "ios": "https://dc.lft.to/lastmile_qr_scan"}, "is_disabled": 0, "fusion_lat": 0.0, "name": "aa0b2821a4b691968bc58f84c2947bad", "fusion_lon": 0.0}, {"is_reserved": 0, "type": "electric_scooter", "bike_id": "e53067b3390cfe9ec212c0a8c9c0b67f", "lat": 38.9058805, "lon": -77.07223983333333, "rental_uris": {"android": "https://dc.lft.to/lastmile_qr_scan", "ios": "https://dc.lft.to/lastmile_qr_scan"}, "is_disabled": 0, "fusion_lat": 0.0, "name": "e53067b3390cfe9ec212c0a8c9c0b67f", "fusion_lon": 0.0}, {"is_reserved": 0, "type": "electric_scooter", "bike_id": "68be36e68c0fdfb124e48291854a7e64", "lat": 38.919782, "lon": -77.0407195, "rental_uris": {"android": "https://dc.lft.to/lastmile_qr_scan", "ios": "https://dc.lft.to/lastmile_qr_scan"}, "is_disabled": 0, "fusion_lat": 0.0, "name": "68be36e68c0fdfb124e48291854a7e64", "fusion_lon": 0.0}, {"is_reserved": 0, "type": "electric_scooter", "bike_id": "5b1dd3decb6b00a5b51058c87845e383", "lat": 38.909979166666666, "lon": -77.0449695, "rental_uris": {"android": "https://dc.lft.to/lastmile_qr_scan", "ios": "https://dc.lft.to/lastmile_qr_scan"}, "is_disabled": 0, "fusion_lat": 0.0, "name": "5b1dd3decb6b00a5b51058c87845e383", "fusion_lon": 0.0}, {"is_reserved": 0, "type": "electric_scooter", "bike_id": "af32bb6bb66c5306e0b96f3a1be7fb05", "lat": 38.900165, "lon": -77.03637383333333, "rental_uris": {"android": "https://dc.lft.to/lastmile_qr_scan", "ios": "https://dc.lft.to/lastmile_qr_scan"}, "is_disabled": 0, "fusion_lat": 0.0, "name": "af32bb6bb66c5306e0b96f3a1be7fb05", "fusion_lon": 0.0}, {"is_reserved": 0, "type": "electric_scooter", "bike_id": "cd18c11f3163fba93b053f71030441b8", "lat": 38.937374, "lon": -77.0326695, "rental_uris": {"android": "https://dc.lft.to/lastmile_qr_scan", "ios": "https://dc.lft.to/lastmile_qr_scan"}, "is_disabled": 0, "fusion_lat": 0.0, "name": "cd18c11f3163fba93b053f71030441b8", "fusion_lon": 0.0}, {"is_reserved": 0, "type": "electric_scooter", "bike_id": "2f1a43f23cfc962a47e52a0e9e0313d1", "lat": 38.87439466666667, "lon": -77.009265, "rental_uris": {"android": "https://dc.lft.to/lastmile_qr_scan", "ios": "https://dc.lft.to/lastmile_qr_scan"}, "is_disabled": 0, "fusion_lat": 0.0, "name": "2f1a43f23cfc962a47e52a0e9e0313d1", "fusion_lon": 0.0}, {"is_reserved": 0, "type": "electric_scooter", "bike_id": "dcc1f7f6b991aa3caabe013ae168b0ee", "lat": 38.89222016666667, "lon": -77.02835083333333, "rental_uris": {"android": "https://dc.lft.to/lastmile_qr_scan", "ios": "https://dc.lft.to/lastmile_qr_scan"}, "is_disabled": 0, "fusion_lat": 0.0, "name": "dcc1f7f6b991aa3caabe013ae168b0ee", "fusion_lon": 0.0}, {"is_reserved": 0, "type": "electric_scooter", "bike_id": "024455621915793c3e0bbb05079f25f0", "lat": 38.94308816666667, "lon": -77.02178616666667, "rental_uris": {"android": "https://dc.lft.to/lastmile_qr_scan", "ios": "https://dc.lft.to/lastmile_qr_scan"}, "is_disabled": 0, "fusion_lat": 0.0, "name": "024455621915793c3e0bbb05079f25f0", "fusion_lon": 0.0}, {"is_reserved": 0, "type": "electric_scooter", "bike_id": "11f8ec4159c50696d36ec13d5ef5c7d6", "lat": 38.8990725, "lon": -77.02687283333333, "rental_uris": {"android": "https://dc.lft.to/lastmile_qr_scan", "ios": "https://dc.lft.to/lastmile_qr_scan"}, "is_disabled": 0, "fusion_lat": 0.0, "name": "11f8ec4159c50696d36ec13d5ef5c7d6", "fusion_lon": 0.0}, {"is_reserved": 0, "type": "electric_scooter", "bike_id": "04635f1ffc9efb2f65d3849229533ce7", "lat": 38.9240145, "lon": -76.9514545, "rental_uris": {"android": "https://dc.lft.to/lastmile_qr_scan", "ios": "https://dc.lft.to/lastmile_qr_scan"}, "is_disabled": 0, "fusion_lat": 0.0, "name": "04635f1ffc9efb2f65d3849229533ce7", "fusion_lon": 0.0}, {"is_reserved": 0, "type": "electric_scooter", "bike_id": "14814eb7d8e2f040f231a2dcd9e6e46e", "lat": 38.887572, "lon": -76.99616383333333, "rental_uris": {"android": "https://dc.lft.to/lastmile_qr_scan", "ios": "https://dc.lft.to/lastmile_qr_scan"}, "is_disabled": 0, "fusion_lat": 0.0, "name": "14814eb7d8e2f040f231a2dcd9e6e46e", "fusion_lon": 0.0}, {"is_reserved": 0, "type": "electric_scooter", "bike_id": "3badab489d6f6f769a387e9bf76afa5d", "lat": 38.899717833333334, "lon": -77.029036, "rental_uris": {"android": "https://dc.lft.to/lastmile_qr_scan", "ios": "https://dc.lft.to/lastmile_qr_scan"}, "is_disabled": 0, "fusion_lat": 0.0, "name": "3badab489d6f6f769a387e9bf76afa5d", "fusion_lon": 0.0}, {"is_reserved": 0, "type": "electric_scooter", "bike_id": "dda5ba297847742e0faff879f0699046", "lat": 38.92791966666667, "lon": -77.036444, "rental_uris": {"android": "https://dc.lft.to/lastmile_qr_scan", "ios": "https://dc.lft.to/lastmile_qr_scan"}, "is_disabled": 0, "fusion_lat": 0.0, "name": "dda5ba297847742e0faff879f0699046", "fusion_lon": 0.0}, {"is_reserved": 0, "type": "electric_scooter", "bike_id": "942322a70992fe12e0af8afaca89ecd5", "lat": 38.896291833333336, "lon": -77.00212783333333, "rental_uris": {"android": "https://dc.lft.to/lastmile_qr_scan", "ios": "https://dc.lft.to/lastmile_qr_scan"}, "is_disabled": 0, "fusion_lat": 0.0, "name": "942322a70992fe12e0af8afaca89ecd5", "fusion_lon": 0.0}, {"is_reserved": 0, "type": "electric_scooter", "bike_id": "d1907772873e58ebbdef9e5af6c02170", "lat": 38.897379, "lon": -77.017583, "rental_uris": {"android": "https://dc.lft.to/lastmile_qr_scan", "ios": "https://dc.lft.to/lastmile_qr_scan"}, "is_disabled": 0, "fusion_lat": 0.0, "name": "d1907772873e58ebbdef9e5af6c02170", "fusion_lon": 0.0}, {"is_reserved": 0, "type": "electric_scooter", "bike_id": "8c4b84de0e45623e7ad7bbb01136e296", "lat": 38.88513183333333, "lon": -77.00251816666666, "rental_uris": {"android": "https://dc.lft.to/lastmile_qr_scan", "ios": "https://dc.lft.to/lastmile_qr_scan"}, "is_disabled": 0, "fusion_lat": 0.0, "name": "8c4b84de0e45623e7ad7bbb01136e296", "fusion_lon": 0.0}, {"is_reserved": 0, "type": "electric_scooter", "bike_id": "f984c63875f58ea90f8df32f3c612723", "lat": 38.89872616666667, "lon": -77.04874, "rental_uris": {"android": "https://dc.lft.to/lastmile_qr_scan", "ios": "https://dc.lft.to/lastmile_qr_scan"}, "is_disabled": 0, "fusion_lat": 0.0, "name": "f984c63875f58ea90f8df32f3c612723", "fusion_lon": 0.0}, {"is_reserved": 0, "type": "electric_scooter", "bike_id": "9c280a40c2603d46e2faa7a6139b90e1", "lat": 38.8922285, "lon": -77.0160445, "rental_uris": {"android": "https://dc.lft.to/lastmile_qr_scan", "ios": "https://dc.lft.to/lastmile_qr_scan"}, "is_disabled": 0, "fusion_lat": 0.0, "name": "9c280a40c2603d46e2faa7a6139b90e1", "fusion_lon": 0.0}, {"is_reserved": 0, "type": "electric_scooter", "bike_id": "7ee2c7682358a892d54f9f12942968b6", "lat": 38.90972433333334, "lon": -77.019414, "rental_uris": {"android": "https://dc.lft.to/lastmile_qr_scan", "ios": "https://dc.lft.to/lastmile_qr_scan"}, "is_disabled": 0, "fusion_lat": 0.0, "name": "7ee2c7682358a892d54f9f12942968b6", "fusion_lon": 0.0}, {"is_reserved": 0, "type": "electric_scooter", "bike_id": "9aefc68aae8c3f23055dcf5bd1537be0", "lat": 38.93181666666667, "lon": -77.03842466666667, "rental_uris": {"android": "https://dc.lft.to/lastmile_qr_scan", "ios": "https://dc.lft.to/lastmile_qr_scan"}, "is_disabled": 0, "fusion_lat": 0.0, "name": "9aefc68aae8c3f23055dcf5bd1537be0", "fusion_lon": 0.0}, {"is_reserved": 0, "type": "electric_scooter", "bike_id": "90506cfeb978192b650decebc066cada", "lat": 38.892244833333336, "lon": -77.03233066666667, "rental_uris": {"android": "https://dc.lft.to/lastmile_qr_scan", "ios": "https://dc.lft.to/lastmile_qr_scan"}, "is_disabled": 0, "fusion_lat": 0.0, "name": "90506cfeb978192b650decebc066cada", "fusion_lon": 0.0}, {"is_reserved": 0, "type": "electric_scooter", "bike_id": "96524ab2e011ea9fa1a6132b206bb676", "lat": 38.88300566666667, "lon": -76.94853666666667, "rental_uris": {"android": "https://dc.lft.to/lastmile_qr_scan", "ios": "https://dc.lft.to/lastmile_qr_scan"}, "is_disabled": 0, "fusion_lat": 0.0, "name": "96524ab2e011ea9fa1a6132b206bb676", "fusion_lon": 0.0}, {"is_reserved": 0, "type": "electric_scooter", "bike_id": "a0e213301528fa931a82155df51da81d", "lat": 38.9009095, "lon": -77.04959366666667, "rental_uris": {"android": "https://dc.lft.to/lastmile_qr_scan", "ios": "https://dc.lft.to/lastmile_qr_scan"}, "is_disabled": 0, "fusion_lat": 0.0, "name": "a0e213301528fa931a82155df51da81d", "fusion_lon": 0.0}, {"is_reserved": 0, "type": "electric_scooter", "bike_id": "dce2a1c5030d320232748fac9e4d7210", "lat": 38.92269016666667, "lon": -77.01962366666666, "rental_uris": {"android": "https://dc.lft.to/lastmile_qr_scan", "ios": "https://dc.lft.to/lastmile_qr_scan"}, "is_disabled": 0, "fusion_lat": 0.0, "name": "dce2a1c5030d320232748fac9e4d7210", "fusion_lon": 0.0}, {"is_reserved": 0, "type": "electric_scooter", "bike_id": "098718afb65183152458bdb63483d66d", "lat": 38.909562, "lon": -77.03157066666667, "rental_uris": {"android": "https://dc.lft.to/lastmile_qr_scan", "ios": "https://dc.lft.to/lastmile_qr_scan"}, "is_disabled": 0, "fusion_lat": 0.0, "name": "098718afb65183152458bdb63483d66d", "fusion_lon": 0.0}, {"is_reserved": 0, "type": "electric_scooter", "bike_id": "d6c923fd044e86a3755e3019f0673cd3", "lat": 38.90573583333333, "lon": -77.0416665, "rental_uris": {"android": "https://dc.lft.to/lastmile_qr_scan", "ios": "https://dc.lft.to/lastmile_qr_scan"}, "is_disabled": 0, "fusion_lat": 0.0, "name": "d6c923fd044e86a3755e3019f0673cd3", "fusion_lon": 0.0}, {"is_reserved": 0, "type": "electric_scooter", "bike_id": "9a01af393d6dbeae950711f912200192", "lat": 38.93873766666667, "lon": -77.03213983333333, "rental_uris": {"android": "https://dc.lft.to/lastmile_qr_scan", "ios": "https://dc.lft.to/lastmile_qr_scan"}, "is_disabled": 0, "fusion_lat": 0.0, "name": "9a01af393d6dbeae950711f912200192", "fusion_lon": 0.0}, {"is_reserved": 0, "type": "electric_scooter", "bike_id": "9787ad13d33fb7351b7c462504f0aa34", "lat": 38.92490983333333, "lon": -77.02711666666667, "rental_uris": {"android": "https://dc.lft.to/lastmile_qr_scan", "ios": "https://dc.lft.to/lastmile_qr_scan"}, "is_disabled": 0, "fusion_lat": 0.0, "name": "9787ad13d33fb7351b7c462504f0aa34", "fusion_lon": 0.0}, {"is_reserved": 0, "type": "electric_scooter", "bike_id": "3bcf093a4fae9a8c90d21e2421c1041b", "lat": 38.9230415, "lon": -77.0301825, "rental_uris": {"android": "https://dc.lft.to/lastmile_qr_scan", "ios": "https://dc.lft.to/lastmile_qr_scan"}, "is_disabled": 0, "fusion_lat": 0.0, "name": "3bcf093a4fae9a8c90d21e2421c1041b", "fusion_lon": 0.0}, {"is_reserved": 0, "type": "electric_scooter", "bike_id": "e20418fa0536d5a2be9230502e20c410", "lat": 38.92188866666667, "lon": -77.04135816666667, "rental_uris": {"android": "https://dc.lft.to/lastmile_qr_scan", "ios": "https://dc.lft.to/lastmile_qr_scan"}, "is_disabled": 0, "fusion_lat": 0.0, "name": "e20418fa0536d5a2be9230502e20c410", "fusion_lon": 0.0}, {"is_reserved": 0, "type": "electric_scooter", "bike_id": "c52911d06d98a2fc8cdbf057ac05cbd8", "lat": 38.911069499999996, "lon": -77.073482, "rental_uris": {"android": "https://dc.lft.to/lastmile_qr_scan", "ios": "https://dc.lft.to/lastmile_qr_scan"}, "is_disabled": 0, "fusion_lat": 0.0, "name": "c52911d06d98a2fc8cdbf057ac05cbd8", "fusion_lon": 0.0}, {"is_reserved": 0, "type": "electric_scooter", "bike_id": "7727e10fc73e6f52b36222d1af47f8ca", "lat": 38.881956, "lon": -76.98902266666667, "rental_uris": {"android": "https://dc.lft.to/lastmile_qr_scan", "ios": "https://dc.lft.to/lastmile_qr_scan"}, "is_disabled": 0, "fusion_lat": 0.0, "name": "7727e10fc73e6f52b36222d1af47f8ca", "fusion_lon": 0.0},