{"data": {"bikes": [{"bike_id": "eb8ce5bbdddddccec9ff3020a2cf7a7f", "type": "electric_scooter", "is_disabled": 0, "lat": 38.91565633333333, "rental_uris": {"ios": "https://dc.lft.to/lastmile_qr_scan", "android": "https://dc.lft.to/lastmile_qr_scan"}, "is_reserved": 0, "fusion_lon": 0.0, "fusion_lat": 0.0, "lon": -77.02291583333333, "name": "eb8ce5bbdddddccec9ff3020a2cf7a7f"}, {"bike_id": "f4447e1b5652116f4a3ed9c1bbd243c4", "type": "electric_scooter", "is_disabled": 0, "lat": 38.925796166666665, "rental_uris": {"ios": "https://dc.lft.to/lastmile_qr_scan", "android": "https://dc.lft.to/lastmile_qr_scan"}, "is_reserved": 0, "fusion_lon": 0.0, "fusion_lat": 0.0, "lon": -77.05423033333334, "name": "f4447e1b5652116f4a3ed9c1bbd243c4"}, {"bike_id": "0d16eae0fa9e3ff1414d1f7f4cdf9813", "type": "electric_scooter", "is_disabled": 0, "lat": 38.90419333333333, "rental_uris": {"ios": "https://dc.lft.to/lastmile_qr_scan", "android": "https://dc.lft.to/lastmile_qr_scan"}, "is_reserved": 0, "fusion_lon": 0.0, "fusion_lat": 0.0, "lon": -76.9737105, "name": "0d16eae0fa9e3ff1414d1f7f4cdf9813"}, {"bike_id": "76a6fca75750f140d4156f2aba48a28c", "type": "electric_scooter", "is_disabled": 0, "lat": 38.866554, "rental_uris": {"ios": "https://dc.lft.to/lastmile_qr_scan", "android": "https://dc.lft.to/lastmile_qr_scan"}, "is_reserved": 0, "fusion_lon": 0.0, "fusion_lat": 0.0, "lon": -76.98888916666667, "name": "76a6fca75750f140d4156f2aba48a28c"}, {"bike_id": "afd06f7ce9490af92bf1fc9287f27a07", "type": "electric_scooter", "is_disabled": 0, "lat": 38.8980215, "rental_uris": {"ios": "https://dc.lft.to/lastmile_qr_scan", "android": "https://dc.lft.to/lastmile_qr_scan"}, "is_reserved": 0, "fusion_lon": 0.0, "fusion_lat": 0.0, "lon": -77.03063566666667, "name": "afd06f7ce9490af92bf1fc9287f27a07"}, {"bike_id": "5eade9a776808801a7d372d6360daaeb", "type": "electric_scooter", "is_disabled": 0, "lat": 38.900654833333334, "rental_uris": {"ios": "https://dc.lft.to/lastmile_qr_scan", "android": "https://dc.lft.to/lastmile_qr_scan"}, "is_reserved": 0, "fusion_lon": 0.0, "fusion_lat": 0.0, "lon": -77.045321, "name": "5eade9a776808801a7d372d6360daaeb"}, {"bike_id": "d4fcd44a96ce52d2dc1050e229e444af", "type": "electric_scooter", "is_disabled": 0, "lat": 38.86566033333333, "rental_uris": {"ios": "https://dc.lft.to/lastmile_qr_scan", "android": "https://dc.lft.to/lastmile_qr_scan"}, "is_reserved": 0, "fusion_lon": 0.0, "fusion_lat": 0.0, "lon": -76.98215583333334, "name": "d4fcd44a96ce52d2dc1050e229e444af"}, {"bike_id": "09028beb3e23c44d9bdbe7d343a0455b", "type": "electric_scooter", "is_disabled": 0, "lat": 38.89959533333333, "rental_uris": {"ios": "https://dc.lft.to/lastmile_qr_scan", "android": "https://dc.lft.to/lastmile_qr_scan"}, "is_reserved": 0, "fusion_lon": 0.0, "fusion_lat": 0.0, "lon": -76.9753655, "name": "09028beb3e23c44d9bdbe7d343a0455b"}, {"bike_id": "4076fa1f5dddeca421308cfe62ea578d", "type": "electric_scooter", "is_disabled": 0, "lat": 38.909871, "rental_uris": {"ios": "https://dc.lft.to/lastmile_qr_scan", "android": "https://dc.lft.to/lastmile_qr_scan"}, "is_reserved": 0, "fusion_lon": 0.0, "fusion_lat": 0.0, "lon": -77.0320205, "name": "4076fa1f5dddeca421308cfe62ea578d"}, {"bike_id": "4bda681a164312381b300bfdd75c386e", "type": "electric_scooter", "is_disabled": 0, "lat": 38.92450433333333, "rental_uris": {"ios": "https://dc.lft.to/lastmile_qr_scan", "android": "https://dc.lft.to/lastmile_qr_scan"}, "is_reserved": 0, "fusion_lon": 0.0, "fusion_lat": 0.0, "lon": -77.024122, "name": "4bda681a164312381b300bfdd75c386e"}, {"bike_id": "d67323cacea87e62d93eb692f6e461bb", "type": "electric_scooter", "is_disabled": 0, "lat": 38.92331183333334, "rental_uris": {"ios": "https://dc.lft.to/lastmile_qr_scan", "android": "https://dc.lft.to/lastmile_qr_scan"}, "is_reserved": 0, "fusion_lon": 0.0, "fusion_lat": 0.0, "lon": -77.0362, "name": "d67323cacea87e62d93eb692f6e461bb"}, {"bike_id": "2a6a8eae722cab10f3fd980ec1961302", "type": "electric_scooter", "is_disabled": 0, "lat": 38.9068945, "rental_uris": {"ios": "https://dc.lft.to/lastmile_qr_scan", "android": "https://dc.lft.to/lastmile_qr_scan"}, "is_reserved": 0, "fusion_lon": 0.0, "fusion_lat": 0.0, "lon": -77.00082966666666, "name": "2a6a8eae722cab10f3fd980ec1961302"}, {"bike_id": "0e8ccedf5e57ee1f4493b4daea2dfdb5", "type": "electric_scooter", "is_disabled": 0, "lat": 38.90960366666667, "rental_uris": {"ios": "https://dc.lft.to/lastmile_qr_scan", "android": "https://dc.lft.to/lastmile_qr_scan"}, "is_reserved": 0, "fusion_lon": 0.0, "fusion_lat": 0.0, "lon": -77.0238535, "name": "0e8ccedf5e57ee1f4493b4daea2dfdb5"}, {"bike_id": "8dd297472d4c5e827291d370b86dc866", "type": "electric_scooter", "is_disabled": 0, "lat": 38.89213266666667, "rental_uris": {"ios": "https://dc.lft.to/lastmile_qr_scan", "android": "https://dc.lft.to/lastmile_qr_scan"}, "is_reserved": 0, "fusion_lon": 0.0, "fusion_lat": 0.0, "lon": -77.02446333333333, "name": "8dd297472d4c5e827291d370b86dc866"}, {"bike_id": "aa455d7e7301a09765d6ccc455cc0cdb", "type": "electric_scooter", "is_disabled": 0, "lat": 38.897801, "rental_uris": {"ios": "https://dc.lft.to/lastmile_qr_scan", "android": "https://dc.lft.to/lastmile_qr_scan"}, "is_reserved": 0, "fusion_lon": 0.0, "fusion_lat": 0.0, "lon": -77.031825, "name": "aa455d7e7301a09765d6ccc455cc0cdb"}, {"bike_id": "86e0adc0696a09dc7d0129a1a2f5f6dc", "type": "electric_scooter", "is_disabled": 0, "lat": 38.90173866666667, "rental_uris": {"ios": "https://dc.lft.to/lastmile_qr_scan", "android": "https://dc.lft.to/lastmile_qr_scan"}, "is_reserved": 0, "fusion_lon": 0.0, "fusion_lat": 0.0, "lon": -76.98446433333334, "name": "86e0adc0696a09dc7d0129a1a2f5f6dc"}, {"bike_id": "f9ee276825f0b5820f01399d57a6571e", "type": "electric_bike", "is_disabled": 0, "lat": 38.854184333333336, "rental_uris": {"ios": "https://dc.lft.to/lastmile_qr_scan", "android": "https://dc.lft.to/lastmile_qr_scan"}, "is_reserved": 0, "fusion_lon": 0.0, "fusion_lat": 0.0, "lon": -77.12076216666667, "name": "f9ee276825f0b5820f01399d57a6571e"}, {"bike_id": "667e8a5f983218d94b256410f63445c5", "type": "electric_scooter", "is_disabled": 0, "lat": 38.942895166666666, "rental_uris": {"ios": "https://dc.lft.to/lastmile_qr_scan", "android": "https://dc.lft.to/lastmile_qr_scan"}, "is_reserved": 0, "fusion_lon": 0.0, "fusion_lat": 0.0, "lon": -77.021651, "name": "667e8a5f983218d94b256410f63445c5"}, {"bike_id": "1c7e0cf827429abc4c52c8aaee17355b", "type": "electric_scooter", "is_disabled": 0, "lat": 38.89551933333333, "rental_uris": {"ios": "https://dc.lft.to/lastmile_qr_scan", "android": "https://dc.lft.to/lastmile_qr_scan"}, "is_reserved": 0, "fusion_lon": 0.0, "fusion_lat": 0.0, "lon": -76.94946183333333, "name": "1c7e0cf827429abc4c52c8aaee17355b"}, {"bike_id": "b6e58cd9c21c2751a2458e1c2df4eee5", "type": "electric_scooter", "is_disabled": 0, "lat": 38.913188166666664, "rental_uris": {"ios": "https://dc.lft.to/lastmile_qr_scan", "android": "https://dc.lft.to/lastmile_qr_scan"}, "is_reserved": 0, "fusion_lon": 0.0, "fusion_lat": 0.0, "lon": -77.036569, "name": "b6e58cd9c21c2751a2458e1c2df4eee5"}, {"bike_id": "95ab9890c3ea137dfb101ae6b2fc9ea2", "type": "electric_scooter", "is_disabled": 0, "lat": 38.92233916666667, "rental_uris": {"ios": "https://dc.lft.to/lastmile_qr_scan", "android": "https://dc.lft.to/lastmile_qr_scan"}, "is_reserved": 0, "fusion_lon": 0.0, "fusion_lat": 0.0, "lon": -77.03662383333334, "name": "95ab9890c3ea137dfb101ae6b2fc9ea2"}, {"bike_id": "892224f4b5c3e16defa0f060ef0382ac", "type": "electric_scooter", "is_disabled": 0, "lat": 38.8670135, "rental_uris": {"ios": "https://dc.lft.to/lastmile_qr_scan", "android": "https://dc.lft.to/lastmile_qr_scan"}, "is_reserved": 0, "fusion_lon": 0.0, "fusion_lat": 0.0, "lon": -76.98712533333334, "name": "892224f4b5c3e16defa0f060ef0382ac"}, {"bike_id": "467389e3c040071f3e1984850a270211", "type": "electric_scooter", "is_disabled": 0, "lat": 38.91764666666667, "rental_uris": {"ios": "https://dc.lft.to/lastmile_qr_scan", "android": "https://dc.lft.to/lastmile_qr_scan"}, "is_reserved": 0, "fusion_lon": 0.0, "fusion_lat": 0.0, "lon": -77.0476565, "name": "467389e3c040071f3e1984850a270211"}, {"bike_id": "101197dcec1f9caa8b66922cc73f9137", "type": "electric_scooter", "is_disabled": 0, "lat": 38.866989333333336, "rental_uris": {"ios": "https://dc.lft.to/lastmile_qr_scan", "android": "https://dc.lft.to/lastmile_qr_scan"}, "is_reserved": 0, "fusion_lon": 0.0, "fusion_lat": 0.0, "lon": -76.98712266666666, "name": "101197dcec1f9caa8b66922cc73f9137"}, {"bike_id": "4671aaa22039486dba85a277f1123d2c", "type": "electric_scooter", "is_disabled": 0, "lat": 38.898829166666665, "rental_uris": {"ios": "https://dc.lft.to/lastmile_qr_scan", "android": "https://dc.lft.to/lastmile_qr_scan"}, "is_reserved": 0, "fusion_lon": 0.0, "fusion_lat": 0.0, "lon": -76.93173616666667, "name": "4671aaa22039486dba85a277f1123d2c"}, {"bike_id": "f8ee77b7345840bb26920c76e88221eb", "type": "electric_scooter", "is_disabled": 0, "lat": 38.878586166666665, "rental_uris": {"ios": "https://dc.lft.to/lastmile_qr_scan", "android": "https://dc.lft.to/lastmile_qr_scan"}, "is_reserved": 0, "fusion_lon": 0.0, "fusion_lat": 0.0, "lon": -77.01916166666666, "name": "f8ee77b7345840bb26920c76e88221eb"}, {"bike_id": "b6241c2d7acf3e7976be4dd725b0db95", "type": "electric_bike", "is_disabled": 0, "lat": 38.96919316666666, "rental_uris": {"ios": "https://dc.lft.to/lastmile_qr_scan", "android": "https://dc.lft.to/lastmile_qr_scan"}, "is_reserved": 0, "fusion_lon": 0.0, "fusion_lat": 0.0, "lon": -76.95793283333333, "name": "b6241c2d7acf3e7976be4dd725b0db95"}, {"bike_id": "4e091f83a7139523db4499622b1c3ce8", "type": "electric_scooter", "is_disabled": 0, "lat": 38.921494833333334, "rental_uris": {"ios": "https://dc.lft.to/lastmile_qr_scan", "android": "https://dc.lft.to/lastmile_qr_scan"}, "is_reserved": 0, "fusion_lon": 0.0, "fusion_lat": 0.0, "lon": -77.0436315, "name": "4e091f83a7139523db4499622b1c3ce8"}, {"bike_id": "dda61e8205dd7cd35e9b0cdd0749d006", "type": "electric_scooter", "is_disabled": 0, "lat": 38.892241166666665, "rental_uris": {"ios": "https://dc.lft.to/lastmile_qr_scan", "android": "https://dc.lft.to/lastmile_qr_scan"}, "is_reserved": 0, "fusion_lon": 0.0, "fusion_lat": 0.0, "lon": -77.02258833333333, "name": "dda61e8205dd7cd35e9b0cdd0749d006"}, {"bike_id": "e3bf579e3593b39a2add53e160633753", "type": "electric_scooter", "is_disabled": 0, "lat": 38.917860833333336, "rental_uris": {"ios": "https://dc.lft.to/lastmile_qr_scan", "android": "https://dc.lft.to/lastmile_qr_scan"}, "is_reserved": 0, "fusion_lon": 0.0, "fusion_lat": 0.0, "lon": -77.02289733333333, "name": "e3bf579e3593b39a2add53e160633753"}, {"bike_id": "8660b19fd585a5b71af4fca3b9480ecf", "type": "electric_scooter", "is_disabled": 0, "lat": 38.91547766666667, "rental_uris": {"ios": "https://dc.lft.to/lastmile_qr_scan", "android": "https://dc.lft.to/lastmile_qr_scan"}, "is_reserved": 0, "fusion_lon": 0.0, "fusion_lat": 0.0, "lon": -77.03173583333333, "name": "8660b19fd585a5b71af4fca3b9480ecf"}, {"bike_id": "f22513698ece4d4cc2352b358f5148c3", "type": "electric_scooter", "is_disabled": 0, "lat": 38.923151, "rental_uris": {"ios": "https://dc.lft.to/lastmile_qr_scan", "android": "https://dc.lft.to/lastmile_qr_scan"}, "is_reserved": 0, "fusion_lon": 0.0, "fusion_lat": 0.0, "lon": -77.04640283333333, "name": "f22513698ece4d4cc2352b358f5148c3"}, {"bike_id": "55068d256ae0f41280a1193b42349f89", "type": "electric_scooter", "is_disabled": 0, "lat": 38.907159, "rental_uris": {"ios": "https://dc.lft.to/lastmile_qr_scan", "android": "https://dc.lft.to/lastmile_qr_scan"}, "is_reserved": 0, "fusion_lon": 0.0, "fusion_lat": 0.0, "lon": -77.0225245, "name": "55068d256ae0f41280a1193b42349f89"}, {"bike_id": "7431217f8a8b78c0116cf8be2d0ee90f", "type": "electric_scooter", "is_disabled": 0, "lat": 38.91790966666667, "rental_uris": {"ios": "https://dc.lft.to/lastmile_qr_scan", "android": "https://dc.lft.to/lastmile_qr_scan"}, "is_reserved": 0, "fusion_lon": 0.0, "fusion_lat": 0.0, "lon": -77.03189216666667, "name": "7431217f8a8b78c0116cf8be2d0ee90f"}, {"bike_id": "a1d74e05f75a128d42684892f119f3b4", "type": "electric_scooter", "is_disabled": 0, "lat": 38.917254166666666, "rental_uris": {"ios": "https://dc.lft.to/lastmile_qr_scan", "android": "https://dc.lft.to/lastmile_qr_scan"}, "is_reserved": 0, "fusion_lon": 0.0, "fusion_lat": 0.0, "lon": -77.02599233333333, "name": "a1d74e05f75a128d42684892f119f3b4"}, {"bike_id": "1088b9438c14e6b3cf191ab38cc1013f", "type": "electric_scooter", "is_disabled": 0, "lat": 38.843126833333336, "rental_uris": {"ios": "https://dc.lft.to/lastmile_qr_scan", "android": "https://dc.lft.to/lastmile_qr_scan"}, "is_reserved": 0, "fusion_lon": 0.0, "fusion_lat": 0.0, "lon": -76.99922333333333, "name": "1088b9438c14e6b3cf191ab38cc1013f"}, {"bike_id": "445b523818f4eebc091f721f072c9b87", "type": "electric_bike", "is_disabled": 0, "lat": 38.86866833333333, "rental_uris": {"ios": "https://dc.lft.to/lastmile_qr_scan", "android": "https://dc.lft.to/lastmile_qr_scan"}, "is_reserved": 0, "fusion_lon": 0.0, "fusion_lat": 0.0, "lon": -76.97082416666667, "name": "445b523818f4eebc091f721f072c9b87"}, {"bike_id": "9a7d49aec05233a30edace53e8e53431", "type": "electric_scooter", "is_disabled": 0, "lat": 38.90829, "rental_uris": {"ios": "https://dc.lft.to/lastmile_qr_scan", "android": "https://dc.lft.to/lastmile_qr_scan"}, "is_reserved": 0, "fusion_lon": 0.0, "fusion_lat": 0.0, "lon": -77.03199533333333, "name": "9a7d49aec05233a30edace53e8e53431"}, {"bike_id": "2ffdda3857be3d6e6911353db3eea499", "type": "electric_scooter", "is_disabled": 0, "lat": 38.895356166666666, "rental_uris": {"ios": "https://dc.lft.to/lastmile_qr_scan", "android": "https://dc.lft.to/lastmile_qr_scan"}, "is_reserved": 0, "fusion_lon": 0.0, "fusion_lat": 0.0, "lon": -76.98854033333333, "name": "2ffdda3857be3d6e6911353db3eea499"}, {"bike_id": "d1fa8214df85a9a8227a7e6916e4681d", "type": "electric_bike", "is_disabled": 0, "lat": 38.947973, "rental_uris": {"ios": "https://dc.lft.to/lastmile_qr_scan", "android": "https://dc.lft.to/lastmile_qr_scan"}, "is_reserved": 0, "fusion_lon": 0.0, "fusion_lat": 0.0, "lon": -76.955405, "name": "d1fa8214df85a9a8227a7e6916e4681d"}, {"bike_id": "509f63bfdfb00b95f72e6c4f7cdc005e", "type": "electric_scooter", "is_disabled": 0, "lat": 38.9375145, "rental_uris": {"ios": "https://dc.lft.to/lastmile_qr_scan", "android": "https://dc.lft.to/lastmile_qr_scan"}, "is_reserved": 0, "fusion_lon": 0.0, "fusion_lat": 0.0, "lon": -77.03277916666667, "name": "509f63bfdfb00b95f72e6c4f7cdc005e"}, {"bike_id": "cf9c7a713fffae329c9a617733401a25", "type": "electric_scooter", "is_disabled": 0, "lat": 38.918008, "rental_uris": {"ios": "https://dc.lft.to/lastmile_qr_scan", "android": "https://dc.lft.to/lastmile_qr_scan"}, "is_reserved": 0, "fusion_lon": 0.0, "fusion_lat": 0.0, "lon": -77.03192483333333, "name": "cf9c7a713fffae329c9a617733401a25"}, {"bike_id": "ba90ef3fecb9184a0fc42317507e71d3", "type": "electric_scooter", "is_disabled": 0, "lat": 38.851581333333336, "rental_uris": {"ios": "https://dc.lft.to/lastmile_qr_scan", "android": "https://dc.lft.to/lastmile_qr_scan"}, "is_reserved": 0, "fusion_lon": 0.0, "fusion_lat": 0.0, "lon": -76.98801, "name": "ba90ef3fecb9184a0fc42317507e71d3"}, {"bike_id": "af0e1665e942bdef7bab2b5f86518905", "type": "electric_scooter", "is_disabled": 0, "lat": 38.9109535, "rental_uris": {"ios": "https://dc.lft.to/lastmile_qr_scan", "android": "https://dc.lft.to/lastmile_qr_scan"}, "is_reserved": 0, "fusion_lon": 0.0, "fusion_lat": 0.0, "lon": -77.02393333333333, "name": "af0e1665e942bdef7bab2b5f86518905"}, {"bike_id": "9d33720db5e88c5d72692d244e1a82ea", "type": "electric_scooter", "is_disabled": 0, "lat": 38.905082666666665, "rental_uris": {"ios": "https://dc.lft.to/lastmile_qr_scan", "android": "https://dc.lft.to/lastmile_qr_scan"}, "is_reserved": 0, "fusion_lon": 0.0, "fusion_lat": 0.0, "lon": -77.06852683333334, "name": "9d33720db5e88c5d72692d244e1a82ea"}, {"bike_id": "9d41c9757a888978f9d2a10210523a11", "type": "electric_scooter", "is_disabled": 0, "lat": 38.906032, "rental_uris": {"ios": "https://dc.lft.to/lastmile_qr_scan", "android": "https://dc.lft.to/lastmile_qr_scan"}, "is_reserved": 0, "fusion_lon": 0.0, "fusion_lat": 0.0, "lon": -76.98524133333333, "name": "9d41c9757a888978f9d2a10210523a11"}, {"bike_id": "f2c3cca377d53803624e792b94621fe1", "type": "electric_scooter", "is_disabled": 0, "lat": 38.919064666666664, "rental_uris": {"ios": "https://dc.lft.to/lastmile_qr_scan", "android": "https://dc.lft.to/lastmile_qr_scan"}, "is_reserved": 0, "fusion_lon": 0.0, "fusion_lat": 0.0, "lon": -77.03144666666667, "name": "f2c3cca377d53803624e792b94621fe1"}, {"bike_id": "83ea4d6763a3b1221281e7019b3f7e1e", "type": "electric_scooter", "is_disabled": 0, "lat": 38.924951, "rental_uris": {"ios": "https://dc.lft.to/lastmile_qr_scan", "android": "https://dc.lft.to/lastmile_qr_scan"}, "is_reserved": 0, "fusion_lon": 0.0, "fusion_lat": 0.0, "lon": -77.0244205, "name": "83ea4d6763a3b1221281e7019b3f7e1e"}, {"bike_id": "a80bc021fcd208c40a7e5baa62b573dd", "type": "electric_scooter", "is_disabled": 0, "lat": 38.91693583333333, "rental_uris": {"ios": "https://dc.lft.to/lastmile_qr_scan", "android": "https://dc.lft.to/lastmile_qr_scan"}, "is_reserved": 0, "fusion_lon": 0.0, "fusion_lat": 0.0, "lon": -77.03167583333334, "name": "a80bc021fcd208c40a7e5baa62b573dd"}, {"bike_id": "1f6bc75208a9a4f3f09abaa8fa7678de", "type": "electric_scooter", "is_disabled": 0, "lat": 38.91688283333333, "rental_uris": {"ios": "https://dc.lft.to/lastmile_qr_scan", "android": "https://dc.lft.to/lastmile_qr_scan"}, "is_reserved": 0, "fusion_lon": 0.0, "fusion_lat": 0.0, "lon": -77.03770616666667, "name": "1f6bc75208a9a4f3f09abaa8fa7678de"}, {"bike_id": "41abacd49b8437d4f694dc8842d6c7ad", "type": "electric_scooter", "is_disabled": 0, "lat": 38.91539133333333, "rental_uris": {"ios": "https://dc.lft.to/lastmile_qr_scan", "android": "https://dc.lft.to/lastmile_qr_scan"}, "is_reserved": 0, "fusion_lon": 0.0, "fusion_lat": 0.0, "lon": -77.02204583333334, "name": "41abacd49b8437d4f694dc8842d6c7ad"}, {"bike_id": "dc9763f4c074acf829108c7f42db26a4", "type": "electric_scooter", "is_disabled": 0, "lat": 38.9177705, "rental_uris": {"ios": "https://dc.lft.to/lastmile_qr_scan", "android": "https://dc.lft.to/lastmile_qr_scan"}, "is_reserved": 0, "fusion_lon": 0.0, "fusion_lat": 0.0, "lon": -77.02279616666667, "name": "dc9763f4c074acf829108c7f42db26a4"}, {"bike_id": "bf95dbe59713e57665af0bde72f12ec3", "type": "electric_scooter", "is_disabled": 0, "lat": 38.96550083333333, "rental_uris": {"ios": "https://dc.lft.to/lastmile_qr_scan", "android": "https://dc.lft.to/lastmile_qr_scan"}, "is_reserved": 0, "fusion_lon": 0.0, "fusion_lat": 0.0, "lon": -77.036253, "name": "bf95dbe59713e57665af0bde72f12ec3"}, {"bike_id": "7b738fcf5b9d9c00fb1096e80aac0388", "type": "electric_scooter", "is_disabled": 0, "lat": 38.90745666666667, "rental_uris": {"ios": "https://dc.lft.to/lastmile_qr_scan", "android": "https://dc.lft.to/lastmile_qr_scan"}, "is_reserved": 0, "fusion_lon": 0.0, "fusion_lat": 0.0, "lon": -77.03465, "name": "7b738fcf5b9d9c00fb1096e80aac0388"}, {"bike_id": "b163d328fe09a5371f3dd26aa93361e4", "type": "electric_scooter", "is_disabled": 0, "lat": 38.88519616666667, "rental_uris": {"ios": "https://dc.lft.to/lastmile_qr_scan", "android": "https://dc.lft.to/lastmile_qr_scan"}, "is_reserved": 0, "fusion_lon": 0.0, "fusion_lat": 0.0, "lon": -76.99089683333334, "name": "b163d328fe09a5371f3dd26aa93361e4"}, {"bike_id": "5e7f5e1ed3de79d9db9caae6c3b6af11", "type": "electric_scooter", "is_disabled": 0, "lat": 38.91419883333333, "rental_uris": {"ios": "https://dc.lft.to/lastmile_qr_scan", "android": "https://dc.lft.to/lastmile_qr_scan"}, "is_reserved": 0, "fusion_lon": 0.0, "fusion_lat": 0.0, "lon": -77.04811433333333, "name": "5e7f5e1ed3de79d9db9caae6c3b6af11"}, {"bike_id": "430a4ecad304cc43b874b793247627d2", "type": "electric_scooter", "is_disabled": 0, "lat": 38.91305083333334, "rental_uris": {"ios": "https://dc.lft.to/lastmile_qr_scan", "android": "https://dc.lft.to/lastmile_qr_scan"}, "is_reserved": 0, "fusion_lon": 0.0, "fusion_lat": 0.0, "lon": -77.04553733333333, "name": "430a4ecad304cc43b874b793247627d2"}, {"bike_id": "0e9f2cc8f4d661cf48c8d44f46b5f750", "type": "electric_bike", "is_disabled": 0, "lat": 38.872715, "rental_uris": {"ios": "https://dc.lft.to/lastmile_qr_scan", "android": "https://dc.lft.to/lastmile_qr_scan"}, "is_reserved": 0, "fusion_lon": 0.0, "fusion_lat": 0.0, "lon": -77.23247266666667, "name": "0e9f2cc8f4d661cf48c8d44f46b5f750"}, {"bike_id": "a1753860304e9d0ec42a8031612f2451", "type": "electric_bike", "is_disabled": 0, "lat": 38.883913, "rental_uris": {"ios": "https://dc.lft.to/lastmile_qr_scan", "android": "https://dc.lft.to/lastmile_qr_scan"}, "is_reserved": 0, "fusion_lon": 0.0, "fusion_lat": 0.0, "lon": -76.98541833333333, "name": "a1753860304e9d0ec42a8031612f2451"}, {"bike_id": "b3609e5b72ea4e0a4534e745753ceed8", "type": "electric_scooter", "is_disabled": 0, "lat": 38.90021216666667, "rental_uris": {"ios": "https://dc.lft.to/lastmile_qr_scan", "android": "https://dc.lft.to/lastmile_qr_scan"}, "is_reserved": 0, "fusion_lon": 0.0, "fusion_lat": 0.0, "lon": -77.0114915, "name": "b3609e5b72ea4e0a4534e745753ceed8"}, {"bike_id": "a1727b04c1a54cb9812e6c96369a5f5a", "type": "electric_scooter", "is_disabled": 0, "lat": 38.91253433333333, "rental_uris": {"ios": "https://dc.lft.to/lastmile_qr_scan", "android": "https://dc.lft.to/lastmile_qr_scan"}, "is_reserved": 0, "fusion_lon": 0.0, "fusion_lat": 0.0, "lon": -77.0317975, "name": "a1727b04c1a54cb9812e6c96369a5f5a"}, {"bike_id": "089eee01e94140a4c72a92ee11a7abc6", "type": "electric_scooter", "is_disabled": 0, "lat": 38.93399433333333, "rental_uris": {"ios": "https://dc.lft.to/lastmile_qr_scan", "android": "https://dc.lft.to/lastmile_qr_scan"}, "is_reserved": 0, "fusion_lon": 0.0, "fusion_lat": 0.0, "lon": -77.02205, "name": "089eee01e94140a4c72a92ee11a7abc6"}, {"bike_id": "473bb5a0d9d9d6dcbb3b396685c39ca4", "type": "electric_scooter", "is_disabled": 0, "lat": 38.86971616666666, "rental_uris": {"ios": "https://dc.lft.to/lastmile_qr_scan", "android": "https://dc.lft.to/lastmile_qr_scan"}, "is_reserved": 0, "fusion_lon": 0.0, "fusion_lat": 0.0, "lon": -76.98172183333334, "name": "473bb5a0d9d9d6dcbb3b396685c39ca4"}, {"bike_id": "bd6e2ba77d677bffb0362cdce709f29a", "type": "electric_scooter", "is_disabled": 0, "lat": 38.866505333333336, "rental_uris": {"ios": "https://dc.lft.to/lastmile_qr_scan", "android": "https://dc.lft.to/lastmile_qr_scan"}, "is_reserved": 0, "fusion_lon": 0.0, "fusion_lat": 0.0, "lon": -76.98888016666666, "name": "bd6e2ba77d677bffb0362cdce709f29a"}, {"bike_id": "e8ae968f38dda1ba144bbe907e0271cf", "type": "electric_scooter", "is_disabled": 0, "lat": 38.918444666666666, "rental_uris": {"ios": "https://dc.lft.to/lastmile_qr_scan", "android": "https://dc.lft.to/lastmile_qr_scan"}, "is_reserved": 0, "fusion_lon": 0.0, "fusion_lat": 0.0, "lon": -77.02511016666666, "name": "e8ae968f38dda1ba144bbe907e0271cf"}, {"bike_id": "2152b33231e7cd7ae58232d3366a4300", "type": "electric_scooter", "is_disabled": 0, "lat": 38.909425, "rental_uris": {"ios": "https://dc.lft.to/lastmile_qr_scan", "android": "https://dc.lft.to/lastmile_qr_scan"}, "is_reserved": 0, "fusion_lon": 0.0, "fusion_lat": 0.0, "lon": -77.0424815, "name": "2152b33231e7cd7ae58232d3366a4300"}, {"bike_id": "71dc08416f51c353f09c861f5ab75299", "type": "electric_scooter", "is_disabled": 0, "lat": 38.935155, "rental_uris": {"ios": "https://dc.lft.to/lastmile_qr_scan", "android": "https://dc.lft.to/lastmile_qr_scan"}, "is_reserved": 0, "fusion_lon": 0.0, "fusion_lat": 0.0, "lon": -77.033865, "name": "71dc08416f51c353f09c861f5ab75299"}, {"bike_id": "0f78fc26657fb5ad1ee60cb2a6e41260", "type": "electric_scooter", "is_disabled": 0, "lat": 38.899594, "rental_uris": {"ios": "https://dc.lft.to/lastmile_qr_scan", "android": "https://dc.lft.to/lastmile_qr_scan"}, "is_reserved": 0, "fusion_lon": 0.0, "fusion_lat": 0.0, "lon": -77.033854, "name": "0f78fc26657fb5ad1ee60cb2a6e41260"}, {"bike_id": "0973953e60564c7508c4f8dfbfbf65e7", "type": "electric_scooter", "is_disabled": 0, "lat": 38.92432683333333, "rental_uris": {"ios": "https://dc.lft.to/lastmile_qr_scan", "android": "https://dc.lft.to/lastmile_qr_scan"}, "is_reserved": 0, "fusion_lon": 0.0, "fusion_lat": 0.0, "lon": -77.04023666666667, "name": "0973953e60564c7508c4f8dfbfbf65e7"}, {"bike_id": "7cd15fc9ce3becfd32094f5a0f741b69", "type": "electric_bike", "is_disabled": 0, "lat": 38.91012833333333, "rental_uris": {"ios": "https://dc.lft.to/lastmile_qr_scan", "android": "https://dc.lft.to/lastmile_qr_scan"}, "is_reserved": 0, "fusion_lon": 0.0, "fusion_lat": 0.0, "lon": -77.2279665, "name": "7cd15fc9ce3becfd32094f5a0f741b69"}, {"bike_id": "00bbcadb2fc71fa23ffcabeabf0a476e", "type": "electric_scooter", "is_disabled": 0, "lat": 38.897754166666665, "rental_uris": {"ios": "https://dc.lft.to/lastmile_qr_scan", "android": "https://dc.lft.to/lastmile_qr_scan"}, "is_reserved": 0, "fusion_lon": 0.0, "fusion_lat": 0.0, "lon": -77.00146316666667, "name": "00bbcadb2fc71fa23ffcabeabf0a476e"}, {"bike_id": "6b06c691d7dc0c3b608a6a43ea9d87b3", "type": "electric_scooter", "is_disabled": 0, "lat": 38.88278416666667, "rental_uris": {"ios": "https://dc.lft.to/lastmile_qr_scan", "android": "https://dc.lft.to/lastmile_qr_scan"}, "is_reserved": 0, "fusion_lon": 0.0, "fusion_lat": 0.0, "lon": -77.0214555, "name": "6b06c691d7dc0c3b608a6a43ea9d87b3"}, {"bike_id": "63602492521924c20a0db6e017988790", "type": "electric_scooter", "is_disabled": 0, "lat": 38.92242816666667, "rental_uris": {"ios": "https://dc.lft.to/lastmile_qr_scan", "android": "https://dc.lft.to/lastmile_qr_scan"}, "is_reserved": 0, "fusion_lon": 0.0, "fusion_lat": 0.0, "lon": -77.04195583333333, "name": "63602492521924c20a0db6e017988790"}, {"bike_id": "0e8ec7d3aa00047aab1089894ecfe13c", "type": "electric_scooter", "is_disabled": 0, "lat": 38.8991555, "rental_uris": {"ios": "https://dc.lft.to/lastmile_qr_scan", "android": "https://dc.lft.to/lastmile_qr_scan"}, "is_reserved": 0, "fusion_lon": 0.0, "fusion_lat": 0.0, "lon": -76.933689, "name": "0e8ec7d3aa00047aab1089894ecfe13c"}, {"bike_id": "0c0d543e6ba0233c3f979472301e8fe4", "type": "electric_scooter", "is_disabled": 0, "lat": 38.905037166666666, "rental_uris": {"ios": "https://dc.lft.to/lastmile_qr_scan", "android": "https://dc.lft.to/lastmile_qr_scan"}, "is_reserved": 0, "fusion_lon": 0.0, "fusion_lat": 0.0, "lon": -77.02949916666667, "name": "0c0d543e6ba0233c3f979472301e8fe4"}, {"bike_id": "b983e6d0d33d6c2e9168e3c34cab90cf", "type": "electric_scooter", "is_disabled": 0, "lat": 38.910915, "rental_uris": {"ios": "https://dc.lft.to/lastmile_qr_scan", "android": "https://dc.lft.to/lastmile_qr_scan"}, "is_reserved": 0, "fusion_lon": 0.0, "fusion_lat": 0.0, "lon": -77.01681066666667, "name": "b983e6d0d33d6c2e9168e3c34cab90cf"}, {"bike_id": "8ece0ccf6b9fa970400532b1730e6d9c", "type": "electric_scooter", "is_disabled": 0, "lat": 38.934499833333334, "rental_uris": {"ios": "https://dc.lft.to/lastmile_qr_scan", "android": "https://dc.lft.to/lastmile_qr_scan"}, "is_reserved": 0, "fusion_lon": 0.0, "fusion_lat": 0.0, "lon": -77.045308, "name": "8ece0ccf6b9fa970400532b1730e6d9c"}, {"bike_id": "c21942acdda2e1c3d68fb26aa0aaded1", "type": "electric_scooter", "is_disabled": 0, "lat": 38.9194775, "rental_uris": {"ios": "https://dc.lft.to/lastmile_qr_scan", "android": "https://dc.lft.to/lastmile_qr_scan"}, "is_reserved": 0, "fusion_lon": 0.0, "fusion_lat": 0.0, "lon": -77.04158333333334, "name": "c21942acdda2e1c3d68fb26aa0aaded1"}, {"bike_id": "a3e60b509e593e3d2268f6b5bf3dbd3a", "type": "electric_bike", "is_disabled": 0, "lat": 38.922354166666665, "rental_uris": {"ios": "https://dc.lft.to/lastmile_qr_scan", "android": "https://dc.lft.to/lastmile_qr_scan"}, "is_reserved": 0, "fusion_lon": 0.0, "fusion_lat": 0.0, "lon": -77.04477766666666, "name": "a3e60b509e593e3d2268f6b5bf3dbd3a"}, {"bike_id": "df726a37df8e6ed5a4f3f655898cb7f1", "type": "electric_scooter", "is_disabled": 0, "lat": 38.9109065, "rental_uris": {"ios": "https://dc.lft.to/lastmile_qr_scan", "android": "https://dc.lft.to/lastmile_qr_scan"}, "is_reserved": 0, "fusion_lon": 0.0, "fusion_lat": 0.0, "lon": -77.02386433333334, "name": "df726a37df8e6ed5a4f3f655898cb7f1"}, {"bike_id": "fc98ecc5a1a5edd294b9ebf39505b7fa", "type": "electric_scooter", "is_disabled": 0, "lat": 38.8972255, "rental_uris": {"ios": "https://dc.lft.to/lastmile_qr_scan", "android": "https://dc.lft.to/lastmile_qr_scan"}, "is_reserved": 0, "fusion_lon": 0.0, "fusion_lat": 0.0, "lon": -77.024501, "name": "fc98ecc5a1a5edd294b9ebf39505b7fa"}, {"bike_id": "48292f3a58a3d7faa5e526eafbb4583f", "type": "electric_scooter", "is_disabled": 0, "lat": 38.922302, "rental_uris": {"ios": "https://dc.lft.to/lastmile_qr_scan", "android": "https://dc.lft.to/lastmile_qr_scan"}, "is_reserved": 0, "fusion_lon": 0.0, "fusion_lat": 0.0, "lon": -77.04265, "name": "48292f3a58a3d7faa5e526eafbb4583f"}, {"bike_id": "4d694ae3f7ae8a9c4f79bb35f29ad478", "type": "electric_scooter", "is_disabled": 0, "lat": 38.920626, "rental_uris": {"ios": "https://dc.lft.to/lastmile_qr_scan", "android": "https://dc.lft.to/lastmile_qr_scan"}, "is_reserved": 0, "fusion_lon": 0.0, "fusion_lat": 0.0, "lon": -77.02236283333333, "name": "4d694ae3f7ae8a9c4f79bb35f29ad478"}, {"bike_id": "454a9771f5cc3a8e86c36a13aecbca5a", "type": "electric_bike", "is_disabled": 0, "lat": 38.9129885, "rental_uris": {"ios": "https://dc.lft.to/lastmile_qr_scan", "android": "https://dc.lft.to/lastmile_qr_scan"}, "is_reserved": 0, "fusion_lon": 0.0, "fusion_lat": 0.0, "lon": -77.00640816666667, "name": "454a9771f5cc3a8e86c36a13aecbca5a"}, {"bike_id": "9071440e39cbc5edd7cd8d83b0c6bb1a", "type": "electric_scooter", "is_disabled": 0, "lat": 38.892854666666665, "rental_uris": {"ios": "https://dc.lft.to/lastmile_qr_scan", "android": "https://dc.lft.to/lastmile_qr_scan"}, "is_reserved": 0, "fusion_lon": 0.0, "fusion_lat": 0.0, "lon": -77.044827, "name": "9071440e39cbc5edd7cd8d83b0c6bb1a"}, {"bike_id": "75361e39354f619d3f3014c2b8528e0e", "type": "electric_scooter", "is_disabled": 0, "lat": 38.91257, "rental_uris": {"ios": "https://dc.lft.to/lastmile_qr_scan", "android": "https://dc.lft.to/lastmile_qr_scan"}, "is_reserved": 0, "fusion_lon": 0.0, "fusion_lat": 0.0, "lon": -77.03140116666667, "name": "75361e39354f619d3f3014c2b8528e0e"}, {"bike_id": "c1f218ad62d0f6146fc2fa309d17f675", "type": "electric_scooter", "is_disabled": 0, "lat": 38.93338883333333, "rental_uris": {"ios": "https://dc.lft.to/lastmile_qr_scan", "android": "https://dc.lft.to/lastmile_qr_scan"}, "is_reserved": 0, "fusion_lon": 0.0, "fusion_lat": 0.0, "lon": -77.03986833333333, "name": "c1f218ad62d0f6146fc2fa309d17f675"}, {"bike_id": "84753bab2fe959175e5858f87c53d99b", "type": "electric_scooter", "is_disabled": 0, "lat": 38.91187466666667, "rental_uris": {"ios": "https://dc.lft.to/lastmile_qr_scan", "android": "https://dc.lft.to/lastmile_qr_scan"}, "is_reserved": 0, "fusion_lon": 0.0, "fusion_lat": 0.0, "lon": -77.03196166666666, "name": "84753bab2fe959175e5858f87c53d99b"}, {"bike_id": "9d8ba3b814acf1043d2a8c3e02e18bbe", "type": "electric_scooter", "is_disabled": 0, "lat": 38.942912, "rental_uris": {"ios": "https://dc.lft.to/lastmile_qr_scan", "android": "https://dc.lft.to/lastmile_qr_scan"}, "is_reserved": 0, "fusion_lon": 0.0, "fusion_lat": 0.0, "lon": -77.0216865, "name": "9d8ba3b814acf1043d2a8c3e02e18bbe"}, {"bike_id": "1bbc13830fd2d2511cab1bc338c9490b", "type": "electric_scooter", "is_disabled": 0, "lat": 38.9168915, "rental_uris": {"ios": "https://dc.lft.to/lastmile_qr_scan", "android": "https://dc.lft.to/lastmile_qr_scan"}, "is_reserved": 0, "fusion_lon": 0.0, "fusion_lat": 0.0, "lon": -77.02514333333333, "name": "1bbc13830fd2d2511cab1bc338c9490b"}, {"bike_id": "209b4fd9f2c69149bb279929eef9ad4d", "type": "electric_scooter", "is_disabled": 0, "lat": 38.901193166666665, "rental_uris": {"ios": "https://dc.lft.to/lastmile_qr_scan", "android": "https://dc.lft.to/lastmile_qr_scan"}, "is_reserved": 0, "fusion_lon": 0.0, "fusion_lat": 0.0, "lon": -77.02791616666667, "name": "209b4fd9f2c69149bb279929eef9ad4d"}, {"bike_id": "55228d54488c328dde58f3798fc0b0f3", "type": "electric_bike", "is_disabled": 0, "lat": 38.81978316666667, "rental_uris": {"ios": "https://dc.lft.to/lastmile_qr_scan", "android": "https://dc.lft.to/lastmile_qr_scan"}, "is_reserved": 0, "fusion_lon": 0.0, "fusion_lat": 0.0, "lon": -76.998071, "name": "55228d54488c328dde58f3798fc0b0f3"}, {"bike_id": "f7a5da9e5599d5af709220c9dc0ceeed", "type": "electric_scooter", "is_disabled": 0, "lat": 38.905176833333336, "rental_uris": {"ios": "https://dc.lft.to/lastmile_qr_scan", "android": "https://dc.lft.to/lastmile_qr_scan"}, "is_reserved": 0, "fusion_lon": 0.0, "fusion_lat": 0.0, "lon": -77.05004866666667, "name": "f7a5da9e5599d5af709220c9dc0ceeed"}, {"bike_id": "e8fc1d7f0528f32f8b808e66314ed6e2", "type": "electric_bike", "is_disabled": 0, "lat": 39.05781016666667, "rental_uris": {"ios": "https://dc.lft.to/lastmile_qr_scan", "android": "https://dc.lft.to/lastmile_qr_scan"}, "is_reserved": 0, "fusion_lon": 0.0, "fusion_lat": 0.0, "lon": -77.1501345, "name": "e8fc1d7f0528f32f8b808e66314ed6e2"}, {"bike_id": "c12e98159db2d514a10a43037ab0e267", "type": "electric_scooter", "is_disabled": 0, "lat": 38.91103566666666, "rental_uris": {"ios": "https://dc.lft.to/lastmile_qr_scan", "android": "https://dc.lft.to/lastmile_qr_scan"}, "is_reserved": 0, "fusion_lon": 0.0, "fusion_lat": 0.0, "lon": -77.0447315, "name": "c12e98159db2d514a10a43037ab0e267"}, {"bike_id": "fcee25f5673c9efc7797c3b142397dac", "type": "electric_scooter", "is_disabled": 0, "lat": 38.900681166666665, "rental_uris": {"ios": "https://dc.lft.to/lastmile_qr_scan", "android": "https://dc.lft.to/lastmile_qr_scan"}, "is_reserved": 0, "fusion_lon": 0.0, "fusion_lat": 0.0, "lon": -76.990098, "name": "fcee25f5673c9efc7797c3b142397dac"}, {"bike_id": "2d370d66758022a3f19fa0c4eb903a70", "type": "electric_scooter", "is_disabled": 0, "lat": 38.916496, "rental_uris": {"ios": "https://dc.lft.to/lastmile_qr_scan", "android": "https://dc.lft.to/lastmile_qr_scan"}, "is_reserved": 0, "fusion_lon": 0.0, "fusion_lat": 0.0, "lon": -77.02401266666666, "name": "2d370d66758022a3f19fa0c4eb903a70"}, {"bike_id": "b0c0ee6664be7bd99a0bb9fcf4f06e09", "type": "electric_scooter", "is_disabled": 0, "lat": 38.897306, "rental_uris": {"ios": "https://dc.lft.to/lastmile_qr_scan", "android": "https://dc.lft.to/lastmile_qr_scan"}, "is_reserved": 0, "fusion_lon": 0.0, "fusion_lat": 0.0, "lon": -77.05476416666667, "name": "b0c0ee6664be7bd99a0bb9fcf4f06e09"}, {"bike_id": "4a524948b83b0c60c791f22349e101b5", "type": "electric_scooter", "is_disabled": 0, "lat": 38.88501683333333, "rental_uris": {"ios": "https://dc.lft.to/lastmile_qr_scan", "android": "https://dc.lft.to/lastmile_qr_scan"}, "is_reserved": 0, "fusion_lon": 0.0, "fusion_lat": 0.0, "lon": -76.9771305, "name": "4a524948b83b0c60c791f22349e101b5"}, {"bike_id": "82d28e11a215674756a975a56eb96e63", "type": "electric_scooter", "is_disabled": 0, "lat": 38.852052666666665, "rental_uris": {"ios": "https://dc.lft.to/lastmile_qr_scan", "android": "https://dc.lft.to/lastmile_qr_scan"}, "is_reserved": 0, "fusion_lon": 0.0, "fusion_lat": 0.0, "lon": -76.98555516666667, "name": "82d28e11a215674756a975a56eb96e63"}, {"bike_id": "a48c0e3393f60b426024eb448f0ad963", "type": "electric_scooter", "is_disabled": 0, "lat": 38.87116816666666, "rental_uris": {"ios": "https://dc.lft.to/lastmile_qr_scan", "android": "https://dc.lft.to/lastmile_qr_scan"}, "is_reserved": 0, "fusion_lon": 0.0, "fusion_lat": 0.0, "lon": -76.98239216666667, "name": "a48c0e3393f60b426024eb448f0ad963"}, {"bike_id": "46106f8f09bad0f242a0bf088ff96dbc", "type": "electric_scooter", "is_disabled": 0, "lat": 38.902640833333336, "rental_uris": {"ios": "https://dc.lft.to/lastmile_qr_scan", "android": "https://dc.lft.to/lastmile_qr_scan"}, "is_reserved": 0, "fusion_lon": 0.0, "fusion_lat": 0.0, "lon": -77.03003933333333, "name": "46106f8f09bad0f242a0bf088ff96dbc"}, {"bike_id": "71c9c82bb6c5590881ca1b2e45e9a7e3", "type": "electric_scooter", "is_disabled": 0, "lat": 38.85710133333333, "rental_uris": {"ios": "https://dc.lft.to/lastmile_qr_scan", "android": "https://dc.lft.to/lastmile_qr_scan"}, "is_reserved": 0, "fusion_lon": 0.0, "fusion_lat": 0.0, "lon": -76.98986233333333, "name": "71c9c82bb6c5590881ca1b2e45e9a7e3"}, {"bike_id": "884c8934dcf9c0f35594061d9193d999", "type": "electric_scooter", "is_disabled": 0, "lat": 38.9025195, "rental_uris": {"ios": "https://dc.lft.to/lastmile_qr_scan", "android": "https://dc.lft.to/lastmile_qr_scan"}, "is_reserved": 0, "fusion_lon": 0.0, "fusion_lat": 0.0, "lon": -77.01757683333334, "name": "884c8934dcf9c0f35594061d9193d999"}, {"bike_id": "5d10b96069cf4959c8f69774a37c133a", "type": "electric_scooter", "is_disabled": 0, "lat": 38.9018495, "rental_uris": {"ios": "https://dc.lft.to/lastmile_qr_scan", "android": "https://dc.lft.to/lastmile_qr_scan"}, "is_reserved": 0, "fusion_lon": 0.0, "fusion_lat": 0.0, "lon": -77.0504205, "name": "5d10b96069cf4959c8f69774a37c133a"}, {"bike_id": "304a262690ebb2494e905c3289091737", "type": "electric_scooter", "is_disabled": 0, "lat": 38.9023655, "rental_uris": {"ios": "https://dc.lft.to/lastmile_qr_scan", "android": "https://dc.lft.to/lastmile_qr_scan"}, "is_reserved": 0, "fusion_lon": 0.0, "fusion_lat": 0.0, "lon": -77.00191783333334, "name": "304a262690ebb2494e905c3289091737"}, {"bike_id": "d022cd67048f411142bdd38d8e03d29f", "type": "electric_bike", "is_disabled": 0, "lat": 38.9322915, "rental_uris": {"ios": "https://dc.lft.to/lastmile_qr_scan", "android": "https://dc.lft.to/lastmile_qr_scan"}, "is_reserved": 0, "fusion_lon": 0.0, "fusion_lat": 0.0, "lon": -77.18119716666666, "name": "d022cd67048f411142bdd38d8e03d29f"}, {"bike_id": "91f5275fce84f62e4796e0c75916c0b8", "type": "electric_scooter", "is_disabled": 0, "lat": 38.92151233333333, "rental_uris": {"ios": "https://dc.lft.to/lastmile_qr_scan", "android": "https://dc.lft.to/lastmile_qr_scan"}, "is_reserved": 0, "fusion_lon": 0.0, "fusion_lat": 0.0, "lon": -77.03517016666666, "name": "91f5275fce84f62e4796e0c75916c0b8"}, {"bike_id": "39818190b69deb05eb1b8a712be334cc", "type": "electric_scooter", "is_disabled": 0, "lat": 38.89224, "rental_uris": {"ios": "https://dc.lft.to/lastmile_qr_scan", "android": "https://dc.lft.to/lastmile_qr_scan"}, "is_reserved": 0, "fusion_lon": 0.0, "fusion_lat": 0.0, "lon": -77.03021583333333, "name": "39818190b69deb05eb1b8a712be334cc"}, {"bike_id": "3b097ee6be677970ab6e62640fbe458e", "type": "electric_scooter", "is_disabled": 0, "lat": 38.900309166666666, "rental_uris": {"ios": "https://dc.lft.to/lastmile_qr_scan", "android": "https://dc.lft.to/lastmile_qr_scan"}, "is_reserved": 0, "fusion_lon": 0.0, "fusion_lat": 0.0, "lon": -77.00196816666667, "name": "3b097ee6be677970ab6e62640fbe458e"}, {"bike_id": "8701fcdff55c735d91077d86d9e3cc23", "type": "electric_scooter", "is_disabled": 0, "lat": 38.904652, "rental_uris": {"ios": "https://dc.lft.to/lastmile_qr_scan", "android": "https://dc.lft.to/lastmile_qr_scan"}, "is_reserved": 0, "fusion_lon": 0.0, "fusion_lat": 0.0, "lon": -76.97611316666666, "name": "8701fcdff55c735d91077d86d9e3cc23"}, {"bike_id": "c92993ce395626ca54b02f014b80089b", "type": "electric_scooter", "is_disabled": 0, "lat": 38.916071333333335, "rental_uris": {"ios": "https://dc.lft.to/lastmile_qr_scan", "android": "https://dc.lft.to/lastmile_qr_scan"}, "is_reserved": 0, "fusion_lon": 0.0, "fusion_lat": 0.0, "lon": -77.04872766666666, "name": "c92993ce395626ca54b02f014b80089b"}, {"bike_id": "6224abe2bf14364ab95a6ed37399cb12", "type": "electric_scooter", "is_disabled": 0, "lat": 38.9067675, "rental_uris": {"ios": "https://dc.lft.to/lastmile_qr_scan", "android": "https://dc.lft.to/lastmile_qr_scan"}, "is_reserved": 0, "fusion_lon": 0.0, "fusion_lat": 0.0, "lon": -76.97997283333333, "name": "6224abe2bf14364ab95a6ed37399cb12"}, {"bike_id": "370daaf4e1502d3d3d01ff19556070f7", "type": "electric_scooter", "is_disabled": 0, "lat": 38.90469433333333, "rental_uris": {"ios": "https://dc.lft.to/lastmile_qr_scan", "android": "https://dc.lft.to/lastmile_qr_scan"}, "is_reserved": 0, "fusion_lon": 0.0, "fusion_lat": 0.0, "lon": -77.0435805, "name": "370daaf4e1502d3d3d01ff19556070f7"}, {"bike_id": "5f2c43c310eece482d888a012578321b", "type": "electric_scooter", "is_disabled": 0, "lat": 38.946439166666664, "rental_uris": {"ios": "https://dc.lft.to/lastmile_qr_scan", "android": "https://dc.lft.to/lastmile_qr_scan"}, "is_reserved": 0, "fusion_lon": 0.0, "fusion_lat": 0.0, "lon": -77.07917433333333, "name": "5f2c43c310eece482d888a012578321b"}, {"bike_id": "7859c948c5b2d6e44dead5aee7eea556", "type": "electric_scooter", "is_disabled": 0, "lat": 38.9296105, "rental_uris": {"ios": "https://dc.lft.to/lastmile_qr_scan", "android": "https://dc.lft.to/lastmile_qr_scan"}, "is_reserved": 0, "fusion_lon": 0.0, "fusion_lat": 0.0, "lon": -77.04368183333334, "name": "7859c948c5b2d6e44dead5aee7eea556"}, {"bike_id": "46264e3dc54af33bdd83f3e26fc86adf", "type": "electric_scooter", "is_disabled": 0, "lat": 38.91424933333333, "rental_uris": {"ios": "https://dc.lft.to/lastmile_qr_scan", "android": "https://dc.lft.to/lastmile_qr_scan"}, "is_reserved": 0, "fusion_lon": 0.0, "fusion_lat": 0.0, "lon": -77.0320835, "name": "46264e3dc54af33bdd83f3e26fc86adf"}, {"bike_id": "6927518ea5f497a0c2560276d81a5b55", "type": "electric_scooter", "is_disabled": 0, "lat": 38.92868716666667, "rental_uris": {"ios": "https://dc.lft.to/lastmile_qr_scan", "android": "https://dc.lft.to/lastmile_qr_scan"}, "is_reserved": 0, "fusion_lon": 0.0, "fusion_lat": 0.0, "lon": -77.02770016666666, "name": "6927518ea5f497a0c2560276d81a5b55"}, {"bike_id": "5b58f18cf4f5cfea2ab871e65d086dfb", "type": "electric_scooter", "is_disabled": 0, "lat": 38.910748166666664, "rental_uris": {"ios": "https://dc.lft.to/lastmile_qr_scan", "android": "https://dc.lft.to/lastmile_qr_scan"}, "is_reserved": 0, "fusion_lon": 0.0, "fusion_lat": 0.0, "lon": -77.03717016666667, "name": "5b58f18cf4f5cfea2ab871e65d086dfb"}, {"bike_id": "254bdc271513db305a9f21868cd416f7", "type": "electric_scooter", "is_disabled": 0, "lat": 38.8765565, "rental_uris": {"ios": "https://dc.lft.to/lastmile_qr_scan", "android": "https://dc.lft.to/lastmile_qr_scan"}, "is_reserved": 0, "fusion_lon": 0.0, "fusion_lat": 0.0, "lon": -77.00441, "name": "254bdc271513db305a9f21868cd416f7"}, {"bike_id": "7e3b16a8a2f764f26fae97e4e0bd8f17", "type": "electric_scooter", "is_disabled": 0, "lat": 38.92471183333333, "rental_uris": {"ios": "https://dc.lft.to/lastmile_qr_scan", "android": "https://dc.lft.to/lastmile_qr_scan"}, "is_reserved": 0, "fusion_lon": 0.0, "fusion_lat": 0.0, "lon": -77.0271435, "name": "7e3b16a8a2f764f26fae97e4e0bd8f17"}, {"bike_id": "1581deefba55354a39465fe10621117c", "type": "electric_scooter", "is_disabled": 0, "lat": 38.93136116666667, "rental_uris": {"ios": "https://dc.lft.to/lastmile_qr_scan", "android": "https://dc.lft.to/lastmile_qr_scan"}, "is_reserved": 0, "fusion_lon": 0.0, "fusion_lat": 0.0, "lon": -77.03356466666666, "name": "1581deefba55354a39465fe10621117c"}, {"bike_id": "0928c2debb20bcbcfde992c6e8bcc53d", "type": "electric_scooter", "is_disabled": 0, "lat": 38.909521, "rental_uris": {"ios": "https://dc.lft.to/lastmile_qr_scan", "android": "https://dc.lft.to/lastmile_qr_scan"}, "is_reserved": 0, "fusion_lon": 0.0, "fusion_lat": 0.0, "lon": -77.03350633333334, "name": "0928c2debb20bcbcfde992c6e8bcc53d"}, {"bike_id": "bf3c788151f049476170e1c97dbc4f7a", "type": "electric_scooter", "is_disabled": 0, "lat": 38.917077, "rental_uris": {"ios": "https://dc.lft.to/lastmile_qr_scan", "android": "https://dc.lft.to/lastmile_qr_scan"}, "is_reserved": 0, "fusion_lon": 0.0, "fusion_lat": 0.0, "lon": -77.03470416666667, "name": "bf3c788151f049476170e1c97dbc4f7a"}, {"bike_id": "355e8a749ac4a10dac9640aeacaa1ed7", "type": "electric_scooter", "is_disabled": 0, "lat": 38.9000695, "rental_uris": {"ios": "https://dc.lft.to/lastmile_qr_scan", "android": "https://dc.lft.to/lastmile_qr_scan"}, "is_reserved": 0, "fusion_lon": 0.0, "fusion_lat": 0.0, "lon": -76.98812466666666, "name": "355e8a749ac4a10dac9640aeacaa1ed7"}, {"bike_id": "67cb8ec4cd136ae9f5537daf0e1de2c5", "type": "electric_scooter", "is_disabled": 0, "lat": 38.923869833333335, "rental_uris": {"ios": "https://dc.lft.to/lastmile_qr_scan", "android": "https://dc.lft.to/lastmile_qr_scan"}, "is_reserved": 0, "fusion_lon": 0.0, "fusion_lat": 0.0, "lon": -77.0504505, "name": "67cb8ec4cd136ae9f5537daf0e1de2c5"}, {"bike_id": "25b4670dd1f8465a4194510ccab5e2e8", "type": "electric_scooter", "is_disabled": 0, "lat": 38.8870825, "rental_uris": {"ios": "https://dc.lft.to/lastmile_qr_scan", "android": "https://dc.lft.to/lastmile_qr_scan"}, "is_reserved": 0, "fusion_lon": 0.0, "fusion_lat": 0.0, "lon": -77.02204183333333, "name": "25b4670dd1f8465a4194510ccab5e2e8"}, {"bike_id": "43635362b6adcfe6782424501ec433f6", "type": "electric_bike", "is_disabled": 0, "lat": 38.96311566666667, "rental_uris": {"ios": "https://dc.lft.to/lastmile_qr_scan", "android": "https://dc.lft.to/lastmile_qr_scan"}, "is_reserved": 0, "fusion_lon": 0.0, "fusion_lat": 0.0, "lon": -76.97356166666667, "name": "43635362b6adcfe6782424501ec433f6"}, {"bike_id": "b110b799c1ba8824e7687a3f20557607", "type": "electric_scooter", "is_disabled": 0, "lat": 38.90389066666667, "rental_uris": {"ios": "https://dc.lft.to/lastmile_qr_scan", "android": "https://dc.lft.to/lastmile_qr_scan"}, "is_reserved": 0, "fusion_lon": 0.0, "fusion_lat": 0.0, "lon": -77.0241145, "name": "b110b799c1ba8824e7687a3f20557607"}, {"bike_id": "129856d271904097520bf7f763d3477c", "type": "electric_scooter", "is_disabled": 0, "lat": 38.917945833333334, "rental_uris": {"ios": "https://dc.lft.to/lastmile_qr_scan", "android": "https://dc.lft.to/lastmile_qr_scan"}, "is_reserved": 0, "fusion_lon": 0.0, "fusion_lat": 0.0, "lon": -77.0319455, "name": "129856d271904097520bf7f763d3477c"}, {"bike_id": "b82774ca4670a191d3d6d6bf50641653", "type": "electric_scooter", "is_disabled": 0, "lat": 38.90529133333333, "rental_uris": {"ios": "https://dc.lft.to/lastmile_qr_scan", "android": "https://dc.lft.to/lastmile_qr_scan"}, "is_reserved": 0, "fusion_lon": 0.0, "fusion_lat": 0.0, "lon": -77.07029333333334, "name": "b82774ca4670a191d3d6d6bf50641653"}, {"bike_id": "7d5f59c284e57249a641d4590c6bdcfb", "type": "electric_scooter", "is_disabled": 0, "lat": 38.87467516666667, "rental_uris": {"ios": "https://dc.lft.to/lastmile_qr_scan", "android": "https://dc.lft.to/lastmile_qr_scan"}, "is_reserved": 0, "fusion_lon": 0.0, "fusion_lat": 0.0, "lon": -77.00526333333333, "name": "7d5f59c284e57249a641d4590c6bdcfb"}, {"bike_id": "f611d685c814560c1b6fc77afd1267b2", "type": "electric_scooter", "is_disabled": 0, "lat": 38.9015, "rental_uris": {"ios": "https://dc.lft.to/lastmile_qr_scan", "android": "https://dc.lft.to/lastmile_qr_scan"}, "is_reserved": 0, "fusion_lon": 0.0, "fusion_lat": 0.0, "lon": -77.0229765, "name": "f611d685c814560c1b6fc77afd1267b2"}, {"bike_id": "bd5f487a659fd8b77a9a5150cddd67d7", "type": "electric_scooter", "is_disabled": 0, "lat": 38.8741795, "rental_uris": {"ios": "https://dc.lft.to/lastmile_qr_scan", "android": "https://dc.lft.to/lastmile_qr_scan"}, "is_reserved": 0, "fusion_lon": 0.0, "fusion_lat": 0.0, "lon": -76.969111, "name": "bd5f487a659fd8b77a9a5150cddd67d7"}, {"bike_id": "2e13ca54026e7b66d96eddf84b5a8eee", "type": "electric_scooter", "is_disabled": 0, "lat": 38.923238833333336, "rental_uris": {"ios": "https://dc.lft.to/lastmile_qr_scan", "android": "https://dc.lft.to/lastmile_qr_scan"}, "is_reserved": 0, "fusion_lon": 0.0, "fusion_lat": 0.0, "lon": -77.03678566666666, "name": "2e13ca54026e7b66d96eddf84b5a8eee"}, {"bike_id": "f8d8398e5d1002acc1c4a6d3529a9629", "type": "electric_bike", "is_disabled": 0, "lat": 38.952458166666666, "rental_uris": {"ios": "https://dc.lft.to/lastmile_qr_scan", "android": "https://dc.lft.to/lastmile_qr_scan"}, "is_reserved": 0, "fusion_lon": 0.0, "fusion_lat": 0.0, "lon": -76.97672616666667, "name": "f8d8398e5d1002acc1c4a6d3529a9629"}, {"bike_id": "8c42340067fda06ccf88ec066063549f", "type": "electric_scooter", "is_disabled": 0, "lat": 38.916836333333336, "rental_uris": {"ios": "https://dc.lft.to/lastmile_qr_scan", "android": "https://dc.lft.to/lastmile_qr_scan"}, "is_reserved": 0, "fusion_lon": 0.0, "fusion_lat": 0.0, "lon": -77.03162216666666, "name": "8c42340067fda06ccf88ec066063549f"}, {"bike_id": "5fb2aa3e9f6986f27b2c99d6cdc6e2cc", "type": "electric_scooter", "is_disabled": 0, "lat": 38.9183345, "rental_uris": {"ios": "https://dc.lft.to/lastmile_qr_scan", "android": "https://dc.lft.to/lastmile_qr_scan"}, "is_reserved": 0, "fusion_lon": 0.0, "fusion_lat": 0.0, "lon": -77.02459933333333, "name": "5fb2aa3e9f6986f27b2c99d6cdc6e2cc"}, {"bike_id": "60d7a564ce80fe039b254fa5784d5744", "type": "electric_scooter", "is_disabled": 0, "lat": 38.91789333333333, "rental_uris": {"ios": "https://dc.lft.to/lastmile_qr_scan", "android": "https://dc.lft.to/lastmile_qr_scan"}, "is_reserved": 0, "fusion_lon": 0.0, "fusion_lat": 0.0, "lon": -77.02376433333333, "name": "60d7a564ce80fe039b254fa5784d5744"}, {"bike_id": "fa89b5fa1e8c678636ae7807f7d4b291", "type": "electric_scooter", "is_disabled": 0, "lat": 38.98696, "rental_uris": {"ios": "https://dc.lft.to/lastmile_qr_scan", "android": "https://dc.lft.to/lastmile_qr_scan"}, "is_reserved": 0, "fusion_lon": 0.0, "fusion_lat": 0.0, "lon": -77.02978116666667, "name": "fa89b5fa1e8c678636ae7807f7d4b291"}, {"bike_id": "fe60fcb13beb0477c5eb8fd5ceeefa54", "type": "electric_scooter", "is_disabled": 0, "lat": 38.90903766666667, "rental_uris": {"ios": "https://dc.lft.to/lastmile_qr_scan", "android": "https://dc.lft.to/lastmile_qr_scan"}, "is_reserved": 0, "fusion_lon": 0.0, "fusion_lat": 0.0, "lon": -77.04207216666667, "name": "fe60fcb13beb0477c5eb8fd5ceeefa54"}, {"bike_id": "f0d82166165d03d9bd70bddd7e91acad", "type": "electric_scooter", "is_disabled": 0, "lat": 38.910251333333335, "rental_uris": {"ios": "https://dc.lft.to/lastmile_qr_scan", "android": "https://dc.lft.to/lastmile_qr_scan"}, "is_reserved": 0, "fusion_lon": 0.0, "fusion_lat": 0.0, "lon": -77.02815533333333, "name": "f0d82166165d03d9bd70bddd7e91acad"}, {"bike_id": "82478086c4d1a2854daa2500e8a6aaab", "type": "electric_scooter", "is_disabled": 0, "lat": 38.88060566666667, "rental_uris": {"ios": "https://dc.lft.to/lastmile_qr_scan", "android": "https://dc.lft.to/lastmile_qr_scan"}, "is_reserved": 0, "fusion_lon": 0.0, "fusion_lat": 0.0, "lon": -77.0153545, "name": "82478086c4d1a2854daa2500e8a6aaab"}, {"bike_id": "901b355833854b5358a41e077f3b6e4b", "type": "electric_scooter", "is_disabled": 0, "lat": 38.902625666666665, "rental_uris": {"ios": "https://dc.lft.to/lastmile_qr_scan", "android": "https://dc.lft.to/lastmile_qr_scan"}, "is_reserved": 0, "fusion_lon": 0.0, "fusion_lat": 0.0, "lon": -77.01755633333333, "name": "901b355833854b5358a41e077f3b6e4b"}, {"bike_id": "f76fdcfa49f6c8922f82cd0344b47e19", "type": "electric_scooter", "is_disabled": 0, "lat": 38.887208333333334, "rental_uris": {"ios": "https://dc.lft.to/lastmile_qr_scan", "android": "https://dc.lft.to/lastmile_qr_scan"}, "is_reserved": 0, "fusion_lon": 0.0, "fusion_lat": 0.0, "lon": -77.0219155, "name": "f76fdcfa49f6c8922f82cd0344b47e19"}, {"bike_id": "d56402d5f493dbc8bde2683269942d33", "type": "electric_scooter", "is_disabled": 0, "lat": 38.928454333333335, "rental_uris": {"ios": "https://dc.lft.to/lastmile_qr_scan", "android": "https://dc.lft.to/lastmile_qr_scan"}, "is_reserved": 0, "fusion_lon": 0.0, "fusion_lat": 0.0, "lon": -77.03282683333333, "name": "d56402d5f493dbc8bde2683269942d33"}, {"bike_id": "5336c42e00bc0b74dbd630ae12a55be4", "type": "electric_scooter", "is_disabled": 0, "lat": 38.886543, "rental_uris": {"ios": "https://dc.lft.to/lastmile_qr_scan", "android": "https://dc.lft.to/lastmile_qr_scan"}, "is_reserved": 0, "fusion_lon": 0.0, "fusion_lat": 0.0, "lon": -77.02835133333333, "name": "5336c42e00bc0b74dbd630ae12a55be4"}, {"bike_id": "bb93ad4a37342b6a753efa9edf0eeff0", "type": "electric_scooter", "is_disabled": 0, "lat": 38.92851433333333, "rental_uris": {"ios": "https://dc.lft.to/lastmile_qr_scan", "android": "https://dc.lft.to/lastmile_qr_scan"}, "is_reserved": 0, "fusion_lon": 0.0, "fusion_lat": 0.0, "lon": -77.032879, "name": "bb93ad4a37342b6a753efa9edf0eeff0"}, {"bike_id": "5394b62bc8d86a53b926b3beb6562a36", "type": "electric_scooter", "is_disabled": 0, "lat": 38.89778833333333, "rental_uris": {"ios": "https://dc.lft.to/lastmile_qr_scan", "android": "https://dc.lft.to/lastmile_qr_scan"}, "is_reserved": 0, "fusion_lon": 0.0, "fusion_lat": 0.0, "lon": -76.94736983333334, "name": "5394b62bc8d86a53b926b3beb6562a36"}, {"bike_id": "72456494f2ec5a50c0aa66947a9c6350", "type": "electric_scooter", "is_disabled": 0, "lat": 38.866962, "rental_uris": {"ios": "https://dc.lft.to/lastmile_qr_scan", "android": "https://dc.lft.to/lastmile_qr_scan"}, "is_reserved": 0, "fusion_lon": 0.0, "fusion_lat": 0.0, "lon": -76.985453, "name": "72456494f2ec5a50c0aa66947a9c6350"}, {"bike_id": "19ffd609c62a1a8d0e07c393218f3330", "type": "electric_scooter", "is_disabled": 0, "lat": 38.901212666666666, "rental_uris": {"ios": "https://dc.lft.to/lastmile_qr_scan", "android": "https://dc.lft.to/lastmile_qr_scan"}, "is_reserved": 0, "fusion_lon": 0.0, "fusion_lat": 0.0, "lon": -77.04328083333333, "name": "19ffd609c62a1a8d0e07c393218f3330"}, {"bike_id": "882a146cc712eaedec00693c3bbf147a", "type": "electric_scooter", "is_disabled": 0, "lat": 38.92474766666667, "rental_uris": {"ios": "https://dc.lft.to/lastmile_qr_scan", "android": "https://dc.lft.to/lastmile_qr_scan"}, "is_reserved": 0, "fusion_lon": 0.0, "fusion_lat": 0.0, "lon": -77.0283005, "name": "882a146cc712eaedec00693c3bbf147a"}, {"bike_id": "480f5a5968b4ceb72e7d552f8677ad40", "type": "electric_scooter", "is_disabled": 0, "lat": 38.908898666666666, "rental_uris": {"ios": "https://dc.lft.to/lastmile_qr_scan", "android": "https://dc.lft.to/lastmile_qr_scan"}, "is_reserved": 0, "fusion_lon": 0.0, "fusion_lat": 0.0, "lon": -77.043926, "name": "480f5a5968b4ceb72e7d552f8677ad40"}, {"bike_id": "71b078a7ac37218296334dba55afda23", "type": "electric_scooter", "is_disabled": 0, "lat": 38.926001166666666, "rental_uris": {"ios": "https://dc.lft.to/lastmile_qr_scan", "android": "https://dc.lft.to/lastmile_qr_scan"}, "is_reserved": 0, "fusion_lon": 0.0, "fusion_lat": 0.0, "lon": -77.02155733333333, "name": "71b078a7ac37218296334dba55afda23"}, {"bike_id": "d885218067939e37cd1878455b7560b6", "type": "electric_scooter", "is_disabled": 0, "lat": 38.91408116666667, "rental_uris": {"ios": "https://dc.lft.to/lastmile_qr_scan", "android": "https://dc.lft.to/lastmile_qr_scan"}, "is_reserved": 0, "fusion_lon": 0.0, "fusion_lat": 0.0, "lon": -77.02429216666667, "name": "d885218067939e37cd1878455b7560b6"}, {"bike_id": "802f3a19773a42ec96947f7c98ec5560", "type": "electric_scooter", "is_disabled": 0, "lat": 38.9133775, "rental_uris": {"ios": "https://dc.lft.to/lastmile_qr_scan", "android": "https://dc.lft.to/lastmile_qr_scan"}, "is_reserved": 0, "fusion_lon": 0.0, "fusion_lat": 0.0, "lon": -77.0415905, "name": "802f3a19773a42ec96947f7c98ec5560"}, {"bike_id": "4752d1ccd314b12b8d4874df88b6fe3d", "type": "electric_scooter", "is_disabled": 0, "lat": 38.91415383333333, "rental_uris": {"ios": "https://dc.lft.to/lastmile_qr_scan", "android": "https://dc.lft.to/lastmile_qr_scan"}, "is_reserved": 0, "fusion_lon": 0.0, "fusion_lat": 0.0, "lon": -77.0240185, "name": "4752d1ccd314b12b8d4874df88b6fe3d"}, {"bike_id": "c2255a77999e9cd6f2fce210064bf2ba", "type": "electric_scooter", "is_disabled": 0, "lat": 38.915709666666665, "rental_uris": {"ios": "https://dc.lft.to/lastmile_qr_scan", "android": "https://dc.lft.to/lastmile_qr_scan"}, "is_reserved": 0, "fusion_lon": 0.0, "fusion_lat": 0.0, "lon": -77.01956283333334, "name": "c2255a77999e9cd6f2fce210064bf2ba"}, {"bike_id": "54ed26ae61b62a7009b27e1aed906d2b", "type": "electric_scooter", "is_disabled": 0, "lat": 38.920109, "rental_uris": {"ios": "https://dc.lft.to/lastmile_qr_scan", "android": "https://dc.lft.to/lastmile_qr_scan"}, "is_reserved": 0, "fusion_lon": 0.0, "fusion_lat": 0.0, "lon": -77.04170516666667, "name": "54ed26ae61b62a7009b27e1aed906d2b"}, {"bike_id": "fa3b33c70836d61112d52d0cba524693", "type": "electric_scooter", "is_disabled": 0, "lat": 38.907204, "rental_uris": {"ios": "https://dc.lft.to/lastmile_qr_scan", "android": "https://dc.lft.to/lastmile_qr_scan"}, "is_reserved": 0, "fusion_lon": 0.0, "fusion_lat": 0.0, "lon": -77.028847, "name": "fa3b33c70836d61112d52d0cba524693"}, {"bike_id": "ed5a1df0b51f1213fc4b6ed69708cd8d", "type": "electric_scooter", "is_disabled": 0, "lat": 38.91116916666667, "rental_uris": {"ios": "https://dc.lft.to/lastmile_qr_scan", "android": "https://dc.lft.to/lastmile_qr_scan"}, "is_reserved": 0, "fusion_lon": 0.0, "fusion_lat": 0.0, "lon": -77.04717933333333, "name": "ed5a1df0b51f1213fc4b6ed69708cd8d"}, {"bike_id": "fd6ed605bf406893c2a2f8461ec79152", "type": "electric_scooter", "is_disabled": 0, "lat": 38.92748683333333, "rental_uris": {"ios": "https://dc.lft.to/lastmile_qr_scan", "android": "https://dc.lft.to/lastmile_qr_scan"}, "is_reserved": 0, "fusion_lon": 0.0, "fusion_lat": 0.0, "lon": -77.02535583333334, "name": "fd6ed605bf406893c2a2f8461ec79152"}, {"bike_id": "9a106bbd02e4ca2aaf6da91f736b0d21", "type": "electric_scooter", "is_disabled": 0, "lat": 38.907334666666664, "rental_uris": {"ios": "https://dc.lft.to/lastmile_qr_scan", "android": "https://dc.lft.to/lastmile_qr_scan"}, "is_reserved": 0, "fusion_lon": 0.0, "fusion_lat": 0.0, "lon": -77.02183016666666, "name": "9a106bbd02e4ca2aaf6da91f736b0d21"}, {"bike_id": "b342f98ee02ec3de7b30163930c210f6", "type": "electric_scooter", "is_disabled": 0, "lat": 38.89285066666667, "rental_uris": {"ios": "https://dc.lft.to/lastmile_qr_scan", "android": "https://dc.lft.to/lastmile_qr_scan"}, "is_reserved": 0, "fusion_lon": 0.0, "fusion_lat": 0.0, "lon": -77.0334315, "name": "b342f98ee02ec3de7b30163930c210f6"}, {"bike_id": "1d47dd32378043b6c36d915f2e17ca3a", "type": "electric_bike", "is_disabled": 0, "lat": 38.85351883333333, "rental_uris": {"ios": "https://dc.lft.to/lastmile_qr_scan", "android": "https://dc.lft.to/lastmile_qr_scan"}, "is_reserved": 0, "fusion_lon": 0.0, "fusion_lat": 0.0, "lon": -77.13467833333333, "name": "1d47dd32378043b6c36d915f2e17ca3a"}, {"bike_id": "5712ee95eaf388fc0b62125523fe401c", "type": "electric_scooter", "is_disabled": 0, "lat": 38.902019, "rental_uris": {"ios": "https://dc.lft.to/lastmile_qr_scan", "android": "https://dc.lft.to/lastmile_qr_scan"}, "is_reserved": 0, "fusion_lon": 0.0, "fusion_lat": 0.0, "lon": -77.02169266666667, "name": "5712ee95eaf388fc0b62125523fe401c"}, {"bike_id": "6e0f39d6acdfbc681abab5b0e1040f98", "type": "electric_scooter", "is_disabled": 0, "lat": 38.89736466666667, "rental_uris": {"ios": "https://dc.lft.to/lastmile_qr_scan", "android": "https://dc.lft.to/lastmile_qr_scan"}, "is_reserved": 0, "fusion_lon": 0.0, "fusion_lat": 0.0, "lon": -77.00371883333334, "name": "6e0f39d6acdfbc681abab5b0e1040f98"}, {"bike_id": "76a14a499c6c0d7a48e95801fe60d86b", "type": "electric_scooter", "is_disabled": 0, "lat": 38.92046116666667, "rental_uris": {"ios": "https://dc.lft.to/lastmile_qr_scan", "android": "https://dc.lft.to/lastmile_qr_scan"}, "is_reserved": 0, "fusion_lon": 0.0, "fusion_lat": 0.0, "lon": -77.0325415, "name": "76a14a499c6c0d7a48e95801fe60d86b"}, {"bike_id": "22916b1fe9a21b13107815dd6bc6ddab", "type": "electric_scooter", "is_disabled": 0, "lat": 38.94290066666667, "rental_uris": {"ios": "https://dc.lft.to/lastmile_qr_scan", "android": "https://dc.lft.to/lastmile_qr_scan"}, "is_reserved": 0, "fusion_lon": 0.0, "fusion_lat": 0.0, "lon": -77.02167066666667, "name": "22916b1fe9a21b13107815dd6bc6ddab"}, {"bike_id": "7f128890dec684ca262d2744af44966c", "type": "electric_scooter", "is_disabled": 0, "lat": 38.907165666666664, "rental_uris": {"ios": "https://dc.lft.to/lastmile_qr_scan", "android": "https://dc.lft.to/lastmile_qr_scan"}, "is_reserved": 0, "fusion_lon": 0.0, "fusion_lat": 0.0, "lon": -77.04022766666667, "name": "7f128890dec684ca262d2744af44966c"}, {"bike_id": "ae8c4481d689e8ed85aed6826a6f235b", "type": "electric_scooter", "is_disabled": 0, "lat": 38.897461, "rental_uris": {"ios": "https://dc.lft.to/lastmile_qr_scan", "android": "https://dc.lft.to/lastmile_qr_scan"}, "is_reserved": 0, "fusion_lon": 0.0, "fusion_lat": 0.0, "lon": -76.979627, "name": "ae8c4481d689e8ed85aed6826a6f235b"}, {"bike_id": "4d5d907892795e76dd4cdc21b6a7f21e", "type": "electric_scooter", "is_disabled": 0, "lat": 38.92496116666667, "rental_uris": {"ios": "https://dc.lft.to/lastmile_qr_scan", "android": "https://dc.lft.to/lastmile_qr_scan"}, "is_reserved": 0, "fusion_lon": 0.0, "fusion_lat": 0.0, "lon": -77.05111916666667, "name": "4d5d907892795e76dd4cdc21b6a7f21e"}, {"bike_id": "f2a47901e9a29b12bfe8e85f47566612", "type": "electric_scooter", "is_disabled": 0, "lat": 38.90759116666667, "rental_uris": {"ios": "https://dc.lft.to/lastmile_qr_scan", "android": "https://dc.lft.to/lastmile_qr_scan"}, "is_reserved": 0, "fusion_lon": 0.0, "fusion_lat": 0.0, "lon": -77.03194016666667, "name": "f2a47901e9a29b12bfe8e85f47566612"}, {"bike_id": "3cd49e23cfedbfe7f89a18ed22fe989f", "type": "electric_scooter", "is_disabled": 0, "lat": 38.917692833333334, "rental_uris": {"ios": "https://dc.lft.to/lastmile_qr_scan", "android": "https://dc.lft.to/lastmile_qr_scan"}, "is_reserved": 0, "fusion_lon": 0.0, "fusion_lat": 0.0, "lon": -77.022746, "name": "3cd49e23cfedbfe7f89a18ed22fe989f"}, {"bike_id": "7ac8aaf5b6ea7994f76acf3b749853cc", "type": "electric_scooter", "is_disabled": 0, "lat": 38.900307833333336, "rental_uris": {"ios": "https://dc.lft.to/lastmile_qr_scan", "android": "https://dc.lft.to/lastmile_qr_scan"}, "is_reserved": 0, "fusion_lon": 0.0, "fusion_lat": 0.0, "lon": -77.01706816666666, "name": "7ac8aaf5b6ea7994f76acf3b749853cc"}, {"bike_id": "263d62ee7937a240c3dd4eff61d072b3", "type": "electric_scooter", "is_disabled": 0, "lat": 38.920476666666666, "rental_uris": {"ios": "https://dc.lft.to/lastmile_qr_scan", "android": "https://dc.lft.to/lastmile_qr_scan"}, "is_reserved": 0, "fusion_lon": 0.0, "fusion_lat": 0.0, "lon": -77.04247783333334, "name": "263d62ee7937a240c3dd4eff61d072b3"}, {"bike_id": "232709b270be47c18fa7db3ae0818a91", "type": "electric_scooter", "is_disabled": 0, "lat": 38.862483166666664, "rental_uris": {"ios": "https://dc.lft.to/lastmile_qr_scan", "android": "https://dc.lft.to/lastmile_qr_scan"}, "is_reserved": 0, "fusion_lon": 0.0, "fusion_lat": 0.0, "lon": -76.99260783333334, "name": "232709b270be47c18fa7db3ae0818a91"}, {"bike_id": "a0071d49edf052bb0114bf66a2c6599c", "type": "electric_scooter", "is_disabled": 0, "lat": 38.916354166666665, "rental_uris": {"ios": "https://dc.lft.to/lastmile_qr_scan", "android": "https://dc.lft.to/lastmile_qr_scan"}, "is_reserved": 0, "fusion_lon": 0.0, "fusion_lat": 0.0, "lon": -77.048131, "name": "a0071d49edf052bb0114bf66a2c6599c"}, {"bike_id": "520aefd48808854a62ecac46f21d55da", "type": "electric_scooter", "is_disabled": 0, "lat": 38.9157745, "rental_uris": {"ios": "https://dc.lft.to/lastmile_qr_scan", "android": "https://dc.lft.to/lastmile_qr_scan"}, "is_reserved": 0, "fusion_lon": 0.0, "fusion_lat": 0.0, "lon": -77.03182366666667, "name": "520aefd48808854a62ecac46f21d55da"}, {"bike_id": "bf48a752e4ff1b3990340b4385551abf", "type": "electric_scooter", "is_disabled": 0, "lat": 38.926390166666664, "rental_uris": {"ios": "https://dc.lft.to/lastmile_qr_scan", "android": "https://dc.lft.to/lastmile_qr_scan"}, "is_reserved": 0, "fusion_lon": 0.0, "fusion_lat": 0.0, "lon": -77.03560516666667, "name": "bf48a752e4ff1b3990340b4385551abf"}, {"bike_id": "3a4d2e5eda7ade161e3fae5a5e8587a2", "type": "electric_scooter", "is_disabled": 0, "lat": 38.86503883333334, "rental_uris": {"ios": "https://dc.lft.to/lastmile_qr_scan", "android": "https://dc.lft.to/lastmile_qr_scan"}, "is_reserved": 0, "fusion_lon": 0.0, "fusion_lat": 0.0, "lon": -76.99002916666667, "name": "3a4d2e5eda7ade161e3fae5a5e8587a2"}, {"bike_id": "9d1ff77bb2189b022f785517989964ce", "type": "electric_bike", "is_disabled": 0, "lat": 38.87291233333333, "rental_uris": {"ios": "https://dc.lft.to/lastmile_qr_scan", "android": "https://dc.lft.to/lastmile_qr_scan"}, "is_reserved": 0, "fusion_lon": 0.0, "fusion_lat": 0.0, "lon": -76.96979883333333, "name": "9d1ff77bb2189b022f785517989964ce"}, {"bike_id": "72e4de0959314ea5df2ac145de34aadf", "type": "electric_scooter", "is_disabled": 0, "lat": 38.862512333333335, "rental_uris": {"ios": "https://dc.lft.to/lastmile_qr_scan", "android": "https://dc.lft.to/lastmile_qr_scan"}, "is_reserved": 0, "fusion_lon": 0.0, "fusion_lat": 0.0, "lon": -76.99537916666667, "name": "72e4de0959314ea5df2ac145de34aadf"}, {"bike_id": "c66de8412ec6dec3680b0d3b9c8f6355", "type": "electric_scooter", "is_disabled": 0, "lat": 38.91613366666667, "rental_uris": {"ios": "https://dc.lft.to/lastmile_qr_scan", "android": "https://dc.lft.to/lastmile_qr_scan"}, "is_reserved": 0, "fusion_lon": 0.0, "fusion_lat": 0.0, "lon": -77.02287216666667, "name": "c66de8412ec6dec3680b0d3b9c8f6355"}, {"bike_id": "f470effcb140c64da1edbec84a05df8c", "type": "electric_bike", "is_disabled": 0, "lat": 38.90825383333333, "rental_uris": {"ios": "https://dc.lft.to/lastmile_qr_scan", "android": "https://dc.lft.to/lastmile_qr_scan"}, "is_reserved": 0, "fusion_lon": 0.0, "fusion_lat": 0.0, "lon": -76.9415595, "name": "f470effcb140c64da1edbec84a05df8c"}, {"bike_id": "6bb13a502956a3943911a9fb499c6198", "type": "electric_scooter", "is_disabled": 0, "lat": 38.93277333333333, "rental_uris": {"ios": "https://dc.lft.to/lastmile_qr_scan", "android": "https://dc.lft.to/lastmile_qr_scan"}, "is_reserved": 0, "fusion_lon": 0.0, "fusion_lat": 0.0, "lon": -77.04036633333334, "name": "6bb13a502956a3943911a9fb499c6198"}, {"bike_id": "fa571f2f494b0db1648bae696846bc83", "type": "electric_scooter", "is_disabled": 0, "lat": 38.90373266666667, "rental_uris": {"ios": "https://dc.lft.to/lastmile_qr_scan", "android": "https://dc.lft.to/lastmile_qr_scan"}, "is_reserved": 0, "fusion_lon": 0.0, "fusion_lat": 0.0, "lon": -77.01637116666667, "name": "fa571f2f494b0db1648bae696846bc83"}, {"bike_id": "c96713d0c4eeba1ea2678db49f3b1c0a", "type": "electric_scooter", "is_disabled": 0, "lat": 38.92151333333333, "rental_uris": {"ios": "https://dc.lft.to/lastmile_qr_scan", "android": "https://dc.lft.to/lastmile_qr_scan"}, "is_reserved": 0, "fusion_lon": 0.0, "fusion_lat": 0.0, "lon": -77.03337266666666, "name": "c96713d0c4eeba1ea2678db49f3b1c0a"}, {"bike_id": "ede5b9df8cc7fe1af4cad8aef9b74fc9", "type": "electric_scooter", "is_disabled": 0, "lat": 38.903566166666664, "rental_uris": {"ios": "https://dc.lft.to/lastmile_qr_scan", "android": "https://dc.lft.to/lastmile_qr_scan"}, "is_reserved": 0, "fusion_lon": 0.0, "fusion_lat": 0.0, "lon": -77.031635, "name": "ede5b9df8cc7fe1af4cad8aef9b74fc9"}, {"bike_id": "18bea7b4dce2a93e378efad9537d88a3", "type": "electric_scooter", "is_disabled": 0, "lat": 38.9022705, "rental_uris": {"ios": "https://dc.lft.to/lastmile_qr_scan", "android": "https://dc.lft.to/lastmile_qr_scan"}, "is_reserved": 0, "fusion_lon": 0.0, "fusion_lat": 0.0, "lon": -77.03269333333333, "name": "18bea7b4dce2a93e378efad9537d88a3"}, {"bike_id": "36079ef3bb1e5a5927d00f7a6e575a27", "type": "electric_scooter", "is_disabled": 0, "lat": 38.91495233333333, "rental_uris": {"ios": "https://dc.lft.to/lastmile_qr_scan", "android": "https://dc.lft.to/lastmile_qr_scan"}, "is_reserved": 0, "fusion_lon": 0.0, "fusion_lat": 0.0, "lon": -77.0121895, "name": "36079ef3bb1e5a5927d00f7a6e575a27"}, {"bike_id": "949841baf1c45fc38ac17d1238906ecb", "type": "electric_scooter", "is_disabled": 0, "lat": 38.92323116666667, "rental_uris": {"ios": "https://dc.lft.to/lastmile_qr_scan", "android": "https://dc.lft.to/lastmile_qr_scan"}, "is_reserved": 0, "fusion_lon": 0.0, "fusion_lat": 0.0, "lon": -77.03677, "name": "949841baf1c45fc38ac17d1238906ecb"}, {"bike_id": "974dd1223971178d9f52b0546f7fa38b", "type": "electric_scooter", "is_disabled": 0, "lat": 38.914130166666666, "rental_uris": {"ios": "https://dc.lft.to/lastmile_qr_scan", "android": "https://dc.lft.to/lastmile_qr_scan"}, "is_reserved": 0, "fusion_lon": 0.0, "fusion_lat": 0.0, "lon": -77.0225395, "name": "974dd1223971178d9f52b0546f7fa38b"}, {"bike_id": "6b7b2e03e52b146220408f7d5e04a444", "type": "electric_scooter", "is_disabled": 0, "lat": 38.9210515, "rental_uris": {"ios": "https://dc.lft.to/lastmile_qr_scan", "android": "https://dc.lft.to/lastmile_qr_scan"}, "is_reserved": 0, "fusion_lon": 0.0, "fusion_lat": 0.0, "lon": -77.021912, "name": "6b7b2e03e52b146220408f7d5e04a444"}, {"bike_id": "16f12998a3bed99fea6d74ab0125c31e", "type": "electric_scooter", "is_disabled": 0, "lat": 38.887004, "rental_uris": {"ios": "https://dc.lft.to/lastmile_qr_scan", "android": "https://dc.lft.to/lastmile_qr_scan"}, "is_reserved": 0, "fusion_lon": 0.0, "fusion_lat": 0.0, "lon": -77.01371766666666, "name": "16f12998a3bed99fea6d74ab0125c31e"}, {"bike_id": "838a25cf897e9164bc88df43c200f173", "type": "electric_scooter", "is_disabled": 0, "lat": 38.907111666666665, "rental_uris": {"ios": "https://dc.lft.to/lastmile_qr_scan", "android": "https://dc.lft.to/lastmile_qr_scan"}, "is_reserved": 0, "fusion_lon": 0.0, "fusion_lat": 0.0, "lon": -77.02543916666667, "name": "838a25cf897e9164bc88df43c200f173"}, {"bike_id": "a0f8e2fe69c29cbc23d12cc6366dd00c", "type": "electric_scooter", "is_disabled": 0, "lat": 38.93907433333333, "rental_uris": {"ios": "https://dc.lft.to/lastmile_qr_scan", "android": "https://dc.lft.to/lastmile_qr_scan"}, "is_reserved": 0, "fusion_lon": 0.0, "fusion_lat": 0.0, "lon": -77.06044883333334, "name": "a0f8e2fe69c29cbc23d12cc6366dd00c"}, {"bike_id": "269b7ee527ddbe3f3f853cc5e2af0e2d", "type": "electric_scooter", "is_disabled": 0, "lat": 38.923224166666664, "rental_uris": {"ios": "https://dc.lft.to/lastmile_qr_scan", "android": "https://dc.lft.to/lastmile_qr_scan"}, "is_reserved": 0, "fusion_lon": 0.0, "fusion_lat": 0.0, "lon": -77.03680433333334, "name": "269b7ee527ddbe3f3f853cc5e2af0e2d"}, {"bike_id": "4d526c2eba9a1957eae6d37e8cf604b4", "type": "electric_scooter", "is_disabled": 0, "lat": 38.866619, "rental_uris": {"ios": "https://dc.lft.to/lastmile_qr_scan", "android": "https://dc.lft.to/lastmile_qr_scan"}, "is_reserved": 0, "fusion_lon": 0.0, "fusion_lat": 0.0, "lon": -77.0102795, "name": "4d526c2eba9a1957eae6d37e8cf604b4"}, {"bike_id": "986f1ea0d327d9f6cc98764b2ae6d879", "type": "electric_scooter", "is_disabled": 0, "lat": 38.91486883333334, "rental_uris": {"ios": "https://dc.lft.to/lastmile_qr_scan", "android": "https://dc.lft.to/lastmile_qr_scan"}, "is_reserved": 0, "fusion_lon": 0.0, "fusion_lat": 0.0, "lon": -77.00281266666667, "name": "986f1ea0d327d9f6cc98764b2ae6d879"}, {"bike_id": "3fb72a980b2417be97afeadeb2663590", "type": "electric_scooter", "is_disabled": 0, "lat": 38.957328333333336, "rental_uris": {"ios": "https://dc.lft.to/lastmile_qr_scan", "android": "https://dc.lft.to/lastmile_qr_scan"}, "is_reserved": 0, "fusion_lon": 0.0, "fusion_lat": 0.0, "lon": -77.02794866666666, "name": "3fb72a980b2417be97afeadeb2663590"}, {"bike_id": "0e3765cf834e2a6e9b1de329c810154c", "type": "electric_scooter", "is_disabled": 0, "lat": 38.922362666666665, "rental_uris": {"ios": "https://dc.lft.to/lastmile_qr_scan", "android": "https://dc.lft.to/lastmile_qr_scan"}, "is_reserved": 0, "fusion_lon": 0.0, "fusion_lat": 0.0, "lon": -77.02982316666667, "name": "0e3765cf834e2a6e9b1de329c810154c"}, {"bike_id": "8d2c6321672302712f9151384aea2628", "type": "electric_bike", "is_disabled": 0, "lat": 38.85351583333333, "rental_uris": {"ios": "https://dc.lft.to/lastmile_qr_scan", "android": "https://dc.lft.to/lastmile_qr_scan"}, "is_reserved": 0, "fusion_lon": 0.0, "fusion_lat": 0.0, "lon": -77.08682066666667, "name": "8d2c6321672302712f9151384aea2628"}, {"bike_id": "137a036e1f1d7ab3e5160af37784fc76", "type": "electric_scooter", "is_disabled": 0, "lat": 38.865009, "rental_uris": {"ios": "https://dc.lft.to/lastmile_qr_scan", "android": "https://dc.lft.to/lastmile_qr_scan"}, "is_reserved": 0, "fusion_lon": 0.0, "fusion_lat": 0.0, "lon": -76.989982, "name": "137a036e1f1d7ab3e5160af37784fc76"}, {"bike_id": "71f5f09a7e1dd6cb48c6c811d40cb03b", "type": "electric_scooter", "is_disabled": 0, "lat": 38.92270666666667, "rental_uris": {"ios": "https://dc.lft.to/lastmile_qr_scan", "android": "https://dc.lft.to/lastmile_qr_scan"}, "is_reserved": 0, "fusion_lon": 0.0, "fusion_lat": 0.0, "lon": -77.04222783333333, "name": "71f5f09a7e1dd6cb48c6c811d40cb03b"}, {"bike_id": "ee70c4c4e090d7df1a0724f11e68a5db", "type": "electric_scooter", "is_disabled": 0, "lat": 38.91558116666667, "rental_uris": {"ios": "https://dc.lft.to/lastmile_qr_scan", "android": "https://dc.lft.to/lastmile_qr_scan"}, "is_reserved": 0, "fusion_lon": 0.0, "fusion_lat": 0.0, "lon": -77.025692, "name": "ee70c4c4e090d7df1a0724f11e68a5db"}, {"bike_id": "559adc32fe4d98126f0e34111ddd40fa", "type": "electric_scooter", "is_disabled": 0, "lat": 38.92324516666667, "rental_uris": {"ios": "https://dc.lft.to/lastmile_qr_scan", "android": "https://dc.lft.to/lastmile_qr_scan"}, "is_reserved": 0, "fusion_lon": 0.0, "fusion_lat": 0.0, "lon": -77.03682916666666, "name": "559adc32fe4d98126f0e34111ddd40fa"}, {"bike_id": "a2eb490592905cd83be662044b057320", "type": "electric_scooter", "is_disabled": 0, "lat": 38.892263166666666, "rental_uris": {"ios": "https://dc.lft.to/lastmile_qr_scan", "android": "https://dc.lft.to/lastmile_qr_scan"}, "is_reserved": 0, "fusion_lon": 0.0, "fusion_lat": 0.0, "lon": -77.013741, "name": "a2eb490592905cd83be662044b057320"}, {"bike_id": "4fe8ac2a2903a71811493c4873878a47", "type": "electric_scooter", "is_disabled": 0, "lat": 38.9203795, "rental_uris": {"ios": "https://dc.lft.to/lastmile_qr_scan", "android": "https://dc.lft.to/lastmile_qr_scan"}, "is_reserved": 0, "fusion_lon": 0.0, "fusion_lat": 0.0, "lon": -77.023041, "name": "4fe8ac2a2903a71811493c4873878a47"}, {"bike_id": "8fdb9a0937b1b12f56a065f4dede760b", "type": "electric_bike", "is_disabled": 0, "lat": 38.878255333333335, "rental_uris": {"ios": "https://dc.lft.to/lastmile_qr_scan", "android": "https://dc.lft.to/lastmile_qr_scan"}, "is_reserved": 0, "fusion_lon": 0.0, "fusion_lat": 0.0, "lon": -77.0190865, "name": "8fdb9a0937b1b12f56a065f4dede760b"}, {"bike_id": "63e293c0ab40f6fed45f78613e5e4c98", "type": "electric_scooter", "is_disabled": 0, "lat": 38.91021633333333, "rental_uris": {"ios": "https://dc.lft.to/lastmile_qr_scan", "android": "https://dc.lft.to/lastmile_qr_scan"}, "is_reserved": 0, "fusion_lon": 0.0, "fusion_lat": 0.0, "lon": -77.029116, "name": "63e293c0ab40f6fed45f78613e5e4c98"}, {"bike_id": "2936c1be909b5324426d29bcb965527e", "type": "electric_scooter", "is_disabled": 0, "lat": 38.92311983333333, "rental_uris": {"ios": "https://dc.lft.to/lastmile_qr_scan", "android": "https://dc.lft.to/lastmile_qr_scan"}, "is_reserved": 0, "fusion_lon": 0.0, "fusion_lat": 0.0, "lon": -77.05571083333334, "name": "2936c1be909b5324426d29bcb965527e"}, {"bike_id": "8811aa817dc0618d2c4aa03e1e43d3d3", "type": "electric_scooter", "is_disabled": 0, "lat": 38.928731666666664, "rental_uris": {"ios": "https://dc.lft.to/lastmile_qr_scan", "android": "https://dc.lft.to/lastmile_qr_scan"}, "is_reserved": 0, "fusion_lon": 0.0, "fusion_lat": 0.0, "lon": -77.039257, "name": "8811aa817dc0618d2c4aa03e1e43d3d3"}, {"bike_id": "cfb3a28edc833f54475913527325a066", "type": "electric_scooter", "is_disabled": 0, "lat": 38.91700933333333, "rental_uris": {"ios": "https://dc.lft.to/lastmile_qr_scan", "android": "https://dc.lft.to/lastmile_qr_scan"}, "is_reserved": 0, "fusion_lon": 0.0, "fusion_lat": 0.0, "lon": -77.0157945, "name": "cfb3a28edc833f54475913527325a066"}, {"bike_id": "fb7f7dd124354230a7b6a8de6864c05f", "type": "electric_scooter", "is_disabled": 0, "lat": 38.901223333333334, "rental_uris": {"ios": "https://dc.lft.to/lastmile_qr_scan", "android": "https://dc.lft.to/lastmile_qr_scan"}, "is_reserved": 0, "fusion_lon": 0.0, "fusion_lat": 0.0, "lon": -77.03232583333333, "name": "fb7f7dd124354230a7b6a8de6864c05f"}, {"bike_id": "f34c0feddb29f5f0d8879e1e42bdd952", "type": "electric_scooter", "is_disabled": 0, "lat": 38.9154865, "rental_uris": {"ios": "https://dc.lft.to/lastmile_qr_scan", "android": "https://dc.lft.to/lastmile_qr_scan"}, "is_reserved": 0, "fusion_lon": 0.0, "fusion_lat": 0.0, "lon": -77.03254583333333, "name": "f34c0feddb29f5f0d8879e1e42bdd952"}, {"bike_id": "bc54196d403fc3bffad4025fde6e70ed", "type": "electric_scooter", "is_disabled": 0, "lat": 38.866215833333335, "rental_uris": {"ios": "https://dc.lft.to/lastmile_qr_scan", "android": "https://dc.lft.to/lastmile_qr_scan"}, "is_reserved": 0, "fusion_lon": 0.0, "fusion_lat": 0.0, "lon": -76.98711866666666, "name": "bc54196d403fc3bffad4025fde6e70ed"}, {"bike_id": "924d5f5241c21fe746e7a83a2f521630", "type": "electric_scooter", "is_disabled": 0, "lat": 38.911019, "rental_uris": {"ios": "https://dc.lft.to/lastmile_qr_scan", "android": "https://dc.lft.to/lastmile_qr_scan"}, "is_reserved": 0, "fusion_lon": 0.0, "fusion_lat": 0.0, "lon": -77.02385633333333, "name": "924d5f5241c21fe746e7a83a2f521630"}, {"bike_id": "972a05cbc4a64223a6393291facc027e", "type": "electric_scooter", "is_disabled": 0, "lat": 38.9317025, "rental_uris": {"ios": "https://dc.lft.to/lastmile_qr_scan", "android": "https://dc.lft.to/lastmile_qr_scan"}, "is_reserved": 0, "fusion_lon": 0.0, "fusion_lat": 0.0, "lon": -77.03153883333333, "name": "972a05cbc4a64223a6393291facc027e"}, {"bike_id": "0716a8de8d149a4acc55c528db7dc098", "type": "electric_scooter", "is_disabled": 0, "lat": 38.89638583333333, "rental_uris": {"ios": "https://dc.lft.to/lastmile_qr_scan", "android": "https://dc.lft.to/lastmile_qr_scan"}, "is_reserved": 0, "fusion_lon": 0.0, "fusion_lat": 0.0, "lon": -77.0710415, "name": "0716a8de8d149a4acc55c528db7dc098"}, {"bike_id": "38e8dd37b55ddf119cecc0cf0199fe5c", "type": "electric_scooter", "is_disabled": 0, "lat": 38.90364116666667, "rental_uris": {"ios": "https://dc.lft.to/lastmile_qr_scan", "android": "https://dc.lft.to/lastmile_qr_scan"}, "is_reserved": 0, "fusion_lon": 0.0, "fusion_lat": 0.0, "lon": -77.03166066666667, "name": "38e8dd37b55ddf119cecc0cf0199fe5c"}, {"bike_id": "b80cb71e9559a3f627dcb105dc4fea52", "type": "electric_scooter", "is_disabled": 0, "lat": 38.910208833333336, "rental_uris": {"ios": "https://dc.lft.to/lastmile_qr_scan", "android": "https://dc.lft.to/lastmile_qr_scan"}, "is_reserved": 0, "fusion_lon": 0.0, "fusion_lat": 0.0, "lon": -77.03198716666667, "name": "b80cb71e9559a3f627dcb105dc4fea52"}, {"bike_id": "32054f22423eb30f5926d3c8803d5e41", "type": "electric_scooter", "is_disabled": 0, "lat": 38.88777783333333, "rental_uris": {"ios": "https://dc.lft.to/lastmile_qr_scan", "android": "https://dc.lft.to/lastmile_qr_scan"}, "is_reserved": 0, "fusion_lon": 0.0, "fusion_lat": 0.0, "lon": -76.95534383333333, "name": "32054f22423eb30f5926d3c8803d5e41"}, {"bike_id": "5d328e7727af341f20be67c2b7537a34", "type": "electric_scooter", "is_disabled": 0, "lat": 38.92998266666667, "rental_uris": {"ios": "https://dc.lft.to/lastmile_qr_scan", "android": "https://dc.lft.to/lastmile_qr_scan"}, "is_reserved": 0, "fusion_lon": 0.0, "fusion_lat": 0.0, "lon": -77.02375533333333, "name": "5d328e7727af341f20be67c2b7537a34"}, {"bike_id": "0df5e7dc897173d10bd661ec3a6c4ce9", "type": "electric_scooter", "is_disabled": 0, "lat": 38.88118816666667, "rental_uris": {"ios": "https://dc.lft.to/lastmile_qr_scan", "android": "https://dc.lft.to/lastmile_qr_scan"}, "is_reserved": 0, "fusion_lon": 0.0, "fusion_lat": 0.0, "lon": -77.00182033333333, "name": "0df5e7dc897173d10bd661ec3a6c4ce9"}, {"bike_id": "ceec121e3e54921036c37624a79adadb", "type": "electric_scooter", "is_disabled": 0, "lat": 38.866936333333335, "rental_uris": {"ios": "https://dc.lft.to/lastmile_qr_scan", "android": "https://dc.lft.to/lastmile_qr_scan"}, "is_reserved": 0, "fusion_lon": 0.0, "fusion_lat": 0.0, "lon": -76.98712066666667, "name": "ceec121e3e54921036c37624a79adadb"}, {"bike_id": "aa3ae20a0008bf8d6bc2ec67c498057d", "type": "electric_scooter", "is_disabled": 0, "lat": 38.917039, "rental_uris": {"ios": "https://dc.lft.to/lastmile_qr_scan", "android": "https://dc.lft.to/lastmile_qr_scan"}, "is_reserved": 0, "fusion_lon": 0.0, "fusion_lat": 0.0, "lon": -77.00653466666667, "name": "aa3ae20a0008bf8d6bc2ec67c498057d"}, {"bike_id": "89e5ed32171a5acbe912700fd5f8a89d", "type": "electric_scooter", "is_disabled": 0, "lat": 38.931282, "rental_uris": {"ios": "https://dc.lft.to/lastmile_qr_scan", "android": "https://dc.lft.to/lastmile_qr_scan"}, "is_reserved": 0, "fusion_lon": 0.0, "fusion_lat": 0.0, "lon": -76.99572983333333, "name": "89e5ed32171a5acbe912700fd5f8a89d"}, {"bike_id": "17d1ed9de431bc5cba7d5d6f30a1ad39", "type": "electric_bike", "is_disabled": 0, "lat": 39.05277566666667, "rental_uris": {"ios": "https://dc.lft.to/lastmile_qr_scan", "android": "https://dc.lft.to/lastmile_qr_scan"}, "is_reserved": 0, "fusion_lon": 0.0, "fusion_lat": 0.0, "lon": -77.08062733333334, "name": "17d1ed9de431bc5cba7d5d6f30a1ad39"}, {"bike_id": "096a8c78b008a3f4877411b9db172ea2", "type": "electric_scooter", "is_disabled": 0, "lat": 38.9333585, "rental_uris": {"ios": "https://dc.lft.to/lastmile_qr_scan", "android": "https://dc.lft.to/lastmile_qr_scan"}, "is_reserved": 0, "fusion_lon": 0.0, "fusion_lat": 0.0, "lon": -77.02057883333333, "name": "096a8c78b008a3f4877411b9db172ea2"}, {"bike_id": "b7d4edf8665598816f68a9bdf1028370", "type": "electric_scooter", "is_disabled": 0, "lat": 38.916843166666666, "rental_uris": {"ios": "https://dc.lft.to/lastmile_qr_scan", "android": "https://dc.lft.to/lastmile_qr_scan"}, "is_reserved": 0, "fusion_lon": 0.0, "fusion_lat": 0.0, "lon": -77.029548, "name": "b7d4edf8665598816f68a9bdf1028370"}, {"bike_id": "41bca6f34b220b6a4509a355f02d56cf", "type": "electric_scooter", "is_disabled": 0, "lat": 38.91822483333333, "rental_uris": {"ios": "https://dc.lft.to/lastmile_qr_scan", "android": "https://dc.lft.to/lastmile_qr_scan"}, "is_reserved": 0, "fusion_lon": 0.0, "fusion_lat": 0.0, "lon": -77.0494015, "name": "41bca6f34b220b6a4509a355f02d56cf"}, {"bike_id": "03dd72a532c37478470c80e9e43075de", "type": "electric_scooter", "is_disabled": 0, "lat": 38.907080666666666, "rental_uris": {"ios": "https://dc.lft.to/lastmile_qr_scan", "android": "https://dc.lft.to/lastmile_qr_scan"}, "is_reserved": 0, "fusion_lon": 0.0, "fusion_lat": 0.0, "lon": -77.0238145, "name": "03dd72a532c37478470c80e9e43075de"}, {"bike_id": "64cbc832481aae8f1161e8228ba38be6", "type": "electric_scooter", "is_disabled": 0, "lat": 38.9139895, "rental_uris": {"ios": "https://dc.lft.to/lastmile_qr_scan", "android": "https://dc.lft.to/lastmile_qr_scan"}, "is_reserved": 0, "fusion_lon": 0.0, "fusion_lat": 0.0, "lon": -77.0321215, "name": "64cbc832481aae8f1161e8228ba38be6"}, {"bike_id": "ee97c692285968e0d3817ddc9350d2c5", "type": "electric_scooter", "is_disabled": 0, "lat": 38.8946535, "rental_uris": {"ios": "https://dc.lft.to/lastmile_qr_scan", "android": "https://dc.lft.to/lastmile_qr_scan"}, "is_reserved": 0, "fusion_lon": 0.0, "fusion_lat": 0.0, "lon": -77.02180383333334, "name": "ee97c692285968e0d3817ddc9350d2c5"}, {"bike_id": "891f65cc87918c042c424d9019768ed5", "type": "electric_scooter", "is_disabled": 0, "lat": 38.9044635, "rental_uris": {"ios": "https://dc.lft.to/lastmile_qr_scan", "android": "https://dc.lft.to/lastmile_qr_scan"}, "is_reserved": 0, "fusion_lon": 0.0, "fusion_lat": 0.0, "lon": -77.0532925, "name": "891f65cc87918c042c424d9019768ed5"}, {"bike_id": "1a18f641b1bb040686c376b8be17f026", "type": "electric_scooter", "is_disabled": 0, "lat": 38.9214875, "rental_uris": {"ios": "https://dc.lft.to/lastmile_qr_scan", "android": "https://dc.lft.to/lastmile_qr_scan"}, "is_reserved": 0, "fusion_lon": 0.0, "fusion_lat": 0.0, "lon": -77.0337275, "name": "1a18f641b1bb040686c376b8be17f026"}, {"bike_id": "2de7f3fcf1679497d1795daa6cf9cf61", "type": "electric_scooter", "is_disabled": 0, "lat": 38.8729485, "rental_uris": {"ios": "https://dc.lft.to/lastmile_qr_scan", "android": "https://dc.lft.to/lastmile_qr_scan"}, "is_reserved": 0, "fusion_lon": 0.0, "fusion_lat": 0.0, "lon": -77.00984383333333, "name": "2de7f3fcf1679497d1795daa6cf9cf61"}, {"bike_id": "bb7d57a650f315704641422e86e768d5", "type": "electric_scooter", "is_disabled": 0, "lat": 38.881839666666664, "rental_uris": {"ios": "https://dc.lft.to/lastmile_qr_scan", "android": "https://dc.lft.to/lastmile_qr_scan"}, "is_reserved": 0, "fusion_lon": 0.0, "fusion_lat": 0.0, "lon": -77.020804, "name": "bb7d57a650f315704641422e86e768d5"}, {"bike_id": "4449cdf4ca8582532cacc7d86896268f", "type": "electric_scooter", "is_disabled": 0, "lat": 38.91552983333333, "rental_uris": {"ios": "https://dc.lft.to/lastmile_qr_scan", "android": "https://dc.lft.to/lastmile_qr_scan"}, "is_reserved": 0, "fusion_lon": 0.0, "fusion_lat": 0.0, "lon": -77.032652, "name": "4449cdf4ca8582532cacc7d86896268f"}, {"bike_id": "372d8b3f1cf118513dd1f072ebabb0fc", "type": "electric_scooter", "is_disabled": 0, "lat": 38.901684333333336, "rental_uris": {"ios": "https://dc.lft.to/lastmile_qr_scan", "android": "https://dc.lft.to/lastmile_qr_scan"}, "is_reserved": 0, "fusion_lon": 0.0, "fusion_lat": 0.0, "lon": -76.92657283333334, "name": "372d8b3f1cf118513dd1f072ebabb0fc"}, {"bike_id": "fae23448e23ecaea68f2bd95af63085e", "type": "electric_scooter", "is_disabled": 0, "lat": 38.90528666666667, "rental_uris": {"ios": "https://dc.lft.to/lastmile_qr_scan", "android": "https://dc.lft.to/lastmile_qr_scan"}, "is_reserved": 0, "fusion_lon": 0.0, "fusion_lat": 0.0, "lon": -77.05991133333333, "name": "fae23448e23ecaea68f2bd95af63085e"}, {"bike_id": "5e3093de1627a580183c5569cabe43a6", "type": "electric_scooter", "is_disabled": 0, "lat": 38.90669283333333, "rental_uris": {"ios": "https://dc.lft.to/lastmile_qr_scan", "android": "https://dc.lft.to/lastmile_qr_scan"}, "is_reserved": 0, "fusion_lon": 0.0, "fusion_lat": 0.0, "lon": -77.027056, "name": "5e3093de1627a580183c5569cabe43a6"}, {"bike_id": "355b763b23491d3f9f2db2d729f90047", "type": "electric_scooter", "is_disabled": 0, "lat": 38.9161, "rental_uris": {"ios": "https://dc.lft.to/lastmile_qr_scan", "android": "https://dc.lft.to/lastmile_qr_scan"}, "is_reserved": 0, "fusion_lon": 0.0, "fusion_lat": 0.0, "lon": -77.02298066666667, "name": "355b763b23491d3f9f2db2d729f90047"}, {"bike_id": "2b852b9964fcadbc094a92b8eb754085", "type": "electric_scooter", "is_disabled": 0, "lat": 38.915294, "rental_uris": {"ios": "https://dc.lft.to/lastmile_qr_scan", "android": "https://dc.lft.to/lastmile_qr_scan"}, "is_reserved": 0, "fusion_lon": 0.0, "fusion_lat": 0.0, "lon": -77.01972033333334, "name": "2b852b9964fcadbc094a92b8eb754085"}, {"bike_id": "978e60851aced6c12189a7529df745ea", "type": "electric_scooter", "is_disabled": 0, "lat": 38.930709, "rental_uris": {"ios": "https://dc.lft.to/lastmile_qr_scan", "android": "https://dc.lft.to/lastmile_qr_scan"}, "is_reserved": 0, "fusion_lon": 0.0, "fusion_lat": 0.0, "lon": -77.0214145, "name": "978e60851aced6c12189a7529df745ea"}, {"bike_id": "865796fe182684ff25e03abec042eff5", "type": "electric_scooter", "is_disabled": 0, "lat": 38.9006405, "rental_uris": {"ios": "https://dc.lft.to/lastmile_qr_scan", "android": "https://dc.lft.to/lastmile_qr_scan"}, "is_reserved": 0, "fusion_lon": 0.0, "fusion_lat": 0.0, "lon": -77.01826783333334, "name": "865796fe182684ff25e03abec042eff5"}, {"bike_id": "6afd6f48a9af4c0668dec9b68a2e9ccb", "type": "electric_scooter", "is_disabled": 0, "lat": 38.9163695, "rental_uris": {"ios": "https://dc.lft.to/lastmile_qr_scan", "android": "https://dc.lft.to/lastmile_qr_scan"}, "is_reserved": 0, "fusion_lon": 0.0, "fusion_lat": 0.0, "lon": -77.04676, "name": "6afd6f48a9af4c0668dec9b68a2e9ccb"}, {"bike_id": "bab161fb30378129974f560979116455", "type": "electric_scooter", "is_disabled": 0, "lat": 38.91975433333333, "rental_uris": {"ios": "https://dc.lft.to/lastmile_qr_scan", "android": "https://dc.lft.to/lastmile_qr_scan"}, "is_reserved": 0, "fusion_lon": 0.0, "fusion_lat": 0.0, "lon": -77.012086, "name": "bab161fb30378129974f560979116455"}, {"bike_id": "2509c4e6ef6bc7e5852359da8d61589f", "type": "electric_bike", "is_disabled": 0, "lat": 38.8116505, "rental_uris": {"ios": "https://dc.lft.to/lastmile_qr_scan", "android": "https://dc.lft.to/lastmile_qr_scan"}, "is_reserved": 0, "fusion_lon": 0.0, "fusion_lat": 0.0, "lon": -77.06961966666667, "name": "2509c4e6ef6bc7e5852359da8d61589f"}, {"bike_id": "7cfeae17f7405759e71ea8a9e6479cbd", "type": "electric_bike", "is_disabled": 0, "lat": 38.900014166666665, "rental_uris": {"ios": "https://dc.lft.to/lastmile_qr_scan", "android": "https://dc.lft.to/lastmile_qr_scan"}, "is_reserved": 0, "fusion_lon": 0.0, "fusion_lat": 0.0, "lon": -77.07526866666667, "name": "7cfeae17f7405759e71ea8a9e6479cbd"}, {"bike_id": "197a060aaeb2f328ec6b45f51493b505", "type": "electric_scooter", "is_disabled": 0, "lat": 38.876858166666665, "rental_uris": {"ios": "https://dc.lft.to/lastmile_qr_scan", "android": "https://dc.lft.to/lastmile_qr_scan"}, "is_reserved": 0, "fusion_lon": 0.0, "fusion_lat": 0.0, "lon": -77.01753433333333, "name": "197a060aaeb2f328ec6b45f51493b505"}, {"bike_id": "0e61328a4f16a3b9b91cf687bfb3d7be", "type": "electric_scooter", "is_disabled": 0, "lat": 38.919643, "rental_uris": {"ios": "https://dc.lft.to/lastmile_qr_scan", "android": "https://dc.lft.to/lastmile_qr_scan"}, "is_reserved": 0, "fusion_lon": 0.0, "fusion_lat": 0.0, "lon": -77.04214083333333, "name": "0e61328a4f16a3b9b91cf687bfb3d7be"}, {"bike_id": "7a455f2bd053a7ebfdf144cb9cd5d543", "type": "electric_scooter", "is_disabled": 0, "lat": 38.9052465, "rental_uris": {"ios": "https://dc.lft.to/lastmile_qr_scan", "android": "https://dc.lft.to/lastmile_qr_scan"}, "is_reserved": 0, "fusion_lon": 0.0, "fusion_lat": 0.0, "lon": -77.05008816666667, "name": "7a455f2bd053a7ebfdf144cb9cd5d543"}, {"bike_id": "b1efdb3e98b7c3703a26e30c5117eb0f", "type": "electric_scooter", "is_disabled": 0, "lat": 38.9090535, "rental_uris": {"ios": "https://dc.lft.to/lastmile_qr_scan", "android": "https://dc.lft.to/lastmile_qr_scan"}, "is_reserved": 0, "fusion_lon": 0.0, "fusion_lat": 0.0, "lon": -77.02705583333334, "name": "b1efdb3e98b7c3703a26e30c5117eb0f"}, {"bike_id": "fc139c40d5d11fdd78e53a10ef068b4c", "type": "electric_scooter", "is_disabled": 0, "lat": 38.917655833333335, "rental_uris": {"ios": "https://dc.lft.to/lastmile_qr_scan", "android": "https://dc.lft.to/lastmile_qr_scan"}, "is_reserved": 0, "fusion_lon": 0.0, "fusion_lat": 0.0, "lon": -77.02275483333334, "name": "fc139c40d5d11fdd78e53a10ef068b4c"}, {"bike_id": "9ceb7ad441b6718362136bf7372fa015", "type": "electric_scooter", "is_disabled": 0, "lat": 38.933823833333335, "rental_uris": {"ios": "https://dc.lft.to/lastmile_qr_scan", "android": "https://dc.lft.to/lastmile_qr_scan"}, "is_reserved": 0, "fusion_lon": 0.0, "fusion_lat": 0.0, "lon": -77.03215266666666, "name": "9ceb7ad441b6718362136bf7372fa015"}, {"bike_id": "22f0469454e382bb806d0f24a6e4a2eb", "type": "electric_scooter", "is_disabled": 0, "lat": 38.884300833333334, "rental_uris": {"ios": "https://dc.lft.to/lastmile_qr_scan", "android": "https://dc.lft.to/lastmile_qr_scan"}, "is_reserved": 0, "fusion_lon": 0.0, "fusion_lat": 0.0, "lon": -76.95755033333333, "name": "22f0469454e382bb806d0f24a6e4a2eb"}, {"bike_id": "fefef3a1a39c385ff74d96278faefaa6", "type": "electric_scooter", "is_disabled": 0, "lat": 38.905527666666664, "rental_uris": {"ios": "https://dc.lft.to/lastmile_qr_scan", "android": "https://dc.lft.to/lastmile_qr_scan"}, "is_reserved": 0, "fusion_lon": 0.0, "fusion_lat": 0.0, "lon": -76.99621983333333, "name": "fefef3a1a39c385ff74d96278faefaa6"}, {"bike_id": "6f58015e573d851ff67f7361c671f8b2", "type": "electric_bike", "is_disabled": 0, "lat": 38.95527933333334, "rental_uris": {"ios": "https://dc.lft.to/lastmile_qr_scan", "android": "https://dc.lft.to/lastmile_qr_scan"}, "is_reserved": 0, "fusion_lon": 0.0, "fusion_lat": 0.0, "lon": -76.96824533333333, "name": "6f58015e573d851ff67f7361c671f8b2"}, {"bike_id": "217250d551478c0d70f3c9ee5d1cf2e5", "type": "electric_scooter", "is_disabled": 0, "lat": 38.8946165, "rental_uris": {"ios": "https://dc.lft.to/lastmile_qr_scan", "android": "https://dc.lft.to/lastmile_qr_scan"}, "is_reserved": 0, "fusion_lon": 0.0, "fusion_lat": 0.0, "lon": -77.027949, "name": "217250d551478c0d70f3c9ee5d1cf2e5"}, {"bike_id": "25fbe9594a12ecd3ef454bd319f9f74c", "type": "electric_bike", "is_disabled": 0, "lat": 38.83930483333333, "rental_uris": {"ios": "https://dc.lft.to/lastmile_qr_scan", "android": "https://dc.lft.to/lastmile_qr_scan"}, "is_reserved": 0, "fusion_lon": 0.0, "fusion_lat": 0.0, "lon": -77.07896566666666, "name": "25fbe9594a12ecd3ef454bd319f9f74c"}, {"bike_id": "975e6a97a8741c4096add04c512d7246", "type": "electric_bike", "is_disabled": 0, "lat": 38.804451, "rental_uris": {"ios": "https://dc.lft.to/lastmile_qr_scan", "android": "https://dc.lft.to/lastmile_qr_scan"}, "is_reserved": 0, "fusion_lon": 0.0, "fusion_lat": 0.0, "lon": -77.0538855, "name": "975e6a97a8741c4096add04c512d7246"}, {"bike_id": "1b8d27094d69d7b8db436587b03583fd", "type": "electric_scooter", "is_disabled": 0, "lat": 38.90512016666667, "rental_uris": {"ios": "https://dc.lft.to/lastmile_qr_scan", "android": "https://dc.lft.to/lastmile_qr_scan"}, "is_reserved": 0, "fusion_lon": 0.0, "fusion_lat": 0.0, "lon": -77.026989, "name": "1b8d27094d69d7b8db436587b03583fd"}, {"bike_id": "8f8005d8277380c422f2ca11d52a40f3", "type": "electric_bike", "is_disabled": 0, "lat": 38.9530155, "rental_uris": {"ios": "https://dc.lft.to/lastmile_qr_scan", "android": "https://dc.lft.to/lastmile_qr_scan"}, "is_reserved": 0, "fusion_lon": 0.0, "fusion_lat": 0.0, "lon": -76.99904266666667, "name": "8f8005d8277380c422f2ca11d52a40f3"}, {"bike_id": "dc15c5e7ac9fab22042d595c135f072d", "type": "electric_scooter", "is_disabled": 0, "lat": 38.89535466666667, "rental_uris": {"ios": "https://dc.lft.to/lastmile_qr_scan", "android": "https://dc.lft.to/lastmile_qr_scan"}, "is_reserved": 0, "fusion_lon": 0.0, "fusion_lat": 0.0, "lon": -77.011231, "name": "dc15c5e7ac9fab22042d595c135f072d"}, {"bike_id": "b1c1567eb5f41224c3f10776183e31ea", "type": "electric_scooter", "is_disabled": 0, "lat": 38.86654683333333, "rental_uris": {"ios": "https://dc.lft.to/lastmile_qr_scan", "android": "https://dc.lft.to/lastmile_qr_scan"}, "is_reserved": 0, "fusion_lon": 0.0, "fusion_lat": 0.0, "lon": -76.9888145, "name": "b1c1567eb5f41224c3f10776183e31ea"}, {"bike_id": "83dd1b7fe1ee2d6a23fad788e6ec7c06", "type": "electric_scooter", "is_disabled": 0, "lat": 38.90407866666666, "rental_uris": {"ios": "https://dc.lft.to/lastmile_qr_scan", "android": "https://dc.lft.to/lastmile_qr_scan"}, "is_reserved": 0, "fusion_lon": 0.0, "fusion_lat": 0.0, "lon": -76.973322, "name": "83dd1b7fe1ee2d6a23fad788e6ec7c06"}, {"bike_id": "abe5aa23558d18518e67d986d80525ca", "type": "electric_scooter", "is_disabled": 0, "lat": 38.92239433333334, "rental_uris": {"ios": "https://dc.lft.to/lastmile_qr_scan", "android": "https://dc.lft.to/lastmile_qr_scan"}, "is_reserved": 0, "fusion_lon": 0.0, "fusion_lat": 0.0, "lon": -77.03705083333334, "name": "abe5aa23558d18518e67d986d80525ca"}, {"bike_id": "110576463ca89f1b21c5381a327af7da", "type": "electric_bike", "is_disabled": 0, "lat": 38.947308, "rental_uris": {"ios": "https://dc.lft.to/lastmile_qr_scan", "android": "https://dc.lft.to/lastmile_qr_scan"}, "is_reserved": 0, "fusion_lon": 0.0, "fusion_lat": 0.0, "lon": -76.9958075, "name": "110576463ca89f1b21c5381a327af7da"}, {"bike_id": "30a744819d296ad18ada371c0b204a47", "type": "electric_scooter", "is_disabled": 0, "lat": 38.90362233333333, "rental_uris": {"ios": "https://dc.lft.to/lastmile_qr_scan", "android": "https://dc.lft.to/lastmile_qr_scan"}, "is_reserved": 0, "fusion_lon": 0.0, "fusion_lat": 0.0, "lon": -77.021951, "name": "30a744819d296ad18ada371c0b204a47"}, {"bike_id": "af79ab0ff9e791722feededf126fac50", "type": "electric_scooter", "is_disabled": 0, "lat": 38.92144233333333, "rental_uris": {"ios": "https://dc.lft.to/lastmile_qr_scan", "android": "https://dc.lft.to/lastmile_qr_scan"}, "is_reserved": 0, "fusion_lon": 0.0, "fusion_lat": 0.0, "lon": -77.0333555, "name": "af79ab0ff9e791722feededf126fac50"}, {"bike_id": "be1e394d5cffbdd0f6f343555ce0777d", "type": "electric_scooter", "is_disabled": 0, "lat": 38.905789666666664, "rental_uris": {"ios": "https://dc.lft.to/lastmile_qr_scan", "android": "https://dc.lft.to/lastmile_qr_scan"}, "is_reserved": 0, "fusion_lon": 0.0, "fusion_lat": 0.0, "lon": -77.05709083333333, "name": "be1e394d5cffbdd0f6f343555ce0777d"}, {"bike_id": "83554379598b1899297631ee543039ce", "type": "electric_scooter", "is_disabled": 0, "lat": 38.917118333333335, "rental_uris": {"ios": "https://dc.lft.to/lastmile_qr_scan", "android": "https://dc.lft.to/lastmile_qr_scan"}, "is_reserved": 0, "fusion_lon": 0.0, "fusion_lat": 0.0, "lon": -77.029544, "name": "83554379598b1899297631ee543039ce"}, {"bike_id": "c2de459771a97429da8bd353a8bb5e6c", "type": "electric_scooter", "is_disabled": 0, "lat": 38.91503083333333, "rental_uris": {"ios": "https://dc.lft.to/lastmile_qr_scan", "android": "https://dc.lft.to/lastmile_qr_scan"}, "is_reserved": 0, "fusion_lon": 0.0, "fusion_lat": 0.0, "lon": -77.0177475, "name": "c2de459771a97429da8bd353a8bb5e6c"}, {"bike_id": "9f5bb7045680e6ae5c8ea226fe1d7adf", "type": "electric_scooter", "is_disabled": 0, "lat": 38.91419583333333, "rental_uris": {"ios": "https://dc.lft.to/lastmile_qr_scan", "android": "https://dc.lft.to/lastmile_qr_scan"}, "is_reserved": 0, "fusion_lon": 0.0, "fusion_lat": 0.0, "lon": -77.02400833333333, "name": "9f5bb7045680e6ae5c8ea226fe1d7adf"}, {"bike_id": "fb645d0d32b17dfeadff614f5be72186", "type": "electric_scooter", "is_disabled": 0, "lat": 38.9105395, "rental_uris": {"ios": "https://dc.lft.to/lastmile_qr_scan", "android": "https://dc.lft.to/lastmile_qr_scan"}, "is_reserved": 0, "fusion_lon": 0.0, "fusion_lat": 0.0, "lon": -77.02180233333333, "name": "fb645d0d32b17dfeadff614f5be72186"}, {"bike_id": "a965deee052985b694fc48adf634cb60", "type": "electric_scooter", "is_disabled": 0, "lat": 38.84307366666667, "rental_uris": {"ios": "https://dc.lft.to/lastmile_qr_scan", "android": "https://dc.lft.to/lastmile_qr_scan"}, "is_reserved": 0, "fusion_lon": 0.0, "fusion_lat": 0.0, "lon": -76.99917666666667, "name": "a965deee052985b694fc48adf634cb60"}, {"bike_id": "840f75ba826f8726738570ddd9660de6", "type": "electric_bike", "is_disabled": 0, "lat": 38.92064333333333, "rental_uris": {"ios": "https://dc.lft.to/lastmile_qr_scan", "android": "https://dc.lft.to/lastmile_qr_scan"}, "is_reserved": 0, "fusion_lon": 0.0, "fusion_lat": 0.0, "lon": -76.89064366666666, "name": "840f75ba826f8726738570ddd9660de6"}, {"bike_id": "e4dc961289777f71809485fda81db3ee", "type": "electric_scooter", "is_disabled": 0, "lat": 38.923324, "rental_uris": {"ios": "https://dc.lft.to/lastmile_qr_scan", "android": "https://dc.lft.to/lastmile_qr_scan"}, "is_reserved": 0, "fusion_lon": 0.0, "fusion_lat": 0.0, "lon": -77.03482983333333, "name": "e4dc961289777f71809485fda81db3ee"}, {"bike_id": "67a4acb1197f5ffd850c0951520312bc", "type": "electric_scooter", "is_disabled": 0, "lat": 38.916973, "rental_uris": {"ios": "https://dc.lft.to/lastmile_qr_scan", "android": "https://dc.lft.to/lastmile_qr_scan"}, "is_reserved": 0, "fusion_lon": 0.0, "fusion_lat": 0.0, "lon": -77.04186783333333, "name": "67a4acb1197f5ffd850c0951520312bc"}, {"bike_id": "b3ceaba67f0f83359b5e669044e61941", "type": "electric_scooter", "is_disabled": 0, "lat": 38.8974605, "rental_uris": {"ios": "https://dc.lft.to/lastmile_qr_scan", "android": "https://dc.lft.to/lastmile_qr_scan"}, "is_reserved": 0, "fusion_lon": 0.0, "fusion_lat": 0.0, "lon": -76.94183983333333, "name": "b3ceaba67f0f83359b5e669044e61941"},