{"data": {"bikes": [{"rental_uris": {"ios": "https://dc.lft.to/lastmile_qr_scan", "android": "https://dc.lft.to/lastmile_qr_scan"}, "lon": -77.0373035, "type": "electric_scooter", "fusion_lat": 0.0, "lat": 38.92840916666667, "name": "7b9fca46e6069d7bb60c552fdd5fddca", "fusion_lon": 0.0, "bike_id": "7b9fca46e6069d7bb60c552fdd5fddca", "is_disabled": 0, "is_reserved": 0}, {"rental_uris": {"ios": "https://dc.lft.to/lastmile_qr_scan", "android": "https://dc.lft.to/lastmile_qr_scan"}, "lon": -77.09520216666667, "type": "electric_bike", "fusion_lat": 0.0, "lat": 38.838107666666666, "name": "0f573f90cb01cf1a1e531ae9778db95b", "fusion_lon": 0.0, "bike_id": "0f573f90cb01cf1a1e531ae9778db95b", "is_disabled": 0, "is_reserved": 0}, {"rental_uris": {"ios": "https://dc.lft.to/lastmile_qr_scan", "android": "https://dc.lft.to/lastmile_qr_scan"}, "lon": -77.04129783333333, "type": "electric_scooter", "fusion_lat": 0.0, "lat": 38.921436, "name": "484f49e87b26f25463476b55ad65d1c3", "fusion_lon": 0.0, "bike_id": "484f49e87b26f25463476b55ad65d1c3", "is_disabled": 0, "is_reserved": 0}, {"rental_uris": {"ios": "https://dc.lft.to/lastmile_qr_scan", "android": "https://dc.lft.to/lastmile_qr_scan"}, "lon": -77.0325215, "type": "electric_scooter", "fusion_lat": 0.0, "lat": 38.918179, "name": "b3db5ec6ceaac3d989c9605413d8181d", "fusion_lon": 0.0, "bike_id": "b3db5ec6ceaac3d989c9605413d8181d", "is_disabled": 0, "is_reserved": 0}, {"rental_uris": {"ios": "https://dc.lft.to/lastmile_qr_scan", "android": "https://dc.lft.to/lastmile_qr_scan"}, "lon": -77.0215265, "type": "electric_scooter", "fusion_lat": 0.0, "lat": 38.89607766666666, "name": "84452fa08df2b15ba2bb520fe28d8733", "fusion_lon": 0.0, "bike_id": "84452fa08df2b15ba2bb520fe28d8733", "is_disabled": 0, "is_reserved": 0}, {"rental_uris": {"ios": "https://dc.lft.to/lastmile_qr_scan", "android": "https://dc.lft.to/lastmile_qr_scan"}, "lon": -76.95821616666667, "type": "electric_scooter", "fusion_lat": 0.0, "lat": 38.890548833333334, "name": "2bc651b6dc99bbc147fe3eed8c0a5ac9", "fusion_lon": 0.0, "bike_id": "2bc651b6dc99bbc147fe3eed8c0a5ac9", "is_disabled": 0, "is_reserved": 0}, {"rental_uris": {"ios": "https://dc.lft.to/lastmile_qr_scan", "android": "https://dc.lft.to/lastmile_qr_scan"}, "lon": -76.98619516666666, "type": "electric_scooter", "fusion_lat": 0.0, "lat": 38.86819033333333, "name": "7313e72a7cb91dcb7e5de5145e09516d", "fusion_lon": 0.0, "bike_id": "7313e72a7cb91dcb7e5de5145e09516d", "is_disabled": 0, "is_reserved": 0}, {"rental_uris": {"ios": "https://dc.lft.to/lastmile_qr_scan", "android": "https://dc.lft.to/lastmile_qr_scan"}, "lon": -77.03216516666667, "type": "electric_scooter", "fusion_lat": 0.0, "lat": 38.917446, "name": "55ee02034fba646ac435cb9164eb70bf", "fusion_lon": 0.0, "bike_id": "55ee02034fba646ac435cb9164eb70bf", "is_disabled": 0, "is_reserved": 0}, {"rental_uris": {"ios": "https://dc.lft.to/lastmile_qr_scan", "android": "https://dc.lft.to/lastmile_qr_scan"}, "lon": -77.0559455, "type": "electric_scooter", "fusion_lat": 0.0, "lat": 38.927782666666666, "name": "3fdc4780073e5f3be089f625cec5eb36", "fusion_lon": 0.0, "bike_id": "3fdc4780073e5f3be089f625cec5eb36", "is_disabled": 0, "is_reserved": 0}, {"rental_uris": {"ios": "https://dc.lft.to/lastmile_qr_scan", "android": "https://dc.lft.to/lastmile_qr_scan"}, "lon": -77.01236033333333, "type": "electric_scooter", "fusion_lat": 0.0, "lat": 38.8697595, "name": "7849a5ce25a08abc48bcba59fe1a11f5", "fusion_lon": 0.0, "bike_id": "7849a5ce25a08abc48bcba59fe1a11f5", "is_disabled": 0, "is_reserved": 0}, {"rental_uris": {"ios": "https://dc.lft.to/lastmile_qr_scan", "android": "https://dc.lft.to/lastmile_qr_scan"}, "lon": -77.03101783333334, "type": "electric_scooter", "fusion_lat": 0.0, "lat": 38.918045, "name": "582a623ea068ffa7d62f32c8845f38b9", "fusion_lon": 0.0, "bike_id": "582a623ea068ffa7d62f32c8845f38b9", "is_disabled": 0, "is_reserved": 0}, {"rental_uris": {"ios": "https://dc.lft.to/lastmile_qr_scan", "android": "https://dc.lft.to/lastmile_qr_scan"}, "lon": -77.03203666666667, "type": "electric_scooter", "fusion_lat": 0.0, "lat": 38.93759033333333, "name": "722989659cead3b62b366f7ad180f013", "fusion_lon": 0.0, "bike_id": "722989659cead3b62b366f7ad180f013", "is_disabled": 0, "is_reserved": 0}, {"rental_uris": {"ios": "https://dc.lft.to/lastmile_qr_scan", "android": "https://dc.lft.to/lastmile_qr_scan"}, "lon": -77.0501455, "type": "electric_scooter", "fusion_lat": 0.0, "lat": 38.903930833333334, "name": "fa39db1860c80cd7f5dde56267b919f5", "fusion_lon": 0.0, "bike_id": "fa39db1860c80cd7f5dde56267b919f5", "is_disabled": 0, "is_reserved": 0}, {"rental_uris": {"ios": "https://dc.lft.to/lastmile_qr_scan", "android": "https://dc.lft.to/lastmile_qr_scan"}, "lon": -77.04860416666666, "type": "electric_scooter", "fusion_lat": 0.0, "lat": 38.90649466666667, "name": "f4494f1ff43a0f7c233bbbeda8439317", "fusion_lon": 0.0, "bike_id": "f4494f1ff43a0f7c233bbbeda8439317", "is_disabled": 0, "is_reserved": 0}, {"rental_uris": {"ios": "https://dc.lft.to/lastmile_qr_scan", "android": "https://dc.lft.to/lastmile_qr_scan"}, "lon": -76.97252383333333, "type": "electric_bike", "fusion_lat": 0.0, "lat": 38.9574155, "name": "80e1e1e5472bb20f37c6622bbcedbcd8", "fusion_lon": 0.0, "bike_id": "80e1e1e5472bb20f37c6622bbcedbcd8", "is_disabled": 0, "is_reserved": 0}, {"rental_uris": {"ios": "https://dc.lft.to/lastmile_qr_scan", "android": "https://dc.lft.to/lastmile_qr_scan"}, "lon": -77.05882966666667, "type": "electric_scooter", "fusion_lat": 0.0, "lat": 38.936361833333336, "name": "63986b7b6950f639eb319c0aa1d0f089", "fusion_lon": 0.0, "bike_id": "63986b7b6950f639eb319c0aa1d0f089", "is_disabled": 0, "is_reserved": 0}, {"rental_uris": {"ios": "https://dc.lft.to/lastmile_qr_scan", "android": "https://dc.lft.to/lastmile_qr_scan"}, "lon": -77.0111585, "type": "electric_scooter", "fusion_lat": 0.0, "lat": 38.8953185, "name": "8e394f1ce0aa4f68ac12c3d2d2802550", "fusion_lon": 0.0, "bike_id": "8e394f1ce0aa4f68ac12c3d2d2802550", "is_disabled": 0, "is_reserved": 0}, {"rental_uris": {"ios": "https://dc.lft.to/lastmile_qr_scan", "android": "https://dc.lft.to/lastmile_qr_scan"}, "lon": -77.03360166666667, "type": "electric_scooter", "fusion_lat": 0.0, "lat": 38.906184, "name": "6d47685c496c529db8afe6f5a0341f46", "fusion_lon": 0.0, "bike_id": "6d47685c496c529db8afe6f5a0341f46", "is_disabled": 0, "is_reserved": 0}, {"rental_uris": {"ios": "https://dc.lft.to/lastmile_qr_scan", "android": "https://dc.lft.to/lastmile_qr_scan"}, "lon": -76.9465405, "type": "electric_scooter", "fusion_lat": 0.0, "lat": 38.898245333333335, "name": "c0a2ec4f28c69317974d7b75317e0b94", "fusion_lon": 0.0, "bike_id": "c0a2ec4f28c69317974d7b75317e0b94", "is_disabled": 0, "is_reserved": 0}, {"rental_uris": {"ios": "https://dc.lft.to/lastmile_qr_scan", "android": "https://dc.lft.to/lastmile_qr_scan"}, "lon": -77.02468333333333, "type": "electric_scooter", "fusion_lat": 0.0, "lat": 38.906267, "name": "64814c105554a55f374d1af7e3fa5a46", "fusion_lon": 0.0, "bike_id": "64814c105554a55f374d1af7e3fa5a46", "is_disabled": 0, "is_reserved": 0}, {"rental_uris": {"ios": "https://dc.lft.to/lastmile_qr_scan", "android": "https://dc.lft.to/lastmile_qr_scan"}, "lon": -77.03023, "type": "electric_scooter", "fusion_lat": 0.0, "lat": 38.90258866666667, "name": "016ff3ba05d32f338ab19f7ffdb51f55", "fusion_lon": 0.0, "bike_id": "016ff3ba05d32f338ab19f7ffdb51f55", "is_disabled": 0, "is_reserved": 0}, {"rental_uris": {"ios": "https://dc.lft.to/lastmile_qr_scan", "android": "https://dc.lft.to/lastmile_qr_scan"}, "lon": -77.02696883333333, "type": "electric_scooter", "fusion_lat": 0.0, "lat": 38.9168855, "name": "f4bcbe9f91c9e69496a49b1540426b7c", "fusion_lon": 0.0, "bike_id": "f4bcbe9f91c9e69496a49b1540426b7c", "is_disabled": 0, "is_reserved": 0}, {"rental_uris": {"ios": "https://dc.lft.to/lastmile_qr_scan", "android": "https://dc.lft.to/lastmile_qr_scan"}, "lon": -77.002264, "type": "electric_bike", "fusion_lat": 0.0, "lat": 38.823726666666666, "name": "d64b3c9a6033d1b14b01513269acfaa8", "fusion_lon": 0.0, "bike_id": "d64b3c9a6033d1b14b01513269acfaa8", "is_disabled": 0, "is_reserved": 0}, {"rental_uris": {"ios": "https://dc.lft.to/lastmile_qr_scan", "android": "https://dc.lft.to/lastmile_qr_scan"}, "lon": -77.047055, "type": "electric_scooter", "fusion_lat": 0.0, "lat": 38.917896666666664, "name": "f60d03b75e63baa9535a171edff03d40", "fusion_lon": 0.0, "bike_id": "f60d03b75e63baa9535a171edff03d40", "is_disabled": 0, "is_reserved": 0}, {"rental_uris": {"ios": "https://dc.lft.to/lastmile_qr_scan", "android": "https://dc.lft.to/lastmile_qr_scan"}, "lon": -77.02617816666667, "type": "electric_scooter", "fusion_lat": 0.0, "lat": 38.91814133333333, "name": "04c869960d0debdf4d5741ca3cce7790", "fusion_lon": 0.0, "bike_id": "04c869960d0debdf4d5741ca3cce7790", "is_disabled": 0, "is_reserved": 0}, {"rental_uris": {"ios": "https://dc.lft.to/lastmile_qr_scan", "android": "https://dc.lft.to/lastmile_qr_scan"}, "lon": -76.98555183333333, "type": "electric_bike", "fusion_lat": 0.0, "lat": 38.8929, "name": "f907b51e2c1777ae56b51602feaca069", "fusion_lon": 0.0, "bike_id": "f907b51e2c1777ae56b51602feaca069", "is_disabled": 0, "is_reserved": 0}, {"rental_uris": {"ios": "https://dc.lft.to/lastmile_qr_scan", "android": "https://dc.lft.to/lastmile_qr_scan"}, "lon": -77.02395283333334, "type": "electric_scooter", "fusion_lat": 0.0, "lat": 38.906614, "name": "1d6e23980c2157f22b175eb1cd117a18", "fusion_lon": 0.0, "bike_id": "1d6e23980c2157f22b175eb1cd117a18", "is_disabled": 0, "is_reserved": 0}, {"rental_uris": {"ios": "https://dc.lft.to/lastmile_qr_scan", "android": "https://dc.lft.to/lastmile_qr_scan"}, "lon": -77.012288, "type": "electric_scooter", "fusion_lat": 0.0, "lat": 38.909759333333334, "name": "4b041b4fe4aa132797e268e2ab1a805f", "fusion_lon": 0.0, "bike_id": "4b041b4fe4aa132797e268e2ab1a805f", "is_disabled": 0, "is_reserved": 0}, {"rental_uris": {"ios": "https://dc.lft.to/lastmile_qr_scan", "android": "https://dc.lft.to/lastmile_qr_scan"}, "lon": -77.01372966666666, "type": "electric_scooter", "fusion_lat": 0.0, "lat": 38.870503, "name": "66d923b5cd3bdd92e5360e1df654ea5d", "fusion_lon": 0.0, "bike_id": "66d923b5cd3bdd92e5360e1df654ea5d", "is_disabled": 0, "is_reserved": 0}, {"rental_uris": {"ios": "https://dc.lft.to/lastmile_qr_scan", "android": "https://dc.lft.to/lastmile_qr_scan"}, "lon": -77.0391285, "type": "electric_scooter", "fusion_lat": 0.0, "lat": 38.923125, "name": "44f58e6c6b9a37469d7446c731702692", "fusion_lon": 0.0, "bike_id": "44f58e6c6b9a37469d7446c731702692", "is_disabled": 0, "is_reserved": 0}, {"rental_uris": {"ios": "https://dc.lft.to/lastmile_qr_scan", "android": "https://dc.lft.to/lastmile_qr_scan"}, "lon": -76.94747, "type": "electric_scooter", "fusion_lat": 0.0, "lat": 38.896763166666666, "name": "defc570fecc9f7179c976c92cb9bd1c3", "fusion_lon": 0.0, "bike_id": "defc570fecc9f7179c976c92cb9bd1c3", "is_disabled": 0, "is_reserved": 0}, {"rental_uris": {"ios": "https://dc.lft.to/lastmile_qr_scan", "android": "https://dc.lft.to/lastmile_qr_scan"}, "lon": -77.09553816666667, "type": "electric_scooter", "fusion_lat": 0.0, "lat": 38.91654916666667, "name": "4fbaa10a76f5f90b31d6d444a530bd47", "fusion_lon": 0.0, "bike_id": "4fbaa10a76f5f90b31d6d444a530bd47", "is_disabled": 0, "is_reserved": 0}, {"rental_uris": {"ios": "https://dc.lft.to/lastmile_qr_scan", "android": "https://dc.lft.to/lastmile_qr_scan"}, "lon": -77.02887433333333, "type": "electric_scooter", "fusion_lat": 0.0, "lat": 38.90713733333333, "name": "9c718f54b9539d38ead4e9690e86ed38", "fusion_lon": 0.0, "bike_id": "9c718f54b9539d38ead4e9690e86ed38", "is_disabled": 0, "is_reserved": 0}, {"rental_uris": {"ios": "https://dc.lft.to/lastmile_qr_scan", "android": "https://dc.lft.to/lastmile_qr_scan"}, "lon": -77.0326105, "type": "electric_scooter", "fusion_lat": 0.0, "lat": 38.9287845, "name": "381a7a22e26e6e657c142d9b94a79f91", "fusion_lon": 0.0, "bike_id": "381a7a22e26e6e657c142d9b94a79f91", "is_disabled": 0, "is_reserved": 0}, {"rental_uris": {"ios": "https://dc.lft.to/lastmile_qr_scan", "android": "https://dc.lft.to/lastmile_qr_scan"}, "lon": -77.03991133333334, "type": "electric_scooter", "fusion_lat": 0.0, "lat": 38.90728083333333, "name": "6c66be5e18c3bc75ecbe9b300b90a97d", "fusion_lon": 0.0, "bike_id": "6c66be5e18c3bc75ecbe9b300b90a97d", "is_disabled": 0, "is_reserved": 0}, {"rental_uris": {"ios": "https://dc.lft.to/lastmile_qr_scan", "android": "https://dc.lft.to/lastmile_qr_scan"}, "lon": -77.01180066666667, "type": "electric_scooter", "fusion_lat": 0.0, "lat": 38.9064745, "name": "2d44e7e037c5d1ebe1ea456c0e1962b0", "fusion_lon": 0.0, "bike_id": "2d44e7e037c5d1ebe1ea456c0e1962b0", "is_disabled": 0, "is_reserved": 0}, {"rental_uris": {"ios": "https://dc.lft.to/lastmile_qr_scan", "android": "https://dc.lft.to/lastmile_qr_scan"}, "lon": -76.98822383333334, "type": "electric_scooter", "fusion_lat": 0.0, "lat": 38.90335416666667, "name": "7baf6f781def9cd363f03748a78cc78e", "fusion_lon": 0.0, "bike_id": "7baf6f781def9cd363f03748a78cc78e", "is_disabled": 0, "is_reserved": 0}, {"rental_uris": {"ios": "https://dc.lft.to/lastmile_qr_scan", "android": "https://dc.lft.to/lastmile_qr_scan"}, "lon": -77.0332865, "type": "electric_scooter", "fusion_lat": 0.0, "lat": 38.90122316666667, "name": "d672afdee98f12cd5f9c71b6db857e2b", "fusion_lon": 0.0, "bike_id": "d672afdee98f12cd5f9c71b6db857e2b", "is_disabled": 0, "is_reserved": 0}, {"rental_uris": {"ios": "https://dc.lft.to/lastmile_qr_scan", "android": "https://dc.lft.to/lastmile_qr_scan"}, "lon": -77.010751, "type": "electric_scooter", "fusion_lat": 0.0, "lat": 38.91906616666667, "name": "0a4e4f02c72ae390183d5991225e8d6f", "fusion_lon": 0.0, "bike_id": "0a4e4f02c72ae390183d5991225e8d6f", "is_disabled": 0, "is_reserved": 0}, {"rental_uris": {"ios": "https://dc.lft.to/lastmile_qr_scan", "android": "https://dc.lft.to/lastmile_qr_scan"}, "lon": -77.05323366666667, "type": "electric_scooter", "fusion_lat": 0.0, "lat": 38.93966733333333, "name": "4bac544fa64f93d4b8a89f77b265cd9c", "fusion_lon": 0.0, "bike_id": "4bac544fa64f93d4b8a89f77b265cd9c", "is_disabled": 0, "is_reserved": 0}, {"rental_uris": {"ios": "https://dc.lft.to/lastmile_qr_scan", "android": "https://dc.lft.to/lastmile_qr_scan"}, "lon": -77.04172133333333, "type": "electric_scooter", "fusion_lat": 0.0, "lat": 38.917689833333334, "name": "6c176151d12e10f7ea354bb22a3aa2ea", "fusion_lon": 0.0, "bike_id": "6c176151d12e10f7ea354bb22a3aa2ea", "is_disabled": 0, "is_reserved": 0}, {"rental_uris": {"ios": "https://dc.lft.to/lastmile_qr_scan", "android": "https://dc.lft.to/lastmile_qr_scan"}, "lon": -77.0245525, "type": "electric_scooter", "fusion_lat": 0.0, "lat": 38.97934, "name": "b260f7594756cb603574b389a8d9f6f6", "fusion_lon": 0.0, "bike_id": "b260f7594756cb603574b389a8d9f6f6", "is_disabled": 0, "is_reserved": 0}, {"rental_uris": {"ios": "https://dc.lft.to/lastmile_qr_scan", "android": "https://dc.lft.to/lastmile_qr_scan"}, "lon": -77.03809566666666, "type": "electric_scooter", "fusion_lat": 0.0, "lat": 38.90382, "name": "d3ee206c9ba5b93225b1740c843bd088", "fusion_lon": 0.0, "bike_id": "d3ee206c9ba5b93225b1740c843bd088", "is_disabled": 0, "is_reserved": 0}, {"rental_uris": {"ios": "https://dc.lft.to/lastmile_qr_scan", "android": "https://dc.lft.to/lastmile_qr_scan"}, "lon": -77.03217966666666, "type": "electric_scooter", "fusion_lat": 0.0, "lat": 38.9181955, "name": "e1825c824d0300732257b264f5c03db5", "fusion_lon": 0.0, "bike_id": "e1825c824d0300732257b264f5c03db5", "is_disabled": 0, "is_reserved": 0}, {"rental_uris": {"ios": "https://dc.lft.to/lastmile_qr_scan", "android": "https://dc.lft.to/lastmile_qr_scan"}, "lon": -77.03631616666667, "type": "electric_scooter", "fusion_lat": 0.0, "lat": 38.956382, "name": "b8bcfed3667664104e6d716e2313381a", "fusion_lon": 0.0, "bike_id": "b8bcfed3667664104e6d716e2313381a", "is_disabled": 0, "is_reserved": 0}, {"rental_uris": {"ios": "https://dc.lft.to/lastmile_qr_scan", "android": "https://dc.lft.to/lastmile_qr_scan"}, "lon": -77.0386305, "type": "electric_scooter", "fusion_lat": 0.0, "lat": 38.932604, "name": "08814d251aef3c55568db4729c59b43d", "fusion_lon": 0.0, "bike_id": "08814d251aef3c55568db4729c59b43d", "is_disabled": 0, "is_reserved": 0}, {"rental_uris": {"ios": "https://dc.lft.to/lastmile_qr_scan", "android": "https://dc.lft.to/lastmile_qr_scan"}, "lon": -77.045454, "type": "electric_scooter", "fusion_lat": 0.0, "lat": 38.919359666666665, "name": "20054d93b64d2a74a8fa5a25dbe018fe", "fusion_lon": 0.0, "bike_id": "20054d93b64d2a74a8fa5a25dbe018fe", "is_disabled": 0, "is_reserved": 0}, {"rental_uris": {"ios": "https://dc.lft.to/lastmile_qr_scan", "android": "https://dc.lft.to/lastmile_qr_scan"}, "lon": -77.02199216666666, "type": "electric_scooter", "fusion_lat": 0.0, "lat": 38.880545166666664, "name": "ed400cbe9daddd4badbfda7a38748978", "fusion_lon": 0.0, "bike_id": "ed400cbe9daddd4badbfda7a38748978", "is_disabled": 0, "is_reserved": 0}, {"rental_uris": {"ios": "https://dc.lft.to/lastmile_qr_scan", "android": "https://dc.lft.to/lastmile_qr_scan"}, "lon": -77.0257845, "type": "electric_scooter", "fusion_lat": 0.0, "lat": 38.91816216666667, "name": "1743139b4da5323e7559b900c18045b6", "fusion_lon": 0.0, "bike_id": "1743139b4da5323e7559b900c18045b6", "is_disabled": 0, "is_reserved": 0}, {"rental_uris": {"ios": "https://dc.lft.to/lastmile_qr_scan", "android": "https://dc.lft.to/lastmile_qr_scan"}, "lon": -77.02672416666667, "type": "electric_scooter", "fusion_lat": 0.0, "lat": 38.8999575, "name": "0b2f7c1bcb151c5d91a1c05b08ad0750", "fusion_lon": 0.0, "bike_id": "0b2f7c1bcb151c5d91a1c05b08ad0750", "is_disabled": 0, "is_reserved": 0}, {"rental_uris": {"ios": "https://dc.lft.to/lastmile_qr_scan", "android": "https://dc.lft.to/lastmile_qr_scan"}, "lon": -77.0527075, "type": "electric_scooter", "fusion_lat": 0.0, "lat": 38.910122, "name": "fa06bbb2ab9728eacd1b1acb6560fd51", "fusion_lon": 0.0, "bike_id": "fa06bbb2ab9728eacd1b1acb6560fd51", "is_disabled": 0, "is_reserved": 0}, {"rental_uris": {"ios": "https://dc.lft.to/lastmile_qr_scan", "android": "https://dc.lft.to/lastmile_qr_scan"}, "lon": -76.97327283333334, "type": "electric_bike", "fusion_lat": 0.0, "lat": 38.850625666666666, "name": "8b880f6249453b2488069e299ac482ac", "fusion_lon": 0.0, "bike_id": "8b880f6249453b2488069e299ac482ac", "is_disabled": 0, "is_reserved": 0}, {"rental_uris": {"ios": "https://dc.lft.to/lastmile_qr_scan", "android": "https://dc.lft.to/lastmile_qr_scan"}, "lon": -77.03961, "type": "electric_scooter", "fusion_lat": 0.0, "lat": 38.902683833333334, "name": "2bccf0e0ab2f02453ed0ad8dd26d8a13", "fusion_lon": 0.0, "bike_id": "2bccf0e0ab2f02453ed0ad8dd26d8a13", "is_disabled": 0, "is_reserved": 0}, {"rental_uris": {"ios": "https://dc.lft.to/lastmile_qr_scan", "android": "https://dc.lft.to/lastmile_qr_scan"}, "lon": -76.97223583333333, "type": "electric_bike", "fusion_lat": 0.0, "lat": 38.844780166666666, "name": "6b6a85167cace2da4f5f1fa2c120caa7", "fusion_lon": 0.0, "bike_id": "6b6a85167cace2da4f5f1fa2c120caa7", "is_disabled": 0, "is_reserved": 0}, {"rental_uris": {"ios": "https://dc.lft.to/lastmile_qr_scan", "android": "https://dc.lft.to/lastmile_qr_scan"}, "lon": -76.96552966666667, "type": "electric_scooter", "fusion_lat": 0.0, "lat": 38.918681, "name": "73a718514c7b4e2b23d8bea667bc33bb", "fusion_lon": 0.0, "bike_id": "73a718514c7b4e2b23d8bea667bc33bb", "is_disabled": 0, "is_reserved": 0}, {"rental_uris": {"ios": "https://dc.lft.to/lastmile_qr_scan", "android": "https://dc.lft.to/lastmile_qr_scan"}, "lon": -77.022118, "type": "electric_scooter", "fusion_lat": 0.0, "lat": 38.89706266666666, "name": "2dd2548ba56b56d3f92095b83495ab80", "fusion_lon": 0.0, "bike_id": "2dd2548ba56b56d3f92095b83495ab80", "is_disabled": 0, "is_reserved": 0}, {"rental_uris": {"ios": "https://dc.lft.to/lastmile_qr_scan", "android": "https://dc.lft.to/lastmile_qr_scan"}, "lon": -77.02479016666666, "type": "electric_scooter", "fusion_lat": 0.0, "lat": 38.9033935, "name": "0131e3286561ad86a7785b328967be95", "fusion_lon": 0.0, "bike_id": "0131e3286561ad86a7785b328967be95", "is_disabled": 0, "is_reserved": 0}, {"rental_uris": {"ios": "https://dc.lft.to/lastmile_qr_scan", "android": "https://dc.lft.to/lastmile_qr_scan"}, "lon": -77.01775083333334, "type": "electric_scooter", "fusion_lat": 0.0, "lat": 38.919514666666664, "name": "c3ad2ffcba05154da267b30a19d93341", "fusion_lon": 0.0, "bike_id": "c3ad2ffcba05154da267b30a19d93341", "is_disabled": 0, "is_reserved": 0}, {"rental_uris": {"ios": "https://dc.lft.to/lastmile_qr_scan", "android": "https://dc.lft.to/lastmile_qr_scan"}, "lon": -77.02198716666666, "type": "electric_scooter", "fusion_lat": 0.0, "lat": 38.90061, "name": "9e716bdbd6c3b6d6eee174e02e901c4b", "fusion_lon": 0.0, "bike_id": "9e716bdbd6c3b6d6eee174e02e901c4b", "is_disabled": 0, "is_reserved": 0}, {"rental_uris": {"ios": "https://dc.lft.to/lastmile_qr_scan", "android": "https://dc.lft.to/lastmile_qr_scan"}, "lon": -76.944388, "type": "electric_bike", "fusion_lat": 0.0, "lat": 38.902971, "name": "b3fe2ab167b1094c9e3b1fa73aec6b44", "fusion_lon": 0.0, "bike_id": "b3fe2ab167b1094c9e3b1fa73aec6b44", "is_disabled": 0, "is_reserved": 0}, {"rental_uris": {"ios": "https://dc.lft.to/lastmile_qr_scan", "android": "https://dc.lft.to/lastmile_qr_scan"}, "lon": -77.0384895, "type": "electric_scooter", "fusion_lat": 0.0, "lat": 38.90766633333333, "name": "2a31286a88a048813c1cc1231458199a", "fusion_lon": 0.0, "bike_id": "2a31286a88a048813c1cc1231458199a", "is_disabled": 0, "is_reserved": 0}, {"rental_uris": {"ios": "https://dc.lft.to/lastmile_qr_scan", "android": "https://dc.lft.to/lastmile_qr_scan"}, "lon": -77.01347183333333, "type": "electric_scooter", "fusion_lat": 0.0, "lat": 38.92726666666667, "name": "b6baa4d6b85240f54daa03ed824c9009", "fusion_lon": 0.0, "bike_id": "b6baa4d6b85240f54daa03ed824c9009", "is_disabled": 0, "is_reserved": 0}, {"rental_uris": {"ios": "https://dc.lft.to/lastmile_qr_scan", "android": "https://dc.lft.to/lastmile_qr_scan"}, "lon": -76.9826005, "type": "electric_scooter", "fusion_lat": 0.0, "lat": 38.863558, "name": "d9f6acaab859b01e8038a5bbb0123446", "fusion_lon": 0.0, "bike_id": "d9f6acaab859b01e8038a5bbb0123446", "is_disabled": 0, "is_reserved": 0}, {"rental_uris": {"ios": "https://dc.lft.to/lastmile_qr_scan", "android": "https://dc.lft.to/lastmile_qr_scan"}, "lon": -76.99382433333334, "type": "electric_scooter", "fusion_lat": 0.0, "lat": 38.8974385, "name": "4fc301061ec11c5cc06d870a36005ada", "fusion_lon": 0.0, "bike_id": "4fc301061ec11c5cc06d870a36005ada", "is_disabled": 0, "is_reserved": 0}, {"rental_uris": {"ios": "https://dc.lft.to/lastmile_qr_scan", "android": "https://dc.lft.to/lastmile_qr_scan"}, "lon": -77.05436266666666, "type": "electric_scooter", "fusion_lat": 0.0, "lat": 38.896044833333335, "name": "1fbb589f8c0603bf74fa8246fa837c00", "fusion_lon": 0.0, "bike_id": "1fbb589f8c0603bf74fa8246fa837c00", "is_disabled": 0, "is_reserved": 0}, {"rental_uris": {"ios": "https://dc.lft.to/lastmile_qr_scan", "android": "https://dc.lft.to/lastmile_qr_scan"}, "lon": -77.04412566666667, "type": "electric_scooter", "fusion_lat": 0.0, "lat": 38.90579483333333, "name": "f3b9ea59ae7234cea28d79c91115d4e6", "fusion_lon": 0.0, "bike_id": "f3b9ea59ae7234cea28d79c91115d4e6", "is_disabled": 0, "is_reserved": 0}, {"rental_uris": {"ios": "https://dc.lft.to/lastmile_qr_scan", "android": "https://dc.lft.to/lastmile_qr_scan"}, "lon": -77.01107516666667, "type": "electric_scooter", "fusion_lat": 0.0, "lat": 38.900019, "name": "79a7f30b57d0ecce055825fab25f0a55", "fusion_lon": 0.0, "bike_id": "79a7f30b57d0ecce055825fab25f0a55", "is_disabled": 0, "is_reserved": 0}, {"rental_uris": {"ios": "https://dc.lft.to/lastmile_qr_scan", "android": "https://dc.lft.to/lastmile_qr_scan"}, "lon": -77.032275, "type": "electric_scooter", "fusion_lat": 0.0, "lat": 38.91398933333333, "name": "2a0a214c13df3202940d323a5b7e12e1", "fusion_lon": 0.0, "bike_id": "2a0a214c13df3202940d323a5b7e12e1", "is_disabled": 0, "is_reserved": 0}, {"rental_uris": {"ios": "https://dc.lft.to/lastmile_qr_scan", "android": "https://dc.lft.to/lastmile_qr_scan"}, "lon": -77.01655333333333, "type": "electric_scooter", "fusion_lat": 0.0, "lat": 38.95329066666667, "name": "223160219fa9531a1f174ff39d49a9ea", "fusion_lon": 0.0, "bike_id": "223160219fa9531a1f174ff39d49a9ea", "is_disabled": 0, "is_reserved": 0}, {"rental_uris": {"ios": "https://dc.lft.to/lastmile_qr_scan", "android": "https://dc.lft.to/lastmile_qr_scan"}, "lon": -77.047884, "type": "electric_scooter", "fusion_lat": 0.0, "lat": 38.89376266666667, "name": "6cc9e9c8f64054096157d377cfc842fd", "fusion_lon": 0.0, "bike_id": "6cc9e9c8f64054096157d377cfc842fd", "is_disabled": 0, "is_reserved": 0}, {"rental_uris": {"ios": "https://dc.lft.to/lastmile_qr_scan", "android": "https://dc.lft.to/lastmile_qr_scan"}, "lon": -77.02023683333333, "type": "electric_scooter", "fusion_lat": 0.0, "lat": 38.91643083333334, "name": "fea6591dc115d9eda0293acd2d243cff", "fusion_lon": 0.0, "bike_id": "fea6591dc115d9eda0293acd2d243cff", "is_disabled": 0, "is_reserved": 0}, {"rental_uris": {"ios": "https://dc.lft.to/lastmile_qr_scan", "android": "https://dc.lft.to/lastmile_qr_scan"}, "lon": -77.01325833333334, "type": "electric_scooter", "fusion_lat": 0.0, "lat": 38.86722866666667, "name": "adc3c0c14996719cdb62f6d64e69d135", "fusion_lon": 0.0, "bike_id": "adc3c0c14996719cdb62f6d64e69d135", "is_disabled": 0, "is_reserved": 0}, {"rental_uris": {"ios": "https://dc.lft.to/lastmile_qr_scan", "android": "https://dc.lft.to/lastmile_qr_scan"}, "lon": -77.028202, "type": "electric_scooter", "fusion_lat": 0.0, "lat": 38.895297, "name": "cbc913f845a0e78f7032f7840affce93", "fusion_lon": 0.0, "bike_id": "cbc913f845a0e78f7032f7840affce93", "is_disabled": 0, "is_reserved": 0}, {"rental_uris": {"ios": "https://dc.lft.to/lastmile_qr_scan", "android": "https://dc.lft.to/lastmile_qr_scan"}, "lon": -77.0193445, "type": "electric_scooter", "fusion_lat": 0.0, "lat": 38.949261666666665, "name": "c580233bd5c86b040211d56a675a5ffa", "fusion_lon": 0.0, "bike_id": "c580233bd5c86b040211d56a675a5ffa", "is_disabled": 0, "is_reserved": 0}, {"rental_uris": {"ios": "https://dc.lft.to/lastmile_qr_scan", "android": "https://dc.lft.to/lastmile_qr_scan"}, "lon": -77.0756745, "type": "electric_scooter", "fusion_lat": 0.0, "lat": 38.9142835, "name": "c0befda009fd11dd8044c2dd004dcff0", "fusion_lon": 0.0, "bike_id": "c0befda009fd11dd8044c2dd004dcff0", "is_disabled": 0, "is_reserved": 0}, {"rental_uris": {"ios": "https://dc.lft.to/lastmile_qr_scan", "android": "https://dc.lft.to/lastmile_qr_scan"}, "lon": -77.03272466666667, "type": "electric_scooter", "fusion_lat": 0.0, "lat": 38.928672666666664, "name": "878cb328612e7fd02ea981bfb27ecd5f", "fusion_lon": 0.0, "bike_id": "878cb328612e7fd02ea981bfb27ecd5f", "is_disabled": 0, "is_reserved": 0}, {"rental_uris": {"ios": "https://dc.lft.to/lastmile_qr_scan", "android": "https://dc.lft.to/lastmile_qr_scan"}, "lon": -76.96553983333334, "type": "electric_scooter", "fusion_lat": 0.0, "lat": 38.91865716666667, "name": "ba0a11c16b0dbb87086f88a3dffd81fe", "fusion_lon": 0.0, "bike_id": "ba0a11c16b0dbb87086f88a3dffd81fe", "is_disabled": 0, "is_reserved": 0}, {"rental_uris": {"ios": "https://dc.lft.to/lastmile_qr_scan", "android": "https://dc.lft.to/lastmile_qr_scan"}, "lon": -77.04159333333334, "type": "electric_scooter", "fusion_lat": 0.0, "lat": 38.9142125, "name": "2a730be2b0456777d06b79027d44238d", "fusion_lon": 0.0, "bike_id": "2a730be2b0456777d06b79027d44238d", "is_disabled": 0, "is_reserved": 0}, {"rental_uris": {"ios": "https://dc.lft.to/lastmile_qr_scan", "android": "https://dc.lft.to/lastmile_qr_scan"}, "lon": -77.03121833333333, "type": "electric_scooter", "fusion_lat": 0.0, "lat": 38.91405233333333, "name": "2baae86421ec4efe1ff333b1066d8a4d", "fusion_lon": 0.0, "bike_id": "2baae86421ec4efe1ff333b1066d8a4d", "is_disabled": 0, "is_reserved": 0}, {"rental_uris": {"ios": "https://dc.lft.to/lastmile_qr_scan", "android": "https://dc.lft.to/lastmile_qr_scan"}, "lon": -77.050348, "type": "electric_scooter", "fusion_lat": 0.0, "lat": 38.9000595, "name": "0badb668ed6c12240262ce4702fd9c52", "fusion_lon": 0.0, "bike_id": "0badb668ed6c12240262ce4702fd9c52", "is_disabled": 0, "is_reserved": 0}, {"rental_uris": {"ios": "https://dc.lft.to/lastmile_qr_scan", "android": "https://dc.lft.to/lastmile_qr_scan"}, "lon": -77.04234183333334, "type": "electric_scooter", "fusion_lat": 0.0, "lat": 38.921571666666665, "name": "1ba50f1c9dc6b6e0db2763535ef9ac70", "fusion_lon": 0.0, "bike_id": "1ba50f1c9dc6b6e0db2763535ef9ac70", "is_disabled": 0, "is_reserved": 0}, {"rental_uris": {"ios": "https://dc.lft.to/lastmile_qr_scan", "android": "https://dc.lft.to/lastmile_qr_scan"}, "lon": -77.03218816666667, "type": "electric_scooter", "fusion_lat": 0.0, "lat": 38.908244333333336, "name": "249e8cb879ebc60dda54c3848936ca60", "fusion_lon": 0.0, "bike_id": "249e8cb879ebc60dda54c3848936ca60", "is_disabled": 0, "is_reserved": 0}, {"rental_uris": {"ios": "https://dc.lft.to/lastmile_qr_scan", "android": "https://dc.lft.to/lastmile_qr_scan"}, "lon": -77.005055, "type": "electric_scooter", "fusion_lat": 0.0, "lat": 38.895899166666666, "name": "6e941e4f6e5b2cadfb249da946f42916", "fusion_lon": 0.0, "bike_id": "6e941e4f6e5b2cadfb249da946f42916", "is_disabled": 0, "is_reserved": 0}, {"rental_uris": {"ios": "https://dc.lft.to/lastmile_qr_scan", "android": "https://dc.lft.to/lastmile_qr_scan"}, "lon": -77.0409675, "type": "electric_scooter", "fusion_lat": 0.0, "lat": 38.917720333333335, "name": "f4f939daeb4bac202eea73745984a34c", "fusion_lon": 0.0, "bike_id": "f4f939daeb4bac202eea73745984a34c", "is_disabled": 0, "is_reserved": 0}, {"rental_uris": {"ios": "https://dc.lft.to/lastmile_qr_scan", "android": "https://dc.lft.to/lastmile_qr_scan"}, "lon": -77.0052715, "type": "electric_scooter", "fusion_lat": 0.0, "lat": 38.92896283333333, "name": "bc706233af319c1e8a8dec296122c411", "fusion_lon": 0.0, "bike_id": "bc706233af319c1e8a8dec296122c411", "is_disabled": 0, "is_reserved": 0}, {"rental_uris": {"ios": "https://dc.lft.to/lastmile_qr_scan", "android": "https://dc.lft.to/lastmile_qr_scan"}, "lon": -76.96560983333333, "type": "electric_scooter", "fusion_lat": 0.0, "lat": 38.918583, "name": "eab736ee8eb2c30484376528c69e6e5e", "fusion_lon": 0.0, "bike_id": "eab736ee8eb2c30484376528c69e6e5e", "is_disabled": 0, "is_reserved": 0}, {"rental_uris": {"ios": "https://dc.lft.to/lastmile_qr_scan", "android": "https://dc.lft.to/lastmile_qr_scan"}, "lon": -77.08028466666667, "type": "electric_scooter", "fusion_lat": 0.0, "lat": 38.95044733333334, "name": "f913e442b85da99c81e207a5f131160d", "fusion_lon": 0.0, "bike_id": "f913e442b85da99c81e207a5f131160d", "is_disabled": 0, "is_reserved": 0}, {"rental_uris": {"ios": "https://dc.lft.to/lastmile_qr_scan", "android": "https://dc.lft.to/lastmile_qr_scan"}, "lon": -77.011882, "type": "electric_scooter", "fusion_lat": 0.0, "lat": 38.900145, "name": "077fc28f872a75104b62aca0d0d0ef42", "fusion_lon": 0.0, "bike_id": "077fc28f872a75104b62aca0d0d0ef42", "is_disabled": 0, "is_reserved": 0}, {"rental_uris": {"ios": "https://dc.lft.to/lastmile_qr_scan", "android": "https://dc.lft.to/lastmile_qr_scan"}, "lon": -77.042514, "type": "electric_scooter", "fusion_lat": 0.0, "lat": 38.922308, "name": "2e5b2643892d9dc4cbec48baebe47da6", "fusion_lon": 0.0, "bike_id": "2e5b2643892d9dc4cbec48baebe47da6", "is_disabled": 0, "is_reserved": 0}, {"rental_uris": {"ios": "https://dc.lft.to/lastmile_qr_scan", "android": "https://dc.lft.to/lastmile_qr_scan"}, "lon": -77.013987, "type": "electric_scooter", "fusion_lat": 0.0, "lat": 38.919460666666666, "name": "59cb87db40a1a58b894367352ef16772", "fusion_lon": 0.0, "bike_id": "59cb87db40a1a58b894367352ef16772", "is_disabled": 0, "is_reserved": 0}, {"rental_uris": {"ios": "https://dc.lft.to/lastmile_qr_scan", "android": "https://dc.lft.to/lastmile_qr_scan"}, "lon": -77.03768316666667, "type": "electric_scooter", "fusion_lat": 0.0, "lat": 38.9290085, "name": "29951948655d7ed91f37a30ed423d2a1", "fusion_lon": 0.0, "bike_id": "29951948655d7ed91f37a30ed423d2a1", "is_disabled": 0, "is_reserved": 0}, {"rental_uris": {"ios": "https://dc.lft.to/lastmile_qr_scan", "android": "https://dc.lft.to/lastmile_qr_scan"}, "lon": -77.05641216666666, "type": "electric_scooter", "fusion_lat": 0.0, "lat": 38.927534666666666, "name": "fba91a911125ae762c401efbfad02988", "fusion_lon": 0.0, "bike_id": "fba91a911125ae762c401efbfad02988", "is_disabled": 0, "is_reserved": 0}, {"rental_uris": {"ios": "https://dc.lft.to/lastmile_qr_scan", "android": "https://dc.lft.to/lastmile_qr_scan"}, "lon": -77.02810966666667, "type": "electric_scooter", "fusion_lat": 0.0, "lat": 38.881759, "name": "cca5e91771805a48279f919a2d9a267c", "fusion_lon": 0.0, "bike_id": "cca5e91771805a48279f919a2d9a267c", "is_disabled": 0, "is_reserved": 0}, {"rental_uris": {"ios": "https://dc.lft.to/lastmile_qr_scan", "android": "https://dc.lft.to/lastmile_qr_scan"}, "lon": -77.03184516666667, "type": "electric_scooter", "fusion_lat": 0.0, "lat": 38.89942816666667, "name": "f234739b271c42626ed41073ac759382", "fusion_lon": 0.0, "bike_id": "f234739b271c42626ed41073ac759382", "is_disabled": 0, "is_reserved": 0}, {"rental_uris": {"ios": "https://dc.lft.to/lastmile_qr_scan", "android": "https://dc.lft.to/lastmile_qr_scan"}, "lon": -77.01933716666667, "type": "electric_scooter", "fusion_lat": 0.0, "lat": 38.912655, "name": "0eb197bb503372d21a2ee50668dc0fee", "fusion_lon": 0.0, "bike_id": "0eb197bb503372d21a2ee50668dc0fee", "is_disabled": 0, "is_reserved": 0}, {"rental_uris": {"ios": "https://dc.lft.to/lastmile_qr_scan", "android": "https://dc.lft.to/lastmile_qr_scan"}, "lon": -77.00703683333333, "type": "electric_scooter", "fusion_lat": 0.0, "lat": 38.90560416666667, "name": "c8abb5a6528e7958bd6377f59245e529", "fusion_lon": 0.0, "bike_id": "c8abb5a6528e7958bd6377f59245e529", "is_disabled": 0, "is_reserved": 0}, {"rental_uris": {"ios": "https://dc.lft.to/lastmile_qr_scan", "android": "https://dc.lft.to/lastmile_qr_scan"}, "lon": -77.0260385, "type": "electric_scooter", "fusion_lat": 0.0, "lat": 38.90701716666667, "name": "068a9df290148f5e54ec94f99753ffe2", "fusion_lon": 0.0, "bike_id": "068a9df290148f5e54ec94f99753ffe2", "is_disabled": 0, "is_reserved": 0}, {"rental_uris": {"ios": "https://dc.lft.to/lastmile_qr_scan", "android": "https://dc.lft.to/lastmile_qr_scan"}, "lon": -77.01072833333333, "type": "electric_scooter", "fusion_lat": 0.0, "lat": 38.869785666666665, "name": "3ba8cce1c36ec354a2c112950b70d779", "fusion_lon": 0.0, "bike_id": "3ba8cce1c36ec354a2c112950b70d779", "is_disabled": 0, "is_reserved": 0}, {"rental_uris": {"ios": "https://dc.lft.to/lastmile_qr_scan", "android": "https://dc.lft.to/lastmile_qr_scan"}, "lon": -77.11428666666667, "type": "electric_bike", "fusion_lat": 0.0, "lat": 38.85244466666666, "name": "7c0708c2c04986bd38c5356fb8501600", "fusion_lon": 0.0, "bike_id": "7c0708c2c04986bd38c5356fb8501600", "is_disabled": 0, "is_reserved": 0}, {"rental_uris": {"ios": "https://dc.lft.to/lastmile_qr_scan", "android": "https://dc.lft.to/lastmile_qr_scan"}, "lon": -77.0225395, "type": "electric_scooter", "fusion_lat": 0.0, "lat": 38.916386, "name": "070fc49276e234549cac2e42d58f7416", "fusion_lon": 0.0, "bike_id": "070fc49276e234549cac2e42d58f7416", "is_disabled": 0, "is_reserved": 0}, {"rental_uris": {"ios": "https://dc.lft.to/lastmile_qr_scan", "android": "https://dc.lft.to/lastmile_qr_scan"}, "lon": -76.96798833333334, "type": "electric_scooter", "fusion_lat": 0.0, "lat": 38.86138416666667, "name": "ad3c0b2c1e746d94d562b93326608457", "fusion_lon": 0.0, "bike_id": "ad3c0b2c1e746d94d562b93326608457", "is_disabled": 0, "is_reserved": 0}, {"rental_uris": {"ios": "https://dc.lft.to/lastmile_qr_scan", "android": "https://dc.lft.to/lastmile_qr_scan"}, "lon": -77.03510616666667, "type": "electric_scooter", "fusion_lat": 0.0, "lat": 38.9214735, "name": "8eaa0d05248876bf389787a8827cf03d", "fusion_lon": 0.0, "bike_id": "8eaa0d05248876bf389787a8827cf03d", "is_disabled": 0, "is_reserved": 0}, {"rental_uris": {"ios": "https://dc.lft.to/lastmile_qr_scan", "android": "https://dc.lft.to/lastmile_qr_scan"}, "lon": -77.042222, "type": "electric_scooter", "fusion_lat": 0.0, "lat": 38.921320333333334, "name": "f735a50cc66e45c7cc6a08ec29d8eb0b", "fusion_lon": 0.0, "bike_id": "f735a50cc66e45c7cc6a08ec29d8eb0b", "is_disabled": 0, "is_reserved": 0}, {"rental_uris": {"ios": "https://dc.lft.to/lastmile_qr_scan", "android": "https://dc.lft.to/lastmile_qr_scan"}, "lon": -76.98418333333333, "type": "electric_scooter", "fusion_lat": 0.0, "lat": 38.9138715, "name": "050a1a7ea101afa411a5eb702f5ef575", "fusion_lon": 0.0, "bike_id": "050a1a7ea101afa411a5eb702f5ef575", "is_disabled": 0, "is_reserved": 0}, {"rental_uris": {"ios": "https://dc.lft.to/lastmile_qr_scan", "android": "https://dc.lft.to/lastmile_qr_scan"}, "lon": -77.03211066666667, "type": "electric_scooter", "fusion_lat": 0.0, "lat": 38.91470733333333, "name": "926e128b680a8cfe6949cd0e10693342", "fusion_lon": 0.0, "bike_id": "926e128b680a8cfe6949cd0e10693342", "is_disabled": 0, "is_reserved": 0}, {"rental_uris": {"ios": "https://dc.lft.to/lastmile_qr_scan", "android": "https://dc.lft.to/lastmile_qr_scan"}, "lon": -77.04103666666667, "type": "electric_scooter", "fusion_lat": 0.0, "lat": 38.91774133333333, "name": "059d7c4e86cd9d604636026f77a46a5d", "fusion_lon": 0.0, "bike_id": "059d7c4e86cd9d604636026f77a46a5d", "is_disabled": 0, "is_reserved": 0}, {"rental_uris": {"ios": "https://dc.lft.to/lastmile_qr_scan", "android": "https://dc.lft.to/lastmile_qr_scan"}, "lon": -77.04957483333334, "type": "electric_scooter", "fusion_lat": 0.0, "lat": 38.897411166666664, "name": "829a0bbd001962a3dcc9b1f78ca4ca97", "fusion_lon": 0.0, "bike_id": "829a0bbd001962a3dcc9b1f78ca4ca97", "is_disabled": 0, "is_reserved": 0}, {"rental_uris": {"ios": "https://dc.lft.to/lastmile_qr_scan", "android": "https://dc.lft.to/lastmile_qr_scan"}, "lon": -77.0338615, "type": "electric_scooter", "fusion_lat": 0.0, "lat": 38.89948433333333, "name": "2fb7f2946b23639313b684485593dca3", "fusion_lon": 0.0, "bike_id": "2fb7f2946b23639313b684485593dca3", "is_disabled": 0, "is_reserved": 0}, {"rental_uris": {"ios": "https://dc.lft.to/lastmile_qr_scan", "android": "https://dc.lft.to/lastmile_qr_scan"}, "lon": -77.03293883333333, "type": "electric_scooter", "fusion_lat": 0.0, "lat": 38.922092166666665, "name": "e39f1612db686e5b9b0aaf35ac2cf328", "fusion_lon": 0.0, "bike_id": "e39f1612db686e5b9b0aaf35ac2cf328", "is_disabled": 0, "is_reserved": 0}, {"rental_uris": {"ios": "https://dc.lft.to/lastmile_qr_scan", "android": "https://dc.lft.to/lastmile_qr_scan"}, "lon": -76.979927, "type": "electric_bike", "fusion_lat": 0.0, "lat": 38.87745283333334, "name": "0e9ad847cb0b31cbba70354ca308b155", "fusion_lon": 0.0, "bike_id": "0e9ad847cb0b31cbba70354ca308b155", "is_disabled": 0, "is_reserved": 0}, {"rental_uris": {"ios": "https://dc.lft.to/lastmile_qr_scan", "android": "https://dc.lft.to/lastmile_qr_scan"}, "lon": -77.039551, "type": "electric_scooter", "fusion_lat": 0.0, "lat": 38.900202166666666, "name": "49dcd26c84451547aec7348765549e22", "fusion_lon": 0.0, "bike_id": "49dcd26c84451547aec7348765549e22", "is_disabled": 0, "is_reserved": 0}, {"rental_uris": {"ios": "https://dc.lft.to/lastmile_qr_scan", "android": "https://dc.lft.to/lastmile_qr_scan"}, "lon": -77.3609355, "type": "electric_bike", "fusion_lat": 0.0, "lat": 38.93953916666667, "name": "a1b063e8c8c6dad54ab758055a935c74", "fusion_lon": 0.0, "bike_id": "a1b063e8c8c6dad54ab758055a935c74", "is_disabled": 0, "is_reserved": 0}, {"rental_uris": {"ios": "https://dc.lft.to/lastmile_qr_scan", "android": "https://dc.lft.to/lastmile_qr_scan"}, "lon": -77.02099183333333, "type": "electric_scooter", "fusion_lat": 0.0, "lat": 38.910107333333336, "name": "60f9b652624dd5c0b6ea8d8b56ff772c", "fusion_lon": 0.0, "bike_id": "60f9b652624dd5c0b6ea8d8b56ff772c", "is_disabled": 0, "is_reserved": 0}, {"rental_uris": {"ios": "https://dc.lft.to/lastmile_qr_scan", "android": "https://dc.lft.to/lastmile_qr_scan"}, "lon": -76.97926733333334, "type": "electric_scooter", "fusion_lat": 0.0, "lat": 38.904999333333336, "name": "bc34af75dc80db1793bf70b37faa142c", "fusion_lon": 0.0, "bike_id": "bc34af75dc80db1793bf70b37faa142c", "is_disabled": 0, "is_reserved": 0}, {"rental_uris": {"ios": "https://dc.lft.to/lastmile_qr_scan", "android": "https://dc.lft.to/lastmile_qr_scan"}, "lon": -76.98656933333334, "type": "electric_scooter", "fusion_lat": 0.0, "lat": 38.85804683333333, "name": "ecc56824f3841328141e2c23c408fe6d", "fusion_lon": 0.0, "bike_id": "ecc56824f3841328141e2c23c408fe6d", "is_disabled": 0, "is_reserved": 0}, {"rental_uris": {"ios": "https://dc.lft.to/lastmile_qr_scan", "android": "https://dc.lft.to/lastmile_qr_scan"}, "lon": -77.02231166666667, "type": "electric_scooter", "fusion_lat": 0.0, "lat": 38.914225333333334, "name": "cdda07d88ccf67d90314bf3470d5f644", "fusion_lon": 0.0, "bike_id": "cdda07d88ccf67d90314bf3470d5f644", "is_disabled": 0, "is_reserved": 0}, {"rental_uris": {"ios": "https://dc.lft.to/lastmile_qr_scan", "android": "https://dc.lft.to/lastmile_qr_scan"}, "lon": -77.10026066666667, "type": "electric_bike", "fusion_lat": 0.0, "lat": 38.99061733333333, "name": "1b5a815e42848cb11ae3a261f80e41c8", "fusion_lon": 0.0, "bike_id": "1b5a815e42848cb11ae3a261f80e41c8", "is_disabled": 0, "is_reserved": 0}, {"rental_uris": {"ios": "https://dc.lft.to/lastmile_qr_scan", "android": "https://dc.lft.to/lastmile_qr_scan"}, "lon": -76.9655335, "type": "electric_scooter", "fusion_lat": 0.0, "lat": 38.918524166666664, "name": "3353893458f3fcf472d73a8941a5fbfc", "fusion_lon": 0.0, "bike_id": "3353893458f3fcf472d73a8941a5fbfc", "is_disabled": 0, "is_reserved": 0}, {"rental_uris": {"ios": "https://dc.lft.to/lastmile_qr_scan", "android": "https://dc.lft.to/lastmile_qr_scan"}, "lon": -76.9857095, "type": "electric_scooter", "fusion_lat": 0.0, "lat": 38.898865, "name": "77454942027faf10bc4858fcd14c7d01", "fusion_lon": 0.0, "bike_id": "77454942027faf10bc4858fcd14c7d01", "is_disabled": 0, "is_reserved": 0}, {"rental_uris": {"ios": "https://dc.lft.to/lastmile_qr_scan", "android": "https://dc.lft.to/lastmile_qr_scan"}, "lon": -76.990473, "type": "electric_scooter", "fusion_lat": 0.0, "lat": 38.901381, "name": "3b9571fc7e9157bfeb91ee28b58eb117", "fusion_lon": 0.0, "bike_id": "3b9571fc7e9157bfeb91ee28b58eb117", "is_disabled": 0, "is_reserved": 0}, {"rental_uris": {"ios": "https://dc.lft.to/lastmile_qr_scan", "android": "https://dc.lft.to/lastmile_qr_scan"}, "lon": -77.06262416666667, "type": "electric_scooter", "fusion_lat": 0.0, "lat": 38.908448, "name": "df2f1cec999f9e16860b8719c025d6b3", "fusion_lon": 0.0, "bike_id": "df2f1cec999f9e16860b8719c025d6b3", "is_disabled": 0, "is_reserved": 0}, {"rental_uris": {"ios": "https://dc.lft.to/lastmile_qr_scan", "android": "https://dc.lft.to/lastmile_qr_scan"}, "lon": -76.94653116666667, "type": "electric_scooter", "fusion_lat": 0.0, "lat": 38.89824466666666, "name": "b29b7afd472b5cb44bd500e5c2a7e3f5", "fusion_lon": 0.0, "bike_id": "b29b7afd472b5cb44bd500e5c2a7e3f5", "is_disabled": 0, "is_reserved": 0}, {"rental_uris": {"ios": "https://dc.lft.to/lastmile_qr_scan", "android": "https://dc.lft.to/lastmile_qr_scan"}, "lon": -77.04900483333333, "type": "electric_bike", "fusion_lat": 0.0, "lat": 38.87495766666667, "name": "2f1a2b673fe0137941d9d74903a278a2", "fusion_lon": 0.0, "bike_id": "2f1a2b673fe0137941d9d74903a278a2", "is_disabled": 0, "is_reserved": 0}, {"rental_uris": {"ios": "https://dc.lft.to/lastmile_qr_scan", "android": "https://dc.lft.to/lastmile_qr_scan"}, "lon": -77.0035985, "type": "electric_scooter", "fusion_lat": 0.0, "lat": 38.89757183333333, "name": "f082e03ed06263a3a54f7bc7a23269ea", "fusion_lon": 0.0, "bike_id": "f082e03ed06263a3a54f7bc7a23269ea", "is_disabled": 0, "is_reserved": 0}, {"rental_uris": {"ios": "https://dc.lft.to/lastmile_qr_scan", "android": "https://dc.lft.to/lastmile_qr_scan"}, "lon": -76.9865795, "type": "electric_scooter", "fusion_lat": 0.0, "lat": 38.858046333333334, "name": "7555e06714effc82682d28e98204a54b", "fusion_lon": 0.0, "bike_id": "7555e06714effc82682d28e98204a54b", "is_disabled": 0, "is_reserved": 0}, {"rental_uris": {"ios": "https://dc.lft.to/lastmile_qr_scan", "android": "https://dc.lft.to/lastmile_qr_scan"}, "lon": -77.03209983333333, "type": "electric_scooter", "fusion_lat": 0.0, "lat": 38.962371, "name": "110408b03eec10a8ef02e5f961747c8f", "fusion_lon": 0.0, "bike_id": "110408b03eec10a8ef02e5f961747c8f", "is_disabled": 0, "is_reserved": 0}, {"rental_uris": {"ios": "https://dc.lft.to/lastmile_qr_scan", "android": "https://dc.lft.to/lastmile_qr_scan"}, "lon": -76.99949666666667, "type": "electric_scooter", "fusion_lat": 0.0, "lat": 38.84289666666667, "name": "d7f57d18676a4bfe7ebd41f4abf1e738", "fusion_lon": 0.0, "bike_id": "d7f57d18676a4bfe7ebd41f4abf1e738", "is_disabled": 0, "is_reserved": 0}, {"rental_uris": {"ios": "https://dc.lft.to/lastmile_qr_scan", "android": "https://dc.lft.to/lastmile_qr_scan"}, "lon": -77.023522, "type": "electric_scooter", "fusion_lat": 0.0, "lat": 38.93194916666667, "name": "bcc297daf6cc945b31d00b0a03f35410", "fusion_lon": 0.0, "bike_id": "bcc297daf6cc945b31d00b0a03f35410", "is_disabled": 0, "is_reserved": 0}, {"rental_uris": {"ios": "https://dc.lft.to/lastmile_qr_scan", "android": "https://dc.lft.to/lastmile_qr_scan"}, "lon": -77.0266455, "type": "electric_scooter", "fusion_lat": 0.0, "lat": 38.975437166666666, "name": "274fc4fe5dd4d8eccf8dc66dd732abf0", "fusion_lon": 0.0, "bike_id": "274fc4fe5dd4d8eccf8dc66dd732abf0", "is_disabled": 0, "is_reserved": 0}, {"rental_uris": {"ios": "https://dc.lft.to/lastmile_qr_scan", "android": "https://dc.lft.to/lastmile_qr_scan"}, "lon": -76.9324065, "type": "electric_bike", "fusion_lat": 0.0, "lat": 38.88277016666667, "name": "ec66f05e8bab157e433f89fee86937e1", "fusion_lon": 0.0, "bike_id": "ec66f05e8bab157e433f89fee86937e1", "is_disabled": 0, "is_reserved": 0}, {"rental_uris": {"ios": "https://dc.lft.to/lastmile_qr_scan", "android": "https://dc.lft.to/lastmile_qr_scan"}, "lon": -77.07094933333333, "type": "electric_scooter", "fusion_lat": 0.0, "lat": 38.93364833333333, "name": "73c99c93166360239e54a8cdc4d32ea7", "fusion_lon": 0.0, "bike_id": "73c99c93166360239e54a8cdc4d32ea7", "is_disabled": 0, "is_reserved": 0}, {"rental_uris": {"ios": "https://dc.lft.to/lastmile_qr_scan", "android": "https://dc.lft.to/lastmile_qr_scan"}, "lon": -76.98207183333334, "type": "electric_scooter", "fusion_lat": 0.0, "lat": 38.8908915, "name": "f880b1c000a6be16cfb194c1fd94a7e5", "fusion_lon": 0.0, "bike_id": "f880b1c000a6be16cfb194c1fd94a7e5", "is_disabled": 0, "is_reserved": 0}, {"rental_uris": {"ios": "https://dc.lft.to/lastmile_qr_scan", "android": "https://dc.lft.to/lastmile_qr_scan"}, "lon": -77.03872616666666, "type": "electric_scooter", "fusion_lat": 0.0, "lat": 38.9126595, "name": "5e375c0a747656a6282f03ccbf21804d", "fusion_lon": 0.0, "bike_id": "5e375c0a747656a6282f03ccbf21804d", "is_disabled": 0, "is_reserved": 0}, {"rental_uris": {"ios": "https://dc.lft.to/lastmile_qr_scan", "android": "https://dc.lft.to/lastmile_qr_scan"}, "lon": -77.0302465, "type": "electric_scooter", "fusion_lat": 0.0, "lat": 38.92246683333333, "name": "7628659c50e6517a7640b8e26980a382", "fusion_lon": 0.0, "bike_id": "7628659c50e6517a7640b8e26980a382", "is_disabled": 0, "is_reserved": 0}, {"rental_uris": {"ios": "https://dc.lft.to/lastmile_qr_scan", "android": "https://dc.lft.to/lastmile_qr_scan"}, "lon": -77.05499316666666, "type": "electric_scooter", "fusion_lat": 0.0, "lat": 38.92971716666667, "name": "7223e3e683b648c5fe79ee17e085b3cc", "fusion_lon": 0.0, "bike_id": "7223e3e683b648c5fe79ee17e085b3cc", "is_disabled": 0, "is_reserved": 0}, {"rental_uris": {"ios": "https://dc.lft.to/lastmile_qr_scan", "android": "https://dc.lft.to/lastmile_qr_scan"}, "lon": -77.02606833333333, "type": "electric_scooter", "fusion_lat": 0.0, "lat": 38.951785666666666, "name": "04e088b14554da146154a6cb53f7658a", "fusion_lon": 0.0, "bike_id": "04e088b14554da146154a6cb53f7658a", "is_disabled": 0, "is_reserved": 0}, {"rental_uris": {"ios": "https://dc.lft.to/lastmile_qr_scan", "android": "https://dc.lft.to/lastmile_qr_scan"}, "lon": -77.0241565, "type": "electric_scooter", "fusion_lat": 0.0, "lat": 38.9177095, "name": "1a58e75264307f38ae1397d688c22a50", "fusion_lon": 0.0, "bike_id": "1a58e75264307f38ae1397d688c22a50", "is_disabled": 0, "is_reserved": 0}, {"rental_uris": {"ios": "https://dc.lft.to/lastmile_qr_scan", "android": "https://dc.lft.to/lastmile_qr_scan"}, "lon": -77.04194616666666, "type": "electric_scooter", "fusion_lat": 0.0, "lat": 38.92201283333333, "name": "b9e27e751609686f7d6c625817a65c23", "fusion_lon": 0.0, "bike_id": "b9e27e751609686f7d6c625817a65c23", "is_disabled": 0, "is_reserved": 0}, {"rental_uris": {"ios": "https://dc.lft.to/lastmile_qr_scan", "android": "https://dc.lft.to/lastmile_qr_scan"}, "lon": -77.03956133333334, "type": "electric_scooter", "fusion_lat": 0.0, "lat": 38.926101, "name": "55aad007e68d1e9bfaba048fba795d57", "fusion_lon": 0.0, "bike_id": "55aad007e68d1e9bfaba048fba795d57", "is_disabled": 0, "is_reserved": 0}, {"rental_uris": {"ios": "https://dc.lft.to/lastmile_qr_scan", "android": "https://dc.lft.to/lastmile_qr_scan"}, "lon": -77.0532925, "type": "electric_scooter", "fusion_lat": 0.0, "lat": 38.90163416666667, "name": "ef4cae245e177845d61581258e28b5a7", "fusion_lon": 0.0, "bike_id": "ef4cae245e177845d61581258e28b5a7", "is_disabled": 0, "is_reserved": 0}, {"rental_uris": {"ios": "https://dc.lft.to/lastmile_qr_scan", "android": "https://dc.lft.to/lastmile_qr_scan"}, "lon": -77.03648933333334, "type": "electric_scooter", "fusion_lat": 0.0, "lat": 38.903324, "name": "5bc1c761ff1399f6d3bc813f1441ae6d", "fusion_lon": 0.0, "bike_id": "5bc1c761ff1399f6d3bc813f1441ae6d", "is_disabled": 0, "is_reserved": 0}, {"rental_uris": {"ios": "https://dc.lft.to/lastmile_qr_scan", "android": "https://dc.lft.to/lastmile_qr_scan"}, "lon": -77.02976566666666, "type": "electric_scooter", "fusion_lat": 0.0, "lat": 38.92854916666667, "name": "1c4a49813794308bb67023b54e1bea23", "fusion_lon": 0.0, "bike_id": "1c4a49813794308bb67023b54e1bea23", "is_disabled": 0, "is_reserved": 0}, {"rental_uris": {"ios": "https://dc.lft.to/lastmile_qr_scan", "android": "https://dc.lft.to/lastmile_qr_scan"}, "lon": -77.029891, "type": "electric_scooter", "fusion_lat": 0.0, "lat": 38.95628333333333, "name": "c75dc41ecfc96cdca9c499b66a8f9073", "fusion_lon": 0.0, "bike_id": "c75dc41ecfc96cdca9c499b66a8f9073", "is_disabled": 0, "is_reserved": 0}, {"rental_uris": {"ios": "https://dc.lft.to/lastmile_qr_scan", "android": "https://dc.lft.to/lastmile_qr_scan"}, "lon": -77.09957416666667, "type": "electric_bike", "fusion_lat": 0.0, "lat": 38.8579025, "name": "4c8b2adf91dcf7636f79cc70af55a720", "fusion_lon": 0.0, "bike_id": "4c8b2adf91dcf7636f79cc70af55a720", "is_disabled": 0, "is_reserved": 0}, {"rental_uris": {"ios": "https://dc.lft.to/lastmile_qr_scan", "android": "https://dc.lft.to/lastmile_qr_scan"}, "lon": -77.04053466666667, "type": "electric_scooter", "fusion_lat": 0.0, "lat": 38.927090666666665, "name": "20b698c7acb6e54d82afb1d50361e7b1", "fusion_lon": 0.0, "bike_id": "20b698c7acb6e54d82afb1d50361e7b1", "is_disabled": 0, "is_reserved": 0}, {"rental_uris": {"ios": "https://dc.lft.to/lastmile_qr_scan", "android": "https://dc.lft.to/lastmile_qr_scan"}, "lon": -77.0279675, "type": "electric_scooter", "fusion_lat": 0.0, "lat": 38.92973033333333, "name": "a90f3ed85678e5b50814caf7d7a6f92f", "fusion_lon": 0.0, "bike_id": "a90f3ed85678e5b50814caf7d7a6f92f", "is_disabled": 0, "is_reserved": 0}, {"rental_uris": {"ios": "https://dc.lft.to/lastmile_qr_scan", "android": "https://dc.lft.to/lastmile_qr_scan"}, "lon": -77.06842433333334, "type": "electric_scooter", "fusion_lat": 0.0, "lat": 38.9172505, "name": "1ca92bb7825763762dffa98abc9022ac", "fusion_lon": 0.0, "bike_id": "1ca92bb7825763762dffa98abc9022ac", "is_disabled": 0, "is_reserved": 0}, {"rental_uris": {"ios": "https://dc.lft.to/lastmile_qr_scan", "android": "https://dc.lft.to/lastmile_qr_scan"}, "lon": -77.01617266666666, "type": "electric_scooter", "fusion_lat": 0.0, "lat": 38.87867083333333, "name": "bd7995f41a7215b465f600ac78bf0562", "fusion_lon": 0.0, "bike_id": "bd7995f41a7215b465f600ac78bf0562", "is_disabled": 0, "is_reserved": 0}, {"rental_uris": {"ios": "https://dc.lft.to/lastmile_qr_scan", "android": "https://dc.lft.to/lastmile_qr_scan"}, "lon": -77.045574, "type": "electric_scooter", "fusion_lat": 0.0, "lat": 38.90859316666667, "name": "634edb6b11c540f1f731b472d12d4f30", "fusion_lon": 0.0, "bike_id": "634edb6b11c540f1f731b472d12d4f30", "is_disabled": 0, "is_reserved": 0}, {"rental_uris": {"ios": "https://dc.lft.to/lastmile_qr_scan", "android": "https://dc.lft.to/lastmile_qr_scan"}, "lon": -77.02801683333334, "type": "electric_scooter", "fusion_lat": 0.0, "lat": 38.90658966666667, "name": "bab61e60e963c2d7d0c126898366e8b4", "fusion_lon": 0.0, "bike_id": "bab61e60e963c2d7d0c126898366e8b4", "is_disabled": 0, "is_reserved": 0}, {"rental_uris": {"ios": "https://dc.lft.to/lastmile_qr_scan", "android": "https://dc.lft.to/lastmile_qr_scan"}, "lon": -77.09871133333333, "type": "electric_bike", "fusion_lat": 0.0, "lat": 38.853735666666665, "name": "00a4e9191fd94670dd12ef0fe9a9f496", "fusion_lon": 0.0, "bike_id": "00a4e9191fd94670dd12ef0fe9a9f496", "is_disabled": 0, "is_reserved": 0}, {"rental_uris": {"ios": "https://dc.lft.to/lastmile_qr_scan", "android": "https://dc.lft.to/lastmile_qr_scan"}, "lon": -77.0281535, "type": "electric_scooter", "fusion_lat": 0.0, "lat": 38.91663483333333, "name": "c1d805b88de4b6d4c118ef624009c130", "fusion_lon": 0.0, "bike_id": "c1d805b88de4b6d4c118ef624009c130", "is_disabled": 0, "is_reserved": 0}, {"rental_uris": {"ios": "https://dc.lft.to/lastmile_qr_scan", "android": "https://dc.lft.to/lastmile_qr_scan"}, "lon": -77.03555783333333, "type": "electric_scooter", "fusion_lat": 0.0, "lat": 38.90830366666667, "name": "ae6c1c57e72f7fa4be60d2ebe51f6f8e", "fusion_lon": 0.0, "bike_id": "ae6c1c57e72f7fa4be60d2ebe51f6f8e", "is_disabled": 0, "is_reserved": 0}, {"rental_uris": {"ios": "https://dc.lft.to/lastmile_qr_scan", "android": "https://dc.lft.to/lastmile_qr_scan"}, "lon": -77.0341235, "type": "electric_bike", "fusion_lat": 0.0, "lat": 38.9003965, "name": "f2f30aa1fe403a19967fcffba8d33bc0", "fusion_lon": 0.0, "bike_id": "f2f30aa1fe403a19967fcffba8d33bc0", "is_disabled": 0, "is_reserved": 0}, {"rental_uris": {"ios": "https://dc.lft.to/lastmile_qr_scan", "android": "https://dc.lft.to/lastmile_qr_scan"}, "lon": -77.02819433333333, "type": "electric_scooter", "fusion_lat": 0.0, "lat": 38.93169283333334, "name": "5f2b4ed530be42ae3d392d50203f39eb", "fusion_lon": 0.0, "bike_id": "5f2b4ed530be42ae3d392d50203f39eb", "is_disabled": 0, "is_reserved": 0}, {"rental_uris": {"ios": "https://dc.lft.to/lastmile_qr_scan", "android": "https://dc.lft.to/lastmile_qr_scan"}, "lon": -77.02494883333334, "type": "electric_scooter", "fusion_lat": 0.0, "lat": 38.91805883333333, "name": "4504cb085b127c608830dcf55e868d19", "fusion_lon": 0.0, "bike_id": "4504cb085b127c608830dcf55e868d19", "is_disabled": 0, "is_reserved": 0}, {"rental_uris": {"ios": "https://dc.lft.to/lastmile_qr_scan", "android": "https://dc.lft.to/lastmile_qr_scan"}, "lon": -77.022913, "type": "electric_scooter", "fusion_lat": 0.0, "lat": 38.918301166666666, "name": "d74c5af297cf6ffea63c934802e70579", "fusion_lon": 0.0, "bike_id": "d74c5af297cf6ffea63c934802e70579", "is_disabled": 0, "is_reserved": 0}, {"rental_uris": {"ios": "https://dc.lft.to/lastmile_qr_scan", "android": "https://dc.lft.to/lastmile_qr_scan"}, "lon": -77.0409905, "type": "electric_scooter", "fusion_lat": 0.0, "lat": 38.917698, "name": "b3c317c7d47f3f5004b2bbcb31712a2c", "fusion_lon": 0.0, "bike_id": "b3c317c7d47f3f5004b2bbcb31712a2c", "is_disabled": 0, "is_reserved": 0}, {"rental_uris": {"ios": "https://dc.lft.to/lastmile_qr_scan", "android": "https://dc.lft.to/lastmile_qr_scan"}, "lon": -77.03346016666667, "type": "electric_scooter", "fusion_lat": 0.0, "lat": 38.9342025, "name": "186afa6206420d270819dfa8b0bc4eb3", "fusion_lon": 0.0, "bike_id": "186afa6206420d270819dfa8b0bc4eb3", "is_disabled": 0, "is_reserved": 0}, {"rental_uris": {"ios": "https://dc.lft.to/lastmile_qr_scan", "android": "https://dc.lft.to/lastmile_qr_scan"}, "lon": -77.02437066666667, "type": "electric_scooter", "fusion_lat": 0.0, "lat": 38.902134333333336, "name": "50f6aa36cd86a49eba177467ce90e207", "fusion_lon": 0.0, "bike_id": "50f6aa36cd86a49eba177467ce90e207", "is_disabled": 0, "is_reserved": 0}, {"rental_uris": {"ios": "https://dc.lft.to/lastmile_qr_scan", "android": "https://dc.lft.to/lastmile_qr_scan"}, "lon": -77.03250116666666, "type": "electric_scooter", "fusion_lat": 0.0, "lat": 38.920653333333334, "name": "308621a033f852c6c3885adcc6764a1b", "fusion_lon": 0.0, "bike_id": "308621a033f852c6c3885adcc6764a1b", "is_disabled": 0, "is_reserved": 0}, {"rental_uris": {"ios": "https://dc.lft.to/lastmile_qr_scan", "android": "https://dc.lft.to/lastmile_qr_scan"}, "lon": -77.04798466666666, "type": "electric_scooter", "fusion_lat": 0.0, "lat": 38.89219166666667, "name": "58a3b9dcea8bf33cf0ff04b2f276ab9f", "fusion_lon": 0.0, "bike_id": "58a3b9dcea8bf33cf0ff04b2f276ab9f", "is_disabled": 0, "is_reserved": 0}, {"rental_uris": {"ios": "https://dc.lft.to/lastmile_qr_scan", "android": "https://dc.lft.to/lastmile_qr_scan"}, "lon": -77.01292133333334, "type": "electric_scooter", "fusion_lat": 0.0, "lat": 38.90060016666666, "name": "9bf48cab94726f318b163943ae75aee2", "fusion_lon": 0.0, "bike_id": "9bf48cab94726f318b163943ae75aee2", "is_disabled": 0, "is_reserved": 0}, {"rental_uris": {"ios": "https://dc.lft.to/lastmile_qr_scan", "android": "https://dc.lft.to/lastmile_qr_scan"}, "lon": -77.016986, "type": "electric_scooter", "fusion_lat": 0.0, "lat": 38.92020933333333, "name": "c91d0f921a6caea052a3d7761d703760", "fusion_lon": 0.0, "bike_id": "c91d0f921a6caea052a3d7761d703760", "is_disabled": 0, "is_reserved": 0}, {"rental_uris": {"ios": "https://dc.lft.to/lastmile_qr_scan", "android": "https://dc.lft.to/lastmile_qr_scan"}, "lon": -77.03211683333333, "type": "electric_scooter", "fusion_lat": 0.0, "lat": 38.9154935, "name": "3f2296b6afd9ccb4ce5f00f912d00d29", "fusion_lon": 0.0, "bike_id": "3f2296b6afd9ccb4ce5f00f912d00d29", "is_disabled": 0, "is_reserved": 0}, {"rental_uris": {"ios": "https://dc.lft.to/lastmile_qr_scan", "android": "https://dc.lft.to/lastmile_qr_scan"}, "lon": -77.0227545, "type": "electric_scooter", "fusion_lat": 0.0, "lat": 38.9246095, "name": "efe80da2fa6b334072166bd2e2bfeaa6", "fusion_lon": 0.0, "bike_id": "efe80da2fa6b334072166bd2e2bfeaa6", "is_disabled": 0, "is_reserved": 0}, {"rental_uris": {"ios": "https://dc.lft.to/lastmile_qr_scan", "android": "https://dc.lft.to/lastmile_qr_scan"}, "lon": -76.9937745, "type": "electric_scooter", "fusion_lat": 0.0, "lat": 38.89041, "name": "e6b3f931a6f5a55d1bd5a657e1ba6732", "fusion_lon": 0.0, "bike_id": "e6b3f931a6f5a55d1bd5a657e1ba6732", "is_disabled": 0, "is_reserved": 0}, {"rental_uris": {"ios": "https://dc.lft.to/lastmile_qr_scan", "android": "https://dc.lft.to/lastmile_qr_scan"}, "lon": -77.04558416666667, "type": "electric_scooter", "fusion_lat": 0.0, "lat": 38.91265116666667, "name": "ff2edcf984e3157441847612960e67b6", "fusion_lon": 0.0, "bike_id": "ff2edcf984e3157441847612960e67b6", "is_disabled": 0, "is_reserved": 0}, {"rental_uris": {"ios": "https://dc.lft.to/lastmile_qr_scan", "android": "https://dc.lft.to/lastmile_qr_scan"}, "lon": -76.9655995, "type": "electric_scooter", "fusion_lat": 0.0, "lat": 38.918538, "name": "01132fdec56137098eaeb4e9aaf771e6", "fusion_lon": 0.0, "bike_id": "01132fdec56137098eaeb4e9aaf771e6", "is_disabled": 0, "is_reserved": 0}, {"rental_uris": {"ios": "https://dc.lft.to/lastmile_qr_scan", "android": "https://dc.lft.to/lastmile_qr_scan"}, "lon": -77.03329316666667, "type": "electric_scooter", "fusion_lat": 0.0, "lat": 38.896228666666666, "name": "11c0bbc2e70129a07c85626bdabfb646", "fusion_lon": 0.0, "bike_id": "11c0bbc2e70129a07c85626bdabfb646", "is_disabled": 0, "is_reserved": 0}, {"rental_uris": {"ios": "https://dc.lft.to/lastmile_qr_scan", "android": "https://dc.lft.to/lastmile_qr_scan"}, "lon": -77.00900883333334, "type": "electric_scooter", "fusion_lat": 0.0, "lat": 38.9123245, "name": "77688f000714a113f3297fb2d028af46", "fusion_lon": 0.0, "bike_id": "77688f000714a113f3297fb2d028af46", "is_disabled": 0, "is_reserved": 0}, {"rental_uris": {"ios": "https://dc.lft.to/lastmile_qr_scan", "android": "https://dc.lft.to/lastmile_qr_scan"}, "lon": -77.023877, "type": "electric_scooter", "fusion_lat": 0.0, "lat": 38.9167095, "name": "3c411f3308bfcc6e0041f31d90e2df61", "fusion_lon": 0.0, "bike_id": "3c411f3308bfcc6e0041f31d90e2df61", "is_disabled": 0, "is_reserved": 0}, {"rental_uris": {"ios": "https://dc.lft.to/lastmile_qr_scan", "android": "https://dc.lft.to/lastmile_qr_scan"}, "lon": -77.03231966666667, "type": "electric_scooter", "fusion_lat": 0.0, "lat": 38.92883633333334, "name": "6d0aae032a0f42545344619343922d0f", "fusion_lon": 0.0, "bike_id": "6d0aae032a0f42545344619343922d0f", "is_disabled": 0, "is_reserved": 0}, {"rental_uris": {"ios": "https://dc.lft.to/lastmile_qr_scan", "android": "https://dc.lft.to/lastmile_qr_scan"}, "lon": -76.93179583333334, "type": "electric_scooter", "fusion_lat": 0.0, "lat": 38.898811, "name": "8266a5e90907f89ac092af936993eb4e", "fusion_lon": 0.0, "bike_id": "8266a5e90907f89ac092af936993eb4e", "is_disabled": 0, "is_reserved": 0}, {"rental_uris": {"ios": "https://dc.lft.to/lastmile_qr_scan", "android": "https://dc.lft.to/lastmile_qr_scan"}, "lon": -76.92710366666667, "type": "electric_scooter", "fusion_lat": 0.0, "lat": 38.8876925, "name": "d024260fceb467db8e53b35c73a0db2d", "fusion_lon": 0.0, "bike_id": "d024260fceb467db8e53b35c73a0db2d", "is_disabled": 0, "is_reserved": 0}, {"rental_uris": {"ios": "https://dc.lft.to/lastmile_qr_scan", "android": "https://dc.lft.to/lastmile_qr_scan"}, "lon": -77.03761116666666, "type": "electric_scooter", "fusion_lat": 0.0, "lat": 38.928810666666664, "name": "9a3a1543e627d0c5a366f8082dea280a", "fusion_lon": 0.0, "bike_id": "9a3a1543e627d0c5a366f8082dea280a", "is_disabled": 0, "is_reserved": 0}, {"rental_uris": {"ios": "https://dc.lft.to/lastmile_qr_scan", "android": "https://dc.lft.to/lastmile_qr_scan"}, "lon": -77.01976883333333, "type": "electric_scooter", "fusion_lat": 0.0, "lat": 38.902590333333336, "name": "d08d0efdb52e4fb0613cd7d2067ba7ca", "fusion_lon": 0.0, "bike_id": "d08d0efdb52e4fb0613cd7d2067ba7ca", "is_disabled": 0, "is_reserved": 0}, {"rental_uris": {"ios": "https://dc.lft.to/lastmile_qr_scan", "android": "https://dc.lft.to/lastmile_qr_scan"}, "lon": -77.05013483333333, "type": "electric_scooter", "fusion_lat": 0.0, "lat": 38.923589666666665, "name": "070736b7d52f1a45d94a01826771b6fd", "fusion_lon": 0.0, "bike_id": "070736b7d52f1a45d94a01826771b6fd", "is_disabled": 0, "is_reserved": 0}, {"rental_uris": {"ios": "https://dc.lft.to/lastmile_qr_scan", "android": "https://dc.lft.to/lastmile_qr_scan"}, "lon": -77.031104, "type": "electric_scooter", "fusion_lat": 0.0, "lat": 38.920201166666665, "name": "996f365289b73c7ad9dae25d31220c97", "fusion_lon": 0.0, "bike_id": "996f365289b73c7ad9dae25d31220c97", "is_disabled": 0, "is_reserved": 0}, {"rental_uris": {"ios": "https://dc.lft.to/lastmile_qr_scan", "android": "https://dc.lft.to/lastmile_qr_scan"}, "lon": -76.96560683333334, "type": "electric_scooter", "fusion_lat": 0.0, "lat": 38.918540666666665, "name": "c536dd211396fe3cf07741617f926592", "fusion_lon": 0.0, "bike_id": "c536dd211396fe3cf07741617f926592", "is_disabled": 0, "is_reserved": 0}, {"rental_uris": {"ios": "https://dc.lft.to/lastmile_qr_scan", "android": "https://dc.lft.to/lastmile_qr_scan"}, "lon": -77.014375, "type": "electric_scooter", "fusion_lat": 0.0, "lat": 38.929906833333334, "name": "b9bdae6122a914430d6915f296905388", "fusion_lon": 0.0, "bike_id": "b9bdae6122a914430d6915f296905388", "is_disabled": 0, "is_reserved": 0}, {"rental_uris": {"ios": "https://dc.lft.to/lastmile_qr_scan", "android": "https://dc.lft.to/lastmile_qr_scan"}, "lon": -77.01295966666666, "type": "electric_scooter", "fusion_lat": 0.0, "lat": 38.956615, "name": "239c1efe3812529da275545f91390015", "fusion_lon": 0.0, "bike_id": "239c1efe3812529da275545f91390015", "is_disabled": 0, "is_reserved": 0}, {"rental_uris": {"ios": "https://dc.lft.to/lastmile_qr_scan", "android": "https://dc.lft.to/lastmile_qr_scan"}, "lon": -76.9951815, "type": "electric_scooter", "fusion_lat": 0.0, "lat": 38.862571333333335, "name": "eca1e8ea86c01c3d85b9408c59a6636e", "fusion_lon": 0.0, "bike_id": "eca1e8ea86c01c3d85b9408c59a6636e", "is_disabled": 0, "is_reserved": 0}, {"rental_uris": {"ios": "https://dc.lft.to/lastmile_qr_scan", "android": "https://dc.lft.to/lastmile_qr_scan"}, "lon": -77.04876183333333, "type": "electric_scooter", "fusion_lat": 0.0, "lat": 38.8922535, "name": "39473d7baf05c60cf1d18ae13268a7ae", "fusion_lon": 0.0, "bike_id": "39473d7baf05c60cf1d18ae13268a7ae", "is_disabled": 0, "is_reserved": 0}, {"rental_uris": {"ios": "https://dc.lft.to/lastmile_qr_scan", "android": "https://dc.lft.to/lastmile_qr_scan"}, "lon": -77.02702966666666, "type": "electric_scooter", "fusion_lat": 0.0, "lat": 38.91902416666667, "name": "d29f53fd307107a6a268730ca0fca159", "fusion_lon": 0.0, "bike_id": "d29f53fd307107a6a268730ca0fca159", "is_disabled": 0, "is_reserved": 0}, {"rental_uris": {"ios": "https://dc.lft.to/lastmile_qr_scan", "android": "https://dc.lft.to/lastmile_qr_scan"}, "lon": -77.03232333333334, "type": "electric_scooter", "fusion_lat": 0.0, "lat": 38.91400933333333, "name": "53a00a5f37572d0701c23e79a8e18385", "fusion_lon": 0.0, "bike_id": "53a00a5f37572d0701c23e79a8e18385", "is_disabled": 0, "is_reserved": 0}, {"rental_uris": {"ios": "https://dc.lft.to/lastmile_qr_scan", "android": "https://dc.lft.to/lastmile_qr_scan"}, "lon": -76.9835045, "type": "electric_scooter", "fusion_lat": 0.0, "lat": 38.91527, "name": "9c177a74b85f4792c963fa4a84fb486c", "fusion_lon": 0.0, "bike_id": "9c177a74b85f4792c963fa4a84fb486c", "is_disabled": 0, "is_reserved": 0}, {"rental_uris": {"ios": "https://dc.lft.to/lastmile_qr_scan", "android": "https://dc.lft.to/lastmile_qr_scan"}, "lon": -77.03216483333334, "type": "electric_scooter", "fusion_lat": 0.0, "lat": 38.911928, "name": "ca0678cf0e1ff0e9edc895348de8c824", "fusion_lon": 0.0, "bike_id": "ca0678cf0e1ff0e9edc895348de8c824", "is_disabled": 0, "is_reserved": 0}, {"rental_uris": {"ios": "https://dc.lft.to/lastmile_qr_scan", "android": "https://dc.lft.to/lastmile_qr_scan"}, "lon": -77.0217865, "type": "electric_scooter", "fusion_lat": 0.0, "lat": 38.8840975, "name": "50543e7a94a3aa9c848c9b014069f04e", "fusion_lon": 0.0, "bike_id": "50543e7a94a3aa9c848c9b014069f04e", "is_disabled": 0, "is_reserved": 0}, {"rental_uris": {"ios": "https://dc.lft.to/lastmile_qr_scan", "android": "https://dc.lft.to/lastmile_qr_scan"}, "lon": -77.02347683333333, "type": "electric_scooter", "fusion_lat": 0.0, "lat": 38.915526, "name": "03b68b018b97926532e4607d16809a66", "fusion_lon": 0.0, "bike_id": "03b68b018b97926532e4607d16809a66", "is_disabled": 0, "is_reserved": 0}, {"rental_uris": {"ios": "https://dc.lft.to/lastmile_qr_scan", "android": "https://dc.lft.to/lastmile_qr_scan"}, "lon": -77.002524, "type": "electric_scooter", "fusion_lat": 0.0, "lat": 38.91919333333333, "name": "f20771c3466ede4538cd82a889b9e227", "fusion_lon": 0.0, "bike_id": "f20771c3466ede4538cd82a889b9e227", "is_disabled": 0, "is_reserved": 0}, {"rental_uris": {"ios": "https://dc.lft.to/lastmile_qr_scan", "android": "https://dc.lft.to/lastmile_qr_scan"}, "lon": -77.0076515, "type": "electric_scooter", "fusion_lat": 0.0, "lat": 38.871114166666665, "name": "3cccfac950ecba9cf4c097145fd1639a", "fusion_lon": 0.0, "bike_id": "3cccfac950ecba9cf4c097145fd1639a", "is_disabled": 0, "is_reserved": 0}, {"rental_uris": {"ios": "https://dc.lft.to/lastmile_qr_scan", "android": "https://dc.lft.to/lastmile_qr_scan"}, "lon": -76.94631916666667, "type": "electric_scooter", "fusion_lat": 0.0, "lat": 38.898404666666664, "name": "4052cd0184057226ef380854b1fdcf53", "fusion_lon": 0.0, "bike_id": "4052cd0184057226ef380854b1fdcf53", "is_disabled": 0, "is_reserved": 0}, {"rental_uris": {"ios": "https://dc.lft.to/lastmile_qr_scan", "android": "https://dc.lft.to/lastmile_qr_scan"}, "lon": -76.965552, "type": "electric_scooter", "fusion_lat": 0.0, "lat": 38.918645833333336, "name": "fd23548bca3f0782b84b8fb6c42b825a", "fusion_lon": 0.0, "bike_id": "fd23548bca3f0782b84b8fb6c42b825a", "is_disabled": 0, "is_reserved": 0}, {"rental_uris": {"ios": "https://dc.lft.to/lastmile_qr_scan", "android": "https://dc.lft.to/lastmile_qr_scan"}, "lon": -77.03851183333333, "type": "electric_scooter", "fusion_lat": 0.0, "lat": 38.92642683333333, "name": "1d532073780cc58a358bb3f430f67e12", "fusion_lon": 0.0, "bike_id": "1d532073780cc58a358bb3f430f67e12", "is_disabled": 0, "is_reserved": 0}, {"rental_uris": {"ios": "https://dc.lft.to/lastmile_qr_scan", "android": "https://dc.lft.to/lastmile_qr_scan"}, "lon": -77.0250425, "type": "electric_scooter", "fusion_lat": 0.0, "lat": 38.917064, "name": "7d66539d8cab9f411832558e305c3132", "fusion_lon": 0.0, "bike_id": "7d66539d8cab9f411832558e305c3132", "is_disabled": 0, "is_reserved": 0}, {"rental_uris": {"ios": "https://dc.lft.to/lastmile_qr_scan", "android": "https://dc.lft.to/lastmile_qr_scan"}, "lon": -77.03196883333334, "type": "electric_scooter", "fusion_lat": 0.0, "lat": 38.900111833333334, "name": "bf6834521c5f0673846cc416ebf0a299", "fusion_lon": 0.0, "bike_id": "bf6834521c5f0673846cc416ebf0a299", "is_disabled": 0, "is_reserved": 0}, {"rental_uris": {"ios": "https://dc.lft.to/lastmile_qr_scan", "android": "https://dc.lft.to/lastmile_qr_scan"}, "lon": -77.0598075, "type": "electric_scooter", "fusion_lat": 0.0, "lat": 38.93547233333334, "name": "6f07277fc7be8877a62120e32663bf0f", "fusion_lon": 0.0, "bike_id": "6f07277fc7be8877a62120e32663bf0f", "is_disabled": 0, "is_reserved": 0}, {"rental_uris": {"ios": "https://dc.lft.to/lastmile_qr_scan", "android": "https://dc.lft.to/lastmile_qr_scan"}, "lon": -77.0408645, "type": "electric_scooter", "fusion_lat": 0.0, "lat": 38.91981, "name": "bbd4bd8e684167fa582d9bf278fd8ee6", "fusion_lon": 0.0, "bike_id": "bbd4bd8e684167fa582d9bf278fd8ee6", "is_disabled": 0, "is_reserved": 0}, {"rental_uris": {"ios": "https://dc.lft.to/lastmile_qr_scan", "android": "https://dc.lft.to/lastmile_qr_scan"}, "lon": -77.0472465, "type": "electric_scooter", "fusion_lat": 0.0, "lat": 38.897255333333334, "name": "9b00dd828c62e3458cd038ff42280a38", "fusion_lon": 0.0, "bike_id": "9b00dd828c62e3458cd038ff42280a38", "is_disabled": 0, "is_reserved": 0}, {"rental_uris": {"ios": "https://dc.lft.to/lastmile_qr_scan", "android": "https://dc.lft.to/lastmile_qr_scan"}, "lon": -77.02982366666667, "type": "electric_scooter", "fusion_lat": 0.0, "lat": 38.90480016666667, "name": "947f7e4f519528c59303330bbf9e691a", "fusion_lon": 0.0, "bike_id": "947f7e4f519528c59303330bbf9e691a", "is_disabled": 0, "is_reserved": 0}, {"rental_uris": {"ios": "https://dc.lft.to/lastmile_qr_scan", "android": "https://dc.lft.to/lastmile_qr_scan"}, "lon": -77.00937216666667, "type": "electric_scooter", "fusion_lat": 0.0, "lat": 38.87202283333333, "name": "de34ef171baa831228c80bf25ca0fcf8", "fusion_lon": 0.0, "bike_id": "de34ef171baa831228c80bf25ca0fcf8", "is_disabled": 0, "is_reserved": 0}, {"rental_uris": {"ios": "https://dc.lft.to/lastmile_qr_scan", "android": "https://dc.lft.to/lastmile_qr_scan"}, "lon": -77.01206583333334, "type": "electric_scooter", "fusion_lat": 0.0, "lat": 38.914977666666665, "name": "f7b566c144aa671a887e6e92e5cc58c9", "fusion_lon": 0.0, "bike_id": "f7b566c144aa671a887e6e92e5cc58c9", "is_disabled": 0, "is_reserved": 0}, {"rental_uris": {"ios": "https://dc.lft.to/lastmile_qr_scan", "android": "https://dc.lft.to/lastmile_qr_scan"}, "lon": -77.06525633333334, "type": "electric_bike", "fusion_lat": 0.0, "lat": 38.905522833333336, "name": "805fc5326d7435fa7fe7b8da5b8969f6", "fusion_lon": 0.0, "bike_id": "805fc5326d7435fa7fe7b8da5b8969f6", "is_disabled": 0, "is_reserved": 0}, {"rental_uris": {"ios": "https://dc.lft.to/lastmile_qr_scan", "android": "https://dc.lft.to/lastmile_qr_scan"}, "lon": -76.97437183333334, "type": "electric_scooter", "fusion_lat": 0.0, "lat": 38.865239, "name": "d17f58339178a86e205773449c4d7bbb", "fusion_lon": 0.0, "bike_id": "d17f58339178a86e205773449c4d7bbb", "is_disabled": 0, "is_reserved": 0}, {"rental_uris": {"ios": "https://dc.lft.to/lastmile_qr_scan", "android": "https://dc.lft.to/lastmile_qr_scan"}, "lon": -77.05524316666667, "type": "electric_scooter", "fusion_lat": 0.0, "lat": 38.89725716666667, "name": "ff65012673bb01686f6d8980eae9876f", "fusion_lon": 0.0, "bike_id": "ff65012673bb01686f6d8980eae9876f", "is_disabled": 0, "is_reserved": 0}, {"rental_uris": {"ios": "https://dc.lft.to/lastmile_qr_scan", "android": "https://dc.lft.to/lastmile_qr_scan"}, "lon": -77.01510166666667, "type": "electric_scooter", "fusion_lat": 0.0, "lat": 38.8873555, "name": "1b373c4780b5b029b2a61ccea254832c", "fusion_lon": 0.0, "bike_id": "1b373c4780b5b029b2a61ccea254832c", "is_disabled": 0, "is_reserved": 0}, {"rental_uris": {"ios": "https://dc.lft.to/lastmile_qr_scan", "android": "https://dc.lft.to/lastmile_qr_scan"}, "lon": -77.02438133333334, "type": "electric_scooter", "fusion_lat": 0.0, "lat": 38.9225485, "name": "94e7e5f87b8f091b3273237028df6714", "fusion_lon": 0.0, "bike_id": "94e7e5f87b8f091b3273237028df6714", "is_disabled": 0, "is_reserved": 0}, {"rental_uris": {"ios": "https://dc.lft.to/lastmile_qr_scan", "android": "https://dc.lft.to/lastmile_qr_scan"}, "lon": -76.99063916666667, "type": "electric_scooter", "fusion_lat": 0.0, "lat": 38.863553333333336, "name": "c9ae93684dc9cdccef0ea28886f7dabe", "fusion_lon": 0.0, "bike_id": "c9ae93684dc9cdccef0ea28886f7dabe", "is_disabled": 0, "is_reserved": 0}, {"rental_uris": {"ios": "https://dc.lft.to/lastmile_qr_scan", "android": "https://dc.lft.to/lastmile_qr_scan"}, "lon": -76.95471, "type": "electric_bike", "fusion_lat": 0.0, "lat": 38.8864005, "name": "8bfe9c7c6337f00c2ffdc5c974e2ee27", "fusion_lon": 0.0, "bike_id": "8bfe9c7c6337f00c2ffdc5c974e2ee27", "is_disabled": 0, "is_reserved": 0}, {"rental_uris": {"ios": "https://dc.lft.to/lastmile_qr_scan", "android": "https://dc.lft.to/lastmile_qr_scan"}, "lon": -76.9835515, "type": "electric_scooter", "fusion_lat": 0.0, "lat": 38.91530616666667, "name": "1e1a8583b43baa84eaebf5a0fc25b2e1", "fusion_lon": 0.0, "bike_id": "1e1a8583b43baa84eaebf5a0fc25b2e1", "is_disabled": 0, "is_reserved": 0}, {"rental_uris": {"ios": "https://dc.lft.to/lastmile_qr_scan", "android": "https://dc.lft.to/lastmile_qr_scan"}, "lon": -76.96546183333334, "type": "electric_scooter", "fusion_lat": 0.0, "lat": 38.918660333333335, "name": "b1f287a36cacd8f1c747c8e724c413f6", "fusion_lon": 0.0, "bike_id": "b1f287a36cacd8f1c747c8e724c413f6", "is_disabled": 0, "is_reserved": 0}, {"rental_uris": {"ios": "https://dc.lft.to/lastmile_qr_scan", "android": "https://dc.lft.to/lastmile_qr_scan"}, "lon": -77.04162566666666, "type": "electric_scooter", "fusion_lat": 0.0, "lat": 38.9123875, "name": "32aecf90ce9030bb4a8b4b90211672fe", "fusion_lon": 0.0, "bike_id": "32aecf90ce9030bb4a8b4b90211672fe", "is_disabled": 0, "is_reserved": 0}, {"rental_uris": {"ios": "https://dc.lft.to/lastmile_qr_scan", "android": "https://dc.lft.to/lastmile_qr_scan"}, "lon": -77.01370216666666, "type": "electric_scooter", "fusion_lat": 0.0, "lat": 38.8698425, "name": "8c11014c7d12691cab6e69f41d088957", "fusion_lon": 0.0, "bike_id": "8c11014c7d12691cab6e69f41d088957", "is_disabled": 0, "is_reserved": 0}, {"rental_uris": {"ios": "https://dc.lft.to/lastmile_qr_scan", "android": "https://dc.lft.to/lastmile_qr_scan"}, "lon": -77.03346683333334, "type": "electric_scooter", "fusion_lat": 0.0, "lat": 38.88753833333333, "name": "afe0a59f74dff46127b42f88a32a8d79", "fusion_lon": 0.0, "bike_id": "afe0a59f74dff46127b42f88a32a8d79", "is_disabled": 0, "is_reserved": 0}, {"rental_uris": {"ios": "https://dc.lft.to/lastmile_qr_scan", "android": "https://dc.lft.to/lastmile_qr_scan"}, "lon": -77.03384466666667, "type": "electric_scooter", "fusion_lat": 0.0, "lat": 38.906035, "name": "4ce2d4d8f825b261b33238605ad06955", "fusion_lon": 0.0, "bike_id": "4ce2d4d8f825b261b33238605ad06955", "is_disabled": 0, "is_reserved": 0}, {"rental_uris": {"ios": "https://dc.lft.to/lastmile_qr_scan", "android": "https://dc.lft.to/lastmile_qr_scan"}, "lon": -77.04256633333334, "type": "electric_scooter", "fusion_lat": 0.0, "lat": 38.92205416666667, "name": "7f9ef08d5a2f57233d3f7028d0edd9b7", "fusion_lon": 0.0, "bike_id": "7f9ef08d5a2f57233d3f7028d0edd9b7", "is_disabled": 0, "is_reserved": 0}, {"rental_uris": {"ios": "https://dc.lft.to/lastmile_qr_scan", "android": "https://dc.lft.to/lastmile_qr_scan"}, "lon": -77.0188115, "type": "electric_scooter", "fusion_lat": 0.0, "lat": 38.917430833333334, "name": "b6a7b0cb264d67c07755165de0a535b8", "fusion_lon": 0.0, "bike_id": "b6a7b0cb264d67c07755165de0a535b8", "is_disabled": 0, "is_reserved": 0}, {"rental_uris": {"ios": "https://dc.lft.to/lastmile_qr_scan", "android": "https://dc.lft.to/lastmile_qr_scan"}, "lon": -77.03794433333333, "type": "electric_scooter", "fusion_lat": 0.0, "lat": 38.92637966666667, "name": "13e1095bb9ac7ffa094630330663616d", "fusion_lon": 0.0, "bike_id": "13e1095bb9ac7ffa094630330663616d", "is_disabled": 0, "is_reserved": 0}, {"rental_uris": {"ios": "https://dc.lft.to/lastmile_qr_scan", "android": "https://dc.lft.to/lastmile_qr_scan"}, "lon": -77.0521365, "type": "electric_scooter", "fusion_lat": 0.0, "lat": 38.92432816666667, "name": "096c836dd5568a6749380ef980506330", "fusion_lon": 0.0, "bike_id": "096c836dd5568a6749380ef980506330", "is_disabled": 0, "is_reserved": 0}, {"rental_uris": {"ios": "https://dc.lft.to/lastmile_qr_scan", "android": "https://dc.lft.to/lastmile_qr_scan"}, "lon": -76.99852433333334, "type": "electric_scooter", "fusion_lat": 0.0, "lat": 38.89491916666667, "name": "5be9a2f90a1ebc94ac42326b842ad069", "fusion_lon": 0.0, "bike_id": "5be9a2f90a1ebc94ac42326b842ad069", "is_disabled": 0, "is_reserved": 0}, {"rental_uris": {"ios": "https://dc.lft.to/lastmile_qr_scan", "android": "https://dc.lft.to/lastmile_qr_scan"}, "lon": -77.03070516666666, "type": "electric_scooter", "fusion_lat": 0.0, "lat": 38.9056805, "name": "dfe2ddb3851dbd6807544b1e88ff449e", "fusion_lon": 0.0, "bike_id": "dfe2ddb3851dbd6807544b1e88ff449e", "is_disabled": 0, "is_reserved": 0}, {"rental_uris": {"ios": "https://dc.lft.to/lastmile_qr_scan", "android": "https://dc.lft.to/lastmile_qr_scan"}, "lon": -77.04825416666667, "type": "electric_scooter", "fusion_lat": 0.0, "lat": 38.9097545, "name": "a5854d46f377f236e59ffe19aadacfb2", "fusion_lon": 0.0, "bike_id": "a5854d46f377f236e59ffe19aadacfb2", "is_disabled": 0, "is_reserved": 0}, {"rental_uris": {"ios": "https://dc.lft.to/lastmile_qr_scan", "android": "https://dc.lft.to/lastmile_qr_scan"}, "lon": -77.00266933333333, "type": "electric_scooter", "fusion_lat": 0.0, "lat": 38.8989495, "name": "c90a2d4ea6c8236de435d9cb143dfa8e", "fusion_lon": 0.0, "bike_id": "c90a2d4ea6c8236de435d9cb143dfa8e", "is_disabled": 0, "is_reserved": 0}, {"rental_uris": {"ios": "https://dc.lft.to/lastmile_qr_scan", "android": "https://dc.lft.to/lastmile_qr_scan"}, "lon": -77.01078816666667, "type": "electric_bike", "fusion_lat": 0.0, "lat": 38.956516, "name": "5d9d9ddf73c5fa4d8f6d154b9f195502", "fusion_lon": 0.0, "bike_id": "5d9d9ddf73c5fa4d8f6d154b9f195502", "is_disabled": 0, "is_reserved": 0}, {"rental_uris": {"ios": "https://dc.lft.to/lastmile_qr_scan", "android": "https://dc.lft.to/lastmile_qr_scan"}, "lon": -76.98845533333333, "type": "electric_bike", "fusion_lat": 0.0, "lat": 38.84271066666667, "name": "1f8f49a9d3bb2b518de988c3534d8e84", "fusion_lon": 0.0, "bike_id": "1f8f49a9d3bb2b518de988c3534d8e84", "is_disabled": 0, "is_reserved": 0}, {"rental_uris": {"ios": "https://dc.lft.to/lastmile_qr_scan", "android": "https://dc.lft.to/lastmile_qr_scan"}, "lon": -76.965508, "type": "electric_scooter", "fusion_lat": 0.0, "lat": 38.918536333333336, "name": "4e4fd4a2daa6b7cf7f33ac521db6ba07", "fusion_lon": 0.0, "bike_id": "4e4fd4a2daa6b7cf7f33ac521db6ba07", "is_disabled": 0, "is_reserved": 0}, {"rental_uris": {"ios": "https://dc.lft.to/lastmile_qr_scan", "android": "https://dc.lft.to/lastmile_qr_scan"}, "lon": -77.07780483333333, "type": "electric_scooter", "fusion_lat": 0.0, "lat": 38.94559133333333, "name": "0c0cb72911351b5ed4d4e47e11a0066d", "fusion_lon": 0.0, "bike_id": "0c0cb72911351b5ed4d4e47e11a0066d", "is_disabled": 0, "is_reserved": 0}, {"rental_uris": {"ios": "https://dc.lft.to/lastmile_qr_scan", "android": "https://dc.lft.to/lastmile_qr_scan"}, "lon": -77.03147966666667, "type": "electric_scooter", "fusion_lat": 0.0, "lat": 38.914159833333336, "name": "22557d88d57db2848cc8d263d0eaeef2", "fusion_lon": 0.0, "bike_id": "22557d88d57db2848cc8d263d0eaeef2", "is_disabled": 0, "is_reserved": 0}, {"rental_uris": {"ios": "https://dc.lft.to/lastmile_qr_scan", "android": "https://dc.lft.to/lastmile_qr_scan"}, "lon": -77.00730233333333, "type": "electric_scooter", "fusion_lat": 0.0, "lat": 38.90371616666667, "name": "4a8ee529bbe17744067bb39611f7dec9", "fusion_lon": 0.0, "bike_id": "4a8ee529bbe17744067bb39611f7dec9", "is_disabled": 0, "is_reserved": 0}, {"rental_uris": {"ios": "https://dc.lft.to/lastmile_qr_scan", "android": "https://dc.lft.to/lastmile_qr_scan"}, "lon": -76.99774866666667, "type": "electric_scooter", "fusion_lat": 0.0, "lat": 38.844249166666664, "name": "79f3c8117757d5b53dad6b1ddd96dbb1", "fusion_lon": 0.0, "bike_id": "79f3c8117757d5b53dad6b1ddd96dbb1", "is_disabled": 0, "is_reserved": 0}, {"rental_uris": {"ios": "https://dc.lft.to/lastmile_qr_scan", "android": "https://dc.lft.to/lastmile_qr_scan"}, "lon": -77.06607166666667, "type": "electric_scooter", "fusion_lat": 0.0, "lat": 38.905247333333335, "name": "6498c20b14cb37f7f400fbce0bd19ce0", "fusion_lon": 0.0, "bike_id": "6498c20b14cb37f7f400fbce0bd19ce0", "is_disabled": 0, "is_reserved": 0}, {"rental_uris": {"ios": "https://dc.lft.to/lastmile_qr_scan", "android": "https://dc.lft.to/lastmile_qr_scan"}, "lon": -76.99952016666667, "type": "electric_bike", "fusion_lat": 0.0, "lat": 38.923409666666664, "name": "b6e337c13497d4ba646ec1b7a225c701", "fusion_lon": 0.0, "bike_id": "b6e337c13497d4ba646ec1b7a225c701", "is_disabled": 0, "is_reserved": 0}, {"rental_uris": {"ios": "https://dc.lft.to/lastmile_qr_scan", "android": "https://dc.lft.to/lastmile_qr_scan"}, "lon": -77.03691816666667, "type": "electric_scooter", "fusion_lat": 0.0, "lat": 38.92755533333333, "name": "bef6cc30fdb3f7edfb3a10e4f781268b", "fusion_lon": 0.0, "bike_id": "bef6cc30fdb3f7edfb3a10e4f781268b", "is_disabled": 0, "is_reserved": 0}, {"rental_uris": {"ios": "https://dc.lft.to/lastmile_qr_scan", "android": "https://dc.lft.to/lastmile_qr_scan"}, "lon": -77.01528916666666, "type": "electric_scooter", "fusion_lat": 0.0, "lat": 38.872722333333336, "name": "fcfaf6c891510ef96ba0cd4039e7f01a", "fusion_lon": 0.0, "bike_id": "fcfaf6c891510ef96ba0cd4039e7f01a", "is_disabled": 0, "is_reserved": 0}, {"rental_uris": {"ios": "https://dc.lft.to/lastmile_qr_scan", "android": "https://dc.lft.to/lastmile_qr_scan"}, "lon": -77.04990183333334, "type": "electric_scooter", "fusion_lat": 0.0, "lat": 38.89601733333333, "name": "dadc3b8e1472a0717d63f2af00e6969b", "fusion_lon": 0.0, "bike_id": "dadc3b8e1472a0717d63f2af00e6969b", "is_disabled": 0, "is_reserved": 0}, {"rental_uris": {"ios": "https://dc.lft.to/lastmile_qr_scan", "android": "https://dc.lft.to/lastmile_qr_scan"}, "lon": -77.02247716666666, "type": "electric_scooter", "fusion_lat": 0.0, "lat": 38.91638783333333, "name": "83e28154d6f42916b5b7b9d365302a22", "fusion_lon": 0.0, "bike_id": "83e28154d6f42916b5b7b9d365302a22", "is_disabled": 0, "is_reserved": 0}, {"rental_uris": {"ios": "https://dc.lft.to/lastmile_qr_scan", "android": "https://dc.lft.to/lastmile_qr_scan"}, "lon": -77.03954933333333, "type": "electric_scooter", "fusion_lat": 0.0, "lat": 38.90261566666667, "name": "3a1395933df63aaf9363b454ff958814", "fusion_lon": 0.0, "bike_id": "3a1395933df63aaf9363b454ff958814", "is_disabled": 0, "is_reserved": 0}, {"rental_uris": {"ios": "https://dc.lft.to/lastmile_qr_scan", "android": "https://dc.lft.to/lastmile_qr_scan"}, "lon": -77.04142783333333, "type": "electric_scooter", "fusion_lat": 0.0, "lat": 38.922061666666664, "name": "dc81635eaa3a9bae2a8bd5eaa603f837", "fusion_lon": 0.0, "bike_id": "dc81635eaa3a9bae2a8bd5eaa603f837", "is_disabled": 0, "is_reserved": 0}, {"rental_uris": {"ios": "https://dc.lft.to/lastmile_qr_scan", "android": "https://dc.lft.to/lastmile_qr_scan"}, "lon": -77.06365966666667, "type": "electric_scooter", "fusion_lat": 0.0, "lat": 38.909270166666666, "name": "43e93ef67d5c619bded348f6ddba27c3", "fusion_lon": 0.0, "bike_id": "43e93ef67d5c619bded348f6ddba27c3", "is_disabled": 0, "is_reserved": 0}, {"rental_uris": {"ios": "https://dc.lft.to/lastmile_qr_scan", "android": "https://dc.lft.to/lastmile_qr_scan"}, "lon": -77.0216805, "type": "electric_scooter", "fusion_lat": 0.0, "lat": 38.91613383333333, "name": "32227950e3973272908e45a3cf7bae51", "fusion_lon": 0.0, "bike_id": "32227950e3973272908e45a3cf7bae51", "is_disabled": 0, "is_reserved": 0}, {"rental_uris": {"ios": "https://dc.lft.to/lastmile_qr_scan", "android": "https://dc.lft.to/lastmile_qr_scan"}, "lon": -76.999501, "type": "electric_scooter", "fusion_lat": 0.0, "lat": 38.84294383333334, "name": "80abdf20b8827e229510c1587650109e", "fusion_lon": 0.0, "bike_id": "80abdf20b8827e229510c1587650109e", "is_disabled": 0, "is_reserved": 0}, {"rental_uris": {"ios": "https://dc.lft.to/lastmile_qr_scan", "android": "https://dc.lft.to/lastmile_qr_scan"}, "lon": -76.91599833333333, "type": "electric_bike", "fusion_lat": 0.0, "lat": 38.879797, "name": "cbb1d23fcbc4a84cf8854810e29dc75c", "fusion_lon": 0.0, "bike_id": "cbb1d23fcbc4a84cf8854810e29dc75c", "is_disabled": 0, "is_reserved": 0}, {"rental_uris": {"ios": "https://dc.lft.to/lastmile_qr_scan", "android": "https://dc.lft.to/lastmile_qr_scan"}, "lon": -77.02409333333334, "type": "electric_bike", "fusion_lat": 0.0, "lat": 38.994394, "name": "1c71a4c8810e0eda37e7c2c4bf8fad6f", "fusion_lon": 0.0, "bike_id": "1c71a4c8810e0eda37e7c2c4bf8fad6f", "is_disabled": 0, "is_reserved": 0}, {"rental_uris": {"ios": "https://dc.lft.to/lastmile_qr_scan", "android": "https://dc.lft.to/lastmile_qr_scan"}, "lon": -77.009311, "type": "electric_scooter", "fusion_lat": 0.0, "lat": 38.871976333333336, "name": "6b9854005888814373393407360af40c", "fusion_lon": 0.0, "bike_id": "6b9854005888814373393407360af40c", "is_disabled": 0, "is_reserved": 0}, {"rental_uris": {"ios": "https://dc.lft.to/lastmile_qr_scan", "android": "https://dc.lft.to/lastmile_qr_scan"}, "lon": -77.01196783333333, "type": "electric_scooter", "fusion_lat": 0.0, "lat": 38.91549883333333, "name": "0738f7ed60a36245705e193ea3f86229", "fusion_lon": 0.0, "bike_id": "0738f7ed60a36245705e193ea3f86229", "is_disabled": 0, "is_reserved": 0}, {"rental_uris": {"ios": "https://dc.lft.to/lastmile_qr_scan", "android": "https://dc.lft.to/lastmile_qr_scan"}, "lon": -77.04060216666667, "type": "electric_scooter", "fusion_lat": 0.0, "lat": 38.926534, "name": "5019340f8b1eeb1cc468d313d904222a", "fusion_lon": 0.0, "bike_id": "5019340f8b1eeb1cc468d313d904222a", "is_disabled": 0, "is_reserved": 0}, {"rental_uris": {"ios": "https://dc.lft.to/lastmile_qr_scan", "android": "https://dc.lft.to/lastmile_qr_scan"}, "lon": -77.070457, "type": "electric_bike", "fusion_lat": 0.0, "lat": 38.82444983333333, "name": "ddf708f1d527f4b63518d5c0d1ebf927", "fusion_lon": 0.0, "bike_id": "ddf708f1d527f4b63518d5c0d1ebf927", "is_disabled": 0, "is_reserved": 0}, {"rental_uris": {"ios": "https://dc.lft.to/lastmile_qr_scan", "android": "https://dc.lft.to/lastmile_qr_scan"}, "lon": -77.06890516666667, "type": "electric_scooter", "fusion_lat": 0.0, "lat": 38.94026083333333, "name": "40a8bd543a9331fe9c02435b58a51d6b", "fusion_lon": 0.0, "bike_id": "40a8bd543a9331fe9c02435b58a51d6b", "is_disabled": 0, "is_reserved": 0}, {"rental_uris": {"ios": "https://dc.lft.to/lastmile_qr_scan", "android": "https://dc.lft.to/lastmile_qr_scan"}, "lon": -77.03643633333333, "type": "electric_scooter", "fusion_lat": 0.0, "lat": 38.930135666666665, "name": "386a0d8db3417d38eceae5163345a6f3", "fusion_lon": 0.0, "bike_id": "386a0d8db3417d38eceae5163345a6f3", "is_disabled": 0, "is_reserved": 0}, {"rental_uris": {"ios": "https://dc.lft.to/lastmile_qr_scan", "android": "https://dc.lft.to/lastmile_qr_scan"}, "lon": -77.0080785, "type": "electric_scooter", "fusion_lat": 0.0, "lat": 38.883217, "name": "714d4c1a61db0b38a5e7914bf734cb89", "fusion_lon": 0.0, "bike_id": "714d4c1a61db0b38a5e7914bf734cb89", "is_disabled": 0, "is_reserved": 0}, {"rental_uris": {"ios": "https://dc.lft.to/lastmile_qr_scan", "android": "https://dc.lft.to/lastmile_qr_scan"}, "lon": -77.011615, "type": "electric_scooter", "fusion_lat": 0.0, "lat": 38.9034855, "name": "f36b1c0987f253d8cebaad04ec4ea713", "fusion_lon": 0.0, "bike_id": "f36b1c0987f253d8cebaad04ec4ea713", "is_disabled": 0, "is_reserved": 0}, {"rental_uris": {"ios": "https://dc.lft.to/lastmile_qr_scan", "android": "https://dc.lft.to/lastmile_qr_scan"}, "lon": -77.03893116666667, "type": "electric_scooter", "fusion_lat": 0.0, "lat": 38.92191016666666, "name": "298558bfc28111f8d668bc0ecd090f06", "fusion_lon": 0.0, "bike_id": "298558bfc28111f8d668bc0ecd090f06", "is_disabled": 0, "is_reserved": 0}, {"rental_uris": {"ios": "https://dc.lft.to/lastmile_qr_scan", "android": "https://dc.lft.to/lastmile_qr_scan"}, "lon": -77.013459, "type": "electric_bike", "fusion_lat": 0.0, "lat": 38.99998816666667, "name": "f6e5e161dfab17c7d40ab9defeadf0bf", "fusion_lon": 0.0, "bike_id": "f6e5e161dfab17c7d40ab9defeadf0bf", "is_disabled": 0, "is_reserved": 0}, {"rental_uris": {"ios": "https://dc.lft.to/lastmile_qr_scan", "android": "https://dc.lft.to/lastmile_qr_scan"}, "lon": -76.96553766666666, "type": "electric_scooter", "fusion_lat": 0.0, "lat": 38.918608, "name": "a00cfc5292dec6f2ae373bafebefa98e", "fusion_lon": 0.0, "bike_id": "a00cfc5292dec6f2ae373bafebefa98e", "is_disabled": 0, "is_reserved": 0}, {"rental_uris": {"ios": "https://dc.lft.to/lastmile_qr_scan", "android": "https://dc.lft.to/lastmile_qr_scan"}, "lon": -77.013762, "type": "electric_scooter", "fusion_lat": 0.0, "lat": 38.8695135, "name": "57aae6af4ef4f82f5015057fa4943000", "fusion_lon": 0.0, "bike_id": "57aae6af4ef4f82f5015057fa4943000", "is_disabled": 0, "is_reserved": 0}, {"rental_uris": {"ios": "https://dc.lft.to/lastmile_qr_scan", "android": "https://dc.lft.to/lastmile_qr_scan"}, "lon": -77.02554683333334, "type": "electric_scooter", "fusion_lat": 0.0, "lat": 38.91818983333334, "name": "3247e3174f61b151ba6803edd4e89420", "fusion_lon": 0.0, "bike_id": "3247e3174f61b151ba6803edd4e89420", "is_disabled": 0, "is_reserved": 0}, {"rental_uris": {"ios": "https://dc.lft.to/lastmile_qr_scan", "android": "https://dc.lft.to/lastmile_qr_scan"}, "lon": -77.0192895, "type": "electric_scooter", "fusion_lat": 0.0, "lat": 38.95686966666667, "name": "058c0d6a1d3f16d356ac495f172d39e1", "fusion_lon": 0.0, "bike_id": "058c0d6a1d3f16d356ac495f172d39e1", "is_disabled": 0, "is_reserved": 0}, {"rental_uris": {"ios": "https://dc.lft.to/lastmile_qr_scan", "android": "https://dc.lft.to/lastmile_qr_scan"}, "lon": -77.02368683333333, "type": "electric_scooter", "fusion_lat": 0.0, "lat": 38.903042, "name": "b2470b83c24fa2e886ce6e271e04469d", "fusion_lon": 0.0, "bike_id": "b2470b83c24fa2e886ce6e271e04469d", "is_disabled": 0, "is_reserved": 0}, {"rental_uris": {"ios": "https://dc.lft.to/lastmile_qr_scan", "android": "https://dc.lft.to/lastmile_qr_scan"}, "lon": -77.04608983333334, "type": "electric_scooter", "fusion_lat": 0.0, "lat": 38.89819983333334, "name": "224d4c193e31bb526ffe15bc3e55c225", "fusion_lon": 0.0, "bike_id": "224d4c193e31bb526ffe15bc3e55c225", "is_disabled": 0, "is_reserved": 0}, {"rental_uris": {"ios": "https://dc.lft.to/lastmile_qr_scan", "android": "https://dc.lft.to/lastmile_qr_scan"}, "lon": -76.96556333333334, "type": "electric_scooter", "fusion_lat": 0.0, "lat": 38.918591166666666, "name": "4e1b367d95ca85576a8f3e371717d50e", "fusion_lon": 0.0, "bike_id": "4e1b367d95ca85576a8f3e371717d50e", "is_disabled": 0, "is_reserved": 0}, {"rental_uris": {"ios": "https://dc.lft.to/lastmile_qr_scan", "android": "https://dc.lft.to/lastmile_qr_scan"}, "lon": -77.03631333333334, "type": "electric_scooter", "fusion_lat": 0.0, "lat": 38.928532, "name": "1fe0e69c5a25d4e2709fe49ad4d4b962", "fusion_lon": 0.0, "bike_id": "1fe0e69c5a25d4e2709fe49ad4d4b962", "is_disabled": 0, "is_reserved": 0}, {"rental_uris": {"ios": "https://dc.lft.to/lastmile_qr_scan", "android": "https://dc.lft.to/lastmile_qr_scan"}, "lon": -77.0333585, "type": "electric_scooter", "fusion_lat": 0.0, "lat": 38.928764, "name": "b3413566dd28658fff0e47765983a6ce", "fusion_lon": 0.0, "bike_id": "b3413566dd28658fff0e47765983a6ce", "is_disabled": 0, "is_reserved": 0}, {"rental_uris": {"ios": "https://dc.lft.to/lastmile_qr_scan", "android": "https://dc.lft.to/lastmile_qr_scan"}, "lon": -77.05686466666667, "type": "electric_scooter", "fusion_lat": 0.0, "lat": 38.923394333333334, "name": "770b32f57f97b568244fcba786c8134d", "fusion_lon": 0.0, "bike_id": "770b32f57f97b568244fcba786c8134d", "is_disabled": 0, "is_reserved": 0}, {"rental_uris": {"ios": "https://dc.lft.to/lastmile_qr_scan", "android": "https://dc.lft.to/lastmile_qr_scan"}, "lon": -77.04861916666667, "type": "electric_scooter", "fusion_lat": 0.0, "lat": 38.89221333333333, "name": "0b1343338a22aa896447a7115c9e5bfa", "fusion_lon": 0.0, "bike_id": "0b1343338a22aa896447a7115c9e5bfa", "is_disabled": 0, "is_reserved": 0}, {"rental_uris": {"ios": "https://dc.lft.to/lastmile_qr_scan", "android": "https://dc.lft.to/lastmile_qr_scan"}, "lon": -77.00635766666667, "type": "electric_scooter", "fusion_lat": 0.0, "lat": 38.82931133333334, "name": "e9497af55dd6adfeb5dc80ce846fdf50", "fusion_lon": 0.0, "bike_id": "e9497af55dd6adfeb5dc80ce846fdf50", "is_disabled": 0, "is_reserved": 0}, {"rental_uris": {"ios": "https://dc.lft.to/lastmile_qr_scan", "android": "https://dc.lft.to/lastmile_qr_scan"}, "lon": -76.98699483333333, "type": "electric_scooter", "fusion_lat": 0.0, "lat": 38.90704683333333, "name": "2cb23be4243a64e47b2de553ac3ccd8b", "fusion_lon": 0.0, "bike_id": "2cb23be4243a64e47b2de553ac3ccd8b", "is_disabled": 0, "is_reserved": 0}, {"rental_uris": {"ios": "https://dc.lft.to/lastmile_qr_scan", "android": "https://dc.lft.to/lastmile_qr_scan"}, "lon": -77.00594066666666, "type": "electric_scooter", "fusion_lat": 0.0, "lat": 38.8773415, "name": "912860044dc379769492c4286d05621f", "fusion_lon": 0.0, "bike_id": "912860044dc379769492c4286d05621f", "is_disabled": 0, "is_reserved": 0}, {"rental_uris": {"ios": "https://dc.lft.to/lastmile_qr_scan", "android": "https://dc.lft.to/lastmile_qr_scan"}, "lon": -77.062679, "type": "electric_scooter", "fusion_lat": 0.0, "lat": 38.90352033333333, "name": "d0d9de513269d1bf88eee535bc880338", "fusion_lon": 0.0, "bike_id": "d0d9de513269d1bf88eee535bc880338", "is_disabled": 0, "is_reserved": 0}, {"rental_uris": {"ios": "https://dc.lft.to/lastmile_qr_scan", "android": "https://dc.lft.to/lastmile_qr_scan"}, "lon": -77.03562566666666, "type": "electric_bike", "fusion_lat": 0.0, "lat": 38.964631833333335, "name": "8250bb520f15445a3a7ccfdc540191cc", "fusion_lon": 0.0, "bike_id": "8250bb520f15445a3a7ccfdc540191cc", "is_disabled": 0, "is_reserved": 0}, {"rental_uris": {"ios": "https://dc.lft.to/lastmile_qr_scan", "android": "https://dc.lft.to/lastmile_qr_scan"}, "lon": -77.022647, "type": "electric_scooter", "fusion_lat": 0.0, "lat": 38.92824016666667, "name": "0bf4f7684a5cf6433352a7b0d40c7fa7", "fusion_lon": 0.0, "bike_id": "0bf4f7684a5cf6433352a7b0d40c7fa7", "is_disabled": 0, "is_reserved": 0}, {"rental_uris": {"ios": "https://dc.lft.to/lastmile_qr_scan", "android": "https://dc.lft.to/lastmile_qr_scan"}, "lon": -77.040485, "type": "electric_scooter", "fusion_lat": 0.0, "lat": 38.90271716666667, "name": "bce90201e1895c37f91928b8e562fc51", "fusion_lon": 0.0, "bike_id": "bce90201e1895c37f91928b8e562fc51", "is_disabled": 0, "is_reserved": 0}, {"rental_uris": {"ios": "https://dc.lft.to/lastmile_qr_scan", "android": "https://dc.lft.to/lastmile_qr_scan"}, "lon": -76.99967366666667, "type": "electric_scooter", "fusion_lat": 0.0, "lat": 38.909255333333334, "name": "7fe0312aa64a33413a3054565dd06181", "fusion_lon": 0.0, "bike_id": "7fe0312aa64a33413a3054565dd06181", "is_disabled": 0, "is_reserved": 0}, {"rental_uris": {"ios": "https://dc.lft.to/lastmile_qr_scan", "android": "https://dc.lft.to/lastmile_qr_scan"}, "lon": -77.031826, "type": "electric_scooter", "fusion_lat": 0.0, "lat": 38.8976675, "name": "8c3073c12c33560c44e059cd8fc48cfe", "fusion_lon": 0.0, "bike_id": "8c3073c12c33560c44e059cd8fc48cfe", "is_disabled": 0, "is_reserved": 0}, {"rental_uris": {"ios": "https://dc.lft.to/lastmile_qr_scan", "android": "https://dc.lft.to/lastmile_qr_scan"}, "lon": -77.04183983333333, "type": "electric_scooter", "fusion_lat": 0.0, "lat": 38.919366333333336, "name": "b82cc0401947f48a90a91dd09cadf1d0", "fusion_lon": 0.0, "bike_id": "b82cc0401947f48a90a91dd09cadf1d0", "is_disabled": 0, "is_reserved": 0}, {"rental_uris": {"ios": "https://dc.lft.to/lastmile_qr_scan", "android": "https://dc.lft.to/lastmile_qr_scan"}, "lon": -77.01101133333333, "type": "electric_scooter", "fusion_lat": 0.0, "lat": 38.89477983333333, "name": "9427aabc64614cd6e7cc03fc42feeb80", "fusion_lon": 0.0, "bike_id": "9427aabc64614cd6e7cc03fc42feeb80", "is_disabled": 0, "is_reserved": 0}, {"rental_uris": {"ios": "https://dc.lft.to/lastmile_qr_scan", "android": "https://dc.lft.to/lastmile_qr_scan"}, "lon": -76.97877083333333, "type": "electric_scooter", "fusion_lat": 0.0, "lat": 38.88505933333333, "name": "c8e294cd97fd7fbc70581f779734e364", "fusion_lon": 0.0, "bike_id": "c8e294cd97fd7fbc70581f779734e364", "is_disabled": 0, "is_reserved": 0}, {"rental_uris": {"ios": "https://dc.lft.to/lastmile_qr_scan", "android": "https://dc.lft.to/lastmile_qr_scan"}, "lon": -77.02095766666666, "type": "electric_scooter", "fusion_lat": 0.0, "lat": 38.89421816666667, "name": "879a29c8d7e0cd9faaf22ea3875be193", "fusion_lon": 0.0, "bike_id": "879a29c8d7e0cd9faaf22ea3875be193", "is_disabled": 0, "is_reserved": 0}, {"rental_uris": {"ios": "https://dc.lft.to/lastmile_qr_scan", "android": "https://dc.lft.to/lastmile_qr_scan"}, "lon": -77.04806483333333, "type": "electric_scooter", "fusion_lat": 0.0, "lat": 38.896123, "name": "a4efc5f66f338ab098f96e7d688cbc8d", "fusion_lon": 0.0, "bike_id": "a4efc5f66f338ab098f96e7d688cbc8d", "is_disabled": 0, "is_reserved": 0}, {"rental_uris": {"ios": "https://dc.lft.to/lastmile_qr_scan", "android": "https://dc.lft.to/lastmile_qr_scan"}, "lon": -77.0327795, "type": "electric_scooter", "fusion_lat": 0.0, "lat": 38.9292305, "name": "ab9b2d6aecd29a88b05461e715c6ed8c", "fusion_lon": 0.0, "bike_id": "ab9b2d6aecd29a88b05461e715c6ed8c", "is_disabled": 0, "is_reserved": 0}, {"rental_uris": {"ios": "https://dc.lft.to/lastmile_qr_scan", "android": "https://dc.lft.to/lastmile_qr_scan"}, "lon": -77.112124, "type": "electric_bike", "fusion_lat": 0.0, "lat": 38.813042, "name": "9be8a05bf067c6d79143dfe4ecd1e8f1", "fusion_lon": 0.0, "bike_id": "9be8a05bf067c6d79143dfe4ecd1e8f1", "is_disabled": 0, "is_reserved": 0}, {"rental_uris": {"ios": "https://dc.lft.to/lastmile_qr_scan", "android": "https://dc.lft.to/lastmile_qr_scan"}, "lon": -76.93539016666666, "type": "electric_bike", "fusion_lat": 0.0, "lat": 38.95550933333333, "name": "c90680390b7db6f57c0e774a9997e2bb", "fusion_lon": 0.0, "bike_id": "c90680390b7db6f57c0e774a9997e2bb", "is_disabled": 0, "is_reserved": 0}, {"rental_uris": {"ios": "https://dc.lft.to/lastmile_qr_scan", "android": "https://dc.lft.to/lastmile_qr_scan"},