{"data": {"bikes": [{"lon": -77.02215716666667, "bike_id": "388d712b70f31f948e503bed7c070f65", "lat": 38.901960833333334, "fusion_lon": 0.0, "fusion_lat": 0.0, "type": "electric_scooter", "name": "388d712b70f31f948e503bed7c070f65", "is_disabled": 0, "rental_uris": {"ios": "https://dc.lft.to/lastmile_qr_scan", "android": "https://dc.lft.to/lastmile_qr_scan"}, "is_reserved": 0}, {"lon": -77.02696316666666, "bike_id": "8a00b55c198f33ec85c9c6a5b667b691", "lat": 38.90842683333333, "fusion_lon": 0.0, "fusion_lat": 0.0, "type": "electric_scooter", "name": "8a00b55c198f33ec85c9c6a5b667b691", "is_disabled": 0, "rental_uris": {"ios": "https://dc.lft.to/lastmile_qr_scan", "android": "https://dc.lft.to/lastmile_qr_scan"}, "is_reserved": 0}, {"lon": -76.991948, "bike_id": "64387f18d1b07c954e894bf3ee93e4e0", "lat": 38.90825433333333, "fusion_lon": 0.0, "fusion_lat": 0.0, "type": "electric_scooter", "name": "64387f18d1b07c954e894bf3ee93e4e0", "is_disabled": 0, "rental_uris": {"ios": "https://dc.lft.to/lastmile_qr_scan", "android": "https://dc.lft.to/lastmile_qr_scan"}, "is_reserved": 0}, {"lon": -77.01997233333333, "bike_id": "6b6ea82cbcc6c75ac5f12e336cc1664a", "lat": 38.930402666666666, "fusion_lon": 0.0, "fusion_lat": 0.0, "type": "electric_bike", "name": "6b6ea82cbcc6c75ac5f12e336cc1664a", "is_disabled": 0, "rental_uris": {"ios": "https://dc.lft.to/lastmile_qr_scan", "android": "https://dc.lft.to/lastmile_qr_scan"}, "is_reserved": 0}, {"lon": -77.01987466666667, "bike_id": "f20d4c6b4b52f4ec7406155f8c1e3e83", "lat": 38.960224333333336, "fusion_lon": 0.0, "fusion_lat": 0.0, "type": "electric_scooter", "name": "f20d4c6b4b52f4ec7406155f8c1e3e83", "is_disabled": 0, "rental_uris": {"ios": "https://dc.lft.to/lastmile_qr_scan", "android": "https://dc.lft.to/lastmile_qr_scan"}, "is_reserved": 0}, {"lon": -76.987071, "bike_id": "fbe1920c192d8cc005425c48d548b433", "lat": 38.866906, "fusion_lon": 0.0, "fusion_lat": 0.0, "type": "electric_scooter", "name": "fbe1920c192d8cc005425c48d548b433", "is_disabled": 0, "rental_uris": {"ios": "https://dc.lft.to/lastmile_qr_scan", "android": "https://dc.lft.to/lastmile_qr_scan"}, "is_reserved": 0}, {"lon": -77.00889783333334, "bike_id": "4e7ed4e57fa27f2a56116e2085832cc1", "lat": 38.91783933333333, "fusion_lon": 0.0, "fusion_lat": 0.0, "type": "electric_scooter", "name": "4e7ed4e57fa27f2a56116e2085832cc1", "is_disabled": 0, "rental_uris": {"ios": "https://dc.lft.to/lastmile_qr_scan", "android": "https://dc.lft.to/lastmile_qr_scan"}, "is_reserved": 0}, {"lon": -76.93178466666667, "bike_id": "81a7fc60488c3fd94062bad5610cd260", "lat": 38.89882816666667, "fusion_lon": 0.0, "fusion_lat": 0.0, "type": "electric_scooter", "name": "81a7fc60488c3fd94062bad5610cd260", "is_disabled": 0, "rental_uris": {"ios": "https://dc.lft.to/lastmile_qr_scan", "android": "https://dc.lft.to/lastmile_qr_scan"}, "is_reserved": 0}, {"lon": -77.03206016666667, "bike_id": "7f48383fcee3dcfedb52b4b275f1f96f", "lat": 38.938665, "fusion_lon": 0.0, "fusion_lat": 0.0, "type": "electric_scooter", "name": "7f48383fcee3dcfedb52b4b275f1f96f", "is_disabled": 0, "rental_uris": {"ios": "https://dc.lft.to/lastmile_qr_scan", "android": "https://dc.lft.to/lastmile_qr_scan"}, "is_reserved": 0}, {"lon": -77.01408083333334, "bike_id": "855a02e823afed158bc534bb9a3da580", "lat": 38.928200833333335, "fusion_lon": 0.0, "fusion_lat": 0.0, "type": "electric_scooter", "name": "855a02e823afed158bc534bb9a3da580", "is_disabled": 0, "rental_uris": {"ios": "https://dc.lft.to/lastmile_qr_scan", "android": "https://dc.lft.to/lastmile_qr_scan"}, "is_reserved": 0}, {"lon": -76.98723816666667, "bike_id": "a4ddc718d0a1f6a3d6c4a45e508033e5", "lat": 38.866959, "fusion_lon": 0.0, "fusion_lat": 0.0, "type": "electric_scooter", "name": "a4ddc718d0a1f6a3d6c4a45e508033e5", "is_disabled": 0, "rental_uris": {"ios": "https://dc.lft.to/lastmile_qr_scan", "android": "https://dc.lft.to/lastmile_qr_scan"}, "is_reserved": 0}, {"lon": -77.0308125, "bike_id": "1999bf21935276b069b3059c6f2cfbc4", "lat": 38.935230833333335, "fusion_lon": 0.0, "fusion_lat": 0.0, "type": "electric_scooter", "name": "1999bf21935276b069b3059c6f2cfbc4", "is_disabled": 0, "rental_uris": {"ios": "https://dc.lft.to/lastmile_qr_scan", "android": "https://dc.lft.to/lastmile_qr_scan"}, "is_reserved": 0}, {"lon": -77.03180166666667, "bike_id": "e3badf3ad788548f8de69a31edfe07c5", "lat": 38.887330166666665, "fusion_lon": 0.0, "fusion_lat": 0.0, "type": "electric_scooter", "name": "e3badf3ad788548f8de69a31edfe07c5", "is_disabled": 0, "rental_uris": {"ios": "https://dc.lft.to/lastmile_qr_scan", "android": "https://dc.lft.to/lastmile_qr_scan"}, "is_reserved": 0}, {"lon": -77.01975433333334, "bike_id": "9684dbeca74f79da22ee9df2d81928a5", "lat": 38.921271833333336, "fusion_lon": 0.0, "fusion_lat": 0.0, "type": "electric_scooter", "name": "9684dbeca74f79da22ee9df2d81928a5", "is_disabled": 0, "rental_uris": {"ios": "https://dc.lft.to/lastmile_qr_scan", "android": "https://dc.lft.to/lastmile_qr_scan"}, "is_reserved": 0}, {"lon": -77.06029066666666, "bike_id": "e1f503b4d7e8d67ef3392ea7a0f81b85", "lat": 38.9049715, "fusion_lon": 0.0, "fusion_lat": 0.0, "type": "electric_scooter", "name": "e1f503b4d7e8d67ef3392ea7a0f81b85", "is_disabled": 0, "rental_uris": {"ios": "https://dc.lft.to/lastmile_qr_scan", "android": "https://dc.lft.to/lastmile_qr_scan"}, "is_reserved": 0}, {"lon": -77.00154733333333, "bike_id": "ad1e2188f505d951d476d4380f484455", "lat": 38.84277, "fusion_lon": 0.0, "fusion_lat": 0.0, "type": "electric_scooter", "name": "ad1e2188f505d951d476d4380f484455", "is_disabled": 0, "rental_uris": {"ios": "https://dc.lft.to/lastmile_qr_scan", "android": "https://dc.lft.to/lastmile_qr_scan"}, "is_reserved": 0}, {"lon": -77.05500866666667, "bike_id": "c6e36721be229205bcf8e06809754dbe", "lat": 38.935512333333335, "fusion_lon": 0.0, "fusion_lat": 0.0, "type": "electric_scooter", "name": "c6e36721be229205bcf8e06809754dbe", "is_disabled": 0, "rental_uris": {"ios": "https://dc.lft.to/lastmile_qr_scan", "android": "https://dc.lft.to/lastmile_qr_scan"}, "is_reserved": 0}, {"lon": -77.0215535, "bike_id": "e08d7638211ae16243b2dd205f8e7d6c", "lat": 38.894996, "fusion_lon": 0.0, "fusion_lat": 0.0, "type": "electric_scooter", "name": "e08d7638211ae16243b2dd205f8e7d6c", "is_disabled": 0, "rental_uris": {"ios": "https://dc.lft.to/lastmile_qr_scan", "android": "https://dc.lft.to/lastmile_qr_scan"}, "is_reserved": 0}, {"lon": -76.987399, "bike_id": "51fe29b777f386e7c86c2a766e37624d", "lat": 38.86577483333333, "fusion_lon": 0.0, "fusion_lat": 0.0, "type": "electric_bike", "name": "51fe29b777f386e7c86c2a766e37624d", "is_disabled": 0, "rental_uris": {"ios": "https://dc.lft.to/lastmile_qr_scan", "android": "https://dc.lft.to/lastmile_qr_scan"}, "is_reserved": 0}, {"lon": -77.036343, "bike_id": "cc79209ea2201532eb052001a43463c6", "lat": 38.944892333333335, "fusion_lon": 0.0, "fusion_lat": 0.0, "type": "electric_scooter", "name": "cc79209ea2201532eb052001a43463c6", "is_disabled": 0, "rental_uris": {"ios": "https://dc.lft.to/lastmile_qr_scan", "android": "https://dc.lft.to/lastmile_qr_scan"}, "is_reserved": 0}, {"lon": -77.021109, "bike_id": "ecdb2fe5f046605961e9d256aa786de3", "lat": 38.90557483333333, "fusion_lon": 0.0, "fusion_lat": 0.0, "type": "electric_scooter", "name": "ecdb2fe5f046605961e9d256aa786de3", "is_disabled": 0, "rental_uris": {"ios": "https://dc.lft.to/lastmile_qr_scan", "android": "https://dc.lft.to/lastmile_qr_scan"}, "is_reserved": 0}, {"lon": -77.03514633333333, "bike_id": "6b7367d34967c4648921919f9b99cea9", "lat": 38.9271875, "fusion_lon": 0.0, "fusion_lat": 0.0, "type": "electric_scooter", "name": "6b7367d34967c4648921919f9b99cea9", "is_disabled": 0, "rental_uris": {"ios": "https://dc.lft.to/lastmile_qr_scan", "android": "https://dc.lft.to/lastmile_qr_scan"}, "is_reserved": 0}, {"lon": -77.05468233333333, "bike_id": "af0882e7f5ce11608f12209d5ff12f2b", "lat": 38.925770666666665, "fusion_lon": 0.0, "fusion_lat": 0.0, "type": "electric_scooter", "name": "af0882e7f5ce11608f12209d5ff12f2b", "is_disabled": 0, "rental_uris": {"ios": "https://dc.lft.to/lastmile_qr_scan", "android": "https://dc.lft.to/lastmile_qr_scan"}, "is_reserved": 0}, {"lon": -77.02321133333334, "bike_id": "05f45cb269e44486cbbd3f06716eea3a", "lat": 38.924072333333335, "fusion_lon": 0.0, "fusion_lat": 0.0, "type": "electric_scooter", "name": "05f45cb269e44486cbbd3f06716eea3a", "is_disabled": 0, "rental_uris": {"ios": "https://dc.lft.to/lastmile_qr_scan", "android": "https://dc.lft.to/lastmile_qr_scan"}, "is_reserved": 0}, {"lon": -76.981804, "bike_id": "509ebc8b587c17ba88d6403a52580a1f", "lat": 38.899951333333334, "fusion_lon": 0.0, "fusion_lat": 0.0, "type": "electric_bike", "name": "509ebc8b587c17ba88d6403a52580a1f", "is_disabled": 0, "rental_uris": {"ios": "https://dc.lft.to/lastmile_qr_scan", "android": "https://dc.lft.to/lastmile_qr_scan"}, "is_reserved": 0}, {"lon": -77.02971783333334, "bike_id": "eda8b369fbbe54a51604f57d9d83eeb9", "lat": 38.916603, "fusion_lon": 0.0, "fusion_lat": 0.0, "type": "electric_scooter", "name": "eda8b369fbbe54a51604f57d9d83eeb9", "is_disabled": 0, "rental_uris": {"ios": "https://dc.lft.to/lastmile_qr_scan", "android": "https://dc.lft.to/lastmile_qr_scan"}, "is_reserved": 0}, {"lon": -77.05038016666667, "bike_id": "cc5b97632a5a868abe3fa17a68c1c379", "lat": 38.92358466666667, "fusion_lon": 0.0, "fusion_lat": 0.0, "type": "electric_scooter", "name": "cc5b97632a5a868abe3fa17a68c1c379", "is_disabled": 0, "rental_uris": {"ios": "https://dc.lft.to/lastmile_qr_scan", "android": "https://dc.lft.to/lastmile_qr_scan"}, "is_reserved": 0}, {"lon": -76.96532516666667, "bike_id": "c51db036cc05df495d49f863ae839905", "lat": 38.8763035, "fusion_lon": 0.0, "fusion_lat": 0.0, "type": "electric_scooter", "name": "c51db036cc05df495d49f863ae839905", "is_disabled": 0, "rental_uris": {"ios": "https://dc.lft.to/lastmile_qr_scan", "android": "https://dc.lft.to/lastmile_qr_scan"}, "is_reserved": 0}, {"lon": -77.04163316666667, "bike_id": "9f873a6259f1f015ae586ef8af2a3b03", "lat": 38.919727333333334, "fusion_lon": 0.0, "fusion_lat": 0.0, "type": "electric_scooter", "name": "9f873a6259f1f015ae586ef8af2a3b03", "is_disabled": 0, "rental_uris": {"ios": "https://dc.lft.to/lastmile_qr_scan", "android": "https://dc.lft.to/lastmile_qr_scan"}, "is_reserved": 0}, {"lon": -77.0319915, "bike_id": "5b3ae11c76302d9102bf79677a3c746f", "lat": 38.8868925, "fusion_lon": 0.0, "fusion_lat": 0.0, "type": "electric_scooter", "name": "5b3ae11c76302d9102bf79677a3c746f", "is_disabled": 0, "rental_uris": {"ios": "https://dc.lft.to/lastmile_qr_scan", "android": "https://dc.lft.to/lastmile_qr_scan"}, "is_reserved": 0}, {"lon": -77.039634, "bike_id": "81104d7d509167868f2fc5433b4844f9", "lat": 38.91554816666667, "fusion_lon": 0.0, "fusion_lat": 0.0, "type": "electric_scooter", "name": "81104d7d509167868f2fc5433b4844f9", "is_disabled": 0, "rental_uris": {"ios": "https://dc.lft.to/lastmile_qr_scan", "android": "https://dc.lft.to/lastmile_qr_scan"}, "is_reserved": 0}, {"lon": -77.03686166666667, "bike_id": "3a8938f2bc465eeaaee4e3c87f7a2f6a", "lat": 38.939348333333335, "fusion_lon": 0.0, "fusion_lat": 0.0, "type": "electric_scooter", "name": "3a8938f2bc465eeaaee4e3c87f7a2f6a", "is_disabled": 0, "rental_uris": {"ios": "https://dc.lft.to/lastmile_qr_scan", "android": "https://dc.lft.to/lastmile_qr_scan"}, "is_reserved": 0}, {"lon": -77.064157, "bike_id": "9832744b1dc28eeb28644f0f5d9e98b4", "lat": 38.99330716666667, "fusion_lon": 0.0, "fusion_lat": 0.0, "type": "electric_scooter", "name": "9832744b1dc28eeb28644f0f5d9e98b4", "is_disabled": 0, "rental_uris": {"ios": "https://dc.lft.to/lastmile_qr_scan", "android": "https://dc.lft.to/lastmile_qr_scan"}, "is_reserved": 0}, {"lon": -77.041761, "bike_id": "9a90d980d41d7d8f67a1554686505b79", "lat": 38.91977716666667, "fusion_lon": 0.0, "fusion_lat": 0.0, "type": "electric_scooter", "name": "9a90d980d41d7d8f67a1554686505b79", "is_disabled": 0, "rental_uris": {"ios": "https://dc.lft.to/lastmile_qr_scan", "android": "https://dc.lft.to/lastmile_qr_scan"}, "is_reserved": 0}, {"lon": -77.02377166666666, "bike_id": "b8b56ddc868a901bd29e75547c44db70", "lat": 38.917789666666664, "fusion_lon": 0.0, "fusion_lat": 0.0, "type": "electric_scooter", "name": "b8b56ddc868a901bd29e75547c44db70", "is_disabled": 0, "rental_uris": {"ios": "https://dc.lft.to/lastmile_qr_scan", "android": "https://dc.lft.to/lastmile_qr_scan"}, "is_reserved": 0}, {"lon": -77.04175316666667, "bike_id": "6a70e4381f67d781b9ee3269f1232970", "lat": 38.9172885, "fusion_lon": 0.0, "fusion_lat": 0.0, "type": "electric_scooter", "name": "6a70e4381f67d781b9ee3269f1232970", "is_disabled": 0, "rental_uris": {"ios": "https://dc.lft.to/lastmile_qr_scan", "android": "https://dc.lft.to/lastmile_qr_scan"}, "is_reserved": 0}, {"lon": -77.02807033333333, "bike_id": "c232f1c324da27f061ce0dddb1118904", "lat": 38.920259333333334, "fusion_lon": 0.0, "fusion_lat": 0.0, "type": "electric_scooter", "name": "c232f1c324da27f061ce0dddb1118904", "is_disabled": 0, "rental_uris": {"ios": "https://dc.lft.to/lastmile_qr_scan", "android": "https://dc.lft.to/lastmile_qr_scan"}, "is_reserved": 0}, {"lon": -77.02795266666666, "bike_id": "3d618c74b02f425c27e2a29795cf6efd", "lat": 38.956766333333334, "fusion_lon": 0.0, "fusion_lat": 0.0, "type": "electric_scooter", "name": "3d618c74b02f425c27e2a29795cf6efd", "is_disabled": 0, "rental_uris": {"ios": "https://dc.lft.to/lastmile_qr_scan", "android": "https://dc.lft.to/lastmile_qr_scan"}, "is_reserved": 0}, {"lon": -77.03335266666667, "bike_id": "2b42c88c173f2717f308ef0d483e0115", "lat": 38.909721833333336, "fusion_lon": 0.0, "fusion_lat": 0.0, "type": "electric_scooter", "name": "2b42c88c173f2717f308ef0d483e0115", "is_disabled": 0, "rental_uris": {"ios": "https://dc.lft.to/lastmile_qr_scan", "android": "https://dc.lft.to/lastmile_qr_scan"}, "is_reserved": 0}, {"lon": -77.01094066666667, "bike_id": "dc424a85defd732120db4f2bbc924f00", "lat": 38.91565666666666, "fusion_lon": 0.0, "fusion_lat": 0.0, "type": "electric_scooter", "name": "dc424a85defd732120db4f2bbc924f00", "is_disabled": 0, "rental_uris": {"ios": "https://dc.lft.to/lastmile_qr_scan", "android": "https://dc.lft.to/lastmile_qr_scan"}, "is_reserved": 0}, {"lon": -77.045502, "bike_id": "3333d0e9b41a54aa367e426c68e14773", "lat": 38.920484333333334, "fusion_lon": 0.0, "fusion_lat": 0.0, "type": "electric_scooter", "name": "3333d0e9b41a54aa367e426c68e14773", "is_disabled": 0, "rental_uris": {"ios": "https://dc.lft.to/lastmile_qr_scan", "android": "https://dc.lft.to/lastmile_qr_scan"}, "is_reserved": 0}, {"lon": -77.02733833333333, "bike_id": "cea9ef6c62b46ef9fcddb623a6c027ed", "lat": 38.93207433333333, "fusion_lon": 0.0, "fusion_lat": 0.0, "type": "electric_scooter", "name": "cea9ef6c62b46ef9fcddb623a6c027ed", "is_disabled": 0, "rental_uris": {"ios": "https://dc.lft.to/lastmile_qr_scan", "android": "https://dc.lft.to/lastmile_qr_scan"}, "is_reserved": 0}, {"lon": -77.063061, "bike_id": "3861b29d69dee97910328f0df7f31c56", "lat": 38.90591766666667, "fusion_lon": 0.0, "fusion_lat": 0.0, "type": "electric_scooter", "name": "3861b29d69dee97910328f0df7f31c56", "is_disabled": 0, "rental_uris": {"ios": "https://dc.lft.to/lastmile_qr_scan", "android": "https://dc.lft.to/lastmile_qr_scan"}, "is_reserved": 0}, {"lon": -77.025111, "bike_id": "4e6435204d1ecf3582121e462c6d0a59", "lat": 38.9309815, "fusion_lon": 0.0, "fusion_lat": 0.0, "type": "electric_scooter", "name": "4e6435204d1ecf3582121e462c6d0a59", "is_disabled": 0, "rental_uris": {"ios": "https://dc.lft.to/lastmile_qr_scan", "android": "https://dc.lft.to/lastmile_qr_scan"}, "is_reserved": 0}, {"lon": -77.017857, "bike_id": "1d07dda39b887123b4fddd99629d8548", "lat": 38.877039833333335, "fusion_lon": 0.0, "fusion_lat": 0.0, "type": "electric_scooter", "name": "1d07dda39b887123b4fddd99629d8548", "is_disabled": 0, "rental_uris": {"ios": "https://dc.lft.to/lastmile_qr_scan", "android": "https://dc.lft.to/lastmile_qr_scan"}, "is_reserved": 0}, {"lon": -77.03173566666666, "bike_id": "f054c2e33bad56698ffd2f1c8f52e40d", "lat": 38.91415533333333, "fusion_lon": 0.0, "fusion_lat": 0.0, "type": "electric_scooter", "name": "f054c2e33bad56698ffd2f1c8f52e40d", "is_disabled": 0, "rental_uris": {"ios": "https://dc.lft.to/lastmile_qr_scan", "android": "https://dc.lft.to/lastmile_qr_scan"}, "is_reserved": 0}, {"lon": -77.029514, "bike_id": "35a665770c185b676796e85f18fe3e0c", "lat": 38.923693, "fusion_lon": 0.0, "fusion_lat": 0.0, "type": "electric_scooter", "name": "35a665770c185b676796e85f18fe3e0c", "is_disabled": 0, "rental_uris": {"ios": "https://dc.lft.to/lastmile_qr_scan", "android": "https://dc.lft.to/lastmile_qr_scan"}, "is_reserved": 0}, {"lon": -76.93362333333333, "bike_id": "46b4683885cddee65b78a4af9a5a2f08", "lat": 38.8879685, "fusion_lon": 0.0, "fusion_lat": 0.0, "type": "electric_scooter", "name": "46b4683885cddee65b78a4af9a5a2f08", "is_disabled": 0, "rental_uris": {"ios": "https://dc.lft.to/lastmile_qr_scan", "android": "https://dc.lft.to/lastmile_qr_scan"}, "is_reserved": 0}, {"lon": -77.01003816666666, "bike_id": "9c12e76884f0af413fd9ba6f379475e3", "lat": 38.91926216666667, "fusion_lon": 0.0, "fusion_lat": 0.0, "type": "electric_scooter", "name": "9c12e76884f0af413fd9ba6f379475e3", "is_disabled": 0, "rental_uris": {"ios": "https://dc.lft.to/lastmile_qr_scan", "android": "https://dc.lft.to/lastmile_qr_scan"}, "is_reserved": 0}, {"lon": -77.0480555, "bike_id": "e41cbc504d831d42d6ab48fdf5d9ebbf", "lat": 38.909609333333336, "fusion_lon": 0.0, "fusion_lat": 0.0, "type": "electric_scooter", "name": "e41cbc504d831d42d6ab48fdf5d9ebbf", "is_disabled": 0, "rental_uris": {"ios": "https://dc.lft.to/lastmile_qr_scan", "android": "https://dc.lft.to/lastmile_qr_scan"}, "is_reserved": 0}, {"lon": -77.04257516666667, "bike_id": "b3e2b240b56f40a790fa33479edbfc79", "lat": 38.907291666666666, "fusion_lon": 0.0, "fusion_lat": 0.0, "type": "electric_scooter", "name": "b3e2b240b56f40a790fa33479edbfc79", "is_disabled": 0, "rental_uris": {"ios": "https://dc.lft.to/lastmile_qr_scan", "android": "https://dc.lft.to/lastmile_qr_scan"}, "is_reserved": 0}, {"lon": -76.946379, "bike_id": "47335de81cae5c02965d70b4ed942948", "lat": 38.898319, "fusion_lon": 0.0, "fusion_lat": 0.0, "type": "electric_scooter", "name": "47335de81cae5c02965d70b4ed942948", "is_disabled": 0, "rental_uris": {"ios": "https://dc.lft.to/lastmile_qr_scan", "android": "https://dc.lft.to/lastmile_qr_scan"}, "is_reserved": 0}, {"lon": -77.0179345, "bike_id": "5ff34a079d643196d5f170c5b7cd4bc7", "lat": 38.94117283333333, "fusion_lon": 0.0, "fusion_lat": 0.0, "type": "electric_scooter", "name": "5ff34a079d643196d5f170c5b7cd4bc7", "is_disabled": 0, "rental_uris": {"ios": "https://dc.lft.to/lastmile_qr_scan", "android": "https://dc.lft.to/lastmile_qr_scan"}, "is_reserved": 0}, {"lon": -77.019932, "bike_id": "9c3271ccd62d527c1751e4c682cc5f76", "lat": 38.925435666666665, "fusion_lon": 0.0, "fusion_lat": 0.0, "type": "electric_bike", "name": "9c3271ccd62d527c1751e4c682cc5f76", "is_disabled": 0, "rental_uris": {"ios": "https://dc.lft.to/lastmile_qr_scan", "android": "https://dc.lft.to/lastmile_qr_scan"}, "is_reserved": 0}, {"lon": -76.94125566666666, "bike_id": "1ddb09379f650eeec7a07d7984763929", "lat": 38.908156166666664, "fusion_lon": 0.0, "fusion_lat": 0.0, "type": "electric_scooter", "name": "1ddb09379f650eeec7a07d7984763929", "is_disabled": 0, "rental_uris": {"ios": "https://dc.lft.to/lastmile_qr_scan", "android": "https://dc.lft.to/lastmile_qr_scan"}, "is_reserved": 0}, {"lon": -76.99054033333333, "bike_id": "5ee1941c5cf116f36b7bc75e5b6e742d", "lat": 38.86376283333333, "fusion_lon": 0.0, "fusion_lat": 0.0, "type": "electric_scooter", "name": "5ee1941c5cf116f36b7bc75e5b6e742d", "is_disabled": 0, "rental_uris": {"ios": "https://dc.lft.to/lastmile_qr_scan", "android": "https://dc.lft.to/lastmile_qr_scan"}, "is_reserved": 0}, {"lon": -77.012222, "bike_id": "8c5a7919174592c7f2449fffd190188b", "lat": 38.91349133333333, "fusion_lon": 0.0, "fusion_lat": 0.0, "type": "electric_scooter", "name": "8c5a7919174592c7f2449fffd190188b", "is_disabled": 0, "rental_uris": {"ios": "https://dc.lft.to/lastmile_qr_scan", "android": "https://dc.lft.to/lastmile_qr_scan"}, "is_reserved": 0}, {"lon": -77.01606083333333, "bike_id": "0af78bcd81febc3976fdd5c4e4a727f0", "lat": 38.91758316666667, "fusion_lon": 0.0, "fusion_lat": 0.0, "type": "electric_scooter", "name": "0af78bcd81febc3976fdd5c4e4a727f0", "is_disabled": 0, "rental_uris": {"ios": "https://dc.lft.to/lastmile_qr_scan", "android": "https://dc.lft.to/lastmile_qr_scan"}, "is_reserved": 0}, {"lon": -77.00012983333333, "bike_id": "a9e7403252ab56c522846e607bf85732", "lat": 38.89082466666667, "fusion_lon": 0.0, "fusion_lat": 0.0, "type": "electric_scooter", "name": "a9e7403252ab56c522846e607bf85732", "is_disabled": 0, "rental_uris": {"ios": "https://dc.lft.to/lastmile_qr_scan", "android": "https://dc.lft.to/lastmile_qr_scan"}, "is_reserved": 0}, {"lon": -77.02773016666667, "bike_id": "03a9ca0b9f91bd13b7ea4761134a9a45", "lat": 38.8921785, "fusion_lon": 0.0, "fusion_lat": 0.0, "type": "electric_scooter", "name": "03a9ca0b9f91bd13b7ea4761134a9a45", "is_disabled": 0, "rental_uris": {"ios": "https://dc.lft.to/lastmile_qr_scan", "android": "https://dc.lft.to/lastmile_qr_scan"}, "is_reserved": 0}, {"lon": -77.000709, "bike_id": "21cd759bf363a04f2851e9167fe29d69", "lat": 38.900820333333336, "fusion_lon": 0.0, "fusion_lat": 0.0, "type": "electric_scooter", "name": "21cd759bf363a04f2851e9167fe29d69", "is_disabled": 0, "rental_uris": {"ios": "https://dc.lft.to/lastmile_qr_scan", "android": "https://dc.lft.to/lastmile_qr_scan"}, "is_reserved": 0}, {"lon": -77.0269955, "bike_id": "522e4e91b3c5e3844542b8ee4180de09", "lat": 38.90841433333333, "fusion_lon": 0.0, "fusion_lat": 0.0, "type": "electric_scooter", "name": "522e4e91b3c5e3844542b8ee4180de09", "is_disabled": 0, "rental_uris": {"ios": "https://dc.lft.to/lastmile_qr_scan", "android": "https://dc.lft.to/lastmile_qr_scan"}, "is_reserved": 0}, {"lon": -77.02448316666667, "bike_id": "bc3b81b90c5c3fff45086dc0a23e85ad", "lat": 38.925941333333334, "fusion_lon": 0.0, "fusion_lat": 0.0, "type": "electric_scooter", "name": "bc3b81b90c5c3fff45086dc0a23e85ad", "is_disabled": 0, "rental_uris": {"ios": "https://dc.lft.to/lastmile_qr_scan", "android": "https://dc.lft.to/lastmile_qr_scan"}, "is_reserved": 0}, {"lon": -77.0426345, "bike_id": "a86ed8c99f61fb78c5301e3cdaeac620", "lat": 38.92054733333333, "fusion_lon": 0.0, "fusion_lat": 0.0, "type": "electric_scooter", "name": "a86ed8c99f61fb78c5301e3cdaeac620", "is_disabled": 0, "rental_uris": {"ios": "https://dc.lft.to/lastmile_qr_scan", "android": "https://dc.lft.to/lastmile_qr_scan"}, "is_reserved": 0}, {"lon": -77.0274365, "bike_id": "97b9c9d4de693f965184fe9a7c9b1a45", "lat": 38.95779266666667, "fusion_lon": 0.0, "fusion_lat": 0.0, "type": "electric_scooter", "name": "97b9c9d4de693f965184fe9a7c9b1a45", "is_disabled": 0, "rental_uris": {"ios": "https://dc.lft.to/lastmile_qr_scan", "android": "https://dc.lft.to/lastmile_qr_scan"}, "is_reserved": 0}, {"lon": -76.99374783333333, "bike_id": "b91523380942bb0e143d3d503c4cabc2", "lat": 38.8936685, "fusion_lon": 0.0, "fusion_lat": 0.0, "type": "electric_scooter", "name": "b91523380942bb0e143d3d503c4cabc2", "is_disabled": 0, "rental_uris": {"ios": "https://dc.lft.to/lastmile_qr_scan", "android": "https://dc.lft.to/lastmile_qr_scan"}, "is_reserved": 0}, {"lon": -77.036701, "bike_id": "fcd38d413e3b8b8b5462eb6ef7f8f6c4", "lat": 38.902759333333336, "fusion_lon": 0.0, "fusion_lat": 0.0, "type": "electric_scooter", "name": "fcd38d413e3b8b8b5462eb6ef7f8f6c4", "is_disabled": 0, "rental_uris": {"ios": "https://dc.lft.to/lastmile_qr_scan", "android": "https://dc.lft.to/lastmile_qr_scan"}, "is_reserved": 0}, {"lon": -77.00683016666666, "bike_id": "6dc8dfb415964b45f651789835a3c55a", "lat": 38.834897833333336, "fusion_lon": 0.0, "fusion_lat": 0.0, "type": "electric_scooter", "name": "6dc8dfb415964b45f651789835a3c55a", "is_disabled": 0, "rental_uris": {"ios": "https://dc.lft.to/lastmile_qr_scan", "android": "https://dc.lft.to/lastmile_qr_scan"}, "is_reserved": 0}, {"lon": -76.94886716666667, "bike_id": "4a108492ef534f71fc746e2469c8a13a", "lat": 38.89423333333333, "fusion_lon": 0.0, "fusion_lat": 0.0, "type": "electric_scooter", "name": "4a108492ef534f71fc746e2469c8a13a", "is_disabled": 0, "rental_uris": {"ios": "https://dc.lft.to/lastmile_qr_scan", "android": "https://dc.lft.to/lastmile_qr_scan"}, "is_reserved": 0}, {"lon": -77.0258465, "bike_id": "3c5964e54d2d2c3f65f2b5c07422f771", "lat": 38.8836435, "fusion_lon": 0.0, "fusion_lat": 0.0, "type": "electric_scooter", "name": "3c5964e54d2d2c3f65f2b5c07422f771", "is_disabled": 0, "rental_uris": {"ios": "https://dc.lft.to/lastmile_qr_scan", "android": "https://dc.lft.to/lastmile_qr_scan"}, "is_reserved": 0}, {"lon": -77.04486766666666, "bike_id": "d15346cd05244f00de637f78a02b8f61", "lat": 38.91932283333333, "fusion_lon": 0.0, "fusion_lat": 0.0, "type": "electric_scooter", "name": "d15346cd05244f00de637f78a02b8f61", "is_disabled": 0, "rental_uris": {"ios": "https://dc.lft.to/lastmile_qr_scan", "android": "https://dc.lft.to/lastmile_qr_scan"}, "is_reserved": 0}, {"lon": -77.01225483333333, "bike_id": "788799e8f33f09b654a7b80d1ff2ad01", "lat": 38.892897833333336, "fusion_lon": 0.0, "fusion_lat": 0.0, "type": "electric_scooter", "name": "788799e8f33f09b654a7b80d1ff2ad01", "is_disabled": 0, "rental_uris": {"ios": "https://dc.lft.to/lastmile_qr_scan", "android": "https://dc.lft.to/lastmile_qr_scan"}, "is_reserved": 0}, {"lon": -77.0468675, "bike_id": "178237a933aedc84c3b5af5091e9ddc0", "lat": 38.89739016666667, "fusion_lon": 0.0, "fusion_lat": 0.0, "type": "electric_scooter", "name": "178237a933aedc84c3b5af5091e9ddc0", "is_disabled": 0, "rental_uris": {"ios": "https://dc.lft.to/lastmile_qr_scan", "android": "https://dc.lft.to/lastmile_qr_scan"}, "is_reserved": 0}, {"lon": -77.03182933333333, "bike_id": "763953349e9f430648e3047701051b41", "lat": 38.892178, "fusion_lon": 0.0, "fusion_lat": 0.0, "type": "electric_scooter", "name": "763953349e9f430648e3047701051b41", "is_disabled": 0, "rental_uris": {"ios": "https://dc.lft.to/lastmile_qr_scan", "android": "https://dc.lft.to/lastmile_qr_scan"}, "is_reserved": 0}, {"lon": -77.04145316666667, "bike_id": "04c03535810c411af2151c3b71d0a50f", "lat": 38.92243366666667, "fusion_lon": 0.0, "fusion_lat": 0.0, "type": "electric_scooter", "name": "04c03535810c411af2151c3b71d0a50f", "is_disabled": 0, "rental_uris": {"ios": "https://dc.lft.to/lastmile_qr_scan", "android": "https://dc.lft.to/lastmile_qr_scan"}, "is_reserved": 0}, {"lon": -77.0163135, "bike_id": "9a9e107fd0d224ef931382b190a96317", "lat": 38.905642666666665, "fusion_lon": 0.0, "fusion_lat": 0.0, "type": "electric_scooter", "name": "9a9e107fd0d224ef931382b190a96317", "is_disabled": 0, "rental_uris": {"ios": "https://dc.lft.to/lastmile_qr_scan", "android": "https://dc.lft.to/lastmile_qr_scan"}, "is_reserved": 0}, {"lon": -76.99186133333333, "bike_id": "3958454a049df03650cead5829955230", "lat": 38.88968283333333, "fusion_lon": 0.0, "fusion_lat": 0.0, "type": "electric_scooter", "name": "3958454a049df03650cead5829955230", "is_disabled": 0, "rental_uris": {"ios": "https://dc.lft.to/lastmile_qr_scan", "android": "https://dc.lft.to/lastmile_qr_scan"}, "is_reserved": 0}, {"lon": -77.01894883333334, "bike_id": "284cae734fd6f00d2e726d9c239d4af4", "lat": 38.87461, "fusion_lon": 0.0, "fusion_lat": 0.0, "type": "electric_scooter", "name": "284cae734fd6f00d2e726d9c239d4af4", "is_disabled": 0, "rental_uris": {"ios": "https://dc.lft.to/lastmile_qr_scan", "android": "https://dc.lft.to/lastmile_qr_scan"}, "is_reserved": 0}, {"lon": -77.03261883333333, "bike_id": "48236d1229ac47dfcd2747d3cdf25d90", "lat": 38.932652166666664, "fusion_lon": 0.0, "fusion_lat": 0.0, "type": "electric_scooter", "name": "48236d1229ac47dfcd2747d3cdf25d90", "is_disabled": 0, "rental_uris": {"ios": "https://dc.lft.to/lastmile_qr_scan", "android": "https://dc.lft.to/lastmile_qr_scan"}, "is_reserved": 0}, {"lon": -77.03431833333333, "bike_id": "daa745f55e8c282d1eb0d7ada40c652f", "lat": 38.909743166666665, "fusion_lon": 0.0, "fusion_lat": 0.0, "type": "electric_scooter", "name": "daa745f55e8c282d1eb0d7ada40c652f", "is_disabled": 0, "rental_uris": {"ios": "https://dc.lft.to/lastmile_qr_scan", "android": "https://dc.lft.to/lastmile_qr_scan"}, "is_reserved": 0}, {"lon": -77.04102733333333, "bike_id": "4823f8232ac62eb39d829fea6ace22ec", "lat": 38.89230716666667, "fusion_lon": 0.0, "fusion_lat": 0.0, "type": "electric_scooter", "name": "4823f8232ac62eb39d829fea6ace22ec", "is_disabled": 0, "rental_uris": {"ios": "https://dc.lft.to/lastmile_qr_scan", "android": "https://dc.lft.to/lastmile_qr_scan"}, "is_reserved": 0}, {"lon": -77.02691133333333, "bike_id": "7c1948cb392b0ed3594e7871fa1134ad", "lat": 38.90665283333333, "fusion_lon": 0.0, "fusion_lat": 0.0, "type": "electric_scooter", "name": "7c1948cb392b0ed3594e7871fa1134ad", "is_disabled": 0, "rental_uris": {"ios": "https://dc.lft.to/lastmile_qr_scan", "android": "https://dc.lft.to/lastmile_qr_scan"}, "is_reserved": 0}, {"lon": -77.00261666666667, "bike_id": "f6cf770d7afdd72744e8ae285a4e30da", "lat": 38.91815916666667, "fusion_lon": 0.0, "fusion_lat": 0.0, "type": "electric_scooter", "name": "f6cf770d7afdd72744e8ae285a4e30da", "is_disabled": 0, "rental_uris": {"ios": "https://dc.lft.to/lastmile_qr_scan", "android": "https://dc.lft.to/lastmile_qr_scan"}, "is_reserved": 0}, {"lon": -77.03721033333333, "bike_id": "5f38e84415c384947cdf9d1cf54baf36", "lat": 38.91479966666667, "fusion_lon": 0.0, "fusion_lat": 0.0, "type": "electric_scooter", "name": "5f38e84415c384947cdf9d1cf54baf36", "is_disabled": 0, "rental_uris": {"ios": "https://dc.lft.to/lastmile_qr_scan", "android": "https://dc.lft.to/lastmile_qr_scan"}, "is_reserved": 0}, {"lon": -77.00099, "bike_id": "be08b31146dffb0be56a1e99c332dde2", "lat": 38.91705433333333, "fusion_lon": 0.0, "fusion_lat": 0.0, "type": "electric_scooter", "name": "be08b31146dffb0be56a1e99c332dde2", "is_disabled": 0, "rental_uris": {"ios": "https://dc.lft.to/lastmile_qr_scan", "android": "https://dc.lft.to/lastmile_qr_scan"}, "is_reserved": 0}, {"lon": -77.04771133333334, "bike_id": "881302e847cb16346e2e367dd0e6b72b", "lat": 38.9213665, "fusion_lon": 0.0, "fusion_lat": 0.0, "type": "electric_scooter", "name": "881302e847cb16346e2e367dd0e6b72b", "is_disabled": 0, "rental_uris": {"ios": "https://dc.lft.to/lastmile_qr_scan", "android": "https://dc.lft.to/lastmile_qr_scan"}, "is_reserved": 0}, {"lon": -77.038603, "bike_id": "e01fad0acdf9723813e772caffae6b0e", "lat": 38.917810833333334, "fusion_lon": 0.0, "fusion_lat": 0.0, "type": "electric_scooter", "name": "e01fad0acdf9723813e772caffae6b0e", "is_disabled": 0, "rental_uris": {"ios": "https://dc.lft.to/lastmile_qr_scan", "android": "https://dc.lft.to/lastmile_qr_scan"}, "is_reserved": 0}, {"lon": -77.032197, "bike_id": "884ef9296e3f9b72824c16eeff6a2b03", "lat": 38.914047333333336, "fusion_lon": 0.0, "fusion_lat": 0.0, "type": "electric_scooter", "name": "884ef9296e3f9b72824c16eeff6a2b03", "is_disabled": 0, "rental_uris": {"ios": "https://dc.lft.to/lastmile_qr_scan", "android": "https://dc.lft.to/lastmile_qr_scan"}, "is_reserved": 0}, {"lon": -76.99494, "bike_id": "2961a1e3ecb52ace018908c21a45aea3", "lat": 38.862447833333334, "fusion_lon": 0.0, "fusion_lat": 0.0, "type": "electric_scooter", "name": "2961a1e3ecb52ace018908c21a45aea3", "is_disabled": 0, "rental_uris": {"ios": "https://dc.lft.to/lastmile_qr_scan", "android": "https://dc.lft.to/lastmile_qr_scan"}, "is_reserved": 0}, {"lon": -77.0527925, "bike_id": "58157b4852e38e94ea478a3fb3b14f43", "lat": 38.899693666666664, "fusion_lon": 0.0, "fusion_lat": 0.0, "type": "electric_scooter", "name": "58157b4852e38e94ea478a3fb3b14f43", "is_disabled": 0, "rental_uris": {"ios": "https://dc.lft.to/lastmile_qr_scan", "android": "https://dc.lft.to/lastmile_qr_scan"}, "is_reserved": 0}, {"lon": -77.03861983333333, "bike_id": "c462b208576ac0c93439fcbf19f9f644", "lat": 38.91557783333333, "fusion_lon": 0.0, "fusion_lat": 0.0, "type": "electric_scooter", "name": "c462b208576ac0c93439fcbf19f9f644", "is_disabled": 0, "rental_uris": {"ios": "https://dc.lft.to/lastmile_qr_scan", "android": "https://dc.lft.to/lastmile_qr_scan"}, "is_reserved": 0}, {"lon": -76.9853925, "bike_id": "c4fb1b5379be16f94504f8a4c064e946", "lat": 38.89655466666667, "fusion_lon": 0.0, "fusion_lat": 0.0, "type": "electric_scooter", "name": "c4fb1b5379be16f94504f8a4c064e946", "is_disabled": 0, "rental_uris": {"ios": "https://dc.lft.to/lastmile_qr_scan", "android": "https://dc.lft.to/lastmile_qr_scan"}, "is_reserved": 0}, {"lon": -77.026319, "bike_id": "38fd7067e996a7cd3c5f0a62ff2335fa", "lat": 38.916993166666664, "fusion_lon": 0.0, "fusion_lat": 0.0, "type": "electric_scooter", "name": "38fd7067e996a7cd3c5f0a62ff2335fa", "is_disabled": 0, "rental_uris": {"ios": "https://dc.lft.to/lastmile_qr_scan", "android": "https://dc.lft.to/lastmile_qr_scan"}, "is_reserved": 0}, {"lon": -77.033189, "bike_id": "3df83df0f9b94b25395c4c08fdc2beb5", "lat": 38.92554583333333, "fusion_lon": 0.0, "fusion_lat": 0.0, "type": "electric_scooter", "name": "3df83df0f9b94b25395c4c08fdc2beb5", "is_disabled": 0, "rental_uris": {"ios": "https://dc.lft.to/lastmile_qr_scan", "android": "https://dc.lft.to/lastmile_qr_scan"}, "is_reserved": 0}, {"lon": -77.053531, "bike_id": "dc3ebbe7cf98dc8fc9086fb3047a7e57", "lat": 38.927249, "fusion_lon": 0.0, "fusion_lat": 0.0, "type": "electric_scooter", "name": "dc3ebbe7cf98dc8fc9086fb3047a7e57", "is_disabled": 0, "rental_uris": {"ios": "https://dc.lft.to/lastmile_qr_scan", "android": "https://dc.lft.to/lastmile_qr_scan"}, "is_reserved": 0}, {"lon": -77.0416745, "bike_id": "afd695d01ca8bc98890deac8a3d65a88", "lat": 38.912475, "fusion_lon": 0.0, "fusion_lat": 0.0, "type": "electric_scooter", "name": "afd695d01ca8bc98890deac8a3d65a88", "is_disabled": 0, "rental_uris": {"ios": "https://dc.lft.to/lastmile_qr_scan", "android": "https://dc.lft.to/lastmile_qr_scan"}, "is_reserved": 0}, {"lon": -77.02487883333333, "bike_id": "1725b1123ba5800211900cbcd212af3d", "lat": 38.898189333333335, "fusion_lon": 0.0, "fusion_lat": 0.0, "type": "electric_bike", "name": "1725b1123ba5800211900cbcd212af3d", "is_disabled": 0, "rental_uris": {"ios": "https://dc.lft.to/lastmile_qr_scan", "android": "https://dc.lft.to/lastmile_qr_scan"}, "is_reserved": 0}, {"lon": -76.9330925, "bike_id": "5ce3c4b5b44d5a58857aa1e13b93b58b", "lat": 38.894697, "fusion_lon": 0.0, "fusion_lat": 0.0, "type": "electric_scooter", "name": "5ce3c4b5b44d5a58857aa1e13b93b58b", "is_disabled": 0, "rental_uris": {"ios": "https://dc.lft.to/lastmile_qr_scan", "android": "https://dc.lft.to/lastmile_qr_scan"}, "is_reserved": 0}, {"lon": -76.99535283333333, "bike_id": "8f554f3f679613bb673f20036174f5bb", "lat": 38.8836115, "fusion_lon": 0.0, "fusion_lat": 0.0, "type": "electric_scooter", "name": "8f554f3f679613bb673f20036174f5bb", "is_disabled": 0, "rental_uris": {"ios": "https://dc.lft.to/lastmile_qr_scan", "android": "https://dc.lft.to/lastmile_qr_scan"}, "is_reserved": 0}, {"lon": -77.0194385, "bike_id": "f7a4992d56dd31dffd90fa4c28c02fd3", "lat": 38.93680716666667, "fusion_lon": 0.0, "fusion_lat": 0.0, "type": "electric_scooter", "name": "f7a4992d56dd31dffd90fa4c28c02fd3", "is_disabled": 0, "rental_uris": {"ios": "https://dc.lft.to/lastmile_qr_scan", "android": "https://dc.lft.to/lastmile_qr_scan"}, "is_reserved": 0}, {"lon": -77.04044816666666, "bike_id": "f99e500580ccf9789b1fda7dd361e9cd", "lat": 38.923103833333336, "fusion_lon": 0.0, "fusion_lat": 0.0, "type": "electric_scooter", "name": "f99e500580ccf9789b1fda7dd361e9cd", "is_disabled": 0, "rental_uris": {"ios": "https://dc.lft.to/lastmile_qr_scan", "android": "https://dc.lft.to/lastmile_qr_scan"}, "is_reserved": 0}, {"lon": -77.01788583333334, "bike_id": "343fff51ee9c34f4fd0defe83a16387d", "lat": 38.877093333333335, "fusion_lon": 0.0, "fusion_lat": 0.0, "type": "electric_scooter", "name": "343fff51ee9c34f4fd0defe83a16387d", "is_disabled": 0, "rental_uris": {"ios": "https://dc.lft.to/lastmile_qr_scan", "android": "https://dc.lft.to/lastmile_qr_scan"}, "is_reserved": 0}, {"lon": -76.9826235, "bike_id": "0b7f23df901b290db5365c93a4f22c89", "lat": 38.90851766666667, "fusion_lon": 0.0, "fusion_lat": 0.0, "type": "electric_scooter", "name": "0b7f23df901b290db5365c93a4f22c89", "is_disabled": 0, "rental_uris": {"ios": "https://dc.lft.to/lastmile_qr_scan", "android": "https://dc.lft.to/lastmile_qr_scan"}, "is_reserved": 0}, {"lon": -77.00459383333333, "bike_id": "3eca285e8d851669f29474fc37cbaed7", "lat": 38.914393833333335, "fusion_lon": 0.0, "fusion_lat": 0.0, "type": "electric_scooter", "name": "3eca285e8d851669f29474fc37cbaed7", "is_disabled": 0, "rental_uris": {"ios": "https://dc.lft.to/lastmile_qr_scan", "android": "https://dc.lft.to/lastmile_qr_scan"}, "is_reserved": 0}, {"lon": -76.98718233333334, "bike_id": "d5d097eea9987f523c433ef1b3cc6603", "lat": 38.866181, "fusion_lon": 0.0, "fusion_lat": 0.0, "type": "electric_scooter", "name": "d5d097eea9987f523c433ef1b3cc6603", "is_disabled": 0, "rental_uris": {"ios": "https://dc.lft.to/lastmile_qr_scan", "android": "https://dc.lft.to/lastmile_qr_scan"}, "is_reserved": 0}, {"lon": -77.02700666666667, "bike_id": "ad0c25d0cb27075ed7b3fd6aba6bd5b7", "lat": 38.91162333333333, "fusion_lon": 0.0, "fusion_lat": 0.0, "type": "electric_scooter", "name": "ad0c25d0cb27075ed7b3fd6aba6bd5b7", "is_disabled": 0, "rental_uris": {"ios": "https://dc.lft.to/lastmile_qr_scan", "android": "https://dc.lft.to/lastmile_qr_scan"}, "is_reserved": 0}, {"lon": -77.0340205, "bike_id": "5a1d5af4f2da2528ae7cf6d84cbdeac6", "lat": 38.930685833333335, "fusion_lon": 0.0, "fusion_lat": 0.0, "type": "electric_scooter", "name": "5a1d5af4f2da2528ae7cf6d84cbdeac6", "is_disabled": 0, "rental_uris": {"ios": "https://dc.lft.to/lastmile_qr_scan", "android": "https://dc.lft.to/lastmile_qr_scan"}, "is_reserved": 0}, {"lon": -77.0197, "bike_id": "54aeef3ccdda6b47cc3642c0ebc5d6a3", "lat": 38.9220565, "fusion_lon": 0.0, "fusion_lat": 0.0, "type": "electric_scooter", "name": "54aeef3ccdda6b47cc3642c0ebc5d6a3", "is_disabled": 0, "rental_uris": {"ios": "https://dc.lft.to/lastmile_qr_scan", "android": "https://dc.lft.to/lastmile_qr_scan"}, "is_reserved": 0}, {"lon": -77.03664733333333, "bike_id": "8e30c90e329a5d8de64420faecfeee08", "lat": 38.93912233333333, "fusion_lon": 0.0, "fusion_lat": 0.0, "type": "electric_bike", "name": "8e30c90e329a5d8de64420faecfeee08", "is_disabled": 0, "rental_uris": {"ios": "https://dc.lft.to/lastmile_qr_scan", "android": "https://dc.lft.to/lastmile_qr_scan"}, "is_reserved": 0}, {"lon": -77.01954183333334, "bike_id": "2746f483e372df609367d85fe0409047", "lat": 38.9224795, "fusion_lon": 0.0, "fusion_lat": 0.0, "type": "electric_scooter", "name": "2746f483e372df609367d85fe0409047", "is_disabled": 0, "rental_uris": {"ios": "https://dc.lft.to/lastmile_qr_scan", "android": "https://dc.lft.to/lastmile_qr_scan"}, "is_reserved": 0}, {"lon": -76.95184616666667, "bike_id": "42558bcf10a13e3f47ea44029e64d654", "lat": 38.907385166666664, "fusion_lon": 0.0, "fusion_lat": 0.0, "type": "electric_scooter", "name": "42558bcf10a13e3f47ea44029e64d654", "is_disabled": 0, "rental_uris": {"ios": "https://dc.lft.to/lastmile_qr_scan", "android": "https://dc.lft.to/lastmile_qr_scan"}, "is_reserved": 0}, {"lon": -76.98202966666666, "bike_id": "ee4efbfc05df3fa8bc2ed04c353ceed5", "lat": 38.899439666666666, "fusion_lon": 0.0, "fusion_lat": 0.0, "type": "electric_scooter", "name": "ee4efbfc05df3fa8bc2ed04c353ceed5", "is_disabled": 0, "rental_uris": {"ios": "https://dc.lft.to/lastmile_qr_scan", "android": "https://dc.lft.to/lastmile_qr_scan"}, "is_reserved": 0}, {"lon": -77.04254416666667, "bike_id": "317a90c375d7ea5b5e27a9679afe127d", "lat": 38.909376333333334, "fusion_lon": 0.0, "fusion_lat": 0.0, "type": "electric_scooter", "name": "317a90c375d7ea5b5e27a9679afe127d", "is_disabled": 0, "rental_uris": {"ios": "https://dc.lft.to/lastmile_qr_scan", "android": "https://dc.lft.to/lastmile_qr_scan"}, "is_reserved": 0}, {"lon": -77.03684283333334, "bike_id": "430e7bdeacfc9b1124ebf39aa4b8c039", "lat": 38.936050333333334, "fusion_lon": 0.0, "fusion_lat": 0.0, "type": "electric_scooter", "name": "430e7bdeacfc9b1124ebf39aa4b8c039", "is_disabled": 0, "rental_uris": {"ios": "https://dc.lft.to/lastmile_qr_scan", "android": "https://dc.lft.to/lastmile_qr_scan"}, "is_reserved": 0}, {"lon": -77.034459, "bike_id": "4336a3ab61f0ed619f52bdc614fb0c1e", "lat": 38.914908, "fusion_lon": 0.0, "fusion_lat": 0.0, "type": "electric_scooter", "name": "4336a3ab61f0ed619f52bdc614fb0c1e", "is_disabled": 0, "rental_uris": {"ios": "https://dc.lft.to/lastmile_qr_scan", "android": "https://dc.lft.to/lastmile_qr_scan"}, "is_reserved": 0}, {"lon": -76.98896383333333, "bike_id": "a3acfb28066bc224ee025cc1f62810ab", "lat": 38.913412666666666, "fusion_lon": 0.0, "fusion_lat": 0.0, "type": "electric_scooter", "name": "a3acfb28066bc224ee025cc1f62810ab", "is_disabled": 0, "rental_uris": {"ios": "https://dc.lft.to/lastmile_qr_scan", "android": "https://dc.lft.to/lastmile_qr_scan"}, "is_reserved": 0}, {"lon": -77.00544383333333, "bike_id": "07a2f3e0db243086307efb4dc5433721", "lat": 38.90034566666667, "fusion_lon": 0.0, "fusion_lat": 0.0, "type": "electric_scooter", "name": "07a2f3e0db243086307efb4dc5433721", "is_disabled": 0, "rental_uris": {"ios": "https://dc.lft.to/lastmile_qr_scan", "android": "https://dc.lft.to/lastmile_qr_scan"}, "is_reserved": 0}, {"lon": -77.03208933333333, "bike_id": "78ef51c31366a79bb41eb7604432d440", "lat": 38.90787, "fusion_lon": 0.0, "fusion_lat": 0.0, "type": "electric_scooter", "name": "78ef51c31366a79bb41eb7604432d440", "is_disabled": 0, "rental_uris": {"ios": "https://dc.lft.to/lastmile_qr_scan", "android": "https://dc.lft.to/lastmile_qr_scan"}, "is_reserved": 0}, {"lon": -77.00843416666666, "bike_id": "670aab3b4e16c08080452f3c600c6c45", "lat": 38.9162435, "fusion_lon": 0.0, "fusion_lat": 0.0, "type": "electric_scooter", "name": "670aab3b4e16c08080452f3c600c6c45", "is_disabled": 0, "rental_uris": {"ios": "https://dc.lft.to/lastmile_qr_scan", "android": "https://dc.lft.to/lastmile_qr_scan"}, "is_reserved": 0}, {"lon": -77.02166833333334, "bike_id": "4c33fbf3830811da5765e92c212e0c20", "lat": 38.898887333333334, "fusion_lon": 0.0, "fusion_lat": 0.0, "type": "electric_scooter", "name": "4c33fbf3830811da5765e92c212e0c20", "is_disabled": 0, "rental_uris": {"ios": "https://dc.lft.to/lastmile_qr_scan", "android": "https://dc.lft.to/lastmile_qr_scan"}, "is_reserved": 0}, {"lon": -77.0345205, "bike_id": "3cd6eef0c0b31f4c60238a729e008df7", "lat": 38.909726666666664, "fusion_lon": 0.0, "fusion_lat": 0.0, "type": "electric_scooter", "name": "3cd6eef0c0b31f4c60238a729e008df7", "is_disabled": 0, "rental_uris": {"ios": "https://dc.lft.to/lastmile_qr_scan", "android": "https://dc.lft.to/lastmile_qr_scan"}, "is_reserved": 0}, {"lon": -77.0382935, "bike_id": "a3d9d87c26b2d9c1220cabfc796ae189", "lat": 38.90673366666667, "fusion_lon": 0.0, "fusion_lat": 0.0, "type": "electric_scooter", "name": "a3d9d87c26b2d9c1220cabfc796ae189", "is_disabled": 0, "rental_uris": {"ios": "https://dc.lft.to/lastmile_qr_scan", "android": "https://dc.lft.to/lastmile_qr_scan"}, "is_reserved": 0}, {"lon": -77.04264366666666, "bike_id": "af242bc6097189af06eab0a27712d413", "lat": 38.90025933333333, "fusion_lon": 0.0, "fusion_lat": 0.0, "type": "electric_scooter", "name": "af242bc6097189af06eab0a27712d413", "is_disabled": 0, "rental_uris": {"ios": "https://dc.lft.to/lastmile_qr_scan", "android": "https://dc.lft.to/lastmile_qr_scan"}, "is_reserved": 0}, {"lon": -77.02041066666666, "bike_id": "82f90eb6aa5f6444cb2c652f96c56c49", "lat": 38.9085985, "fusion_lon": 0.0, "fusion_lat": 0.0, "type": "electric_scooter", "name": "82f90eb6aa5f6444cb2c652f96c56c49", "is_disabled": 0, "rental_uris": {"ios": "https://dc.lft.to/lastmile_qr_scan", "android": "https://dc.lft.to/lastmile_qr_scan"}, "is_reserved": 0}, {"lon": -77.00211116666667, "bike_id": "096f82ede665e24e3530c144a6c8ed97", "lat": 38.895372, "fusion_lon": 0.0, "fusion_lat": 0.0, "type": "electric_scooter", "name": "096f82ede665e24e3530c144a6c8ed97", "is_disabled": 0, "rental_uris": {"ios": "https://dc.lft.to/lastmile_qr_scan", "android": "https://dc.lft.to/lastmile_qr_scan"}, "is_reserved": 0}, {"lon": -77.01487616666667, "bike_id": "8ff50e6c71dc5eede901a2b001351e38", "lat": 38.940607166666666, "fusion_lon": 0.0, "fusion_lat": 0.0, "type": "electric_bike", "name": "8ff50e6c71dc5eede901a2b001351e38", "is_disabled": 0, "rental_uris": {"ios": "https://dc.lft.to/lastmile_qr_scan", "android": "https://dc.lft.to/lastmile_qr_scan"}, "is_reserved": 0}, {"lon": -77.032435, "bike_id": "2c2e5dbdbc17d69faf1563bf9978ea17", "lat": 38.915376, "fusion_lon": 0.0, "fusion_lat": 0.0, "type": "electric_scooter", "name": "2c2e5dbdbc17d69faf1563bf9978ea17", "is_disabled": 0, "rental_uris": {"ios": "https://dc.lft.to/lastmile_qr_scan", "android": "https://dc.lft.to/lastmile_qr_scan"}, "is_reserved": 0}, {"lon": -77.05405583333334, "bike_id": "372a68a6e3b4e913e38b6a4937b7e22b", "lat": 38.950456333333335, "fusion_lon": 0.0, "fusion_lat": 0.0, "type": "electric_scooter", "name": "372a68a6e3b4e913e38b6a4937b7e22b", "is_disabled": 0, "rental_uris": {"ios": "https://dc.lft.to/lastmile_qr_scan", "android": "https://dc.lft.to/lastmile_qr_scan"}, "is_reserved": 0}, {"lon": -77.00530183333333, "bike_id": "c2c0be89f6d0efc6d3dfb7287603666d", "lat": 38.929688666666664, "fusion_lon": 0.0, "fusion_lat": 0.0, "type": "electric_scooter", "name": "c2c0be89f6d0efc6d3dfb7287603666d", "is_disabled": 0, "rental_uris": {"ios": "https://dc.lft.to/lastmile_qr_scan", "android": "https://dc.lft.to/lastmile_qr_scan"}, "is_reserved": 0}, {"lon": -77.05036516666667, "bike_id": "d11318f1404bd513fe8843a6a84e7160", "lat": 38.923606166666666, "fusion_lon": 0.0, "fusion_lat": 0.0, "type": "electric_scooter", "name": "d11318f1404bd513fe8843a6a84e7160", "is_disabled": 0, "rental_uris": {"ios": "https://dc.lft.to/lastmile_qr_scan", "android": "https://dc.lft.to/lastmile_qr_scan"}, "is_reserved": 0}, {"lon": -77.02271283333333, "bike_id": "109768521ccba7ceb8a3bd5833493fe8", "lat": 38.93777933333333, "fusion_lon": 0.0, "fusion_lat": 0.0, "type": "electric_scooter", "name": "109768521ccba7ceb8a3bd5833493fe8", "is_disabled": 0, "rental_uris": {"ios": "https://dc.lft.to/lastmile_qr_scan", "android": "https://dc.lft.to/lastmile_qr_scan"}, "is_reserved": 0}, {"lon": -77.02800983333333, "bike_id": "8e0a31bd085c69e0033f7cf19827c11a", "lat": 38.916791333333336, "fusion_lon": 0.0, "fusion_lat": 0.0, "type": "electric_scooter", "name": "8e0a31bd085c69e0033f7cf19827c11a", "is_disabled": 0, "rental_uris": {"ios": "https://dc.lft.to/lastmile_qr_scan", "android": "https://dc.lft.to/lastmile_qr_scan"}, "is_reserved": 0}, {"lon": -77.0264755, "bike_id": "0903e9c3868070b15b41d41c0e4a09c1", "lat": 38.9217525, "fusion_lon": 0.0, "fusion_lat": 0.0, "type": "electric_scooter", "name": "0903e9c3868070b15b41d41c0e4a09c1", "is_disabled": 0, "rental_uris": {"ios": "https://dc.lft.to/lastmile_qr_scan", "android": "https://dc.lft.to/lastmile_qr_scan"}, "is_reserved": 0}, {"lon": -77.00348183333334, "bike_id": "5f5ffc03f1c55dd8b25f98ebce6e391f", "lat": 38.8991265, "fusion_lon": 0.0, "fusion_lat": 0.0, "type": "electric_scooter", "name": "5f5ffc03f1c55dd8b25f98ebce6e391f", "is_disabled": 0, "rental_uris": {"ios": "https://dc.lft.to/lastmile_qr_scan", "android": "https://dc.lft.to/lastmile_qr_scan"}, "is_reserved": 0}, {"lon": -77.05316083333334, "bike_id": "69dbc4c4f18cc3ef10c97c61e14fc80d", "lat": 38.92636316666667, "fusion_lon": 0.0, "fusion_lat": 0.0, "type": "electric_scooter", "name": "69dbc4c4f18cc3ef10c97c61e14fc80d", "is_disabled": 0, "rental_uris": {"ios": "https://dc.lft.to/lastmile_qr_scan", "android": "https://dc.lft.to/lastmile_qr_scan"}, "is_reserved": 0}, {"lon": -76.926236, "bike_id": "1cd097466e1263315644ec258cccbac2", "lat": 38.88454933333333, "fusion_lon": 0.0, "fusion_lat": 0.0, "type": "electric_scooter", "name": "1cd097466e1263315644ec258cccbac2", "is_disabled": 0, "rental_uris": {"ios": "https://dc.lft.to/lastmile_qr_scan", "android": "https://dc.lft.to/lastmile_qr_scan"}, "is_reserved": 0}, {"lon": -77.03414266666667, "bike_id": "ac2db46936d34cb57d4ec076958b2a07", "lat": 38.9341465, "fusion_lon": 0.0, "fusion_lat": 0.0, "type": "electric_scooter", "name": "ac2db46936d34cb57d4ec076958b2a07", "is_disabled": 0, "rental_uris": {"ios": "https://dc.lft.to/lastmile_qr_scan", "android": "https://dc.lft.to/lastmile_qr_scan"}, "is_reserved": 0}, {"lon": -77.04010266666667, "bike_id": "3d1d4ffeef66635e0de7fe044909545f", "lat": 38.9035605, "fusion_lon": 0.0, "fusion_lat": 0.0, "type": "electric_scooter", "name": "3d1d4ffeef66635e0de7fe044909545f", "is_disabled": 0, "rental_uris": {"ios": "https://dc.lft.to/lastmile_qr_scan", "android": "https://dc.lft.to/lastmile_qr_scan"}, "is_reserved": 0}, {"lon": -77.04127966666667, "bike_id": "bde509fd8378f21428d48a897d9c7baa", "lat": 38.922965166666664, "fusion_lon": 0.0, "fusion_lat": 0.0, "type": "electric_scooter", "name": "bde509fd8378f21428d48a897d9c7baa", "is_disabled": 0, "rental_uris": {"ios": "https://dc.lft.to/lastmile_qr_scan", "android": "https://dc.lft.to/lastmile_qr_scan"}, "is_reserved": 0}, {"lon": -76.99965833333333, "bike_id": "ad7eae024074d8f714de94ab8401a57f", "lat": 38.9083945, "fusion_lon": 0.0, "fusion_lat": 0.0, "type": "electric_scooter", "name": "ad7eae024074d8f714de94ab8401a57f", "is_disabled": 0, "rental_uris": {"ios": "https://dc.lft.to/lastmile_qr_scan", "android": "https://dc.lft.to/lastmile_qr_scan"}, "is_reserved": 0}, {"lon": -77.046435, "bike_id": "9e645b3ea395f9b2ec7838db025a5954", "lat": 38.92112933333333, "fusion_lon": 0.0, "fusion_lat": 0.0, "type": "electric_scooter", "name": "9e645b3ea395f9b2ec7838db025a5954", "is_disabled": 0, "rental_uris": {"ios": "https://dc.lft.to/lastmile_qr_scan", "android": "https://dc.lft.to/lastmile_qr_scan"}, "is_reserved": 0}, {"lon": -77.05912833333333, "bike_id": "489314fc201a8a8f050ac8ff5fed81c3", "lat": 38.93624883333333, "fusion_lon": 0.0, "fusion_lat": 0.0, "type": "electric_scooter", "name": "489314fc201a8a8f050ac8ff5fed81c3", "is_disabled": 0, "rental_uris": {"ios": "https://dc.lft.to/lastmile_qr_scan", "android": "https://dc.lft.to/lastmile_qr_scan"}, "is_reserved": 0}, {"lon": -77.02714033333334, "bike_id": "1b75389a7d9de38156c18544ce9b71dd", "lat": 38.92876733333333, "fusion_lon": 0.0, "fusion_lat": 0.0, "type": "electric_scooter", "name": "1b75389a7d9de38156c18544ce9b71dd", "is_disabled": 0, "rental_uris": {"ios": "https://dc.lft.to/lastmile_qr_scan", "android": "https://dc.lft.to/lastmile_qr_scan"}, "is_reserved": 0}, {"lon": -77.04038466666667, "bike_id": "23fc6797cf937458e7cc0031c1f0a9f0", "lat": 38.925638, "fusion_lon": 0.0, "fusion_lat": 0.0, "type": "electric_scooter", "name": "23fc6797cf937458e7cc0031c1f0a9f0", "is_disabled": 0, "rental_uris": {"ios": "https://dc.lft.to/lastmile_qr_scan", "android": "https://dc.lft.to/lastmile_qr_scan"}, "is_reserved": 0}, {"lon": -77.069171, "bike_id": "fd8ebbf472344fd244ab87d7fc999c01", "lat": 38.955563, "fusion_lon": 0.0, "fusion_lat": 0.0, "type": "electric_bike", "name": "fd8ebbf472344fd244ab87d7fc999c01", "is_disabled": 0, "rental_uris": {"ios": "https://dc.lft.to/lastmile_qr_scan", "android": "https://dc.lft.to/lastmile_qr_scan"}, "is_reserved": 0}, {"lon": -77.0348965, "bike_id": "22a938402d273a0a1eac9238eb20a709", "lat": 38.9171055, "fusion_lon": 0.0, "fusion_lat": 0.0, "type": "electric_scooter", "name": "22a938402d273a0a1eac9238eb20a709", "is_disabled": 0, "rental_uris": {"ios": "https://dc.lft.to/lastmile_qr_scan", "android": "https://dc.lft.to/lastmile_qr_scan"}, "is_reserved": 0}, {"lon": -77.06107316666667, "bike_id": "fbe3fd93d1c5f37106d4898b53dcd82d", "lat": 38.93703983333333, "fusion_lon": 0.0, "fusion_lat": 0.0, "type": "electric_scooter", "name": "fbe3fd93d1c5f37106d4898b53dcd82d", "is_disabled": 0, "rental_uris": {"ios": "https://dc.lft.to/lastmile_qr_scan", "android": "https://dc.lft.to/lastmile_qr_scan"}, "is_reserved": 0}, {"lon": -77.04259516666667, "bike_id": "bff89d5c9908290bf4dc00dfb8523949", "lat": 38.900234, "fusion_lon": 0.0, "fusion_lat": 0.0, "type": "electric_scooter", "name": "bff89d5c9908290bf4dc00dfb8523949", "is_disabled": 0, "rental_uris": {"ios": "https://dc.lft.to/lastmile_qr_scan", "android": "https://dc.lft.to/lastmile_qr_scan"}, "is_reserved": 0}, {"lon": -76.948883, "bike_id": "e08ceccda155d98ed7848656f5e6542c", "lat": 38.89510933333333, "fusion_lon": 0.0, "fusion_lat": 0.0, "type": "electric_scooter", "name": "e08ceccda155d98ed7848656f5e6542c", "is_disabled": 0, "rental_uris": {"ios": "https://dc.lft.to/lastmile_qr_scan", "android": "https://dc.lft.to/lastmile_qr_scan"}, "is_reserved": 0}, {"lon": -77.03162716666667, "bike_id": "df19037306680649bbaf9940ec14be05", "lat": 38.9125975, "fusion_lon": 0.0, "fusion_lat": 0.0, "type": "electric_scooter", "name": "df19037306680649bbaf9940ec14be05", "is_disabled": 0, "rental_uris": {"ios": "https://dc.lft.to/lastmile_qr_scan", "android": "https://dc.lft.to/lastmile_qr_scan"}, "is_reserved": 0}, {"lon": -77.03210516666667, "bike_id": "f1cc1928eecb589f403e866ba7c52aea", "lat": 38.914975166666665, "fusion_lon": 0.0, "fusion_lat": 0.0, "type": "electric_scooter", "name": "f1cc1928eecb589f403e866ba7c52aea", "is_disabled": 0, "rental_uris": {"ios": "https://dc.lft.to/lastmile_qr_scan", "android": "https://dc.lft.to/lastmile_qr_scan"}, "is_reserved": 0}, {"lon": -77.0321625, "bike_id": "21c6598b50a627ad1b5e776bd79e022c", "lat": 38.919231833333335, "fusion_lon": 0.0, "fusion_lat": 0.0, "type": "electric_scooter", "name": "21c6598b50a627ad1b5e776bd79e022c", "is_disabled": 0, "rental_uris": {"ios": "https://dc.lft.to/lastmile_qr_scan", "android": "https://dc.lft.to/lastmile_qr_scan"}, "is_reserved": 0}, {"lon": -77.028974, "bike_id": "6f65312d430432bb963dad7f0171a2a4", "lat": 38.9167915, "fusion_lon": 0.0, "fusion_lat": 0.0, "type": "electric_scooter", "name": "6f65312d430432bb963dad7f0171a2a4", "is_disabled": 0, "rental_uris": {"ios": "https://dc.lft.to/lastmile_qr_scan", "android": "https://dc.lft.to/lastmile_qr_scan"}, "is_reserved": 0}, {"lon": -76.96093083333334, "bike_id": "34ad3c4bdd3fd8f05d445d593302d2c1", "lat": 38.91843933333333, "fusion_lon": 0.0, "fusion_lat": 0.0, "type": "electric_bike", "name": "34ad3c4bdd3fd8f05d445d593302d2c1", "is_disabled": 0, "rental_uris": {"ios": "https://dc.lft.to/lastmile_qr_scan", "android": "https://dc.lft.to/lastmile_qr_scan"}, "is_reserved": 0}, {"lon": -77.048769, "bike_id": "5fa2154e601cff0fd80da89b4a530306", "lat": 38.892297, "fusion_lon": 0.0, "fusion_lat": 0.0, "type": "electric_scooter", "name": "5fa2154e601cff0fd80da89b4a530306", "is_disabled": 0, "rental_uris": {"ios": "https://dc.lft.to/lastmile_qr_scan", "android": "https://dc.lft.to/lastmile_qr_scan"}, "is_reserved": 0}, {"lon": -77.00583616666667, "bike_id": "448a34642c42ac8fb4756be398e6c40f", "lat": 38.8358475, "fusion_lon": 0.0, "fusion_lat": 0.0, "type": "electric_scooter", "name": "448a34642c42ac8fb4756be398e6c40f", "is_disabled": 0, "rental_uris": {"ios": "https://dc.lft.to/lastmile_qr_scan", "android": "https://dc.lft.to/lastmile_qr_scan"}, "is_reserved": 0}, {"lon": -77.03447033333333, "bike_id": "a53c491faaaaf421a606236082b9024c", "lat": 38.918001833333335, "fusion_lon": 0.0, "fusion_lat": 0.0, "type": "electric_scooter", "name": "a53c491faaaaf421a606236082b9024c", "is_disabled": 0, "rental_uris": {"ios": "https://dc.lft.to/lastmile_qr_scan", "android": "https://dc.lft.to/lastmile_qr_scan"}, "is_reserved": 0}, {"lon": -77.00308733333334, "bike_id": "1bb06cb35007683ed37ca90f8413445d", "lat": 38.876975, "fusion_lon": 0.0, "fusion_lat": 0.0, "type": "electric_bike", "name": "1bb06cb35007683ed37ca90f8413445d", "is_disabled": 0, "rental_uris": {"ios": "https://dc.lft.to/lastmile_qr_scan", "android": "https://dc.lft.to/lastmile_qr_scan"}, "is_reserved": 0}, {"lon": -76.98755583333333, "bike_id": "834d67d8e22b3dd83c64104bcfe67d08", "lat": 38.90027966666667, "fusion_lon": 0.0, "fusion_lat": 0.0, "type": "electric_scooter", "name": "834d67d8e22b3dd83c64104bcfe67d08", "is_disabled": 0, "rental_uris": {"ios": "https://dc.lft.to/lastmile_qr_scan", "android": "https://dc.lft.to/lastmile_qr_scan"}, "is_reserved": 0}, {"lon": -76.99379416666666, "bike_id": "8ea7e647aa2e94ed68ff419631768b02", "lat": 38.971874, "fusion_lon": 0.0, "fusion_lat": 0.0, "type": "electric_bike", "name": "8ea7e647aa2e94ed68ff419631768b02", "is_disabled": 0, "rental_uris": {"ios": "https://dc.lft.to/lastmile_qr_scan", "android": "https://dc.lft.to/lastmile_qr_scan"}, "is_reserved": 0}, {"lon": -77.070087, "bike_id": "66019721831837426c877acbadce9e76", "lat": 38.95847, "fusion_lon": 0.0, "fusion_lat": 0.0, "type": "electric_scooter", "name": "66019721831837426c877acbadce9e76", "is_disabled": 0, "rental_uris": {"ios": "https://dc.lft.to/lastmile_qr_scan", "android": "https://dc.lft.to/lastmile_qr_scan"}, "is_reserved": 0}, {"lon": -77.02940483333333, "bike_id": "6ff0c16bf34f61b597beadbf8f71ca5b", "lat": 38.896411666666665, "fusion_lon": 0.0, "fusion_lat": 0.0, "type": "electric_scooter", "name": "6ff0c16bf34f61b597beadbf8f71ca5b", "is_disabled": 0, "rental_uris": {"ios": "https://dc.lft.to/lastmile_qr_scan", "android": "https://dc.lft.to/lastmile_qr_scan"}, "is_reserved": 0}, {"lon": -77.04427366666667, "bike_id": "4501c7f4339b356e4e72712f0a71fa49", "lat": 38.90968683333333, "fusion_lon": 0.0, "fusion_lat": 0.0, "type": "electric_scooter", "name": "4501c7f4339b356e4e72712f0a71fa49", "is_disabled": 0, "rental_uris": {"ios": "https://dc.lft.to/lastmile_qr_scan", "android": "https://dc.lft.to/lastmile_qr_scan"}, "is_reserved": 0}, {"lon": -77.013012, "bike_id": "9ad9aebecb605f850cde4474a591af31", "lat": 38.94327666666667, "fusion_lon": 0.0, "fusion_lat": 0.0, "type": "electric_scooter", "name": "9ad9aebecb605f850cde4474a591af31", "is_disabled": 0, "rental_uris": {"ios": "https://dc.lft.to/lastmile_qr_scan", "android": "https://dc.lft.to/lastmile_qr_scan"}, "is_reserved": 0}, {"lon": -77.027122, "bike_id": "5ec510e9ba76a3434d0cee8dda854c56", "lat": 38.93468166666667, "fusion_lon": 0.0, "fusion_lat": 0.0, "type": "electric_scooter", "name": "5ec510e9ba76a3434d0cee8dda854c56", "is_disabled": 0, "rental_uris": {"ios": "https://dc.lft.to/lastmile_qr_scan", "android": "https://dc.lft.to/lastmile_qr_scan"}, "is_reserved": 0}, {"lon": -77.02103233333334, "bike_id": "40235c5b12f2b7bd0c0b79871ff78b01", "lat": 38.93115816666667, "fusion_lon": 0.0, "fusion_lat": 0.0, "type": "electric_scooter", "name": "40235c5b12f2b7bd0c0b79871ff78b01", "is_disabled": 0, "rental_uris": {"ios": "https://dc.lft.to/lastmile_qr_scan", "android": "https://dc.lft.to/lastmile_qr_scan"}, "is_reserved": 0}, {"lon": -77.016118, "bike_id": "2cfc5fbfaed2290bb89948c98ab79193", "lat": 38.9016755, "fusion_lon": 0.0, "fusion_lat": 0.0, "type": "electric_scooter", "name": "2cfc5fbfaed2290bb89948c98ab79193", "is_disabled": 0, "rental_uris": {"ios": "https://dc.lft.to/lastmile_qr_scan", "android": "https://dc.lft.to/lastmile_qr_scan"}, "is_reserved": 0}, {"lon": -77.05125783333334, "bike_id": "a687f5079194ecbd74ecce51d0e75724", "lat": 38.92367133333333, "fusion_lon": 0.0, "fusion_lat": 0.0, "type": "electric_scooter", "name": "a687f5079194ecbd74ecce51d0e75724", "is_disabled": 0, "rental_uris": {"ios": "https://dc.lft.to/lastmile_qr_scan", "android": "https://dc.lft.to/lastmile_qr_scan"}, "is_reserved": 0}, {"lon": -77.06426666666667, "bike_id": "a35e293774dffd9f8c9cb0c7b21f1cf8", "lat": 38.90886783333333, "fusion_lon": 0.0, "fusion_lat": 0.0, "type": "electric_scooter", "name": "a35e293774dffd9f8c9cb0c7b21f1cf8", "is_disabled": 0, "rental_uris": {"ios": "https://dc.lft.to/lastmile_qr_scan", "android": "https://dc.lft.to/lastmile_qr_scan"}, "is_reserved": 0}, {"lon": -77.02512833333333, "bike_id": "c30e1ac15197cb459c2754e4938ce278", "lat": 38.91977383333333, "fusion_lon": 0.0, "fusion_lat": 0.0, "type": "electric_scooter", "name": "c30e1ac15197cb459c2754e4938ce278", "is_disabled": 0, "rental_uris": {"ios": "https://dc.lft.to/lastmile_qr_scan", "android": "https://dc.lft.to/lastmile_qr_scan"}, "is_reserved": 0}, {"lon": -77.03410583333333, "bike_id": "c79c44519fe00ad23323617a2c832d24", "lat": 38.960258, "fusion_lon": 0.0, "fusion_lat": 0.0, "type": "electric_bike", "name": "c79c44519fe00ad23323617a2c832d24", "is_disabled": 0, "rental_uris": {"ios": "https://dc.lft.to/lastmile_qr_scan", "android": "https://dc.lft.to/lastmile_qr_scan"}, "is_reserved": 0}, {"lon": -77.0033845, "bike_id": "a2ccfed83ef2211854c5a6235e59cf66", "lat": 38.90587933333333, "fusion_lon": 0.0, "fusion_lat": 0.0, "type": "electric_scooter", "name": "a2ccfed83ef2211854c5a6235e59cf66", "is_disabled": 0, "rental_uris": {"ios": "https://dc.lft.to/lastmile_qr_scan", "android": "https://dc.lft.to/lastmile_qr_scan"}, "is_reserved": 0}, {"lon": -77.0028295, "bike_id": "eabe9c8b2ab255f95d90b5de86f3f9b6", "lat": 38.9570855, "fusion_lon": 0.0, "fusion_lat": 0.0, "type": "electric_bike", "name": "eabe9c8b2ab255f95d90b5de86f3f9b6", "is_disabled": 0, "rental_uris": {"ios": "https://dc.lft.to/lastmile_qr_scan", "android": "https://dc.lft.to/lastmile_qr_scan"}, "is_reserved": 0}, {"lon": -77.043176, "bike_id": "3c072d00b4449d42d236a3f8f0a23c0b", "lat": 38.918738833333336, "fusion_lon": 0.0, "fusion_lat": 0.0, "type": "electric_scooter", "name": "3c072d00b4449d42d236a3f8f0a23c0b", "is_disabled": 0, "rental_uris": {"ios": "https://dc.lft.to/lastmile_qr_scan", "android": "https://dc.lft.to/lastmile_qr_scan"}, "is_reserved": 0}, {"lon": -76.998542, "bike_id": "5addad5287a8e763c75a109097906fed", "lat": 38.84162666666667, "fusion_lon": 0.0, "fusion_lat": 0.0, "type": "electric_scooter", "name": "5addad5287a8e763c75a109097906fed", "is_disabled": 0, "rental_uris": {"ios": "https://dc.lft.to/lastmile_qr_scan", "android": "https://dc.lft.to/lastmile_qr_scan"}, "is_reserved": 0}, {"lon": -77.0325125, "bike_id": "84b65b937a51494f869d720977b60777", "lat": 38.927886666666666, "fusion_lon": 0.0, "fusion_lat": 0.0, "type": "electric_scooter", "name": "84b65b937a51494f869d720977b60777", "is_disabled": 0, "rental_uris": {"ios": "https://dc.lft.to/lastmile_qr_scan", "android": "https://dc.lft.to/lastmile_qr_scan"}, "is_reserved": 0}, {"lon": -77.12495266666667, "bike_id": "285b6901c20ea676b7463df4b7ce09bd", "lat": 38.8277905, "fusion_lon": 0.0, "fusion_lat": 0.0, "type": "electric_bike", "name": "285b6901c20ea676b7463df4b7ce09bd", "is_disabled": 0, "rental_uris": {"ios": "https://dc.lft.to/lastmile_qr_scan", "android": "https://dc.lft.to/lastmile_qr_scan"}, "is_reserved": 0}, {"lon": -76.98546983333334, "bike_id": "7f3355631b2778aba47601f3745d90e0", "lat": 38.89951283333333, "fusion_lon": 0.0, "fusion_lat": 0.0, "type": "electric_scooter", "name": "7f3355631b2778aba47601f3745d90e0", "is_disabled": 0, "rental_uris": {"ios": "https://dc.lft.to/lastmile_qr_scan", "android": "https://dc.lft.to/lastmile_qr_scan"}, "is_reserved": 0}, {"lon": -77.056038, "bike_id": "4d36720a958c1ff27a26ebb17418acd5", "lat": 38.936943, "fusion_lon": 0.0, "fusion_lat": 0.0, "type": "electric_scooter", "name": "4d36720a958c1ff27a26ebb17418acd5", "is_disabled": 0, "rental_uris": {"ios": "https://dc.lft.to/lastmile_qr_scan", "android": "https://dc.lft.to/lastmile_qr_scan"}, "is_reserved": 0}, {"lon": -77.06129966666667, "bike_id": "6e9995f08e3a679df6ddbbad289e3efa", "lat": 38.9052595, "fusion_lon": 0.0, "fusion_lat": 0.0, "type": "electric_scooter", "name": "6e9995f08e3a679df6ddbbad289e3efa", "is_disabled": 0, "rental_uris": {"ios": "https://dc.lft.to/lastmile_qr_scan", "android": "https://dc.lft.to/lastmile_qr_scan"}, "is_reserved": 0}, {"lon": -77.03631533333333, "bike_id": "89b46dfb86230fbd4ca6acce44cec681", "lat": 38.915519833333335, "fusion_lon": 0.0, "fusion_lat": 0.0, "type": "electric_scooter", "name": "89b46dfb86230fbd4ca6acce44cec681", "is_disabled": 0, "rental_uris": {"ios": "https://dc.lft.to/lastmile_qr_scan", "android": "https://dc.lft.to/lastmile_qr_scan"}, "is_reserved": 0}, {"lon": -77.0350335, "bike_id": "51a569f3605a2fdb8b0af527ef3205cf", "lat": 38.91184416666667, "fusion_lon": 0.0, "fusion_lat": 0.0, "type": "electric_scooter", "name": "51a569f3605a2fdb8b0af527ef3205cf", "is_disabled": 0, "rental_uris": {"ios": "https://dc.lft.to/lastmile_qr_scan", "android": "https://dc.lft.to/lastmile_qr_scan"}, "is_reserved": 0}, {"lon": -77.02949016666666, "bike_id": "57ce546088f34a0deed1a5f83fbe8244", "lat": 38.896494, "fusion_lon": 0.0, "fusion_lat": 0.0, "type": "electric_scooter", "name": "57ce546088f34a0deed1a5f83fbe8244", "is_disabled": 0, "rental_uris": {"ios": "https://dc.lft.to/lastmile_qr_scan", "android": "https://dc.lft.to/lastmile_qr_scan"}, "is_reserved": 0}, {"lon": -77.00135633333333, "bike_id": "ccc693d2bb1ce780efe01ccdd31e46f3", "lat": 38.8781685, "fusion_lon": 0.0, "fusion_lat": 0.0, "type": "electric_scooter", "name": "ccc693d2bb1ce780efe01ccdd31e46f3", "is_disabled": 0, "rental_uris": {"ios": "https://dc.lft.to/lastmile_qr_scan", "android": "https://dc.lft.to/lastmile_qr_scan"}, "is_reserved": 0}, {"lon": -77.02379666666667, "bike_id": "dd2e84d65ac8d57ecdf61a4abcb689e3", "lat": 38.906225666666664, "fusion_lon": 0.0, "fusion_lat": 0.0, "type": "electric_scooter", "name": "dd2e84d65ac8d57ecdf61a4abcb689e3", "is_disabled": 0, "rental_uris": {"ios": "https://dc.lft.to/lastmile_qr_scan", "android": "https://dc.lft.to/lastmile_qr_scan"}, "is_reserved": 0}, {"lon": -76.93278466666666, "bike_id": "aab8380afc770541e0ffdde9b072160e", "lat": 38.95417916666667, "fusion_lon": 0.0, "fusion_lat": 0.0, "type": "electric_bike", "name": "aab8380afc770541e0ffdde9b072160e", "is_disabled": 0, "rental_uris": {"ios": "https://dc.lft.to/lastmile_qr_scan", "android": "https://dc.lft.to/lastmile_qr_scan"}, "is_reserved": 0}, {"lon": -77.02730083333333, "bike_id": "e0fbe2ac05ae7f53391300c6c069a956", "lat": 38.9141645, "fusion_lon": 0.0, "fusion_lat": 0.0, "type": "electric_scooter", "name": "e0fbe2ac05ae7f53391300c6c069a956", "is_disabled": 0, "rental_uris": {"ios": "https://dc.lft.to/lastmile_qr_scan", "android": "https://dc.lft.to/lastmile_qr_scan"}, "is_reserved": 0}, {"lon": -77.0054255, "bike_id": "95daaaa62e504d3ac021de577fe5f1c1", "lat": 38.875416333333334, "fusion_lon": 0.0, "fusion_lat": 0.0, "type": "electric_scooter", "name": "95daaaa62e504d3ac021de577fe5f1c1", "is_disabled": 0, "rental_uris": {"ios": "https://dc.lft.to/lastmile_qr_scan", "android": "https://dc.lft.to/lastmile_qr_scan"}, "is_reserved": 0}, {"lon": -77.03214683333333, "bike_id": "5e608e4788f8328967c447e29fe55141", "lat": 38.9361335, "fusion_lon": 0.0, "fusion_lat": 0.0, "type": "electric_scooter", "name": "5e608e4788f8328967c447e29fe55141", "is_disabled": 0, "rental_uris": {"ios": "https://dc.lft.to/lastmile_qr_scan", "android": "https://dc.lft.to/lastmile_qr_scan"}, "is_reserved": 0}, {"lon": -77.02100616666667, "bike_id": "ff5046e1a80287c57a181bea58d1eb68", "lat": 38.92917216666667, "fusion_lon": 0.0, "fusion_lat": 0.0, "type": "electric_scooter", "name": "ff5046e1a80287c57a181bea58d1eb68", "is_disabled": 0, "rental_uris": {"ios": "https://dc.lft.to/lastmile_qr_scan", "android": "https://dc.lft.to/lastmile_qr_scan"}, "is_reserved": 0}, {"lon": -77.03179833333333, "bike_id": "56d28bcafaba84a0d43b53ed202eaeef", "lat": 38.915667, "fusion_lon": 0.0, "fusion_lat": 0.0, "type": "electric_scooter", "name": "56d28bcafaba84a0d43b53ed202eaeef", "is_disabled": 0, "rental_uris": {"ios": "https://dc.lft.to/lastmile_qr_scan", "android": "https://dc.lft.to/lastmile_qr_scan"}, "is_reserved": 0}, {"lon": -77.02390583333333, "bike_id": "283ac15cfb2fc455350ac525a770c5c5", "lat": 38.918599666666665, "fusion_lon": 0.0, "fusion_lat": 0.0, "type": "electric_scooter", "name": "283ac15cfb2fc455350ac525a770c5c5", "is_disabled": 0, "rental_uris": {"ios": "https://dc.lft.to/lastmile_qr_scan", "android": "https://dc.lft.to/lastmile_qr_scan"}, "is_reserved": 0}, {"lon": -76.97991466666667, "bike_id": "9f7e310d06684ecfa09b224014128075", "lat": 38.901036, "fusion_lon": 0.0, "fusion_lat": 0.0, "type": "electric_scooter", "name": "9f7e310d06684ecfa09b224014128075", "is_disabled": 0, "rental_uris": {"ios": "https://dc.lft.to/lastmile_qr_scan", "android": "https://dc.lft.to/lastmile_qr_scan"}, "is_reserved": 0}, {"lon": -77.04101316666667, "bike_id": "df805aa123c7c31af0422712842233f4", "lat": 38.91723183333333, "fusion_lon": 0.0, "fusion_lat": 0.0, "type": "electric_scooter", "name": "df805aa123c7c31af0422712842233f4", "is_disabled": 0, "rental_uris": {"ios": "https://dc.lft.to/lastmile_qr_scan", "android": "https://dc.lft.to/lastmile_qr_scan"}, "is_reserved": 0}, {"lon": -77.00077333333333, "bike_id": "f48799f27ecd713234a7c84adea5ea7b", "lat": 38.873749, "fusion_lon": 0.0, "fusion_lat": 0.0, "type": "electric_scooter", "name": "f48799f27ecd713234a7c84adea5ea7b", "is_disabled": 0, "rental_uris": {"ios": "https://dc.lft.to/lastmile_qr_scan", "android": "https://dc.lft.to/lastmile_qr_scan"}, "is_reserved": 0}, {"lon": -77.0276905, "bike_id": "c1da2ab0af220dfc6338c71517f6e85b", "lat": 38.95424233333333, "fusion_lon": 0.0, "fusion_lat": 0.0, "type": "electric_scooter", "name": "c1da2ab0af220dfc6338c71517f6e85b", "is_disabled": 0, "rental_uris": {"ios": "https://dc.lft.to/lastmile_qr_scan", "android": "https://dc.lft.to/lastmile_qr_scan"}, "is_reserved": 0}, {"lon": -77.04815516666666, "bike_id": "bc4d9b254f615a3adbd176660fca9877", "lat": 38.910972, "fusion_lon": 0.0, "fusion_lat": 0.0, "type": "electric_scooter", "name": "bc4d9b254f615a3adbd176660fca9877", "is_disabled": 0, "rental_uris": {"ios": "https://dc.lft.to/lastmile_qr_scan", "android": "https://dc.lft.to/lastmile_qr_scan"}, "is_reserved": 0}, {"lon": -77.04476033333333, "bike_id": "b64840ec99fcaba393bbc475a0ea32d0", "lat": 38.923861, "fusion_lon": 0.0, "fusion_lat": 0.0, "type": "electric_scooter", "name": "b64840ec99fcaba393bbc475a0ea32d0", "is_disabled": 0, "rental_uris": {"ios": "https://dc.lft.to/lastmile_qr_scan", "android": "https://dc.lft.to/lastmile_qr_scan"}, "is_reserved": 0}, {"lon": -77.0399095, "bike_id": "22b528463bb8603fdef818d64ad2314f", "lat": 38.93338933333333, "fusion_lon": 0.0, "fusion_lat": 0.0, "type": "electric_scooter", "name": "22b528463bb8603fdef818d64ad2314f", "is_disabled": 0, "rental_uris": {"ios": "https://dc.lft.to/lastmile_qr_scan", "android": "https://dc.lft.to/lastmile_qr_scan"}, "is_reserved": 0}, {"lon": -76.90740233333334, "bike_id": "115d906b0f0dbd84d430890d7db779f9", "lat": 38.89616866666667, "fusion_lon": 0.0, "fusion_lat": 0.0, "type": "electric_bike", "name": "115d906b0f0dbd84d430890d7db779f9", "is_disabled": 0, "rental_uris": {"ios": "https://dc.lft.to/lastmile_qr_scan", "android": "https://dc.lft.to/lastmile_qr_scan"}, "is_reserved": 0}, {"lon": -76.98524783333333, "bike_id": "c30e818631078f9cfc6e31b7ce69746f", "lat": 38.86686133333333, "fusion_lon": 0.0, "fusion_lat": 0.0, "type": "electric_scooter", "name": "c30e818631078f9cfc6e31b7ce69746f", "is_disabled": 0, "rental_uris": {"ios": "https://dc.lft.to/lastmile_qr_scan", "android": "https://dc.lft.to/lastmile_qr_scan"}, "is_reserved": 0}, {"lon": -77.0329145, "bike_id": "73c06f062ba2b02e1178ecead9af9d8b", "lat": 38.928800333333335, "fusion_lon": 0.0, "fusion_lat": 0.0, "type": "electric_scooter", "name": "73c06f062ba2b02e1178ecead9af9d8b", "is_disabled": 0, "rental_uris": {"ios": "https://dc.lft.to/lastmile_qr_scan", "android": "https://dc.lft.to/lastmile_qr_scan"}, "is_reserved": 0}, {"lon": -77.00565683333333, "bike_id": "26042b42713aaee0e6d0987b230cc4e4", "lat": 38.87468283333333, "fusion_lon": 0.0, "fusion_lat": 0.0, "type": "electric_scooter", "name": "26042b42713aaee0e6d0987b230cc4e4", "is_disabled": 0, "rental_uris": {"ios": "https://dc.lft.to/lastmile_qr_scan", "android": "https://dc.lft.to/lastmile_qr_scan"}, "is_reserved": 0}, {"lon": -77.048725, "bike_id": "ab389ce2e2d24f886da5b00b2e8b98cb", "lat": 38.89222, "fusion_lon": 0.0, "fusion_lat": 0.0, "type": "electric_scooter", "name": "ab389ce2e2d24f886da5b00b2e8b98cb", "is_disabled": 0, "rental_uris": {"ios": "https://dc.lft.to/lastmile_qr_scan", "android": "https://dc.lft.to/lastmile_qr_scan"}, "is_reserved": 0}, {"lon": -77.02294416666666, "bike_id": "c805143d610c6563517d6281cf15d471", "lat": 38.922274333333334, "fusion_lon": 0.0, "fusion_lat": 0.0, "type": "electric_scooter", "name": "c805143d610c6563517d6281cf15d471", "is_disabled": 0, "rental_uris": {"ios": "https://dc.lft.to/lastmile_qr_scan", "android": "https://dc.lft.to/lastmile_qr_scan"}, "is_reserved": 0}, {"lon": -77.04318833333333, "bike_id": "f8da656eed7ca3a1a3c62feb78bf9787", "lat": 38.89197583333333, "fusion_lon": 0.0, "fusion_lat": 0.0, "type": "electric_scooter", "name": "f8da656eed7ca3a1a3c62feb78bf9787", "is_disabled": 0, "rental_uris": {"ios": "https://dc.lft.to/lastmile_qr_scan", "android": "https://dc.lft.to/lastmile_qr_scan"}, "is_reserved": 0}, {"lon": -77.021531, "bike_id": "f8dfbfa2e0cfeccefe4b07816a97c595", "lat": 38.915545, "fusion_lon": 0.0, "fusion_lat": 0.0, "type": "electric_scooter", "name": "f8dfbfa2e0cfeccefe4b07816a97c595", "is_disabled": 0, "rental_uris": {"ios": "https://dc.lft.to/lastmile_qr_scan", "android": "https://dc.lft.to/lastmile_qr_scan"}, "is_reserved": 0}, {"lon": -77.02168416666666, "bike_id": "6031c8e21a559e841faf51010211f6c1", "lat": 38.8995335, "fusion_lon": 0.0, "fusion_lat": 0.0, "type": "electric_scooter", "name": "6031c8e21a559e841faf51010211f6c1", "is_disabled": 0, "rental_uris": {"ios": "https://dc.lft.to/lastmile_qr_scan", "android": "https://dc.lft.to/lastmile_qr_scan"}, "is_reserved": 0}, {"lon": -77.01576483333334, "bike_id": "47cfaf85a13072bbf45e38886b3f3355", "lat": 38.8831015, "fusion_lon": 0.0, "fusion_lat": 0.0, "type": "electric_scooter", "name": "47cfaf85a13072bbf45e38886b3f3355", "is_disabled": 0, "rental_uris": {"ios": "https://dc.lft.to/lastmile_qr_scan", "android": "https://dc.lft.to/lastmile_qr_scan"}, "is_reserved": 0}, {"lon": -77.02088266666667, "bike_id": "84a934e81aad5720ded757831b743600", "lat": 38.929153, "fusion_lon": 0.0, "fusion_lat": 0.0, "type": "electric_scooter", "name": "84a934e81aad5720ded757831b743600", "is_disabled": 0, "rental_uris": {"ios": "https://dc.lft.to/lastmile_qr_scan", "android": "https://dc.lft.to/lastmile_qr_scan"}, "is_reserved": 0}, {"lon": -77.03853833333334, "bike_id": "29a61c9ab3cf23e237ead28c73e17acf", "lat": 38.932407, "fusion_lon": 0.0, "fusion_lat": 0.0, "type": "electric_scooter", "name": "29a61c9ab3cf23e237ead28c73e17acf", "is_disabled": 0, "rental_uris": {"ios": "https://dc.lft.to/lastmile_qr_scan", "android": "https://dc.lft.to/lastmile_qr_scan"}, "is_reserved": 0}, {"lon": -76.97858433333333, "bike_id": "e33b0f87c72db685ef233ee7ebdedfc4", "lat": 38.907228333333336, "fusion_lon": 0.0, "fusion_lat": 0.0, "type": "electric_scooter", "name": "e33b0f87c72db685ef233ee7ebdedfc4", "is_disabled": 0, "rental_uris": {"ios": "https://dc.lft.to/lastmile_qr_scan", "android": "https://dc.lft.to/lastmile_qr_scan"}, "is_reserved": 0}, {"lon": -77.03264783333333, "bike_id": "e615d488c0649fc1d8d4725c81454e66", "lat": 38.93770833333333, "fusion_lon": 0.0, "fusion_lat": 0.0, "type": "electric_scooter", "name": "e615d488c0649fc1d8d4725c81454e66", "is_disabled": 0, "rental_uris": {"ios": "https://dc.lft.to/lastmile_qr_scan", "android": "https://dc.lft.to/lastmile_qr_scan"}, "is_reserved": 0}, {"lon": -77.0385965, "bike_id": "092126e7f035fa795cdf78cc22b855a8", "lat": 38.911748833333334, "fusion_lon": 0.0, "fusion_lat": 0.0, "type": "electric_scooter", "name": "092126e7f035fa795cdf78cc22b855a8", "is_disabled": 0, "rental_uris": {"ios": "https://dc.lft.to/lastmile_qr_scan", "android": "https://dc.lft.to/lastmile_qr_scan"}, "is_reserved": 0}, {"lon": -76.94998883333334, "bike_id": "cc1f9e2f83d4437b5afda48719125da6", "lat": 38.893777, "fusion_lon": 0.0, "fusion_lat": 0.0, "type": "electric_scooter", "name": "cc1f9e2f83d4437b5afda48719125da6", "is_disabled": 0, "rental_uris": {"ios": "https://dc.lft.to/lastmile_qr_scan", "android": "https://dc.lft.to/lastmile_qr_scan"}, "is_reserved": 0}, {"lon": -76.97562266666667, "bike_id": "cf476025b16e3a525a35752e86182397", "lat": 38.92454, "fusion_lon": 0.0, "fusion_lat": 0.0, "type": "electric_bike", "name": "cf476025b16e3a525a35752e86182397", "is_disabled": 0, "rental_uris": {"ios": "https://dc.lft.to/lastmile_qr_scan", "android": "https://dc.lft.to/lastmile_qr_scan"}, "is_reserved": 0}, {"lon": -76.99603233333333, "bike_id": "4db1be40ac94c544cddffd04c70d571b", "lat": 38.9506705, "fusion_lon": 0.0, "fusion_lat": 0.0, "type": "electric_bike", "name": "4db1be40ac94c544cddffd04c70d571b", "is_disabled": 0, "rental_uris": {"ios": "https://dc.lft.to/lastmile_qr_scan", "android": "https://dc.lft.to/lastmile_qr_scan"}, "is_reserved": 0}, {"lon": -77.0325825, "bike_id": "b4efdcb9518c467cb6e45b50c775f0e5", "lat": 38.9313105, "fusion_lon": 0.0, "fusion_lat": 0.0, "type": "electric_scooter", "name": "b4efdcb9518c467cb6e45b50c775f0e5", "is_disabled": 0, "rental_uris": {"ios": "https://dc.lft.to/lastmile_qr_scan", "android": "https://dc.lft.to/lastmile_qr_scan"}, "is_reserved": 0}, {"lon": -77.05041866666667, "bike_id": "e57e3759e7d554addc5f63743f106327", "lat": 38.92356683333333, "fusion_lon": 0.0, "fusion_lat": 0.0, "type": "electric_scooter", "name": "e57e3759e7d554addc5f63743f106327", "is_disabled": 0, "rental_uris": {"ios": "https://dc.lft.to/lastmile_qr_scan", "android": "https://dc.lft.to/lastmile_qr_scan"}, "is_reserved": 0}, {"lon": -77.03210666666666, "bike_id": "6966cc30c79d99604625f63f267c3fee", "lat": 38.91537666666667, "fusion_lon": 0.0, "fusion_lat": 0.0, "type": "electric_scooter", "name": "6966cc30c79d99604625f63f267c3fee", "is_disabled": 0, "rental_uris": {"ios": "https://dc.lft.to/lastmile_qr_scan", "android": "https://dc.lft.to/lastmile_qr_scan"}, "is_reserved": 0}, {"lon": -77.01736966666667, "bike_id": "71589a216662e0245c3d46d4bdfd8794", "lat": 38.9161125, "fusion_lon": 0.0, "fusion_lat": 0.0, "type": "electric_bike", "name": "71589a216662e0245c3d46d4bdfd8794", "is_disabled": 0, "rental_uris": {"ios": "https://dc.lft.to/lastmile_qr_scan", "android": "https://dc.lft.to/lastmile_qr_scan"}, "is_reserved": 0}, {"lon": -77.03194966666666, "bike_id": "98e87031bffd291389f84d75f1df52c6", "lat": 38.89614483333333, "fusion_lon": 0.0, "fusion_lat": 0.0, "type": "electric_scooter", "name": "98e87031bffd291389f84d75f1df52c6", "is_disabled": 0, "rental_uris": {"ios": "https://dc.lft.to/lastmile_qr_scan", "android": "https://dc.lft.to/lastmile_qr_scan"}, "is_reserved": 0}, {"lon": -76.93003683333333, "bike_id": "f05716db6493945e172c2dd441674f34", "lat": 38.901827, "fusion_lon": 0.0, "fusion_lat": 0.0, "type": "electric_scooter", "name": "f05716db6493945e172c2dd441674f34", "is_disabled": 0, "rental_uris": {"ios": "https://dc.lft.to/lastmile_qr_scan", "android": "https://dc.lft.to/lastmile_qr_scan"}, "is_reserved": 0}, {"lon": -77.10913033333334, "bike_id": "3ca4ee32f4534136e80429f1b5d26df4", "lat": 39.052051166666665, "fusion_lon": 0.0, "fusion_lat": 0.0, "type": "electric_bike", "name": "3ca4ee32f4534136e80429f1b5d26df4", "is_disabled": 0, "rental_uris": {"ios": "https://dc.lft.to/lastmile_qr_scan", "android": "https://dc.lft.to/lastmile_qr_scan"}, "is_reserved": 0}, {"lon": -77.04031816666667, "bike_id": "1ec4c3d7412b1b0be6987a5057ac0c78", "lat": 38.910946333333335, "fusion_lon": 0.0, "fusion_lat": 0.0, "type": "electric_scooter", "name": "1ec4c3d7412b1b0be6987a5057ac0c78", "is_disabled": 0, "rental_uris": {"ios": "https://dc.lft.to/lastmile_qr_scan", "android": "https://dc.lft.to/lastmile_qr_scan"}, "is_reserved": 0}, {"lon": -77.01426033333334, "bike_id": "78e8150ce4c2636d329e3c04ef8abfe6", "lat": 38.92860733333333, "fusion_lon": 0.0, "fusion_lat": 0.0, "type": "electric_scooter", "name": "78e8150ce4c2636d329e3c04ef8abfe6", "is_disabled": 0, "rental_uris": {"ios": "https://dc.lft.to/lastmile_qr_scan", "android": "https://dc.lft.to/lastmile_qr_scan"}, "is_reserved": 0}, {"lon": -77.04352666666666, "bike_id": "40aae88310846dc29da4d00fe258677b", "lat": 38.90718733333333, "fusion_lon": 0.0, "fusion_lat": 0.0, "type": "electric_scooter", "name": "40aae88310846dc29da4d00fe258677b", "is_disabled": 0, "rental_uris": {"ios": "https://dc.lft.to/lastmile_qr_scan", "android": "https://dc.lft.to/lastmile_qr_scan"}, "is_reserved": 0}, {"lon": -77.03174866666667, "bike_id": "c24bf03a008eb8d92f4ed12787b279aa", "lat": 38.91117416666667, "fusion_lon": 0.0, "fusion_lat": 0.0, "type": "electric_scooter", "name": "c24bf03a008eb8d92f4ed12787b279aa", "is_disabled": 0, "rental_uris": {"ios": "https://dc.lft.to/lastmile_qr_scan", "android": "https://dc.lft.to/lastmile_qr_scan"}, "is_reserved": 0}, {"lon": -77.02716416666667, "bike_id": "9610b79021c6b5a61c6acfe544ad055a", "lat": 38.925880666666664, "fusion_lon": 0.0, "fusion_lat": 0.0, "type": "electric_scooter", "name": "9610b79021c6b5a61c6acfe544ad055a", "is_disabled": 0, "rental_uris": {"ios": "https://dc.lft.to/lastmile_qr_scan", "android": "https://dc.lft.to/lastmile_qr_scan"}, "is_reserved": 0}, {"lon": -77.06120316666667, "bike_id": "534182fda341361dd24c2b2b5660418e", "lat": 38.94363233333333, "fusion_lon": 0.0, "fusion_lat": 0.0, "type": "electric_scooter", "name": "534182fda341361dd24c2b2b5660418e", "is_disabled": 0, "rental_uris": {"ios": "https://dc.lft.to/lastmile_qr_scan", "android": "https://dc.lft.to/lastmile_qr_scan"}, "is_reserved": 0}, {"lon": -77.03349183333333, "bike_id": "740d2a3de7abaa977f0e899abefc79e6", "lat": 38.919109166666665, "fusion_lon": 0.0, "fusion_lat": 0.0, "type": "electric_scooter", "name": "740d2a3de7abaa977f0e899abefc79e6", "is_disabled": 0, "rental_uris": {"ios": "https://dc.lft.to/lastmile_qr_scan", "android": "https://dc.lft.to/lastmile_qr_scan"}, "is_reserved": 0}, {"lon": -77.03201533333333, "bike_id": "a78579eef8ceeff6917e208604ea27fd", "lat": 38.936067666666666, "fusion_lon": 0.0, "fusion_lat": 0.0, "type": "electric_scooter", "name": "a78579eef8ceeff6917e208604ea27fd", "is_disabled": 0, "rental_uris": {"ios": "https://dc.lft.to/lastmile_qr_scan", "android": "https://dc.lft.to/lastmile_qr_scan"}, "is_reserved": 0}, {"lon": -76.994763, "bike_id": "d0875f68bef108073fe371c13e98a190", "lat": 38.86213216666667, "fusion_lon": 0.0, "fusion_lat": 0.0, "type": "electric_scooter", "name": "d0875f68bef108073fe371c13e98a190", "is_disabled": 0, "rental_uris": {"ios": "https://dc.lft.to/lastmile_qr_scan", "android": "https://dc.lft.to/lastmile_qr_scan"}, "is_reserved": 0}, {"lon": -77.04244, "bike_id": "438197b9fb752615de997346c86cf060", "lat": 38.91635266666667, "fusion_lon": 0.0, "fusion_lat": 0.0, "type": "electric_scooter", "name": "438197b9fb752615de997346c86cf060", "is_disabled": 0, "rental_uris": {"ios": "https://dc.lft.to/lastmile_qr_scan", "android": "https://dc.lft.to/lastmile_qr_scan"}, "is_reserved": 0}, {"lon": -77.0468315, "bike_id": "925600f6945fbd41984b19065fe20b0f", "lat": 38.89739016666667, "fusion_lon": 0.0, "fusion_lat": 0.0, "type": "electric_scooter", "name": "925600f6945fbd41984b19065fe20b0f", "is_disabled": 0, "rental_uris": {"ios": "https://dc.lft.to/lastmile_qr_scan", "android": "https://dc.lft.to/lastmile_qr_scan"}, "is_reserved": 0}, {"lon": -77.03421983333334, "bike_id": "5a0c99671cf7a965f72d95895b1ff190", "lat": 38.917884, "fusion_lon": 0.0, "fusion_lat": 0.0, "type": "electric_scooter", "name": "5a0c99671cf7a965f72d95895b1ff190", "is_disabled": 0, "rental_uris": {"ios": "https://dc.lft.to/lastmile_qr_scan", "android": "https://dc.lft.to/lastmile_qr_scan"}, "is_reserved": 0}, {"lon": -76.98382333333333, "bike_id": "1e5fff49c2eb993173a2a86149711add", "lat": 38.91496983333333, "fusion_lon": 0.0, "fusion_lat": 0.0, "type": "electric_scooter", "name": "1e5fff49c2eb993173a2a86149711add", "is_disabled": 0, "rental_uris": {"ios": "https://dc.lft.to/lastmile_qr_scan", "android": "https://dc.lft.to/lastmile_qr_scan"}, "is_reserved": 0}, {"lon": -76.98378866666667, "bike_id": "a9fa3bb4bf3f693849d6811566a57e5f", "lat": 38.89139183333333, "fusion_lon": 0.0, "fusion_lat": 0.0, "type": "electric_scooter", "name": "a9fa3bb4bf3f693849d6811566a57e5f", "is_disabled": 0, "rental_uris": {"ios": "https://dc.lft.to/lastmile_qr_scan", "android": "https://dc.lft.to/lastmile_qr_scan"}, "is_reserved": 0}, {"lon": -77.056124, "bike_id": "11365fad980b88be4c97c7dc999b71cd", "lat": 38.9315825, "fusion_lon": 0.0, "fusion_lat": 0.0, "type": "electric_scooter", "name": "11365fad980b88be4c97c7dc999b71cd", "is_disabled": 0, "rental_uris": {"ios": "https://dc.lft.to/lastmile_qr_scan", "android": "https://dc.lft.to/lastmile_qr_scan"}, "is_reserved": 0}, {"lon": -77.02153316666667, "bike_id": "318843b0911b57ea4681f33cd7b42295", "lat": 38.92600783333334, "fusion_lon": 0.0, "fusion_lat": 0.0, "type": "electric_scooter", "name": "318843b0911b57ea4681f33cd7b42295", "is_disabled": 0, "rental_uris": {"ios": "https://dc.lft.to/lastmile_qr_scan", "android": "https://dc.lft.to/lastmile_qr_scan"}, "is_reserved": 0}, {"lon": -76.98837216666666, "bike_id": "672ace467a92f9a827c22d279666150a", "lat": 38.900654, "fusion_lon": 0.0, "fusion_lat": 0.0, "type": "electric_scooter", "name": "672ace467a92f9a827c22d279666150a", "is_disabled": 0, "rental_uris": {"ios": "https://dc.lft.to/lastmile_qr_scan", "android": "https://dc.lft.to/lastmile_qr_scan"}, "is_reserved": 0}, {"lon": -77.03186116666667, "bike_id": "6d3e03c1ec8fd181532523b61e1b737f", "lat": 38.886889333333336, "fusion_lon": 0.0, "fusion_lat": 0.0, "type": "electric_scooter", "name": "6d3e03c1ec8fd181532523b61e1b737f", "is_disabled": 0, "rental_uris": {"ios": "https://dc.lft.to/lastmile_qr_scan", "android": "https://dc.lft.to/lastmile_qr_scan"}, "is_reserved": 0}, {"lon": -77.03009133333333, "bike_id": "77a004c27059a9e0cc34a242cd44c8d1", "lat": 38.9168195, "fusion_lon": 0.0, "fusion_lat": 0.0, "type": "electric_scooter", "name": "77a004c27059a9e0cc34a242cd44c8d1", "is_disabled": 0, "rental_uris": {"ios": "https://dc.lft.to/lastmile_qr_scan", "android": "https://dc.lft.to/lastmile_qr_scan"}, "is_reserved": 0}, {"lon": -77.00378533333334, "bike_id": "d4b445b3ac83f96129dc666a01f515e9", "lat": 38.895219166666664, "fusion_lon": 0.0, "fusion_lat": 0.0, "type": "electric_scooter", "name": "d4b445b3ac83f96129dc666a01f515e9", "is_disabled": 0, "rental_uris": {"ios": "https://dc.lft.to/lastmile_qr_scan", "android": "https://dc.lft.to/lastmile_qr_scan"}, "is_reserved": 0}, {"lon": -77.02429616666667, "bike_id": "7f215793c8239617f5b42c4539bac8f0", "lat": 38.926567666666664, "fusion_lon": 0.0, "fusion_lat": 0.0, "type": "electric_scooter", "name": "7f215793c8239617f5b42c4539bac8f0", "is_disabled": 0, "rental_uris": {"ios": "https://dc.lft.to/lastmile_qr_scan", "android": "https://dc.lft.to/lastmile_qr_scan"}, "is_reserved": 0}, {"lon": -77.02176883333334, "bike_id": "73ab019f3579593f9da13ff9bb69026e", "lat": 38.8996375, "fusion_lon": 0.0, "fusion_lat": 0.0, "type": "electric_scooter", "name": "73ab019f3579593f9da13ff9bb69026e", "is_disabled": 0, "rental_uris": {"ios": "https://dc.lft.to/lastmile_qr_scan", "android": "https://dc.lft.to/lastmile_qr_scan"}, "is_reserved": 0}, {"lon": -77.13100833333333, "bike_id": "32bd6ebf54b0bfd0a7f4698dd6e560bc", "lat": 39.02421483333333, "fusion_lon": 0.0, "fusion_lat": 0.0, "type": "electric_bike", "name": "32bd6ebf54b0bfd0a7f4698dd6e560bc", "is_disabled": 0, "rental_uris": {"ios": "https://dc.lft.to/lastmile_qr_scan", "android": "https://dc.lft.to/lastmile_qr_scan"}, "is_reserved": 0}, {"lon": -77.03263233333334, "bike_id": "a0503d81f5247630976e32b68d8125c6", "lat": 38.925256, "fusion_lon": 0.0, "fusion_lat": 0.0, "type": "electric_scooter", "name": "a0503d81f5247630976e32b68d8125c6", "is_disabled": 0, "rental_uris": {"ios": "https://dc.lft.to/lastmile_qr_scan", "android": "https://dc.lft.to/lastmile_qr_scan"}, "is_reserved": 0}, {"lon": -77.01927233333333, "bike_id": "af22ea8968b5c249b1f2330aa7d13b3b", "lat": 38.922123, "fusion_lon": 0.0, "fusion_lat": 0.0, "type": "electric_scooter", "name": "af22ea8968b5c249b1f2330aa7d13b3b", "is_disabled": 0, "rental_uris": {"ios": "https://dc.lft.to/lastmile_qr_scan", "android": "https://dc.lft.to/lastmile_qr_scan"}, "is_reserved": 0}, {"lon": -77.06390883333333, "bike_id": "16011180ca4b78bfe0eb66ac6a26cc89", "lat": 38.9082705, "fusion_lon": 0.0, "fusion_lat": 0.0, "type": "electric_scooter", "name": "16011180ca4b78bfe0eb66ac6a26cc89", "is_disabled": 0, "rental_uris": {"ios": "https://dc.lft.to/lastmile_qr_scan", "android": "https://dc.lft.to/lastmile_qr_scan"}, "is_reserved": 0}, {"lon": -76.9838215, "bike_id": "d0ecefd1b274ad57f81e3bc6bc694f26", "lat": 38.8996635, "fusion_lon": 0.0, "fusion_lat": 0.0, "type": "electric_scooter", "name": "d0ecefd1b274ad57f81e3bc6bc694f26", "is_disabled": 0, "rental_uris": {"ios": "https://dc.lft.to/lastmile_qr_scan", "android": "https://dc.lft.to/lastmile_qr_scan"}, "is_reserved": 0}, {"lon": -77.05076933333333, "bike_id": "1d34d49fd51343eed5dfec9c290e7b5d", "lat": 38.90089916666667, "fusion_lon": 0.0, "fusion_lat": 0.0, "type": "electric_scooter", "name": "1d34d49fd51343eed5dfec9c290e7b5d", "is_disabled": 0, "rental_uris": {"ios": "https://dc.lft.to/lastmile_qr_scan", "android": "https://dc.lft.to/lastmile_qr_scan"}, "is_reserved": 0}, {"lon": -77.02211716666666, "bike_id": "c6e6b133ed521a51576d5399f1d4c616", "lat": 38.901877999999996, "fusion_lon": 0.0, "fusion_lat": 0.0, "type": "electric_scooter", "name": "c6e6b133ed521a51576d5399f1d4c616", "is_disabled": 0, "rental_uris": {"ios": "https://dc.lft.to/lastmile_qr_scan", "android": "https://dc.lft.to/lastmile_qr_scan"}, "is_reserved": 0}, {"lon": -77.00372866666666, "bike_id": "a6ab1f2595bad41e8f44a1b29c495c5a", "lat": 38.897275, "fusion_lon": 0.0, "fusion_lat": 0.0, "type": "electric_scooter", "name": "a6ab1f2595bad41e8f44a1b29c495c5a", "is_disabled": 0, "rental_uris": {"ios": "https://dc.lft.to/lastmile_qr_scan", "android": "https://dc.lft.to/lastmile_qr_scan"}, "is_reserved": 0}, {"lon": -76.97004983333333, "bike_id": "133f83b6506499343ff743420f819a86", "lat": 38.8736855, "fusion_lon": 0.0, "fusion_lat": 0.0, "type": "electric_scooter", "name": "133f83b6506499343ff743420f819a86", "is_disabled": 0, "rental_uris": {"ios": "https://dc.lft.to/lastmile_qr_scan", "android": "https://dc.lft.to/lastmile_qr_scan"}, "is_reserved": 0}, {"lon": -76.97749183333333, "bike_id": "a0e277c06f376b6d196b62c2c425cb91", "lat": 38.89887616666667, "fusion_lon": 0.0, "fusion_lat": 0.0, "type": "electric_scooter", "name": "a0e277c06f376b6d196b62c2c425cb91", "is_disabled": 0, "rental_uris": {"ios": "https://dc.lft.to/lastmile_qr_scan", "android": "https://dc.lft.to/lastmile_qr_scan"}, "is_reserved": 0}, {"lon": -77.06151533333333, "bike_id": "2a4ca766ad56c463f2072b593d8c9451", "lat": 38.943584, "fusion_lon": 0.0, "fusion_lat": 0.0, "type": "electric_scooter", "name": "2a4ca766ad56c463f2072b593d8c9451", "is_disabled": 0, "rental_uris": {"ios": "https://dc.lft.to/lastmile_qr_scan", "android": "https://dc.lft.to/lastmile_qr_scan"}, "is_reserved": 0}, {"lon": -77.03476316666666, "bike_id": "7efecb080ee5f21b7c9c4d2ef3f1ee5f", "lat": 38.92728483333333, "fusion_lon": 0.0, "fusion_lat": 0.0, "type": "electric_scooter", "name": "7efecb080ee5f21b7c9c4d2ef3f1ee5f", "is_disabled": 0, "rental_uris": {"ios": "https://dc.lft.to/lastmile_qr_scan", "android": "https://dc.lft.to/lastmile_qr_scan"}, "is_reserved": 0}, {"lon": -77.07797033333334, "bike_id": "1f7c5e7bbb2e68f951a9d11cb410985d", "lat": 38.995997833333334, "fusion_lon": 0.0, "fusion_lat": 0.0, "type": "electric_bike", "name": "1f7c5e7bbb2e68f951a9d11cb410985d", "is_disabled": 0, "rental_uris": {"ios": "https://dc.lft.to/lastmile_qr_scan", "android": "https://dc.lft.to/lastmile_qr_scan"}, "is_reserved": 0}, {"lon": -77.00601733333333, "bike_id": "fb371d72a918ce84217ba12a764bfa6a", "lat": 38.871730666666664, "fusion_lon": 0.0, "fusion_lat": 0.0, "type": "electric_bike", "name": "fb371d72a918ce84217ba12a764bfa6a", "is_disabled": 0, "rental_uris": {"ios": "https://dc.lft.to/lastmile_qr_scan", "android": "https://dc.lft.to/lastmile_qr_scan"}, "is_reserved": 0}, {"lon": -77.02428833333333, "bike_id": "87d913d7600f0165cf91f5c04bb9fe41", "lat": 38.93732083333333, "fusion_lon": 0.0, "fusion_lat": 0.0, "type": "electric_scooter", "name": "87d913d7600f0165cf91f5c04bb9fe41", "is_disabled": 0, "rental_uris": {"ios": "https://dc.lft.to/lastmile_qr_scan", "android": "https://dc.lft.to/lastmile_qr_scan"}, "is_reserved": 0}, {"lon": -77.0196965, "bike_id": "ac5e9749cf5db38991dc0245f64aceab", "lat": 38.88591, "fusion_lon": 0.0, "fusion_lat": 0.0, "type": "electric_scooter", "name": "ac5e9749cf5db38991dc0245f64aceab", "is_disabled": 0, "rental_uris": {"ios": "https://dc.lft.to/lastmile_qr_scan", "android": "https://dc.lft.to/lastmile_qr_scan"}, "is_reserved": 0}, {"lon": -77.00193116666667, "bike_id": "74be69b1bf1a4e4f4d7acf767e10491a", "lat": 38.89097916666667, "fusion_lon": 0.0, "fusion_lat": 0.0, "type": "electric_scooter", "name": "74be69b1bf1a4e4f4d7acf767e10491a", "is_disabled": 0, "rental_uris": {"ios": "https://dc.lft.to/lastmile_qr_scan", "android": "https://dc.lft.to/lastmile_qr_scan"}, "is_reserved": 0}, {"lon": -77.04460233333333, "bike_id": "ca373520443a3be223a4a9e497e5078d", "lat": 38.90862766666667, "fusion_lon": 0.0, "fusion_lat": 0.0, "type": "electric_scooter", "name": "ca373520443a3be223a4a9e497e5078d", "is_disabled": 0, "rental_uris": {"ios": "https://dc.lft.to/lastmile_qr_scan", "android": "https://dc.lft.to/lastmile_qr_scan"}, "is_reserved": 0}, {"lon": -77.04247933333333, "bike_id": "9a404fac4bf0cbf0e0a3ee9bd99dce88", "lat": 38.90957366666667, "fusion_lon": 0.0, "fusion_lat": 0.0, "type": "electric_scooter", "name": "9a404fac4bf0cbf0e0a3ee9bd99dce88", "is_disabled": 0, "rental_uris": {"ios": "https://dc.lft.to/lastmile_qr_scan", "android": "https://dc.lft.to/lastmile_qr_scan"}, "is_reserved": 0}, {"lon": -77.03136866666667, "bike_id": "15bda1eacc6d4ff17e411329c92880b2", "lat": 38.9156405, "fusion_lon": 0.0, "fusion_lat": 0.0, "type": "electric_scooter", "name": "15bda1eacc6d4ff17e411329c92880b2", "is_disabled": 0, "rental_uris": {"ios": "https://dc.lft.to/lastmile_qr_scan", "android": "https://dc.lft.to/lastmile_qr_scan"}, "is_reserved": 0}, {"lon": -77.03908866666667, "bike_id": "17a6d779313b413d1abfbccca0d6ec34", "lat": 38.91836383333333, "fusion_lon": 0.0, "fusion_lat": 0.0, "type": "electric_scooter", "name": "17a6d779313b413d1abfbccca0d6ec34", "is_disabled": 0, "rental_uris": {"ios": "https://dc.lft.to/lastmile_qr_scan", "android": "https://dc.lft.to/lastmile_qr_scan"}, "is_reserved": 0}, {"lon": -77.03590633333333, "bike_id": "20332e579823b9571d46535af803b7b5", "lat": 38.9097475, "fusion_lon": 0.0, "fusion_lat": 0.0, "type": "electric_scooter", "name": "20332e579823b9571d46535af803b7b5", "is_disabled": 0, "rental_uris": {"ios": "https://dc.lft.to/lastmile_qr_scan", "android": "https://dc.lft.to/lastmile_qr_scan"}, "is_reserved": 0}, {"lon": -77.02427683333333, "bike_id": "99d48b582caba5e5b514e28f7445048a", "lat": 38.92288766666667, "fusion_lon": 0.0, "fusion_lat": 0.0, "type": "electric_scooter", "name": "99d48b582caba5e5b514e28f7445048a", "is_disabled": 0, "rental_uris": {"ios": "https://dc.lft.to/lastmile_qr_scan", "android": "https://dc.lft.to/lastmile_qr_scan"}, "is_reserved": 0}, {"lon": -77.04966666666667, "bike_id": "c1cc4eb18cd1c1a32d2464f793cdd830", "lat": 38.899845166666665, "fusion_lon": 0.0, "fusion_lat": 0.0, "type": "electric_scooter", "name": "c1cc4eb18cd1c1a32d2464f793cdd830", "is_disabled": 0, "rental_uris": {"ios": "https://dc.lft.to/lastmile_qr_scan", "android": "https://dc.lft.to/lastmile_qr_scan"}, "is_reserved": 0}, {"lon": -77.064105, "bike_id": "f663b931f5dfcfcd153452890438984a", "lat": 38.90777416666667, "fusion_lon": 0.0, "fusion_lat": 0.0, "type": "electric_scooter", "name": "f663b931f5dfcfcd153452890438984a", "is_disabled": 0, "rental_uris": {"ios": "https://dc.lft.to/lastmile_qr_scan", "android": "https://dc.lft.to/lastmile_qr_scan"}, "is_reserved": 0}, {"lon": -77.0333135, "bike_id": "fed30b9b8264a5e4a2f5e0e887e9a7b5", "lat": 38.9197215, "fusion_lon": 0.0, "fusion_lat": 0.0, "type": "electric_scooter", "name": "fed30b9b8264a5e4a2f5e0e887e9a7b5", "is_disabled": 0, "rental_uris": {"ios": "https://dc.lft.to/lastmile_qr_scan", "android": "https://dc.lft.to/lastmile_qr_scan"}, "is_reserved": 0}, {"lon": -77.0581195, "bike_id": "b49ecd8f0ee368bd0104184f413f5134", "lat": 38.823958, "fusion_lon": 0.0, "fusion_lat": 0.0, "type": "electric_bike", "name": "b49ecd8f0ee368bd0104184f413f5134", "is_disabled": 0, "rental_uris": {"ios": "https://dc.lft.to/lastmile_qr_scan", "android": "https://dc.lft.to/lastmile_qr_scan"}, "is_reserved": 0}, {"lon": -76.98722683333334, "bike_id": "3a1d1d053fe28c5a23500790cde62dd3", "lat": 38.866155166666665, "fusion_lon": 0.0, "fusion_lat": 0.0, "type": "electric_scooter", "name": "3a1d1d053fe28c5a23500790cde62dd3", "is_disabled": 0, "rental_uris": {"ios": "https://dc.lft.to/lastmile_qr_scan", "android": "https://dc.lft.to/lastmile_qr_scan"}, "is_reserved": 0}, {"lon": -77.02860583333333, "bike_id": "0eb7858e7cd6d58e0fb12d4460175892", "lat": 38.93320333333333, "fusion_lon": 0.0, "fusion_lat": 0.0, "type": "electric_scooter", "name": "0eb7858e7cd6d58e0fb12d4460175892", "is_disabled": 0, "rental_uris": {"ios": "https://dc.lft.to/lastmile_qr_scan", "android": "https://dc.lft.to/lastmile_qr_scan"}, "is_reserved": 0}, {"lon": -76.94928816666666, "bike_id": "67a530373e870d66f438bf86f413437f", "lat": 38.893511833333335, "fusion_lon": 0.0, "fusion_lat": 0.0, "type": "electric_scooter", "name": "67a530373e870d66f438bf86f413437f", "is_disabled": 0, "rental_uris": {"ios": "https://dc.lft.to/lastmile_qr_scan", "android": "https://dc.lft.to/lastmile_qr_scan"}, "is_reserved": 0}, {"lon": -77.00019516666667, "bike_id": "a4164b458df7d1051c9a2bc626b560e6", "lat": 38.919692, "fusion_lon": 0.0, "fusion_lat": 0.0, "type": "electric_scooter", "name": "a4164b458df7d1051c9a2bc626b560e6", "is_disabled": 0, "rental_uris": {"ios": "https://dc.lft.to/lastmile_qr_scan", "android": "https://dc.lft.to/lastmile_qr_scan"}, "is_reserved": 0}, {"lon": -77.020106, "bike_id": "1b198f16f7cd5f2ba59d7a9f497deefc", "lat": 38.92411533333333, "fusion_lon": 0.0, "fusion_lat": 0.0, "type": "electric_scooter", "name": "1b198f16f7cd5f2ba59d7a9f497deefc", "is_disabled": 0, "rental_uris": {"ios": "https://dc.lft.to/lastmile_qr_scan", "android": "https://dc.lft.to/lastmile_qr_scan"}, "is_reserved": 0}, {"lon": -77.0743945, "bike_id": "fe64e4c31e856d4fa170f402470bcfbd", "lat": 38.999467, "fusion_lon": 0.0, "fusion_lat": 0.0, "type": "electric_bike", "name": "fe64e4c31e856d4fa170f402470bcfbd", "is_disabled": 0, "rental_uris": {"ios": "https://dc.lft.to/lastmile_qr_scan", "android": "https://dc.lft.to/lastmile_qr_scan"}, "is_reserved": 0}, {"lon": -77.03221233333333, "bike_id": "57cc2498d51c3851fc0ad9edc772410f", "lat": 38.91403066666667, "fusion_lon": 0.0, "fusion_lat": 0.0, "type": "electric_scooter", "name": "57cc2498d51c3851fc0ad9edc772410f", "is_disabled": 0, "rental_uris": {"ios": "https://dc.lft.to/lastmile_qr_scan", "android": "https://dc.lft.to/lastmile_qr_scan"}, "is_reserved": 0}, {"lon": -77.00973866666666, "bike_id": "e1285cf4b50c53026954d9b38c064413", "lat": 38.8948405, "fusion_lon": 0.0, "fusion_lat": 0.0, "type": "electric_scooter", "name": "e1285cf4b50c53026954d9b38c064413", "is_disabled": 0, "rental_uris": {"ios": "https://dc.lft.to/lastmile_qr_scan", "android": "https://dc.lft.to/lastmile_qr_scan"}, "is_reserved": 0}, {"lon": -77.01377733333334, "bike_id": "0e5ff51d9f48e9cc0eb0d16bc23d6562", "lat": 38.886727666666665, "fusion_lon": 0.0, "fusion_lat": 0.0, "type": "electric_scooter", "name": "0e5ff51d9f48e9cc0eb0d16bc23d6562", "is_disabled": 0, "rental_uris": {"ios": "https://dc.lft.to/lastmile_qr_scan", "android": "https://dc.lft.to/lastmile_qr_scan"}, "is_reserved": 0},