{"data": {"bikes": [{"is_disabled": 0, "rental_uris": {"ios": "https://dc.lft.to/lastmile_qr_scan", "android": "https://dc.lft.to/lastmile_qr_scan"}, "is_reserved": 0, "fusion_lon": 0.0, "lat": 38.91914333333333, "type": "electric_scooter", "name": "b3ec0434d7e6b2559f8707e193b368c3", "bike_id": "b3ec0434d7e6b2559f8707e193b368c3", "fusion_lat": 0.0, "lon": -77.03425966666667}, {"is_disabled": 0, "rental_uris": {"ios": "https://dc.lft.to/lastmile_qr_scan", "android": "https://dc.lft.to/lastmile_qr_scan"}, "is_reserved": 0, "fusion_lon": 0.0, "lat": 38.93859483333333, "type": "electric_scooter", "name": "52b205f9f0dad3c8123d318104512f1c", "bike_id": "52b205f9f0dad3c8123d318104512f1c", "fusion_lat": 0.0, "lon": -77.030446}, {"is_disabled": 0, "rental_uris": {"ios": "https://dc.lft.to/lastmile_qr_scan", "android": "https://dc.lft.to/lastmile_qr_scan"}, "is_reserved": 0, "fusion_lon": 0.0, "lat": 38.904553666666665, "type": "electric_scooter", "name": "13b4442a96fcd05428862cc155e3607b", "bike_id": "13b4442a96fcd05428862cc155e3607b", "fusion_lat": 0.0, "lon": -77.06285233333334}, {"is_disabled": 0, "rental_uris": {"ios": "https://dc.lft.to/lastmile_qr_scan", "android": "https://dc.lft.to/lastmile_qr_scan"}, "is_reserved": 0, "fusion_lon": 0.0, "lat": 38.9165595, "type": "electric_scooter", "name": "20759a30426fe9a3b3f84ef7a0167742", "bike_id": "20759a30426fe9a3b3f84ef7a0167742", "fusion_lat": 0.0, "lon": -77.04380183333333}, {"is_disabled": 0, "rental_uris": {"ios": "https://dc.lft.to/lastmile_qr_scan", "android": "https://dc.lft.to/lastmile_qr_scan"}, "is_reserved": 0, "fusion_lon": 0.0, "lat": 38.89622766666667, "type": "electric_scooter", "name": "b10289c497c9e66b97482d3e19660768", "bike_id": "b10289c497c9e66b97482d3e19660768", "fusion_lat": 0.0, "lon": -77.04473616666667}, {"is_disabled": 0, "rental_uris": {"ios": "https://dc.lft.to/lastmile_qr_scan", "android": "https://dc.lft.to/lastmile_qr_scan"}, "is_reserved": 0, "fusion_lon": 0.0, "lat": 38.90234233333334, "type": "electric_scooter", "name": "7c0a50c971e69d3722e2534cfa9e5f60", "bike_id": "7c0a50c971e69d3722e2534cfa9e5f60", "fusion_lat": 0.0, "lon": -77.061317}, {"is_disabled": 0, "rental_uris": {"ios": "https://dc.lft.to/lastmile_qr_scan", "android": "https://dc.lft.to/lastmile_qr_scan"}, "is_reserved": 0, "fusion_lon": 0.0, "lat": 38.88281216666667, "type": "electric_bike", "name": "42e25ca5fa2e9c3fca0230adfc8913ae", "bike_id": "42e25ca5fa2e9c3fca0230adfc8913ae", "fusion_lat": 0.0, "lon": -76.93236533333334}, {"is_disabled": 0, "rental_uris": {"ios": "https://dc.lft.to/lastmile_qr_scan", "android": "https://dc.lft.to/lastmile_qr_scan"}, "is_reserved": 0, "fusion_lon": 0.0, "lat": 38.906841, "type": "electric_scooter", "name": "490c135cc69e79063cfdc0540c28c039", "bike_id": "490c135cc69e79063cfdc0540c28c039", "fusion_lat": 0.0, "lon": -77.05326116666667}, {"is_disabled": 0, "rental_uris": {"ios": "https://dc.lft.to/lastmile_qr_scan", "android": "https://dc.lft.to/lastmile_qr_scan"}, "is_reserved": 0, "fusion_lon": 0.0, "lat": 38.897542333333334, "type": "electric_scooter", "name": "c63b7746920b65b505aae8faff5649d5", "bike_id": "c63b7746920b65b505aae8faff5649d5", "fusion_lat": 0.0, "lon": -77.0331325}, {"is_disabled": 0, "rental_uris": {"ios": "https://dc.lft.to/lastmile_qr_scan", "android": "https://dc.lft.to/lastmile_qr_scan"}, "is_reserved": 0, "fusion_lon": 0.0, "lat": 38.896400166666666, "type": "electric_scooter", "name": "f0b4560fe3cd4f1cf2a13fd897e589e4", "bike_id": "f0b4560fe3cd4f1cf2a13fd897e589e4", "fusion_lat": 0.0, "lon": -77.00912733333334}, {"is_disabled": 0, "rental_uris": {"ios": "https://dc.lft.to/lastmile_qr_scan", "android": "https://dc.lft.to/lastmile_qr_scan"}, "is_reserved": 0, "fusion_lon": 0.0, "lat": 38.9045545, "type": "electric_scooter", "name": "6ef3570b30c09496f0872bb6b0c872ea", "bike_id": "6ef3570b30c09496f0872bb6b0c872ea", "fusion_lat": 0.0, "lon": -77.06287766666667}, {"is_disabled": 0, "rental_uris": {"ios": "https://dc.lft.to/lastmile_qr_scan", "android": "https://dc.lft.to/lastmile_qr_scan"}, "is_reserved": 0, "fusion_lon": 0.0, "lat": 38.852190666666665, "type": "electric_bike", "name": "4a00a9489df945965363792133042746", "bike_id": "4a00a9489df945965363792133042746", "fusion_lat": 0.0, "lon": -76.9937025}, {"is_disabled": 0, "rental_uris": {"ios": "https://dc.lft.to/lastmile_qr_scan", "android": "https://dc.lft.to/lastmile_qr_scan"}, "is_reserved": 0, "fusion_lon": 0.0, "lat": 38.9481675, "type": "electric_scooter", "name": "b21760b7fe27c936a3a03d2bd41e12fe", "bike_id": "b21760b7fe27c936a3a03d2bd41e12fe", "fusion_lat": 0.0, "lon": -77.02544016666667}, {"is_disabled": 0, "rental_uris": {"ios": "https://dc.lft.to/lastmile_qr_scan", "android": "https://dc.lft.to/lastmile_qr_scan"}, "is_reserved": 0, "fusion_lon": 0.0, "lat": 38.90086066666667, "type": "electric_scooter", "name": "19f5a07596f30eeab51fd4727b5a3e17", "bike_id": "19f5a07596f30eeab51fd4727b5a3e17", "fusion_lat": 0.0, "lon": -76.98334466666667}, {"is_disabled": 0, "rental_uris": {"ios": "https://dc.lft.to/lastmile_qr_scan", "android": "https://dc.lft.to/lastmile_qr_scan"}, "is_reserved": 0, "fusion_lon": 0.0, "lat": 38.897293833333336, "type": "electric_scooter", "name": "626df8c58aa550edbe8baa95e1cfa3d5", "bike_id": "626df8c58aa550edbe8baa95e1cfa3d5", "fusion_lat": 0.0, "lon": -77.02514}, {"is_disabled": 0, "rental_uris": {"ios": "https://dc.lft.to/lastmile_qr_scan", "android": "https://dc.lft.to/lastmile_qr_scan"}, "is_reserved": 0, "fusion_lon": 0.0, "lat": 38.8579115, "type": "electric_bike", "name": "c2c9cdcd1df5bbbe06c1768fad761284", "bike_id": "c2c9cdcd1df5bbbe06c1768fad761284", "fusion_lat": 0.0, "lon": -77.0995755}, {"is_disabled": 0, "rental_uris": {"ios": "https://dc.lft.to/lastmile_qr_scan", "android": "https://dc.lft.to/lastmile_qr_scan"}, "is_reserved": 0, "fusion_lon": 0.0, "lat": 38.90161466666667, "type": "electric_scooter", "name": "3bc64ed3c7730faac4a23379b5503df4", "bike_id": "3bc64ed3c7730faac4a23379b5503df4", "fusion_lat": 0.0, "lon": -77.04874083333333}, {"is_disabled": 0, "rental_uris": {"ios": "https://dc.lft.to/lastmile_qr_scan", "android": "https://dc.lft.to/lastmile_qr_scan"}, "is_reserved": 0, "fusion_lon": 0.0, "lat": 38.955921833333335, "type": "electric_scooter", "name": "0582c4b7c5706de2071a6118b3254f12", "bike_id": "0582c4b7c5706de2071a6118b3254f12", "fusion_lat": 0.0, "lon": -77.028077}, {"is_disabled": 0, "rental_uris": {"ios": "https://dc.lft.to/lastmile_qr_scan", "android": "https://dc.lft.to/lastmile_qr_scan"}, "is_reserved": 0, "fusion_lon": 0.0, "lat": 38.95352716666667, "type": "electric_bike", "name": "b53e6e2bb80943eeef3a4f522c5fe081", "bike_id": "b53e6e2bb80943eeef3a4f522c5fe081", "fusion_lat": 0.0, "lon": -76.9808505}, {"is_disabled": 0, "rental_uris": {"ios": "https://dc.lft.to/lastmile_qr_scan", "android": "https://dc.lft.to/lastmile_qr_scan"}, "is_reserved": 0, "fusion_lon": 0.0, "lat": 38.866102, "type": "electric_bike", "name": "31bb1272b9be1980fb0dff32084952e4", "bike_id": "31bb1272b9be1980fb0dff32084952e4", "fusion_lat": 0.0, "lon": -76.9891205}, {"is_disabled": 0, "rental_uris": {"ios": "https://dc.lft.to/lastmile_qr_scan", "android": "https://dc.lft.to/lastmile_qr_scan"}, "is_reserved": 0, "fusion_lon": 0.0, "lat": 38.9111755, "type": "electric_scooter", "name": "131e91bf0095d2bffa1dac35217e40fb", "bike_id": "131e91bf0095d2bffa1dac35217e40fb", "fusion_lat": 0.0, "lon": -77.04365016666667}, {"is_disabled": 0, "rental_uris": {"ios": "https://dc.lft.to/lastmile_qr_scan", "android": "https://dc.lft.to/lastmile_qr_scan"}, "is_reserved": 0, "fusion_lon": 0.0, "lat": 38.924253, "type": "electric_scooter", "name": "64f4817b2bf887fc3ad6917e59a711f8", "bike_id": "64f4817b2bf887fc3ad6917e59a711f8", "fusion_lat": 0.0, "lon": -77.00317516666667}, {"is_disabled": 0, "rental_uris": {"ios": "https://dc.lft.to/lastmile_qr_scan", "android": "https://dc.lft.to/lastmile_qr_scan"}, "is_reserved": 0, "fusion_lon": 0.0, "lat": 38.966136166666665, "type": "electric_bike", "name": "61f4afd30430037f08d07d9189038eb4", "bike_id": "61f4afd30430037f08d07d9189038eb4", "fusion_lat": 0.0, "lon": -77.034332}, {"is_disabled": 0, "rental_uris": {"ios": "https://dc.lft.to/lastmile_qr_scan", "android": "https://dc.lft.to/lastmile_qr_scan"}, "is_reserved": 0, "fusion_lon": 0.0, "lat": 38.90261666666667, "type": "electric_scooter", "name": "2c9a891064e79e827c4ef59a447a219e", "bike_id": "2c9a891064e79e827c4ef59a447a219e", "fusion_lat": 0.0, "lon": -77.02825383333334}, {"is_disabled": 0, "rental_uris": {"ios": "https://dc.lft.to/lastmile_qr_scan", "android": "https://dc.lft.to/lastmile_qr_scan"}, "is_reserved": 0, "fusion_lon": 0.0, "lat": 38.906389, "type": "electric_scooter", "name": "b3600d286a0a5852aedc24648520b50f", "bike_id": "b3600d286a0a5852aedc24648520b50f", "fusion_lat": 0.0, "lon": -77.04870983333333}, {"is_disabled": 0, "rental_uris": {"ios": "https://dc.lft.to/lastmile_qr_scan", "android": "https://dc.lft.to/lastmile_qr_scan"}, "is_reserved": 0, "fusion_lon": 0.0, "lat": 38.85955033333333, "type": "electric_scooter", "name": "33494e31b1054001a1c82d4ced368192", "bike_id": "33494e31b1054001a1c82d4ced368192", "fusion_lat": 0.0, "lon": -76.98677066666667}, {"is_disabled": 0, "rental_uris": {"ios": "https://dc.lft.to/lastmile_qr_scan", "android": "https://dc.lft.to/lastmile_qr_scan"}, "is_reserved": 0, "fusion_lon": 0.0, "lat": 38.8747075, "type": "electric_scooter", "name": "87f713a2ff792f8b3cfa89874b36a725", "bike_id": "87f713a2ff792f8b3cfa89874b36a725", "fusion_lat": 0.0, "lon": -77.004122}, {"is_disabled": 0, "rental_uris": {"ios": "https://dc.lft.to/lastmile_qr_scan", "android": "https://dc.lft.to/lastmile_qr_scan"}, "is_reserved": 0, "fusion_lon": 0.0, "lat": 38.910131666666665, "type": "electric_scooter", "name": "5fa60825c4f9f5548ce566df9e5f420b", "bike_id": "5fa60825c4f9f5548ce566df9e5f420b", "fusion_lat": 0.0, "lon": -77.044538}, {"is_disabled": 0, "rental_uris": {"ios": "https://dc.lft.to/lastmile_qr_scan", "android": "https://dc.lft.to/lastmile_qr_scan"}, "is_reserved": 0, "fusion_lon": 0.0, "lat": 38.89682666666667, "type": "electric_scooter", "name": "7a9195eb2198831fe4bf3c966bcd7b22", "bike_id": "7a9195eb2198831fe4bf3c966bcd7b22", "fusion_lat": 0.0, "lon": -76.939077}, {"is_disabled": 0, "rental_uris": {"ios": "https://dc.lft.to/lastmile_qr_scan", "android": "https://dc.lft.to/lastmile_qr_scan"}, "is_reserved": 0, "fusion_lon": 0.0, "lat": 38.927879, "type": "electric_scooter", "name": "fc2ecd9d97b375d75d56e5e0ac2617c0", "bike_id": "fc2ecd9d97b375d75d56e5e0ac2617c0", "fusion_lat": 0.0, "lon": -77.05327466666667}, {"is_disabled": 0, "rental_uris": {"ios": "https://dc.lft.to/lastmile_qr_scan", "android": "https://dc.lft.to/lastmile_qr_scan"}, "is_reserved": 0, "fusion_lon": 0.0, "lat": 38.935190166666665, "type": "electric_scooter", "name": "e2c6ed69d7b1f690be0ec66ed22d2193", "bike_id": "e2c6ed69d7b1f690be0ec66ed22d2193", "fusion_lat": 0.0, "lon": -77.07283766666667}, {"is_disabled": 0, "rental_uris": {"ios": "https://dc.lft.to/lastmile_qr_scan", "android": "https://dc.lft.to/lastmile_qr_scan"}, "is_reserved": 0, "fusion_lon": 0.0, "lat": 38.89366716666667, "type": "electric_scooter", "name": "a2a6be9b9ad0eee140d993f8318e414e", "bike_id": "a2a6be9b9ad0eee140d993f8318e414e", "fusion_lat": 0.0, "lon": -77.04676533333334}, {"is_disabled": 0, "rental_uris": {"ios": "https://dc.lft.to/lastmile_qr_scan", "android": "https://dc.lft.to/lastmile_qr_scan"}, "is_reserved": 0, "fusion_lon": 0.0, "lat": 38.884081, "type": "electric_scooter", "name": "d4abe3670e8ed321fe2aa44ea550062b", "bike_id": "d4abe3670e8ed321fe2aa44ea550062b", "fusion_lat": 0.0, "lon": -76.99623816666667}, {"is_disabled": 0, "rental_uris": {"ios": "https://dc.lft.to/lastmile_qr_scan", "android": "https://dc.lft.to/lastmile_qr_scan"}, "is_reserved": 0, "fusion_lon": 0.0, "lat": 38.954488833333336, "type": "electric_bike", "name": "b209a6e88a4f6327e5976d100010a034", "bike_id": "b209a6e88a4f6327e5976d100010a034", "fusion_lat": 0.0, "lon": -76.9876935}, {"is_disabled": 0, "rental_uris": {"ios": "https://dc.lft.to/lastmile_qr_scan", "android": "https://dc.lft.to/lastmile_qr_scan"}, "is_reserved": 0, "fusion_lon": 0.0, "lat": 38.89911466666667, "type": "electric_scooter", "name": "9ecedbb01a227387a25cc44f229cd2b7", "bike_id": "9ecedbb01a227387a25cc44f229cd2b7", "fusion_lat": 0.0, "lon": -77.0393355}, {"is_disabled": 0, "rental_uris": {"ios": "https://dc.lft.to/lastmile_qr_scan", "android": "https://dc.lft.to/lastmile_qr_scan"}, "is_reserved": 0, "fusion_lon": 0.0, "lat": 38.89593816666667, "type": "electric_scooter", "name": "a78b51607fd45a19265d18201cf9b0f9", "bike_id": "a78b51607fd45a19265d18201cf9b0f9", "fusion_lat": 0.0, "lon": -76.9831915}, {"is_disabled": 0, "rental_uris": {"ios": "https://dc.lft.to/lastmile_qr_scan", "android": "https://dc.lft.to/lastmile_qr_scan"}, "is_reserved": 0, "fusion_lon": 0.0, "lat": 38.916323, "type": "electric_scooter", "name": "9672fe6e5190438f8bd6c51912bb66b4", "bike_id": "9672fe6e5190438f8bd6c51912bb66b4", "fusion_lat": 0.0, "lon": -77.03136766666667}, {"is_disabled": 0, "rental_uris": {"ios": "https://dc.lft.to/lastmile_qr_scan", "android": "https://dc.lft.to/lastmile_qr_scan"}, "is_reserved": 0, "fusion_lon": 0.0, "lat": 38.915751666666665, "type": "electric_scooter", "name": "e48d2a2aaaf1f9dbad1813d9fde9cfa4", "bike_id": "e48d2a2aaaf1f9dbad1813d9fde9cfa4", "fusion_lat": 0.0, "lon": -77.0503605}, {"is_disabled": 0, "rental_uris": {"ios": "https://dc.lft.to/lastmile_qr_scan", "android": "https://dc.lft.to/lastmile_qr_scan"}, "is_reserved": 0, "fusion_lon": 0.0, "lat": 38.895496666666666, "type": "electric_scooter", "name": "b6cb9113a167caeda4192bd4356f182f", "bike_id": "b6cb9113a167caeda4192bd4356f182f", "fusion_lat": 0.0, "lon": -77.00914133333333}, {"is_disabled": 0, "rental_uris": {"ios": "https://dc.lft.to/lastmile_qr_scan", "android": "https://dc.lft.to/lastmile_qr_scan"}, "is_reserved": 0, "fusion_lon": 0.0, "lat": 38.8865355, "type": "electric_scooter", "name": "842f2c796adbe4cb33f070df6a4039e1", "bike_id": "842f2c796adbe4cb33f070df6a4039e1", "fusion_lat": 0.0, "lon": -77.02817366666666}, {"is_disabled": 0, "rental_uris": {"ios": "https://dc.lft.to/lastmile_qr_scan", "android": "https://dc.lft.to/lastmile_qr_scan"}, "is_reserved": 0, "fusion_lon": 0.0, "lat": 38.868851, "type": "electric_scooter", "name": "7f0d083fc817ba666b6c4a9841c9558e", "bike_id": "7f0d083fc817ba666b6c4a9841c9558e", "fusion_lat": 0.0, "lon": -76.990017}, {"is_disabled": 0, "rental_uris": {"ios": "https://dc.lft.to/lastmile_qr_scan", "android": "https://dc.lft.to/lastmile_qr_scan"}, "is_reserved": 0, "fusion_lon": 0.0, "lat": 38.89636483333334, "type": "electric_scooter", "name": "2e6738bb017893cd994e3f6214a3206e", "bike_id": "2e6738bb017893cd994e3f6214a3206e", "fusion_lat": 0.0, "lon": -76.92802183333333}, {"is_disabled": 0, "rental_uris": {"ios": "https://dc.lft.to/lastmile_qr_scan", "android": "https://dc.lft.to/lastmile_qr_scan"}, "is_reserved": 0, "fusion_lon": 0.0, "lat": 38.91629966666667, "type": "electric_scooter", "name": "dc0c76d344bdef660607b84f14bf28ef", "bike_id": "dc0c76d344bdef660607b84f14bf28ef", "fusion_lat": 0.0, "lon": -77.04812516666667}, {"is_disabled": 0, "rental_uris": {"ios": "https://dc.lft.to/lastmile_qr_scan", "android": "https://dc.lft.to/lastmile_qr_scan"}, "is_reserved": 0, "fusion_lon": 0.0, "lat": 38.88971433333333, "type": "electric_scooter", "name": "ee847e35dca33a0deb8d76df9f9a7683", "bike_id": "ee847e35dca33a0deb8d76df9f9a7683", "fusion_lat": 0.0, "lon": -76.981764}, {"is_disabled": 0, "rental_uris": {"ios": "https://dc.lft.to/lastmile_qr_scan", "android": "https://dc.lft.to/lastmile_qr_scan"}, "is_reserved": 0, "fusion_lon": 0.0, "lat": 38.9164755, "type": "electric_scooter", "name": "04d69c2f8df5712453e557e3db0c8e01", "bike_id": "04d69c2f8df5712453e557e3db0c8e01", "fusion_lat": 0.0, "lon": -77.03226433333333}, {"is_disabled": 0, "rental_uris": {"ios": "https://dc.lft.to/lastmile_qr_scan", "android": "https://dc.lft.to/lastmile_qr_scan"}, "is_reserved": 0, "fusion_lon": 0.0, "lat": 38.94292933333333, "type": "electric_bike", "name": "a24cb3aa386c6c91bfaffed873c9baeb", "bike_id": "a24cb3aa386c6c91bfaffed873c9baeb", "fusion_lat": 0.0, "lon": -77.00299016666666}, {"is_disabled": 0, "rental_uris": {"ios": "https://dc.lft.to/lastmile_qr_scan", "android": "https://dc.lft.to/lastmile_qr_scan"}, "is_reserved": 0, "fusion_lon": 0.0, "lat": 38.949611, "type": "electric_scooter", "name": "cee74136751fc15d43259317caeced51", "bike_id": "cee74136751fc15d43259317caeced51", "fusion_lat": 0.0, "lon": -77.0665475}, {"is_disabled": 0, "rental_uris": {"ios": "https://dc.lft.to/lastmile_qr_scan", "android": "https://dc.lft.to/lastmile_qr_scan"}, "is_reserved": 0, "fusion_lon": 0.0, "lat": 38.89882716666666, "type": "electric_scooter", "name": "8bbbfebbe5a04d922ad57fe4a4303321", "bike_id": "8bbbfebbe5a04d922ad57fe4a4303321", "fusion_lat": 0.0, "lon": -76.98683750000001}, {"is_disabled": 0, "rental_uris": {"ios": "https://dc.lft.to/lastmile_qr_scan", "android": "https://dc.lft.to/lastmile_qr_scan"}, "is_reserved": 0, "fusion_lon": 0.0, "lat": 38.9209875, "type": "electric_scooter", "name": "9c02e6a669f7b1bbc6cd42fbcde6e5ba", "bike_id": "9c02e6a669f7b1bbc6cd42fbcde6e5ba", "fusion_lat": 0.0, "lon": -77.03171983333333}, {"is_disabled": 0, "rental_uris": {"ios": "https://dc.lft.to/lastmile_qr_scan", "android": "https://dc.lft.to/lastmile_qr_scan"}, "is_reserved": 0, "fusion_lon": 0.0, "lat": 38.91556333333333, "type": "electric_scooter", "name": "cf636526cd429c3829453b857ffe3c8e", "bike_id": "cf636526cd429c3829453b857ffe3c8e", "fusion_lat": 0.0, "lon": -77.0394435}, {"is_disabled": 0, "rental_uris": {"ios": "https://dc.lft.to/lastmile_qr_scan", "android": "https://dc.lft.to/lastmile_qr_scan"}, "is_reserved": 0, "fusion_lon": 0.0, "lat": 38.90247183333334, "type": "electric_scooter", "name": "50a9fd856735475db54d2457000c78a9", "bike_id": "50a9fd856735475db54d2457000c78a9", "fusion_lat": 0.0, "lon": -77.037471}, {"is_disabled": 0, "rental_uris": {"ios": "https://dc.lft.to/lastmile_qr_scan", "android": "https://dc.lft.to/lastmile_qr_scan"}, "is_reserved": 0, "fusion_lon": 0.0, "lat": 38.905472333333336, "type": "electric_scooter", "name": "e249c9e11da652501f147c1c4174ffcb", "bike_id": "e249c9e11da652501f147c1c4174ffcb", "fusion_lat": 0.0, "lon": -77.04483183333333}, {"is_disabled": 0, "rental_uris": {"ios": "https://dc.lft.to/lastmile_qr_scan", "android": "https://dc.lft.to/lastmile_qr_scan"}, "is_reserved": 0, "fusion_lon": 0.0, "lat": 38.89971116666667, "type": "electric_scooter", "name": "a15db18f82c80d883cfa839d78798d62", "bike_id": "a15db18f82c80d883cfa839d78798d62", "fusion_lat": 0.0, "lon": -77.03204566666666}, {"is_disabled": 0, "rental_uris": {"ios": "https://dc.lft.to/lastmile_qr_scan", "android": "https://dc.lft.to/lastmile_qr_scan"}, "is_reserved": 0, "fusion_lon": 0.0, "lat": 38.923616833333334, "type": "electric_scooter", "name": "3c9c43089d3cdccf5f32cbb06d74981d", "bike_id": "3c9c43089d3cdccf5f32cbb06d74981d", "fusion_lat": 0.0, "lon": -77.050321}, {"is_disabled": 0, "rental_uris": {"ios": "https://dc.lft.to/lastmile_qr_scan", "android": "https://dc.lft.to/lastmile_qr_scan"}, "is_reserved": 0, "fusion_lon": 0.0, "lat": 38.905721, "type": "electric_scooter", "name": "7e16c0ce8c7c2854820ac297cb8f3b48", "bike_id": "7e16c0ce8c7c2854820ac297cb8f3b48", "fusion_lat": 0.0, "lon": -77.00861733333333}, {"is_disabled": 0, "rental_uris": {"ios": "https://dc.lft.to/lastmile_qr_scan", "android": "https://dc.lft.to/lastmile_qr_scan"}, "is_reserved": 0, "fusion_lon": 0.0, "lat": 38.9140685, "type": "electric_scooter", "name": "93673fb2f3a62fc549cbb149e043cf80", "bike_id": "93673fb2f3a62fc549cbb149e043cf80", "fusion_lat": 0.0, "lon": -77.02251616666666}, {"is_disabled": 0, "rental_uris": {"ios": "https://dc.lft.to/lastmile_qr_scan", "android": "https://dc.lft.to/lastmile_qr_scan"}, "is_reserved": 0, "fusion_lon": 0.0, "lat": 38.90440666666667, "type": "electric_scooter", "name": "692cc7cd9140e4a6ae57b1776f2ce373", "bike_id": "692cc7cd9140e4a6ae57b1776f2ce373", "fusion_lat": 0.0, "lon": -77.06267883333334}, {"is_disabled": 0, "rental_uris": {"ios": "https://dc.lft.to/lastmile_qr_scan", "android": "https://dc.lft.to/lastmile_qr_scan"}, "is_reserved": 0, "fusion_lon": 0.0, "lat": 38.93699983333333, "type": "electric_scooter", "name": "cad1b7a64e2a6711af0ff6b9cf83723d", "bike_id": "cad1b7a64e2a6711af0ff6b9cf83723d", "fusion_lat": 0.0, "lon": -77.02399283333334}, {"is_disabled": 0, "rental_uris": {"ios": "https://dc.lft.to/lastmile_qr_scan", "android": "https://dc.lft.to/lastmile_qr_scan"}, "is_reserved": 0, "fusion_lon": 0.0, "lat": 38.90560266666667, "type": "electric_bike", "name": "381c0fed4156ccdc9481068c440b8202", "bike_id": "381c0fed4156ccdc9481068c440b8202", "fusion_lat": 0.0, "lon": -77.05710933333333}, {"is_disabled": 0, "rental_uris": {"ios": "https://dc.lft.to/lastmile_qr_scan", "android": "https://dc.lft.to/lastmile_qr_scan"}, "is_reserved": 0, "fusion_lon": 0.0, "lat": 38.91820166666667, "type": "electric_bike", "name": "e8cef481e9cba842471eee869e6f0f6a", "bike_id": "e8cef481e9cba842471eee869e6f0f6a", "fusion_lat": 0.0, "lon": -76.99835983333334}, {"is_disabled": 0, "rental_uris": {"ios": "https://dc.lft.to/lastmile_qr_scan", "android": "https://dc.lft.to/lastmile_qr_scan"}, "is_reserved": 0, "fusion_lon": 0.0, "lat": 38.923462666666666, "type": "electric_scooter", "name": "6734a96f816bd5e8adf878f148fca8b4", "bike_id": "6734a96f816bd5e8adf878f148fca8b4", "fusion_lat": 0.0, "lon": -77.0434875}, {"is_disabled": 0, "rental_uris": {"ios": "https://dc.lft.to/lastmile_qr_scan", "android": "https://dc.lft.to/lastmile_qr_scan"}, "is_reserved": 0, "fusion_lon": 0.0, "lat": 38.90560083333333, "type": "electric_scooter", "name": "8d256d2fb64b74121b117bd5f6e80086", "bike_id": "8d256d2fb64b74121b117bd5f6e80086", "fusion_lat": 0.0, "lon": -77.00568766666666}, {"is_disabled": 0, "rental_uris": {"ios": "https://dc.lft.to/lastmile_qr_scan", "android": "https://dc.lft.to/lastmile_qr_scan"}, "is_reserved": 0, "fusion_lon": 0.0, "lat": 38.892125166666666, "type": "electric_scooter", "name": "83083b47e16cbfb1e771b1a31d507bb7", "bike_id": "83083b47e16cbfb1e771b1a31d507bb7", "fusion_lat": 0.0, "lon": -77.03161433333334}, {"is_disabled": 0, "rental_uris": {"ios": "https://dc.lft.to/lastmile_qr_scan", "android": "https://dc.lft.to/lastmile_qr_scan"}, "is_reserved": 0, "fusion_lon": 0.0, "lat": 38.92822016666667, "type": "electric_scooter", "name": "a23d5966ba6d478429e77d81cbadc37c", "bike_id": "a23d5966ba6d478429e77d81cbadc37c", "fusion_lat": 0.0, "lon": -77.037931}, {"is_disabled": 0, "rental_uris": {"ios": "https://dc.lft.to/lastmile_qr_scan", "android": "https://dc.lft.to/lastmile_qr_scan"}, "is_reserved": 0, "fusion_lon": 0.0, "lat": 38.899694333333336, "type": "electric_scooter", "name": "d7b7af70a3c7f929bd1dc0bc71922939", "bike_id": "d7b7af70a3c7f929bd1dc0bc71922939", "fusion_lat": 0.0, "lon": -77.01627383333333}, {"is_disabled": 0, "rental_uris": {"ios": "https://dc.lft.to/lastmile_qr_scan", "android": "https://dc.lft.to/lastmile_qr_scan"}, "is_reserved": 0, "fusion_lon": 0.0, "lat": 38.911838333333336, "type": "electric_scooter", "name": "02f4a12c9c1c10ce3ab70836415da518", "bike_id": "02f4a12c9c1c10ce3ab70836415da518", "fusion_lat": 0.0, "lon": -77.04280533333333}, {"is_disabled": 0, "rental_uris": {"ios": "https://dc.lft.to/lastmile_qr_scan", "android": "https://dc.lft.to/lastmile_qr_scan"}, "is_reserved": 0, "fusion_lon": 0.0, "lat": 38.93183333333333, "type": "electric_scooter", "name": "76f0faa34d6d00e97296af8444e2bc8c", "bike_id": "76f0faa34d6d00e97296af8444e2bc8c", "fusion_lat": 0.0, "lon": -77.02808866666666}, {"is_disabled": 0, "rental_uris": {"ios": "https://dc.lft.to/lastmile_qr_scan", "android": "https://dc.lft.to/lastmile_qr_scan"}, "is_reserved": 0, "fusion_lon": 0.0, "lat": 38.892630833333335, "type": "electric_scooter", "name": "52665444270f171a22ee21b32298f62d", "bike_id": "52665444270f171a22ee21b32298f62d", "fusion_lat": 0.0, "lon": -77.00345333333334}, {"is_disabled": 0, "rental_uris": {"ios": "https://dc.lft.to/lastmile_qr_scan", "android": "https://dc.lft.to/lastmile_qr_scan"}, "is_reserved": 0, "fusion_lon": 0.0, "lat": 38.907461833333336, "type": "electric_scooter", "name": "eb0de55a1f90eab479ad2aedc04b588f", "bike_id": "eb0de55a1f90eab479ad2aedc04b588f", "fusion_lat": 0.0, "lon": -77.00766}, {"is_disabled": 0, "rental_uris": {"ios": "https://dc.lft.to/lastmile_qr_scan", "android": "https://dc.lft.to/lastmile_qr_scan"}, "is_reserved": 0, "fusion_lon": 0.0, "lat": 38.95632033333333, "type": "electric_scooter", "name": "18538d318a8a3d38c68fd9b4275d6839", "bike_id": "18538d318a8a3d38c68fd9b4275d6839", "fusion_lat": 0.0, "lon": -77.0243525}, {"is_disabled": 0, "rental_uris": {"ios": "https://dc.lft.to/lastmile_qr_scan", "android": "https://dc.lft.to/lastmile_qr_scan"}, "is_reserved": 0, "fusion_lon": 0.0, "lat": 38.916780333333335, "type": "electric_scooter", "name": "c1befa0cff632565c8dff7b9a1c34b92", "bike_id": "c1befa0cff632565c8dff7b9a1c34b92", "fusion_lat": 0.0, "lon": -77.029743}, {"is_disabled": 0, "rental_uris": {"ios": "https://dc.lft.to/lastmile_qr_scan", "android": "https://dc.lft.to/lastmile_qr_scan"}, "is_reserved": 0, "fusion_lon": 0.0, "lat": 38.927318666666665, "type": "electric_scooter", "name": "eb82f1b5478d710bdbff48981e2462fa", "bike_id": "eb82f1b5478d710bdbff48981e2462fa", "fusion_lat": 0.0, "lon": -77.01462833333333}, {"is_disabled": 0, "rental_uris": {"ios": "https://dc.lft.to/lastmile_qr_scan", "android": "https://dc.lft.to/lastmile_qr_scan"}, "is_reserved": 0, "fusion_lon": 0.0, "lat": 38.92929433333333, "type": "electric_scooter", "name": "b4e53f6b47ade2d0cfe2c5080fe21833", "bike_id": "b4e53f6b47ade2d0cfe2c5080fe21833", "fusion_lat": 0.0, "lon": -77.00671616666666}, {"is_disabled": 0, "rental_uris": {"ios": "https://dc.lft.to/lastmile_qr_scan", "android": "https://dc.lft.to/lastmile_qr_scan"}, "is_reserved": 0, "fusion_lon": 0.0, "lat": 38.89915283333333, "type": "electric_scooter", "name": "34e65ba031318865108a19b709f1d1bd", "bike_id": "34e65ba031318865108a19b709f1d1bd", "fusion_lat": 0.0, "lon": -77.03940033333333}, {"is_disabled": 0, "rental_uris": {"ios": "https://dc.lft.to/lastmile_qr_scan", "android": "https://dc.lft.to/lastmile_qr_scan"}, "is_reserved": 0, "fusion_lon": 0.0, "lat": 38.89896866666667, "type": "electric_scooter", "name": "a86b7e4f876741b1775c5dd3ab29e951", "bike_id": "a86b7e4f876741b1775c5dd3ab29e951", "fusion_lat": 0.0, "lon": -77.04878083333334}, {"is_disabled": 0, "rental_uris": {"ios": "https://dc.lft.to/lastmile_qr_scan", "android": "https://dc.lft.to/lastmile_qr_scan"}, "is_reserved": 0, "fusion_lon": 0.0, "lat": 38.920745, "type": "electric_scooter", "name": "002d8c1a7816039e23fc25d2c419741a", "bike_id": "002d8c1a7816039e23fc25d2c419741a", "fusion_lat": 0.0, "lon": -77.004562}, {"is_disabled": 0, "rental_uris": {"ios": "https://dc.lft.to/lastmile_qr_scan", "android": "https://dc.lft.to/lastmile_qr_scan"}, "is_reserved": 0, "fusion_lon": 0.0, "lat": 38.917329, "type": "electric_scooter", "name": "ba89751118d91cb2f6fb39b99bd7d06e", "bike_id": "ba89751118d91cb2f6fb39b99bd7d06e", "fusion_lat": 0.0, "lon": -77.02396083333333}, {"is_disabled": 0, "rental_uris": {"ios": "https://dc.lft.to/lastmile_qr_scan", "android": "https://dc.lft.to/lastmile_qr_scan"}, "is_reserved": 0, "fusion_lon": 0.0, "lat": 38.895094, "type": "electric_scooter", "name": "b0d491cf20ecdd129c9ad3b17e3ad088", "bike_id": "b0d491cf20ecdd129c9ad3b17e3ad088", "fusion_lat": 0.0, "lon": -76.99503533333333}, {"is_disabled": 0, "rental_uris": {"ios": "https://dc.lft.to/lastmile_qr_scan", "android": "https://dc.lft.to/lastmile_qr_scan"}, "is_reserved": 0, "fusion_lon": 0.0, "lat": 38.906659, "type": "electric_scooter", "name": "9b8d31b288c416aca14367b6d3e7a740", "bike_id": "9b8d31b288c416aca14367b6d3e7a740", "fusion_lat": 0.0, "lon": -77.02698833333334}, {"is_disabled": 0, "rental_uris": {"ios": "https://dc.lft.to/lastmile_qr_scan", "android": "https://dc.lft.to/lastmile_qr_scan"}, "is_reserved": 0, "fusion_lon": 0.0, "lat": 38.90485666666667, "type": "electric_scooter", "name": "f543dacba1f0ab367c00086946d7612b", "bike_id": "f543dacba1f0ab367c00086946d7612b", "fusion_lat": 0.0, "lon": -77.0297305}, {"is_disabled": 0, "rental_uris": {"ios": "https://dc.lft.to/lastmile_qr_scan", "android": "https://dc.lft.to/lastmile_qr_scan"}, "is_reserved": 0, "fusion_lon": 0.0, "lat": 38.8992675, "type": "electric_scooter", "name": "5b2b03000fbb49dcddc551146d94ad9c", "bike_id": "5b2b03000fbb49dcddc551146d94ad9c", "fusion_lat": 0.0, "lon": -77.024093}, {"is_disabled": 0, "rental_uris": {"ios": "https://dc.lft.to/lastmile_qr_scan", "android": "https://dc.lft.to/lastmile_qr_scan"}, "is_reserved": 0, "fusion_lon": 0.0, "lat": 38.915718, "type": "electric_scooter", "name": "6054b9f0486b6f56b7eebe6a6adb1f28", "bike_id": "6054b9f0486b6f56b7eebe6a6adb1f28", "fusion_lat": 0.0, "lon": -77.04635683333333}, {"is_disabled": 0, "rental_uris": {"ios": "https://dc.lft.to/lastmile_qr_scan", "android": "https://dc.lft.to/lastmile_qr_scan"}, "is_reserved": 0, "fusion_lon": 0.0, "lat": 38.90060866666666, "type": "electric_scooter", "name": "3751fd707c1f592741d1fd28be5e5284", "bike_id": "3751fd707c1f592741d1fd28be5e5284", "fusion_lat": 0.0, "lon": -77.0482835}, {"is_disabled": 0, "rental_uris": {"ios": "https://dc.lft.to/lastmile_qr_scan", "android": "https://dc.lft.to/lastmile_qr_scan"}, "is_reserved": 0, "fusion_lon": 0.0, "lat": 38.89175733333333, "type": "electric_scooter", "name": "7ce3125e6c415f2b506d69daee2aee03", "bike_id": "7ce3125e6c415f2b506d69daee2aee03", "fusion_lat": 0.0, "lon": -77.01578966666666}, {"is_disabled": 0, "rental_uris": {"ios": "https://dc.lft.to/lastmile_qr_scan", "android": "https://dc.lft.to/lastmile_qr_scan"}, "is_reserved": 0, "fusion_lon": 0.0, "lat": 38.92102233333333, "type": "electric_scooter", "name": "e17c0a8929986a4d24759a9d5107babb", "bike_id": "e17c0a8929986a4d24759a9d5107babb", "fusion_lat": 0.0, "lon": -77.02206466666667}, {"is_disabled": 0, "rental_uris": {"ios": "https://dc.lft.to/lastmile_qr_scan", "android": "https://dc.lft.to/lastmile_qr_scan"}, "is_reserved": 0, "fusion_lon": 0.0, "lat": 38.90502583333333, "type": "electric_scooter", "name": "83992914d6d202c03b1f6d7a50108f4d", "bike_id": "83992914d6d202c03b1f6d7a50108f4d", "fusion_lat": 0.0, "lon": -77.03645833333333}, {"is_disabled": 0, "rental_uris": {"ios": "https://dc.lft.to/lastmile_qr_scan", "android": "https://dc.lft.to/lastmile_qr_scan"}, "is_reserved": 0, "fusion_lon": 0.0, "lat": 38.89721516666667, "type": "electric_scooter", "name": "17c8472918a3dd0c0b404263d071354e", "bike_id": "17c8472918a3dd0c0b404263d071354e", "fusion_lat": 0.0, "lon": -77.04986133333334}, {"is_disabled": 0, "rental_uris": {"ios": "https://dc.lft.to/lastmile_qr_scan", "android": "https://dc.lft.to/lastmile_qr_scan"}, "is_reserved": 0, "fusion_lon": 0.0, "lat": 38.8717855, "type": "electric_bike", "name": "5e2c72ff9e4429446ea7ae53996dbcd7", "bike_id": "5e2c72ff9e4429446ea7ae53996dbcd7", "fusion_lat": 0.0, "lon": -77.00609066666667}, {"is_disabled": 0, "rental_uris": {"ios": "https://dc.lft.to/lastmile_qr_scan", "android": "https://dc.lft.to/lastmile_qr_scan"}, "is_reserved": 0, "fusion_lon": 0.0, "lat": 38.8706485, "type": "electric_bike", "name": "ae5b304c1b480351c229d7dc135b8278", "bike_id": "ae5b304c1b480351c229d7dc135b8278", "fusion_lat": 0.0, "lon": -77.1104255}, {"is_disabled": 0, "rental_uris": {"ios": "https://dc.lft.to/lastmile_qr_scan", "android": "https://dc.lft.to/lastmile_qr_scan"}, "is_reserved": 0, "fusion_lon": 0.0, "lat": 38.91417916666666, "type": "electric_scooter", "name": "aba8c9555153af239d5e82e3bbed9f9d", "bike_id": "aba8c9555153af239d5e82e3bbed9f9d", "fusion_lat": 0.0, "lon": -77.01800666666666}, {"is_disabled": 0, "rental_uris": {"ios": "https://dc.lft.to/lastmile_qr_scan", "android": "https://dc.lft.to/lastmile_qr_scan"}, "is_reserved": 0, "fusion_lon": 0.0, "lat": 38.91968116666666, "type": "electric_scooter", "name": "dc96d312145e0e27bbcbbee52af36821", "bike_id": "dc96d312145e0e27bbcbbee52af36821", "fusion_lat": 0.0, "lon": -77.04633583333333}, {"is_disabled": 0, "rental_uris": {"ios": "https://dc.lft.to/lastmile_qr_scan", "android": "https://dc.lft.to/lastmile_qr_scan"}, "is_reserved": 0, "fusion_lon": 0.0, "lat": 38.901311166666666, "type": "electric_scooter", "name": "5b2cfc8fce0a113ff5df8d8eef8cf926", "bike_id": "5b2cfc8fce0a113ff5df8d8eef8cf926", "fusion_lat": 0.0, "lon": -77.040157}, {"is_disabled": 0, "rental_uris": {"ios": "https://dc.lft.to/lastmile_qr_scan", "android": "https://dc.lft.to/lastmile_qr_scan"}, "is_reserved": 0, "fusion_lon": 0.0, "lat": 38.93303, "type": "electric_scooter", "name": "d99e69c07c7565ec601b380d6801ac62", "bike_id": "d99e69c07c7565ec601b380d6801ac62", "fusion_lat": 0.0, "lon": -77.030817}, {"is_disabled": 0, "rental_uris": {"ios": "https://dc.lft.to/lastmile_qr_scan", "android": "https://dc.lft.to/lastmile_qr_scan"}, "is_reserved": 0, "fusion_lon": 0.0, "lat": 38.90735633333333, "type": "electric_scooter", "name": "f7e304bac19f6bba0d9f980f86cd3438", "bike_id": "f7e304bac19f6bba0d9f980f86cd3438", "fusion_lat": 0.0, "lon": -77.02797516666666}, {"is_disabled": 0, "rental_uris": {"ios": "https://dc.lft.to/lastmile_qr_scan", "android": "https://dc.lft.to/lastmile_qr_scan"}, "is_reserved": 0, "fusion_lon": 0.0, "lat": 38.9215915, "type": "electric_scooter", "name": "43247a38c1f751e2c8a2fea944e802e0", "bike_id": "43247a38c1f751e2c8a2fea944e802e0", "fusion_lat": 0.0, "lon": -77.051352}, {"is_disabled": 0, "rental_uris": {"ios": "https://dc.lft.to/lastmile_qr_scan", "android": "https://dc.lft.to/lastmile_qr_scan"}, "is_reserved": 0, "fusion_lon": 0.0, "lat": 38.874655, "type": "electric_scooter", "name": "591b55181637304b037e757f70591e2e", "bike_id": "591b55181637304b037e757f70591e2e", "fusion_lat": 0.0, "lon": -77.0050825}, {"is_disabled": 0, "rental_uris": {"ios": "https://dc.lft.to/lastmile_qr_scan", "android": "https://dc.lft.to/lastmile_qr_scan"}, "is_reserved": 0, "fusion_lon": 0.0, "lat": 38.96411583333333, "type": "electric_scooter", "name": "4d42248b5d88591c38b2eb8623ae25d2", "bike_id": "4d42248b5d88591c38b2eb8623ae25d2", "fusion_lat": 0.0, "lon": -77.03287016666667}, {"is_disabled": 0, "rental_uris": {"ios": "https://dc.lft.to/lastmile_qr_scan", "android": "https://dc.lft.to/lastmile_qr_scan"}, "is_reserved": 0, "fusion_lon": 0.0, "lat": 38.9070175, "type": "electric_scooter", "name": "360fd10f63ed3d9be9dbf086a0496680", "bike_id": "360fd10f63ed3d9be9dbf086a0496680", "fusion_lat": 0.0, "lon": -76.98699316666666}, {"is_disabled": 0, "rental_uris": {"ios": "https://dc.lft.to/lastmile_qr_scan", "android": "https://dc.lft.to/lastmile_qr_scan"}, "is_reserved": 0, "fusion_lon": 0.0, "lat": 38.894529666666664, "type": "electric_scooter", "name": "3e1d91f8970ea2a9de142edad2d77a0a", "bike_id": "3e1d91f8970ea2a9de142edad2d77a0a", "fusion_lat": 0.0, "lon": -77.0153205}, {"is_disabled": 0, "rental_uris": {"ios": "https://dc.lft.to/lastmile_qr_scan", "android": "https://dc.lft.to/lastmile_qr_scan"}, "is_reserved": 0, "fusion_lon": 0.0, "lat": 38.922037333333336, "type": "electric_bike", "name": "bb7d8f75eb4a4c40256250856b4963ae", "bike_id": "bb7d8f75eb4a4c40256250856b4963ae", "fusion_lat": 0.0, "lon": -77.08195966666666}, {"is_disabled": 0, "rental_uris": {"ios": "https://dc.lft.to/lastmile_qr_scan", "android": "https://dc.lft.to/lastmile_qr_scan"}, "is_reserved": 0, "fusion_lon": 0.0, "lat": 38.9267195, "type": "electric_scooter", "name": "1c19624a96d4e6b58d6f57841564b769", "bike_id": "1c19624a96d4e6b58d6f57841564b769", "fusion_lat": 0.0, "lon": -77.014686}, {"is_disabled": 0, "rental_uris": {"ios": "https://dc.lft.to/lastmile_qr_scan", "android": "https://dc.lft.to/lastmile_qr_scan"}, "is_reserved": 0, "fusion_lon": 0.0, "lat": 38.87169633333333, "type": "electric_scooter", "name": "9e96fe0fd8abc792f46f3e0a45af473a", "bike_id": "9e96fe0fd8abc792f46f3e0a45af473a", "fusion_lat": 0.0, "lon": -77.00621616666666}, {"is_disabled": 0, "rental_uris": {"ios": "https://dc.lft.to/lastmile_qr_scan", "android": "https://dc.lft.to/lastmile_qr_scan"}, "is_reserved": 0, "fusion_lon": 0.0, "lat": 38.94826033333333, "type": "electric_scooter", "name": "a7c2606e5b7830fd55842f44490acbd9", "bike_id": "a7c2606e5b7830fd55842f44490acbd9", "fusion_lat": 0.0, "lon": -77.07881}, {"is_disabled": 0, "rental_uris": {"ios": "https://dc.lft.to/lastmile_qr_scan", "android": "https://dc.lft.to/lastmile_qr_scan"}, "is_reserved": 0, "fusion_lon": 0.0, "lat": 38.86015666666667, "type": "electric_scooter", "name": "6b6abf77b771d2b97a8e66ae76e26ce6", "bike_id": "6b6abf77b771d2b97a8e66ae76e26ce6", "fusion_lat": 0.0, "lon": -76.97001016666667}, {"is_disabled": 0, "rental_uris": {"ios": "https://dc.lft.to/lastmile_qr_scan", "android": "https://dc.lft.to/lastmile_qr_scan"}, "is_reserved": 0, "fusion_lon": 0.0, "lat": 38.89237816666667, "type": "electric_bike", "name": "7d39fe67c87cfb7b09b4b7dc1c8d6698", "bike_id": "7d39fe67c87cfb7b09b4b7dc1c8d6698", "fusion_lat": 0.0, "lon": -77.039584}, {"is_disabled": 0, "rental_uris": {"ios": "https://dc.lft.to/lastmile_qr_scan", "android": "https://dc.lft.to/lastmile_qr_scan"}, "is_reserved": 0, "fusion_lon": 0.0, "lat": 38.9527965, "type": "electric_scooter", "name": "7be248f350a07861def71f14bba706d2", "bike_id": "7be248f350a07861def71f14bba706d2", "fusion_lat": 0.0, "lon": -77.06856733333333}, {"is_disabled": 0, "rental_uris": {"ios": "https://dc.lft.to/lastmile_qr_scan", "android": "https://dc.lft.to/lastmile_qr_scan"}, "is_reserved": 0, "fusion_lon": 0.0, "lat": 38.896090666666666, "type": "electric_scooter", "name": "aea4cd839c3ccc05a37f4da3202a8701", "bike_id": "aea4cd839c3ccc05a37f4da3202a8701", "fusion_lat": 0.0, "lon": -77.04795366666667}, {"is_disabled": 0, "rental_uris": {"ios": "https://dc.lft.to/lastmile_qr_scan", "android": "https://dc.lft.to/lastmile_qr_scan"}, "is_reserved": 0, "fusion_lon": 0.0, "lat": 38.89701633333333, "type": "electric_scooter", "name": "1fd7a79f0f6fed372038266765612f4e", "bike_id": "1fd7a79f0f6fed372038266765612f4e", "fusion_lat": 0.0, "lon": -77.04660716666666}, {"is_disabled": 0, "rental_uris": {"ios": "https://dc.lft.to/lastmile_qr_scan", "android": "https://dc.lft.to/lastmile_qr_scan"}, "is_reserved": 0, "fusion_lon": 0.0, "lat": 38.96043683333333, "type": "electric_scooter", "name": "66e7a446dc26ea762518d6ce26e67161", "bike_id": "66e7a446dc26ea762518d6ce26e67161", "fusion_lat": 0.0, "lon": -77.00505433333333}, {"is_disabled": 0, "rental_uris": {"ios": "https://dc.lft.to/lastmile_qr_scan", "android": "https://dc.lft.to/lastmile_qr_scan"}, "is_reserved": 0, "fusion_lon": 0.0, "lat": 38.89868283333333, "type": "electric_scooter", "name": "cbe973a023f3eb0575671521d30482e0", "bike_id": "cbe973a023f3eb0575671521d30482e0", "fusion_lat": 0.0, "lon": -77.02814433333333}, {"is_disabled": 0, "rental_uris": {"ios": "https://dc.lft.to/lastmile_qr_scan", "android": "https://dc.lft.to/lastmile_qr_scan"}, "is_reserved": 0, "fusion_lon": 0.0, "lat": 38.9021705, "type": "electric_scooter", "name": "f1f3e43d46aae8f20e23ac7e7e9d4587", "bike_id": "f1f3e43d46aae8f20e23ac7e7e9d4587", "fusion_lat": 0.0, "lon": -77.016054}, {"is_disabled": 0, "rental_uris": {"ios": "https://dc.lft.to/lastmile_qr_scan", "android": "https://dc.lft.to/lastmile_qr_scan"}, "is_reserved": 0, "fusion_lon": 0.0, "lat": 38.91262866666667, "type": "electric_scooter", "name": "3ccb8465dd85d36f74b58238e02a5c14", "bike_id": "3ccb8465dd85d36f74b58238e02a5c14", "fusion_lat": 0.0, "lon": -77.04654466666666}, {"is_disabled": 0, "rental_uris": {"ios": "https://dc.lft.to/lastmile_qr_scan", "android": "https://dc.lft.to/lastmile_qr_scan"}, "is_reserved": 0, "fusion_lon": 0.0, "lat": 38.908012666666664, "type": "electric_scooter", "name": "12ddd3c15790239b82881d8dcae26725", "bike_id": "12ddd3c15790239b82881d8dcae26725", "fusion_lat": 0.0, "lon": -77.04258333333334}, {"is_disabled": 0, "rental_uris": {"ios": "https://dc.lft.to/lastmile_qr_scan", "android": "https://dc.lft.to/lastmile_qr_scan"}, "is_reserved": 0, "fusion_lon": 0.0, "lat": 38.9117375, "type": "electric_scooter", "name": "f643f8b6305b4123123ae0b95b9460c1", "bike_id": "f643f8b6305b4123123ae0b95b9460c1", "fusion_lat": 0.0, "lon": -77.03861166666667}, {"is_disabled": 0, "rental_uris": {"ios": "https://dc.lft.to/lastmile_qr_scan", "android": "https://dc.lft.to/lastmile_qr_scan"}, "is_reserved": 0, "fusion_lon": 0.0, "lat": 38.91907166666667, "type": "electric_scooter", "name": "76a2d26bb9c5a27cad596b4544d9444f", "bike_id": "76a2d26bb9c5a27cad596b4544d9444f", "fusion_lat": 0.0, "lon": -77.03440933333333}, {"is_disabled": 0, "rental_uris": {"ios": "https://dc.lft.to/lastmile_qr_scan", "android": "https://dc.lft.to/lastmile_qr_scan"}, "is_reserved": 0, "fusion_lon": 0.0, "lat": 38.89712216666667, "type": "electric_scooter", "name": "7cae58e8a669130434c3400766a3f1b5", "bike_id": "7cae58e8a669130434c3400766a3f1b5", "fusion_lat": 0.0, "lon": -77.0213855}, {"is_disabled": 0, "rental_uris": {"ios": "https://dc.lft.to/lastmile_qr_scan", "android": "https://dc.lft.to/lastmile_qr_scan"}, "is_reserved": 0, "fusion_lon": 0.0, "lat": 38.90717383333333, "type": "electric_scooter", "name": "52e216e1b8f94fdb790edaaf766a4a14", "bike_id": "52e216e1b8f94fdb790edaaf766a4a14", "fusion_lat": 0.0, "lon": -77.04515}, {"is_disabled": 0, "rental_uris": {"ios": "https://dc.lft.to/lastmile_qr_scan", "android": "https://dc.lft.to/lastmile_qr_scan"}, "is_reserved": 0, "fusion_lon": 0.0, "lat": 38.89218016666667, "type": "electric_scooter", "name": "422bb7d0cf9f034f5c5c125189ceee37", "bike_id": "422bb7d0cf9f034f5c5c125189ceee37", "fusion_lat": 0.0, "lon": -77.02222233333333}, {"is_disabled": 0, "rental_uris": {"ios": "https://dc.lft.to/lastmile_qr_scan", "android": "https://dc.lft.to/lastmile_qr_scan"}, "is_reserved": 0, "fusion_lon": 0.0, "lat": 38.856374833333334, "type": "electric_bike", "name": "4c69a3d176b82601ae22eaf72fa27b9c", "bike_id": "4c69a3d176b82601ae22eaf72fa27b9c", "fusion_lat": 0.0, "lon": -77.0683565}, {"is_disabled": 0, "rental_uris": {"ios": "https://dc.lft.to/lastmile_qr_scan", "android": "https://dc.lft.to/lastmile_qr_scan"}, "is_reserved": 0, "fusion_lon": 0.0, "lat": 38.88216833333333, "type": "electric_scooter", "name": "9591c91308c35384ae3b7f9cf1c5e284", "bike_id": "9591c91308c35384ae3b7f9cf1c5e284", "fusion_lat": 0.0, "lon": -76.997377}, {"is_disabled": 0, "rental_uris": {"ios": "https://dc.lft.to/lastmile_qr_scan", "android": "https://dc.lft.to/lastmile_qr_scan"}, "is_reserved": 0, "fusion_lon": 0.0, "lat": 38.89921016666667, "type": "electric_scooter", "name": "24c3667743aca70b1484058fd34cb3fb", "bike_id": "24c3667743aca70b1484058fd34cb3fb", "fusion_lat": 0.0, "lon": -77.03935216666666}, {"is_disabled": 0, "rental_uris": {"ios": "https://dc.lft.to/lastmile_qr_scan", "android": "https://dc.lft.to/lastmile_qr_scan"}, "is_reserved": 0, "fusion_lon": 0.0, "lat": 38.89823233333333, "type": "electric_scooter", "name": "06ae941c4b87717e4fd9faca19778d5e", "bike_id": "06ae941c4b87717e4fd9faca19778d5e", "fusion_lat": 0.0, "lon": -77.02630566666667}, {"is_disabled": 0, "rental_uris": {"ios": "https://dc.lft.to/lastmile_qr_scan", "android": "https://dc.lft.to/lastmile_qr_scan"}, "is_reserved": 0, "fusion_lon": 0.0, "lat": 38.865579, "type": "electric_bike", "name": "f2b5db2f74b6ce46cbdb5f89c2409cd2", "bike_id": "f2b5db2f74b6ce46cbdb5f89c2409cd2", "fusion_lat": 0.0, "lon": -76.9747235}, {"is_disabled": 0, "rental_uris": {"ios": "https://dc.lft.to/lastmile_qr_scan", "android": "https://dc.lft.to/lastmile_qr_scan"}, "is_reserved": 0, "fusion_lon": 0.0, "lat": 38.900606333333336, "type": "electric_scooter", "name": "f420e98831766607e6d00d6e777338f2", "bike_id": "f420e98831766607e6d00d6e777338f2", "fusion_lat": 0.0, "lon": -77.03850316666667}, {"is_disabled": 0, "rental_uris": {"ios": "https://dc.lft.to/lastmile_qr_scan", "android": "https://dc.lft.to/lastmile_qr_scan"}, "is_reserved": 0, "fusion_lon": 0.0, "lat": 38.9177675, "type": "electric_scooter", "name": "eb32fa44178df2fe629b252205b9f1a7", "bike_id": "eb32fa44178df2fe629b252205b9f1a7", "fusion_lat": 0.0, "lon": -77.0319595}, {"is_disabled": 0, "rental_uris": {"ios": "https://dc.lft.to/lastmile_qr_scan", "android": "https://dc.lft.to/lastmile_qr_scan"}, "is_reserved": 0, "fusion_lon": 0.0, "lat": 38.92415616666667, "type": "electric_scooter", "name": "b3c78ab129590db8f9df54a5c02813ab", "bike_id": "b3c78ab129590db8f9df54a5c02813ab", "fusion_lat": 0.0, "lon": -77.0201085}, {"is_disabled": 0, "rental_uris": {"ios": "https://dc.lft.to/lastmile_qr_scan", "android": "https://dc.lft.to/lastmile_qr_scan"}, "is_reserved": 0, "fusion_lon": 0.0, "lat": 38.8242755, "type": "electric_bike", "name": "4077766e4b656149f8ce772d5fa12483", "bike_id": "4077766e4b656149f8ce772d5fa12483", "fusion_lat": 0.0, "lon": -77.12038366666667}, {"is_disabled": 0, "rental_uris": {"ios": "https://dc.lft.to/lastmile_qr_scan", "android": "https://dc.lft.to/lastmile_qr_scan"}, "is_reserved": 0, "fusion_lon": 0.0, "lat": 38.921730333333336, "type": "electric_scooter", "name": "39bb6ef5744eb487373a1db24fd06ad3", "bike_id": "39bb6ef5744eb487373a1db24fd06ad3", "fusion_lat": 0.0, "lon": -77.0423005}, {"is_disabled": 0, "rental_uris": {"ios": "https://dc.lft.to/lastmile_qr_scan", "android": "https://dc.lft.to/lastmile_qr_scan"}, "is_reserved": 0, "fusion_lon": 0.0, "lat": 38.912561833333335, "type": "electric_scooter", "name": "7b3004d2650a555dd09a24d436cc7e1d", "bike_id": "7b3004d2650a555dd09a24d436cc7e1d", "fusion_lat": 0.0, "lon": -77.03861833333333}, {"is_disabled": 0, "rental_uris": {"ios": "https://dc.lft.to/lastmile_qr_scan", "android": "https://dc.lft.to/lastmile_qr_scan"}, "is_reserved": 0, "fusion_lon": 0.0, "lat": 38.915507833333336, "type": "electric_scooter", "name": "6aa26845407c47c4d784df281a7e8f86", "bike_id": "6aa26845407c47c4d784df281a7e8f86", "fusion_lat": 0.0, "lon": -77.0312965}, {"is_disabled": 0, "rental_uris": {"ios": "https://dc.lft.to/lastmile_qr_scan", "android": "https://dc.lft.to/lastmile_qr_scan"}, "is_reserved": 0, "fusion_lon": 0.0, "lat": 38.907801, "type": "electric_scooter", "name": "8c465e56608f3d40e36b3b36921f403b", "bike_id": "8c465e56608f3d40e36b3b36921f403b", "fusion_lat": 0.0, "lon": -77.07249133333333}, {"is_disabled": 0, "rental_uris": {"ios": "https://dc.lft.to/lastmile_qr_scan", "android": "https://dc.lft.to/lastmile_qr_scan"}, "is_reserved": 0, "fusion_lon": 0.0, "lat": 38.92570216666667, "type": "electric_scooter", "name": "c5ebdb08267f974ca6eef5dfa5c166f1", "bike_id": "c5ebdb08267f974ca6eef5dfa5c166f1", "fusion_lat": 0.0, "lon": -77.0256565}, {"is_disabled": 0, "rental_uris": {"ios": "https://dc.lft.to/lastmile_qr_scan", "android": "https://dc.lft.to/lastmile_qr_scan"}, "is_reserved": 0, "fusion_lon": 0.0, "lat": 38.895075166666665, "type": "electric_scooter", "name": "9d4a92f5810c23df0fa677938d903880", "bike_id": "9d4a92f5810c23df0fa677938d903880", "fusion_lat": 0.0, "lon": -77.0467485}, {"is_disabled": 0, "rental_uris": {"ios": "https://dc.lft.to/lastmile_qr_scan", "android": "https://dc.lft.to/lastmile_qr_scan"}, "is_reserved": 0, "fusion_lon": 0.0, "lat": 38.90563433333333, "type": "electric_scooter", "name": "8b7218ce8bb2b723264451881739aebb", "bike_id": "8b7218ce8bb2b723264451881739aebb", "fusion_lat": 0.0, "lon": -77.06278666666667}, {"is_disabled": 0, "rental_uris": {"ios": "https://dc.lft.to/lastmile_qr_scan", "android": "https://dc.lft.to/lastmile_qr_scan"}, "is_reserved": 0, "fusion_lon": 0.0, "lat": 38.899695, "type": "electric_scooter", "name": "10c02887709ae5beec3b61806b3d1b18", "bike_id": "10c02887709ae5beec3b61806b3d1b18", "fusion_lat": 0.0, "lon": -77.0448685}, {"is_disabled": 0, "rental_uris": {"ios": "https://dc.lft.to/lastmile_qr_scan", "android": "https://dc.lft.to/lastmile_qr_scan"}, "is_reserved": 0, "fusion_lon": 0.0, "lat": 38.8999975, "type": "electric_scooter", "name": "f6798e8d927d4db5b52f641e576086d0", "bike_id": "f6798e8d927d4db5b52f641e576086d0", "fusion_lat": 0.0, "lon": -77.02709966666667}, {"is_disabled": 0, "rental_uris": {"ios": "https://dc.lft.to/lastmile_qr_scan", "android": "https://dc.lft.to/lastmile_qr_scan"}, "is_reserved": 0, "fusion_lon": 0.0, "lat": 38.920136166666666, "type": "electric_scooter", "name": "dc2ddd3f4b27e5b0a915a621dc1c8546", "bike_id": "dc2ddd3f4b27e5b0a915a621dc1c8546", "fusion_lat": 0.0, "lon": -77.03128183333334}, {"is_disabled": 0, "rental_uris": {"ios": "https://dc.lft.to/lastmile_qr_scan", "android": "https://dc.lft.to/lastmile_qr_scan"}, "is_reserved": 0, "fusion_lon": 0.0, "lat": 38.943903166666665, "type": "electric_scooter", "name": "48971686c9311da9965996cb4d6fc786", "bike_id": "48971686c9311da9965996cb4d6fc786", "fusion_lat": 0.0, "lon": -77.0198065}, {"is_disabled": 0, "rental_uris": {"ios": "https://dc.lft.to/lastmile_qr_scan", "android": "https://dc.lft.to/lastmile_qr_scan"}, "is_reserved": 0, "fusion_lon": 0.0, "lat": 38.91399466666667, "type": "electric_scooter", "name": "42923628a1fb3c36f74b706e17690fad", "bike_id": "42923628a1fb3c36f74b706e17690fad", "fusion_lat": 0.0, "lon": -77.028601}, {"is_disabled": 0, "rental_uris": {"ios": "https://dc.lft.to/lastmile_qr_scan", "android": "https://dc.lft.to/lastmile_qr_scan"}, "is_reserved": 0, "fusion_lon": 0.0, "lat": 38.88037716666667, "type": "electric_scooter", "name": "7f3d57118d69ea0519c1a9437183c46b", "bike_id": "7f3d57118d69ea0519c1a9437183c46b", "fusion_lat": 0.0, "lon": -76.92724016666666}, {"is_disabled": 0, "rental_uris": {"ios": "https://dc.lft.to/lastmile_qr_scan", "android": "https://dc.lft.to/lastmile_qr_scan"}, "is_reserved": 0, "fusion_lon": 0.0, "lat": 38.92651583333333, "type": "electric_bike", "name": "44de46039db84d002a967ec210390183", "bike_id": "44de46039db84d002a967ec210390183", "fusion_lat": 0.0, "lon": -77.09020933333333}, {"is_disabled": 0, "rental_uris": {"ios": "https://dc.lft.to/lastmile_qr_scan", "android": "https://dc.lft.to/lastmile_qr_scan"}, "is_reserved": 0, "fusion_lon": 0.0, "lat": 38.89702583333333, "type": "electric_scooter", "name": "9790d4e234b5320f982cdbbb047d98c5", "bike_id": "9790d4e234b5320f982cdbbb047d98c5", "fusion_lat": 0.0, "lon": -76.93909333333333}, {"is_disabled": 0, "rental_uris": {"ios": "https://dc.lft.to/lastmile_qr_scan", "android": "https://dc.lft.to/lastmile_qr_scan"}, "is_reserved": 0, "fusion_lon": 0.0, "lat": 38.9238755, "type": "electric_scooter", "name": "6b427d4599541cd82a6fe0f238277a33", "bike_id": "6b427d4599541cd82a6fe0f238277a33", "fusion_lat": 0.0, "lon": -77.02453733333333}, {"is_disabled": 0, "rental_uris": {"ios": "https://dc.lft.to/lastmile_qr_scan", "android": "https://dc.lft.to/lastmile_qr_scan"}, "is_reserved": 0, "fusion_lon": 0.0, "lat": 38.92644333333333, "type": "electric_scooter", "name": "3f4187483028fbd791bde8359561b35e", "bike_id": "3f4187483028fbd791bde8359561b35e", "fusion_lat": 0.0, "lon": -77.0383825}, {"is_disabled": 0, "rental_uris": {"ios": "https://dc.lft.to/lastmile_qr_scan", "android": "https://dc.lft.to/lastmile_qr_scan"}, "is_reserved": 0, "fusion_lon": 0.0, "lat": 38.883798, "type": "electric_bike", "name": "45d4d95bcf735f5e79c1dc06b3b53b32", "bike_id": "45d4d95bcf735f5e79c1dc06b3b53b32", "fusion_lat": 0.0, "lon": -77.02990616666666}, {"is_disabled": 0, "rental_uris": {"ios": "https://dc.lft.to/lastmile_qr_scan", "android": "https://dc.lft.to/lastmile_qr_scan"}, "is_reserved": 0, "fusion_lon": 0.0, "lat": 38.9174845, "type": "electric_scooter", "name": "55fd563a7ff55e5f1c5f5dae4f566868", "bike_id": "55fd563a7ff55e5f1c5f5dae4f566868", "fusion_lat": 0.0, "lon": -77.02116783333334}, {"is_disabled": 0, "rental_uris": {"ios": "https://dc.lft.to/lastmile_qr_scan", "android": "https://dc.lft.to/lastmile_qr_scan"}, "is_reserved": 0, "fusion_lon": 0.0, "lat": 38.9715205, "type": "electric_bike", "name": "f839809741428fe8f1ada0acb4af0fad", "bike_id": "f839809741428fe8f1ada0acb4af0fad", "fusion_lat": 0.0, "lon": -76.98362166666666}, {"is_disabled": 0, "rental_uris": {"ios": "https://dc.lft.to/lastmile_qr_scan", "android": "https://dc.lft.to/lastmile_qr_scan"}, "is_reserved": 0, "fusion_lon": 0.0, "lat": 38.910184, "type": "electric_scooter", "name": "56b054301122c187a0388b457a4eec03", "bike_id": "56b054301122c187a0388b457a4eec03", "fusion_lat": 0.0, "lon": -77.04665783333333}, {"is_disabled": 0, "rental_uris": {"ios": "https://dc.lft.to/lastmile_qr_scan", "android": "https://dc.lft.to/lastmile_qr_scan"}, "is_reserved": 0, "fusion_lon": 0.0, "lat": 38.920883333333336, "type": "electric_scooter", "name": "5fa59f851c196485f68b0d44c667b0f9", "bike_id": "5fa59f851c196485f68b0d44c667b0f9", "fusion_lat": 0.0, "lon": -77.02318633333333}, {"is_disabled": 0, "rental_uris": {"ios": "https://dc.lft.to/lastmile_qr_scan", "android": "https://dc.lft.to/lastmile_qr_scan"}, "is_reserved": 0, "fusion_lon": 0.0, "lat": 38.9069325, "type": "electric_scooter", "name": "0620b1d337787a7841c6ffc16dba0160", "bike_id": "0620b1d337787a7841c6ffc16dba0160", "fusion_lat": 0.0, "lon": -77.00983466666666}, {"is_disabled": 0, "rental_uris": {"ios": "https://dc.lft.to/lastmile_qr_scan", "android": "https://dc.lft.to/lastmile_qr_scan"}, "is_reserved": 0, "fusion_lon": 0.0, "lat": 38.908961, "type": "electric_scooter", "name": "d83cd62e8392b17f21d57a8a2a73dd2e", "bike_id": "d83cd62e8392b17f21d57a8a2a73dd2e", "fusion_lat": 0.0, "lon": -76.99621616666667}, {"is_disabled": 0, "rental_uris": {"ios": "https://dc.lft.to/lastmile_qr_scan", "android": "https://dc.lft.to/lastmile_qr_scan"}, "is_reserved": 0, "fusion_lon": 0.0, "lat": 38.8097365, "type": "electric_bike", "name": "fcd12f2ee7cb875f42a84536d5a1142f", "bike_id": "fcd12f2ee7cb875f42a84536d5a1142f", "fusion_lat": 0.0, "lon": -77.07652233333333}, {"is_disabled": 0, "rental_uris": {"ios": "https://dc.lft.to/lastmile_qr_scan", "android": "https://dc.lft.to/lastmile_qr_scan"}, "is_reserved": 0, "fusion_lon": 0.0, "lat": 38.911993833333334, "type": "electric_scooter", "name": "3d5a9583f90c339f49f0038cb8c9e0ea", "bike_id": "3d5a9583f90c339f49f0038cb8c9e0ea", "fusion_lat": 0.0, "lon": -77.07313283333333}, {"is_disabled": 0, "rental_uris": {"ios": "https://dc.lft.to/lastmile_qr_scan", "android": "https://dc.lft.to/lastmile_qr_scan"}, "is_reserved": 0, "fusion_lon": 0.0, "lat": 38.89611566666667, "type": "electric_scooter", "name": "b2cd170fa09a001920c066add5a6a041", "bike_id": "b2cd170fa09a001920c066add5a6a041", "fusion_lat": 0.0, "lon": -77.0446655}, {"is_disabled": 0, "rental_uris": {"ios": "https://dc.lft.to/lastmile_qr_scan", "android": "https://dc.lft.to/lastmile_qr_scan"}, "is_reserved": 0, "fusion_lon": 0.0, "lat": 38.89977916666667, "type": "electric_scooter", "name": "14e231c7cd556e9f82d72e2efd4ef141", "bike_id": "14e231c7cd556e9f82d72e2efd4ef141", "fusion_lat": 0.0, "lon": -77.021524}, {"is_disabled": 0, "rental_uris": {"ios": "https://dc.lft.to/lastmile_qr_scan", "android": "https://dc.lft.to/lastmile_qr_scan"}, "is_reserved": 0, "fusion_lon": 0.0, "lat": 38.9069025, "type": "electric_scooter", "name": "570688cfb9c552abb114aea200ef8dc8", "bike_id": "570688cfb9c552abb114aea200ef8dc8", "fusion_lat": 0.0, "lon": -77.0318485}, {"is_disabled": 0, "rental_uris": {"ios": "https://dc.lft.to/lastmile_qr_scan", "android": "https://dc.lft.to/lastmile_qr_scan"}, "is_reserved": 0, "fusion_lon": 0.0, "lat": 38.924684, "type": "electric_scooter", "name": "d0c4274cf2e311efab43ab9900c54186", "bike_id": "d0c4274cf2e311efab43ab9900c54186", "fusion_lat": 0.0, "lon": -77.02253016666667}, {"is_disabled": 0, "rental_uris": {"ios": "https://dc.lft.to/lastmile_qr_scan", "android": "https://dc.lft.to/lastmile_qr_scan"}, "is_reserved": 0, "fusion_lon": 0.0, "lat": 38.913205833333336, "type": "electric_scooter", "name": "f77ef423f947258b160d8b0b76ebf59d", "bike_id": "f77ef423f947258b160d8b0b76ebf59d", "fusion_lat": 0.0, "lon": -77.06250466666667}, {"is_disabled": 0, "rental_uris": {"ios": "https://dc.lft.to/lastmile_qr_scan", "android": "https://dc.lft.to/lastmile_qr_scan"}, "is_reserved": 0, "fusion_lon": 0.0, "lat": 38.89222083333333, "type": "electric_scooter", "name": "d579a132fb8ef513a4f6794548d5f660", "bike_id": "d579a132fb8ef513a4f6794548d5f660", "fusion_lat": 0.0, "lon": -77.02511}, {"is_disabled": 0, "rental_uris": {"ios": "https://dc.lft.to/lastmile_qr_scan", "android": "https://dc.lft.to/lastmile_qr_scan"}, "is_reserved": 0, "fusion_lon": 0.0, "lat": 38.907492833333336, "type": "electric_scooter", "name": "5a9f053520117d76809bd1323ca6a275", "bike_id": "5a9f053520117d76809bd1323ca6a275", "fusion_lat": 0.0, "lon": -77.042377}, {"is_disabled": 0, "rental_uris": {"ios": "https://dc.lft.to/lastmile_qr_scan", "android": "https://dc.lft.to/lastmile_qr_scan"}, "is_reserved": 0, "fusion_lon": 0.0, "lat": 38.911071166666666, "type": "electric_scooter", "name": "580df1a171fe1fdd35c0315ecc77d412", "bike_id": "580df1a171fe1fdd35c0315ecc77d412", "fusion_lat": 0.0, "lon": -77.03134933333334}, {"is_disabled": 0, "rental_uris": {"ios": "https://dc.lft.to/lastmile_qr_scan", "android": "https://dc.lft.to/lastmile_qr_scan"}, "is_reserved": 0, "fusion_lon": 0.0, "lat": 38.89239383333334, "type": "electric_scooter", "name": "de85c4e6d2b6fc91d87130f0a1a23245", "bike_id": "de85c4e6d2b6fc91d87130f0a1a23245", "fusion_lat": 0.0, "lon": -77.04181266666667}, {"is_disabled": 0, "rental_uris": {"ios": "https://dc.lft.to/lastmile_qr_scan", "android": "https://dc.lft.to/lastmile_qr_scan"}, "is_reserved": 0, "fusion_lon": 0.0, "lat": 38.900604666666666, "type": "electric_scooter", "name": "fc8c65c5586f211a9a771dfc4da70323", "bike_id": "fc8c65c5586f211a9a771dfc4da70323", "fusion_lat": 0.0, "lon": -76.99615033333333}, {"is_disabled": 0, "rental_uris": {"ios": "https://dc.lft.to/lastmile_qr_scan", "android": "https://dc.lft.to/lastmile_qr_scan"}, "is_reserved": 0, "fusion_lon": 0.0, "lat": 38.9047855, "type": "electric_scooter", "name": "96dc98f397051aa20f158aeaea615c04", "bike_id": "96dc98f397051aa20f158aeaea615c04", "fusion_lat": 0.0, "lon": -77.02919566666667}, {"is_disabled": 0, "rental_uris": {"ios": "https://dc.lft.to/lastmile_qr_scan", "android": "https://dc.lft.to/lastmile_qr_scan"}, "is_reserved": 0, "fusion_lon": 0.0, "lat": 38.92117366666667, "type": "electric_scooter", "name": "4444db68bcb5d0a515b2f7cc594c39d1", "bike_id": "4444db68bcb5d0a515b2f7cc594c39d1", "fusion_lat": 0.0, "lon": -77.02064833333333}, {"is_disabled": 0, "rental_uris": {"ios": "https://dc.lft.to/lastmile_qr_scan", "android": "https://dc.lft.to/lastmile_qr_scan"}, "is_reserved": 0, "fusion_lon": 0.0, "lat": 38.90301383333333, "type": "electric_scooter", "name": "865a47c96ea6935774c7ca6a543e0e14", "bike_id": "865a47c96ea6935774c7ca6a543e0e14", "fusion_lat": 0.0, "lon": -77.049483}, {"is_disabled": 0, "rental_uris": {"ios": "https://dc.lft.to/lastmile_qr_scan", "android": "https://dc.lft.to/lastmile_qr_scan"}, "is_reserved": 0, "fusion_lon": 0.0, "lat": 38.917404833333336, "type": "electric_scooter", "name": "0886cd00bc8a9ecf1a64c6989ed933a6", "bike_id": "0886cd00bc8a9ecf1a64c6989ed933a6", "fusion_lat": 0.0, "lon": -77.024887}, {"is_disabled": 0, "rental_uris": {"ios": "https://dc.lft.to/lastmile_qr_scan", "android": "https://dc.lft.to/lastmile_qr_scan"}, "is_reserved": 0, "fusion_lon": 0.0, "lat": 38.892229, "type": "electric_scooter", "name": "7caf34129664d33421f5c435a06ecae2", "bike_id": "7caf34129664d33421f5c435a06ecae2", "fusion_lat": 0.0, "lon": -77.044973}, {"is_disabled": 0, "rental_uris": {"ios": "https://dc.lft.to/lastmile_qr_scan", "android": "https://dc.lft.to/lastmile_qr_scan"}, "is_reserved": 0, "fusion_lon": 0.0, "lat": 38.915630666666665, "type": "electric_scooter", "name": "1b4ca3b73c907853ed76575a9c034876", "bike_id": "1b4ca3b73c907853ed76575a9c034876", "fusion_lat": 0.0, "lon": -77.02408533333333}, {"is_disabled": 0, "rental_uris": {"ios": "https://dc.lft.to/lastmile_qr_scan", "android": "https://dc.lft.to/lastmile_qr_scan"}, "is_reserved": 0, "fusion_lon": 0.0, "lat": 38.880182166666664, "type": "electric_scooter", "name": "c863fa4ccbd9b3d7c2632575bc8a922b", "bike_id": "c863fa4ccbd9b3d7c2632575bc8a922b", "fusion_lat": 0.0, "lon": -76.98569166666667}, {"is_disabled": 0, "rental_uris": {"ios": "https://dc.lft.to/lastmile_qr_scan", "android": "https://dc.lft.to/lastmile_qr_scan"}, "is_reserved": 0, "fusion_lon": 0.0, "lat": 38.89219166666667, "type": "electric_scooter", "name": "80fa39a5b28ee7db35ea0c0612f00321", "bike_id": "80fa39a5b28ee7db35ea0c0612f00321", "fusion_lat": 0.0, "lon": -77.04639716666667}, {"is_disabled": 0, "rental_uris": {"ios": "https://dc.lft.to/lastmile_qr_scan", "android": "https://dc.lft.to/lastmile_qr_scan"}, "is_reserved": 0, "fusion_lon": 0.0, "lat": 38.9491185, "type": "electric_scooter", "name": "115170c703a375f55def768767906418", "bike_id": "115170c703a375f55def768767906418", "fusion_lat": 0.0, "lon": -77.01863583333333}, {"is_disabled": 0, "rental_uris": {"ios": "https://dc.lft.to/lastmile_qr_scan", "android": "https://dc.lft.to/lastmile_qr_scan"}, "is_reserved": 0, "fusion_lon": 0.0, "lat": 38.956344, "type": "electric_scooter", "name": "48029b8dc0a243d2676537332fb999cd", "bike_id": "48029b8dc0a243d2676537332fb999cd", "fusion_lat": 0.0, "lon": -77.019477}, {"is_disabled": 0, "rental_uris": {"ios": "https://dc.lft.to/lastmile_qr_scan", "android": "https://dc.lft.to/lastmile_qr_scan"}, "is_reserved": 0, "fusion_lon": 0.0, "lat": 38.89725983333334, "type": "electric_scooter", "name": "838ae225734044509d1cbdc9339ec7ad", "bike_id": "838ae225734044509d1cbdc9339ec7ad", "fusion_lat": 0.0, "lon": -77.02505183333334}, {"is_disabled": 0, "rental_uris": {"ios": "https://dc.lft.to/lastmile_qr_scan", "android": "https://dc.lft.to/lastmile_qr_scan"}, "is_reserved": 0, "fusion_lon": 0.0, "lat": 38.90138783333333, "type": "electric_scooter", "name": "1e6411063fef5928b75342ce7c66f0e6", "bike_id": "1e6411063fef5928b75342ce7c66f0e6", "fusion_lat": 0.0, "lon": -77.01249}, {"is_disabled": 0, "rental_uris": {"ios": "https://dc.lft.to/lastmile_qr_scan", "android": "https://dc.lft.to/lastmile_qr_scan"}, "is_reserved": 0, "fusion_lon": 0.0, "lat": 38.998942666666665, "type": "electric_bike", "name": "691f43fcdd3db0c846a6286cc027e1ce", "bike_id": "691f43fcdd3db0c846a6286cc027e1ce", "fusion_lat": 0.0, "lon": -76.91130016666666}, {"is_disabled": 0, "rental_uris": {"ios": "https://dc.lft.to/lastmile_qr_scan", "android": "https://dc.lft.to/lastmile_qr_scan"}, "is_reserved": 0, "fusion_lon": 0.0, "lat": 38.898228, "type": "electric_scooter", "name": "3900b98ca439d6256c3f6b618635871c", "bike_id": "3900b98ca439d6256c3f6b618635871c", "fusion_lat": 0.0, "lon": -77.04337916666667}, {"is_disabled": 0, "rental_uris": {"ios": "https://dc.lft.to/lastmile_qr_scan", "android": "https://dc.lft.to/lastmile_qr_scan"}, "is_reserved": 0, "fusion_lon": 0.0, "lat": 38.92677166666667, "type": "electric_scooter", "name": "ec0a5615c6184b716f6caaff878e09ab", "bike_id": "ec0a5615c6184b716f6caaff878e09ab", "fusion_lat": 0.0, "lon": -77.02291466666667}, {"is_disabled": 0, "rental_uris": {"ios": "https://dc.lft.to/lastmile_qr_scan", "android": "https://dc.lft.to/lastmile_qr_scan"}, "is_reserved": 0, "fusion_lon": 0.0, "lat": 38.921152166666666, "type": "electric_scooter", "name": "14fad99c875734da5e85ede9b03dd742", "bike_id": "14fad99c875734da5e85ede9b03dd742", "fusion_lat": 0.0, "lon": -77.01207633333334}, {"is_disabled": 0, "rental_uris": {"ios": "https://dc.lft.to/lastmile_qr_scan", "android": "https://dc.lft.to/lastmile_qr_scan"}, "is_reserved": 0, "fusion_lon": 0.0, "lat": 38.9248595, "type": "electric_scooter", "name": "16a5d2f71bd269f573592fe4bd42f880", "bike_id": "16a5d2f71bd269f573592fe4bd42f880", "fusion_lat": 0.0, "lon": -77.02157233333334}, {"is_disabled": 0, "rental_uris": {"ios": "https://dc.lft.to/lastmile_qr_scan", "android": "https://dc.lft.to/lastmile_qr_scan"}, "is_reserved": 0, "fusion_lon": 0.0, "lat": 38.90256933333333, "type": "electric_scooter", "name": "8db5a51120fe54b27e5ef683876f99f9", "bike_id": "8db5a51120fe54b27e5ef683876f99f9", "fusion_lat": 0.0, "lon": -77.03200566666666}, {"is_disabled": 0, "rental_uris": {"ios": "https://dc.lft.to/lastmile_qr_scan", "android": "https://dc.lft.to/lastmile_qr_scan"}, "is_reserved": 0, "fusion_lon": 0.0, "lat": 38.89615666666667, "type": "electric_scooter", "name": "568c54551918636504046803ded30426", "bike_id": "568c54551918636504046803ded30426", "fusion_lat": 0.0, "lon": -77.04465716666667}, {"is_disabled": 0, "rental_uris": {"ios": "https://dc.lft.to/lastmile_qr_scan", "android": "https://dc.lft.to/lastmile_qr_scan"}, "is_reserved": 0, "fusion_lon": 0.0, "lat": 38.904346333333336, "type": "electric_bike", "name": "4e06a31382ff318e97b84f708453ddc2", "bike_id": "4e06a31382ff318e97b84f708453ddc2", "fusion_lat": 0.0, "lon": -76.97231716666667}, {"is_disabled": 0, "rental_uris": {"ios": "https://dc.lft.to/lastmile_qr_scan", "android": "https://dc.lft.to/lastmile_qr_scan"}, "is_reserved": 0, "fusion_lon": 0.0, "lat": 38.918099833333336, "type": "electric_scooter", "name": "19cc59a3b611be6aa29440e2ed3f385f", "bike_id": "19cc59a3b611be6aa29440e2ed3f385f", "fusion_lat": 0.0, "lon": -77.03800233333334}, {"is_disabled": 0, "rental_uris": {"ios": "https://dc.lft.to/lastmile_qr_scan", "android": "https://dc.lft.to/lastmile_qr_scan"}, "is_reserved": 0, "fusion_lon": 0.0, "lat": 38.943583333333336, "type": "electric_scooter", "name": "df6eeabb1c70ade27ae0cf877a5fff77", "bike_id": "df6eeabb1c70ade27ae0cf877a5fff77", "fusion_lat": 0.0, "lon": -77.066399}, {"is_disabled": 0, "rental_uris": {"ios": "https://dc.lft.to/lastmile_qr_scan", "android": "https://dc.lft.to/lastmile_qr_scan"}, "is_reserved": 0, "fusion_lon": 0.0, "lat": 38.912550833333334, "type": "electric_scooter", "name": "413491676ff853b469c6f6703f324d4e", "bike_id": "413491676ff853b469c6f6703f324d4e", "fusion_lat": 0.0, "lon": -77.03895516666667}, {"is_disabled": 0, "rental_uris": {"ios": "https://dc.lft.to/lastmile_qr_scan", "android": "https://dc.lft.to/lastmile_qr_scan"}, "is_reserved": 0, "fusion_lon": 0.0, "lat": 38.9100225, "type": "electric_scooter", "name": "f363a54e6daf6aea51bb245ea14d5f20", "bike_id": "f363a54e6daf6aea51bb245ea14d5f20", "fusion_lat": 0.0, "lon": -76.984982}, {"is_disabled": 0, "rental_uris": {"ios": "https://dc.lft.to/lastmile_qr_scan", "android": "https://dc.lft.to/lastmile_qr_scan"}, "is_reserved": 0, "fusion_lon": 0.0, "lat": 38.862823666666664, "type": "electric_bike", "name": "7046a2355aff454135fe4f96cd0785a1", "bike_id": "7046a2355aff454135fe4f96cd0785a1", "fusion_lat": 0.0, "lon": -76.94523566666666}, {"is_disabled": 0, "rental_uris": {"ios": "https://dc.lft.to/lastmile_qr_scan", "android": "https://dc.lft.to/lastmile_qr_scan"}, "is_reserved": 0, "fusion_lon": 0.0, "lat": 38.90043466666667, "type": "electric_scooter", "name": "c3386a42fd046c0483aeeee0d046f1fc", "bike_id": "c3386a42fd046c0483aeeee0d046f1fc", "fusion_lat": 0.0, "lon": -76.99147016666667}, {"is_disabled": 0, "rental_uris": {"ios": "https://dc.lft.to/lastmile_qr_scan", "android": "https://dc.lft.to/lastmile_qr_scan"}, "is_reserved": 0, "fusion_lon": 0.0, "lat": 38.896319, "type": "electric_scooter", "name": "8d76e9f68dc4f89333e8ac5cefa91d7a", "bike_id": "8d76e9f68dc4f89333e8ac5cefa91d7a", "fusion_lat": 0.0, "lon": -77.0270235}, {"is_disabled": 0, "rental_uris": {"ios": "https://dc.lft.to/lastmile_qr_scan", "android": "https://dc.lft.to/lastmile_qr_scan"}, "is_reserved": 0, "fusion_lon": 0.0, "lat": 38.93907133333333, "type": "electric_scooter", "name": "fb2accb3d9616854f5e364930dfae149", "bike_id": "fb2accb3d9616854f5e364930dfae149", "fusion_lat": 0.0, "lon": -77.02484066666666}, {"is_disabled": 0, "rental_uris": {"ios": "https://dc.lft.to/lastmile_qr_scan", "android": "https://dc.lft.to/lastmile_qr_scan"}, "is_reserved": 0, "fusion_lon": 0.0, "lat": 38.91900533333333, "type": "electric_scooter", "name": "0db4869c16f26afcb60276c5233ad665", "bike_id": "0db4869c16f26afcb60276c5233ad665", "fusion_lat": 0.0, "lon": -77.02297583333333}, {"is_disabled": 0, "rental_uris": {"ios": "https://dc.lft.to/lastmile_qr_scan", "android": "https://dc.lft.to/lastmile_qr_scan"}, "is_reserved": 0, "fusion_lon": 0.0, "lat": 38.90026183333333, "type": "electric_scooter", "name": "2f8f0d0d9df15be27c414090fbb26275", "bike_id": "2f8f0d0d9df15be27c414090fbb26275", "fusion_lat": 0.0, "lon": -77.011854}, {"is_disabled": 0, "rental_uris": {"ios": "https://dc.lft.to/lastmile_qr_scan", "android": "https://dc.lft.to/lastmile_qr_scan"}, "is_reserved": 0, "fusion_lon": 0.0, "lat": 38.935556, "type": "electric_scooter", "name": "05b2a264a4bedbb50e9131ac5288ef77", "bike_id": "05b2a264a4bedbb50e9131ac5288ef77", "fusion_lat": 0.0, "lon": -77.07461933333333}, {"is_disabled": 0, "rental_uris": {"ios": "https://dc.lft.to/lastmile_qr_scan", "android": "https://dc.lft.to/lastmile_qr_scan"}, "is_reserved": 0, "fusion_lon": 0.0, "lat": 38.97438416666667, "type": "electric_bike", "name": "7f33ddb7aad6ecbb1935e69912bce860", "bike_id": "7f33ddb7aad6ecbb1935e69912bce860", "fusion_lat": 0.0, "lon": -77.09583316666667}, {"is_disabled": 0, "rental_uris": {"ios": "https://dc.lft.to/lastmile_qr_scan", "android": "https://dc.lft.to/lastmile_qr_scan"}, "is_reserved": 0, "fusion_lon": 0.0, "lat": 38.922944666666666, "type": "electric_scooter", "name": "24807f3568284dfcca1c8071030b5201", "bike_id": "24807f3568284dfcca1c8071030b5201", "fusion_lat": 0.0, "lon": -77.03408166666667}, {"is_disabled": 0, "rental_uris": {"ios": "https://dc.lft.to/lastmile_qr_scan", "android": "https://dc.lft.to/lastmile_qr_scan"}, "is_reserved": 0, "fusion_lon": 0.0, "lat": 38.896660833333335, "type": "electric_bike", "name": "1682313a2ef6a0c49f840d0f740c3c8a", "bike_id": "1682313a2ef6a0c49f840d0f740c3c8a", "fusion_lat": 0.0, "lon": -76.93214716666667}, {"is_disabled": 0, "rental_uris": {"ios": "https://dc.lft.to/lastmile_qr_scan", "android": "https://dc.lft.to/lastmile_qr_scan"}, "is_reserved": 0, "fusion_lon": 0.0, "lat": 38.9295755, "type": "electric_scooter", "name": "d1af66cd1f85b7e3c146a756f1e42b08", "bike_id": "d1af66cd1f85b7e3c146a756f1e42b08", "fusion_lat": 0.0, "lon": -77.04121716666667}, {"is_disabled": 0, "rental_uris": {"ios": "https://dc.lft.to/lastmile_qr_scan", "android": "https://dc.lft.to/lastmile_qr_scan"}, "is_reserved": 0, "fusion_lon": 0.0, "lat": 38.92321, "type": "electric_scooter", "name": "f79fa61450e90915959fa24acb0e44e3", "bike_id": "f79fa61450e90915959fa24acb0e44e3", "fusion_lat": 0.0, "lon": -77.02128716666667}, {"is_disabled": 0, "rental_uris": {"ios": "https://dc.lft.to/lastmile_qr_scan", "android": "https://dc.lft.to/lastmile_qr_scan"}, "is_reserved": 0, "fusion_lon": 0.0, "lat": 38.91976666666667, "type": "electric_scooter", "name": "c5494cddb9507671bf86d33652510b07", "bike_id": "c5494cddb9507671bf86d33652510b07", "fusion_lat": 0.0, "lon": -77.04184866666667}, {"is_disabled": 0, "rental_uris": {"ios": "https://dc.lft.to/lastmile_qr_scan", "android": "https://dc.lft.to/lastmile_qr_scan"}, "is_reserved": 0, "fusion_lon": 0.0, "lat": 38.926640166666665, "type": "electric_scooter", "name": "a4d45d5d37c8f8e784946f750e29d802", "bike_id": "a4d45d5d37c8f8e784946f750e29d802", "fusion_lat": 0.0, "lon": -77.06012566666666}, {"is_disabled": 0, "rental_uris": {"ios": "https://dc.lft.to/lastmile_qr_scan", "android": "https://dc.lft.to/lastmile_qr_scan"}, "is_reserved": 0, "fusion_lon": 0.0, "lat": 38.9074665, "type": "electric_scooter", "name": "f612831ae3f1a3e2eff934b2e9c66019", "bike_id": "f612831ae3f1a3e2eff934b2e9c66019", "fusion_lat": 0.0, "lon": -77.03062383333334}, {"is_disabled": 0, "rental_uris": {"ios": "https://dc.lft.to/lastmile_qr_scan", "android": "https://dc.lft.to/lastmile_qr_scan"}, "is_reserved": 0, "fusion_lon": 0.0, "lat": 38.897400166666664, "type": "electric_scooter", "name": "0ec730a8747b28edf8e22dc075b67353", "bike_id": "0ec730a8747b28edf8e22dc075b67353", "fusion_lat": 0.0, "lon": -77.04995916666667}, {"is_disabled": 0, "rental_uris": {"ios": "https://dc.lft.to/lastmile_qr_scan", "android": "https://dc.lft.to/lastmile_qr_scan"}, "is_reserved": 0, "fusion_lon": 0.0, "lat": 38.88955966666666, "type": "electric_scooter", "name": "d17f9b87090ba543ee7715132b897154", "bike_id": "d17f9b87090ba543ee7715132b897154", "fusion_lat": 0.0, "lon": -76.93604516666667}, {"is_disabled": 0, "rental_uris": {"ios": "https://dc.lft.to/lastmile_qr_scan", "android": "https://dc.lft.to/lastmile_qr_scan"}, "is_reserved": 0, "fusion_lon": 0.0, "lat": 38.8949985, "type": "electric_scooter", "name": "9eca918d324af33917619e02f93e857d", "bike_id": "9eca918d324af33917619e02f93e857d", "fusion_lat": 0.0, "lon": -77.041573}, {"is_disabled": 0, "rental_uris": {"ios": "https://dc.lft.to/lastmile_qr_scan", "android": "https://dc.lft.to/lastmile_qr_scan"}, "is_reserved": 0, "fusion_lon": 0.0, "lat": 38.9650665, "type": "electric_bike", "name": "697343a072def317df46b7124b02fcc8", "bike_id": "697343a072def317df46b7124b02fcc8", "fusion_lat": 0.0, "lon": -77.0336705}, {"is_disabled": 0, "rental_uris": {"ios": "https://dc.lft.to/lastmile_qr_scan", "android": "https://dc.lft.to/lastmile_qr_scan"}, "is_reserved": 0, "fusion_lon": 0.0, "lat": 38.924199333333334, "type": "electric_scooter", "name": "f07739ea2aa726e9df8413bd8a0f9246", "bike_id": "f07739ea2aa726e9df8413bd8a0f9246", "fusion_lat": 0.0, "lon": -77.04162116666667}, {"is_disabled": 0, "rental_uris": {"ios": "https://dc.lft.to/lastmile_qr_scan", "android": "https://dc.lft.to/lastmile_qr_scan"}, "is_reserved": 0, "fusion_lon": 0.0, "lat": 38.892178, "type": "electric_scooter", "name": "87ebf181682f14bbe586d623521410a3", "bike_id": "87ebf181682f14bbe586d623521410a3", "fusion_lat": 0.0, "lon": -77.04868216666667}, {"is_disabled": 0, "rental_uris": {"ios": "https://dc.lft.to/lastmile_qr_scan", "android": "https://dc.lft.to/lastmile_qr_scan"}, "is_reserved": 0, "fusion_lon": 0.0, "lat": 38.88262, "type": "electric_scooter", "name": "1e55cdaadc35cae2ce97c5d7318433a7", "bike_id": "1e55cdaadc35cae2ce97c5d7318433a7", "fusion_lat": 0.0, "lon": -77.00359316666666}, {"is_disabled": 0, "rental_uris": {"ios": "https://dc.lft.to/lastmile_qr_scan", "android": "https://dc.lft.to/lastmile_qr_scan"}, "is_reserved": 0, "fusion_lon": 0.0, "lat": 38.93519283333333, "type": "electric_scooter", "name": "64a0913387338c8642e0844e3b32f671", "bike_id": "64a0913387338c8642e0844e3b32f671", "fusion_lat": 0.0, "lon": -77.03813316666667}, {"is_disabled": 0, "rental_uris": {"ios": "https://dc.lft.to/lastmile_qr_scan", "android": "https://dc.lft.to/lastmile_qr_scan"}, "is_reserved": 0, "fusion_lon": 0.0, "lat": 38.89241583333333, "type": "electric_scooter", "name": "da285f6ba4f107f32bfb9cb288d0544c", "bike_id": "da285f6ba4f107f32bfb9cb288d0544c", "fusion_lat": 0.0, "lon": -77.03351683333334}, {"is_disabled": 0, "rental_uris": {"ios": "https://dc.lft.to/lastmile_qr_scan", "android": "https://dc.lft.to/lastmile_qr_scan"}, "is_reserved": 0, "fusion_lon": 0.0, "lat": 38.874565, "type": "electric_scooter", "name": "938549d50c027d28906c88f66aa74e9f", "bike_id": "938549d50c027d28906c88f66aa74e9f", "fusion_lat": 0.0, "lon": -77.00937066666667}, {"is_disabled": 0, "rental_uris": {"ios": "https://dc.lft.to/lastmile_qr_scan", "android": "https://dc.lft.to/lastmile_qr_scan"}, "is_reserved": 0, "fusion_lon": 0.0, "lat": 38.89035066666667, "type": "electric_scooter", "name": "87ede37b4bdedc1402dcbc6347af7470", "bike_id": "87ede37b4bdedc1402dcbc6347af7470", "fusion_lat": 0.0, "lon": -76.93762166666667}, {"is_disabled": 0, "rental_uris": {"ios": "https://dc.lft.to/lastmile_qr_scan", "android": "https://dc.lft.to/lastmile_qr_scan"}, "is_reserved": 0, "fusion_lon": 0.0, "lat": 38.91828366666667, "type": "electric_scooter", "name": "df0ab051e0f0ee8cb00e11cb52db087f", "bike_id": "df0ab051e0f0ee8cb00e11cb52db087f", "fusion_lat": 0.0, "lon": -77.03509016666666}, {"is_disabled": 0, "rental_uris": {"ios": "https://dc.lft.to/lastmile_qr_scan", "android": "https://dc.lft.to/lastmile_qr_scan"}, "is_reserved": 0, "fusion_lon": 0.0, "lat": 38.9617285, "type": "electric_scooter", "name": "6119d058185f3305cb70693a939798f7", "bike_id": "6119d058185f3305cb70693a939798f7", "fusion_lat": 0.0, "lon": -77.0322605}, {"is_disabled": 0, "rental_uris": {"ios": "https://dc.lft.to/lastmile_qr_scan", "android": "https://dc.lft.to/lastmile_qr_scan"}, "is_reserved": 0, "fusion_lon": 0.0, "lat": 38.917100166666664, "type": "electric_scooter", "name": "15df22885ff301b559751fc9a5b5c65f", "bike_id": "15df22885ff301b559751fc9a5b5c65f", "fusion_lat": 0.0, "lon": -77.02378433333334}, {"is_disabled": 0, "rental_uris": {"ios": "https://dc.lft.to/lastmile_qr_scan", "android": "https://dc.lft.to/lastmile_qr_scan"}, "is_reserved": 0, "fusion_lon": 0.0, "lat": 38.887180666666666, "type": "electric_bike", "name": "122e0e57fea7abfcdb06551c140de3ba", "bike_id": "122e0e57fea7abfcdb06551c140de3ba", "fusion_lat": 0.0, "lon": -77.13310466666667}, {"is_disabled": 0, "rental_uris": {"ios": "https://dc.lft.to/lastmile_qr_scan", "android": "https://dc.lft.to/lastmile_qr_scan"}, "is_reserved": 0, "fusion_lon": 0.0, "lat": 38.894594166666664, "type": "electric_scooter", "name": "d4fac2b58a62334e38a7089ea16f725e", "bike_id": "d4fac2b58a62334e38a7089ea16f725e", "fusion_lat": 0.0, "lon": -77.0317905}, {"is_disabled": 0, "rental_uris": {"ios": "https://dc.lft.to/lastmile_qr_scan", "android": "https://dc.lft.to/lastmile_qr_scan"}, "is_reserved": 0, "fusion_lon": 0.0, "lat": 38.88470516666667, "type": "electric_scooter", "name": "edc32957ae53d6f9ab579c77561ee979", "bike_id": "edc32957ae53d6f9ab579c77561ee979", "fusion_lat": 0.0, "lon": -77.033542}, {"is_disabled": 0, "rental_uris": {"ios": "https://dc.lft.to/lastmile_qr_scan", "android": "https://dc.lft.to/lastmile_qr_scan"}, "is_reserved": 0, "fusion_lon": 0.0, "lat": 38.922824, "type": "electric_scooter", "name": "a2ff89ea3b5953b725aa10848114f1b1", "bike_id": "a2ff89ea3b5953b725aa10848114f1b1", "fusion_lat": 0.0, "lon": -77.03658183333333}, {"is_disabled": 0, "rental_uris": {"ios": "https://dc.lft.to/lastmile_qr_scan", "android": "https://dc.lft.to/lastmile_qr_scan"}, "is_reserved": 0, "fusion_lon": 0.0, "lat": 38.90221366666667, "type": "electric_scooter", "name": "ae357d05ff08806523d6730d66bac8d9", "bike_id": "ae357d05ff08806523d6730d66bac8d9", "fusion_lat": 0.0, "lon": -77.023564}, {"is_disabled": 0, "rental_uris": {"ios": "https://dc.lft.to/lastmile_qr_scan", "android": "https://dc.lft.to/lastmile_qr_scan"}, "is_reserved": 0, "fusion_lon": 0.0, "lat": 38.90599666666667, "type": "electric_scooter", "name": "903b5af097fac7527752f548b4098cbc", "bike_id": "903b5af097fac7527752f548b4098cbc", "fusion_lat": 0.0, "lon": -77.026969}, {"is_disabled": 0, "rental_uris": {"ios": "https://dc.lft.to/lastmile_qr_scan", "android": "https://dc.lft.to/lastmile_qr_scan"}, "is_reserved": 0, "fusion_lon": 0.0, "lat": 38.911043166666666, "type": "electric_scooter", "name": "0eeb8d9db53caaefd6cae258b69564dc", "bike_id": "0eeb8d9db53caaefd6cae258b69564dc", "fusion_lat": 0.0, "lon": -77.02510733333334}, {"is_disabled": 0, "rental_uris": {"ios": "https://dc.lft.to/lastmile_qr_scan", "android": "https://dc.lft.to/lastmile_qr_scan"}, "is_reserved": 0, "fusion_lon": 0.0, "lat": 38.91198266666667, "type": "electric_scooter", "name": "47b86947883117f302bbb31f95736b8f", "bike_id": "47b86947883117f302bbb31f95736b8f", "fusion_lat": 0.0, "lon": -77.02099066666666}, {"is_disabled": 0, "rental_uris": {"ios": "https://dc.lft.to/lastmile_qr_scan", "android": "https://dc.lft.to/lastmile_qr_scan"}, "is_reserved": 0, "fusion_lon": 0.0, "lat": 38.90717466666667, "type": "electric_scooter", "name": "c356b42cbf5a73364b870b04c0ec3d98", "bike_id": "c356b42cbf5a73364b870b04c0ec3d98", "fusion_lat": 0.0, "lon": -77.05309}, {"is_disabled": 0, "rental_uris": {"ios": "https://dc.lft.to/lastmile_qr_scan", "android": "https://dc.lft.to/lastmile_qr_scan"}, "is_reserved": 0, "fusion_lon": 0.0, "lat": 38.87642, "type": "electric_bike", "name": "2edca4c60b7ab98500514e588745d16d", "bike_id": "2edca4c60b7ab98500514e588745d16d", "fusion_lat": 0.0, "lon": -76.935451}, {"is_disabled": 0, "rental_uris": {"ios": "https://dc.lft.to/lastmile_qr_scan", "android": "https://dc.lft.to/lastmile_qr_scan"}, "is_reserved": 0, "fusion_lon": 0.0, "lat": 38.924818333333334, "type": "electric_scooter", "name": "51846dce9daa9f8b95348f6793a7ae2c", "bike_id": "51846dce9daa9f8b95348f6793a7ae2c", "fusion_lat": 0.0, "lon": -77.02138833333333}, {"is_disabled": 0, "rental_uris": {"ios": "https://dc.lft.to/lastmile_qr_scan", "android": "https://dc.lft.to/lastmile_qr_scan"}, "is_reserved": 0, "fusion_lon": 0.0, "lat": 38.904294166666666, "type": "electric_scooter", "name": "72ff6f8a49c6bb36729f81f1499d49f7", "bike_id": "72ff6f8a49c6bb36729f81f1499d49f7", "fusion_lat": 0.0, "lon": -77.02595366666667}, {"is_disabled": 0, "rental_uris": {"ios": "https://dc.lft.to/lastmile_qr_scan", "android": "https://dc.lft.to/lastmile_qr_scan"}, "is_reserved": 0, "fusion_lon": 0.0, "lat": 38.907846666666664, "type": "electric_scooter", "name": "7241f30dd10e3aa0add30fa5ac75c92d", "bike_id": "7241f30dd10e3aa0add30fa5ac75c92d", "fusion_lat": 0.0, "lon": -77.04257416666667}, {"is_disabled": 0, "rental_uris": {"ios": "https://dc.lft.to/lastmile_qr_scan", "android": "https://dc.lft.to/lastmile_qr_scan"}, "is_reserved": 0, "fusion_lon": 0.0, "lat": 38.93309683333333, "type": "electric_scooter", "name": "d754c62f61716c03869a5ca64ad91406", "bike_id": "d754c62f61716c03869a5ca64ad91406", "fusion_lat": 0.0, "lon": -77.03183566666667}, {"is_disabled": 0, "rental_uris": {"ios": "https://dc.lft.to/lastmile_qr_scan", "android": "https://dc.lft.to/lastmile_qr_scan"}, "is_reserved": 0, "fusion_lon": 0.0, "lat": 38.892566, "type": "electric_scooter", "name": "8d16dac9c17095f21b909072ced5aaef", "bike_id": "8d16dac9c17095f21b909072ced5aaef", "fusion_lat": 0.0, "lon": -77.050243}, {"is_disabled": 0, "rental_uris": {"ios": "https://dc.lft.to/lastmile_qr_scan", "android": "https://dc.lft.to/lastmile_qr_scan"}, "is_reserved": 0, "fusion_lon": 0.0, "lat": 38.876648833333334, "type": "electric_scooter", "name": "1dbcc0453c955ea49644aa417838a2ad", "bike_id": "1dbcc0453c955ea49644aa417838a2ad", "fusion_lat": 0.0, "lon": -77.017564}, {"is_disabled": 0, "rental_uris": {"ios": "https://dc.lft.to/lastmile_qr_scan", "android": "https://dc.lft.to/lastmile_qr_scan"}, "is_reserved": 0, "fusion_lon": 0.0, "lat": 38.8938045, "type": "electric_scooter", "name": "0b13d8a0c9769e9085dfaba932f2e09a", "bike_id": "0b13d8a0c9769e9085dfaba932f2e09a", "fusion_lat": 0.0, "lon": -76.92299566666667}, {"is_disabled": 0, "rental_uris": {"ios": "https://dc.lft.to/lastmile_qr_scan", "android": "https://dc.lft.to/lastmile_qr_scan"}, "is_reserved": 0, "fusion_lon": 0.0, "lat": 38.891764, "type": "electric_scooter", "name": "a7af876adf2fc51971a55bc81a953d86", "bike_id": "a7af876adf2fc51971a55bc81a953d86", "fusion_lat": 0.0, "lon": -77.01565016666666}, {"is_disabled": 0, "rental_uris": {"ios": "https://dc.lft.to/lastmile_qr_scan", "android": "https://dc.lft.to/lastmile_qr_scan"}, "is_reserved": 0, "fusion_lon": 0.0, "lat": 38.905060666666664, "type": "electric_scooter", "name": "f54bd28fd854a0901e36945d48460feb", "bike_id": "f54bd28fd854a0901e36945d48460feb", "fusion_lat": 0.0, "lon": -77.07013066666667}, {"is_disabled": 0, "rental_uris": {"ios": "https://dc.lft.to/lastmile_qr_scan", "android": "https://dc.lft.to/lastmile_qr_scan"}, "is_reserved": 0, "fusion_lon": 0.0, "lat": 38.918920666666665, "type": "electric_bike", "name": "2a08af82af2fa1e052bb1ca6e4594c8e", "bike_id": "2a08af82af2fa1e052bb1ca6e4594c8e", "fusion_lat": 0.0, "lon": -77.1017475}, {"is_disabled": 0, "rental_uris": {"ios": "https://dc.lft.to/lastmile_qr_scan", "android": "https://dc.lft.to/lastmile_qr_scan"}, "is_reserved": 0, "fusion_lon": 0.0, "lat": 38.897640833333334, "type": "electric_scooter", "name": "75ceefc607247def73ac6cbda4201c40", "bike_id": "75ceefc607247def73ac6cbda4201c40", "fusion_lat": 0.0, "lon": -77.02725416666667}, {"is_disabled": 0, "rental_uris": {"ios": "https://dc.lft.to/lastmile_qr_scan", "android": "https://dc.lft.to/lastmile_qr_scan"}, "is_reserved": 0, "fusion_lon": 0.0, "lat": 38.935970833333336, "type": "electric_scooter", "name": "b9dc52f710ebeca6e77f1dce346e6aa5", "bike_id": "b9dc52f710ebeca6e77f1dce346e6aa5", "fusion_lat": 0.0, "lon": -77.03876333333334}, {"is_disabled": 0, "rental_uris": {"ios": "https://dc.lft.to/lastmile_qr_scan", "android": "https://dc.lft.to/lastmile_qr_scan"}, "is_reserved": 0, "fusion_lon": 0.0, "lat": 38.90639633333333, "type": "electric_scooter", "name": "8c3d062225edc74a237a3eeabc62441f", "bike_id": "8c3d062225edc74a237a3eeabc62441f", "fusion_lat": 0.0, "lon": -77.02470183333334}, {"is_disabled": 0, "rental_uris": {"ios": "https://dc.lft.to/lastmile_qr_scan", "android": "https://dc.lft.to/lastmile_qr_scan"}, "is_reserved": 0, "fusion_lon": 0.0, "lat": 38.90523616666667, "type": "electric_scooter", "name": "33b0d145b602c5b1376928dd45ac921c", "bike_id": "33b0d145b602c5b1376928dd45ac921c", "fusion_lat": 0.0, "lon": -77.0418785}, {"is_disabled": 0, "rental_uris": {"ios": "https://dc.lft.to/lastmile_qr_scan", "android": "https://dc.lft.to/lastmile_qr_scan"}, "is_reserved": 0, "fusion_lon": 0.0, "lat": 38.835830333333334, "type": "electric_bike", "name": "7eef7896421bfcecbaff14e141274309", "bike_id": "7eef7896421bfcecbaff14e141274309", "fusion_lat": 0.0, "lon": -76.99027233333334}, {"is_disabled": 0, "rental_uris": {"ios": "https://dc.lft.to/lastmile_qr_scan", "android": "https://dc.lft.to/lastmile_qr_scan"}, "is_reserved": 0, "fusion_lon": 0.0, "lat": 38.90555333333333, "type": "electric_scooter", "name": "7754b1378b8b0e1532212621eb2a4206", "bike_id": "7754b1378b8b0e1532212621eb2a4206", "fusion_lat": 0.0, "lon": -77.040405}, {"is_disabled": 0, "rental_uris": {"ios": "https://dc.lft.to/lastmile_qr_scan", "android": "https://dc.lft.to/lastmile_qr_scan"}, "is_reserved": 0, "fusion_lon": 0.0, "lat": 38.92061533333333, "type": "electric_scooter", "name": "1b29387ca94667e720005b55ae8943fb", "bike_id": "1b29387ca94667e720005b55ae8943fb", "fusion_lat": 0.0, "lon": -77.0318175}, {"is_disabled": 0, "rental_uris": {"ios": "https://dc.lft.to/lastmile_qr_scan", "android": "https://dc.lft.to/lastmile_qr_scan"}, "is_reserved": 0, "fusion_lon": 0.0, "lat": 38.9000625, "type": "electric_scooter", "name": "dc918d96b22778a651d01451dbbf033f", "bike_id": "dc918d96b22778a651d01451dbbf033f", "fusion_lat": 0.0, "lon": -77.00668716666667}, {"is_disabled": 0, "rental_uris": {"ios": "https://dc.lft.to/lastmile_qr_scan", "android": "https://dc.lft.to/lastmile_qr_scan"}, "is_reserved": 0, "fusion_lon": 0.0, "lat": 38.8765435, "type": "electric_scooter", "name": "193615b80f5ce07c694c6325b3bf06c5", "bike_id": "193615b80f5ce07c694c6325b3bf06c5", "fusion_lat": 0.0, "lon": -77.0083195}, {"is_disabled": 0, "rental_uris": {"ios": "https://dc.lft.to/lastmile_qr_scan", "android": "https://dc.lft.to/lastmile_qr_scan"}, "is_reserved": 0, "fusion_lon": 0.0, "lat": 38.91116616666667, "type": "electric_scooter", "name": "814d7a933bc516b0f50734e58558de56", "bike_id": "814d7a933bc516b0f50734e58558de56", "fusion_lat": 0.0, "lon": -77.04362066666667}, {"is_disabled": 0, "rental_uris": {"ios": "https://dc.lft.to/lastmile_qr_scan", "android": "https://dc.lft.to/lastmile_qr_scan"}, "is_reserved": 0, "fusion_lon": 0.0, "lat": 38.918168666666666, "type": "electric_scooter", "name": "c8fff54f923ef5f02cdd574352a44b55", "bike_id": "c8fff54f923ef5f02cdd574352a44b55", "fusion_lat": 0.0, "lon": -77.02710416666666}, {"is_disabled": 0, "rental_uris": {"ios": "https://dc.lft.to/lastmile_qr_scan", "android": "https://dc.lft.to/lastmile_qr_scan"}, "is_reserved": 0, "fusion_lon": 0.0, "lat": 38.89714383333333, "type": "electric_scooter", "name": "6d504aa78877a9c97048c2802ba4c3c1", "bike_id": "6d504aa78877a9c97048c2802ba4c3c1", "fusion_lat": 0.0, "lon": -77.00797383333334}, {"is_disabled": 0, "rental_uris": {"ios": "https://dc.lft.to/lastmile_qr_scan", "android": "https://dc.lft.to/lastmile_qr_scan"}, "is_reserved": 0, "fusion_lon": 0.0, "lat": 38.932310666666666, "type": "electric_scooter", "name": "bd0d3df39fdb717c3fab6e86b411dab8", "bike_id": "bd0d3df39fdb717c3fab6e86b411dab8", "fusion_lat": 0.0, "lon": -76.9970165}, {"is_disabled": 0, "rental_uris": {"ios": "https://dc.lft.to/lastmile_qr_scan", "android": "https://dc.lft.to/lastmile_qr_scan"}, "is_reserved": 0, "fusion_lon": 0.0, "lat": 38.925777833333335, "type": "electric_scooter", "name": "2b5146485c10d7f0bbd7540469ba93e3", "bike_id": "2b5146485c10d7f0bbd7540469ba93e3", "fusion_lat": 0.0, "lon": -77.032088}, {"is_disabled": 0, "rental_uris": {"ios": "https://dc.lft.to/lastmile_qr_scan", "android": "https://dc.lft.to/lastmile_qr_scan"}, "is_reserved": 0, "fusion_lon": 0.0, "lat": 38.895462, "type": "electric_scooter", "name": "b406a12f27b4b50df12328461c00e130", "bike_id": "b406a12f27b4b50df12328461c00e130", "fusion_lat": 0.0, "lon": -77.04263683333333}, {"is_disabled": 0, "rental_uris": {"ios": "https://dc.lft.to/lastmile_qr_scan", "android": "https://dc.lft.to/lastmile_qr_scan"}, "is_reserved": 0, "fusion_lon": 0.0, "lat": 38.887428666666665, "type": "electric_scooter", "name": "368c21a61ab87af869a7b86f0281f474", "bike_id": "368c21a61ab87af869a7b86f0281f474", "fusion_lat": 0.0, "lon": -77.028354}, {"is_disabled": 0, "rental_uris": {"ios": "https://dc.lft.to/lastmile_qr_scan", "android": "https://dc.lft.to/lastmile_qr_scan"}, "is_reserved": 0, "fusion_lon": 0.0, "lat": 38.905409, "type": "electric_scooter", "name": "b6c8d2ce3da1fc8909cc6b1458ff3016", "bike_id": "b6c8d2ce3da1fc8909cc6b1458ff3016", "fusion_lat": 0.0, "lon": -77.05702333333333}, {"is_disabled": 0, "rental_uris": {"ios": "https://dc.lft.to/lastmile_qr_scan", "android": "https://dc.lft.to/lastmile_qr_scan"}, "is_reserved": 0, "fusion_lon": 0.0, "lat": 38.90496233333333, "type": "electric_scooter", "name": "35852b5c5cc666d1e03be127064339a9", "bike_id": "35852b5c5cc666d1e03be127064339a9", "fusion_lat": 0.0, "lon": -77.06570316666667}, {"is_disabled": 0, "rental_uris": {"ios": "https://dc.lft.to/lastmile_qr_scan", "android": "https://dc.lft.to/lastmile_qr_scan"}, "is_reserved": 0, "fusion_lon": 0.0, "lat": 38.91519816666667, "type": "electric_scooter", "name": "8674b8e5fd77d041ec48b81d8b09b3d2", "bike_id": "8674b8e5fd77d041ec48b81d8b09b3d2", "fusion_lat": 0.0, "lon": -77.01850233333333}, {"is_disabled": 0, "rental_uris": {"ios": "https://dc.lft.to/lastmile_qr_scan", "android": "https://dc.lft.to/lastmile_qr_scan"}, "is_reserved": 0, "fusion_lon": 0.0, "lat": 38.920640166666665, "type": "electric_scooter", "name": "ed4ec84a7773004f8d7850d79c5dcdcf", "bike_id": "ed4ec84a7773004f8d7850d79c5dcdcf", "fusion_lat": 0.0, "lon": -77.02611416666667}, {"is_disabled": 0, "rental_uris": {"ios": "https://dc.lft.to/lastmile_qr_scan", "android": "https://dc.lft.to/lastmile_qr_scan"}, "is_reserved": 0, "fusion_lon": 0.0, "lat": 38.915902833333334, "type": "electric_scooter", "name": "d532b8f86e4c67dc233b014871b511e7", "bike_id": "d532b8f86e4c67dc233b014871b511e7", "fusion_lat": 0.0, "lon": -77.04362116666667}, {"is_disabled": 0, "rental_uris": {"ios": "https://dc.lft.to/lastmile_qr_scan", "android": "https://dc.lft.to/lastmile_qr_scan"}, "is_reserved": 0, "fusion_lon": 0.0, "lat": 38.9182275, "type": "electric_scooter", "name": "466c2dcf142d3837141d7ed11f63c4ba", "bike_id": "466c2dcf142d3837141d7ed11f63c4ba", "fusion_lat": 0.0, "lon": -77.04155033333333}, {"is_disabled": 0, "rental_uris": {"ios": "https://dc.lft.to/lastmile_qr_scan", "android": "https://dc.lft.to/lastmile_qr_scan"}, "is_reserved": 0, "fusion_lon": 0.0, "lat": 38.923187166666665, "type": "electric_scooter", "name": "cfa93bea092236b31482d021c4b7380b", "bike_id": "cfa93bea092236b31482d021c4b7380b", "fusion_lat": 0.0, "lon": -77.0290195}, {"is_disabled": 0, "rental_uris": {"ios": "https://dc.lft.to/lastmile_qr_scan", "android": "https://dc.lft.to/lastmile_qr_scan"}, "is_reserved": 0, "fusion_lon": 0.0, "lat": 38.92198633333334, "type": "electric_scooter", "name": "844005bc3af68a049e2dd6e1c6e5e613", "bike_id": "844005bc3af68a049e2dd6e1c6e5e613", "fusion_lat": 0.0, "lon": -77.03795033333333}, {"is_disabled": 0, "rental_uris": {"ios": "https://dc.lft.to/lastmile_qr_scan", "android": "https://dc.lft.to/lastmile_qr_scan"}, "is_reserved": 0, "fusion_lon": 0.0, "lat": 38.887371, "type": "electric_scooter", "name": "99ff6f2615ba7d44682fe79e630d29d3", "bike_id": "99ff6f2615ba7d44682fe79e630d29d3", "fusion_lat": 0.0, "lon": -77.0220945}, {"is_disabled": 0, "rental_uris": {"ios": "https://dc.lft.to/lastmile_qr_scan", "android": "https://dc.lft.to/lastmile_qr_scan"}, "is_reserved": 0, "fusion_lon": 0.0, "lat": 38.893366666666665, "type": "electric_scooter", "name": "aae150b1259be7a382e73de697db0303", "bike_id": "aae150b1259be7a382e73de697db0303", "fusion_lat": 0.0, "lon": -77.04641883333333}, {"is_disabled": 0, "rental_uris": {"ios": "https://dc.lft.to/lastmile_qr_scan", "android": "https://dc.lft.to/lastmile_qr_scan"}, "is_reserved": 0, "fusion_lon": 0.0, "lat": 38.90120833333334, "type": "electric_scooter", "name": "12318963deb80ebb939602bbabc81a25", "bike_id": "12318963deb80ebb939602bbabc81a25", "fusion_lat": 0.0, "lon": -77.0396485}, {"is_disabled": 0, "rental_uris": {"ios": "https://dc.lft.to/lastmile_qr_scan", "android": "https://dc.lft.to/lastmile_qr_scan"}, "is_reserved": 0, "fusion_lon": 0.0, "lat": 38.919205166666664, "type": "electric_scooter", "name": "719ea1e73149334deb7f7d23c0d0a779", "bike_id": "719ea1e73149334deb7f7d23c0d0a779", "fusion_lat": 0.0, "lon": -77.03089966666667}, {"is_disabled": 0, "rental_uris": {"ios": "https://dc.lft.to/lastmile_qr_scan", "android": "https://dc.lft.to/lastmile_qr_scan"}, "is_reserved": 0, "fusion_lon": 0.0, "lat": 38.92340433333333, "type": "electric_scooter", "name": "efde73c50baab769fef4857490c0befa", "bike_id": "efde73c50baab769fef4857490c0befa", "fusion_lat": 0.0, "lon": -77.03472833333333}, {"is_disabled": 0, "rental_uris": {"ios": "https://dc.lft.to/lastmile_qr_scan", "android": "https://dc.lft.to/lastmile_qr_scan"}, "is_reserved": 0, "fusion_lon": 0.0, "lat": 38.87736133333333, "type": "electric_scooter", "name": "9729e037288c8fca85f2f95c883f6dff", "bike_id": "9729e037288c8fca85f2f95c883f6dff", "fusion_lat": 0.0, "lon": -77.0178475}, {"is_disabled": 0, "rental_uris": {"ios": "https://dc.lft.to/lastmile_qr_scan", "android": "https://dc.lft.to/lastmile_qr_scan"}, "is_reserved": 0, "fusion_lon": 0.0, "lat": 38.90175133333334, "type": "electric_scooter", "name": "fb62a3500dbe4df73cd104bb773cd87f", "bike_id": "fb62a3500dbe4df73cd104bb773cd87f", "fusion_lat": 0.0, "lon": -77.05010133333333}, {"is_disabled": 0, "rental_uris": {"ios": "https://dc.lft.to/lastmile_qr_scan", "android": "https://dc.lft.to/lastmile_qr_scan"}, "is_reserved": 0, "fusion_lon": 0.0, "lat": 38.92466866666667, "type": "electric_scooter", "name": "e975c9344829fde98d03b8f13a08d4dd", "bike_id": "e975c9344829fde98d03b8f13a08d4dd", "fusion_lat": 0.0, "lon": -77.02710433333333}, {"is_disabled": 0, "rental_uris": {"ios": "https://dc.lft.to/lastmile_qr_scan", "android": "https://dc.lft.to/lastmile_qr_scan"}, "is_reserved": 0, "fusion_lon": 0.0, "lat": 38.92255816666667, "type": "electric_scooter", "name": "511c6025fe423ffcb05c4128733f63f9", "bike_id": "511c6025fe423ffcb05c4128733f63f9", "fusion_lat": 0.0, "lon": -77.019272}, {"is_disabled": 0, "rental_uris": {"ios": "https://dc.lft.to/lastmile_qr_scan", "android": "https://dc.lft.to/lastmile_qr_scan"}, "is_reserved": 0, "fusion_lon": 0.0, "lat": 38.902345, "type": "electric_scooter", "name": "95e7ced7d5ac753e2c0dab018219fda4", "bike_id": "95e7ced7d5ac753e2c0dab018219fda4", "fusion_lat": 0.0, "lon": -77.00200383333333}, {"is_disabled": 0, "rental_uris": {"ios": "https://dc.lft.to/lastmile_qr_scan", "android": "https://dc.lft.to/lastmile_qr_scan"}, "is_reserved": 0, "fusion_lon": 0.0, "lat": 38.93110566666667, "type": "electric_scooter", "name": "d454ed93813e0cf0a684704db43612df", "bike_id": "d454ed93813e0cf0a684704db43612df", "fusion_lat": 0.0, "lon": -77.02134583333333}, {"is_disabled": 0, "rental_uris": {"ios": "https://dc.lft.to/lastmile_qr_scan", "android": "https://dc.lft.to/lastmile_qr_scan"}, "is_reserved": 0, "fusion_lon": 0.0, "lat": 38.874334166666664, "type": "electric_scooter", "name": "2a989d72b1579028174a766a708a4b53", "bike_id": "2a989d72b1579028174a766a708a4b53", "fusion_lat": 0.0, "lon": -77.00048683333333}, {"is_disabled": 0, "rental_uris": {"ios": "https://dc.lft.to/lastmile_qr_scan", "android": "https://dc.lft.to/lastmile_qr_scan"}, "is_reserved": 0, "fusion_lon": 0.0, "lat": 38.92270666666667, "type": "electric_scooter", "name": "b074ed196ad0f4c58f3e7b4ed37ed6f8", "bike_id": "b074ed196ad0f4c58f3e7b4ed37ed6f8", "fusion_lat": 0.0, "lon": -77.0366275}, {"is_disabled": 0, "rental_uris": {"ios": "https://dc.lft.to/lastmile_qr_scan", "android": "https://dc.lft.to/lastmile_qr_scan"}, "is_reserved": 0, "fusion_lon": 0.0, "lat": 38.923430333333336, "type": "electric_scooter", "name": "31f0b1cb37ae4e630b715c9007ea7cf9", "bike_id": "31f0b1cb37ae4e630b715c9007ea7cf9", "fusion_lat": 0.0, "lon": -76.99871066666667}, {"is_disabled": 0, "rental_uris": {"ios": "https://dc.lft.to/lastmile_qr_scan", "android": "https://dc.lft.to/lastmile_qr_scan"}, "is_reserved": 0, "fusion_lon": 0.0, "lat": 38.90834316666667, "type": "electric_scooter", "name": "fe86fc479b160f534c24359497c15677", "bike_id": "fe86fc479b160f534c24359497c15677", "fusion_lat": 0.0, "lon": -77.036255}, {"is_disabled": 0, "rental_uris": {"ios": "https://dc.lft.to/lastmile_qr_scan", "android": "https://dc.lft.to/lastmile_qr_scan"}, "is_reserved": 0, "fusion_lon": 0.0, "lat": 38.84291433333333, "type": "electric_bike", "name": "2973373ac4a90f20e297f5a6dd60329b", "bike_id": "2973373ac4a90f20e297f5a6dd60329b", "fusion_lat": 0.0, "lon": -77.0638285}, {"is_disabled": 0, "rental_uris": {"ios": "https://dc.lft.to/lastmile_qr_scan", "android": "https://dc.lft.to/lastmile_qr_scan"}, "is_reserved": 0, "fusion_lon": 0.0, "lat": 38.926011, "type": "electric_scooter", "name": "53be82e90a8f56d8a5c800cabe03d606", "bike_id": "53be82e90a8f56d8a5c800cabe03d606", "fusion_lat": 0.0, "lon": -77.02152183333334}, {"is_disabled": 0, "rental_uris": {"ios": "https://dc.lft.to/lastmile_qr_scan", "android": "https://dc.lft.to/lastmile_qr_scan"}, "is_reserved": 0, "fusion_lon": 0.0, "lat": 38.99405083333333, "type": "electric_bike", "name": "8ea49288d0d5a8d57d56759b08ca6883", "bike_id": "8ea49288d0d5a8d57d56759b08ca6883", "fusion_lat": 0.0, "lon": -77.02319766666666}, {"is_disabled": 0, "rental_uris": {"ios": "https://dc.lft.to/lastmile_qr_scan", "android": "https://dc.lft.to/lastmile_qr_scan"}, "is_reserved": 0, "fusion_lon": 0.0, "lat": 38.90266333333334, "type": "electric_scooter", "name": "dcec8fff526e52c337ccc23f14699dd1", "bike_id": "dcec8fff526e52c337ccc23f14699dd1", "fusion_lat": 0.0, "lon": -77.0364925}, {"is_disabled": 0, "rental_uris": {"ios": "https://dc.lft.to/lastmile_qr_scan", "android": "https://dc.lft.to/lastmile_qr_scan"}, "is_reserved": 0, "fusion_lon": 0.0, "lat": 38.972366666666666, "type": "electric_scooter", "name": "456dcf5877020cdf59d40948f6de035e", "bike_id": "456dcf5877020cdf59d40948f6de035e", "fusion_lat": 0.0, "lon": -77.0271405}, {"is_disabled": 0, "rental_uris": {"ios": "https://dc.lft.to/lastmile_qr_scan", "android": "https://dc.lft.to/lastmile_qr_scan"}, "is_reserved": 0, "fusion_lon": 0.0, "lat": 38.92276366666667, "type": "electric_scooter", "name": "d41fe235cd5bbf988a5bc5d3de8a8060", "bike_id": "d41fe235cd5bbf988a5bc5d3de8a8060", "fusion_lat": 0.0, "lon": -77.021216}, {"is_disabled": 0, "rental_uris": {"ios": "https://dc.lft.to/lastmile_qr_scan", "android": "https://dc.lft.to/lastmile_qr_scan"}, "is_reserved": 0, "fusion_lon": 0.0, "lat": 38.88131516666667, "type": "electric_scooter", "name": "59c154c0f7af34fba9640b6bcc006b57", "bike_id": "59c154c0f7af34fba9640b6bcc006b57", "fusion_lat": 0.0, "lon": -77.02709083333333}, {"is_disabled": 0, "rental_uris": {"ios": "https://dc.lft.to/lastmile_qr_scan", "android": "https://dc.lft.to/lastmile_qr_scan"},