{"data": {"bikes": [{"fusion_lat": 0.0, "name": "c0ceffc0e9d0fab925ca915bad80cf49", "is_disabled": 0, "rental_uris": {"android": "https://dc.lft.to/lastmile_qr_scan", "ios": "https://dc.lft.to/lastmile_qr_scan"}, "fusion_lon": 0.0, "lat": 38.938977333333334, "bike_id": "c0ceffc0e9d0fab925ca915bad80cf49", "type": "electric_scooter", "is_reserved": 0, "lon": -77.033307}, {"fusion_lat": 0.0, "name": "ea54d7a59a3f3f25a58c496426077f1b", "is_disabled": 0, "rental_uris": {"android": "https://dc.lft.to/lastmile_qr_scan", "ios": "https://dc.lft.to/lastmile_qr_scan"}, "fusion_lon": 0.0, "lat": 38.928938333333335, "bike_id": "ea54d7a59a3f3f25a58c496426077f1b", "type": "electric_scooter", "is_reserved": 0, "lon": -77.03307516666666}, {"fusion_lat": 0.0, "name": "9ea51611528b180110a6a6ac60dbaa81", "is_disabled": 0, "rental_uris": {"android": "https://dc.lft.to/lastmile_qr_scan", "ios": "https://dc.lft.to/lastmile_qr_scan"}, "fusion_lon": 0.0, "lat": 38.89735833333334, "bike_id": "9ea51611528b180110a6a6ac60dbaa81", "type": "electric_scooter", "is_reserved": 0, "lon": -77.05472183333333}, {"fusion_lat": 0.0, "name": "522f2c9ab1e68a2f8a50d4d4a2cd5807", "is_disabled": 0, "rental_uris": {"android": "https://dc.lft.to/lastmile_qr_scan", "ios": "https://dc.lft.to/lastmile_qr_scan"}, "fusion_lon": 0.0, "lat": 38.92987, "bike_id": "522f2c9ab1e68a2f8a50d4d4a2cd5807", "type": "electric_scooter", "is_reserved": 0, "lon": -77.0326345}, {"fusion_lat": 0.0, "name": "4b8aa3a872a66af36cd5ff7015e17878", "is_disabled": 0, "rental_uris": {"android": "https://dc.lft.to/lastmile_qr_scan", "ios": "https://dc.lft.to/lastmile_qr_scan"}, "fusion_lon": 0.0, "lat": 38.91133283333333, "bike_id": "4b8aa3a872a66af36cd5ff7015e17878", "type": "electric_scooter", "is_reserved": 0, "lon": -77.04414633333333}, {"fusion_lat": 0.0, "name": "56d2942bb0c5e3f6839407247d74a2f5", "is_disabled": 0, "rental_uris": {"android": "https://dc.lft.to/lastmile_qr_scan", "ios": "https://dc.lft.to/lastmile_qr_scan"}, "fusion_lon": 0.0, "lat": 38.907103, "bike_id": "56d2942bb0c5e3f6839407247d74a2f5", "type": "electric_scooter", "is_reserved": 0, "lon": -77.06896616666667}, {"fusion_lat": 0.0, "name": "84c94f4c13ad4af1e3b212e408f23635", "is_disabled": 0, "rental_uris": {"android": "https://dc.lft.to/lastmile_qr_scan", "ios": "https://dc.lft.to/lastmile_qr_scan"}, "fusion_lon": 0.0, "lat": 38.923117166666664, "bike_id": "84c94f4c13ad4af1e3b212e408f23635", "type": "electric_scooter", "is_reserved": 0, "lon": -77.02974683333333}, {"fusion_lat": 0.0, "name": "4e18ad31662f990938413a4a87308d5e", "is_disabled": 0, "rental_uris": {"android": "https://dc.lft.to/lastmile_qr_scan", "ios": "https://dc.lft.to/lastmile_qr_scan"}, "fusion_lon": 0.0, "lat": 38.90949483333333, "bike_id": "4e18ad31662f990938413a4a87308d5e", "type": "electric_scooter", "is_reserved": 0, "lon": -76.998964}, {"fusion_lat": 0.0, "name": "35562f73de203e171dabb0ab4a247bfb", "is_disabled": 0, "rental_uris": {"android": "https://dc.lft.to/lastmile_qr_scan", "ios": "https://dc.lft.to/lastmile_qr_scan"}, "fusion_lon": 0.0, "lat": 38.894292666666665, "bike_id": "35562f73de203e171dabb0ab4a247bfb", "type": "electric_scooter", "is_reserved": 0, "lon": -77.0009635}, {"fusion_lat": 0.0, "name": "1167f4f819aa2d387fb6c398b7e90f8f", "is_disabled": 0, "rental_uris": {"android": "https://dc.lft.to/lastmile_qr_scan", "ios": "https://dc.lft.to/lastmile_qr_scan"}, "fusion_lon": 0.0, "lat": 38.92751916666667, "bike_id": "1167f4f819aa2d387fb6c398b7e90f8f", "type": "electric_scooter", "is_reserved": 0, "lon": -77.02132933333333}, {"fusion_lat": 0.0, "name": "7fe56a9d957bd1a53af09844776095e1", "is_disabled": 0, "rental_uris": {"android": "https://dc.lft.to/lastmile_qr_scan", "ios": "https://dc.lft.to/lastmile_qr_scan"}, "fusion_lon": 0.0, "lat": 38.895465, "bike_id": "7fe56a9d957bd1a53af09844776095e1", "type": "electric_scooter", "is_reserved": 0, "lon": -77.03952266666667}, {"fusion_lat": 0.0, "name": "9f9ee65c6f3c778c6ab92029379eebbf", "is_disabled": 0, "rental_uris": {"android": "https://dc.lft.to/lastmile_qr_scan", "ios": "https://dc.lft.to/lastmile_qr_scan"}, "fusion_lon": 0.0, "lat": 38.9369935, "bike_id": "9f9ee65c6f3c778c6ab92029379eebbf", "type": "electric_scooter", "is_reserved": 0, "lon": -77.02399483333333}, {"fusion_lat": 0.0, "name": "0e9927dc8ec8fcca50868386c4b8489f", "is_disabled": 0, "rental_uris": {"android": "https://dc.lft.to/lastmile_qr_scan", "ios": "https://dc.lft.to/lastmile_qr_scan"}, "fusion_lon": 0.0, "lat": 38.89506033333333, "bike_id": "0e9927dc8ec8fcca50868386c4b8489f", "type": "electric_scooter", "is_reserved": 0, "lon": -77.0283225}, {"fusion_lat": 0.0, "name": "98eb596c20026717f503dd6dfbe465b2", "is_disabled": 0, "rental_uris": {"android": "https://dc.lft.to/lastmile_qr_scan", "ios": "https://dc.lft.to/lastmile_qr_scan"}, "fusion_lon": 0.0, "lat": 38.98059716666667, "bike_id": "98eb596c20026717f503dd6dfbe465b2", "type": "electric_scooter", "is_reserved": 0, "lon": -77.02637116666666}, {"fusion_lat": 0.0, "name": "5a7f229caf5bb0d08794bc59ef6c37f4", "is_disabled": 0, "rental_uris": {"android": "https://dc.lft.to/lastmile_qr_scan", "ios": "https://dc.lft.to/lastmile_qr_scan"}, "fusion_lon": 0.0, "lat": 38.90536983333333, "bike_id": "5a7f229caf5bb0d08794bc59ef6c37f4", "type": "electric_scooter", "is_reserved": 0, "lon": -77.05122616666667}, {"fusion_lat": 0.0, "name": "8cc1a2b2f781f3664935c93b7454a2ec", "is_disabled": 0, "rental_uris": {"android": "https://dc.lft.to/lastmile_qr_scan", "ios": "https://dc.lft.to/lastmile_qr_scan"}, "fusion_lon": 0.0, "lat": 38.94957433333333, "bike_id": "8cc1a2b2f781f3664935c93b7454a2ec", "type": "electric_scooter", "is_reserved": 0, "lon": -77.02315666666667}, {"fusion_lat": 0.0, "name": "b92e49fa1f47160b219ada32b515cf17", "is_disabled": 0, "rental_uris": {"android": "https://dc.lft.to/lastmile_qr_scan", "ios": "https://dc.lft.to/lastmile_qr_scan"}, "fusion_lon": 0.0, "lat": 39.05634766666667, "bike_id": "b92e49fa1f47160b219ada32b515cf17", "type": "electric_bike", "is_reserved": 0, "lon": -77.12526233333334}, {"fusion_lat": 0.0, "name": "fadaaaf6be827008d75008a023fec7df", "is_disabled": 0, "rental_uris": {"android": "https://dc.lft.to/lastmile_qr_scan", "ios": "https://dc.lft.to/lastmile_qr_scan"}, "fusion_lon": 0.0, "lat": 38.9338485, "bike_id": "fadaaaf6be827008d75008a023fec7df", "type": "electric_scooter", "is_reserved": 0, "lon": -77.02683683333333}, {"fusion_lat": 0.0, "name": "30ea0658608674fa96402e930006c7c5", "is_disabled": 0, "rental_uris": {"android": "https://dc.lft.to/lastmile_qr_scan", "ios": "https://dc.lft.to/lastmile_qr_scan"}, "fusion_lon": 0.0, "lat": 38.90459216666667, "bike_id": "30ea0658608674fa96402e930006c7c5", "type": "electric_scooter", "is_reserved": 0, "lon": -77.05132116666667}, {"fusion_lat": 0.0, "name": "281b7e74ece44947da5d1b2e962eb0c8", "is_disabled": 0, "rental_uris": {"android": "https://dc.lft.to/lastmile_qr_scan", "ios": "https://dc.lft.to/lastmile_qr_scan"}, "fusion_lon": 0.0, "lat": 38.91047416666667, "bike_id": "281b7e74ece44947da5d1b2e962eb0c8", "type": "electric_scooter", "is_reserved": 0, "lon": -77.0639145}, {"fusion_lat": 0.0, "name": "e4de3349efd7db634182f1fa1678a5ae", "is_disabled": 0, "rental_uris": {"android": "https://dc.lft.to/lastmile_qr_scan", "ios": "https://dc.lft.to/lastmile_qr_scan"}, "fusion_lon": 0.0, "lat": 38.88425, "bike_id": "e4de3349efd7db634182f1fa1678a5ae", "type": "electric_scooter", "is_reserved": 0, "lon": -77.02603766666667}, {"fusion_lat": 0.0, "name": "74d285f1513cd9674d9e36ce66f13e9f", "is_disabled": 0, "rental_uris": {"android": "https://dc.lft.to/lastmile_qr_scan", "ios": "https://dc.lft.to/lastmile_qr_scan"}, "fusion_lon": 0.0, "lat": 38.927355, "bike_id": "74d285f1513cd9674d9e36ce66f13e9f", "type": "electric_scooter", "is_reserved": 0, "lon": -77.023052}, {"fusion_lat": 0.0, "name": "f9dee74634f464508d5a08516772aae4", "is_disabled": 0, "rental_uris": {"android": "https://dc.lft.to/lastmile_qr_scan", "ios": "https://dc.lft.to/lastmile_qr_scan"}, "fusion_lon": 0.0, "lat": 38.902696666666664, "bike_id": "f9dee74634f464508d5a08516772aae4", "type": "electric_scooter", "is_reserved": 0, "lon": -77.03343083333333}, {"fusion_lat": 0.0, "name": "98aed97cebfdaf9c9577f9e21ddc33da", "is_disabled": 0, "rental_uris": {"android": "https://dc.lft.to/lastmile_qr_scan", "ios": "https://dc.lft.to/lastmile_qr_scan"}, "fusion_lon": 0.0, "lat": 38.8987745, "bike_id": "98aed97cebfdaf9c9577f9e21ddc33da", "type": "electric_scooter", "is_reserved": 0, "lon": -77.02834016666667}, {"fusion_lat": 0.0, "name": "37d1bb01b9b6f49eee2b787c1eaf0623", "is_disabled": 0, "rental_uris": {"android": "https://dc.lft.to/lastmile_qr_scan", "ios": "https://dc.lft.to/lastmile_qr_scan"}, "fusion_lon": 0.0, "lat": 38.893867666666665, "bike_id": "37d1bb01b9b6f49eee2b787c1eaf0623", "type": "electric_scooter", "is_reserved": 0, "lon": -76.92303216666667}, {"fusion_lat": 0.0, "name": "216029a6e279863e505f37a03b8c82ce", "is_disabled": 0, "rental_uris": {"android": "https://dc.lft.to/lastmile_qr_scan", "ios": "https://dc.lft.to/lastmile_qr_scan"}, "fusion_lon": 0.0, "lat": 38.89862, "bike_id": "216029a6e279863e505f37a03b8c82ce", "type": "electric_scooter", "is_reserved": 0, "lon": -76.94639666666667}, {"fusion_lat": 0.0, "name": "7502e5f973549ded8ae43f36c70744fd", "is_disabled": 0, "rental_uris": {"android": "https://dc.lft.to/lastmile_qr_scan", "ios": "https://dc.lft.to/lastmile_qr_scan"}, "fusion_lon": 0.0, "lat": 38.861768833333336, "bike_id": "7502e5f973549ded8ae43f36c70744fd", "type": "electric_scooter", "is_reserved": 0, "lon": -76.969063}, {"fusion_lat": 0.0, "name": "d75a67e286f0304a2684593e34c87a01", "is_disabled": 0, "rental_uris": {"android": "https://dc.lft.to/lastmile_qr_scan", "ios": "https://dc.lft.to/lastmile_qr_scan"}, "fusion_lon": 0.0, "lat": 38.90782333333333, "bike_id": "d75a67e286f0304a2684593e34c87a01", "type": "electric_scooter", "is_reserved": 0, "lon": -77.072492}, {"fusion_lat": 0.0, "name": "1aad81e1e4d04ac443a47e0d43e0f864", "is_disabled": 0, "rental_uris": {"android": "https://dc.lft.to/lastmile_qr_scan", "ios": "https://dc.lft.to/lastmile_qr_scan"}, "fusion_lon": 0.0, "lat": 38.89962516666667, "bike_id": "1aad81e1e4d04ac443a47e0d43e0f864", "type": "electric_scooter", "is_reserved": 0, "lon": -77.01527966666667}, {"fusion_lat": 0.0, "name": "40af437532b7384ae9d93c5655f33f44", "is_disabled": 0, "rental_uris": {"android": "https://dc.lft.to/lastmile_qr_scan", "ios": "https://dc.lft.to/lastmile_qr_scan"}, "fusion_lon": 0.0, "lat": 38.92079416666667, "bike_id": "40af437532b7384ae9d93c5655f33f44", "type": "electric_scooter", "is_reserved": 0, "lon": -77.022151}, {"fusion_lat": 0.0, "name": "f8f7370132e624e92562c974d2ce619b", "is_disabled": 0, "rental_uris": {"android": "https://dc.lft.to/lastmile_qr_scan", "ios": "https://dc.lft.to/lastmile_qr_scan"}, "fusion_lon": 0.0, "lat": 38.90288433333333, "bike_id": "f8f7370132e624e92562c974d2ce619b", "type": "electric_scooter", "is_reserved": 0, "lon": -77.0231185}, {"fusion_lat": 0.0, "name": "7d31bc85fc2dac7132728e5c94002593", "is_disabled": 0, "rental_uris": {"android": "https://dc.lft.to/lastmile_qr_scan", "ios": "https://dc.lft.to/lastmile_qr_scan"}, "fusion_lon": 0.0, "lat": 38.89713533333333, "bike_id": "7d31bc85fc2dac7132728e5c94002593", "type": "electric_scooter", "is_reserved": 0, "lon": -77.00805583333333}, {"fusion_lat": 0.0, "name": "a3c8dbe9015fc870af5f0d31ccf5e979", "is_disabled": 0, "rental_uris": {"android": "https://dc.lft.to/lastmile_qr_scan", "ios": "https://dc.lft.to/lastmile_qr_scan"}, "fusion_lon": 0.0, "lat": 38.97528633333334, "bike_id": "a3c8dbe9015fc870af5f0d31ccf5e979", "type": "electric_scooter", "is_reserved": 0, "lon": -77.01453966666666}, {"fusion_lat": 0.0, "name": "2209bcdd33a777cb8b3c7daf8f0dae33", "is_disabled": 0, "rental_uris": {"android": "https://dc.lft.to/lastmile_qr_scan", "ios": "https://dc.lft.to/lastmile_qr_scan"}, "fusion_lon": 0.0, "lat": 38.90267766666667, "bike_id": "2209bcdd33a777cb8b3c7daf8f0dae33", "type": "electric_scooter", "is_reserved": 0, "lon": -77.03885616666666}, {"fusion_lat": 0.0, "name": "93b59f691ce2aeef1aa981b22ab0706b", "is_disabled": 0, "rental_uris": {"android": "https://dc.lft.to/lastmile_qr_scan", "ios": "https://dc.lft.to/lastmile_qr_scan"}, "fusion_lon": 0.0, "lat": 38.92975283333333, "bike_id": "93b59f691ce2aeef1aa981b22ab0706b", "type": "electric_scooter", "is_reserved": 0, "lon": -77.03097416666667}, {"fusion_lat": 0.0, "name": "f7aea2721c071e2f6f4f59c2cd314a8b", "is_disabled": 0, "rental_uris": {"android": "https://dc.lft.to/lastmile_qr_scan", "ios": "https://dc.lft.to/lastmile_qr_scan"}, "fusion_lon": 0.0, "lat": 38.906632333333334, "bike_id": "f7aea2721c071e2f6f4f59c2cd314a8b", "type": "electric_scooter", "is_reserved": 0, "lon": -77.04711583333334}, {"fusion_lat": 0.0, "name": "25e9acc5444dbaff8b23e3f7ebbe9474", "is_disabled": 0, "rental_uris": {"android": "https://dc.lft.to/lastmile_qr_scan", "ios": "https://dc.lft.to/lastmile_qr_scan"}, "fusion_lon": 0.0, "lat": 38.87895683333333, "bike_id": "25e9acc5444dbaff8b23e3f7ebbe9474", "type": "electric_scooter", "is_reserved": 0, "lon": -77.0135905}, {"fusion_lat": 0.0, "name": "2dbfa3dc31ae07a89e9a9f5cfd475409", "is_disabled": 0, "rental_uris": {"android": "https://dc.lft.to/lastmile_qr_scan", "ios": "https://dc.lft.to/lastmile_qr_scan"}, "fusion_lon": 0.0, "lat": 38.929891, "bike_id": "2dbfa3dc31ae07a89e9a9f5cfd475409", "type": "electric_scooter", "is_reserved": 0, "lon": -77.03265966666666}, {"fusion_lat": 0.0, "name": "5a715d31b4b03897077c874d7d992cb8", "is_disabled": 0, "rental_uris": {"android": "https://dc.lft.to/lastmile_qr_scan", "ios": "https://dc.lft.to/lastmile_qr_scan"}, "fusion_lon": 0.0, "lat": 38.905741, "bike_id": "5a715d31b4b03897077c874d7d992cb8", "type": "electric_scooter", "is_reserved": 0, "lon": -77.0436005}, {"fusion_lat": 0.0, "name": "fd80ea9fc979b361f8cc67a58daa2fbf", "is_disabled": 0, "rental_uris": {"android": "https://dc.lft.to/lastmile_qr_scan", "ios": "https://dc.lft.to/lastmile_qr_scan"}, "fusion_lon": 0.0, "lat": 38.903759666666666, "bike_id": "fd80ea9fc979b361f8cc67a58daa2fbf", "type": "electric_scooter", "is_reserved": 0, "lon": -77.032116}, {"fusion_lat": 0.0, "name": "5127634c9d3f1747bf9bac4940cb59ff", "is_disabled": 0, "rental_uris": {"android": "https://dc.lft.to/lastmile_qr_scan", "ios": "https://dc.lft.to/lastmile_qr_scan"}, "fusion_lon": 0.0, "lat": 38.91900033333334, "bike_id": "5127634c9d3f1747bf9bac4940cb59ff", "type": "electric_scooter", "is_reserved": 0, "lon": -77.02757933333334}, {"fusion_lat": 0.0, "name": "c2d515ca62373a3289c4b652a7ffec50", "is_disabled": 0, "rental_uris": {"android": "https://dc.lft.to/lastmile_qr_scan", "ios": "https://dc.lft.to/lastmile_qr_scan"}, "fusion_lon": 0.0, "lat": 38.794684, "bike_id": "c2d515ca62373a3289c4b652a7ffec50", "type": "electric_bike", "is_reserved": 0, "lon": -76.99247916666667}, {"fusion_lat": 0.0, "name": "55a6729ffc779ad76f09886828272128", "is_disabled": 0, "rental_uris": {"android": "https://dc.lft.to/lastmile_qr_scan", "ios": "https://dc.lft.to/lastmile_qr_scan"}, "fusion_lon": 0.0, "lat": 38.922484833333336, "bike_id": "55a6729ffc779ad76f09886828272128", "type": "electric_scooter", "is_reserved": 0, "lon": -77.02973133333333}, {"fusion_lat": 0.0, "name": "e7fbdd850c9cb2670989b585e4371a86", "is_disabled": 0, "rental_uris": {"android": "https://dc.lft.to/lastmile_qr_scan", "ios": "https://dc.lft.to/lastmile_qr_scan"}, "fusion_lon": 0.0, "lat": 38.903889, "bike_id": "e7fbdd850c9cb2670989b585e4371a86", "type": "electric_scooter", "is_reserved": 0, "lon": -77.04449966666667}, {"fusion_lat": 0.0, "name": "bcaccd139b737dd8bf5b9324af96c136", "is_disabled": 0, "rental_uris": {"android": "https://dc.lft.to/lastmile_qr_scan", "ios": "https://dc.lft.to/lastmile_qr_scan"}, "fusion_lon": 0.0, "lat": 38.960473666666665, "bike_id": "bcaccd139b737dd8bf5b9324af96c136", "type": "electric_bike", "is_reserved": 0, "lon": -76.99587666666666}, {"fusion_lat": 0.0, "name": "723abfef50bba8ac3feb4f1fa47be821", "is_disabled": 0, "rental_uris": {"android": "https://dc.lft.to/lastmile_qr_scan", "ios": "https://dc.lft.to/lastmile_qr_scan"}, "fusion_lon": 0.0, "lat": 38.90778816666667, "bike_id": "723abfef50bba8ac3feb4f1fa47be821", "type": "electric_scooter", "is_reserved": 0, "lon": -77.07164366666666}, {"fusion_lat": 0.0, "name": "ef88b46563c7a36f4357c9f3146d14b6", "is_disabled": 0, "rental_uris": {"android": "https://dc.lft.to/lastmile_qr_scan", "ios": "https://dc.lft.to/lastmile_qr_scan"}, "fusion_lon": 0.0, "lat": 38.900271000000004, "bike_id": "ef88b46563c7a36f4357c9f3146d14b6", "type": "electric_scooter", "is_reserved": 0, "lon": -77.05829666666666}, {"fusion_lat": 0.0, "name": "38a1c25113fd99d393649fd7256a04d3", "is_disabled": 0, "rental_uris": {"android": "https://dc.lft.to/lastmile_qr_scan", "ios": "https://dc.lft.to/lastmile_qr_scan"}, "fusion_lon": 0.0, "lat": 38.948395166666664, "bike_id": "38a1c25113fd99d393649fd7256a04d3", "type": "electric_scooter", "is_reserved": 0, "lon": -77.02565616666666}, {"fusion_lat": 0.0, "name": "4049c44f11411bcb00f32f166ff1401c", "is_disabled": 0, "rental_uris": {"android": "https://dc.lft.to/lastmile_qr_scan", "ios": "https://dc.lft.to/lastmile_qr_scan"}, "fusion_lon": 0.0, "lat": 38.93585016666667, "bike_id": "4049c44f11411bcb00f32f166ff1401c", "type": "electric_scooter", "is_reserved": 0, "lon": -77.03511466666667}, {"fusion_lat": 0.0, "name": "9d06e91e725e602a9d1ab7adb1b499c7", "is_disabled": 0, "rental_uris": {"android": "https://dc.lft.to/lastmile_qr_scan", "ios": "https://dc.lft.to/lastmile_qr_scan"}, "fusion_lon": 0.0, "lat": 38.90049066666667, "bike_id": "9d06e91e725e602a9d1ab7adb1b499c7", "type": "electric_scooter", "is_reserved": 0, "lon": -77.03660383333333}, {"fusion_lat": 0.0, "name": "834329385010548c0e5db4ae2da68fbb", "is_disabled": 0, "rental_uris": {"android": "https://dc.lft.to/lastmile_qr_scan", "ios": "https://dc.lft.to/lastmile_qr_scan"}, "fusion_lon": 0.0, "lat": 38.892263666666665, "bike_id": "834329385010548c0e5db4ae2da68fbb", "type": "electric_scooter", "is_reserved": 0, "lon": -77.02423283333333}, {"fusion_lat": 0.0, "name": "6949b595ea933fb0b624251829777789", "is_disabled": 0, "rental_uris": {"android": "https://dc.lft.to/lastmile_qr_scan", "ios": "https://dc.lft.to/lastmile_qr_scan"}, "fusion_lon": 0.0, "lat": 38.90955833333334, "bike_id": "6949b595ea933fb0b624251829777789", "type": "electric_scooter", "is_reserved": 0, "lon": -77.04281533333334}, {"fusion_lat": 0.0, "name": "1ca6af7cbfb9336bb5b02c2fafb37de6", "is_disabled": 0, "rental_uris": {"android": "https://dc.lft.to/lastmile_qr_scan", "ios": "https://dc.lft.to/lastmile_qr_scan"}, "fusion_lon": 0.0, "lat": 39.03604933333333, "bike_id": "1ca6af7cbfb9336bb5b02c2fafb37de6", "type": "electric_bike", "is_reserved": 0, "lon": -77.05540083333334}, {"fusion_lat": 0.0, "name": "062d354a72159fafc8a3cc1f647adf09", "is_disabled": 0, "rental_uris": {"android": "https://dc.lft.to/lastmile_qr_scan", "ios": "https://dc.lft.to/lastmile_qr_scan"}, "fusion_lon": 0.0, "lat": 38.905388333333335, "bike_id": "062d354a72159fafc8a3cc1f647adf09", "type": "electric_scooter", "is_reserved": 0, "lon": -77.05338883333333}, {"fusion_lat": 0.0, "name": "638cd6ac476bbe47f39a84f08f47cb99", "is_disabled": 0, "rental_uris": {"android": "https://dc.lft.to/lastmile_qr_scan", "ios": "https://dc.lft.to/lastmile_qr_scan"}, "fusion_lon": 0.0, "lat": 38.899903333333334, "bike_id": "638cd6ac476bbe47f39a84f08f47cb99", "type": "electric_scooter", "is_reserved": 0, "lon": -76.984358}, {"fusion_lat": 0.0, "name": "992c5d53447e721b79573a78fd2e93a9", "is_disabled": 0, "rental_uris": {"android": "https://dc.lft.to/lastmile_qr_scan", "ios": "https://dc.lft.to/lastmile_qr_scan"}, "fusion_lon": 0.0, "lat": 38.928473333333336, "bike_id": "992c5d53447e721b79573a78fd2e93a9", "type": "electric_scooter", "is_reserved": 0, "lon": -77.05978233333333}, {"fusion_lat": 0.0, "name": "310e2debbd051d70b3b1e9c2387a9061", "is_disabled": 0, "rental_uris": {"android": "https://dc.lft.to/lastmile_qr_scan", "ios": "https://dc.lft.to/lastmile_qr_scan"}, "fusion_lon": 0.0, "lat": 38.92835783333334, "bike_id": "310e2debbd051d70b3b1e9c2387a9061", "type": "electric_scooter", "is_reserved": 0, "lon": -77.032672}, {"fusion_lat": 0.0, "name": "3a8d77d501074e6b6700b86a18599017", "is_disabled": 0, "rental_uris": {"android": "https://dc.lft.to/lastmile_qr_scan", "ios": "https://dc.lft.to/lastmile_qr_scan"}, "fusion_lon": 0.0, "lat": 38.925592, "bike_id": "3a8d77d501074e6b6700b86a18599017", "type": "electric_scooter", "is_reserved": 0, "lon": -77.053009}, {"fusion_lat": 0.0, "name": "8fd881d915800324d0790562783f5c83", "is_disabled": 0, "rental_uris": {"android": "https://dc.lft.to/lastmile_qr_scan", "ios": "https://dc.lft.to/lastmile_qr_scan"}, "fusion_lon": 0.0, "lat": 38.994177, "bike_id": "8fd881d915800324d0790562783f5c83", "type": "electric_bike", "is_reserved": 0, "lon": -77.076956}, {"fusion_lat": 0.0, "name": "b41accfb3b6d8a78b8843dd4fb9a88f2", "is_disabled": 0, "rental_uris": {"android": "https://dc.lft.to/lastmile_qr_scan", "ios": "https://dc.lft.to/lastmile_qr_scan"}, "fusion_lon": 0.0, "lat": 38.916433, "bike_id": "b41accfb3b6d8a78b8843dd4fb9a88f2", "type": "electric_scooter", "is_reserved": 0, "lon": -77.03458966666666}, {"fusion_lat": 0.0, "name": "8a678e040babd333b7d8dbf947e8b7ee", "is_disabled": 0, "rental_uris": {"android": "https://dc.lft.to/lastmile_qr_scan", "ios": "https://dc.lft.to/lastmile_qr_scan"}, "fusion_lon": 0.0, "lat": 38.880111166666666, "bike_id": "8a678e040babd333b7d8dbf947e8b7ee", "type": "electric_scooter", "is_reserved": 0, "lon": -77.02483266666667}, {"fusion_lat": 0.0, "name": "fd271bd7d78c41293e3bcee2ca311edb", "is_disabled": 0, "rental_uris": {"android": "https://dc.lft.to/lastmile_qr_scan", "ios": "https://dc.lft.to/lastmile_qr_scan"}, "fusion_lon": 0.0, "lat": 38.94451216666667, "bike_id": "fd271bd7d78c41293e3bcee2ca311edb", "type": "electric_scooter", "is_reserved": 0, "lon": -77.0234245}, {"fusion_lat": 0.0, "name": "12cb6e3a4376fab3ff00b8d7df4a5445", "is_disabled": 0, "rental_uris": {"android": "https://dc.lft.to/lastmile_qr_scan", "ios": "https://dc.lft.to/lastmile_qr_scan"}, "fusion_lon": 0.0, "lat": 38.90714233333333, "bike_id": "12cb6e3a4376fab3ff00b8d7df4a5445", "type": "electric_scooter", "is_reserved": 0, "lon": -77.02505083333334}, {"fusion_lat": 0.0, "name": "910e14c9a6fd6790e4335d17411a6695", "is_disabled": 0, "rental_uris": {"android": "https://dc.lft.to/lastmile_qr_scan", "ios": "https://dc.lft.to/lastmile_qr_scan"}, "fusion_lon": 0.0, "lat": 38.866240833333336, "bike_id": "910e14c9a6fd6790e4335d17411a6695", "type": "electric_scooter", "is_reserved": 0, "lon": -76.98713583333333}, {"fusion_lat": 0.0, "name": "74135df31c67f2e82afea315d1580592", "is_disabled": 0, "rental_uris": {"android": "https://dc.lft.to/lastmile_qr_scan", "ios": "https://dc.lft.to/lastmile_qr_scan"}, "fusion_lon": 0.0, "lat": 38.899657833333336, "bike_id": "74135df31c67f2e82afea315d1580592", "type": "electric_scooter", "is_reserved": 0, "lon": -77.04655733333334}, {"fusion_lat": 0.0, "name": "a10ccc13fce7d239e2b2ff1e71bdbfdc", "is_disabled": 0, "rental_uris": {"android": "https://dc.lft.to/lastmile_qr_scan", "ios": "https://dc.lft.to/lastmile_qr_scan"}, "fusion_lon": 0.0, "lat": 38.8922035, "bike_id": "a10ccc13fce7d239e2b2ff1e71bdbfdc", "type": "electric_scooter", "is_reserved": 0, "lon": -77.04687233333334}, {"fusion_lat": 0.0, "name": "7448b330e42f37390fefa256b105f4ab", "is_disabled": 0, "rental_uris": {"android": "https://dc.lft.to/lastmile_qr_scan", "ios": "https://dc.lft.to/lastmile_qr_scan"}, "fusion_lon": 0.0, "lat": 38.931353333333334, "bike_id": "7448b330e42f37390fefa256b105f4ab", "type": "electric_scooter", "is_reserved": 0, "lon": -77.07844883333334}, {"fusion_lat": 0.0, "name": "39320fda275b78bf20e18ee2e14a4778", "is_disabled": 0, "rental_uris": {"android": "https://dc.lft.to/lastmile_qr_scan", "ios": "https://dc.lft.to/lastmile_qr_scan"}, "fusion_lon": 0.0, "lat": 38.897514666666666, "bike_id": "39320fda275b78bf20e18ee2e14a4778", "type": "electric_scooter", "is_reserved": 0, "lon": -77.00433616666666}, {"fusion_lat": 0.0, "name": "28f08f95fd55cada19586d36f016ee94", "is_disabled": 0, "rental_uris": {"android": "https://dc.lft.to/lastmile_qr_scan", "ios": "https://dc.lft.to/lastmile_qr_scan"}, "fusion_lon": 0.0, "lat": 38.8963445, "bike_id": "28f08f95fd55cada19586d36f016ee94", "type": "electric_scooter", "is_reserved": 0, "lon": -77.0322305}, {"fusion_lat": 0.0, "name": "9e5637af016883e56b86b16c1bc8282e", "is_disabled": 0, "rental_uris": {"android": "https://dc.lft.to/lastmile_qr_scan", "ios": "https://dc.lft.to/lastmile_qr_scan"}, "fusion_lon": 0.0, "lat": 38.91319633333333, "bike_id": "9e5637af016883e56b86b16c1bc8282e", "type": "electric_scooter", "is_reserved": 0, "lon": -77.03173}, {"fusion_lat": 0.0, "name": "02d6c66853b66fc277e71b86963646ba", "is_disabled": 0, "rental_uris": {"android": "https://dc.lft.to/lastmile_qr_scan", "ios": "https://dc.lft.to/lastmile_qr_scan"}, "fusion_lon": 0.0, "lat": 38.936094833333335, "bike_id": "02d6c66853b66fc277e71b86963646ba", "type": "electric_scooter", "is_reserved": 0, "lon": -77.05860616666666}, {"fusion_lat": 0.0, "name": "0a8ee756345cb1d61b3d92a51a905bf4", "is_disabled": 0, "rental_uris": {"android": "https://dc.lft.to/lastmile_qr_scan", "ios": "https://dc.lft.to/lastmile_qr_scan"}, "fusion_lon": 0.0, "lat": 38.864315, "bike_id": "0a8ee756345cb1d61b3d92a51a905bf4", "type": "electric_scooter", "is_reserved": 0, "lon": -76.97434566666666}, {"fusion_lat": 0.0, "name": "4cbb20eca9431f4221e3e8ba8d1bf540", "is_disabled": 0, "rental_uris": {"android": "https://dc.lft.to/lastmile_qr_scan", "ios": "https://dc.lft.to/lastmile_qr_scan"}, "fusion_lon": 0.0, "lat": 38.8589415, "bike_id": "4cbb20eca9431f4221e3e8ba8d1bf540", "type": "electric_bike", "is_reserved": 0, "lon": -77.09558566666666}, {"fusion_lat": 0.0, "name": "178b269a5c7334e1079d6070f532cc52", "is_disabled": 0, "rental_uris": {"android": "https://dc.lft.to/lastmile_qr_scan", "ios": "https://dc.lft.to/lastmile_qr_scan"}, "fusion_lon": 0.0, "lat": 38.902445166666666, "bike_id": "178b269a5c7334e1079d6070f532cc52", "type": "electric_scooter", "is_reserved": 0, "lon": -77.0352385}, {"fusion_lat": 0.0, "name": "e884231e9b7c1f7333c3f2e3d563e4d8", "is_disabled": 0, "rental_uris": {"android": "https://dc.lft.to/lastmile_qr_scan", "ios": "https://dc.lft.to/lastmile_qr_scan"}, "fusion_lon": 0.0, "lat": 38.8813985, "bike_id": "e884231e9b7c1f7333c3f2e3d563e4d8", "type": "electric_scooter", "is_reserved": 0, "lon": -76.9962625}, {"fusion_lat": 0.0, "name": "5a26224438d880673acc62814c28b430", "is_disabled": 0, "rental_uris": {"android": "https://dc.lft.to/lastmile_qr_scan", "ios": "https://dc.lft.to/lastmile_qr_scan"}, "fusion_lon": 0.0, "lat": 38.8979065, "bike_id": "5a26224438d880673acc62814c28b430", "type": "electric_scooter", "is_reserved": 0, "lon": -76.93122333333334}, {"fusion_lat": 0.0, "name": "da2fabe656774a439dabd596899c5416", "is_disabled": 0, "rental_uris": {"android": "https://dc.lft.to/lastmile_qr_scan", "ios": "https://dc.lft.to/lastmile_qr_scan"}, "fusion_lon": 0.0, "lat": 38.9079065, "bike_id": "da2fabe656774a439dabd596899c5416", "type": "electric_scooter", "is_reserved": 0, "lon": -77.00016983333333}, {"fusion_lat": 0.0, "name": "f6f93ebbac455690abd72018a9d3c2d1", "is_disabled": 0, "rental_uris": {"android": "https://dc.lft.to/lastmile_qr_scan", "ios": "https://dc.lft.to/lastmile_qr_scan"}, "fusion_lon": 0.0, "lat": 38.90137, "bike_id": "f6f93ebbac455690abd72018a9d3c2d1", "type": "electric_scooter", "is_reserved": 0, "lon": -77.0134945}, {"fusion_lat": 0.0, "name": "1983e562fc2af095ea71fe311c4e67a2", "is_disabled": 0, "rental_uris": {"android": "https://dc.lft.to/lastmile_qr_scan", "ios": "https://dc.lft.to/lastmile_qr_scan"}, "fusion_lon": 0.0, "lat": 38.92794516666667, "bike_id": "1983e562fc2af095ea71fe311c4e67a2", "type": "electric_scooter", "is_reserved": 0, "lon": -76.95558366666667}, {"fusion_lat": 0.0, "name": "0727ca41049ac726ecaab240f24db21f", "is_disabled": 0, "rental_uris": {"android": "https://dc.lft.to/lastmile_qr_scan", "ios": "https://dc.lft.to/lastmile_qr_scan"}, "fusion_lon": 0.0, "lat": 38.8922765, "bike_id": "0727ca41049ac726ecaab240f24db21f", "type": "electric_scooter", "is_reserved": 0, "lon": -77.02416416666667}, {"fusion_lat": 0.0, "name": "d7b24f08e7298c1a6851618e3b1e7806", "is_disabled": 0, "rental_uris": {"android": "https://dc.lft.to/lastmile_qr_scan", "ios": "https://dc.lft.to/lastmile_qr_scan"}, "fusion_lon": 0.0, "lat": 38.92044383333333, "bike_id": "d7b24f08e7298c1a6851618e3b1e7806", "type": "electric_scooter", "is_reserved": 0, "lon": -77.07979883333333}, {"fusion_lat": 0.0, "name": "21804e5c2c66cd8dcdeb8f6bbfd55ddc", "is_disabled": 0, "rental_uris": {"android": "https://dc.lft.to/lastmile_qr_scan", "ios": "https://dc.lft.to/lastmile_qr_scan"}, "fusion_lon": 0.0, "lat": 38.90160216666666, "bike_id": "21804e5c2c66cd8dcdeb8f6bbfd55ddc", "type": "electric_scooter", "is_reserved": 0, "lon": -76.9763105}, {"fusion_lat": 0.0, "name": "a71a9051e97b816919e988d233355dc6", "is_disabled": 0, "rental_uris": {"android": "https://dc.lft.to/lastmile_qr_scan", "ios": "https://dc.lft.to/lastmile_qr_scan"}, "fusion_lon": 0.0, "lat": 38.90481366666667, "bike_id": "a71a9051e97b816919e988d233355dc6", "type": "electric_scooter", "is_reserved": 0, "lon": -76.94968916666667}, {"fusion_lat": 0.0, "name": "ed1072c4b3685fff533599e61995f568", "is_disabled": 0, "rental_uris": {"android": "https://dc.lft.to/lastmile_qr_scan", "ios": "https://dc.lft.to/lastmile_qr_scan"}, "fusion_lon": 0.0, "lat": 38.91554683333333, "bike_id": "ed1072c4b3685fff533599e61995f568", "type": "electric_scooter", "is_reserved": 0, "lon": -77.03282366666667}, {"fusion_lat": 0.0, "name": "47f5b30588feb42c7fc16960bbdc92ad", "is_disabled": 0, "rental_uris": {"android": "https://dc.lft.to/lastmile_qr_scan", "ios": "https://dc.lft.to/lastmile_qr_scan"}, "fusion_lon": 0.0, "lat": 38.92441066666667, "bike_id": "47f5b30588feb42c7fc16960bbdc92ad", "type": "electric_scooter", "is_reserved": 0, "lon": -77.05246633333333}, {"fusion_lat": 0.0, "name": "771c8b9a4eff3e5acc016feff1002519", "is_disabled": 0, "rental_uris": {"android": "https://dc.lft.to/lastmile_qr_scan", "ios": "https://dc.lft.to/lastmile_qr_scan"}, "fusion_lon": 0.0, "lat": 38.94924066666667, "bike_id": "771c8b9a4eff3e5acc016feff1002519", "type": "electric_scooter", "is_reserved": 0, "lon": -77.0185755}, {"fusion_lat": 0.0, "name": "29be3e474d76784e17986d6e8d2f9b1b", "is_disabled": 0, "rental_uris": {"android": "https://dc.lft.to/lastmile_qr_scan", "ios": "https://dc.lft.to/lastmile_qr_scan"}, "fusion_lon": 0.0, "lat": 38.87571283333333, "bike_id": "29be3e474d76784e17986d6e8d2f9b1b", "type": "electric_scooter", "is_reserved": 0, "lon": -77.00932666666667}, {"fusion_lat": 0.0, "name": "df969d4c9f2b5ad4c99ddd211033c8b3", "is_disabled": 0, "rental_uris": {"android": "https://dc.lft.to/lastmile_qr_scan", "ios": "https://dc.lft.to/lastmile_qr_scan"}, "fusion_lon": 0.0, "lat": 38.88247966666667, "bike_id": "df969d4c9f2b5ad4c99ddd211033c8b3", "type": "electric_bike", "is_reserved": 0, "lon": -76.96260116666667}, {"fusion_lat": 0.0, "name": "605546410b5cdadbfc4886734d66a079", "is_disabled": 0, "rental_uris": {"android": "https://dc.lft.to/lastmile_qr_scan", "ios": "https://dc.lft.to/lastmile_qr_scan"}, "fusion_lon": 0.0, "lat": 38.922238666666665, "bike_id": "605546410b5cdadbfc4886734d66a079", "type": "electric_scooter", "is_reserved": 0, "lon": -77.0430615}, {"fusion_lat": 0.0, "name": "bf78eae32ba7c60306ac63018bb99fc9", "is_disabled": 0, "rental_uris": {"android": "https://dc.lft.to/lastmile_qr_scan", "ios": "https://dc.lft.to/lastmile_qr_scan"}, "fusion_lon": 0.0, "lat": 38.87804233333333, "bike_id": "bf78eae32ba7c60306ac63018bb99fc9", "type": "electric_scooter", "is_reserved": 0, "lon": -77.00557833333333}, {"fusion_lat": 0.0, "name": "9829ce8d19c92126860788d1eba8b0b4", "is_disabled": 0, "rental_uris": {"android": "https://dc.lft.to/lastmile_qr_scan", "ios": "https://dc.lft.to/lastmile_qr_scan"}, "fusion_lon": 0.0, "lat": 38.901751, "bike_id": "9829ce8d19c92126860788d1eba8b0b4", "type": "electric_scooter", "is_reserved": 0, "lon": -77.04993516666667}, {"fusion_lat": 0.0, "name": "8ac66e4e77b78c04339c91c8f35fca28", "is_disabled": 0, "rental_uris": {"android": "https://dc.lft.to/lastmile_qr_scan", "ios": "https://dc.lft.to/lastmile_qr_scan"}, "fusion_lon": 0.0, "lat": 38.93707233333333, "bike_id": "8ac66e4e77b78c04339c91c8f35fca28", "type": "electric_scooter", "is_reserved": 0, "lon": -77.05597716666666}, {"fusion_lat": 0.0, "name": "e45d573d193f92b1e49b356d72c2eac9", "is_disabled": 0, "rental_uris": {"android": "https://dc.lft.to/lastmile_qr_scan", "ios": "https://dc.lft.to/lastmile_qr_scan"}, "fusion_lon": 0.0, "lat": 38.9111795, "bike_id": "e45d573d193f92b1e49b356d72c2eac9", "type": "electric_scooter", "is_reserved": 0, "lon": -77.038298}, {"fusion_lat": 0.0, "name": "047cc99f26497223f26d1ed0c2a5b030", "is_disabled": 0, "rental_uris": {"android": "https://dc.lft.to/lastmile_qr_scan", "ios": "https://dc.lft.to/lastmile_qr_scan"}, "fusion_lon": 0.0, "lat": 38.892424166666665, "bike_id": "047cc99f26497223f26d1ed0c2a5b030", "type": "electric_scooter", "is_reserved": 0, "lon": -77.04875083333333}, {"fusion_lat": 0.0, "name": "8be059a2faa29e7eea8d3dc992d36401", "is_disabled": 0, "rental_uris": {"android": "https://dc.lft.to/lastmile_qr_scan", "ios": "https://dc.lft.to/lastmile_qr_scan"}, "fusion_lon": 0.0, "lat": 38.904092, "bike_id": "8be059a2faa29e7eea8d3dc992d36401", "type": "electric_scooter", "is_reserved": 0, "lon": -76.97331066666666}, {"fusion_lat": 0.0, "name": "bf049363c4194b0bc4c160b19524dded", "is_disabled": 0, "rental_uris": {"android": "https://dc.lft.to/lastmile_qr_scan", "ios": "https://dc.lft.to/lastmile_qr_scan"}, "fusion_lon": 0.0, "lat": 38.91851583333333, "bike_id": "bf049363c4194b0bc4c160b19524dded", "type": "electric_scooter", "is_reserved": 0, "lon": -77.0322085}, {"fusion_lat": 0.0, "name": "4fd3b33b85cf18f18954bc39df398e77", "is_disabled": 0, "rental_uris": {"android": "https://dc.lft.to/lastmile_qr_scan", "ios": "https://dc.lft.to/lastmile_qr_scan"}, "fusion_lon": 0.0, "lat": 38.899480833333335, "bike_id": "4fd3b33b85cf18f18954bc39df398e77", "type": "electric_scooter", "is_reserved": 0, "lon": -77.0415545}, {"fusion_lat": 0.0, "name": "9ac1d6eb646c0feab67d0ede374ccc39", "is_disabled": 0, "rental_uris": {"android": "https://dc.lft.to/lastmile_qr_scan", "ios": "https://dc.lft.to/lastmile_qr_scan"}, "fusion_lon": 0.0, "lat": 38.9145365, "bike_id": "9ac1d6eb646c0feab67d0ede374ccc39", "type": "electric_scooter", "is_reserved": 0, "lon": -77.00642233333333}, {"fusion_lat": 0.0, "name": "2c7f848ba51b9af119bcfce1b7ce1891", "is_disabled": 0, "rental_uris": {"android": "https://dc.lft.to/lastmile_qr_scan", "ios": "https://dc.lft.to/lastmile_qr_scan"}, "fusion_lon": 0.0, "lat": 38.9072715, "bike_id": "2c7f848ba51b9af119bcfce1b7ce1891", "type": "electric_scooter", "is_reserved": 0, "lon": -77.0076025}, {"fusion_lat": 0.0, "name": "eb3f404de5abc9dce7a7f54137cb38ed", "is_disabled": 0, "rental_uris": {"android": "https://dc.lft.to/lastmile_qr_scan", "ios": "https://dc.lft.to/lastmile_qr_scan"}, "fusion_lon": 0.0, "lat": 38.89613966666667, "bike_id": "eb3f404de5abc9dce7a7f54137cb38ed", "type": "electric_scooter", "is_reserved": 0, "lon": -77.04641133333334}, {"fusion_lat": 0.0, "name": "cd5c5641665c0799dfba8568a10076db", "is_disabled": 0, "rental_uris": {"android": "https://dc.lft.to/lastmile_qr_scan", "ios": "https://dc.lft.to/lastmile_qr_scan"}, "fusion_lon": 0.0, "lat": 38.90964233333333, "bike_id": "cd5c5641665c0799dfba8568a10076db", "type": "electric_scooter", "is_reserved": 0, "lon": -77.037691}, {"fusion_lat": 0.0, "name": "c2752b50f7516f54932c99418d115eb0", "is_disabled": 0, "rental_uris": {"android": "https://dc.lft.to/lastmile_qr_scan", "ios": "https://dc.lft.to/lastmile_qr_scan"}, "fusion_lon": 0.0, "lat": 38.877845666666666, "bike_id": "c2752b50f7516f54932c99418d115eb0", "type": "electric_scooter", "is_reserved": 0, "lon": -76.994103}, {"fusion_lat": 0.0, "name": "b80a135ef81088df976464f9887a2587", "is_disabled": 0, "rental_uris": {"android": "https://dc.lft.to/lastmile_qr_scan", "ios": "https://dc.lft.to/lastmile_qr_scan"}, "fusion_lon": 0.0, "lat": 38.88326633333333, "bike_id": "b80a135ef81088df976464f9887a2587", "type": "electric_scooter", "is_reserved": 0, "lon": -77.0177455}, {"fusion_lat": 0.0, "name": "4c1c87487116ee6d440e52b61a5b6052", "is_disabled": 0, "rental_uris": {"android": "https://dc.lft.to/lastmile_qr_scan", "ios": "https://dc.lft.to/lastmile_qr_scan"}, "fusion_lon": 0.0, "lat": 38.9613145, "bike_id": "4c1c87487116ee6d440e52b61a5b6052", "type": "electric_bike", "is_reserved": 0, "lon": -77.0327575}, {"fusion_lat": 0.0, "name": "e5fad6b6069d1aeaa56016a5fe0eb542", "is_disabled": 0, "rental_uris": {"android": "https://dc.lft.to/lastmile_qr_scan", "ios": "https://dc.lft.to/lastmile_qr_scan"}, "fusion_lon": 0.0, "lat": 38.91640616666667, "bike_id": "e5fad6b6069d1aeaa56016a5fe0eb542", "type": "electric_scooter", "is_reserved": 0, "lon": -77.04790466666667}, {"fusion_lat": 0.0, "name": "133b3e51a58b2e18a5573913805a4d36", "is_disabled": 0, "rental_uris": {"android": "https://dc.lft.to/lastmile_qr_scan", "ios": "https://dc.lft.to/lastmile_qr_scan"}, "fusion_lon": 0.0, "lat": 38.8991, "bike_id": "133b3e51a58b2e18a5573913805a4d36", "type": "electric_scooter", "is_reserved": 0, "lon": -77.03285533333333}, {"fusion_lat": 0.0, "name": "0909abdf6ffeaed74a65a31a9ddf8a1a", "is_disabled": 0, "rental_uris": {"android": "https://dc.lft.to/lastmile_qr_scan", "ios": "https://dc.lft.to/lastmile_qr_scan"}, "fusion_lon": 0.0, "lat": 38.91711883333333, "bike_id": "0909abdf6ffeaed74a65a31a9ddf8a1a", "type": "electric_scooter", "is_reserved": 0, "lon": -77.03473033333333}, {"fusion_lat": 0.0, "name": "3403e4d60aa056545f4559fc1ec16fc9", "is_disabled": 0, "rental_uris": {"android": "https://dc.lft.to/lastmile_qr_scan", "ios": "https://dc.lft.to/lastmile_qr_scan"}, "fusion_lon": 0.0, "lat": 38.884647666666666, "bike_id": "3403e4d60aa056545f4559fc1ec16fc9", "type": "electric_scooter", "is_reserved": 0, "lon": -76.94981566666667}, {"fusion_lat": 0.0, "name": "8cbb030b7f71bdcd44c9db9b226e7c76", "is_disabled": 0, "rental_uris": {"android": "https://dc.lft.to/lastmile_qr_scan", "ios": "https://dc.lft.to/lastmile_qr_scan"}, "fusion_lon": 0.0, "lat": 38.9367835, "bike_id": "8cbb030b7f71bdcd44c9db9b226e7c76", "type": "electric_scooter", "is_reserved": 0, "lon": -77.0358985}, {"fusion_lat": 0.0, "name": "92a3d5805c0588e109a8be379758660e", "is_disabled": 0, "rental_uris": {"android": "https://dc.lft.to/lastmile_qr_scan", "ios": "https://dc.lft.to/lastmile_qr_scan"}, "fusion_lon": 0.0, "lat": 38.90880033333333, "bike_id": "92a3d5805c0588e109a8be379758660e", "type": "electric_scooter", "is_reserved": 0, "lon": -77.04312583333333}, {"fusion_lat": 0.0, "name": "cf7254be47827fef21af2c20a9344450", "is_disabled": 0, "rental_uris": {"android": "https://dc.lft.to/lastmile_qr_scan", "ios": "https://dc.lft.to/lastmile_qr_scan"}, "fusion_lon": 0.0, "lat": 38.8558065, "bike_id": "cf7254be47827fef21af2c20a9344450", "type": "electric_scooter", "is_reserved": 0, "lon": -76.96652316666666}, {"fusion_lat": 0.0, "name": "4f1f24c50622421fac257946646e4864", "is_disabled": 0, "rental_uris": {"android": "https://dc.lft.to/lastmile_qr_scan", "ios": "https://dc.lft.to/lastmile_qr_scan"}, "fusion_lon": 0.0, "lat": 38.8921905, "bike_id": "4f1f24c50622421fac257946646e4864", "type": "electric_scooter", "is_reserved": 0, "lon": -77.027811}, {"fusion_lat": 0.0, "name": "0292d2ad428826a08169de2ebe872aa7", "is_disabled": 0, "rental_uris": {"android": "https://dc.lft.to/lastmile_qr_scan", "ios": "https://dc.lft.to/lastmile_qr_scan"}, "fusion_lon": 0.0, "lat": 38.91385266666666, "bike_id": "0292d2ad428826a08169de2ebe872aa7", "type": "electric_scooter", "is_reserved": 0, "lon": -77.038478}, {"fusion_lat": 0.0, "name": "8b8c7a5e82a7a2b28c7006ae3c7d5e60", "is_disabled": 0, "rental_uris": {"android": "https://dc.lft.to/lastmile_qr_scan", "ios": "https://dc.lft.to/lastmile_qr_scan"}, "fusion_lon": 0.0, "lat": 38.90292566666667, "bike_id": "8b8c7a5e82a7a2b28c7006ae3c7d5e60", "type": "electric_scooter", "is_reserved": 0, "lon": -77.04472183333333}, {"fusion_lat": 0.0, "name": "462ad5d697fc805805ceb47c83840b80", "is_disabled": 0, "rental_uris": {"android": "https://dc.lft.to/lastmile_qr_scan", "ios": "https://dc.lft.to/lastmile_qr_scan"}, "fusion_lon": 0.0, "lat": 38.904313333333334, "bike_id": "462ad5d697fc805805ceb47c83840b80", "type": "electric_scooter", "is_reserved": 0, "lon": -77.04068233333334}, {"fusion_lat": 0.0, "name": "6431b5e340b0d5e743749e64229c541e", "is_disabled": 0, "rental_uris": {"android": "https://dc.lft.to/lastmile_qr_scan", "ios": "https://dc.lft.to/lastmile_qr_scan"}, "fusion_lon": 0.0, "lat": 38.9202415, "bike_id": "6431b5e340b0d5e743749e64229c541e", "type": "electric_scooter", "is_reserved": 0, "lon": -77.04090583333333}, {"fusion_lat": 0.0, "name": "bea5ff2ea358bd2efe50e4e20323bb8d", "is_disabled": 0, "rental_uris": {"android": "https://dc.lft.to/lastmile_qr_scan", "ios": "https://dc.lft.to/lastmile_qr_scan"}, "fusion_lon": 0.0, "lat": 38.92358733333333, "bike_id": "bea5ff2ea358bd2efe50e4e20323bb8d", "type": "electric_scooter", "is_reserved": 0, "lon": -77.05032083333333}, {"fusion_lat": 0.0, "name": "767b5261a88ef2bee33ab311df522149", "is_disabled": 0, "rental_uris": {"android": "https://dc.lft.to/lastmile_qr_scan", "ios": "https://dc.lft.to/lastmile_qr_scan"}, "fusion_lon": 0.0, "lat": 38.896266833333335, "bike_id": "767b5261a88ef2bee33ab311df522149", "type": "electric_scooter", "is_reserved": 0, "lon": -77.02637766666666}, {"fusion_lat": 0.0, "name": "6ecc84fe43db8a4c61349edb4794c3de", "is_disabled": 0, "rental_uris": {"android": "https://dc.lft.to/lastmile_qr_scan", "ios": "https://dc.lft.to/lastmile_qr_scan"}, "fusion_lon": 0.0, "lat": 38.89842933333333, "bike_id": "6ecc84fe43db8a4c61349edb4794c3de", "type": "electric_scooter", "is_reserved": 0, "lon": -77.028644}, {"fusion_lat": 0.0, "name": "ed83be6f0121fd3db958c7e7215fb7e0", "is_disabled": 0, "rental_uris": {"android": "https://dc.lft.to/lastmile_qr_scan", "ios": "https://dc.lft.to/lastmile_qr_scan"}, "fusion_lon": 0.0, "lat": 38.89919033333334, "bike_id": "ed83be6f0121fd3db958c7e7215fb7e0", "type": "electric_scooter", "is_reserved": 0, "lon": -76.98535383333333}, {"fusion_lat": 0.0, "name": "fd238e4e97eb247d410bf6a606b7842a", "is_disabled": 0, "rental_uris": {"android": "https://dc.lft.to/lastmile_qr_scan", "ios": "https://dc.lft.to/lastmile_qr_scan"}, "fusion_lon": 0.0, "lat": 38.88874833333333, "bike_id": "fd238e4e97eb247d410bf6a606b7842a", "type": "electric_scooter", "is_reserved": 0, "lon": -76.9773025}, {"fusion_lat": 0.0, "name": "7b9121b1157da40619fa7d4c9639ff85", "is_disabled": 0, "rental_uris": {"android": "https://dc.lft.to/lastmile_qr_scan", "ios": "https://dc.lft.to/lastmile_qr_scan"}, "fusion_lon": 0.0, "lat": 38.884894833333334, "bike_id": "7b9121b1157da40619fa7d4c9639ff85", "type": "electric_scooter", "is_reserved": 0, "lon": -77.00708733333333}, {"fusion_lat": 0.0, "name": "41df68926fc25d701421e65e5fe68c7e", "is_disabled": 0, "rental_uris": {"android": "https://dc.lft.to/lastmile_qr_scan", "ios": "https://dc.lft.to/lastmile_qr_scan"}, "fusion_lon": 0.0, "lat": 38.901974833333334, "bike_id": "41df68926fc25d701421e65e5fe68c7e", "type": "electric_scooter", "is_reserved": 0, "lon": -77.02746983333333}, {"fusion_lat": 0.0, "name": "fc82e7f5ca19f12dbb6f54a2fefa4fdb", "is_disabled": 0, "rental_uris": {"android": "https://dc.lft.to/lastmile_qr_scan", "ios": "https://dc.lft.to/lastmile_qr_scan"}, "fusion_lon": 0.0, "lat": 38.86761333333333, "bike_id": "fc82e7f5ca19f12dbb6f54a2fefa4fdb", "type": "electric_scooter", "is_reserved": 0, "lon": -76.982798}, {"fusion_lat": 0.0, "name": "5c623a59be01be5535ee4fa4e6e69eb7", "is_disabled": 0, "rental_uris": {"android": "https://dc.lft.to/lastmile_qr_scan", "ios": "https://dc.lft.to/lastmile_qr_scan"}, "fusion_lon": 0.0, "lat": 38.920814, "bike_id": "5c623a59be01be5535ee4fa4e6e69eb7", "type": "electric_scooter", "is_reserved": 0, "lon": -77.02206883333334}, {"fusion_lat": 0.0, "name": "3acee29843ae403bfdc6ab28cc048388", "is_disabled": 0, "rental_uris": {"android": "https://dc.lft.to/lastmile_qr_scan", "ios": "https://dc.lft.to/lastmile_qr_scan"}, "fusion_lon": 0.0, "lat": 38.90304966666667, "bike_id": "3acee29843ae403bfdc6ab28cc048388", "type": "electric_bike", "is_reserved": 0, "lon": -76.97653166666667}, {"fusion_lat": 0.0, "name": "fe1973a1131eae0fe8bc68fafa8cfdc9", "is_disabled": 0, "rental_uris": {"android": "https://dc.lft.to/lastmile_qr_scan", "ios": "https://dc.lft.to/lastmile_qr_scan"}, "fusion_lon": 0.0, "lat": 38.934654, "bike_id": "fe1973a1131eae0fe8bc68fafa8cfdc9", "type": "electric_scooter", "is_reserved": 0, "lon": -77.024097}, {"fusion_lat": 0.0, "name": "e212921c2828ebe68ba93ff9f8906c3d", "is_disabled": 0, "rental_uris": {"android": "https://dc.lft.to/lastmile_qr_scan", "ios": "https://dc.lft.to/lastmile_qr_scan"}, "fusion_lon": 0.0, "lat": 38.997855, "bike_id": "e212921c2828ebe68ba93ff9f8906c3d", "type": "electric_bike", "is_reserved": 0, "lon": -77.04713083333333}, {"fusion_lat": 0.0, "name": "b9c3706d59486127c694535d88042976", "is_disabled": 0, "rental_uris": {"android": "https://dc.lft.to/lastmile_qr_scan", "ios": "https://dc.lft.to/lastmile_qr_scan"}, "fusion_lon": 0.0, "lat": 38.90457883333333, "bike_id": "b9c3706d59486127c694535d88042976", "type": "electric_scooter", "is_reserved": 0, "lon": -77.06525133333334}, {"fusion_lat": 0.0, "name": "a1fe28d33f7b0fc9e8a6239e3911825b", "is_disabled": 0, "rental_uris": {"android": "https://dc.lft.to/lastmile_qr_scan", "ios": "https://dc.lft.to/lastmile_qr_scan"}, "fusion_lon": 0.0, "lat": 38.90816316666667, "bike_id": "a1fe28d33f7b0fc9e8a6239e3911825b", "type": "electric_scooter", "is_reserved": 0, "lon": -77.0433925}, {"fusion_lat": 0.0, "name": "c285a8715125365b92f4f8c5a4314765", "is_disabled": 0, "rental_uris": {"android": "https://dc.lft.to/lastmile_qr_scan", "ios": "https://dc.lft.to/lastmile_qr_scan"}, "fusion_lon": 0.0, "lat": 38.93395366666667, "bike_id": "c285a8715125365b92f4f8c5a4314765", "type": "electric_scooter", "is_reserved": 0, "lon": -77.0574275}, {"fusion_lat": 0.0, "name": "2e37156ebddea09958bbe96961cef8eb", "is_disabled": 0, "rental_uris": {"android": "https://dc.lft.to/lastmile_qr_scan", "ios": "https://dc.lft.to/lastmile_qr_scan"}, "fusion_lon": 0.0, "lat": 38.9013235, "bike_id": "2e37156ebddea09958bbe96961cef8eb", "type": "electric_scooter", "is_reserved": 0, "lon": -77.0424055}, {"fusion_lat": 0.0, "name": "dcea157e017b819e5d23580b43a94ada", "is_disabled": 0, "rental_uris": {"android": "https://dc.lft.to/lastmile_qr_scan", "ios": "https://dc.lft.to/lastmile_qr_scan"}, "fusion_lon": 0.0, "lat": 38.96203466666667, "bike_id": "dcea157e017b819e5d23580b43a94ada", "type": "electric_scooter", "is_reserved": 0, "lon": -77.022321}, {"fusion_lat": 0.0, "name": "a270527d9f203e8ebe4608a7161481a6", "is_disabled": 0, "rental_uris": {"android": "https://dc.lft.to/lastmile_qr_scan", "ios": "https://dc.lft.to/lastmile_qr_scan"}, "fusion_lon": 0.0, "lat": 38.8871455, "bike_id": "a270527d9f203e8ebe4608a7161481a6", "type": "electric_scooter", "is_reserved": 0, "lon": -77.0219865}, {"fusion_lat": 0.0, "name": "4a143c9896584a3c223ba8c9c34e66d9", "is_disabled": 0, "rental_uris": {"android": "https://dc.lft.to/lastmile_qr_scan", "ios": "https://dc.lft.to/lastmile_qr_scan"}, "fusion_lon": 0.0, "lat": 38.90291533333333, "bike_id": "4a143c9896584a3c223ba8c9c34e66d9", "type": "electric_scooter", "is_reserved": 0, "lon": -76.97633483333334}, {"fusion_lat": 0.0, "name": "d1efcae6cb6db507ae2fd39e932fba9d", "is_disabled": 0, "rental_uris": {"android": "https://dc.lft.to/lastmile_qr_scan", "ios": "https://dc.lft.to/lastmile_qr_scan"}, "fusion_lon": 0.0, "lat": 38.90349583333333, "bike_id": "d1efcae6cb6db507ae2fd39e932fba9d", "type": "electric_scooter", "is_reserved": 0, "lon": -77.0527805}, {"fusion_lat": 0.0, "name": "dda0e6067c884675a8494a2093e1f4c4", "is_disabled": 0, "rental_uris": {"android": "https://dc.lft.to/lastmile_qr_scan", "ios": "https://dc.lft.to/lastmile_qr_scan"}, "fusion_lon": 0.0, "lat": 38.94159966666667, "bike_id": "dda0e6067c884675a8494a2093e1f4c4", "type": "electric_scooter", "is_reserved": 0, "lon": -77.02628583333333}, {"fusion_lat": 0.0, "name": "a89b4811a12c21cf409179f089e58482", "is_disabled": 0, "rental_uris": {"android": "https://dc.lft.to/lastmile_qr_scan", "ios": "https://dc.lft.to/lastmile_qr_scan"}, "fusion_lon": 0.0, "lat": 38.933198166666664, "bike_id": "a89b4811a12c21cf409179f089e58482", "type": "electric_scooter", "is_reserved": 0, "lon": -77.02395916666667}, {"fusion_lat": 0.0, "name": "ead94d8039ee3981c839333e102c5734", "is_disabled": 0, "rental_uris": {"android": "https://dc.lft.to/lastmile_qr_scan", "ios": "https://dc.lft.to/lastmile_qr_scan"}, "fusion_lon": 0.0, "lat": 38.918222666666665, "bike_id": "ead94d8039ee3981c839333e102c5734", "type": "electric_scooter", "is_reserved": 0, "lon": -77.036399}, {"fusion_lat": 0.0, "name": "6eefc68797004fda7d72185bb257e2fd", "is_disabled": 0, "rental_uris": {"android": "https://dc.lft.to/lastmile_qr_scan", "ios": "https://dc.lft.to/lastmile_qr_scan"}, "fusion_lon": 0.0, "lat": 38.89908416666667, "bike_id": "6eefc68797004fda7d72185bb257e2fd", "type": "electric_scooter", "is_reserved": 0, "lon": -77.03293533333333}, {"fusion_lat": 0.0, "name": "2d2946762c720051153b4739c6e13682", "is_disabled": 0, "rental_uris": {"android": "https://dc.lft.to/lastmile_qr_scan", "ios": "https://dc.lft.to/lastmile_qr_scan"}, "fusion_lon": 0.0, "lat": 38.90348183333333, "bike_id": "2d2946762c720051153b4739c6e13682", "type": "electric_scooter", "is_reserved": 0, "lon": -77.02521116666667}, {"fusion_lat": 0.0, "name": "37eb7a8921797448a818fea06964b6a4", "is_disabled": 0, "rental_uris": {"android": "https://dc.lft.to/lastmile_qr_scan", "ios": "https://dc.lft.to/lastmile_qr_scan"}, "fusion_lon": 0.0, "lat": 38.92858716666667, "bike_id": "37eb7a8921797448a818fea06964b6a4", "type": "electric_scooter", "is_reserved": 0, "lon": -77.03498733333333}, {"fusion_lat": 0.0, "name": "a75bba0c388690905fcfa789c26c6281", "is_disabled": 0, "rental_uris": {"android": "https://dc.lft.to/lastmile_qr_scan", "ios": "https://dc.lft.to/lastmile_qr_scan"}, "fusion_lon": 0.0, "lat": 38.9083035, "bike_id": "a75bba0c388690905fcfa789c26c6281", "type": "electric_scooter", "is_reserved": 0, "lon": -77.06376416666667}, {"fusion_lat": 0.0, "name": "65d88912f534bf2aa324b6a2b9080eed", "is_disabled": 0, "rental_uris": {"android": "https://dc.lft.to/lastmile_qr_scan", "ios": "https://dc.lft.to/lastmile_qr_scan"}, "fusion_lon": 0.0, "lat": 38.89729233333333, "bike_id": "65d88912f534bf2aa324b6a2b9080eed", "type": "electric_scooter", "is_reserved": 0, "lon": -76.94702383333333}, {"fusion_lat": 0.0, "name": "0865e8e5a608097d2fd3a6467c975cbb", "is_disabled": 0, "rental_uris": {"android": "https://dc.lft.to/lastmile_qr_scan", "ios": "https://dc.lft.to/lastmile_qr_scan"}, "fusion_lon": 0.0, "lat": 38.91249283333333, "bike_id": "0865e8e5a608097d2fd3a6467c975cbb", "type": "electric_scooter", "is_reserved": 0, "lon": -77.04738766666667}, {"fusion_lat": 0.0, "name": "30b49fef98a7be4955c77ba508dac5fb", "is_disabled": 0, "rental_uris": {"android": "https://dc.lft.to/lastmile_qr_scan", "ios": "https://dc.lft.to/lastmile_qr_scan"}, "fusion_lon": 0.0, "lat": 38.8572085, "bike_id": "30b49fef98a7be4955c77ba508dac5fb", "type": "electric_scooter", "is_reserved": 0, "lon": -76.98099616666667}, {"fusion_lat": 0.0, "name": "68f75cf58cce846caf8514371159f53a", "is_disabled": 0, "rental_uris": {"android": "https://dc.lft.to/lastmile_qr_scan", "ios": "https://dc.lft.to/lastmile_qr_scan"}, "fusion_lon": 0.0, "lat": 38.9100975, "bike_id": "68f75cf58cce846caf8514371159f53a", "type": "electric_scooter", "is_reserved": 0, "lon": -76.98496216666666}, {"fusion_lat": 0.0, "name": "9a5f399925d1b27a802e62be71213bdb", "is_disabled": 0, "rental_uris": {"android": "https://dc.lft.to/lastmile_qr_scan", "ios": "https://dc.lft.to/lastmile_qr_scan"}, "fusion_lon": 0.0, "lat": 38.92103133333333, "bike_id": "9a5f399925d1b27a802e62be71213bdb", "type": "electric_scooter", "is_reserved": 0, "lon": -77.07467416666667}, {"fusion_lat": 0.0, "name": "ea0546ddd2c425fee9ed004ba8c9f202", "is_disabled": 0, "rental_uris": {"android": "https://dc.lft.to/lastmile_qr_scan", "ios": "https://dc.lft.to/lastmile_qr_scan"}, "fusion_lon": 0.0, "lat": 38.9309705, "bike_id": "ea0546ddd2c425fee9ed004ba8c9f202", "type": "electric_bike", "is_reserved": 0, "lon": -77.027319}, {"fusion_lat": 0.0, "name": "87ecf34d7bebcebde7c66ef5e01a2946", "is_disabled": 0, "rental_uris": {"android": "https://dc.lft.to/lastmile_qr_scan", "ios": "https://dc.lft.to/lastmile_qr_scan"}, "fusion_lon": 0.0, "lat": 38.93279016666666, "bike_id": "87ecf34d7bebcebde7c66ef5e01a2946", "type": "electric_scooter", "is_reserved": 0, "lon": -77.04538466666666}, {"fusion_lat": 0.0, "name": "a8fff91e904221f35b1e1803593b3699", "is_disabled": 0, "rental_uris": {"android": "https://dc.lft.to/lastmile_qr_scan", "ios": "https://dc.lft.to/lastmile_qr_scan"}, "fusion_lon": 0.0, "lat": 38.97630133333333, "bike_id": "a8fff91e904221f35b1e1803593b3699", "type": "electric_scooter", "is_reserved": 0, "lon": -77.015654}, {"fusion_lat": 0.0, "name": "072c285b3916de27cddecf1405ab1e5f", "is_disabled": 0, "rental_uris": {"android": "https://dc.lft.to/lastmile_qr_scan", "ios": "https://dc.lft.to/lastmile_qr_scan"}, "fusion_lon": 0.0, "lat": 38.9237935, "bike_id": "072c285b3916de27cddecf1405ab1e5f", "type": "electric_scooter", "is_reserved": 0, "lon": -77.05156233333334}, {"fusion_lat": 0.0, "name": "b02aee89e72e4b517de2b63b4459f284", "is_disabled": 0, "rental_uris": {"android": "https://dc.lft.to/lastmile_qr_scan", "ios": "https://dc.lft.to/lastmile_qr_scan"}, "fusion_lon": 0.0, "lat": 38.90011716666667, "bike_id": "b02aee89e72e4b517de2b63b4459f284", "type": "electric_scooter", "is_reserved": 0, "lon": -77.04117466666666}, {"fusion_lat": 0.0, "name": "0a96d25a07ac8357e853f278487219dc", "is_disabled": 0, "rental_uris": {"android": "https://dc.lft.to/lastmile_qr_scan", "ios": "https://dc.lft.to/lastmile_qr_scan"}, "fusion_lon": 0.0, "lat": 38.916778, "bike_id": "0a96d25a07ac8357e853f278487219dc", "type": "electric_scooter", "is_reserved": 0, "lon": -77.02322566666666}, {"fusion_lat": 0.0, "name": "815cb2b617df7f0a1667626b80e6582e", "is_disabled": 0, "rental_uris": {"android": "https://dc.lft.to/lastmile_qr_scan", "ios": "https://dc.lft.to/lastmile_qr_scan"}, "fusion_lon": 0.0, "lat": 38.865093333333334, "bike_id": "815cb2b617df7f0a1667626b80e6582e", "type": "electric_scooter", "is_reserved": 0, "lon": -76.99004566666666}, {"fusion_lat": 0.0, "name": "14493e19b558cac567ac8fdd3a3727f4", "is_disabled": 0, "rental_uris": {"android": "https://dc.lft.to/lastmile_qr_scan", "ios": "https://dc.lft.to/lastmile_qr_scan"}, "fusion_lon": 0.0, "lat": 38.928904833333334, "bike_id": "14493e19b558cac567ac8fdd3a3727f4", "type": "electric_scooter", "is_reserved": 0, "lon": -77.02310566666667}, {"fusion_lat": 0.0, "name": "c61a1d848e7ae141cf0d6ff053de6387", "is_disabled": 0, "rental_uris": {"android": "https://dc.lft.to/lastmile_qr_scan", "ios": "https://dc.lft.to/lastmile_qr_scan"}, "fusion_lon": 0.0, "lat": 38.901285, "bike_id": "c61a1d848e7ae141cf0d6ff053de6387", "type": "electric_scooter", "is_reserved": 0, "lon": -77.0463015}, {"fusion_lat": 0.0, "name": "b4931266690cbedf3f9ee2b4de10b871", "is_disabled": 0, "rental_uris": {"android": "https://dc.lft.to/lastmile_qr_scan", "ios": "https://dc.lft.to/lastmile_qr_scan"}, "fusion_lon": 0.0, "lat": 38.91277016666667, "bike_id": "b4931266690cbedf3f9ee2b4de10b871", "type": "electric_scooter", "is_reserved": 0, "lon": -77.03207466666667}, {"fusion_lat": 0.0, "name": "ba36eeb094fe07bb83684effef17e319", "is_disabled": 0, "rental_uris": {"android": "https://dc.lft.to/lastmile_qr_scan", "ios": "https://dc.lft.to/lastmile_qr_scan"}, "fusion_lon": 0.0, "lat": 38.910166333333336, "bike_id": "ba36eeb094fe07bb83684effef17e319", "type": "electric_scooter", "is_reserved": 0, "lon": -77.04437833333333}, {"fusion_lat": 0.0, "name": "e571b293829f7e77d550886806943946", "is_disabled": 0, "rental_uris": {"android": "https://dc.lft.to/lastmile_qr_scan", "ios": "https://dc.lft.to/lastmile_qr_scan"}, "fusion_lon": 0.0, "lat": 38.897199, "bike_id": "e571b293829f7e77d550886806943946", "type": "electric_scooter", "is_reserved": 0, "lon": -77.00794133333333}, {"fusion_lat": 0.0, "name": "9ceaba9ca2ae702af82627368fe6109c", "is_disabled": 0, "rental_uris": {"android": "https://dc.lft.to/lastmile_qr_scan", "ios": "https://dc.lft.to/lastmile_qr_scan"}, "fusion_lon": 0.0, "lat": 38.9118285, "bike_id": "9ceaba9ca2ae702af82627368fe6109c", "type": "electric_bike", "is_reserved": 0, "lon": -77.01149983333333}, {"fusion_lat": 0.0, "name": "1f029a490faf1c77b8da274ebc7b4036", "is_disabled": 0, "rental_uris": {"android": "https://dc.lft.to/lastmile_qr_scan", "ios": "https://dc.lft.to/lastmile_qr_scan"}, "fusion_lon": 0.0, "lat": 38.900219166666666, "bike_id": "1f029a490faf1c77b8da274ebc7b4036", "type": "electric_scooter", "is_reserved": 0, "lon": -77.002198}, {"fusion_lat": 0.0, "name": "a48f174e335c03a99fb892032d38ae03", "is_disabled": 0, "rental_uris": {"android": "https://dc.lft.to/lastmile_qr_scan", "ios": "https://dc.lft.to/lastmile_qr_scan"}, "fusion_lon": 0.0, "lat": 38.910838166666665, "bike_id": "a48f174e335c03a99fb892032d38ae03", "type": "electric_scooter", "is_reserved": 0, "lon": -77.04087283333334}, {"fusion_lat": 0.0, "name": "330e9c637e3f72a0bde7e6e0f7857769", "is_disabled": 0, "rental_uris": {"android": "https://dc.lft.to/lastmile_qr_scan", "ios": "https://dc.lft.to/lastmile_qr_scan"}, "fusion_lon": 0.0, "lat": 38.917221833333336, "bike_id": "330e9c637e3f72a0bde7e6e0f7857769", "type": "electric_scooter", "is_reserved": 0, "lon": -77.02596216666667}, {"fusion_lat": 0.0, "name": "aa8ca1e62868b0db5218aa779155d49c", "is_disabled": 0, "rental_uris": {"android": "https://dc.lft.to/lastmile_qr_scan", "ios": "https://dc.lft.to/lastmile_qr_scan"}, "fusion_lon": 0.0, "lat": 38.885926833333336, "bike_id": "aa8ca1e62868b0db5218aa779155d49c", "type": "electric_scooter", "is_reserved": 0, "lon": -77.01719733333333}, {"fusion_lat": 0.0, "name": "fb2c7feb91c6f43f95912c4b8ce07589", "is_disabled": 0, "rental_uris": {"android": "https://dc.lft.to/lastmile_qr_scan", "ios": "https://dc.lft.to/lastmile_qr_scan"}, "fusion_lon": 0.0, "lat": 38.90357933333333, "bike_id": "fb2c7feb91c6f43f95912c4b8ce07589", "type": "electric_scooter", "is_reserved": 0, "lon": -77.00345066666667}, {"fusion_lat": 0.0, "name": "ae967af24e09d9606d45daf12475bdb4", "is_disabled": 0, "rental_uris": {"android": "https://dc.lft.to/lastmile_qr_scan", "ios": "https://dc.lft.to/lastmile_qr_scan"}, "fusion_lon": 0.0, "lat": 38.895875833333335, "bike_id": "ae967af24e09d9606d45daf12475bdb4", "type": "electric_bike", "is_reserved": 0, "lon": -76.96802016666666}, {"fusion_lat": 0.0, "name": "169c8106450a7306b850a16bfb34c9cb", "is_disabled": 0, "rental_uris": {"android": "https://dc.lft.to/lastmile_qr_scan", "ios": "https://dc.lft.to/lastmile_qr_scan"}, "fusion_lon": 0.0, "lat": 38.898129833333336, "bike_id": "169c8106450a7306b850a16bfb34c9cb", "type": "electric_scooter", "is_reserved": 0, "lon": -77.02820366666667}, {"fusion_lat": 0.0, "name": "7a0c18524fdb066f3b37da9e10d1dc70", "is_disabled": 0, "rental_uris": {"android": "https://dc.lft.to/lastmile_qr_scan", "ios": "https://dc.lft.to/lastmile_qr_scan"}, "fusion_lon": 0.0, "lat": 38.934005666666664, "bike_id": "7a0c18524fdb066f3b37da9e10d1dc70", "type": "electric_scooter", "is_reserved": 0, "lon": -77.05739983333333}, {"fusion_lat": 0.0, "name": "35d24e0f76e32fa59ac12ad28a6cbc1f", "is_disabled": 0, "rental_uris": {"android": "https://dc.lft.to/lastmile_qr_scan", "ios": "https://dc.lft.to/lastmile_qr_scan"}, "fusion_lon": 0.0, "lat": 38.924558833333336, "bike_id": "35d24e0f76e32fa59ac12ad28a6cbc1f", "type": "electric_scooter", "is_reserved": 0, "lon": -77.04205083333333}, {"fusion_lat": 0.0, "name": "0fb4654c8de11d5a6df949d382806a64", "is_disabled": 0, "rental_uris": {"android": "https://dc.lft.to/lastmile_qr_scan", "ios": "https://dc.lft.to/lastmile_qr_scan"}, "fusion_lon": 0.0, "lat": 38.896723, "bike_id": "0fb4654c8de11d5a6df949d382806a64", "type": "electric_scooter", "is_reserved": 0, "lon": -77.005178}, {"fusion_lat": 0.0, "name": "9d325bcc8509be7c6e4cc16b9a801043", "is_disabled": 0, "rental_uris": {"android": "https://dc.lft.to/lastmile_qr_scan", "ios": "https://dc.lft.to/lastmile_qr_scan"}, "fusion_lon": 0.0, "lat": 38.909717, "bike_id": "9d325bcc8509be7c6e4cc16b9a801043", "type": "electric_scooter", "is_reserved": 0, "lon": -77.03315816666667}, {"fusion_lat": 0.0, "name": "7a5fca083621d8b3f587eb397af058be", "is_disabled": 0, "rental_uris": {"android": "https://dc.lft.to/lastmile_qr_scan", "ios": "https://dc.lft.to/lastmile_qr_scan"}, "fusion_lon": 0.0, "lat": 38.90870116666667, "bike_id": "7a5fca083621d8b3f587eb397af058be", "type": "electric_scooter", "is_reserved": 0, "lon": -77.04889516666667}, {"fusion_lat": 0.0, "name": "91924bf0a1cc8b95d35a6d444273fb63", "is_disabled": 0, "rental_uris": {"android": "https://dc.lft.to/lastmile_qr_scan", "ios": "https://dc.lft.to/lastmile_qr_scan"}, "fusion_lon": 0.0, "lat": 38.89731233333333, "bike_id": "91924bf0a1cc8b95d35a6d444273fb63", "type": "electric_scooter", "is_reserved": 0, "lon": -77.04309316666667}, {"fusion_lat": 0.0, "name": "cefab1da4dd8b77e4773386f0b250818", "is_disabled": 0, "rental_uris": {"android": "https://dc.lft.to/lastmile_qr_scan", "ios": "https://dc.lft.to/lastmile_qr_scan"}, "fusion_lon": 0.0, "lat": 38.90863016666667, "bike_id": "cefab1da4dd8b77e4773386f0b250818", "type": "electric_scooter", "is_reserved": 0, "lon": -77.0383605}, {"fusion_lat": 0.0, "name": "0df4789138ebde6fc4039d0edcb4a3d6", "is_disabled": 0, "rental_uris": {"android": "https://dc.lft.to/lastmile_qr_scan", "ios": "https://dc.lft.to/lastmile_qr_scan"}, "fusion_lon": 0.0, "lat": 38.923268666666665, "bike_id": "0df4789138ebde6fc4039d0edcb4a3d6", "type": "electric_scooter", "is_reserved": 0, "lon": -77.02134033333333}, {"fusion_lat": 0.0, "name": "481f6fda4038a125a629aa96ba6cbf5a", "is_disabled": 0, "rental_uris": {"android": "https://dc.lft.to/lastmile_qr_scan", "ios": "https://dc.lft.to/lastmile_qr_scan"}, "fusion_lon": 0.0, "lat": 38.930629333333336, "bike_id": "481f6fda4038a125a629aa96ba6cbf5a", "type": "electric_scooter", "is_reserved": 0, "lon": -77.02320566666667}, {"fusion_lat": 0.0, "name": "7f9f3141fe659235331a3b8a8d28e0fd", "is_disabled": 0, "rental_uris": {"android": "https://dc.lft.to/lastmile_qr_scan", "ios": "https://dc.lft.to/lastmile_qr_scan"}, "fusion_lon": 0.0, "lat": 38.8408745, "bike_id": "7f9f3141fe659235331a3b8a8d28e0fd", "type": "electric_bike", "is_reserved": 0, "lon": -76.97026733333334}, {"fusion_lat": 0.0, "name": "e7c898e9e210fd21b47b83b821d5e411", "is_disabled": 0, "rental_uris": {"android": "https://dc.lft.to/lastmile_qr_scan", "ios": "https://dc.lft.to/lastmile_qr_scan"}, "fusion_lon": 0.0, "lat": 38.922992, "bike_id": "e7c898e9e210fd21b47b83b821d5e411", "type": "electric_scooter", "is_reserved": 0, "lon": -77.04270433333333}, {"fusion_lat": 0.0, "name": "b0d35bc352dba6d5a24f771c2626d23b", "is_disabled": 0, "rental_uris": {"android": "https://dc.lft.to/lastmile_qr_scan", "ios": "https://dc.lft.to/lastmile_qr_scan"}, "fusion_lon": 0.0, "lat": 38.95552216666667, "bike_id": "b0d35bc352dba6d5a24f771c2626d23b", "type": "electric_bike", "is_reserved": 0, "lon": -76.96880933333334}, {"fusion_lat": 0.0, "name": "104ce238933e207c0298e9956200b213", "is_disabled": 0, "rental_uris": {"android": "https://dc.lft.to/lastmile_qr_scan", "ios": "https://dc.lft.to/lastmile_qr_scan"}, "fusion_lon": 0.0, "lat": 38.92050016666666, "bike_id": "104ce238933e207c0298e9956200b213", "type": "electric_scooter", "is_reserved": 0, "lon": -77.0257445}, {"fusion_lat": 0.0, "name": "8359be252a79de81ea25599f07e5ae41", "is_disabled": 0, "rental_uris": {"android": "https://dc.lft.to/lastmile_qr_scan", "ios": "https://dc.lft.to/lastmile_qr_scan"}, "fusion_lon": 0.0, "lat": 38.9232005, "bike_id": "8359be252a79de81ea25599f07e5ae41", "type": "electric_scooter", "is_reserved": 0, "lon": -77.03915416666666}, {"fusion_lat": 0.0, "name": "9bb36604e5c15d7523aeabcffde53db8", "is_disabled": 0, "rental_uris": {"android": "https://dc.lft.to/lastmile_qr_scan", "ios": "https://dc.lft.to/lastmile_qr_scan"}, "fusion_lon": 0.0, "lat": 38.925104, "bike_id": "9bb36604e5c15d7523aeabcffde53db8", "type": "electric_scooter", "is_reserved": 0, "lon": -77.00217583333334}, {"fusion_lat": 0.0, "name": "4cabd9c3d77bdd026dbe75f084bf42da", "is_disabled": 0, "rental_uris": {"android": "https://dc.lft.to/lastmile_qr_scan", "ios": "https://dc.lft.to/lastmile_qr_scan"}, "fusion_lon": 0.0, "lat": 38.855536666666666, "bike_id": "4cabd9c3d77bdd026dbe75f084bf42da", "type": "electric_scooter", "is_reserved": 0, "lon": -76.98754766666667}, {"fusion_lat": 0.0, "name": "48dbab88b2e5a5395df32af0ba290883", "is_disabled": 0, "rental_uris": {"android": "https://dc.lft.to/lastmile_qr_scan", "ios": "https://dc.lft.to/lastmile_qr_scan"}, "fusion_lon": 0.0, "lat": 38.91683066666667, "bike_id": "48dbab88b2e5a5395df32af0ba290883", "type": "electric_bike", "is_reserved": 0, "lon": -77.003431}, {"fusion_lat": 0.0, "name": "5a59df6c7859eaa5fb98a48cbe4b4beb", "is_disabled": 0, "rental_uris": {"android": "https://dc.lft.to/lastmile_qr_scan", "ios": "https://dc.lft.to/lastmile_qr_scan"}, "fusion_lon": 0.0, "lat": 38.897442833333336, "bike_id": "5a59df6c7859eaa5fb98a48cbe4b4beb", "type": "electric_scooter", "is_reserved": 0, "lon": -77.00921283333334}, {"fusion_lat": 0.0, "name": "021d2b111c3c70bcd2fac14eacc429af", "is_disabled": 0, "rental_uris": {"android": "https://dc.lft.to/lastmile_qr_scan", "ios": "https://dc.lft.to/lastmile_qr_scan"}, "fusion_lon": 0.0, "lat": 38.92107166666667, "bike_id": "021d2b111c3c70bcd2fac14eacc429af", "type": "electric_scooter", "is_reserved": 0, "lon": -77.04695333333333}, {"fusion_lat": 0.0, "name": "5a9ee19c3440f31df2eb9fa6ad206697", "is_disabled": 0, "rental_uris": {"android": "https://dc.lft.to/lastmile_qr_scan", "ios": "https://dc.lft.to/lastmile_qr_scan"}, "fusion_lon": 0.0, "lat": 38.9117025, "bike_id": "5a9ee19c3440f31df2eb9fa6ad206697", "type": "electric_bike", "is_reserved": 0, "lon": -77.00220783333333}, {"fusion_lat": 0.0, "name": "2c9132d57c6158570cd23a5ad448d841", "is_disabled": 0, "rental_uris": {"android": "https://dc.lft.to/lastmile_qr_scan", "ios": "https://dc.lft.to/lastmile_qr_scan"}, "fusion_lon": 0.0, "lat": 38.909702333333335, "bike_id": "2c9132d57c6158570cd23a5ad448d841", "type": "electric_scooter", "is_reserved": 0, "lon": -77.0457765}, {"fusion_lat": 0.0, "name": "9e1c09a028dc8c88c1b310cc2a4fd0f7", "is_disabled": 0, "rental_uris": {"android": "https://dc.lft.to/lastmile_qr_scan", "ios": "https://dc.lft.to/lastmile_qr_scan"}, "fusion_lon": 0.0, "lat": 38.897836, "bike_id": "9e1c09a028dc8c88c1b310cc2a4fd0f7", "type": "electric_bike", "is_reserved": 0, "lon": -76.990319}, {"fusion_lat": 0.0, "name": "423f29e8072a5a3179ceff7629d83cd1", "is_disabled": 0, "rental_uris": {"android": "https://dc.lft.to/lastmile_qr_scan", "ios": "https://dc.lft.to/lastmile_qr_scan"}, "fusion_lon": 0.0, "lat": 38.89225316666667, "bike_id": "423f29e8072a5a3179ceff7629d83cd1", "type": "electric_scooter", "is_reserved": 0, "lon": -77.04194683333333}, {"fusion_lat": 0.0, "name": "3064f9693c35d957656d4d30fd9e6c13", "is_disabled": 0, "rental_uris": {"android": "https://dc.lft.to/lastmile_qr_scan", "ios": "https://dc.lft.to/lastmile_qr_scan"}, "fusion_lon": 0.0, "lat": 38.905591666666666, "bike_id": "3064f9693c35d957656d4d30fd9e6c13", "type": "electric_scooter", "is_reserved": 0, "lon": -77.04633616666666}, {"fusion_lat": 0.0, "name": "53e280acf5903663a223ebfec9f64c47", "is_disabled": 0, "rental_uris": {"android": "https://dc.lft.to/lastmile_qr_scan", "ios": "https://dc.lft.to/lastmile_qr_scan"}, "fusion_lon": 0.0, "lat": 38.8646425, "bike_id": "53e280acf5903663a223ebfec9f64c47", "type": "electric_bike", "is_reserved": 0, "lon": -76.94532733333334}, {"fusion_lat": 0.0, "name": "a11206de82d9b7ceea310c47d7c97ede", "is_disabled": 0, "rental_uris": {"android": "https://dc.lft.to/lastmile_qr_scan", "ios": "https://dc.lft.to/lastmile_qr_scan"}, "fusion_lon": 0.0, "lat": 38.938820166666666, "bike_id": "a11206de82d9b7ceea310c47d7c97ede", "type": "electric_scooter", "is_reserved": 0, "lon": -77.02477633333334}, {"fusion_lat": 0.0, "name": "9a9fd7d33508f50c36450ab30fb5b5d5", "is_disabled": 0, "rental_uris": {"android": "https://dc.lft.to/lastmile_qr_scan", "ios": "https://dc.lft.to/lastmile_qr_scan"}, "fusion_lon": 0.0, "lat": 38.92108266666666, "bike_id": "9a9fd7d33508f50c36450ab30fb5b5d5", "type": "electric_bike", "is_reserved": 0, "lon": -77.06328133333334}, {"fusion_lat": 0.0, "name": "a7603acb70910a42bdeb4edf6f51662a", "is_disabled": 0, "rental_uris": {"android": "https://dc.lft.to/lastmile_qr_scan", "ios": "https://dc.lft.to/lastmile_qr_scan"}, "fusion_lon": 0.0, "lat": 38.928531166666666, "bike_id": "a7603acb70910a42bdeb4edf6f51662a", "type": "electric_scooter", "is_reserved": 0, "lon": -77.0139965}, {"fusion_lat": 0.0, "name": "68bea70b60a87637df75d8dd36b84f6b", "is_disabled": 0, "rental_uris": {"android": "https://dc.lft.to/lastmile_qr_scan", "ios": "https://dc.lft.to/lastmile_qr_scan"}, "fusion_lon": 0.0, "lat": 38.97846116666667, "bike_id": "68bea70b60a87637df75d8dd36b84f6b", "type": "electric_bike", "is_reserved": 0, "lon": -77.09081883333333}, {"fusion_lat": 0.0, "name": "9305f31b4cf628e6f7eb76b3e34a92f6", "is_disabled": 0, "rental_uris": {"android": "https://dc.lft.to/lastmile_qr_scan", "ios": "https://dc.lft.to/lastmile_qr_scan"}, "fusion_lon": 0.0, "lat": 38.93073116666667, "bike_id": "9305f31b4cf628e6f7eb76b3e34a92f6", "type": "electric_scooter", "is_reserved": 0, "lon": -77.03758416666666}, {"fusion_lat": 0.0, "name": "9b82e10ef9e9edab4058a5a9220c5d5c", "is_disabled": 0, "rental_uris": {"android": "https://dc.lft.to/lastmile_qr_scan", "ios": "https://dc.lft.to/lastmile_qr_scan"}, "fusion_lon": 0.0, "lat": 38.84726933333334, "bike_id": "9b82e10ef9e9edab4058a5a9220c5d5c", "type": "electric_scooter", "is_reserved": 0, "lon": -76.98250366666667}, {"fusion_lat": 0.0, "name": "17dc60cef1fab56fe578494a0cd7dcd7", "is_disabled": 0, "rental_uris": {"android": "https://dc.lft.to/lastmile_qr_scan", "ios": "https://dc.lft.to/lastmile_qr_scan"}, "fusion_lon": 0.0, "lat": 38.92082, "bike_id": "17dc60cef1fab56fe578494a0cd7dcd7", "type": "electric_scooter", "is_reserved": 0, "lon": -77.01810083333334}, {"fusion_lat": 0.0, "name": "7b05b41624bc173dc2f4610b8c1f9cc7", "is_disabled": 0, "rental_uris": {"android": "https://dc.lft.to/lastmile_qr_scan", "ios": "https://dc.lft.to/lastmile_qr_scan"}, "fusion_lon": 0.0, "lat": 38.911017333333334, "bike_id": "7b05b41624bc173dc2f4610b8c1f9cc7", "type": "electric_scooter", "is_reserved": 0, "lon": -77.04488716666667}, {"fusion_lat": 0.0, "name": "12cb818349ddb70d92c7aed77494cd96", "is_disabled": 0, "rental_uris": {"android": "https://dc.lft.to/lastmile_qr_scan", "ios": "https://dc.lft.to/lastmile_qr_scan"}, "fusion_lon": 0.0, "lat": 38.91554266666667, "bike_id": "12cb818349ddb70d92c7aed77494cd96", "type": "electric_scooter", "is_reserved": 0, "lon": -77.032542}, {"fusion_lat": 0.0, "name": "14f8fb862848d070d4a717ffed97277f", "is_disabled": 0, "rental_uris": {"android": "https://dc.lft.to/lastmile_qr_scan", "ios": "https://dc.lft.to/lastmile_qr_scan"}, "fusion_lon": 0.0, "lat": 38.92326333333333, "bike_id": "14f8fb862848d070d4a717ffed97277f", "type": "electric_scooter", "is_reserved": 0, "lon": -77.0296445}, {"fusion_lat": 0.0, "name": "e966240fcfcc377a9a26f9d0f9e67c7c", "is_disabled": 0, "rental_uris": {"android": "https://dc.lft.to/lastmile_qr_scan", "ios": "https://dc.lft.to/lastmile_qr_scan"}, "fusion_lon": 0.0, "lat": 38.800185166666665, "bike_id": "e966240fcfcc377a9a26f9d0f9e67c7c", "type": "electric_bike", "is_reserved": 0, "lon": -77.05480166666666}, {"fusion_lat": 0.0, "name": "0fb6084c41d86cb443cea7fa50dfd207", "is_disabled": 0, "rental_uris": {"android": "https://dc.lft.to/lastmile_qr_scan", "ios": "https://dc.lft.to/lastmile_qr_scan"}, "fusion_lon": 0.0, "lat": 38.909597833333336, "bike_id": "0fb6084c41d86cb443cea7fa50dfd207", "type": "electric_scooter", "is_reserved": 0, "lon": -77.032973}, {"fusion_lat": 0.0, "name": "479fbb7ee3712fbedf47c79c2542b6f6", "is_disabled": 0, "rental_uris": {"android": "https://dc.lft.to/lastmile_qr_scan", "ios": "https://dc.lft.to/lastmile_qr_scan"}, "fusion_lon": 0.0, "lat": 38.87582183333333, "bike_id": "479fbb7ee3712fbedf47c79c2542b6f6", "type": "electric_scooter", "is_reserved": 0, "lon": -77.00415366666667}, {"fusion_lat": 0.0, "name": "e3b8b82354f073210d766845a4ab1892", "is_disabled": 0, "rental_uris": {"android": "https://dc.lft.to/lastmile_qr_scan", "ios": "https://dc.lft.to/lastmile_qr_scan"}, "fusion_lon": 0.0, "lat": 38.864432, "bike_id": "e3b8b82354f073210d766845a4ab1892", "type": "electric_scooter", "is_reserved": 0, "lon": -76.97999233333333}, {"fusion_lat": 0.0, "name": "4fefb035c9873254235ffab95b48911c", "is_disabled": 0, "rental_uris": {"android": "https://dc.lft.to/lastmile_qr_scan", "ios": "https://dc.lft.to/lastmile_qr_scan"}, "fusion_lon": 0.0, "lat": 38.91640183333333, "bike_id": "4fefb035c9873254235ffab95b48911c", "type": "electric_scooter", "is_reserved": 0, "lon": -77.02697166666667}, {"fusion_lat": 0.0, "name": "32d79e3a1532e4661821bb8647553cea", "is_disabled": 0, "rental_uris": {"android": "https://dc.lft.to/lastmile_qr_scan", "ios": "https://dc.lft.to/lastmile_qr_scan"}, "fusion_lon": 0.0, "lat": 38.89806633333333, "bike_id": "32d79e3a1532e4661821bb8647553cea", "type": "electric_scooter", "is_reserved": 0, "lon": -77.0489595}, {"fusion_lat": 0.0, "name": "277209a6da9dd093434b1c0fd366f7d7", "is_disabled": 0, "rental_uris": {"android": "https://dc.lft.to/lastmile_qr_scan", "ios": "https://dc.lft.to/lastmile_qr_scan"}, "fusion_lon": 0.0, "lat": 38.9047145, "bike_id": "277209a6da9dd093434b1c0fd366f7d7", "type": "electric_scooter", "is_reserved": 0, "lon": -77.04348116666667}, {"fusion_lat": 0.0, "name": "78382337332a0a7a9dcfe5d5a83a7807", "is_disabled": 0, "rental_uris": {"android": "https://dc.lft.to/lastmile_qr_scan", "ios": "https://dc.lft.to/lastmile_qr_scan"}, "fusion_lon": 0.0, "lat": 38.89219533333333, "bike_id": "78382337332a0a7a9dcfe5d5a83a7807", "type": "electric_scooter", "is_reserved": 0, "lon": -77.02667216666667}, {"fusion_lat": 0.0, "name": "dcf344b5f8358dcf16201762253aee04", "is_disabled": 0, "rental_uris": {"android": "https://dc.lft.to/lastmile_qr_scan", "ios": "https://dc.lft.to/lastmile_qr_scan"}, "fusion_lon": 0.0, "lat": 38.9162215, "bike_id": "dcf344b5f8358dcf16201762253aee04", "type": "electric_scooter", "is_reserved": 0, "lon": -77.03208366666667}, {"fusion_lat": 0.0, "name": "c43dd0fc5674ad361ddc7a1801fc85b1", "is_disabled": 0, "rental_uris": {"android": "https://dc.lft.to/lastmile_qr_scan", "ios": "https://dc.lft.to/lastmile_qr_scan"}, "fusion_lon": 0.0, "lat": 38.90235916666666, "bike_id": "c43dd0fc5674ad361ddc7a1801fc85b1", "type": "electric_scooter", "is_reserved": 0, "lon": -77.03839233333333}, {"fusion_lat": 0.0, "name": "beb44cb7335de3d0142029495524004f", "is_disabled": 0, "rental_uris": {"android": "https://dc.lft.to/lastmile_qr_scan", "ios": "https://dc.lft.to/lastmile_qr_scan"}, "fusion_lon": 0.0, "lat": 38.95882, "bike_id": "beb44cb7335de3d0142029495524004f", "type": "electric_scooter", "is_reserved": 0, "lon": -77.01167216666667}, {"fusion_lat": 0.0, "name": "83e528261e587e56f413c4ef2f1aeaf9", "is_disabled": 0, "rental_uris": {"android": "https://dc.lft.to/lastmile_qr_scan", "ios": "https://dc.lft.to/lastmile_qr_scan"}, "fusion_lon": 0.0, "lat": 38.87657633333333, "bike_id": "83e528261e587e56f413c4ef2f1aeaf9", "type": "electric_scooter", "is_reserved": 0, "lon": -77.00920833333333}, {"fusion_lat": 0.0, "name": "84d39cc31a70ef4733d9d7ef3ae43b7a", "is_disabled": 0, "rental_uris": {"android": "https://dc.lft.to/lastmile_qr_scan", "ios": "https://dc.lft.to/lastmile_qr_scan"}, "fusion_lon": 0.0, "lat": 38.9178515, "bike_id": "84d39cc31a70ef4733d9d7ef3ae43b7a", "type": "electric_scooter", "is_reserved": 0, "lon": -77.0222065}, {"fusion_lat": 0.0, "name": "ad488c054395c5b26aa851e09391e535", "is_disabled": 0, "rental_uris": {"android": "https://dc.lft.to/lastmile_qr_scan", "ios": "https://dc.lft.to/lastmile_qr_scan"}, "fusion_lon": 0.0, "lat": 38.895746833333334, "bike_id": "ad488c054395c5b26aa851e09391e535", "type": "electric_scooter", "is_reserved": 0, "lon": -77.02291116666666}, {"fusion_lat": 0.0, "name": "b4638cd43a8285fc42eb0bebe8f160c3", "is_disabled": 0, "rental_uris": {"android": "https://dc.lft.to/lastmile_qr_scan", "ios": "https://dc.lft.to/lastmile_qr_scan"}, "fusion_lon": 0.0, "lat": 38.92324416666666, "bike_id": "b4638cd43a8285fc42eb0bebe8f160c3", "type": "electric_scooter", "is_reserved": 0, "lon": -77.0390885}, {"fusion_lat": 0.0, "name": "02715c9f17d0cf1941ed94d221b2c75b", "is_disabled": 0, "rental_uris": {"android": "https://dc.lft.to/lastmile_qr_scan", "ios": "https://dc.lft.to/lastmile_qr_scan"}, "fusion_lon": 0.0, "lat": 38.885077, "bike_id": "02715c9f17d0cf1941ed94d221b2c75b", "type": "electric_scooter", "is_reserved": 0, "lon": -77.01497683333334}, {"fusion_lat": 0.0, "name": "247f952799316c34e9bf9338b8d9c462", "is_disabled": 0, "rental_uris": {"android": "https://dc.lft.to/lastmile_qr_scan", "ios": "https://dc.lft.to/lastmile_qr_scan"}, "fusion_lon": 0.0, "lat": 38.9022545, "bike_id": "247f952799316c34e9bf9338b8d9c462", "type": "electric_scooter", "is_reserved": 0, "lon": -77.05946483333334}, {"fusion_lat": 0.0, "name": "67cc7e69b6f7d5e3cdaef9084874843e", "is_disabled": 0, "rental_uris": {"android": "https://dc.lft.to/lastmile_qr_scan", "ios": "https://dc.lft.to/lastmile_qr_scan"}, "fusion_lon": 0.0, "lat": 38.920795166666664, "bike_id": "67cc7e69b6f7d5e3cdaef9084874843e", "type": "electric_bike", "is_reserved": 0, "lon": -76.9894335}, {"fusion_lat": 0.0, "name": "ec0d93834200ace28c337988ddea79ab", "is_disabled": 0, "rental_uris": {"android": "https://dc.lft.to/lastmile_qr_scan", "ios": "https://dc.lft.to/lastmile_qr_scan"}, "fusion_lon": 0.0, "lat": 38.92355966666667, "bike_id": "ec0d93834200ace28c337988ddea79ab", "type": "electric_scooter", "is_reserved": 0, "lon": -77.0504965}, {"fusion_lat": 0.0, "name": "48331ba274d1d412def19a950675cb26", "is_disabled": 0, "rental_uris": {"android": "https://dc.lft.to/lastmile_qr_scan", "ios": "https://dc.lft.to/lastmile_qr_scan"}, "fusion_lon": 0.0, "lat": 38.9415875, "bike_id": "48331ba274d1d412def19a950675cb26", "type": "electric_scooter", "is_reserved": 0, "lon": -77.02497133333334}, {"fusion_lat": 0.0, "name": "09fe47318c1fe07afbec024c424bc580", "is_disabled": 0, "rental_uris": {"android": "https://dc.lft.to/lastmile_qr_scan", "ios": "https://dc.lft.to/lastmile_qr_scan"}, "fusion_lon": 0.0, "lat": 38.9227875, "bike_id": "09fe47318c1fe07afbec024c424bc580", "type": "electric_scooter", "is_reserved": 0, "lon": -77.04237666666667}, {"fusion_lat": 0.0, "name": "bafc1c4e49907e1c8566b3c24422b09b", "is_disabled": 0, "rental_uris": {"android": "https://dc.lft.to/lastmile_qr_scan", "ios": "https://dc.lft.to/lastmile_qr_scan"}, "fusion_lon": 0.0, "lat": 38.91995633333333, "bike_id": "bafc1c4e49907e1c8566b3c24422b09b", "type": "electric_scooter", "is_reserved": 0, "lon": -77.0329005}, {"fusion_lat": 0.0, "name": "e3a6d616c6d3bf828ef8645a3a518ef9", "is_disabled": 0, "rental_uris": {"android": "https://dc.lft.to/lastmile_qr_scan", "ios": "https://dc.lft.to/lastmile_qr_scan"}, "fusion_lon": 0.0, "lat": 38.9100805, "bike_id": "e3a6d616c6d3bf828ef8645a3a518ef9", "type": "electric_scooter", "is_reserved": 0, "lon": -76.99409466666667}, {"fusion_lat": 0.0, "name": "cbbfa41575c836b18d6e831b826e5557", "is_disabled": 0, "rental_uris": {"android": "https://dc.lft.to/lastmile_qr_scan", "ios": "https://dc.lft.to/lastmile_qr_scan"}, "fusion_lon": 0.0, "lat": 38.88373683333333, "bike_id": "cbbfa41575c836b18d6e831b826e5557", "type": "electric_scooter", "is_reserved": 0, "lon": -76.99575033333333}, {"fusion_lat": 0.0, "name": "ca0d91e84bfbb9c09b63d6b7934185c6", "is_disabled": 0, "rental_uris": {"android": "https://dc.lft.to/lastmile_qr_scan", "ios": "https://dc.lft.to/lastmile_qr_scan"}, "fusion_lon": 0.0, "lat": 38.912667, "bike_id": "ca0d91e84bfbb9c09b63d6b7934185c6", "type": "electric_scooter", "is_reserved": 0, "lon": -77.03827116666666}, {"fusion_lat": 0.0, "name": "df74ad751d8f4f79d5c39c4a6bddf9b7", "is_disabled": 0, "rental_uris": {"android": "https://dc.lft.to/lastmile_qr_scan", "ios": "https://dc.lft.to/lastmile_qr_scan"}, "fusion_lon": 0.0, "lat": 38.961423333333336, "bike_id": "df74ad751d8f4f79d5c39c4a6bddf9b7", "type": "electric_scooter", "is_reserved": 0, "lon": -77.02816466666667}, {"fusion_lat": 0.0, "name": "9a5e72649299684874e12461741933b4", "is_disabled": 0, "rental_uris": {"android": "https://dc.lft.to/lastmile_qr_scan", "ios": "https://dc.lft.to/lastmile_qr_scan"}, "fusion_lon": 0.0, "lat": 38.90623183333334, "bike_id": "9a5e72649299684874e12461741933b4", "type": "electric_scooter", "is_reserved": 0, "lon": -77.04176916666667}, {"fusion_lat": 0.0, "name": "69fe68516bab494f1ba4af649c39a47c", "is_disabled": 0, "rental_uris": {"android": "https://dc.lft.to/lastmile_qr_scan", "ios": "https://dc.lft.to/lastmile_qr_scan"}, "fusion_lon": 0.0, "lat": 38.905603, "bike_id": "69fe68516bab494f1ba4af649c39a47c", "type": "electric_scooter", "is_reserved": 0, "lon": -77.0514155}, {"fusion_lat": 0.0, "name": "816ff00f12a72a0b6407ec7bcf9ba6b4", "is_disabled": 0, "rental_uris": {"android": "https://dc.lft.to/lastmile_qr_scan", "ios": "https://dc.lft.to/lastmile_qr_scan"}, "fusion_lon": 0.0, "lat": 38.90455383333333, "bike_id": "816ff00f12a72a0b6407ec7bcf9ba6b4", "type": "electric_scooter", "is_reserved": 0, "lon": -77.04058166666667}, {"fusion_lat": 0.0, "name": "900aa5ced3caef7bb3e3fb6291af8419", "is_disabled": 0, "rental_uris": {"android": "https://dc.lft.to/lastmile_qr_scan", "ios": "https://dc.lft.to/lastmile_qr_scan"}, "fusion_lon": 0.0, "lat": 38.904245333333336, "bike_id": "900aa5ced3caef7bb3e3fb6291af8419", "type": "electric_scooter", "is_reserved": 0, "lon": -77.03171816666666}, {"fusion_lat": 0.0, "name": "b7cd72629afca471af37f93ee6e0febf", "is_disabled": 0, "rental_uris": {"android": "https://dc.lft.to/lastmile_qr_scan", "ios": "https://dc.lft.to/lastmile_qr_scan"}, "fusion_lon": 0.0, "lat": 38.8973215, "bike_id": "b7cd72629afca471af37f93ee6e0febf", "type": "electric_scooter", "is_reserved": 0, "lon": -77.03969516666666}, {"fusion_lat": 0.0, "name": "3941af34f568eea535a317fbb4e84bed", "is_disabled": 0, "rental_uris": {"android": "https://dc.lft.to/lastmile_qr_scan", "ios": "https://dc.lft.to/lastmile_qr_scan"}, "fusion_lon": 0.0, "lat": 38.919664, "bike_id": "3941af34f568eea535a317fbb4e84bed", "type": "electric_scooter", "is_reserved": 0, "lon": -77.0167415}, {"fusion_lat": 0.0, "name": "cd8752a829b1a3733daa1b5a0f747b65", "is_disabled": 0, "rental_uris": {"android": "https://dc.lft.to/lastmile_qr_scan", "ios": "https://dc.lft.to/lastmile_qr_scan"}, "fusion_lon": 0.0, "lat": 38.84274816666667, "bike_id": "cd8752a829b1a3733daa1b5a0f747b65", "type": "electric_bike", "is_reserved": 0, "lon": -76.98840116666666}, {"fusion_lat": 0.0, "name": "767425dfd59ea4ad1cf88360550bc654", "is_disabled": 0, "rental_uris": {"android": "https://dc.lft.to/lastmile_qr_scan", "ios": "https://dc.lft.to/lastmile_qr_scan"}, "fusion_lon": 0.0, "lat": 38.91734966666667, "bike_id": "767425dfd59ea4ad1cf88360550bc654", "type": "electric_scooter", "is_reserved": 0, "lon": -77.041757}, {"fusion_lat": 0.0, "name": "487db1ab81196428abc33d7e042e546e", "is_disabled": 0, "rental_uris": {"android": "https://dc.lft.to/lastmile_qr_scan", "ios": "https://dc.lft.to/lastmile_qr_scan"}, "fusion_lon": 0.0, "lat": 38.921074833333336, "bike_id": "487db1ab81196428abc33d7e042e546e", "type": "electric_scooter", "is_reserved": 0, "lon": -77.04673833333334}, {"fusion_lat": 0.0, "name": "e875fd0e364d9fb65abd993a2e9036cc", "is_disabled": 0, "rental_uris": {"android": "https://dc.lft.to/lastmile_qr_scan", "ios": "https://dc.lft.to/lastmile_qr_scan"}, "fusion_lon": 0.0, "lat": 38.9107455, "bike_id": "e875fd0e364d9fb65abd993a2e9036cc", "type": "electric_scooter", "is_reserved": 0, "lon": -77.04432966666667}, {"fusion_lat": 0.0, "name": "b4cf09844221e2e1f78c8d1794de87b9", "is_disabled": 0, "rental_uris": {"android": "https://dc.lft.to/lastmile_qr_scan", "ios": "https://dc.lft.to/lastmile_qr_scan"}, "fusion_lon": 0.0, "lat": 38.91234516666667, "bike_id": "b4cf09844221e2e1f78c8d1794de87b9", "type": "electric_scooter", "is_reserved": 0, "lon": -77.0488925}, {"fusion_lat": 0.0, "name": "4b5a1fb9d552616136baf124376adbfc", "is_disabled": 0, "rental_uris": {"android": "https://dc.lft.to/lastmile_qr_scan", "ios": "https://dc.lft.to/lastmile_qr_scan"}, "fusion_lon": 0.0, "lat": 38.918051166666665, "bike_id": "4b5a1fb9d552616136baf124376adbfc", "type": "electric_scooter", "is_reserved": 0, "lon": -77.0327155}, {"fusion_lat": 0.0, "name": "692c3592196820b58be712bc3f7ab8bd", "is_disabled": 0, "rental_uris": {"android": "https://dc.lft.to/lastmile_qr_scan", "ios": "https://dc.lft.to/lastmile_qr_scan"}, "fusion_lon": 0.0, "lat": 38.91687566666667, "bike_id": "692c3592196820b58be712bc3f7ab8bd", "type": "electric_scooter", "is_reserved": 0, "lon": -77.03770533333334}, {"fusion_lat": 0.0, "name": "70e258858f488ce16d312d5f12200df8", "is_disabled": 0, "rental_uris": {"android": "https://dc.lft.to/lastmile_qr_scan", "ios": "https://dc.lft.to/lastmile_qr_scan"}, "fusion_lon": 0.0, "lat": 38.92119183333333, "bike_id": "70e258858f488ce16d312d5f12200df8", "type": "electric_scooter", "is_reserved": 0, "lon": -77.01207033333333}, {"fusion_lat": 0.0, "name": "216f7e7b738c08f524f171e9487433c1", "is_disabled": 0, "rental_uris": {"android": "https://dc.lft.to/lastmile_qr_scan", "ios": "https://dc.lft.to/lastmile_qr_scan"}, "fusion_lon": 0.0, "lat": 38.9140355, "bike_id": "216f7e7b738c08f524f171e9487433c1", "type": "electric_scooter", "is_reserved": 0, "lon": -77.026577}, {"fusion_lat": 0.0, "name": "76dd7ee660e77f377bc057b817226d5a", "is_disabled": 0, "rental_uris": {"android": "https://dc.lft.to/lastmile_qr_scan", "ios": "https://dc.lft.to/lastmile_qr_scan"}, "fusion_lon": 0.0, "lat": 38.89765366666666, "bike_id": "76dd7ee660e77f377bc057b817226d5a", "type": "electric_scooter", "is_reserved": 0, "lon": -76.98556883333333}, {"fusion_lat": 0.0, "name": "a37bb8cd6e4307ee4d466196190402da", "is_disabled": 0, "rental_uris": {"android": "https://dc.lft.to/lastmile_qr_scan", "ios": "https://dc.lft.to/lastmile_qr_scan"}, "fusion_lon": 0.0, "lat": 38.936066333333336, "bike_id": "a37bb8cd6e4307ee4d466196190402da", "type": "electric_scooter", "is_reserved": 0, "lon": -77.05859333333333}, {"fusion_lat": 0.0, "name": "735e524c60d8f3565e66dcb7a3604be3", "is_disabled": 0, "rental_uris": {"android": "https://dc.lft.to/lastmile_qr_scan", "ios": "https://dc.lft.to/lastmile_qr_scan"}, "fusion_lon": 0.0, "lat": 38.8983885, "bike_id": "735e524c60d8f3565e66dcb7a3604be3", "type": "electric_scooter", "is_reserved": 0, "lon": -76.931813}, {"fusion_lat": 0.0, "name": "54f352957c71d7b0a6b6b7d1eb5cb1db", "is_disabled": 0, "rental_uris": {"android": "https://dc.lft.to/lastmile_qr_scan", "ios": "https://dc.lft.to/lastmile_qr_scan"}, "fusion_lon": 0.0, "lat": 38.93778866666667, "bike_id": "54f352957c71d7b0a6b6b7d1eb5cb1db", "type": "electric_bike", "is_reserved": 0, "lon": -77.01908533333334}, {"fusion_lat": 0.0, "name": "84237f28b253ca94111136c1fb48979e", "is_disabled": 0, "rental_uris": {"android": "https://dc.lft.to/lastmile_qr_scan", "ios": "https://dc.lft.to/lastmile_qr_scan"}, "fusion_lon": 0.0, "lat": 38.915534, "bike_id": "84237f28b253ca94111136c1fb48979e", "type": "electric_scooter", "is_reserved": 0, "lon": -77.03174016666667}, {"fusion_lat": 0.0, "name": "34340225cbbe6cd27b4f5cb029c8ad19", "is_disabled": 0, "rental_uris": {"android": "https://dc.lft.to/lastmile_qr_scan", "ios": "https://dc.lft.to/lastmile_qr_scan"}, "fusion_lon": 0.0, "lat": 38.840548166666665, "bike_id": "34340225cbbe6cd27b4f5cb029c8ad19", "type": "electric_scooter", "is_reserved": 0, "lon": -76.9766615}, {"fusion_lat": 0.0, "name": "97b0d63661d4810125fa359370ffc2d7", "is_disabled": 0, "rental_uris": {"android": "https://dc.lft.to/lastmile_qr_scan", "ios": "https://dc.lft.to/lastmile_qr_scan"}, "fusion_lon": 0.0, "lat": 38.9499055, "bike_id": "97b0d63661d4810125fa359370ffc2d7", "type": "electric_scooter", "is_reserved": 0, "lon": -77.027062}, {"fusion_lat": 0.0, "name": "8fa169a69c7ecb8c0270897a12edb174", "is_disabled": 0, "rental_uris": {"android": "https://dc.lft.to/lastmile_qr_scan", "ios": "https://dc.lft.to/lastmile_qr_scan"}, "fusion_lon": 0.0, "lat": 38.898956166666665, "bike_id": "8fa169a69c7ecb8c0270897a12edb174", "type": "electric_scooter", "is_reserved": 0, "lon": -77.00354866666666}, {"fusion_lat": 0.0, "name": "d08f7071475484f9fc12b0dbf44b3d0a", "is_disabled": 0, "rental_uris": {"android": "https://dc.lft.to/lastmile_qr_scan", "ios": "https://dc.lft.to/lastmile_qr_scan"}, "fusion_lon": 0.0, "lat": 38.88545716666667, "bike_id": "d08f7071475484f9fc12b0dbf44b3d0a", "type": "electric_scooter", "is_reserved": 0, "lon": -76.99783883333333}, {"fusion_lat": 0.0, "name": "38271bfd160948c6afe2c3e3e26f442f", "is_disabled": 0, "rental_uris": {"android": "https://dc.lft.to/lastmile_qr_scan", "ios": "https://dc.lft.to/lastmile_qr_scan"}, "fusion_lon": 0.0, "lat": 38.88736083333333, "bike_id": "38271bfd160948c6afe2c3e3e26f442f", "type": "electric_scooter", "is_reserved": 0, "lon": -77.02581516666666}, {"fusion_lat": 0.0, "name": "a5ccf4cf77b85d31cabd6e511e155aef", "is_disabled": 0, "rental_uris": {"android": "https://dc.lft.to/lastmile_qr_scan", "ios": "https://dc.lft.to/lastmile_qr_scan"}, "fusion_lon": 0.0, "lat": 38.86676666666666, "bike_id": "a5ccf4cf77b85d31cabd6e511e155aef", "type": "electric_scooter", "is_reserved": 0, "lon": -76.98570733333334}, {"fusion_lat": 0.0, "name": "d57eed908e2a09ad274a7a6daac71654", "is_disabled": 0, "rental_uris": {"android": "https://dc.lft.to/lastmile_qr_scan", "ios": "https://dc.lft.to/lastmile_qr_scan"}, "fusion_lon": 0.0, "lat": 38.90632566666667, "bike_id": "d57eed908e2a09ad274a7a6daac71654", "type": "electric_scooter", "is_reserved": 0, "lon": -77.0240245}, {"fusion_lat": 0.0, "name": "2186aa95f403f4c000ce2e7169c46f68", "is_disabled": 0, "rental_uris": {"android": "https://dc.lft.to/lastmile_qr_scan", "ios": "https://dc.lft.to/lastmile_qr_scan"}, "fusion_lon": 0.0, "lat": 38.911219833333334, "bike_id": "2186aa95f403f4c000ce2e7169c46f68", "type": "electric_scooter", "is_reserved": 0, "lon": -77.035645}, {"fusion_lat": 0.0, "name": "c31a3ba44018285588647a35b1c64eb5", "is_disabled": 0, "rental_uris": {"android": "https://dc.lft.to/lastmile_qr_scan", "ios": "https://dc.lft.to/lastmile_qr_scan"}, "fusion_lon": 0.0, "lat": 38.897191, "bike_id": "c31a3ba44018285588647a35b1c64eb5", "type": "electric_scooter", "is_reserved": 0, "lon": -77.00793133333333}, {"fusion_lat": 0.0, "name": "48ccfb7e76a02da79830fdf9a0f69857", "is_disabled": 0, "rental_uris": {"android": "https://dc.lft.to/lastmile_qr_scan", "ios": "https://dc.lft.to/lastmile_qr_scan"}, "fusion_lon": 0.0, "lat": 38.90409266666666, "bike_id": "48ccfb7e76a02da79830fdf9a0f69857", "type": "electric_scooter", "is_reserved": 0, "lon": -76.9733155}, {"fusion_lat": 0.0, "name": "ecbcb911fb7a98301d8c6b66bdc2b95a", "is_disabled": 0, "rental_uris": {"android": "https://dc.lft.to/lastmile_qr_scan", "ios": "https://dc.lft.to/lastmile_qr_scan"}, "fusion_lon": 0.0, "lat": 38.89802516666666, "bike_id": "ecbcb911fb7a98301d8c6b66bdc2b95a", "type": "electric_scooter", "is_reserved": 0, "lon": -77.024169}, {"fusion_lat": 0.0, "name": "70920caa45a1d5c90e677170a9e84a88", "is_disabled": 0, "rental_uris": {"android": "https://dc.lft.to/lastmile_qr_scan", "ios": "https://dc.lft.to/lastmile_qr_scan"}, "fusion_lon": 0.0, "lat": 38.899994666666665, "bike_id": "70920caa45a1d5c90e677170a9e84a88", "type": "electric_scooter", "is_reserved": 0, "lon": -77.03043366666667}, {"fusion_lat": 0.0, "name": "977ae97f3648cb6ce166f3330e80a46d", "is_disabled": 0, "rental_uris": {"android": "https://dc.lft.to/lastmile_qr_scan", "ios": "https://dc.lft.to/lastmile_qr_scan"}, "fusion_lon": 0.0, "lat": 38.944457166666666, "bike_id": "977ae97f3648cb6ce166f3330e80a46d", "type": "electric_scooter", "is_reserved": 0, "lon": -77.06401683333333}, {"fusion_lat": 0.0, "name": "4d845fdfcab788c5bdabc1af9fe5b5e2", "is_disabled": 0, "rental_uris": {"android": "https://dc.lft.to/lastmile_qr_scan", "ios": "https://dc.lft.to/lastmile_qr_scan"}, "fusion_lon": 0.0, "lat": 38.923223666666665, "bike_id": "4d845fdfcab788c5bdabc1af9fe5b5e2", "type": "electric_scooter", "is_reserved": 0, "lon": -77.019585}, {"fusion_lat": 0.0, "name": "a2275f066ffea8f57a70214d622b4026", "is_disabled": 0, "rental_uris": {"android": "https://dc.lft.to/lastmile_qr_scan", "ios": "https://dc.lft.to/lastmile_qr_scan"}, "fusion_lon": 0.0, "lat": 38.93197116666666, "bike_id": "a2275f066ffea8f57a70214d622b4026", "type": "electric_scooter", "is_reserved": 0, "lon": -77.04298116666666}, {"fusion_lat": 0.0, "name": "26c0c6d51e9ddc23ae9714f36810634d", "is_disabled": 0, "rental_uris": {"android": "https://dc.lft.to/lastmile_qr_scan", "ios": "https://dc.lft.to/lastmile_qr_scan"}, "fusion_lon": 0.0, "lat": 38.89217983333333, "bike_id": "26c0c6d51e9ddc23ae9714f36810634d", "type": "electric_scooter", "is_reserved": 0, "lon": -77.020133}, {"fusion_lat": 0.0, "name": "04204906b6880d19ecc9c612c7512c53", "is_disabled": 0, "rental_uris": {"android": "https://dc.lft.to/lastmile_qr_scan", "ios": "https://dc.lft.to/lastmile_qr_scan"}, "fusion_lon": 0.0, "lat": 38.89703433333333, "bike_id": "04204906b6880d19ecc9c612c7512c53", "type": "electric_scooter", "is_reserved": 0, "lon": -77.01311466666667}, {"fusion_lat": 0.0, "name": "1608d99e3d7f8cb936a7e54d388f4f2a", "is_disabled": 0, "rental_uris": {"android": "https://dc.lft.to/lastmile_qr_scan", "ios": "https://dc.lft.to/lastmile_qr_scan"}, "fusion_lon": 0.0, "lat": 38.9131965, "bike_id": "1608d99e3d7f8cb936a7e54d388f4f2a", "type": "electric_scooter", "is_reserved": 0, "lon": -77.03172816666667}, {"fusion_lat": 0.0, "name": "c0ad8571969850c81ed8dbb3e8a4ea18", "is_disabled": 0, "rental_uris": {"android": "https://dc.lft.to/lastmile_qr_scan", "ios": "https://dc.lft.to/lastmile_qr_scan"}, "fusion_lon": 0.0, "lat": 38.9042515, "bike_id": "c0ad8571969850c81ed8dbb3e8a4ea18", "type": "electric_scooter", "is_reserved": 0, "lon": -76.94974316666666}, {"fusion_lat": 0.0, "name": "911c556af720e344bacbce5f4ebc41af", "is_disabled": 0, "rental_uris": {"android": "https://dc.lft.to/lastmile_qr_scan", "ios": "https://dc.lft.to/lastmile_qr_scan"}, "fusion_lon": 0.0, "lat": 38.91727866666667, "bike_id": "911c556af720e344bacbce5f4ebc41af", "type": "electric_scooter", "is_reserved": 0, "lon": -77.03199}, {"fusion_lat": 0.0, "name": "7f77da150b7a4202b8252c469036e269", "is_disabled": 0, "rental_uris": {"android": "https://dc.lft.to/lastmile_qr_scan", "ios": "https://dc.lft.to/lastmile_qr_scan"}, "fusion_lon": 0.0, "lat": 38.91691683333333, "bike_id": "7f77da150b7a4202b8252c469036e269", "type": "electric_scooter", "is_reserved": 0, "lon": -77.03039016666666}, {"fusion_lat": 0.0, "name": "7ba8da8d599fc395502517ca0ecf0541", "is_disabled": 0, "rental_uris": {"android": "https://dc.lft.to/lastmile_qr_scan", "ios": "https://dc.lft.to/lastmile_qr_scan"}, "fusion_lon": 0.0, "lat": 38.90007583333333, "bike_id": "7ba8da8d599fc395502517ca0ecf0541", "type": "electric_scooter", "is_reserved": 0, "lon": -77.00653583333333}, {"fusion_lat": 0.0, "name": "532b52d44bf520b59c8a4f5a03116bbf", "is_disabled": 0, "rental_uris": {"android": "https://dc.lft.to/lastmile_qr_scan", "ios": "https://dc.lft.to/lastmile_qr_scan"}, "fusion_lon": 0.0, "lat": 38.885158, "bike_id": "532b52d44bf520b59c8a4f5a03116bbf", "type": "electric_scooter", "is_reserved": 0, "lon": -77.015032}, {"fusion_lat": 0.0, "name": "2d3f7c2f0f14b203cf5187a66e04b116", "is_disabled": 0, "rental_uris": {"android": "https://dc.lft.to/lastmile_qr_scan", "ios": "https://dc.lft.to/lastmile_qr_scan"}, "fusion_lon": 0.0, "lat": 38.92398466666667, "bike_id": "2d3f7c2f0f14b203cf5187a66e04b116", "type": "electric_scooter", "is_reserved": 0, "lon": -77.0429495}, {"fusion_lat": 0.0, "name": "1e8f862dc5e2f860d43734042fefec0c", "is_disabled": 0, "rental_uris": {"android": "https://dc.lft.to/lastmile_qr_scan", "ios": "https://dc.lft.to/lastmile_qr_scan"}, "fusion_lon": 0.0, "lat": 38.9212605, "bike_id": "1e8f862dc5e2f860d43734042fefec0c", "type": "electric_scooter", "is_reserved": 0, "lon": -77.036569}, {"fusion_lat": 0.0, "name": "af96cd084bcabd49589fa77f0f3b06cb", "is_disabled": 0, "rental_uris": {"android": "https://dc.lft.to/lastmile_qr_scan", "ios": "https://dc.lft.to/lastmile_qr_scan"}, "fusion_lon": 0.0, "lat": 38.921595333333336, "bike_id": "af96cd084bcabd49589fa77f0f3b06cb", "type": "electric_scooter", "is_reserved": 0, "lon": -77.03376433333334}, {"fusion_lat": 0.0, "name": "17864f63e1cb332d4058b64fa23ab1dc", "is_disabled": 0, "rental_uris": {"android": "https://dc.lft.to/lastmile_qr_scan", "ios": "https://dc.lft.to/lastmile_qr_scan"}, "fusion_lon": 0.0, "lat": 38.91680616666667, "bike_id": "17864f63e1cb332d4058b64fa23ab1dc", "type": "electric_scooter", "is_reserved": 0, "lon": -77.02949783333334}, {"fusion_lat": 0.0, "name": "2eb065eab31066d50aea569700d33f68", "is_disabled": 0, "rental_uris": {"android": "https://dc.lft.to/lastmile_qr_scan", "ios": "https://dc.lft.to/lastmile_qr_scan"}, "fusion_lon": 0.0, "lat": 38.875812333333336, "bike_id": "2eb065eab31066d50aea569700d33f68", "type": "electric_bike", "is_reserved": 0, "lon": -77.23409233333334}, {"fusion_lat": 0.0, "name": "4200a790b27f78e637b6280e60bc3fc5", "is_disabled": 0, "rental_uris": {"android": "https://dc.lft.to/lastmile_qr_scan", "ios": "https://dc.lft.to/lastmile_qr_scan"}, "fusion_lon": 0.0, "lat": 38.900148333333334, "bike_id": "4200a790b27f78e637b6280e60bc3fc5", "type": "electric_scooter", "is_reserved": 0, "lon": -77.035123}, {"fusion_lat": 0.0, "name": "014a3e15215616b07a91ae4979d41db7", "is_disabled": 0, "rental_uris": {"android": "https://dc.lft.to/lastmile_qr_scan", "ios": "https://dc.lft.to/lastmile_qr_scan"}, "fusion_lon": 0.0, "lat": 38.88526183333333, "bike_id": "014a3e15215616b07a91ae4979d41db7", "type": "electric_scooter", "is_reserved": 0, "lon": -76.92917583333333}, {"fusion_lat": 0.0, "name": "fb77ac4a5c73001cd1c72c58eb43a39e", "is_disabled": 0, "rental_uris": {"android": "https://dc.lft.to/lastmile_qr_scan", "ios": "https://dc.lft.to/lastmile_qr_scan"}, "fusion_lon": 0.0, "lat": 38.8982955, "bike_id": "fb77ac4a5c73001cd1c72c58eb43a39e", "type": "electric_scooter", "is_reserved": 0, "lon": -77.00735566666667}, {"fusion_lat": 0.0, "name": "9efc3bc53a2ee2793d26b728106c932d", "is_disabled": 0, "rental_uris": {"android": "https://dc.lft.to/lastmile_qr_scan", "ios": "https://dc.lft.to/lastmile_qr_scan"}, "fusion_lon": 0.0, "lat": 38.892261833333336, "bike_id": "9efc3bc53a2ee2793d26b728106c932d", "type": "electric_scooter", "is_reserved": 0, "lon": -77.03982466666666}, {"fusion_lat": 0.0, "name": "fccb8ac9b49c3d81a927c5767f7e429c", "is_disabled": 0, "rental_uris": {"android": "https://dc.lft.to/lastmile_qr_scan", "ios": "https://dc.lft.to/lastmile_qr_scan"}, "fusion_lon": 0.0, "lat": 38.89276916666667, "bike_id": "fccb8ac9b49c3d81a927c5767f7e429c", "type": "electric_scooter", "is_reserved": 0, "lon": -77.0503675},