{"data": {"bikes": [{"lon": -77.032564, "lat": 38.935279666666666, "name": "d4b1c5ad85a521655915861714e29761", "fusion_lat": 0.0, "fusion_lon": 0.0, "rental_uris": {"android": "https://dc.lft.to/lastmile_qr_scan", "ios": "https://dc.lft.to/lastmile_qr_scan"}, "is_reserved": 0, "is_disabled": 0, "type": "electric_scooter", "bike_id": "d4b1c5ad85a521655915861714e29761"}, {"lon": -77.001186, "lat": 38.89434416666667, "name": "2030f06ec5008e2f07c51d98dbc3abcc", "fusion_lat": 0.0, "fusion_lon": 0.0, "rental_uris": {"android": "https://dc.lft.to/lastmile_qr_scan", "ios": "https://dc.lft.to/lastmile_qr_scan"}, "is_reserved": 0, "is_disabled": 0, "type": "electric_scooter", "bike_id": "2030f06ec5008e2f07c51d98dbc3abcc"}, {"lon": -77.02481483333334, "lat": 38.93879166666667, "name": "10e3118d8699f71aedda85375955fb92", "fusion_lat": 0.0, "fusion_lon": 0.0, "rental_uris": {"android": "https://dc.lft.to/lastmile_qr_scan", "ios": "https://dc.lft.to/lastmile_qr_scan"}, "is_reserved": 0, "is_disabled": 0, "type": "electric_scooter", "bike_id": "10e3118d8699f71aedda85375955fb92"}, {"lon": -77.02712733333334, "lat": 38.89219883333333, "name": "6912995279301f19661a78a084a4fc21", "fusion_lat": 0.0, "fusion_lon": 0.0, "rental_uris": {"android": "https://dc.lft.to/lastmile_qr_scan", "ios": "https://dc.lft.to/lastmile_qr_scan"}, "is_reserved": 0, "is_disabled": 0, "type": "electric_scooter", "bike_id": "6912995279301f19661a78a084a4fc21"}, {"lon": -77.03439216666666, "lat": 38.91811783333333, "name": "8cefd49b7c95ab97b5e33ddbed380939", "fusion_lat": 0.0, "fusion_lon": 0.0, "rental_uris": {"android": "https://dc.lft.to/lastmile_qr_scan", "ios": "https://dc.lft.to/lastmile_qr_scan"}, "is_reserved": 0, "is_disabled": 0, "type": "electric_scooter", "bike_id": "8cefd49b7c95ab97b5e33ddbed380939"}, {"lon": -77.02838183333333, "lat": 38.92470316666667, "name": "5eb1cffd2f8515db7296d96bf270a061", "fusion_lat": 0.0, "fusion_lon": 0.0, "rental_uris": {"android": "https://dc.lft.to/lastmile_qr_scan", "ios": "https://dc.lft.to/lastmile_qr_scan"}, "is_reserved": 0, "is_disabled": 0, "type": "electric_scooter", "bike_id": "5eb1cffd2f8515db7296d96bf270a061"}, {"lon": -77.0439385, "lat": 38.90138983333333, "name": "cbb0e51d7028fc60ae252a42a3d22125", "fusion_lat": 0.0, "fusion_lon": 0.0, "rental_uris": {"android": "https://dc.lft.to/lastmile_qr_scan", "ios": "https://dc.lft.to/lastmile_qr_scan"}, "is_reserved": 0, "is_disabled": 0, "type": "electric_scooter", "bike_id": "cbb0e51d7028fc60ae252a42a3d22125"}, {"lon": -77.03434316666667, "lat": 38.91802166666667, "name": "a6b6a41f2c54201efe5a6d13ef6e3101", "fusion_lat": 0.0, "fusion_lon": 0.0, "rental_uris": {"android": "https://dc.lft.to/lastmile_qr_scan", "ios": "https://dc.lft.to/lastmile_qr_scan"}, "is_reserved": 0, "is_disabled": 0, "type": "electric_scooter", "bike_id": "a6b6a41f2c54201efe5a6d13ef6e3101"}, {"lon": -77.05000733333334, "lat": 38.89232966666667, "name": "ba9946f79c5137530cdae723aefe1695", "fusion_lat": 0.0, "fusion_lon": 0.0, "rental_uris": {"android": "https://dc.lft.to/lastmile_qr_scan", "ios": "https://dc.lft.to/lastmile_qr_scan"}, "is_reserved": 0, "is_disabled": 0, "type": "electric_scooter", "bike_id": "ba9946f79c5137530cdae723aefe1695"}, {"lon": -77.08213066666667, "lat": 38.935582333333336, "name": "0e05ed39a205a9e2d883d517581109b3", "fusion_lat": 0.0, "fusion_lon": 0.0, "rental_uris": {"android": "https://dc.lft.to/lastmile_qr_scan", "ios": "https://dc.lft.to/lastmile_qr_scan"}, "is_reserved": 0, "is_disabled": 0, "type": "electric_scooter", "bike_id": "0e05ed39a205a9e2d883d517581109b3"}, {"lon": -77.0415925, "lat": 38.91905416666667, "name": "ac63595eeb8fb000f360172bb5a8eee9", "fusion_lat": 0.0, "fusion_lon": 0.0, "rental_uris": {"android": "https://dc.lft.to/lastmile_qr_scan", "ios": "https://dc.lft.to/lastmile_qr_scan"}, "is_reserved": 0, "is_disabled": 0, "type": "electric_scooter", "bike_id": "ac63595eeb8fb000f360172bb5a8eee9"}, {"lon": -77.03349866666667, "lat": 38.89973233333333, "name": "cd5cc92cb0b0395a912f6ef564a6c53a", "fusion_lat": 0.0, "fusion_lon": 0.0, "rental_uris": {"android": "https://dc.lft.to/lastmile_qr_scan", "ios": "https://dc.lft.to/lastmile_qr_scan"}, "is_reserved": 0, "is_disabled": 0, "type": "electric_scooter", "bike_id": "cd5cc92cb0b0395a912f6ef564a6c53a"}, {"lon": -77.02798133333333, "lat": 38.930833166666666, "name": "e147bd290e9d6e03b8392a64805a58e5", "fusion_lat": 0.0, "fusion_lon": 0.0, "rental_uris": {"android": "https://dc.lft.to/lastmile_qr_scan", "ios": "https://dc.lft.to/lastmile_qr_scan"}, "is_reserved": 0, "is_disabled": 0, "type": "electric_scooter", "bike_id": "e147bd290e9d6e03b8392a64805a58e5"}, {"lon": -77.047356, "lat": 38.918906, "name": "13ad7c7a7ce7d56e676a6de278c3ced5", "fusion_lat": 0.0, "fusion_lon": 0.0, "rental_uris": {"android": "https://dc.lft.to/lastmile_qr_scan", "ios": "https://dc.lft.to/lastmile_qr_scan"}, "is_reserved": 0, "is_disabled": 0, "type": "electric_scooter", "bike_id": "13ad7c7a7ce7d56e676a6de278c3ced5"}, {"lon": -77.0102575, "lat": 38.9180535, "name": "06bbcec63581b15d4b13346ab0e60cc1", "fusion_lat": 0.0, "fusion_lon": 0.0, "rental_uris": {"android": "https://dc.lft.to/lastmile_qr_scan", "ios": "https://dc.lft.to/lastmile_qr_scan"}, "is_reserved": 0, "is_disabled": 0, "type": "electric_scooter", "bike_id": "06bbcec63581b15d4b13346ab0e60cc1"}, {"lon": -76.99003383333333, "lat": 38.903903666666665, "name": "3fa8b1761dd316a87fdc8072b012e693", "fusion_lat": 0.0, "fusion_lon": 0.0, "rental_uris": {"android": "https://dc.lft.to/lastmile_qr_scan", "ios": "https://dc.lft.to/lastmile_qr_scan"}, "is_reserved": 0, "is_disabled": 0, "type": "electric_scooter", "bike_id": "3fa8b1761dd316a87fdc8072b012e693"}, {"lon": -76.98445116666667, "lat": 38.899577, "name": "dc6cf3c19ab75d868a943060f2d82c98", "fusion_lat": 0.0, "fusion_lon": 0.0, "rental_uris": {"android": "https://dc.lft.to/lastmile_qr_scan", "ios": "https://dc.lft.to/lastmile_qr_scan"}, "is_reserved": 0, "is_disabled": 0, "type": "electric_scooter", "bike_id": "dc6cf3c19ab75d868a943060f2d82c98"}, {"lon": -77.02906016666667, "lat": 38.900521833333336, "name": "4628a007aa39b5cb50ef42dd162c50b7", "fusion_lat": 0.0, "fusion_lon": 0.0, "rental_uris": {"android": "https://dc.lft.to/lastmile_qr_scan", "ios": "https://dc.lft.to/lastmile_qr_scan"}, "is_reserved": 0, "is_disabled": 0, "type": "electric_scooter", "bike_id": "4628a007aa39b5cb50ef42dd162c50b7"}, {"lon": -76.995998, "lat": 38.88865416666667, "name": "020e041d26d5adc86776e8f6e8a37a14", "fusion_lat": 0.0, "fusion_lon": 0.0, "rental_uris": {"android": "https://dc.lft.to/lastmile_qr_scan", "ios": "https://dc.lft.to/lastmile_qr_scan"}, "is_reserved": 0, "is_disabled": 0, "type": "electric_scooter", "bike_id": "020e041d26d5adc86776e8f6e8a37a14"}, {"lon": -77.03089783333333, "lat": 38.900315, "name": "d471fa78e67641260202a873ee7c1fac", "fusion_lat": 0.0, "fusion_lon": 0.0, "rental_uris": {"android": "https://dc.lft.to/lastmile_qr_scan", "ios": "https://dc.lft.to/lastmile_qr_scan"}, "is_reserved": 0, "is_disabled": 0, "type": "electric_scooter", "bike_id": "d471fa78e67641260202a873ee7c1fac"}, {"lon": -77.02764116666667, "lat": 38.94296166666667, "name": "13a7406957f820b76bcb3bdb02d42f33", "fusion_lat": 0.0, "fusion_lon": 0.0, "rental_uris": {"android": "https://dc.lft.to/lastmile_qr_scan", "ios": "https://dc.lft.to/lastmile_qr_scan"}, "is_reserved": 0, "is_disabled": 0, "type": "electric_scooter", "bike_id": "13a7406957f820b76bcb3bdb02d42f33"}, {"lon": -77.04520983333333, "lat": 38.9077745, "name": "3497a16f76bd66ef2099d751166774d1", "fusion_lat": 0.0, "fusion_lon": 0.0, "rental_uris": {"android": "https://dc.lft.to/lastmile_qr_scan", "ios": "https://dc.lft.to/lastmile_qr_scan"}, "is_reserved": 0, "is_disabled": 0, "type": "electric_scooter", "bike_id": "3497a16f76bd66ef2099d751166774d1"}, {"lon": -77.10507283333334, "lat": 38.928479333333335, "name": "7ccb274922c9622c951147fdc0a9d9ec", "fusion_lat": 0.0, "fusion_lon": 0.0, "rental_uris": {"android": "https://dc.lft.to/lastmile_qr_scan", "ios": "https://dc.lft.to/lastmile_qr_scan"}, "is_reserved": 0, "is_disabled": 0, "type": "electric_bike", "bike_id": "7ccb274922c9622c951147fdc0a9d9ec"}, {"lon": -77.1104885, "lat": 38.87012216666667, "name": "5272d9dfe8f881cfc21ddcd4f9618958", "fusion_lat": 0.0, "fusion_lon": 0.0, "rental_uris": {"android": "https://dc.lft.to/lastmile_qr_scan", "ios": "https://dc.lft.to/lastmile_qr_scan"}, "is_reserved": 0, "is_disabled": 0, "type": "electric_bike", "bike_id": "5272d9dfe8f881cfc21ddcd4f9618958"}, {"lon": -76.98410966666667, "lat": 38.85971333333333, "name": "0072fec21e2396383dfb1cc448e72c7d", "fusion_lat": 0.0, "fusion_lon": 0.0, "rental_uris": {"android": "https://dc.lft.to/lastmile_qr_scan", "ios": "https://dc.lft.to/lastmile_qr_scan"}, "is_reserved": 0, "is_disabled": 0, "type": "electric_scooter", "bike_id": "0072fec21e2396383dfb1cc448e72c7d"}, {"lon": -77.0216595, "lat": 38.928220333333336, "name": "088de4b71aec7ab5d9e9312434e3b6be", "fusion_lat": 0.0, "fusion_lon": 0.0, "rental_uris": {"android": "https://dc.lft.to/lastmile_qr_scan", "ios": "https://dc.lft.to/lastmile_qr_scan"}, "is_reserved": 0, "is_disabled": 0, "type": "electric_scooter", "bike_id": "088de4b71aec7ab5d9e9312434e3b6be"}, {"lon": -77.08942583333334, "lat": 38.841036333333335, "name": "fa8a8e1c1c709d4108ea74eeeb1683d3", "fusion_lat": 0.0, "fusion_lon": 0.0, "rental_uris": {"android": "https://dc.lft.to/lastmile_qr_scan", "ios": "https://dc.lft.to/lastmile_qr_scan"}, "is_reserved": 0, "is_disabled": 0, "type": "electric_bike", "bike_id": "fa8a8e1c1c709d4108ea74eeeb1683d3"}, {"lon": -77.05525083333333, "lat": 38.899292833333334, "name": "73c39b754677824507eece406069e918", "fusion_lat": 0.0, "fusion_lon": 0.0, "rental_uris": {"android": "https://dc.lft.to/lastmile_qr_scan", "ios": "https://dc.lft.to/lastmile_qr_scan"}, "is_reserved": 0, "is_disabled": 0, "type": "electric_scooter", "bike_id": "73c39b754677824507eece406069e918"}, {"lon": -76.930186, "lat": 38.90086866666667, "name": "cb507d8bfb408d81b57b4aa9cc1f0580", "fusion_lat": 0.0, "fusion_lon": 0.0, "rental_uris": {"android": "https://dc.lft.to/lastmile_qr_scan", "ios": "https://dc.lft.to/lastmile_qr_scan"}, "is_reserved": 0, "is_disabled": 0, "type": "electric_scooter", "bike_id": "cb507d8bfb408d81b57b4aa9cc1f0580"}, {"lon": -77.03952216666667, "lat": 38.9024475, "name": "894eac583ea861124405bf798a873681", "fusion_lat": 0.0, "fusion_lon": 0.0, "rental_uris": {"android": "https://dc.lft.to/lastmile_qr_scan", "ios": "https://dc.lft.to/lastmile_qr_scan"}, "is_reserved": 0, "is_disabled": 0, "type": "electric_scooter", "bike_id": "894eac583ea861124405bf798a873681"}, {"lon": -77.03852066666667, "lat": 38.918225, "name": "e736e64d1923618f32d3011dc2c85061", "fusion_lat": 0.0, "fusion_lon": 0.0, "rental_uris": {"android": "https://dc.lft.to/lastmile_qr_scan", "ios": "https://dc.lft.to/lastmile_qr_scan"}, "is_reserved": 0, "is_disabled": 0, "type": "electric_scooter", "bike_id": "e736e64d1923618f32d3011dc2c85061"}, {"lon": -76.95759816666667, "lat": 38.884362, "name": "8ceed7141dd31f77c28d0c0a7e498d09", "fusion_lat": 0.0, "fusion_lon": 0.0, "rental_uris": {"android": "https://dc.lft.to/lastmile_qr_scan", "ios": "https://dc.lft.to/lastmile_qr_scan"}, "is_reserved": 0, "is_disabled": 0, "type": "electric_scooter", "bike_id": "8ceed7141dd31f77c28d0c0a7e498d09"}, {"lon": -77.0331085, "lat": 38.901494, "name": "8b0adeac8a26030812b6a5e8800f877e", "fusion_lat": 0.0, "fusion_lon": 0.0, "rental_uris": {"android": "https://dc.lft.to/lastmile_qr_scan", "ios": "https://dc.lft.to/lastmile_qr_scan"}, "is_reserved": 0, "is_disabled": 0, "type": "electric_scooter", "bike_id": "8b0adeac8a26030812b6a5e8800f877e"}, {"lon": -77.04323366666667, "lat": 38.9262455, "name": "c536fe4eee2225d31c6484409ad27f05", "fusion_lat": 0.0, "fusion_lon": 0.0, "rental_uris": {"android": "https://dc.lft.to/lastmile_qr_scan", "ios": "https://dc.lft.to/lastmile_qr_scan"}, "is_reserved": 0, "is_disabled": 0, "type": "electric_scooter", "bike_id": "c536fe4eee2225d31c6484409ad27f05"}, {"lon": -76.9983795, "lat": 38.839186833333336, "name": "d13f59509452df010b5a1cbc2a6062b8", "fusion_lat": 0.0, "fusion_lon": 0.0, "rental_uris": {"android": "https://dc.lft.to/lastmile_qr_scan", "ios": "https://dc.lft.to/lastmile_qr_scan"}, "is_reserved": 0, "is_disabled": 0, "type": "electric_bike", "bike_id": "d13f59509452df010b5a1cbc2a6062b8"}, {"lon": -77.01675816666666, "lat": 38.90560583333333, "name": "6958ecbd82a1e78a4fe8c9b4c509ec54", "fusion_lat": 0.0, "fusion_lon": 0.0, "rental_uris": {"android": "https://dc.lft.to/lastmile_qr_scan", "ios": "https://dc.lft.to/lastmile_qr_scan"}, "is_reserved": 0, "is_disabled": 0, "type": "electric_scooter", "bike_id": "6958ecbd82a1e78a4fe8c9b4c509ec54"}, {"lon": -77.03848833333333, "lat": 38.915427, "name": "d7ae88d2a5ea7629a3de4364b17bc7b9", "fusion_lat": 0.0, "fusion_lon": 0.0, "rental_uris": {"android": "https://dc.lft.to/lastmile_qr_scan", "ios": "https://dc.lft.to/lastmile_qr_scan"}, "is_reserved": 0, "is_disabled": 0, "type": "electric_scooter", "bike_id": "d7ae88d2a5ea7629a3de4364b17bc7b9"}, {"lon": -77.0406025, "lat": 38.917797, "name": "a3b2dfe87a1c83c0826e9761143c1506", "fusion_lat": 0.0, "fusion_lon": 0.0, "rental_uris": {"android": "https://dc.lft.to/lastmile_qr_scan", "ios": "https://dc.lft.to/lastmile_qr_scan"}, "is_reserved": 0, "is_disabled": 0, "type": "electric_scooter", "bike_id": "a3b2dfe87a1c83c0826e9761143c1506"}, {"lon": -77.03106316666667, "lat": 38.9338255, "name": "e9770062218506e35591d165674d97d3", "fusion_lat": 0.0, "fusion_lon": 0.0, "rental_uris": {"android": "https://dc.lft.to/lastmile_qr_scan", "ios": "https://dc.lft.to/lastmile_qr_scan"}, "is_reserved": 0, "is_disabled": 0, "type": "electric_scooter", "bike_id": "e9770062218506e35591d165674d97d3"}, {"lon": -77.03730266666666, "lat": 38.9335985, "name": "903702fbb1fc03550d286d8ddf649dbb", "fusion_lat": 0.0, "fusion_lon": 0.0, "rental_uris": {"android": "https://dc.lft.to/lastmile_qr_scan", "ios": "https://dc.lft.to/lastmile_qr_scan"}, "is_reserved": 0, "is_disabled": 0, "type": "electric_scooter", "bike_id": "903702fbb1fc03550d286d8ddf649dbb"}, {"lon": -76.9861675, "lat": 38.854625666666664, "name": "92658d0a4b8d0e4c76b22b1b725e6bf2", "fusion_lat": 0.0, "fusion_lon": 0.0, "rental_uris": {"android": "https://dc.lft.to/lastmile_qr_scan", "ios": "https://dc.lft.to/lastmile_qr_scan"}, "is_reserved": 0, "is_disabled": 0, "type": "electric_scooter", "bike_id": "92658d0a4b8d0e4c76b22b1b725e6bf2"}, {"lon": -77.00903766666667, "lat": 38.9106055, "name": "ce3e5a510698e6f9aafccf19109f50e4", "fusion_lat": 0.0, "fusion_lon": 0.0, "rental_uris": {"android": "https://dc.lft.to/lastmile_qr_scan", "ios": "https://dc.lft.to/lastmile_qr_scan"}, "is_reserved": 0, "is_disabled": 0, "type": "electric_scooter", "bike_id": "ce3e5a510698e6f9aafccf19109f50e4"}, {"lon": -77.03476066666667, "lat": 38.91705533333333, "name": "5dd8be2cc16a1696e71de289d2de8be9", "fusion_lat": 0.0, "fusion_lon": 0.0, "rental_uris": {"android": "https://dc.lft.to/lastmile_qr_scan", "ios": "https://dc.lft.to/lastmile_qr_scan"}, "is_reserved": 0, "is_disabled": 0, "type": "electric_scooter", "bike_id": "5dd8be2cc16a1696e71de289d2de8be9"}, {"lon": -77.03844466666666, "lat": 38.915568, "name": "812c8a5a77fdddb3dcb1695ecee28f56", "fusion_lat": 0.0, "fusion_lon": 0.0, "rental_uris": {"android": "https://dc.lft.to/lastmile_qr_scan", "ios": "https://dc.lft.to/lastmile_qr_scan"}, "is_reserved": 0, "is_disabled": 0, "type": "electric_scooter", "bike_id": "812c8a5a77fdddb3dcb1695ecee28f56"}, {"lon": -77.028265, "lat": 38.88743016666667, "name": "cbeaec8497f0530dd853cdb00f948557", "fusion_lat": 0.0, "fusion_lon": 0.0, "rental_uris": {"android": "https://dc.lft.to/lastmile_qr_scan", "ios": "https://dc.lft.to/lastmile_qr_scan"}, "is_reserved": 0, "is_disabled": 0, "type": "electric_scooter", "bike_id": "cbeaec8497f0530dd853cdb00f948557"}, {"lon": -77.04153083333334, "lat": 38.925436833333336, "name": "bd61a794c4452595b676ba87d489e3f4", "fusion_lat": 0.0, "fusion_lon": 0.0, "rental_uris": {"android": "https://dc.lft.to/lastmile_qr_scan", "ios": "https://dc.lft.to/lastmile_qr_scan"}, "is_reserved": 0, "is_disabled": 0, "type": "electric_scooter", "bike_id": "bd61a794c4452595b676ba87d489e3f4"}, {"lon": -77.01081283333333, "lat": 38.9626195, "name": "93c20cc6388f524aa8f13929ce03dc7b", "fusion_lat": 0.0, "fusion_lon": 0.0, "rental_uris": {"android": "https://dc.lft.to/lastmile_qr_scan", "ios": "https://dc.lft.to/lastmile_qr_scan"}, "is_reserved": 0, "is_disabled": 0, "type": "electric_bike", "bike_id": "93c20cc6388f524aa8f13929ce03dc7b"}, {"lon": -77.01708216666667, "lat": 38.905745, "name": "95a992b6b84b7f828bb9b4a54d9a59a8", "fusion_lat": 0.0, "fusion_lon": 0.0, "rental_uris": {"android": "https://dc.lft.to/lastmile_qr_scan", "ios": "https://dc.lft.to/lastmile_qr_scan"}, "is_reserved": 0, "is_disabled": 0, "type": "electric_bike", "bike_id": "95a992b6b84b7f828bb9b4a54d9a59a8"}, {"lon": -76.9802225, "lat": 38.903788166666665, "name": "e5a82fe6090bdc3ea994e6828dd929db", "fusion_lat": 0.0, "fusion_lon": 0.0, "rental_uris": {"android": "https://dc.lft.to/lastmile_qr_scan", "ios": "https://dc.lft.to/lastmile_qr_scan"}, "is_reserved": 0, "is_disabled": 0, "type": "electric_scooter", "bike_id": "e5a82fe6090bdc3ea994e6828dd929db"}, {"lon": -76.99422466666667, "lat": 38.9224675, "name": "7caf0fdf9bdb6a22c191a3bfa3f15ea3", "fusion_lat": 0.0, "fusion_lon": 0.0, "rental_uris": {"android": "https://dc.lft.to/lastmile_qr_scan", "ios": "https://dc.lft.to/lastmile_qr_scan"}, "is_reserved": 0, "is_disabled": 0, "type": "electric_scooter", "bike_id": "7caf0fdf9bdb6a22c191a3bfa3f15ea3"}, {"lon": -77.038624, "lat": 38.902783166666666, "name": "dbc093358fe15cdae280b1d93b7849ea", "fusion_lat": 0.0, "fusion_lon": 0.0, "rental_uris": {"android": "https://dc.lft.to/lastmile_qr_scan", "ios": "https://dc.lft.to/lastmile_qr_scan"}, "is_reserved": 0, "is_disabled": 0, "type": "electric_scooter", "bike_id": "dbc093358fe15cdae280b1d93b7849ea"}, {"lon": -76.9884835, "lat": 38.9002175, "name": "4a4daf8d985f94f36047ddbe4f13af97", "fusion_lat": 0.0, "fusion_lon": 0.0, "rental_uris": {"android": "https://dc.lft.to/lastmile_qr_scan", "ios": "https://dc.lft.to/lastmile_qr_scan"}, "is_reserved": 0, "is_disabled": 0, "type": "electric_scooter", "bike_id": "4a4daf8d985f94f36047ddbe4f13af97"}, {"lon": -77.01452783333333, "lat": 38.912073, "name": "de16c01bada640ee95a0316bece9f6d8", "fusion_lat": 0.0, "fusion_lon": 0.0, "rental_uris": {"android": "https://dc.lft.to/lastmile_qr_scan", "ios": "https://dc.lft.to/lastmile_qr_scan"}, "is_reserved": 0, "is_disabled": 0, "type": "electric_scooter", "bike_id": "de16c01bada640ee95a0316bece9f6d8"}, {"lon": -76.96522166666666, "lat": 38.874818166666664, "name": "0e64aca0e565e6ae7a24c6283895f226", "fusion_lat": 0.0, "fusion_lon": 0.0, "rental_uris": {"android": "https://dc.lft.to/lastmile_qr_scan", "ios": "https://dc.lft.to/lastmile_qr_scan"}, "is_reserved": 0, "is_disabled": 0, "type": "electric_scooter", "bike_id": "0e64aca0e565e6ae7a24c6283895f226"}, {"lon": -77.02712733333334, "lat": 38.950022833333335, "name": "7b280533b945e54b0da9043d04c697d9", "fusion_lat": 0.0, "fusion_lon": 0.0, "rental_uris": {"android": "https://dc.lft.to/lastmile_qr_scan", "ios": "https://dc.lft.to/lastmile_qr_scan"}, "is_reserved": 0, "is_disabled": 0, "type": "electric_scooter", "bike_id": "7b280533b945e54b0da9043d04c697d9"}, {"lon": -77.03292533333334, "lat": 38.933433666666666, "name": "6fdb7476520a4d5a9587349b733cf70c", "fusion_lat": 0.0, "fusion_lon": 0.0, "rental_uris": {"android": "https://dc.lft.to/lastmile_qr_scan", "ios": "https://dc.lft.to/lastmile_qr_scan"}, "is_reserved": 0, "is_disabled": 0, "type": "electric_scooter", "bike_id": "6fdb7476520a4d5a9587349b733cf70c"}, {"lon": -77.0124745, "lat": 38.908696, "name": "ff1c6712406cc56398ae720eb44f2cc1", "fusion_lat": 0.0, "fusion_lon": 0.0, "rental_uris": {"android": "https://dc.lft.to/lastmile_qr_scan", "ios": "https://dc.lft.to/lastmile_qr_scan"}, "is_reserved": 0, "is_disabled": 0, "type": "electric_scooter", "bike_id": "ff1c6712406cc56398ae720eb44f2cc1"}, {"lon": -77.01806733333333, "lat": 38.914342500000004, "name": "dd5e322f1ece7cb9a4e0f25be1e882cf", "fusion_lat": 0.0, "fusion_lon": 0.0, "rental_uris": {"android": "https://dc.lft.to/lastmile_qr_scan", "ios": "https://dc.lft.to/lastmile_qr_scan"}, "is_reserved": 0, "is_disabled": 0, "type": "electric_scooter", "bike_id": "dd5e322f1ece7cb9a4e0f25be1e882cf"}, {"lon": -77.0350745, "lat": 38.92158216666667, "name": "5f0b24b45628ec86f757bf1640efdac6", "fusion_lat": 0.0, "fusion_lon": 0.0, "rental_uris": {"android": "https://dc.lft.to/lastmile_qr_scan", "ios": "https://dc.lft.to/lastmile_qr_scan"}, "is_reserved": 0, "is_disabled": 0, "type": "electric_scooter", "bike_id": "5f0b24b45628ec86f757bf1640efdac6"}, {"lon": -77.019225, "lat": 38.916628833333334, "name": "7e7ff02a003db1c0f2fe03c89545a546", "fusion_lat": 0.0, "fusion_lon": 0.0, "rental_uris": {"android": "https://dc.lft.to/lastmile_qr_scan", "ios": "https://dc.lft.to/lastmile_qr_scan"}, "is_reserved": 0, "is_disabled": 0, "type": "electric_scooter", "bike_id": "7e7ff02a003db1c0f2fe03c89545a546"}, {"lon": -77.03222633333333, "lat": 38.92009866666667, "name": "890870720eaea2d4702c91bea14f51cb", "fusion_lat": 0.0, "fusion_lon": 0.0, "rental_uris": {"android": "https://dc.lft.to/lastmile_qr_scan", "ios": "https://dc.lft.to/lastmile_qr_scan"}, "is_reserved": 0, "is_disabled": 0, "type": "electric_scooter", "bike_id": "890870720eaea2d4702c91bea14f51cb"}, {"lon": -77.03407433333334, "lat": 38.9294675, "name": "ec1aa57de1dad7b6b7ea7f071708ed09", "fusion_lat": 0.0, "fusion_lon": 0.0, "rental_uris": {"android": "https://dc.lft.to/lastmile_qr_scan", "ios": "https://dc.lft.to/lastmile_qr_scan"}, "is_reserved": 0, "is_disabled": 0, "type": "electric_scooter", "bike_id": "ec1aa57de1dad7b6b7ea7f071708ed09"}, {"lon": -77.02634183333333, "lat": 38.91553483333333, "name": "bdbdcf3ee5f897503cb086c96300c444", "fusion_lat": 0.0, "fusion_lon": 0.0, "rental_uris": {"android": "https://dc.lft.to/lastmile_qr_scan", "ios": "https://dc.lft.to/lastmile_qr_scan"}, "is_reserved": 0, "is_disabled": 0, "type": "electric_scooter", "bike_id": "bdbdcf3ee5f897503cb086c96300c444"}, {"lon": -77.13180866666667, "lat": 38.86908066666667, "name": "038dc04519c05e1f3cbf7322072c6fe8", "fusion_lat": 0.0, "fusion_lon": 0.0, "rental_uris": {"android": "https://dc.lft.to/lastmile_qr_scan", "ios": "https://dc.lft.to/lastmile_qr_scan"}, "is_reserved": 0, "is_disabled": 0, "type": "electric_bike", "bike_id": "038dc04519c05e1f3cbf7322072c6fe8"}, {"lon": -77.02204566666667, "lat": 38.91982083333333, "name": "8dc422f38fcf35624ce585a13e291bc8", "fusion_lat": 0.0, "fusion_lon": 0.0, "rental_uris": {"android": "https://dc.lft.to/lastmile_qr_scan", "ios": "https://dc.lft.to/lastmile_qr_scan"}, "is_reserved": 0, "is_disabled": 0, "type": "electric_scooter", "bike_id": "8dc422f38fcf35624ce585a13e291bc8"}, {"lon": -77.04820833333333, "lat": 38.91113083333333, "name": "01e260f225d1de7c7a8348d0d881192a", "fusion_lat": 0.0, "fusion_lon": 0.0, "rental_uris": {"android": "https://dc.lft.to/lastmile_qr_scan", "ios": "https://dc.lft.to/lastmile_qr_scan"}, "is_reserved": 0, "is_disabled": 0, "type": "electric_scooter", "bike_id": "01e260f225d1de7c7a8348d0d881192a"}, {"lon": -77.02965366666666, "lat": 38.92272216666667, "name": "551628988edef549ccfbbdfd234f7276", "fusion_lat": 0.0, "fusion_lon": 0.0, "rental_uris": {"android": "https://dc.lft.to/lastmile_qr_scan", "ios": "https://dc.lft.to/lastmile_qr_scan"}, "is_reserved": 0, "is_disabled": 0, "type": "electric_scooter", "bike_id": "551628988edef549ccfbbdfd234f7276"}, {"lon": -77.0377865, "lat": 38.99681116666667, "name": "1a6794315b0f727c399fe9fb044d3f38", "fusion_lat": 0.0, "fusion_lon": 0.0, "rental_uris": {"android": "https://dc.lft.to/lastmile_qr_scan", "ios": "https://dc.lft.to/lastmile_qr_scan"}, "is_reserved": 0, "is_disabled": 0, "type": "electric_bike", "bike_id": "1a6794315b0f727c399fe9fb044d3f38"}, {"lon": -76.94779216666667, "lat": 38.894438, "name": "3c7e2f121e55d80f34929d22ddfc911d", "fusion_lat": 0.0, "fusion_lon": 0.0, "rental_uris": {"android": "https://dc.lft.to/lastmile_qr_scan", "ios": "https://dc.lft.to/lastmile_qr_scan"}, "is_reserved": 0, "is_disabled": 0, "type": "electric_scooter", "bike_id": "3c7e2f121e55d80f34929d22ddfc911d"}, {"lon": -77.044586, "lat": 38.9185275, "name": "b2feb42a36244c54d2a01324882790b0", "fusion_lat": 0.0, "fusion_lon": 0.0, "rental_uris": {"android": "https://dc.lft.to/lastmile_qr_scan", "ios": "https://dc.lft.to/lastmile_qr_scan"}, "is_reserved": 0, "is_disabled": 0, "type": "electric_scooter", "bike_id": "b2feb42a36244c54d2a01324882790b0"}, {"lon": -77.04683133333333, "lat": 38.915694, "name": "d09cbec119b3de33502f40c4cf1cfd78", "fusion_lat": 0.0, "fusion_lon": 0.0, "rental_uris": {"android": "https://dc.lft.to/lastmile_qr_scan", "ios": "https://dc.lft.to/lastmile_qr_scan"}, "is_reserved": 0, "is_disabled": 0, "type": "electric_scooter", "bike_id": "d09cbec119b3de33502f40c4cf1cfd78"}, {"lon": -77.02450216666666, "lat": 38.923836666666666, "name": "93497bc5226ef8140d294e5a9b2cf4b1", "fusion_lat": 0.0, "fusion_lon": 0.0, "rental_uris": {"android": "https://dc.lft.to/lastmile_qr_scan", "ios": "https://dc.lft.to/lastmile_qr_scan"}, "is_reserved": 0, "is_disabled": 0, "type": "electric_bike", "bike_id": "93497bc5226ef8140d294e5a9b2cf4b1"}, {"lon": -77.03069, "lat": 38.880461833333335, "name": "fcd4718c96c261ab799f1480e3079e32", "fusion_lat": 0.0, "fusion_lon": 0.0, "rental_uris": {"android": "https://dc.lft.to/lastmile_qr_scan", "ios": "https://dc.lft.to/lastmile_qr_scan"}, "is_reserved": 0, "is_disabled": 0, "type": "electric_scooter", "bike_id": "fcd4718c96c261ab799f1480e3079e32"}, {"lon": -76.99874516666667, "lat": 38.90029466666667, "name": "3be7e739fa15f40c03eeec7925501e35", "fusion_lat": 0.0, "fusion_lon": 0.0, "rental_uris": {"android": "https://dc.lft.to/lastmile_qr_scan", "ios": "https://dc.lft.to/lastmile_qr_scan"}, "is_reserved": 0, "is_disabled": 0, "type": "electric_scooter", "bike_id": "3be7e739fa15f40c03eeec7925501e35"}, {"lon": -77.03837333333334, "lat": 38.9119, "name": "2d983663dfc69bae91b106d781886e60", "fusion_lat": 0.0, "fusion_lon": 0.0, "rental_uris": {"android": "https://dc.lft.to/lastmile_qr_scan", "ios": "https://dc.lft.to/lastmile_qr_scan"}, "is_reserved": 0, "is_disabled": 0, "type": "electric_scooter", "bike_id": "2d983663dfc69bae91b106d781886e60"}, {"lon": -77.024089, "lat": 38.90963416666666, "name": "9afdafb7fd2b0e66792ca2d47391b902", "fusion_lat": 0.0, "fusion_lon": 0.0, "rental_uris": {"android": "https://dc.lft.to/lastmile_qr_scan", "ios": "https://dc.lft.to/lastmile_qr_scan"}, "is_reserved": 0, "is_disabled": 0, "type": "electric_scooter", "bike_id": "9afdafb7fd2b0e66792ca2d47391b902"}, {"lon": -77.0446225, "lat": 38.918549166666665, "name": "7642f8b29c1ed088e977baa2d6eb3a2e", "fusion_lat": 0.0, "fusion_lon": 0.0, "rental_uris": {"android": "https://dc.lft.to/lastmile_qr_scan", "ios": "https://dc.lft.to/lastmile_qr_scan"}, "is_reserved": 0, "is_disabled": 0, "type": "electric_scooter", "bike_id": "7642f8b29c1ed088e977baa2d6eb3a2e"}, {"lon": -77.04284983333334, "lat": 38.907321, "name": "a857e72a1389b033de717f2f76b1575e", "fusion_lat": 0.0, "fusion_lon": 0.0, "rental_uris": {"android": "https://dc.lft.to/lastmile_qr_scan", "ios": "https://dc.lft.to/lastmile_qr_scan"}, "is_reserved": 0, "is_disabled": 0, "type": "electric_scooter", "bike_id": "a857e72a1389b033de717f2f76b1575e"}, {"lon": -77.0257805, "lat": 38.88356366666667, "name": "de56f668cc7768a006fac2d749e2525a", "fusion_lat": 0.0, "fusion_lon": 0.0, "rental_uris": {"android": "https://dc.lft.to/lastmile_qr_scan", "ios": "https://dc.lft.to/lastmile_qr_scan"}, "is_reserved": 0, "is_disabled": 0, "type": "electric_scooter", "bike_id": "de56f668cc7768a006fac2d749e2525a"}, {"lon": -77.058451, "lat": 38.934347333333335, "name": "3754ca55c2c7872512a476e118aed2fa", "fusion_lat": 0.0, "fusion_lon": 0.0, "rental_uris": {"android": "https://dc.lft.to/lastmile_qr_scan", "ios": "https://dc.lft.to/lastmile_qr_scan"}, "is_reserved": 0, "is_disabled": 0, "type": "electric_scooter", "bike_id": "3754ca55c2c7872512a476e118aed2fa"}, {"lon": -77.030419, "lat": 38.88434483333333, "name": "c7931c0c74e55a4db870c4fb71c16ea3", "fusion_lat": 0.0, "fusion_lon": 0.0, "rental_uris": {"android": "https://dc.lft.to/lastmile_qr_scan", "ios": "https://dc.lft.to/lastmile_qr_scan"}, "is_reserved": 0, "is_disabled": 0, "type": "electric_scooter", "bike_id": "c7931c0c74e55a4db870c4fb71c16ea3"}, {"lon": -76.94720666666667, "lat": 38.89736533333333, "name": "bcdc117cab598b8453c08ab522fd3956", "fusion_lat": 0.0, "fusion_lon": 0.0, "rental_uris": {"android": "https://dc.lft.to/lastmile_qr_scan", "ios": "https://dc.lft.to/lastmile_qr_scan"}, "is_reserved": 0, "is_disabled": 0, "type": "electric_scooter", "bike_id": "bcdc117cab598b8453c08ab522fd3956"}, {"lon": -77.038435, "lat": 38.915453166666666, "name": "dfc12d351d6cc16874e3e00a1ff9ba4d", "fusion_lat": 0.0, "fusion_lon": 0.0, "rental_uris": {"android": "https://dc.lft.to/lastmile_qr_scan", "ios": "https://dc.lft.to/lastmile_qr_scan"}, "is_reserved": 0, "is_disabled": 0, "type": "electric_scooter", "bike_id": "dfc12d351d6cc16874e3e00a1ff9ba4d"}, {"lon": -76.9871005, "lat": 38.862621833333336, "name": "28e6915e6c7e3c32740d5ab5ae571c76", "fusion_lat": 0.0, "fusion_lon": 0.0, "rental_uris": {"android": "https://dc.lft.to/lastmile_qr_scan", "ios": "https://dc.lft.to/lastmile_qr_scan"}, "is_reserved": 0, "is_disabled": 0, "type": "electric_scooter", "bike_id": "28e6915e6c7e3c32740d5ab5ae571c76"}, {"lon": -77.049982, "lat": 38.90410683333333, "name": "e7afaa811c5d4123bf817febcd778316", "fusion_lat": 0.0, "fusion_lon": 0.0, "rental_uris": {"android": "https://dc.lft.to/lastmile_qr_scan", "ios": "https://dc.lft.to/lastmile_qr_scan"}, "is_reserved": 0, "is_disabled": 0, "type": "electric_scooter", "bike_id": "e7afaa811c5d4123bf817febcd778316"}, {"lon": -77.04062883333333, "lat": 38.9176735, "name": "d85b05d8481b588c3a6a3b17c203f381", "fusion_lat": 0.0, "fusion_lon": 0.0, "rental_uris": {"android": "https://dc.lft.to/lastmile_qr_scan", "ios": "https://dc.lft.to/lastmile_qr_scan"}, "is_reserved": 0, "is_disabled": 0, "type": "electric_scooter", "bike_id": "d85b05d8481b588c3a6a3b17c203f381"}, {"lon": -77.01410716666666, "lat": 38.92808216666667, "name": "97df0d4c8634a407e08e6cf853d1cf36", "fusion_lat": 0.0, "fusion_lon": 0.0, "rental_uris": {"android": "https://dc.lft.to/lastmile_qr_scan", "ios": "https://dc.lft.to/lastmile_qr_scan"}, "is_reserved": 0, "is_disabled": 0, "type": "electric_scooter", "bike_id": "97df0d4c8634a407e08e6cf853d1cf36"}, {"lon": -77.0218505, "lat": 38.9055, "name": "ac1d0a25bc73a35dbf54f87db900ff97", "fusion_lat": 0.0, "fusion_lon": 0.0, "rental_uris": {"android": "https://dc.lft.to/lastmile_qr_scan", "ios": "https://dc.lft.to/lastmile_qr_scan"}, "is_reserved": 0, "is_disabled": 0, "type": "electric_scooter", "bike_id": "ac1d0a25bc73a35dbf54f87db900ff97"}, {"lon": -77.04612216666666, "lat": 38.92228933333333, "name": "70a419d37f4176bdc4115e6e539ae063", "fusion_lat": 0.0, "fusion_lon": 0.0, "rental_uris": {"android": "https://dc.lft.to/lastmile_qr_scan", "ios": "https://dc.lft.to/lastmile_qr_scan"}, "is_reserved": 0, "is_disabled": 0, "type": "electric_scooter", "bike_id": "70a419d37f4176bdc4115e6e539ae063"}, {"lon": -77.03414, "lat": 38.922816, "name": "6933eb14deac6d8f83370ef727b4fcf2", "fusion_lat": 0.0, "fusion_lon": 0.0, "rental_uris": {"android": "https://dc.lft.to/lastmile_qr_scan", "ios": "https://dc.lft.to/lastmile_qr_scan"}, "is_reserved": 0, "is_disabled": 0, "type": "electric_scooter", "bike_id": "6933eb14deac6d8f83370ef727b4fcf2"}, {"lon": -77.03463416666666, "lat": 38.90572216666666, "name": "1bc751be1945393214c3397b922132f8", "fusion_lat": 0.0, "fusion_lon": 0.0, "rental_uris": {"android": "https://dc.lft.to/lastmile_qr_scan", "ios": "https://dc.lft.to/lastmile_qr_scan"}, "is_reserved": 0, "is_disabled": 0, "type": "electric_scooter", "bike_id": "1bc751be1945393214c3397b922132f8"}, {"lon": -76.9916025, "lat": 38.895509, "name": "54cb072f39ccad6847f91978496aaa8d", "fusion_lat": 0.0, "fusion_lon": 0.0, "rental_uris": {"android": "https://dc.lft.to/lastmile_qr_scan", "ios": "https://dc.lft.to/lastmile_qr_scan"}, "is_reserved": 0, "is_disabled": 0, "type": "electric_scooter", "bike_id": "54cb072f39ccad6847f91978496aaa8d"}, {"lon": -77.0203405, "lat": 38.92407583333333, "name": "f730a63d6f4647260b3edfba2ca219f6", "fusion_lat": 0.0, "fusion_lon": 0.0, "rental_uris": {"android": "https://dc.lft.to/lastmile_qr_scan", "ios": "https://dc.lft.to/lastmile_qr_scan"}, "is_reserved": 0, "is_disabled": 0, "type": "electric_scooter", "bike_id": "f730a63d6f4647260b3edfba2ca219f6"}, {"lon": -77.06770183333333, "lat": 38.903704, "name": "b75488839b2b8719028260237db73932", "fusion_lat": 0.0, "fusion_lon": 0.0, "rental_uris": {"android": "https://dc.lft.to/lastmile_qr_scan", "ios": "https://dc.lft.to/lastmile_qr_scan"}, "is_reserved": 0, "is_disabled": 0, "type": "electric_scooter", "bike_id": "b75488839b2b8719028260237db73932"}, {"lon": -77.03981333333333, "lat": 38.9034735, "name": "d85208c6d7b35d1b8ac85798c6ef8e16", "fusion_lat": 0.0, "fusion_lon": 0.0, "rental_uris": {"android": "https://dc.lft.to/lastmile_qr_scan", "ios": "https://dc.lft.to/lastmile_qr_scan"}, "is_reserved": 0, "is_disabled": 0, "type": "electric_scooter", "bike_id": "d85208c6d7b35d1b8ac85798c6ef8e16"}, {"lon": -77.02107166666667, "lat": 38.93012683333333, "name": "9d88e92014e3e100e3f620f0fd13cba8", "fusion_lat": 0.0, "fusion_lon": 0.0, "rental_uris": {"android": "https://dc.lft.to/lastmile_qr_scan", "ios": "https://dc.lft.to/lastmile_qr_scan"}, "is_reserved": 0, "is_disabled": 0, "type": "electric_scooter", "bike_id": "9d88e92014e3e100e3f620f0fd13cba8"}, {"lon": -77.03368433333333, "lat": 38.935917, "name": "4edd5aba18a661b0e950bf50ae314734", "fusion_lat": 0.0, "fusion_lon": 0.0, "rental_uris": {"android": "https://dc.lft.to/lastmile_qr_scan", "ios": "https://dc.lft.to/lastmile_qr_scan"}, "is_reserved": 0, "is_disabled": 0, "type": "electric_scooter", "bike_id": "4edd5aba18a661b0e950bf50ae314734"}, {"lon": -76.997877, "lat": 38.89086733333333, "name": "322e7d68dfb75a260e0bfa6b82ee0405", "fusion_lat": 0.0, "fusion_lon": 0.0, "rental_uris": {"android": "https://dc.lft.to/lastmile_qr_scan", "ios": "https://dc.lft.to/lastmile_qr_scan"}, "is_reserved": 0, "is_disabled": 0, "type": "electric_scooter", "bike_id": "322e7d68dfb75a260e0bfa6b82ee0405"}, {"lon": -76.98558183333333, "lat": 38.89408383333333, "name": "053c579412b2ac7b55f5a55304963044", "fusion_lat": 0.0, "fusion_lon": 0.0, "rental_uris": {"android": "https://dc.lft.to/lastmile_qr_scan", "ios": "https://dc.lft.to/lastmile_qr_scan"}, "is_reserved": 0, "is_disabled": 0, "type": "electric_scooter", "bike_id": "053c579412b2ac7b55f5a55304963044"}, {"lon": -77.02784, "lat": 38.92764833333333, "name": "335beeb5f89bf24d8a8d22a02a76513b", "fusion_lat": 0.0, "fusion_lon": 0.0, "rental_uris": {"android": "https://dc.lft.to/lastmile_qr_scan", "ios": "https://dc.lft.to/lastmile_qr_scan"}, "is_reserved": 0, "is_disabled": 0, "type": "electric_scooter", "bike_id": "335beeb5f89bf24d8a8d22a02a76513b"}, {"lon": -77.05933066666667, "lat": 38.93667, "name": "9cc05a91c49605a9ee365ac513f9b356", "fusion_lat": 0.0, "fusion_lon": 0.0, "rental_uris": {"android": "https://dc.lft.to/lastmile_qr_scan", "ios": "https://dc.lft.to/lastmile_qr_scan"}, "is_reserved": 0, "is_disabled": 0, "type": "electric_scooter", "bike_id": "9cc05a91c49605a9ee365ac513f9b356"}, {"lon": -77.025718, "lat": 38.9250875, "name": "18cd110987ff45dfee1c1007e70e3990", "fusion_lat": 0.0, "fusion_lon": 0.0, "rental_uris": {"android": "https://dc.lft.to/lastmile_qr_scan", "ios": "https://dc.lft.to/lastmile_qr_scan"}, "is_reserved": 0, "is_disabled": 0, "type": "electric_scooter", "bike_id": "18cd110987ff45dfee1c1007e70e3990"}, {"lon": -77.02723366666666, "lat": 38.951322, "name": "2d0fe9c8bcd0af8ce17b7409fcf4f56d", "fusion_lat": 0.0, "fusion_lon": 0.0, "rental_uris": {"android": "https://dc.lft.to/lastmile_qr_scan", "ios": "https://dc.lft.to/lastmile_qr_scan"}, "is_reserved": 0, "is_disabled": 0, "type": "electric_scooter", "bike_id": "2d0fe9c8bcd0af8ce17b7409fcf4f56d"}, {"lon": -77.03445016666667, "lat": 38.907382, "name": "a59df4e1245c13484e992cfebf9e5854", "fusion_lat": 0.0, "fusion_lon": 0.0, "rental_uris": {"android": "https://dc.lft.to/lastmile_qr_scan", "ios": "https://dc.lft.to/lastmile_qr_scan"}, "is_reserved": 0, "is_disabled": 0, "type": "electric_scooter", "bike_id": "a59df4e1245c13484e992cfebf9e5854"}, {"lon": -76.91651016666667, "lat": 38.86862216666667, "name": "659c8a237880e89b7a9e0635cc7270f8", "fusion_lat": 0.0, "fusion_lon": 0.0, "rental_uris": {"android": "https://dc.lft.to/lastmile_qr_scan", "ios": "https://dc.lft.to/lastmile_qr_scan"}, "is_reserved": 0, "is_disabled": 0, "type": "electric_bike", "bike_id": "659c8a237880e89b7a9e0635cc7270f8"}, {"lon": -76.95409316666667, "lat": 38.891617833333335, "name": "fc9c824923eb4a96d8ac8a6977e875fb", "fusion_lat": 0.0, "fusion_lon": 0.0, "rental_uris": {"android": "https://dc.lft.to/lastmile_qr_scan", "ios": "https://dc.lft.to/lastmile_qr_scan"}, "is_reserved": 0, "is_disabled": 0, "type": "electric_scooter", "bike_id": "fc9c824923eb4a96d8ac8a6977e875fb"}, {"lon": -77.04365766666666, "lat": 38.90390633333333, "name": "aa305ddc96e97cbd0f6ebea1d528b650", "fusion_lat": 0.0, "fusion_lon": 0.0, "rental_uris": {"android": "https://dc.lft.to/lastmile_qr_scan", "ios": "https://dc.lft.to/lastmile_qr_scan"}, "is_reserved": 0, "is_disabled": 0, "type": "electric_scooter", "bike_id": "aa305ddc96e97cbd0f6ebea1d528b650"}, {"lon": -77.03173166666667, "lat": 38.91908183333334, "name": "50a8fa114ab1ca9fffdd26362dc814d5", "fusion_lat": 0.0, "fusion_lon": 0.0, "rental_uris": {"android": "https://dc.lft.to/lastmile_qr_scan", "ios": "https://dc.lft.to/lastmile_qr_scan"}, "is_reserved": 0, "is_disabled": 0, "type": "electric_scooter", "bike_id": "50a8fa114ab1ca9fffdd26362dc814d5"}, {"lon": -77.07271966666667, "lat": 38.909226, "name": "4038a31fc5275d9d19df02cace399ad5", "fusion_lat": 0.0, "fusion_lon": 0.0, "rental_uris": {"android": "https://dc.lft.to/lastmile_qr_scan", "ios": "https://dc.lft.to/lastmile_qr_scan"}, "is_reserved": 0, "is_disabled": 0, "type": "electric_scooter", "bike_id": "4038a31fc5275d9d19df02cace399ad5"}, {"lon": -77.02975566666667, "lat": 38.9225825, "name": "a4427fe8e590a67d019336d6fe4d2b8d", "fusion_lat": 0.0, "fusion_lon": 0.0, "rental_uris": {"android": "https://dc.lft.to/lastmile_qr_scan", "ios": "https://dc.lft.to/lastmile_qr_scan"}, "is_reserved": 0, "is_disabled": 0, "type": "electric_scooter", "bike_id": "a4427fe8e590a67d019336d6fe4d2b8d"}, {"lon": -77.00210616666666, "lat": 38.9022015, "name": "967d2609d667fe899845928b36ffe27e", "fusion_lat": 0.0, "fusion_lon": 0.0, "rental_uris": {"android": "https://dc.lft.to/lastmile_qr_scan", "ios": "https://dc.lft.to/lastmile_qr_scan"}, "is_reserved": 0, "is_disabled": 0, "type": "electric_scooter", "bike_id": "967d2609d667fe899845928b36ffe27e"}, {"lon": -77.049857, "lat": 38.90128, "name": "e1402a3f238923c4034967ae689684a0", "fusion_lat": 0.0, "fusion_lon": 0.0, "rental_uris": {"android": "https://dc.lft.to/lastmile_qr_scan", "ios": "https://dc.lft.to/lastmile_qr_scan"}, "is_reserved": 0, "is_disabled": 0, "type": "electric_bike", "bike_id": "e1402a3f238923c4034967ae689684a0"}, {"lon": -77.107691, "lat": 38.89229916666667, "name": "99885409baf5293afd8c2b38a9363849", "fusion_lat": 0.0, "fusion_lon": 0.0, "rental_uris": {"android": "https://dc.lft.to/lastmile_qr_scan", "ios": "https://dc.lft.to/lastmile_qr_scan"}, "is_reserved": 0, "is_disabled": 0, "type": "electric_bike", "bike_id": "99885409baf5293afd8c2b38a9363849"}, {"lon": -77.017477, "lat": 38.902512333333334, "name": "2a5398674bdcb8156e3c152a740d1f95", "fusion_lat": 0.0, "fusion_lon": 0.0, "rental_uris": {"android": "https://dc.lft.to/lastmile_qr_scan", "ios": "https://dc.lft.to/lastmile_qr_scan"}, "is_reserved": 0, "is_disabled": 0, "type": "electric_scooter", "bike_id": "2a5398674bdcb8156e3c152a740d1f95"}, {"lon": -77.02700416666667, "lat": 38.91520083333333, "name": "866f47f3404aec536abe3db39fac82f2", "fusion_lat": 0.0, "fusion_lon": 0.0, "rental_uris": {"android": "https://dc.lft.to/lastmile_qr_scan", "ios": "https://dc.lft.to/lastmile_qr_scan"}, "is_reserved": 0, "is_disabled": 0, "type": "electric_scooter", "bike_id": "866f47f3404aec536abe3db39fac82f2"}, {"lon": -77.061982, "lat": 38.941689833333335, "name": "8cac00fe8052f52b8ca9dbf768d723f6", "fusion_lat": 0.0, "fusion_lon": 0.0, "rental_uris": {"android": "https://dc.lft.to/lastmile_qr_scan", "ios": "https://dc.lft.to/lastmile_qr_scan"}, "is_reserved": 0, "is_disabled": 0, "type": "electric_scooter", "bike_id": "8cac00fe8052f52b8ca9dbf768d723f6"}, {"lon": -76.97306916666666, "lat": 38.91989316666667, "name": "792440bc4dde0b950b1355a15776ce12", "fusion_lat": 0.0, "fusion_lon": 0.0, "rental_uris": {"android": "https://dc.lft.to/lastmile_qr_scan", "ios": "https://dc.lft.to/lastmile_qr_scan"}, "is_reserved": 0, "is_disabled": 0, "type": "electric_scooter", "bike_id": "792440bc4dde0b950b1355a15776ce12"}, {"lon": -76.94573233333334, "lat": 38.866214, "name": "77f242e448336aa8079bfc473a7fbb5b", "fusion_lat": 0.0, "fusion_lon": 0.0, "rental_uris": {"android": "https://dc.lft.to/lastmile_qr_scan", "ios": "https://dc.lft.to/lastmile_qr_scan"}, "is_reserved": 0, "is_disabled": 0, "type": "electric_bike", "bike_id": "77f242e448336aa8079bfc473a7fbb5b"}, {"lon": -77.00058216666666, "lat": 38.883742166666664, "name": "3d0cde7d7842a10e35ce8ad2dfddd14e", "fusion_lat": 0.0, "fusion_lon": 0.0, "rental_uris": {"android": "https://dc.lft.to/lastmile_qr_scan", "ios": "https://dc.lft.to/lastmile_qr_scan"}, "is_reserved": 0, "is_disabled": 0, "type": "electric_bike", "bike_id": "3d0cde7d7842a10e35ce8ad2dfddd14e"}, {"lon": -77.02487516666666, "lat": 38.93861716666667, "name": "f090e684528998d275b31fc298ae6596", "fusion_lat": 0.0, "fusion_lon": 0.0, "rental_uris": {"android": "https://dc.lft.to/lastmile_qr_scan", "ios": "https://dc.lft.to/lastmile_qr_scan"}, "is_reserved": 0, "is_disabled": 0, "type": "electric_scooter", "bike_id": "f090e684528998d275b31fc298ae6596"}, {"lon": -77.01553716666666, "lat": 38.89200183333333, "name": "ad29238fbf5e418168cf86386ba22bc1", "fusion_lat": 0.0, "fusion_lon": 0.0, "rental_uris": {"android": "https://dc.lft.to/lastmile_qr_scan", "ios": "https://dc.lft.to/lastmile_qr_scan"}, "is_reserved": 0, "is_disabled": 0, "type": "electric_scooter", "bike_id": "ad29238fbf5e418168cf86386ba22bc1"}, {"lon": -77.03262166666667, "lat": 38.93246883333333, "name": "01567b321f5655a87383b4bd36270ef1", "fusion_lat": 0.0, "fusion_lon": 0.0, "rental_uris": {"android": "https://dc.lft.to/lastmile_qr_scan", "ios": "https://dc.lft.to/lastmile_qr_scan"}, "is_reserved": 0, "is_disabled": 0, "type": "electric_scooter", "bike_id": "01567b321f5655a87383b4bd36270ef1"}, {"lon": -77.03224066666667, "lat": 38.8922125, "name": "4ed5cf2b258825aa675b9ded92c1e5ad", "fusion_lat": 0.0, "fusion_lon": 0.0, "rental_uris": {"android": "https://dc.lft.to/lastmile_qr_scan", "ios": "https://dc.lft.to/lastmile_qr_scan"}, "is_reserved": 0, "is_disabled": 0, "type": "electric_scooter", "bike_id": "4ed5cf2b258825aa675b9ded92c1e5ad"}, {"lon": -77.0228645, "lat": 38.89699383333333, "name": "59393dcbc2fbfcb122355d7098303a86", "fusion_lat": 0.0, "fusion_lon": 0.0, "rental_uris": {"android": "https://dc.lft.to/lastmile_qr_scan", "ios": "https://dc.lft.to/lastmile_qr_scan"}, "is_reserved": 0, "is_disabled": 0, "type": "electric_scooter", "bike_id": "59393dcbc2fbfcb122355d7098303a86"}, {"lon": -77.03503266666667, "lat": 38.9359585, "name": "e8f751f80354498543dac8c7101068d8", "fusion_lat": 0.0, "fusion_lon": 0.0, "rental_uris": {"android": "https://dc.lft.to/lastmile_qr_scan", "ios": "https://dc.lft.to/lastmile_qr_scan"}, "is_reserved": 0, "is_disabled": 0, "type": "electric_scooter", "bike_id": "e8f751f80354498543dac8c7101068d8"}, {"lon": -76.933561, "lat": 38.899034, "name": "c5943df87e333fc9f23a53f16043ebe7", "fusion_lat": 0.0, "fusion_lon": 0.0, "rental_uris": {"android": "https://dc.lft.to/lastmile_qr_scan", "ios": "https://dc.lft.to/lastmile_qr_scan"}, "is_reserved": 0, "is_disabled": 0, "type": "electric_scooter", "bike_id": "c5943df87e333fc9f23a53f16043ebe7"}, {"lon": -77.03892033333334, "lat": 38.90278466666667, "name": "f8abe14e0f3047c56eee98d67085e6ea", "fusion_lat": 0.0, "fusion_lon": 0.0, "rental_uris": {"android": "https://dc.lft.to/lastmile_qr_scan", "ios": "https://dc.lft.to/lastmile_qr_scan"}, "is_reserved": 0, "is_disabled": 0, "type": "electric_scooter", "bike_id": "f8abe14e0f3047c56eee98d67085e6ea"}, {"lon": -77.03845116666666, "lat": 38.915460833333334, "name": "0c6d6f16a8c3a9e01a389330e091caba", "fusion_lat": 0.0, "fusion_lon": 0.0, "rental_uris": {"android": "https://dc.lft.to/lastmile_qr_scan", "ios": "https://dc.lft.to/lastmile_qr_scan"}, "is_reserved": 0, "is_disabled": 0, "type": "electric_scooter", "bike_id": "0c6d6f16a8c3a9e01a389330e091caba"}, {"lon": -77.0334755, "lat": 38.88509783333333, "name": "42f1457b4129c159f9b0ec4cee642a4d", "fusion_lat": 0.0, "fusion_lon": 0.0, "rental_uris": {"android": "https://dc.lft.to/lastmile_qr_scan", "ios": "https://dc.lft.to/lastmile_qr_scan"}, "is_reserved": 0, "is_disabled": 0, "type": "electric_scooter", "bike_id": "42f1457b4129c159f9b0ec4cee642a4d"}, {"lon": -77.04404, "lat": 38.92949183333333, "name": "0a5758dc70dcd5693ed07092d267d165", "fusion_lat": 0.0, "fusion_lon": 0.0, "rental_uris": {"android": "https://dc.lft.to/lastmile_qr_scan", "ios": "https://dc.lft.to/lastmile_qr_scan"}, "is_reserved": 0, "is_disabled": 0, "type": "electric_scooter", "bike_id": "0a5758dc70dcd5693ed07092d267d165"}, {"lon": -77.02788233333334, "lat": 38.89376983333333, "name": "b14fc18922f8ee0a7433debb33f8cb90", "fusion_lat": 0.0, "fusion_lon": 0.0, "rental_uris": {"android": "https://dc.lft.to/lastmile_qr_scan", "ios": "https://dc.lft.to/lastmile_qr_scan"}, "is_reserved": 0, "is_disabled": 0, "type": "electric_scooter", "bike_id": "b14fc18922f8ee0a7433debb33f8cb90"}, {"lon": -77.02818733333334, "lat": 38.92375283333333, "name": "e7baaeeb0773cb25df90b252ef83214f", "fusion_lat": 0.0, "fusion_lon": 0.0, "rental_uris": {"android": "https://dc.lft.to/lastmile_qr_scan", "ios": "https://dc.lft.to/lastmile_qr_scan"}, "is_reserved": 0, "is_disabled": 0, "type": "electric_scooter", "bike_id": "e7baaeeb0773cb25df90b252ef83214f"}, {"lon": -77.055648, "lat": 38.927829333333335, "name": "3ccf75195352343b3e99deb32a5280b5", "fusion_lat": 0.0, "fusion_lon": 0.0, "rental_uris": {"android": "https://dc.lft.to/lastmile_qr_scan", "ios": "https://dc.lft.to/lastmile_qr_scan"}, "is_reserved": 0, "is_disabled": 0, "type": "electric_scooter", "bike_id": "3ccf75195352343b3e99deb32a5280b5"}, {"lon": -76.9581305, "lat": 38.89059116666667, "name": "d63a3b3c64d1338ade5b98a7d6793091", "fusion_lat": 0.0, "fusion_lon": 0.0, "rental_uris": {"android": "https://dc.lft.to/lastmile_qr_scan", "ios": "https://dc.lft.to/lastmile_qr_scan"}, "is_reserved": 0, "is_disabled": 0, "type": "electric_scooter", "bike_id": "d63a3b3c64d1338ade5b98a7d6793091"}, {"lon": -77.0467785, "lat": 38.92098, "name": "ea55725b636fe8c36fbf1e6e62e4769c", "fusion_lat": 0.0, "fusion_lon": 0.0, "rental_uris": {"android": "https://dc.lft.to/lastmile_qr_scan", "ios": "https://dc.lft.to/lastmile_qr_scan"}, "is_reserved": 0, "is_disabled": 0, "type": "electric_scooter", "bike_id": "ea55725b636fe8c36fbf1e6e62e4769c"}, {"lon": -77.09526633333333, "lat": 38.83813116666666, "name": "a14f9396c8e007fbd6687c9697452166", "fusion_lat": 0.0, "fusion_lon": 0.0, "rental_uris": {"android": "https://dc.lft.to/lastmile_qr_scan", "ios": "https://dc.lft.to/lastmile_qr_scan"}, "is_reserved": 0, "is_disabled": 0, "type": "electric_bike", "bike_id": "a14f9396c8e007fbd6687c9697452166"}, {"lon": -76.99960766666666, "lat": 38.90867383333333, "name": "8689a6c1701f47da1b68fba69168bc90", "fusion_lat": 0.0, "fusion_lon": 0.0, "rental_uris": {"android": "https://dc.lft.to/lastmile_qr_scan", "ios": "https://dc.lft.to/lastmile_qr_scan"}, "is_reserved": 0, "is_disabled": 0, "type": "electric_scooter", "bike_id": "8689a6c1701f47da1b68fba69168bc90"}, {"lon": -76.98772183333334, "lat": 38.9117745, "name": "7e1c6593d0bd6584a2a5a3fd9d9654c9", "fusion_lat": 0.0, "fusion_lon": 0.0, "rental_uris": {"android": "https://dc.lft.to/lastmile_qr_scan", "ios": "https://dc.lft.to/lastmile_qr_scan"}, "is_reserved": 0, "is_disabled": 0, "type": "electric_scooter", "bike_id": "7e1c6593d0bd6584a2a5a3fd9d9654c9"}, {"lon": -77.01735783333334, "lat": 38.907173, "name": "6362a04c1d076ed5f14545771eb03251", "fusion_lat": 0.0, "fusion_lon": 0.0, "rental_uris": {"android": "https://dc.lft.to/lastmile_qr_scan", "ios": "https://dc.lft.to/lastmile_qr_scan"}, "is_reserved": 0, "is_disabled": 0, "type": "electric_scooter", "bike_id": "6362a04c1d076ed5f14545771eb03251"}, {"lon": -77.0395045, "lat": 38.9082195, "name": "77ec5c7d82cf3c283053b048043a22b3", "fusion_lat": 0.0, "fusion_lon": 0.0, "rental_uris": {"android": "https://dc.lft.to/lastmile_qr_scan", "ios": "https://dc.lft.to/lastmile_qr_scan"}, "is_reserved": 0, "is_disabled": 0, "type": "electric_scooter", "bike_id": "77ec5c7d82cf3c283053b048043a22b3"}, {"lon": -77.02684783333333, "lat": 38.92487466666667, "name": "728ca83cf8a9206772c0adbe214c6267", "fusion_lat": 0.0, "fusion_lon": 0.0, "rental_uris": {"android": "https://dc.lft.to/lastmile_qr_scan", "ios": "https://dc.lft.to/lastmile_qr_scan"}, "is_reserved": 0, "is_disabled": 0, "type": "electric_scooter", "bike_id": "728ca83cf8a9206772c0adbe214c6267"}, {"lon": -77.03832066666666, "lat": 38.911036333333335, "name": "9d4539546931b546fae6902d9506b57d", "fusion_lat": 0.0, "fusion_lon": 0.0, "rental_uris": {"android": "https://dc.lft.to/lastmile_qr_scan", "ios": "https://dc.lft.to/lastmile_qr_scan"}, "is_reserved": 0, "is_disabled": 0, "type": "electric_scooter", "bike_id": "9d4539546931b546fae6902d9506b57d"}, {"lon": -77.02882983333333, "lat": 38.903335, "name": "a83892ec739ecd464092dbf3aedd2580", "fusion_lat": 0.0, "fusion_lon": 0.0, "rental_uris": {"android": "https://dc.lft.to/lastmile_qr_scan", "ios": "https://dc.lft.to/lastmile_qr_scan"}, "is_reserved": 0, "is_disabled": 0, "type": "electric_scooter", "bike_id": "a83892ec739ecd464092dbf3aedd2580"}, {"lon": -77.01776283333334, "lat": 38.898443, "name": "c232bb954c536e4e72e6dcf8efad1a7c", "fusion_lat": 0.0, "fusion_lon": 0.0, "rental_uris": {"android": "https://dc.lft.to/lastmile_qr_scan", "ios": "https://dc.lft.to/lastmile_qr_scan"}, "is_reserved": 0, "is_disabled": 0, "type": "electric_scooter", "bike_id": "c232bb954c536e4e72e6dcf8efad1a7c"}, {"lon": -77.04658183333333, "lat": 38.9043685, "name": "676968178e1d9eccbca71d24619fe867", "fusion_lat": 0.0, "fusion_lon": 0.0, "rental_uris": {"android": "https://dc.lft.to/lastmile_qr_scan", "ios": "https://dc.lft.to/lastmile_qr_scan"}, "is_reserved": 0, "is_disabled": 0, "type": "electric_scooter", "bike_id": "676968178e1d9eccbca71d24619fe867"}, {"lon": -76.94120966666667, "lat": 38.90795266666667, "name": "ba466ff72aeb6d9e359ee39d4db4c3c7", "fusion_lat": 0.0, "fusion_lon": 0.0, "rental_uris": {"android": "https://dc.lft.to/lastmile_qr_scan", "ios": "https://dc.lft.to/lastmile_qr_scan"}, "is_reserved": 0, "is_disabled": 0, "type": "electric_scooter", "bike_id": "ba466ff72aeb6d9e359ee39d4db4c3c7"}, {"lon": -77.1274105, "lat": 38.88824433333333, "name": "697ba25a3f1562e5d60fb5defe2df491", "fusion_lat": 0.0, "fusion_lon": 0.0, "rental_uris": {"android": "https://dc.lft.to/lastmile_qr_scan", "ios": "https://dc.lft.to/lastmile_qr_scan"}, "is_reserved": 0, "is_disabled": 0, "type": "electric_bike", "bike_id": "697ba25a3f1562e5d60fb5defe2df491"}, {"lon": -77.04426133333334, "lat": 38.923319, "name": "497189e93d754d172515ff21d5c2f9f8", "fusion_lat": 0.0, "fusion_lon": 0.0, "rental_uris": {"android": "https://dc.lft.to/lastmile_qr_scan", "ios": "https://dc.lft.to/lastmile_qr_scan"}, "is_reserved": 0, "is_disabled": 0, "type": "electric_scooter", "bike_id": "497189e93d754d172515ff21d5c2f9f8"}, {"lon": -76.93660716666666, "lat": 38.9028725, "name": "f9051197da563339c538d9607e68f024", "fusion_lat": 0.0, "fusion_lon": 0.0, "rental_uris": {"android": "https://dc.lft.to/lastmile_qr_scan", "ios": "https://dc.lft.to/lastmile_qr_scan"}, "is_reserved": 0, "is_disabled": 0, "type": "electric_scooter", "bike_id": "f9051197da563339c538d9607e68f024"}, {"lon": -77.023961, "lat": 38.88739433333333, "name": "6b29ca8d4689be0852aa89c3a9c47379", "fusion_lat": 0.0, "fusion_lon": 0.0, "rental_uris": {"android": "https://dc.lft.to/lastmile_qr_scan", "ios": "https://dc.lft.to/lastmile_qr_scan"}, "is_reserved": 0, "is_disabled": 0, "type": "electric_scooter", "bike_id": "6b29ca8d4689be0852aa89c3a9c47379"}, {"lon": -77.0616655, "lat": 38.94222966666667, "name": "0da9d87c0ca5087db29856dce2761c09", "fusion_lat": 0.0, "fusion_lon": 0.0, "rental_uris": {"android": "https://dc.lft.to/lastmile_qr_scan", "ios": "https://dc.lft.to/lastmile_qr_scan"}, "is_reserved": 0, "is_disabled": 0, "type": "electric_scooter", "bike_id": "0da9d87c0ca5087db29856dce2761c09"}, {"lon": -76.93153866666667, "lat": 38.89884983333334, "name": "5d42d7deff0e14e579982d7795487af0", "fusion_lat": 0.0, "fusion_lon": 0.0, "rental_uris": {"android": "https://dc.lft.to/lastmile_qr_scan", "ios": "https://dc.lft.to/lastmile_qr_scan"}, "is_reserved": 0, "is_disabled": 0, "type": "electric_scooter", "bike_id": "5d42d7deff0e14e579982d7795487af0"}, {"lon": -77.0345965, "lat": 38.914781166666664, "name": "76c2cff36553aeaefadc369630d95511", "fusion_lat": 0.0, "fusion_lon": 0.0, "rental_uris": {"android": "https://dc.lft.to/lastmile_qr_scan", "ios": "https://dc.lft.to/lastmile_qr_scan"}, "is_reserved": 0, "is_disabled": 0, "type": "electric_scooter", "bike_id": "76c2cff36553aeaefadc369630d95511"}, {"lon": -77.02543733333333, "lat": 38.92401983333333, "name": "92aa204e7028d9fe8f7fc38c31f4e6e5", "fusion_lat": 0.0, "fusion_lon": 0.0, "rental_uris": {"android": "https://dc.lft.to/lastmile_qr_scan", "ios": "https://dc.lft.to/lastmile_qr_scan"}, "is_reserved": 0, "is_disabled": 0, "type": "electric_scooter", "bike_id": "92aa204e7028d9fe8f7fc38c31f4e6e5"}, {"lon": -77.02349616666666, "lat": 38.929896, "name": "3b2e5e5d4dd89b147cfef974f1e96834", "fusion_lat": 0.0, "fusion_lon": 0.0, "rental_uris": {"android": "https://dc.lft.to/lastmile_qr_scan", "ios": "https://dc.lft.to/lastmile_qr_scan"}, "is_reserved": 0, "is_disabled": 0, "type": "electric_scooter", "bike_id": "3b2e5e5d4dd89b147cfef974f1e96834"}, {"lon": -77.0282425, "lat": 38.9171695, "name": "1d33d40b9ea9e85e1c530bb5b099cf24", "fusion_lat": 0.0, "fusion_lon": 0.0, "rental_uris": {"android": "https://dc.lft.to/lastmile_qr_scan", "ios": "https://dc.lft.to/lastmile_qr_scan"}, "is_reserved": 0, "is_disabled": 0, "type": "electric_scooter", "bike_id": "1d33d40b9ea9e85e1c530bb5b099cf24"}, {"lon": -76.95210866666666, "lat": 38.93670683333333, "name": "24b0fa7dd67cc09e196bed982e2879ed", "fusion_lat": 0.0, "fusion_lon": 0.0, "rental_uris": {"android": "https://dc.lft.to/lastmile_qr_scan", "ios": "https://dc.lft.to/lastmile_qr_scan"}, "is_reserved": 0, "is_disabled": 0, "type": "electric_bike", "bike_id": "24b0fa7dd67cc09e196bed982e2879ed"}, {"lon": -77.0278045, "lat": 38.927651, "name": "5af96eab604016a4f9cdcd461fbf6ad0", "fusion_lat": 0.0, "fusion_lon": 0.0, "rental_uris": {"android": "https://dc.lft.to/lastmile_qr_scan", "ios": "https://dc.lft.to/lastmile_qr_scan"}, "is_reserved": 0, "is_disabled": 0, "type": "electric_scooter", "bike_id": "5af96eab604016a4f9cdcd461fbf6ad0"}, {"lon": -77.03411666666666, "lat": 38.919337166666665, "name": "8161f76db2a5fca22f6f844f0ade1f7c", "fusion_lat": 0.0, "fusion_lon": 0.0, "rental_uris": {"android": "https://dc.lft.to/lastmile_qr_scan", "ios": "https://dc.lft.to/lastmile_qr_scan"}, "is_reserved": 0, "is_disabled": 0, "type": "electric_scooter", "bike_id": "8161f76db2a5fca22f6f844f0ade1f7c"}, {"lon": -77.03213566666666, "lat": 38.92000383333333, "name": "6757a1ecca5abc3f5483a4e531288513", "fusion_lat": 0.0, "fusion_lon": 0.0, "rental_uris": {"android": "https://dc.lft.to/lastmile_qr_scan", "ios": "https://dc.lft.to/lastmile_qr_scan"}, "is_reserved": 0, "is_disabled": 0, "type": "electric_scooter", "bike_id": "6757a1ecca5abc3f5483a4e531288513"}, {"lon": -76.9318495, "lat": 38.89876133333333, "name": "d4f3049daf0735fc8f0af16725c94c48", "fusion_lat": 0.0, "fusion_lon": 0.0, "rental_uris": {"android": "https://dc.lft.to/lastmile_qr_scan", "ios": "https://dc.lft.to/lastmile_qr_scan"}, "is_reserved": 0, "is_disabled": 0, "type": "electric_scooter", "bike_id": "d4f3049daf0735fc8f0af16725c94c48"}, {"lon": -77.00135333333333, "lat": 38.904145166666666, "name": "3c95673e4dbd6eeae44c3b4a5cfc3f0e", "fusion_lat": 0.0, "fusion_lon": 0.0, "rental_uris": {"android": "https://dc.lft.to/lastmile_qr_scan", "ios": "https://dc.lft.to/lastmile_qr_scan"}, "is_reserved": 0, "is_disabled": 0, "type": "electric_scooter", "bike_id": "3c95673e4dbd6eeae44c3b4a5cfc3f0e"}, {"lon": -76.96493433333333, "lat": 38.87552016666667, "name": "4133e33330aac678c895a81a5ab4e476", "fusion_lat": 0.0, "fusion_lon": 0.0, "rental_uris": {"android": "https://dc.lft.to/lastmile_qr_scan", "ios": "https://dc.lft.to/lastmile_qr_scan"}, "is_reserved": 0, "is_disabled": 0, "type": "electric_bike", "bike_id": "4133e33330aac678c895a81a5ab4e476"}, {"lon": -76.990679, "lat": 38.90029283333333, "name": "e037cb7f91582563b3781bb8d9c079bd", "fusion_lat": 0.0, "fusion_lon": 0.0, "rental_uris": {"android": "https://dc.lft.to/lastmile_qr_scan", "ios": "https://dc.lft.to/lastmile_qr_scan"}, "is_reserved": 0, "is_disabled": 0, "type": "electric_scooter", "bike_id": "e037cb7f91582563b3781bb8d9c079bd"}, {"lon": -77.016089, "lat": 38.87685033333333, "name": "7b2da0fb3d662ee073f84ae007c2dfc1", "fusion_lat": 0.0, "fusion_lon": 0.0, "rental_uris": {"android": "https://dc.lft.to/lastmile_qr_scan", "ios": "https://dc.lft.to/lastmile_qr_scan"}, "is_reserved": 0, "is_disabled": 0, "type": "electric_scooter", "bike_id": "7b2da0fb3d662ee073f84ae007c2dfc1"}, {"lon": -77.02931533333333, "lat": 38.89519283333333, "name": "f2456cde1b7b6072eb1e472c065363cd", "fusion_lat": 0.0, "fusion_lon": 0.0, "rental_uris": {"android": "https://dc.lft.to/lastmile_qr_scan", "ios": "https://dc.lft.to/lastmile_qr_scan"}, "is_reserved": 0, "is_disabled": 0, "type": "electric_scooter", "bike_id": "f2456cde1b7b6072eb1e472c065363cd"}, {"lon": -77.05436766666666, "lat": 38.902699166666665, "name": "531439bfb9b3c87358d32cfa5ee7595f", "fusion_lat": 0.0, "fusion_lon": 0.0, "rental_uris": {"android": "https://dc.lft.to/lastmile_qr_scan", "ios": "https://dc.lft.to/lastmile_qr_scan"}, "is_reserved": 0, "is_disabled": 0, "type": "electric_scooter", "bike_id": "531439bfb9b3c87358d32cfa5ee7595f"}, {"lon": -77.013896, "lat": 38.92866183333334, "name": "3585e99e8561229d9a8f751eae9e525e", "fusion_lat": 0.0, "fusion_lon": 0.0, "rental_uris": {"android": "https://dc.lft.to/lastmile_qr_scan", "ios": "https://dc.lft.to/lastmile_qr_scan"}, "is_reserved": 0, "is_disabled": 0, "type": "electric_scooter", "bike_id": "3585e99e8561229d9a8f751eae9e525e"}, {"lon": -76.99931716666667, "lat": 38.8961985, "name": "584379617ace0691ef451de6488c1c97", "fusion_lat": 0.0, "fusion_lon": 0.0, "rental_uris": {"android": "https://dc.lft.to/lastmile_qr_scan", "ios": "https://dc.lft.to/lastmile_qr_scan"}, "is_reserved": 0, "is_disabled": 0, "type": "electric_scooter", "bike_id": "584379617ace0691ef451de6488c1c97"}, {"lon": -77.03466783333333, "lat": 38.90483483333333, "name": "d341f460f9b96708055d0928966185b5", "fusion_lat": 0.0, "fusion_lon": 0.0, "rental_uris": {"android": "https://dc.lft.to/lastmile_qr_scan", "ios": "https://dc.lft.to/lastmile_qr_scan"}, "is_reserved": 0, "is_disabled": 0, "type": "electric_scooter", "bike_id": "d341f460f9b96708055d0928966185b5"}, {"lon": -77.04423266666667, "lat": 38.90955183333333, "name": "fb6654b9ebfc15520644536cdd280010", "fusion_lat": 0.0, "fusion_lon": 0.0, "rental_uris": {"android": "https://dc.lft.to/lastmile_qr_scan", "ios": "https://dc.lft.to/lastmile_qr_scan"}, "is_reserved": 0, "is_disabled": 0, "type": "electric_scooter", "bike_id": "fb6654b9ebfc15520644536cdd280010"}, {"lon": -77.01591466666666, "lat": 38.91859616666667, "name": "095063b9cad4557440446210964adac6", "fusion_lat": 0.0, "fusion_lon": 0.0, "rental_uris": {"android": "https://dc.lft.to/lastmile_qr_scan", "ios": "https://dc.lft.to/lastmile_qr_scan"}, "is_reserved": 0, "is_disabled": 0, "type": "electric_scooter", "bike_id": "095063b9cad4557440446210964adac6"}, {"lon": -76.98833733333333, "lat": 38.90047533333333, "name": "124209f7060ae4573c763f3807ba30cb", "fusion_lat": 0.0, "fusion_lon": 0.0, "rental_uris": {"android": "https://dc.lft.to/lastmile_qr_scan", "ios": "https://dc.lft.to/lastmile_qr_scan"}, "is_reserved": 0, "is_disabled": 0, "type": "electric_scooter", "bike_id": "124209f7060ae4573c763f3807ba30cb"}, {"lon": -77.03302966666666, "lat": 38.908465666666665, "name": "1403d1730e0d7d11ddfa7ac50c7f945c", "fusion_lat": 0.0, "fusion_lon": 0.0, "rental_uris": {"android": "https://dc.lft.to/lastmile_qr_scan", "ios": "https://dc.lft.to/lastmile_qr_scan"}, "is_reserved": 0, "is_disabled": 0, "type": "electric_scooter", "bike_id": "1403d1730e0d7d11ddfa7ac50c7f945c"}, {"lon": -77.03727916666666, "lat": 38.920298833333334, "name": "5f041fc8e9b6ae3308b7f08d20951c99", "fusion_lat": 0.0, "fusion_lon": 0.0, "rental_uris": {"android": "https://dc.lft.to/lastmile_qr_scan", "ios": "https://dc.lft.to/lastmile_qr_scan"}, "is_reserved": 0, "is_disabled": 0, "type": "electric_scooter", "bike_id": "5f041fc8e9b6ae3308b7f08d20951c99"}, {"lon": -76.97427283333333, "lat": 38.864330833333334, "name": "96027780b8217b3bd982343fae713a18", "fusion_lat": 0.0, "fusion_lon": 0.0, "rental_uris": {"android": "https://dc.lft.to/lastmile_qr_scan", "ios": "https://dc.lft.to/lastmile_qr_scan"}, "is_reserved": 0, "is_disabled": 0, "type": "electric_scooter", "bike_id": "96027780b8217b3bd982343fae713a18"}, {"lon": -76.99841866666667, "lat": 38.888086666666666, "name": "d4a46a33985fdd977bd6d41dd73b3b5e", "fusion_lat": 0.0, "fusion_lon": 0.0, "rental_uris": {"android": "https://dc.lft.to/lastmile_qr_scan", "ios": "https://dc.lft.to/lastmile_qr_scan"}, "is_reserved": 0, "is_disabled": 0, "type": "electric_scooter", "bike_id": "d4a46a33985fdd977bd6d41dd73b3b5e"}, {"lon": -76.985514, "lat": 38.8996, "name": "615f1c5a44b554ba39aeae57d2f293bd", "fusion_lat": 0.0, "fusion_lon": 0.0, "rental_uris": {"android": "https://dc.lft.to/lastmile_qr_scan", "ios": "https://dc.lft.to/lastmile_qr_scan"}, "is_reserved": 0, "is_disabled": 0, "type": "electric_scooter", "bike_id": "615f1c5a44b554ba39aeae57d2f293bd"}, {"lon": -77.04145616666666, "lat": 38.92300816666667, "name": "3de58ffd942abfb23828b1b7103c702f", "fusion_lat": 0.0, "fusion_lon": 0.0, "rental_uris": {"android": "https://dc.lft.to/lastmile_qr_scan", "ios": "https://dc.lft.to/lastmile_qr_scan"}, "is_reserved": 0, "is_disabled": 0, "type": "electric_scooter", "bike_id": "3de58ffd942abfb23828b1b7103c702f"}, {"lon": -77.02782, "lat": 38.93072883333333, "name": "2ba16e1ff1877c4826ba0f0a710f01d7", "fusion_lat": 0.0, "fusion_lon": 0.0, "rental_uris": {"android": "https://dc.lft.to/lastmile_qr_scan", "ios": "https://dc.lft.to/lastmile_qr_scan"}, "is_reserved": 0, "is_disabled": 0, "type": "electric_scooter", "bike_id": "2ba16e1ff1877c4826ba0f0a710f01d7"}, {"lon": -77.037361, "lat": 38.91259733333333, "name": "2ba8898e8549ce34ceb40bb7eb238abf", "fusion_lat": 0.0, "fusion_lon": 0.0, "rental_uris": {"android": "https://dc.lft.to/lastmile_qr_scan", "ios": "https://dc.lft.to/lastmile_qr_scan"}, "is_reserved": 0, "is_disabled": 0, "type": "electric_scooter", "bike_id": "2ba8898e8549ce34ceb40bb7eb238abf"}, {"lon": -77.03349266666666, "lat": 38.89532083333334, "name": "43049e322bd527115d08c018252d680a", "fusion_lat": 0.0, "fusion_lon": 0.0, "rental_uris": {"android": "https://dc.lft.to/lastmile_qr_scan", "ios": "https://dc.lft.to/lastmile_qr_scan"}, "is_reserved": 0, "is_disabled": 0, "type": "electric_scooter", "bike_id": "43049e322bd527115d08c018252d680a"}, {"lon": -77.02954316666667, "lat": 38.90498683333333, "name": "e21f9c8d5895ef22d32ce44fff20cb6f", "fusion_lat": 0.0, "fusion_lon": 0.0, "rental_uris": {"android": "https://dc.lft.to/lastmile_qr_scan", "ios": "https://dc.lft.to/lastmile_qr_scan"}, "is_reserved": 0, "is_disabled": 0, "type": "electric_scooter", "bike_id": "e21f9c8d5895ef22d32ce44fff20cb6f"}, {"lon": -77.00862016666666, "lat": 38.86946616666667, "name": "f6a6762903c383c5cb26cb72a7c697d8", "fusion_lat": 0.0, "fusion_lon": 0.0, "rental_uris": {"android": "https://dc.lft.to/lastmile_qr_scan", "ios": "https://dc.lft.to/lastmile_qr_scan"}, "is_reserved": 0, "is_disabled": 0, "type": "electric_scooter", "bike_id": "f6a6762903c383c5cb26cb72a7c697d8"}, {"lon": -77.03704233333333, "lat": 38.916615666666665, "name": "52818ae46bd433e3a7b0847e838aea52", "fusion_lat": 0.0, "fusion_lon": 0.0, "rental_uris": {"android": "https://dc.lft.to/lastmile_qr_scan", "ios": "https://dc.lft.to/lastmile_qr_scan"}, "is_reserved": 0, "is_disabled": 0, "type": "electric_scooter", "bike_id": "52818ae46bd433e3a7b0847e838aea52"}, {"lon": -77.11411416666667, "lat": 38.84294383333334, "name": "3fc23878a3452fee83dd7092caaab347", "fusion_lat": 0.0, "fusion_lon": 0.0, "rental_uris": {"android": "https://dc.lft.to/lastmile_qr_scan", "ios": "https://dc.lft.to/lastmile_qr_scan"}, "is_reserved": 0, "is_disabled": 0, "type": "electric_bike", "bike_id": "3fc23878a3452fee83dd7092caaab347"}, {"lon": -77.0132085, "lat": 38.914762833333334, "name": "ae9704bfbb3eb9b339633aad2f52dd32", "fusion_lat": 0.0, "fusion_lon": 0.0, "rental_uris": {"android": "https://dc.lft.to/lastmile_qr_scan", "ios": "https://dc.lft.to/lastmile_qr_scan"}, "is_reserved": 0, "is_disabled": 0, "type": "electric_scooter", "bike_id": "ae9704bfbb3eb9b339633aad2f52dd32"}, {"lon": -77.01528083333334, "lat": 38.88738516666667, "name": "21ff497c9c0d75aaf78a7b299d3ed013", "fusion_lat": 0.0, "fusion_lon": 0.0, "rental_uris": {"android": "https://dc.lft.to/lastmile_qr_scan", "ios": "https://dc.lft.to/lastmile_qr_scan"}, "is_reserved": 0, "is_disabled": 0, "type": "electric_scooter", "bike_id": "21ff497c9c0d75aaf78a7b299d3ed013"}, {"lon": -77.0252735, "lat": 38.92141783333334, "name": "addd027ef2aae6f66278e934a0a8044b", "fusion_lat": 0.0, "fusion_lon": 0.0, "rental_uris": {"android": "https://dc.lft.to/lastmile_qr_scan", "ios": "https://dc.lft.to/lastmile_qr_scan"}, "is_reserved": 0, "is_disabled": 0, "type": "electric_scooter", "bike_id": "addd027ef2aae6f66278e934a0a8044b"}, {"lon": -77.053198, "lat": 38.82051666666667, "name": "88860059c260ece04f41091901b8a2cc", "fusion_lat": 0.0, "fusion_lon": 0.0, "rental_uris": {"android": "https://dc.lft.to/lastmile_qr_scan", "ios": "https://dc.lft.to/lastmile_qr_scan"}, "is_reserved": 0, "is_disabled": 0, "type": "electric_bike", "bike_id": "88860059c260ece04f41091901b8a2cc"}, {"lon": -77.078979, "lat": 38.83933366666667, "name": "fac746f0c87007ebbef38ab780df20ca", "fusion_lat": 0.0, "fusion_lon": 0.0, "rental_uris": {"android": "https://dc.lft.to/lastmile_qr_scan", "ios": "https://dc.lft.to/lastmile_qr_scan"}, "is_reserved": 0, "is_disabled": 0, "type": "electric_bike", "bike_id": "fac746f0c87007ebbef38ab780df20ca"}, {"lon": -77.03838933333333, "lat": 38.91477183333333, "name": "5e450381a452f630dccfd0f8c8af9330", "fusion_lat": 0.0, "fusion_lon": 0.0, "rental_uris": {"android": "https://dc.lft.to/lastmile_qr_scan", "ios": "https://dc.lft.to/lastmile_qr_scan"}, "is_reserved": 0, "is_disabled": 0, "type": "electric_scooter", "bike_id": "5e450381a452f630dccfd0f8c8af9330"}, {"lon": -77.02184833333334, "lat": 38.91895783333333, "name": "7b15cef50e5cd03ddede541bc3a3f9fd", "fusion_lat": 0.0, "fusion_lon": 0.0, "rental_uris": {"android": "https://dc.lft.to/lastmile_qr_scan", "ios": "https://dc.lft.to/lastmile_qr_scan"}, "is_reserved": 0, "is_disabled": 0, "type": "electric_scooter", "bike_id": "7b15cef50e5cd03ddede541bc3a3f9fd"}, {"lon": -77.028932, "lat": 38.884261, "name": "052cc61d4e6c6a5e005d293656a01de0", "fusion_lat": 0.0, "fusion_lon": 0.0, "rental_uris": {"android": "https://dc.lft.to/lastmile_qr_scan", "ios": "https://dc.lft.to/lastmile_qr_scan"}, "is_reserved": 0, "is_disabled": 0, "type": "electric_scooter", "bike_id": "052cc61d4e6c6a5e005d293656a01de0"}, {"lon": -77.02180483333333, "lat": 38.89247916666667, "name": "5e5e700118d41eda4a03b7a6a7cb0bed", "fusion_lat": 0.0, "fusion_lon": 0.0, "rental_uris": {"android": "https://dc.lft.to/lastmile_qr_scan", "ios": "https://dc.lft.to/lastmile_qr_scan"}, "is_reserved": 0, "is_disabled": 0, "type": "electric_scooter", "bike_id": "5e5e700118d41eda4a03b7a6a7cb0bed"}, {"lon": -77.02369816666666, "lat": 38.9191115, "name": "22c4a1dc0eec8513f28d40c966fe513d", "fusion_lat": 0.0, "fusion_lon": 0.0, "rental_uris": {"android": "https://dc.lft.to/lastmile_qr_scan", "ios": "https://dc.lft.to/lastmile_qr_scan"}, "is_reserved": 0, "is_disabled": 0, "type": "electric_scooter", "bike_id": "22c4a1dc0eec8513f28d40c966fe513d"}, {"lon": -77.009218, "lat": 38.91017883333333, "name": "d2f2c14e987e189897a036efe2890b95", "fusion_lat": 0.0, "fusion_lon": 0.0, "rental_uris": {"android": "https://dc.lft.to/lastmile_qr_scan", "ios": "https://dc.lft.to/lastmile_qr_scan"}, "is_reserved": 0, "is_disabled": 0, "type": "electric_scooter", "bike_id": "d2f2c14e987e189897a036efe2890b95"}, {"lon": -77.06283616666667, "lat": 38.9068025, "name": "b3283a37439b0b70fe257b73d2c6ef0a", "fusion_lat": 0.0, "fusion_lon": 0.0, "rental_uris": {"android": "https://dc.lft.to/lastmile_qr_scan", "ios": "https://dc.lft.to/lastmile_qr_scan"}, "is_reserved": 0, "is_disabled": 0, "type": "electric_scooter", "bike_id": "b3283a37439b0b70fe257b73d2c6ef0a"}, {"lon": -76.92409633333334, "lat": 38.88993883333333, "name": "a32176215096fcf87152abe54de3275e", "fusion_lat": 0.0, "fusion_lon": 0.0, "rental_uris": {"android": "https://dc.lft.to/lastmile_qr_scan", "ios": "https://dc.lft.to/lastmile_qr_scan"}, "is_reserved": 0, "is_disabled": 0, "type": "electric_scooter", "bike_id": "a32176215096fcf87152abe54de3275e"}, {"lon": -76.9734575, "lat": 38.865132833333334, "name": "74f989c172468f68ed775d6b20d2301c", "fusion_lat": 0.0, "fusion_lon": 0.0, "rental_uris": {"android": "https://dc.lft.to/lastmile_qr_scan", "ios": "https://dc.lft.to/lastmile_qr_scan"}, "is_reserved": 0, "is_disabled": 0, "type": "electric_scooter", "bike_id": "74f989c172468f68ed775d6b20d2301c"}, {"lon": -76.99162083333333, "lat": 38.879142333333334, "name": "7cf630896f268f9cd4c7dbafe91831ae", "fusion_lat": 0.0, "fusion_lon": 0.0, "rental_uris": {"android": "https://dc.lft.to/lastmile_qr_scan", "ios": "https://dc.lft.to/lastmile_qr_scan"}, "is_reserved": 0, "is_disabled": 0, "type": "electric_scooter", "bike_id": "7cf630896f268f9cd4c7dbafe91831ae"}, {"lon": -77.0451435, "lat": 38.9078175, "name": "7a87e41f9a80c46667baa6e1a27faa77", "fusion_lat": 0.0, "fusion_lon": 0.0, "rental_uris": {"android": "https://dc.lft.to/lastmile_qr_scan", "ios": "https://dc.lft.to/lastmile_qr_scan"}, "is_reserved": 0, "is_disabled": 0, "type": "electric_scooter", "bike_id": "7a87e41f9a80c46667baa6e1a27faa77"}, {"lon": -77.0298535, "lat": 38.893227333333336, "name": "e6ad17581f6be337b386491988e6a5fe", "fusion_lat": 0.0, "fusion_lon": 0.0, "rental_uris": {"android": "https://dc.lft.to/lastmile_qr_scan", "ios": "https://dc.lft.to/lastmile_qr_scan"}, "is_reserved": 0, "is_disabled": 0, "type": "electric_scooter", "bike_id": "e6ad17581f6be337b386491988e6a5fe"}, {"lon": -77.026346, "lat": 38.91553733333333, "name": "32f5339b3fe2d151aab30243b44a7916", "fusion_lat": 0.0, "fusion_lon": 0.0, "rental_uris": {"android": "https://dc.lft.to/lastmile_qr_scan", "ios": "https://dc.lft.to/lastmile_qr_scan"}, "is_reserved": 0, "is_disabled": 0, "type": "electric_scooter", "bike_id": "32f5339b3fe2d151aab30243b44a7916"}, {"lon": -77.01346583333333, "lat": 38.912554, "name": "8b6eac1223276f7103533bc773ef7c5e", "fusion_lat": 0.0, "fusion_lon": 0.0, "rental_uris": {"android": "https://dc.lft.to/lastmile_qr_scan", "ios": "https://dc.lft.to/lastmile_qr_scan"}, "is_reserved": 0, "is_disabled": 0, "type": "electric_bike", "bike_id": "8b6eac1223276f7103533bc773ef7c5e"}, {"lon": -77.07944633333334, "lat": 38.94871966666667, "name": "a10929a7318ae91ff14d0d968bfb77ea", "fusion_lat": 0.0, "fusion_lon": 0.0, "rental_uris": {"android": "https://dc.lft.to/lastmile_qr_scan", "ios": "https://dc.lft.to/lastmile_qr_scan"}, "is_reserved": 0, "is_disabled": 0, "type": "electric_scooter", "bike_id": "a10929a7318ae91ff14d0d968bfb77ea"}, {"lon": -77.003542, "lat": 38.9036735, "name": "0191c78fb705ac43939a6dc6634eb228", "fusion_lat": 0.0, "fusion_lon": 0.0, "rental_uris": {"android": "https://dc.lft.to/lastmile_qr_scan", "ios": "https://dc.lft.to/lastmile_qr_scan"}, "is_reserved": 0, "is_disabled": 0, "type": "electric_scooter", "bike_id": "0191c78fb705ac43939a6dc6634eb228"}, {"lon": -77.04961116666666, "lat": 38.91260966666667, "name": "8b789b3997e97ec2316408fe511709ac", "fusion_lat": 0.0, "fusion_lon": 0.0, "rental_uris": {"android": "https://dc.lft.to/lastmile_qr_scan", "ios": "https://dc.lft.to/lastmile_qr_scan"}, "is_reserved": 0, "is_disabled": 0, "type": "electric_scooter", "bike_id": "8b789b3997e97ec2316408fe511709ac"}, {"lon": -77.01350416666666, "lat": 38.876012, "name": "bd9ea0baf9002e2568806f80e67e8eeb", "fusion_lat": 0.0, "fusion_lon": 0.0, "rental_uris": {"android": "https://dc.lft.to/lastmile_qr_scan", "ios": "https://dc.lft.to/lastmile_qr_scan"}, "is_reserved": 0, "is_disabled": 0, "type": "electric_scooter", "bike_id": "bd9ea0baf9002e2568806f80e67e8eeb"}, {"lon": -76.92998433333334, "lat": 38.8880065, "name": "36d6dea58e210c57abf0aa17c43ff03b", "fusion_lat": 0.0, "fusion_lon": 0.0, "rental_uris": {"android": "https://dc.lft.to/lastmile_qr_scan", "ios": "https://dc.lft.to/lastmile_qr_scan"}, "is_reserved": 0, "is_disabled": 0, "type": "electric_bike", "bike_id": "36d6dea58e210c57abf0aa17c43ff03b"}, {"lon": -77.039594, "lat": 38.919956666666664, "name": "d82cc1474a98128b89f8eed221d7339e", "fusion_lat": 0.0, "fusion_lon": 0.0, "rental_uris": {"android": "https://dc.lft.to/lastmile_qr_scan", "ios": "https://dc.lft.to/lastmile_qr_scan"}, "is_reserved": 0, "is_disabled": 0, "type": "electric_scooter", "bike_id": "d82cc1474a98128b89f8eed221d7339e"}, {"lon": -77.06924733333334, "lat": 38.942848166666664, "name": "b87ada59cf57e0322019d0b5abe9e870", "fusion_lat": 0.0, "fusion_lon": 0.0, "rental_uris": {"android": "https://dc.lft.to/lastmile_qr_scan", "ios": "https://dc.lft.to/lastmile_qr_scan"}, "is_reserved": 0, "is_disabled": 0, "type": "electric_bike", "bike_id": "b87ada59cf57e0322019d0b5abe9e870"}, {"lon": -76.9878035, "lat": 38.9002975, "name": "712c4e90378608e7a984b21fcb3298aa", "fusion_lat": 0.0, "fusion_lon": 0.0, "rental_uris": {"android": "https://dc.lft.to/lastmile_qr_scan", "ios": "https://dc.lft.to/lastmile_qr_scan"}, "is_reserved": 0, "is_disabled": 0, "type": "electric_scooter", "bike_id": "712c4e90378608e7a984b21fcb3298aa"}, {"lon": -77.02497233333334, "lat": 38.9740525, "name": "8b6b24ae48c2330ec9b24387421c4b08", "fusion_lat": 0.0, "fusion_lon": 0.0, "rental_uris": {"android": "https://dc.lft.to/lastmile_qr_scan", "ios": "https://dc.lft.to/lastmile_qr_scan"}, "is_reserved": 0, "is_disabled": 0, "type": "electric_bike", "bike_id": "8b6b24ae48c2330ec9b24387421c4b08"}, {"lon": -77.03329083333334, "lat": 38.900400833333336, "name": "289cabc3d337c017ea9effa71c81a838", "fusion_lat": 0.0, "fusion_lon": 0.0, "rental_uris": {"android": "https://dc.lft.to/lastmile_qr_scan", "ios": "https://dc.lft.to/lastmile_qr_scan"}, "is_reserved": 0, "is_disabled": 0, "type": "electric_scooter", "bike_id": "289cabc3d337c017ea9effa71c81a838"}, {"lon": -76.94723566666667, "lat": 38.896907166666665, "name": "615e60c240073f14b52a7f057a0ad3b5", "fusion_lat": 0.0, "fusion_lon": 0.0, "rental_uris": {"android": "https://dc.lft.to/lastmile_qr_scan", "ios": "https://dc.lft.to/lastmile_qr_scan"}, "is_reserved": 0, "is_disabled": 0, "type": "electric_scooter", "bike_id": "615e60c240073f14b52a7f057a0ad3b5"}, {"lon": -76.99948483333333, "lat": 38.842952333333336, "name": "b517ad2c744e70b6b9fde67ae7677ef2", "fusion_lat": 0.0, "fusion_lon": 0.0, "rental_uris": {"android": "https://dc.lft.to/lastmile_qr_scan", "ios": "https://dc.lft.to/lastmile_qr_scan"}, "is_reserved": 0, "is_disabled": 0, "type": "electric_scooter", "bike_id": "b517ad2c744e70b6b9fde67ae7677ef2"}, {"lon": -77.036946, "lat": 38.91702033333333, "name": "76f00d40d56ecc61397a4de7b418639c", "fusion_lat": 0.0, "fusion_lon": 0.0, "rental_uris": {"android": "https://dc.lft.to/lastmile_qr_scan", "ios": "https://dc.lft.to/lastmile_qr_scan"}, "is_reserved": 0, "is_disabled": 0, "type": "electric_scooter", "bike_id": "76f00d40d56ecc61397a4de7b418639c"}, {"lon": -77.05066933333333, "lat": 38.9008675, "name": "5898d1726b9a0dbc4105297b0f6909a5", "fusion_lat": 0.0, "fusion_lon": 0.0, "rental_uris": {"android": "https://dc.lft.to/lastmile_qr_scan", "ios": "https://dc.lft.to/lastmile_qr_scan"}, "is_reserved": 0, "is_disabled": 0, "type": "electric_scooter", "bike_id": "5898d1726b9a0dbc4105297b0f6909a5"}, {"lon": -77.04648316666666, "lat": 38.85212833333333, "name": "28030693a0206159dc9fb528756390b6", "fusion_lat": 0.0, "fusion_lon": 0.0, "rental_uris": {"android": "https://dc.lft.to/lastmile_qr_scan", "ios": "https://dc.lft.to/lastmile_qr_scan"}, "is_reserved": 0, "is_disabled": 0, "type": "electric_bike", "bike_id": "28030693a0206159dc9fb528756390b6"}, {"lon": -77.01138266666666, "lat": 38.89519083333333, "name": "6eb4fcdd7d89cb19c107003de7e4aa4b", "fusion_lat": 0.0, "fusion_lon": 0.0, "rental_uris": {"android": "https://dc.lft.to/lastmile_qr_scan", "ios": "https://dc.lft.to/lastmile_qr_scan"}, "is_reserved": 0, "is_disabled": 0, "type": "electric_scooter", "bike_id": "6eb4fcdd7d89cb19c107003de7e4aa4b"}, {"lon": -76.98133716666666, "lat": 38.905013833333335, "name": "4c5f3ac1896a3830a8ac73f543b60be3", "fusion_lat": 0.0, "fusion_lon": 0.0, "rental_uris": {"android": "https://dc.lft.to/lastmile_qr_scan", "ios": "https://dc.lft.to/lastmile_qr_scan"}, "is_reserved": 0, "is_disabled": 0, "type": "electric_scooter", "bike_id": "4c5f3ac1896a3830a8ac73f543b60be3"}, {"lon": -77.03141766666667, "lat": 38.927852333333334, "name": "f463bf506e97e283f4e6be1f391bb348", "fusion_lat": 0.0, "fusion_lon": 0.0, "rental_uris": {"android": "https://dc.lft.to/lastmile_qr_scan", "ios": "https://dc.lft.to/lastmile_qr_scan"}, "is_reserved": 0, "is_disabled": 0, "type": "electric_scooter", "bike_id": "f463bf506e97e283f4e6be1f391bb348"}, {"lon": -77.05119666666667, "lat": 38.9061005, "name": "36dcedd056818f05d3182b955d7fc4de", "fusion_lat": 0.0, "fusion_lon": 0.0, "rental_uris": {"android": "https://dc.lft.to/lastmile_qr_scan", "ios": "https://dc.lft.to/lastmile_qr_scan"}, "is_reserved": 0, "is_disabled": 0, "type": "electric_scooter", "bike_id": "36dcedd056818f05d3182b955d7fc4de"}, {"lon": -77.02597333333334, "lat": 38.90428583333333, "name": "a12560a958bb9f5aa778a42351edc1a8", "fusion_lat": 0.0, "fusion_lon": 0.0, "rental_uris": {"android": "https://dc.lft.to/lastmile_qr_scan", "ios": "https://dc.lft.to/lastmile_qr_scan"}, "is_reserved": 0, "is_disabled": 0, "type": "electric_scooter", "bike_id": "a12560a958bb9f5aa778a42351edc1a8"}, {"lon": -77.0317235, "lat": 38.905378166666665, "name": "7d1f342bd004b14ed50d777f370b242c", "fusion_lat": 0.0, "fusion_lon": 0.0, "rental_uris": {"android": "https://dc.lft.to/lastmile_qr_scan", "ios": "https://dc.lft.to/lastmile_qr_scan"}, "is_reserved": 0, "is_disabled": 0, "type": "electric_scooter", "bike_id": "7d1f342bd004b14ed50d777f370b242c"}, {"lon": -77.0027875, "lat": 38.91480083333333, "name": "0de5cbb7a1ac374128dacebbd41a9584", "fusion_lat": 0.0, "fusion_lon": 0.0, "rental_uris": {"android": "https://dc.lft.to/lastmile_qr_scan", "ios": "https://dc.lft.to/lastmile_qr_scan"}, "is_reserved": 0, "is_disabled": 0, "type": "electric_scooter", "bike_id": "0de5cbb7a1ac374128dacebbd41a9584"}, {"lon": -77.04855516666667, "lat": 38.919636, "name": "32a30fb098e343adc4d919add9ce2160", "fusion_lat": 0.0, "fusion_lon": 0.0, "rental_uris": {"android": "https://dc.lft.to/lastmile_qr_scan", "ios": "https://dc.lft.to/lastmile_qr_scan"}, "is_reserved": 0, "is_disabled": 0, "type": "electric_scooter", "bike_id": "32a30fb098e343adc4d919add9ce2160"}, {"lon": -77.02778016666667, "lat": 38.89478716666667, "name": "11e5f1ecb04ec1e935f51f027a75b11d", "fusion_lat": 0.0, "fusion_lon": 0.0, "rental_uris": {"android": "https://dc.lft.to/lastmile_qr_scan", "ios": "https://dc.lft.to/lastmile_qr_scan"}, "is_reserved": 0, "is_disabled": 0, "type": "electric_scooter", "bike_id": "11e5f1ecb04ec1e935f51f027a75b11d"}, {"lon": -76.93350566666666, "lat": 38.8990415, "name": "4f5c612992ffb2df218c01f5b32a1312", "fusion_lat": 0.0, "fusion_lon": 0.0, "rental_uris": {"android": "https://dc.lft.to/lastmile_qr_scan", "ios": "https://dc.lft.to/lastmile_qr_scan"}, "is_reserved": 0, "is_disabled": 0, "type": "electric_scooter", "bike_id": "4f5c612992ffb2df218c01f5b32a1312"}, {"lon": -77.0254555, "lat": 38.89228216666667, "name": "fab24de866630b7fe54e7fa9f0855b03", "fusion_lat": 0.0, "fusion_lon": 0.0, "rental_uris": {"android": "https://dc.lft.to/lastmile_qr_scan", "ios": "https://dc.lft.to/lastmile_qr_scan"}, "is_reserved": 0, "is_disabled": 0, "type": "electric_scooter", "bike_id": "fab24de866630b7fe54e7fa9f0855b03"}, {"lon": -76.99530133333333, "lat": 38.89988833333334, "name": "64f9fc71fb16a745aab58d4d7a399980", "fusion_lat": 0.0, "fusion_lon": 0.0, "rental_uris": {"android": "https://dc.lft.to/lastmile_qr_scan", "ios": "https://dc.lft.to/lastmile_qr_scan"}, "is_reserved": 0, "is_disabled": 0, "type": "electric_scooter", "bike_id": "64f9fc71fb16a745aab58d4d7a399980"}, {"lon": -77.03201566666667, "lat": 38.90784383333333, "name": "b81281540a42e9c26c0567c8b8c11975", "fusion_lat": 0.0, "fusion_lon": 0.0, "rental_uris": {"android": "https://dc.lft.to/lastmile_qr_scan", "ios": "https://dc.lft.to/lastmile_qr_scan"}, "is_reserved": 0, "is_disabled": 0, "type": "electric_scooter", "bike_id": "b81281540a42e9c26c0567c8b8c11975"}, {"lon": -76.99186533333334, "lat": 38.905094166666665, "name": "60cf49ac69b65517e9bbf8d76071794f", "fusion_lat": 0.0, "fusion_lon": 0.0, "rental_uris": {"android": "https://dc.lft.to/lastmile_qr_scan", "ios": "https://dc.lft.to/lastmile_qr_scan"}, "is_reserved": 0, "is_disabled": 0, "type": "electric_scooter", "bike_id": "60cf49ac69b65517e9bbf8d76071794f"}, {"lon": -76.99025916666666, "lat": 38.85872633333334, "name": "d0224ad1131894634243de8fd3ffa62d", "fusion_lat": 0.0, "fusion_lon": 0.0, "rental_uris": {"android": "https://dc.lft.to/lastmile_qr_scan", "ios": "https://dc.lft.to/lastmile_qr_scan"}, "is_reserved": 0, "is_disabled": 0, "type": "electric_scooter", "bike_id": "d0224ad1131894634243de8fd3ffa62d"}, {"lon": -77.043346, "lat": 38.90347766666667, "name": "7232978b53015b889643b4692fa086fd", "fusion_lat": 0.0, "fusion_lon": 0.0, "rental_uris": {"android": "https://dc.lft.to/lastmile_qr_scan", "ios": "https://dc.lft.to/lastmile_qr_scan"}, "is_reserved": 0, "is_disabled": 0, "type": "electric_scooter", "bike_id": "7232978b53015b889643b4692fa086fd"}, {"lon": -77.03294016666666, "lat": 38.95654066666667, "name": "b97b523a23ca934e05ffc15bee898803", "fusion_lat": 0.0, "fusion_lon": 0.0, "rental_uris": {"android": "https://dc.lft.to/lastmile_qr_scan", "ios": "https://dc.lft.to/lastmile_qr_scan"}, "is_reserved": 0, "is_disabled": 0, "type": "electric_scooter", "bike_id": "b97b523a23ca934e05ffc15bee898803"}, {"lon": -77.01885783333333, "lat": 38.9172955, "name": "62ac919bfb23036e95fd238edef9e7bd", "fusion_lat": 0.0, "fusion_lon": 0.0, "rental_uris": {"android": "https://dc.lft.to/lastmile_qr_scan", "ios": "https://dc.lft.to/lastmile_qr_scan"}, "is_reserved": 0, "is_disabled": 0, "type": "electric_scooter", "bike_id": "62ac919bfb23036e95fd238edef9e7bd"}, {"lon": -77.02804083333334, "lat": 38.90565483333334, "name": "3b1d2575bca1ce52c33551feddf2a886", "fusion_lat": 0.0, "fusion_lon": 0.0, "rental_uris": {"android": "https://dc.lft.to/lastmile_qr_scan", "ios": "https://dc.lft.to/lastmile_qr_scan"}, "is_reserved": 0, "is_disabled": 0, "type": "electric_scooter", "bike_id": "3b1d2575bca1ce52c33551feddf2a886"}, {"lon": -76.99062916666666, "lat": 38.936916, "name": "20afdf67e668cfff389aa71455a2d534", "fusion_lat": 0.0, "fusion_lon": 0.0, "rental_uris": {"android": "https://dc.lft.to/lastmile_qr_scan", "ios": "https://dc.lft.to/lastmile_qr_scan"}, "is_reserved": 0, "is_disabled": 0, "type": "electric_bike", "bike_id": "20afdf67e668cfff389aa71455a2d534"}, {"lon": -77.03263933333334, "lat": 38.91986766666667, "name": "4f80294906210df45802edbb53ba3c2c", "fusion_lat": 0.0, "fusion_lon": 0.0, "rental_uris": {"android": "https://dc.lft.to/lastmile_qr_scan", "ios": "https://dc.lft.to/lastmile_qr_scan"}, "is_reserved": 0, "is_disabled": 0, "type": "electric_scooter", "bike_id": "4f80294906210df45802edbb53ba3c2c"}, {"lon": -77.04077133333334, "lat": 38.8124155, "name": "68a9cbd2ed0945687f8ae66a0c9bbb8b", "fusion_lat": 0.0, "fusion_lon": 0.0, "rental_uris": {"android": "https://dc.lft.to/lastmile_qr_scan", "ios": "https://dc.lft.to/lastmile_qr_scan"}, "is_reserved": 0, "is_disabled": 0, "type": "electric_bike", "bike_id": "68a9cbd2ed0945687f8ae66a0c9bbb8b"}, {"lon": -77.00202916666667, "lat": 38.90243783333333, "name": "bafc3f5047510d799b5d949f8da89532", "fusion_lat": 0.0, "fusion_lon": 0.0, "rental_uris": {"android": "https://dc.lft.to/lastmile_qr_scan", "ios": "https://dc.lft.to/lastmile_qr_scan"}, "is_reserved": 0, "is_disabled": 0, "type": "electric_scooter", "bike_id": "bafc3f5047510d799b5d949f8da89532"}, {"lon": -76.93205283333333, "lat": 38.872342, "name": "b39600eb44667f1aeb5a3a5a1d294448", "fusion_lat": 0.0, "fusion_lon": 0.0, "rental_uris": {"android": "https://dc.lft.to/lastmile_qr_scan", "ios": "https://dc.lft.to/lastmile_qr_scan"}, "is_reserved": 0, "is_disabled": 0, "type": "electric_bike", "bike_id": "b39600eb44667f1aeb5a3a5a1d294448"}, {"lon": -77.038565, "lat": 38.90483616666667, "name": "d0db93d58567659f28b76a0afcc9cc1f", "fusion_lat": 0.0, "fusion_lon": 0.0, "rental_uris": {"android": "https://dc.lft.to/lastmile_qr_scan", "ios": "https://dc.lft.to/lastmile_qr_scan"}, "is_reserved": 0, "is_disabled": 0, "type": "electric_scooter", "bike_id": "d0db93d58567659f28b76a0afcc9cc1f"}, {"lon": -77.07023133333334, "lat": 38.9277335, "name": "5c9cbfcf3282ba9425d9ae0e2d3d157d", "fusion_lat": 0.0, "fusion_lon": 0.0, "rental_uris": {"android": "https://dc.lft.to/lastmile_qr_scan", "ios": "https://dc.lft.to/lastmile_qr_scan"}, "is_reserved": 0, "is_disabled": 0, "type": "electric_bike", "bike_id": "5c9cbfcf3282ba9425d9ae0e2d3d157d"}, {"lon": -77.03698166666666, "lat": 38.91703866666667, "name": "720ed36fd80cf3abe97fdfdee28d133f", "fusion_lat": 0.0, "fusion_lon": 0.0, "rental_uris": {"android": "https://dc.lft.to/lastmile_qr_scan", "ios": "https://dc.lft.to/lastmile_qr_scan"}, "is_reserved": 0, "is_disabled": 0, "type": "electric_scooter", "bike_id": "720ed36fd80cf3abe97fdfdee28d133f"}, {"lon": -77.0298605, "lat": 38.95627866666667, "name": "21d98cb403f701a06baa95aa6d6331a5", "fusion_lat": 0.0, "fusion_lon": 0.0, "rental_uris": {"android": "https://dc.lft.to/lastmile_qr_scan", "ios": "https://dc.lft.to/lastmile_qr_scan"}, "is_reserved": 0, "is_disabled": 0, "type": "electric_scooter", "bike_id": "21d98cb403f701a06baa95aa6d6331a5"}, {"lon": -77.02256083333333, "lat": 38.92500916666667, "name": "42d25ae3d51ea897329e4338d7c6333c", "fusion_lat": 0.0, "fusion_lon": 0.0, "rental_uris": {"android": "https://dc.lft.to/lastmile_qr_scan", "ios": "https://dc.lft.to/lastmile_qr_scan"}, "is_reserved": 0, "is_disabled": 0, "type": "electric_scooter", "bike_id": "42d25ae3d51ea897329e4338d7c6333c"}, {"lon": -77.01975916666666, "lat": 38.9022675, "name": "1aed7ea7d42339ff05f2473b296facee", "fusion_lat": 0.0, "fusion_lon": 0.0, "rental_uris": {"android": "https://dc.lft.to/lastmile_qr_scan", "ios": "https://dc.lft.to/lastmile_qr_scan"}, "is_reserved": 0, "is_disabled": 0, "type": "electric_scooter", "bike_id": "1aed7ea7d42339ff05f2473b296facee"}, {"lon": -77.027087, "lat": 38.950002166666664, "name": "5c566989d3b59c0be5a80c98e8320292", "fusion_lat": 0.0, "fusion_lon": 0.0, "rental_uris": {"android": "https://dc.lft.to/lastmile_qr_scan", "ios": "https://dc.lft.to/lastmile_qr_scan"}, "is_reserved": 0, "is_disabled": 0, "type": "electric_scooter", "bike_id": "5c566989d3b59c0be5a80c98e8320292"}, {"lon": -77.08934616666667, "lat": 38.840999, "name": "a27fe5190ff0325bfc61f020e9d08886", "fusion_lat": 0.0, "fusion_lon": 0.0, "rental_uris": {"android": "https://dc.lft.to/lastmile_qr_scan", "ios": "https://dc.lft.to/lastmile_qr_scan"}, "is_reserved": 0, "is_disabled": 0, "type": "electric_bike", "bike_id": "a27fe5190ff0325bfc61f020e9d08886"}, {"lon": -77.00369066666667, "lat": 38.836073166666665, "name": "a26dcc73512dbf13a1c3213792c6c8f4", "fusion_lat": 0.0, "fusion_lon": 0.0, "rental_uris": {"android": "https://dc.lft.to/lastmile_qr_scan", "ios": "https://dc.lft.to/lastmile_qr_scan"}, "is_reserved": 0, "is_disabled": 0, "type": "electric_bike", "bike_id": "a26dcc73512dbf13a1c3213792c6c8f4"}, {"lon": -77.03513666666667, "lat": 38.975882666666664, "name": "6434281a4807b9eb977da7e89696a127", "fusion_lat": 0.0, "fusion_lon": 0.0, "rental_uris": {"android": "https://dc.lft.to/lastmile_qr_scan", "ios": "https://dc.lft.to/lastmile_qr_scan"}, "is_reserved": 0, "is_disabled": 0, "type": "electric_bike", "bike_id": "6434281a4807b9eb977da7e89696a127"}, {"lon": -77.01770216666667, "lat": 38.902643166666664, "name": "2642571ed9fb6af23f40c22c962230f0", "fusion_lat": 0.0, "fusion_lon": 0.0, "rental_uris": {"android": "https://dc.lft.to/lastmile_qr_scan", "ios": "https://dc.lft.to/lastmile_qr_scan"}, "is_reserved": 0, "is_disabled": 0, "type": "electric_scooter", "bike_id": "2642571ed9fb6af23f40c22c962230f0"}, {"lon": -76.9977825, "lat": 38.84428533333333, "name": "1a794d5073536a8d6f0b2a9cfe74f9df", "fusion_lat": 0.0, "fusion_lon": 0.0, "rental_uris": {"android": "https://dc.lft.to/lastmile_qr_scan", "ios": "https://dc.lft.to/lastmile_qr_scan"}, "is_reserved": 0, "is_disabled": 0, "type": "electric_scooter", "bike_id": "1a794d5073536a8d6f0b2a9cfe74f9df"}, {"lon": -77.03649333333334, "lat": 38.91249083333334, "name": "ecb4493473c53aa58f2afd6c95d14403", "fusion_lat": 0.0, "fusion_lon": 0.0, "rental_uris": {"android": "https://dc.lft.to/lastmile_qr_scan", "ios": "https://dc.lft.to/lastmile_qr_scan"}, "is_reserved": 0, "is_disabled": 0, "type": "electric_scooter", "bike_id": "ecb4493473c53aa58f2afd6c95d14403"}, {"lon": -77.095526, "lat": 38.837339166666666, "name": "dc9d940b10103c29869fb9af634cdb7c", "fusion_lat": 0.0, "fusion_lon": 0.0, "rental_uris": {"android": "https://dc.lft.to/lastmile_qr_scan", "ios": "https://dc.lft.to/lastmile_qr_scan"}, "is_reserved": 0, "is_disabled": 0, "type": "electric_bike", "bike_id": "dc9d940b10103c29869fb9af634cdb7c"}, {"lon": -77.042803, "lat": 38.907494666666665, "name": "191163e18190e8ce5ed0465c5de7717d", "fusion_lat": 0.0, "fusion_lon": 0.0, "rental_uris": {"android": "https://dc.lft.to/lastmile_qr_scan", "ios": "https://dc.lft.to/lastmile_qr_scan"}, "is_reserved": 0, "is_disabled": 0, "type": "electric_scooter", "bike_id": "191163e18190e8ce5ed0465c5de7717d"}, {"lon": -77.01163816666667, "lat": 38.89347716666666, "name": "4c7b2b68f68a09e5c4eb9803715ec532", "fusion_lat": 0.0, "fusion_lon": 0.0, "rental_uris": {"android": "https://dc.lft.to/lastmile_qr_scan", "ios": "https://dc.lft.to/lastmile_qr_scan"}, "is_reserved": 0, "is_disabled": 0, "type": "electric_scooter", "bike_id": "4c7b2b68f68a09e5c4eb9803715ec532"}, {"lon": -76.94944566666666, "lat": 38.88320683333333, "name": "69850decd7cfbc0b4e1fa0a6bab3893e", "fusion_lat": 0.0, "fusion_lon": 0.0, "rental_uris": {"android": "https://dc.lft.to/lastmile_qr_scan", "ios": "https://dc.lft.to/lastmile_qr_scan"}, "is_reserved": 0, "is_disabled": 0, "type": "electric_scooter", "bike_id": "69850decd7cfbc0b4e1fa0a6bab3893e"}, {"lon": -77.00917633333333, "lat": 38.897317666666666, "name": "f6e4aabba4c1d7c2a2e95e5957142592", "fusion_lat": 0.0, "fusion_lon": 0.0, "rental_uris": {"android": "https://dc.lft.to/lastmile_qr_scan", "ios": "https://dc.lft.to/lastmile_qr_scan"}, "is_reserved": 0, "is_disabled": 0, "type": "electric_scooter", "bike_id": "f6e4aabba4c1d7c2a2e95e5957142592"}, {"lon": -77.045165, "lat": 38.90784933333333, "name": "6e2340bfd3ed55fd2df32ef5dbfa9e15", "fusion_lat": 0.0, "fusion_lon": 0.0, "rental_uris": {"android": "https://dc.lft.to/lastmile_qr_scan", "ios": "https://dc.lft.to/lastmile_qr_scan"}, "is_reserved": 0, "is_disabled": 0, "type": "electric_scooter", "bike_id": "6e2340bfd3ed55fd2df32ef5dbfa9e15"}, {"lon": -77.0332315, "lat": 38.898501333333336, "name": "60081deaf1f6a2aa7980f667cfa1ac3f", "fusion_lat": 0.0, "fusion_lon": 0.0, "rental_uris": {"android": "https://dc.lft.to/lastmile_qr_scan", "ios": "https://dc.lft.to/lastmile_qr_scan"}, "is_reserved": 0, "is_disabled": 0, "type": "electric_scooter", "bike_id": "60081deaf1f6a2aa7980f667cfa1ac3f"}, {"lon": -77.0122685, "lat": 38.872010333333336, "name": "63a54c3284eed42ed4a0b8830b8352c7", "fusion_lat": 0.0, "fusion_lon": 0.0, "rental_uris": {"android": "https://dc.lft.to/lastmile_qr_scan", "ios": "https://dc.lft.to/lastmile_qr_scan"}, "is_reserved": 0, "is_disabled": 0, "type": "electric_scooter", "bike_id": "63a54c3284eed42ed4a0b8830b8352c7"}, {"lon": -77.0279005, "lat": 38.89618016666667, "name": "83ed098efe958d08f9f0a9cfa0a35fb1", "fusion_lat": 0.0, "fusion_lon": 0.0, "rental_uris": {"android": "https://dc.lft.to/lastmile_qr_scan", "ios": "https://dc.lft.to/lastmile_qr_scan"}, "is_reserved": 0, "is_disabled": 0, "type": "electric_scooter", "bike_id": "83ed098efe958d08f9f0a9cfa0a35fb1"}, {"lon": -77.0435355, "lat": 38.9087735, "name": "de4e4ae42ec7cc918b892d1da3ae2d92", "fusion_lat": 0.0, "fusion_lon": 0.0, "rental_uris": {"android": "https://dc.lft.to/lastmile_qr_scan", "ios": "https://dc.lft.to/lastmile_qr_scan"}, "is_reserved": 0, "is_disabled": 0, "type": "electric_scooter", "bike_id": "de4e4ae42ec7cc918b892d1da3ae2d92"}, {"lon": -77.005566, "lat": 38.911875333333334, "name": "65ff99eb63984ae8694e9db001fe5ac7", "fusion_lat": 0.0, "fusion_lon": 0.0, "rental_uris": {"android": "https://dc.lft.to/lastmile_qr_scan", "ios": "https://dc.lft.to/lastmile_qr_scan"}, "is_reserved": 0, "is_disabled": 0, "type": "electric_scooter", "bike_id": "65ff99eb63984ae8694e9db001fe5ac7"}, {"lon": -77.03258466666666, "lat": 38.93078966666667, "name": "10179766068ca8961e324b5cc3d3a86e", "fusion_lat": 0.0, "fusion_lon": 0.0, "rental_uris": {"android": "https://dc.lft.to/lastmile_qr_scan", "ios": "https://dc.lft.to/lastmile_qr_scan"}, "is_reserved": 0, "is_disabled": 0, "type": "electric_scooter", "bike_id": "10179766068ca8961e324b5cc3d3a86e"}, {"lon": -77.04375566666667, "lat": 38.9257565, "name": "4b9044288bd4439d27a16533a0c9ff5a", "fusion_lat": 0.0, "fusion_lon": 0.0, "rental_uris": {"android": "https://dc.lft.to/lastmile_qr_scan", "ios": "https://dc.lft.to/lastmile_qr_scan"}, "is_reserved": 0, "is_disabled": 0, "type": "electric_scooter", "bike_id": "4b9044288bd4439d27a16533a0c9ff5a"}, {"lon": -77.019359, "lat": 38.94926183333333, "name": "41075fbd9ea1ad33e2375dc92ce0db26", "fusion_lat": 0.0, "fusion_lon": 0.0, "rental_uris": {"android": "https://dc.lft.to/lastmile_qr_scan", "ios": "https://dc.lft.to/lastmile_qr_scan"}, "is_reserved": 0, "is_disabled": 0, "type": "electric_scooter", "bike_id": "41075fbd9ea1ad33e2375dc92ce0db26"}, {"lon": -76.9995065, "lat": 38.842932, "name": "2f5582bccbd024ef36a34229254af7d5", "fusion_lat": 0.0, "fusion_lon": 0.0, "rental_uris": {"android": "https://dc.lft.to/lastmile_qr_scan", "ios": "https://dc.lft.to/lastmile_qr_scan"}, "is_reserved": 0, "is_disabled": 0, "type": "electric_scooter", "bike_id": "2f5582bccbd024ef36a34229254af7d5"}, {"lon": -77.03812316666667, "lat": 38.92065783333334, "name": "0ca05e3e6ab873f7338566d4ce0a5492", "fusion_lat": 0.0, "fusion_lon": 0.0, "rental_uris": {"android": "https://dc.lft.to/lastmile_qr_scan", "ios": "https://dc.lft.to/lastmile_qr_scan"}, "is_reserved": 0, "is_disabled": 0, "type": "electric_scooter", "bike_id": "0ca05e3e6ab873f7338566d4ce0a5492"}, {"lon": -77.04211266666667, "lat": 38.91415816666667, "name": "197a8bda96a15881b659c05a74927b8b", "fusion_lat": 0.0, "fusion_lon": 0.0, "rental_uris": {"android": "https://dc.lft.to/lastmile_qr_scan", "ios": "https://dc.lft.to/lastmile_qr_scan"}, "is_reserved": 0, "is_disabled": 0, "type": "electric_scooter", "bike_id": "197a8bda96a15881b659c05a74927b8b"}, {"lon": -77.0035275, "lat": 38.89466433333333, "name": "026f59ac6ceaafa7a1a44dd8dc725e75", "fusion_lat": 0.0, "fusion_lon": 0.0, "rental_uris": {"android": "https://dc.lft.to/lastmile_qr_scan", "ios": "https://dc.lft.to/lastmile_qr_scan"}, "is_reserved": 0, "is_disabled": 0, "type": "electric_scooter", "bike_id": "026f59ac6ceaafa7a1a44dd8dc725e75"}, {"lon": -77.1784925, "lat": 39.088626166666664, "name": "9d06c1da9b12abe6625d438fbf4e466b", "fusion_lat": 0.0, "fusion_lon": 0.0, "rental_uris": {"android": "https://dc.lft.to/lastmile_qr_scan", "ios": "https://dc.lft.to/lastmile_qr_scan"}, "is_reserved": 0, "is_disabled": 0, "type": "electric_bike", "bike_id": "9d06c1da9b12abe6625d438fbf4e466b"}, {"lon": -77.08204933333333, "lat": 38.935553166666665, "name": "2a3bcd10b1d5e9e11cec1df5dfa6094b", "fusion_lat": 0.0, "fusion_lon": 0.0, "rental_uris": {"android": "https://dc.lft.to/lastmile_qr_scan", "ios": "https://dc.lft.to/lastmile_qr_scan"}, "is_reserved": 0, "is_disabled": 0, "type": "electric_scooter", "bike_id": "2a3bcd10b1d5e9e11cec1df5dfa6094b"}, {"lon": -77.02706666666667, "lat": 38.950003333333335, "name": "b8bd041f39e1557a694c21684105daac", "fusion_lat": 0.0, "fusion_lon": 0.0, "rental_uris": {"android": "https://dc.lft.to/lastmile_qr_scan", "ios": "https://dc.lft.to/lastmile_qr_scan"}, "is_reserved": 0, "is_disabled": 0, "type": "electric_scooter", "bike_id": "b8bd041f39e1557a694c21684105daac"}, {"lon": -77.04305216666667, "lat": 39.05449933333333, "name": "7f72e0e84b67e044beb6712fd3747eab", "fusion_lat": 0.0, "fusion_lon": 0.0, "rental_uris": {"android": "https://dc.lft.to/lastmile_qr_scan", "ios": "https://dc.lft.to/lastmile_qr_scan"}, "is_reserved": 0, "is_disabled": 0, "type": "electric_bike", "bike_id": "7f72e0e84b67e044beb6712fd3747eab"}, {"lon": -77.02402983333333, "lat": 38.9042415, "name": "cee63ad68160c18e1b4790f5d6c8eba2", "fusion_lat": 0.0, "fusion_lon": 0.0, "rental_uris": {"android": "https://dc.lft.to/lastmile_qr_scan", "ios": "https://dc.lft.to/lastmile_qr_scan"}, "is_reserved": 0, "is_disabled": 0, "type": "electric_scooter", "bike_id": "cee63ad68160c18e1b4790f5d6c8eba2"}, {"lon": -77.0387335, "lat": 38.914115, "name": "cf60f157b1d233ea618ccf2bde682f07", "fusion_lat": 0.0, "fusion_lon": 0.0, "rental_uris": {"android": "https://dc.lft.to/lastmile_qr_scan", "ios": "https://dc.lft.to/lastmile_qr_scan"}, "is_reserved": 0, "is_disabled": 0, "type": "electric_scooter", "bike_id": "cf60f157b1d233ea618ccf2bde682f07"}, {"lon": -77.039231, "lat": 38.91839983333333, "name": "7dd29f26ca81db64c8e67873a1a9216d", "fusion_lat": 0.0, "fusion_lon": 0.0, "rental_uris": {"android": "https://dc.lft.to/lastmile_qr_scan", "ios": "https://dc.lft.to/lastmile_qr_scan"}, "is_reserved": 0, "is_disabled": 0, "type": "electric_scooter", "bike_id": "7dd29f26ca81db64c8e67873a1a9216d"},