{"data": {"bikes": [{"lat": 38.895028, "is_disabled": 0, "type": "electric_scooter", "lon": -77.00329316666667, "bike_id": "562c767826ca67dd3e1a8692c17e017c", "fusion_lat": 0.0, "name": "562c767826ca67dd3e1a8692c17e017c", "is_reserved": 0, "rental_uris": {"android": "https://dc.lft.to/lastmile_qr_scan", "ios": "https://dc.lft.to/lastmile_qr_scan"}, "fusion_lon": 0.0}, {"lat": 38.870669666666664, "is_disabled": 0, "type": "electric_scooter", "lon": -77.0083695, "bike_id": "e1531ef395aaec472c64acc75a4cf331", "fusion_lat": 0.0, "name": "e1531ef395aaec472c64acc75a4cf331", "is_reserved": 0, "rental_uris": {"android": "https://dc.lft.to/lastmile_qr_scan", "ios": "https://dc.lft.to/lastmile_qr_scan"}, "fusion_lon": 0.0}, {"lat": 38.90252, "is_disabled": 0, "type": "electric_scooter", "lon": -77.01752316666666, "bike_id": "dcdf67763999d212d8beb8933fb1c264", "fusion_lat": 0.0, "name": "dcdf67763999d212d8beb8933fb1c264", "is_reserved": 0, "rental_uris": {"android": "https://dc.lft.to/lastmile_qr_scan", "ios": "https://dc.lft.to/lastmile_qr_scan"}, "fusion_lon": 0.0}, {"lat": 38.9270915, "is_disabled": 0, "type": "electric_scooter", "lon": -77.02066766666667, "bike_id": "e3b2975c1ef027a2b2cd80ca5cb0ab52", "fusion_lat": 0.0, "name": "e3b2975c1ef027a2b2cd80ca5cb0ab52", "is_reserved": 0, "rental_uris": {"android": "https://dc.lft.to/lastmile_qr_scan", "ios": "https://dc.lft.to/lastmile_qr_scan"}, "fusion_lon": 0.0}, {"lat": 38.917289833333335, "is_disabled": 0, "type": "electric_scooter", "lon": -77.0366515, "bike_id": "98fc739e64194a814b5121fdad833917", "fusion_lat": 0.0, "name": "98fc739e64194a814b5121fdad833917", "is_reserved": 0, "rental_uris": {"android": "https://dc.lft.to/lastmile_qr_scan", "ios": "https://dc.lft.to/lastmile_qr_scan"}, "fusion_lon": 0.0}, {"lat": 38.881928333333335, "is_disabled": 0, "type": "electric_scooter", "lon": -76.99621783333333, "bike_id": "010e9477871caa37f35994fa04152acf", "fusion_lat": 0.0, "name": "010e9477871caa37f35994fa04152acf", "is_reserved": 0, "rental_uris": {"android": "https://dc.lft.to/lastmile_qr_scan", "ios": "https://dc.lft.to/lastmile_qr_scan"}, "fusion_lon": 0.0}, {"lat": 38.9197135, "is_disabled": 0, "type": "electric_scooter", "lon": -77.03227216666667, "bike_id": "33cb2fe4ce8c2c83355b1ed27f2bc997", "fusion_lat": 0.0, "name": "33cb2fe4ce8c2c83355b1ed27f2bc997", "is_reserved": 0, "rental_uris": {"android": "https://dc.lft.to/lastmile_qr_scan", "ios": "https://dc.lft.to/lastmile_qr_scan"}, "fusion_lon": 0.0}, {"lat": 38.93104666666667, "is_disabled": 0, "type": "electric_scooter", "lon": -77.03070383333333, "bike_id": "852e53cdbafc81db7b8299a9e98a5f11", "fusion_lat": 0.0, "name": "852e53cdbafc81db7b8299a9e98a5f11", "is_reserved": 0, "rental_uris": {"android": "https://dc.lft.to/lastmile_qr_scan", "ios": "https://dc.lft.to/lastmile_qr_scan"}, "fusion_lon": 0.0}, {"lat": 38.91201133333333, "is_disabled": 0, "type": "electric_scooter", "lon": -77.0275265, "bike_id": "eb4c8499efbda481fdc4b0c3d58a5892", "fusion_lat": 0.0, "name": "eb4c8499efbda481fdc4b0c3d58a5892", "is_reserved": 0, "rental_uris": {"android": "https://dc.lft.to/lastmile_qr_scan", "ios": "https://dc.lft.to/lastmile_qr_scan"}, "fusion_lon": 0.0}, {"lat": 38.89489616666667, "is_disabled": 0, "type": "electric_scooter", "lon": -77.02196316666667, "bike_id": "58fd26933122475df2ce45a2b74d2f1e", "fusion_lat": 0.0, "name": "58fd26933122475df2ce45a2b74d2f1e", "is_reserved": 0, "rental_uris": {"android": "https://dc.lft.to/lastmile_qr_scan", "ios": "https://dc.lft.to/lastmile_qr_scan"}, "fusion_lon": 0.0}, {"lat": 38.930964, "is_disabled": 0, "type": "electric_bike", "lon": -77.02407616666666, "bike_id": "7e3eddf40b159028a7442a96043049a5", "fusion_lat": 0.0, "name": "7e3eddf40b159028a7442a96043049a5", "is_reserved": 0, "rental_uris": {"android": "https://dc.lft.to/lastmile_qr_scan", "ios": "https://dc.lft.to/lastmile_qr_scan"}, "fusion_lon": 0.0}, {"lat": 38.94717933333333, "is_disabled": 0, "type": "electric_scooter", "lon": -77.022599, "bike_id": "17c91965180180ebca9fb64d3bd380a3", "fusion_lat": 0.0, "name": "17c91965180180ebca9fb64d3bd380a3", "is_reserved": 0, "rental_uris": {"android": "https://dc.lft.to/lastmile_qr_scan", "ios": "https://dc.lft.to/lastmile_qr_scan"}, "fusion_lon": 0.0}, {"lat": 38.91259066666667, "is_disabled": 0, "type": "electric_scooter", "lon": -77.03934433333333, "bike_id": "87ecfd7e0b463040ae82568fed76bc5e", "fusion_lat": 0.0, "name": "87ecfd7e0b463040ae82568fed76bc5e", "is_reserved": 0, "rental_uris": {"android": "https://dc.lft.to/lastmile_qr_scan", "ios": "https://dc.lft.to/lastmile_qr_scan"}, "fusion_lon": 0.0}, {"lat": 38.9174655, "is_disabled": 0, "type": "electric_scooter", "lon": -77.03208966666666, "bike_id": "18bfda36125150656f6e0addd7d7fa6e", "fusion_lat": 0.0, "name": "18bfda36125150656f6e0addd7d7fa6e", "is_reserved": 0, "rental_uris": {"android": "https://dc.lft.to/lastmile_qr_scan", "ios": "https://dc.lft.to/lastmile_qr_scan"}, "fusion_lon": 0.0}, {"lat": 38.90723416666667, "is_disabled": 0, "type": "electric_scooter", "lon": -77.0344745, "bike_id": "ce23288a50b3b045dee50886e844cf68", "fusion_lat": 0.0, "name": "ce23288a50b3b045dee50886e844cf68", "is_reserved": 0, "rental_uris": {"android": "https://dc.lft.to/lastmile_qr_scan", "ios": "https://dc.lft.to/lastmile_qr_scan"}, "fusion_lon": 0.0}, {"lat": 38.919558, "is_disabled": 0, "type": "electric_bike", "lon": -76.97277233333334, "bike_id": "dadef740cdd6e7f9140892fc8cf7ff88", "fusion_lat": 0.0, "name": "dadef740cdd6e7f9140892fc8cf7ff88", "is_reserved": 0, "rental_uris": {"android": "https://dc.lft.to/lastmile_qr_scan", "ios": "https://dc.lft.to/lastmile_qr_scan"}, "fusion_lon": 0.0}, {"lat": 38.930141166666665, "is_disabled": 0, "type": "electric_bike", "lon": -77.21646283333334, "bike_id": "7ec563ce58d66273cd7d9c4f0c5a3683", "fusion_lat": 0.0, "name": "7ec563ce58d66273cd7d9c4f0c5a3683", "is_reserved": 0, "rental_uris": {"android": "https://dc.lft.to/lastmile_qr_scan", "ios": "https://dc.lft.to/lastmile_qr_scan"}, "fusion_lon": 0.0}, {"lat": 38.93671583333333, "is_disabled": 0, "type": "electric_bike", "lon": -76.95205366666667, "bike_id": "fcc344326ee7562a16af5af85f245e16", "fusion_lat": 0.0, "name": "fcc344326ee7562a16af5af85f245e16", "is_reserved": 0, "rental_uris": {"android": "https://dc.lft.to/lastmile_qr_scan", "ios": "https://dc.lft.to/lastmile_qr_scan"}, "fusion_lon": 0.0}, {"lat": 38.932811666666666, "is_disabled": 0, "type": "electric_scooter", "lon": -77.02548316666666, "bike_id": "9c2a1d233fb31ed83ffcac0d333a60fa", "fusion_lat": 0.0, "name": "9c2a1d233fb31ed83ffcac0d333a60fa", "is_reserved": 0, "rental_uris": {"android": "https://dc.lft.to/lastmile_qr_scan", "ios": "https://dc.lft.to/lastmile_qr_scan"}, "fusion_lon": 0.0}, {"lat": 38.9021975, "is_disabled": 0, "type": "electric_scooter", "lon": -76.9459415, "bike_id": "ea348a7f195fb23bb89ecaf4350da676", "fusion_lat": 0.0, "name": "ea348a7f195fb23bb89ecaf4350da676", "is_reserved": 0, "rental_uris": {"android": "https://dc.lft.to/lastmile_qr_scan", "ios": "https://dc.lft.to/lastmile_qr_scan"}, "fusion_lon": 0.0}, {"lat": 38.896081, "is_disabled": 0, "type": "electric_scooter", "lon": -77.0547505, "bike_id": "ee8345abcac7b17c00b2347a2d5c8a0d", "fusion_lat": 0.0, "name": "ee8345abcac7b17c00b2347a2d5c8a0d", "is_reserved": 0, "rental_uris": {"android": "https://dc.lft.to/lastmile_qr_scan", "ios": "https://dc.lft.to/lastmile_qr_scan"}, "fusion_lon": 0.0}, {"lat": 38.9073915, "is_disabled": 0, "type": "electric_scooter", "lon": -77.03457633333333, "bike_id": "ebc0245c10661a809a71a57fd61cb5bd", "fusion_lat": 0.0, "name": "ebc0245c10661a809a71a57fd61cb5bd", "is_reserved": 0, "rental_uris": {"android": "https://dc.lft.to/lastmile_qr_scan", "ios": "https://dc.lft.to/lastmile_qr_scan"}, "fusion_lon": 0.0}, {"lat": 38.917891, "is_disabled": 0, "type": "electric_scooter", "lon": -77.0345345, "bike_id": "6b4049a3813568166e39f5b1c3cf0deb", "fusion_lat": 0.0, "name": "6b4049a3813568166e39f5b1c3cf0deb", "is_reserved": 0, "rental_uris": {"android": "https://dc.lft.to/lastmile_qr_scan", "ios": "https://dc.lft.to/lastmile_qr_scan"}, "fusion_lon": 0.0}, {"lat": 38.87895483333333, "is_disabled": 0, "type": "electric_scooter", "lon": -77.02207616666666, "bike_id": "4c0697ab553d98926cf6de4544c98679", "fusion_lat": 0.0, "name": "4c0697ab553d98926cf6de4544c98679", "is_reserved": 0, "rental_uris": {"android": "https://dc.lft.to/lastmile_qr_scan", "ios": "https://dc.lft.to/lastmile_qr_scan"}, "fusion_lon": 0.0}, {"lat": 38.901428333333335, "is_disabled": 0, "type": "electric_scooter", "lon": -77.0006035, "bike_id": "812a88c7fe298f525ca049f0d15b4239", "fusion_lat": 0.0, "name": "812a88c7fe298f525ca049f0d15b4239", "is_reserved": 0, "rental_uris": {"android": "https://dc.lft.to/lastmile_qr_scan", "ios": "https://dc.lft.to/lastmile_qr_scan"}, "fusion_lon": 0.0}, {"lat": 38.90252733333333, "is_disabled": 0, "type": "electric_scooter", "lon": -77.06242566666667, "bike_id": "68897c9a10ebd8b06dc08e112833fa49", "fusion_lat": 0.0, "name": "68897c9a10ebd8b06dc08e112833fa49", "is_reserved": 0, "rental_uris": {"android": "https://dc.lft.to/lastmile_qr_scan", "ios": "https://dc.lft.to/lastmile_qr_scan"}, "fusion_lon": 0.0}, {"lat": 38.917025833333334, "is_disabled": 0, "type": "electric_scooter", "lon": -77.04048883333333, "bike_id": "c1b8b26554fa03da503b409e864854a9", "fusion_lat": 0.0, "name": "c1b8b26554fa03da503b409e864854a9", "is_reserved": 0, "rental_uris": {"android": "https://dc.lft.to/lastmile_qr_scan", "ios": "https://dc.lft.to/lastmile_qr_scan"}, "fusion_lon": 0.0}, {"lat": 38.91109733333333, "is_disabled": 0, "type": "electric_scooter", "lon": -77.02419833333333, "bike_id": "afe0bb597e8398aafe8d1bd1e43c6584", "fusion_lat": 0.0, "name": "afe0bb597e8398aafe8d1bd1e43c6584", "is_reserved": 0, "rental_uris": {"android": "https://dc.lft.to/lastmile_qr_scan", "ios": "https://dc.lft.to/lastmile_qr_scan"}, "fusion_lon": 0.0}, {"lat": 38.91110333333334, "is_disabled": 0, "type": "electric_scooter", "lon": -77.04836866666666, "bike_id": "8e845bc049ab4a4bed5608ae54b1ab59", "fusion_lat": 0.0, "name": "8e845bc049ab4a4bed5608ae54b1ab59", "is_reserved": 0, "rental_uris": {"android": "https://dc.lft.to/lastmile_qr_scan", "ios": "https://dc.lft.to/lastmile_qr_scan"}, "fusion_lon": 0.0}, {"lat": 38.91041583333333, "is_disabled": 0, "type": "electric_scooter", "lon": -77.03861, "bike_id": "f7f929a8aac76e910526525d20db1bc9", "fusion_lat": 0.0, "name": "f7f929a8aac76e910526525d20db1bc9", "is_reserved": 0, "rental_uris": {"android": "https://dc.lft.to/lastmile_qr_scan", "ios": "https://dc.lft.to/lastmile_qr_scan"}, "fusion_lon": 0.0}, {"lat": 38.914326, "is_disabled": 0, "type": "electric_scooter", "lon": -77.02343333333333, "bike_id": "3f02652832b5c4cf1fde2fa819b0cc38", "fusion_lat": 0.0, "name": "3f02652832b5c4cf1fde2fa819b0cc38", "is_reserved": 0, "rental_uris": {"android": "https://dc.lft.to/lastmile_qr_scan", "ios": "https://dc.lft.to/lastmile_qr_scan"}, "fusion_lon": 0.0}, {"lat": 38.8967445, "is_disabled": 0, "type": "electric_scooter", "lon": -77.04482666666667, "bike_id": "b5cde409a21b2e243778bdcc59a3c4a0", "fusion_lat": 0.0, "name": "b5cde409a21b2e243778bdcc59a3c4a0", "is_reserved": 0, "rental_uris": {"android": "https://dc.lft.to/lastmile_qr_scan", "ios": "https://dc.lft.to/lastmile_qr_scan"}, "fusion_lon": 0.0}, {"lat": 38.91554633333333, "is_disabled": 0, "type": "electric_scooter", "lon": -77.03497416666667, "bike_id": "ef58f009e0db72a3e2f759547bfe719c", "fusion_lat": 0.0, "name": "ef58f009e0db72a3e2f759547bfe719c", "is_reserved": 0, "rental_uris": {"android": "https://dc.lft.to/lastmile_qr_scan", "ios": "https://dc.lft.to/lastmile_qr_scan"}, "fusion_lon": 0.0}, {"lat": 38.91709083333333, "is_disabled": 0, "type": "electric_scooter", "lon": -77.04668966666667, "bike_id": "57657acfbeb38208f640bc851b0b79b7", "fusion_lat": 0.0, "name": "57657acfbeb38208f640bc851b0b79b7", "is_reserved": 0, "rental_uris": {"android": "https://dc.lft.to/lastmile_qr_scan", "ios": "https://dc.lft.to/lastmile_qr_scan"}, "fusion_lon": 0.0}, {"lat": 38.916941666666666, "is_disabled": 0, "type": "electric_scooter", "lon": -77.03976016666667, "bike_id": "79cc97719de87c68497cbcc1ce7ec5bf", "fusion_lat": 0.0, "name": "79cc97719de87c68497cbcc1ce7ec5bf", "is_reserved": 0, "rental_uris": {"android": "https://dc.lft.to/lastmile_qr_scan", "ios": "https://dc.lft.to/lastmile_qr_scan"}, "fusion_lon": 0.0}, {"lat": 38.9036695, "is_disabled": 0, "type": "electric_scooter", "lon": -76.976582, "bike_id": "62cb45120448a98cb04f7356bb7d5bfa", "fusion_lat": 0.0, "name": "62cb45120448a98cb04f7356bb7d5bfa", "is_reserved": 0, "rental_uris": {"android": "https://dc.lft.to/lastmile_qr_scan", "ios": "https://dc.lft.to/lastmile_qr_scan"}, "fusion_lon": 0.0}, {"lat": 38.94776266666667, "is_disabled": 0, "type": "electric_scooter", "lon": -77.06550083333333, "bike_id": "3bb633cdf40d66a3884ed9bfdcbf876f", "fusion_lat": 0.0, "name": "3bb633cdf40d66a3884ed9bfdcbf876f", "is_reserved": 0, "rental_uris": {"android": "https://dc.lft.to/lastmile_qr_scan", "ios": "https://dc.lft.to/lastmile_qr_scan"}, "fusion_lon": 0.0}, {"lat": 38.93197716666667, "is_disabled": 0, "type": "electric_scooter", "lon": -77.02355833333333, "bike_id": "e4c5a1adc05d5f25f1e3a7278fc64337", "fusion_lat": 0.0, "name": "e4c5a1adc05d5f25f1e3a7278fc64337", "is_reserved": 0, "rental_uris": {"android": "https://dc.lft.to/lastmile_qr_scan", "ios": "https://dc.lft.to/lastmile_qr_scan"}, "fusion_lon": 0.0}, {"lat": 38.90259983333333, "is_disabled": 0, "type": "electric_bike", "lon": -77.00777383333333, "bike_id": "9d34dd78b498b98e4e56090573150798", "fusion_lat": 0.0, "name": "9d34dd78b498b98e4e56090573150798", "is_reserved": 0, "rental_uris": {"android": "https://dc.lft.to/lastmile_qr_scan", "ios": "https://dc.lft.to/lastmile_qr_scan"}, "fusion_lon": 0.0}, {"lat": 38.92114466666666, "is_disabled": 0, "type": "electric_scooter", "lon": -77.03183916666667, "bike_id": "3e97aaba232b447a61daf263fdd61e77", "fusion_lat": 0.0, "name": "3e97aaba232b447a61daf263fdd61e77", "is_reserved": 0, "rental_uris": {"android": "https://dc.lft.to/lastmile_qr_scan", "ios": "https://dc.lft.to/lastmile_qr_scan"}, "fusion_lon": 0.0}, {"lat": 38.92324633333333, "is_disabled": 0, "type": "electric_scooter", "lon": -77.02966716666667, "bike_id": "f06cdf6cdbc87649dc697d0c0dbf1ac8", "fusion_lat": 0.0, "name": "f06cdf6cdbc87649dc697d0c0dbf1ac8", "is_reserved": 0, "rental_uris": {"android": "https://dc.lft.to/lastmile_qr_scan", "ios": "https://dc.lft.to/lastmile_qr_scan"}, "fusion_lon": 0.0}, {"lat": 38.876799, "is_disabled": 0, "type": "electric_scooter", "lon": -77.01791783333333, "bike_id": "cd0cb436c210bb9becb0d79bbbbc0cb9", "fusion_lat": 0.0, "name": "cd0cb436c210bb9becb0d79bbbbc0cb9", "is_reserved": 0, "rental_uris": {"android": "https://dc.lft.to/lastmile_qr_scan", "ios": "https://dc.lft.to/lastmile_qr_scan"}, "fusion_lon": 0.0}, {"lat": 38.87341083333333, "is_disabled": 0, "type": "electric_scooter", "lon": -76.99164683333333, "bike_id": "b631d614a0ebf9c454b43e2f08e58290", "fusion_lat": 0.0, "name": "b631d614a0ebf9c454b43e2f08e58290", "is_reserved": 0, "rental_uris": {"android": "https://dc.lft.to/lastmile_qr_scan", "ios": "https://dc.lft.to/lastmile_qr_scan"}, "fusion_lon": 0.0}, {"lat": 38.914669333333336, "is_disabled": 0, "type": "electric_scooter", "lon": -77.03212466666666, "bike_id": "9a5f3686510f8d1827a3b2bbef811032", "fusion_lat": 0.0, "name": "9a5f3686510f8d1827a3b2bbef811032", "is_reserved": 0, "rental_uris": {"android": "https://dc.lft.to/lastmile_qr_scan", "ios": "https://dc.lft.to/lastmile_qr_scan"}, "fusion_lon": 0.0}, {"lat": 38.9265945, "is_disabled": 0, "type": "electric_scooter", "lon": -77.05596966666667, "bike_id": "21a1c775a89275f962b535f86f4f5019", "fusion_lat": 0.0, "name": "21a1c775a89275f962b535f86f4f5019", "is_reserved": 0, "rental_uris": {"android": "https://dc.lft.to/lastmile_qr_scan", "ios": "https://dc.lft.to/lastmile_qr_scan"}, "fusion_lon": 0.0}, {"lat": 38.938759166666664, "is_disabled": 0, "type": "electric_scooter", "lon": -77.0326685, "bike_id": "29502b464dc0fe0116d72e4ed8d883bd", "fusion_lat": 0.0, "name": "29502b464dc0fe0116d72e4ed8d883bd", "is_reserved": 0, "rental_uris": {"android": "https://dc.lft.to/lastmile_qr_scan", "ios": "https://dc.lft.to/lastmile_qr_scan"}, "fusion_lon": 0.0}, {"lat": 38.8955835, "is_disabled": 0, "type": "electric_scooter", "lon": -76.933798, "bike_id": "22ffa1f2cd30149151096857cfb98568", "fusion_lat": 0.0, "name": "22ffa1f2cd30149151096857cfb98568", "is_reserved": 0, "rental_uris": {"android": "https://dc.lft.to/lastmile_qr_scan", "ios": "https://dc.lft.to/lastmile_qr_scan"}, "fusion_lon": 0.0}, {"lat": 38.93525366666667, "is_disabled": 0, "type": "electric_scooter", "lon": -77.0340455, "bike_id": "3733acc4efea6153506c8172d5837a75", "fusion_lat": 0.0, "name": "3733acc4efea6153506c8172d5837a75", "is_reserved": 0, "rental_uris": {"android": "https://dc.lft.to/lastmile_qr_scan", "ios": "https://dc.lft.to/lastmile_qr_scan"}, "fusion_lon": 0.0}, {"lat": 38.91697416666667, "is_disabled": 0, "type": "electric_scooter", "lon": -77.03874516666667, "bike_id": "ae242598b9bc07cee49fcb458e435f57", "fusion_lat": 0.0, "name": "ae242598b9bc07cee49fcb458e435f57", "is_reserved": 0, "rental_uris": {"android": "https://dc.lft.to/lastmile_qr_scan", "ios": "https://dc.lft.to/lastmile_qr_scan"}, "fusion_lon": 0.0}, {"lat": 38.90956883333333, "is_disabled": 0, "type": "electric_scooter", "lon": -77.02279116666666, "bike_id": "796206266c3f77c190ce0e412cc073a0", "fusion_lat": 0.0, "name": "796206266c3f77c190ce0e412cc073a0", "is_reserved": 0, "rental_uris": {"android": "https://dc.lft.to/lastmile_qr_scan", "ios": "https://dc.lft.to/lastmile_qr_scan"}, "fusion_lon": 0.0}, {"lat": 38.91565383333333, "is_disabled": 0, "type": "electric_scooter", "lon": -77.02002783333333, "bike_id": "75c07e4f9f8f72c4db0980b76cf378e2", "fusion_lat": 0.0, "name": "75c07e4f9f8f72c4db0980b76cf378e2", "is_reserved": 0, "rental_uris": {"android": "https://dc.lft.to/lastmile_qr_scan", "ios": "https://dc.lft.to/lastmile_qr_scan"}, "fusion_lon": 0.0}, {"lat": 38.9167925, "is_disabled": 0, "type": "electric_scooter", "lon": -77.02721016666666, "bike_id": "5bde5c51ef89480c3fb54d911baa5634", "fusion_lat": 0.0, "name": "5bde5c51ef89480c3fb54d911baa5634", "is_reserved": 0, "rental_uris": {"android": "https://dc.lft.to/lastmile_qr_scan", "ios": "https://dc.lft.to/lastmile_qr_scan"}, "fusion_lon": 0.0}, {"lat": 38.90764583333333, "is_disabled": 0, "type": "electric_scooter", "lon": -77.03486883333333, "bike_id": "6cd75b539dd5735f5b6048e9e9c2f8b5", "fusion_lat": 0.0, "name": "6cd75b539dd5735f5b6048e9e9c2f8b5", "is_reserved": 0, "rental_uris": {"android": "https://dc.lft.to/lastmile_qr_scan", "ios": "https://dc.lft.to/lastmile_qr_scan"}, "fusion_lon": 0.0}, {"lat": 38.9031175, "is_disabled": 0, "type": "electric_scooter", "lon": -77.01202466666666, "bike_id": "dcfb0a569dcd1f2453422296a521a7a8", "fusion_lat": 0.0, "name": "dcfb0a569dcd1f2453422296a521a7a8", "is_reserved": 0, "rental_uris": {"android": "https://dc.lft.to/lastmile_qr_scan", "ios": "https://dc.lft.to/lastmile_qr_scan"}, "fusion_lon": 0.0}, {"lat": 38.9026335, "is_disabled": 0, "type": "electric_scooter", "lon": -77.03977233333333, "bike_id": "3146ec4739bc3a066181ccdd91b35cc0", "fusion_lat": 0.0, "name": "3146ec4739bc3a066181ccdd91b35cc0", "is_reserved": 0, "rental_uris": {"android": "https://dc.lft.to/lastmile_qr_scan", "ios": "https://dc.lft.to/lastmile_qr_scan"}, "fusion_lon": 0.0}, {"lat": 38.90204766666667, "is_disabled": 0, "type": "electric_scooter", "lon": -77.025113, "bike_id": "dd162fa8462230ed532795c07331b72c", "fusion_lat": 0.0, "name": "dd162fa8462230ed532795c07331b72c", "is_reserved": 0, "rental_uris": {"android": "https://dc.lft.to/lastmile_qr_scan", "ios": "https://dc.lft.to/lastmile_qr_scan"}, "fusion_lon": 0.0}, {"lat": 38.9185885, "is_disabled": 0, "type": "electric_scooter", "lon": -77.04428983333334, "bike_id": "0440260eb391c9929a5ba3616c82019d", "fusion_lat": 0.0, "name": "0440260eb391c9929a5ba3616c82019d", "is_reserved": 0, "rental_uris": {"android": "https://dc.lft.to/lastmile_qr_scan", "ios": "https://dc.lft.to/lastmile_qr_scan"}, "fusion_lon": 0.0}, {"lat": 38.90739516666667, "is_disabled": 0, "type": "electric_scooter", "lon": -77.02717366666667, "bike_id": "b10a8fcba94eb5904f62781ee601649b", "fusion_lat": 0.0, "name": "b10a8fcba94eb5904f62781ee601649b", "is_reserved": 0, "rental_uris": {"android": "https://dc.lft.to/lastmile_qr_scan", "ios": "https://dc.lft.to/lastmile_qr_scan"}, "fusion_lon": 0.0}, {"lat": 38.899677833333335, "is_disabled": 0, "type": "electric_scooter", "lon": -76.927281, "bike_id": "c6aa994e8bbedd81c01d20cccf7ae5fa", "fusion_lat": 0.0, "name": "c6aa994e8bbedd81c01d20cccf7ae5fa", "is_reserved": 0, "rental_uris": {"android": "https://dc.lft.to/lastmile_qr_scan", "ios": "https://dc.lft.to/lastmile_qr_scan"}, "fusion_lon": 0.0}, {"lat": 38.92991083333333, "is_disabled": 0, "type": "electric_scooter", "lon": -77.02632233333334, "bike_id": "2355c76873eaff65e2ed98f06a96260f", "fusion_lat": 0.0, "name": "2355c76873eaff65e2ed98f06a96260f", "is_reserved": 0, "rental_uris": {"android": "https://dc.lft.to/lastmile_qr_scan", "ios": "https://dc.lft.to/lastmile_qr_scan"}, "fusion_lon": 0.0}, {"lat": 38.906816666666664, "is_disabled": 0, "type": "electric_scooter", "lon": -77.02723883333333, "bike_id": "80eca2f2d2a2f6fe57e1814a52fcfb61", "fusion_lat": 0.0, "name": "80eca2f2d2a2f6fe57e1814a52fcfb61", "is_reserved": 0, "rental_uris": {"android": "https://dc.lft.to/lastmile_qr_scan", "ios": "https://dc.lft.to/lastmile_qr_scan"}, "fusion_lon": 0.0}, {"lat": 38.899948333333334, "is_disabled": 0, "type": "electric_scooter", "lon": -76.999633, "bike_id": "167af3a0259d0a95b1df15de985d869d", "fusion_lat": 0.0, "name": "167af3a0259d0a95b1df15de985d869d", "is_reserved": 0, "rental_uris": {"android": "https://dc.lft.to/lastmile_qr_scan", "ios": "https://dc.lft.to/lastmile_qr_scan"}, "fusion_lon": 0.0}, {"lat": 38.915434166666664, "is_disabled": 0, "type": "electric_scooter", "lon": -77.074224, "bike_id": "b9b0943b578aa23f4865ad3d8c791ea3", "fusion_lat": 0.0, "name": "b9b0943b578aa23f4865ad3d8c791ea3", "is_reserved": 0, "rental_uris": {"android": "https://dc.lft.to/lastmile_qr_scan", "ios": "https://dc.lft.to/lastmile_qr_scan"}, "fusion_lon": 0.0}, {"lat": 38.91100266666667, "is_disabled": 0, "type": "electric_scooter", "lon": -77.03211233333333, "bike_id": "ba4db8c9ba1dcc9dccb50694ccd87721", "fusion_lat": 0.0, "name": "ba4db8c9ba1dcc9dccb50694ccd87721", "is_reserved": 0, "rental_uris": {"android": "https://dc.lft.to/lastmile_qr_scan", "ios": "https://dc.lft.to/lastmile_qr_scan"}, "fusion_lon": 0.0}, {"lat": 38.90966066666667, "is_disabled": 0, "type": "electric_scooter", "lon": -76.99609766666667, "bike_id": "919b95c41ea0c6124af87889a8f31bc9", "fusion_lat": 0.0, "name": "919b95c41ea0c6124af87889a8f31bc9", "is_reserved": 0, "rental_uris": {"android": "https://dc.lft.to/lastmile_qr_scan", "ios": "https://dc.lft.to/lastmile_qr_scan"}, "fusion_lon": 0.0}, {"lat": 38.8928455, "is_disabled": 0, "type": "electric_scooter", "lon": -76.9585195, "bike_id": "8add8792302d945d407b18595334344e", "fusion_lat": 0.0, "name": "8add8792302d945d407b18595334344e", "is_reserved": 0, "rental_uris": {"android": "https://dc.lft.to/lastmile_qr_scan", "ios": "https://dc.lft.to/lastmile_qr_scan"}, "fusion_lon": 0.0}, {"lat": 38.929533666666664, "is_disabled": 0, "type": "electric_scooter", "lon": -76.9909445, "bike_id": "32b3830ddf9dea7b2f3ecaeb973452a3", "fusion_lat": 0.0, "name": "32b3830ddf9dea7b2f3ecaeb973452a3", "is_reserved": 0, "rental_uris": {"android": "https://dc.lft.to/lastmile_qr_scan", "ios": "https://dc.lft.to/lastmile_qr_scan"}, "fusion_lon": 0.0}, {"lat": 38.88718, "is_disabled": 0, "type": "electric_scooter", "lon": -76.99609516666666, "bike_id": "c7d786f9f093ad9a48bf107bf998f58d", "fusion_lat": 0.0, "name": "c7d786f9f093ad9a48bf107bf998f58d", "is_reserved": 0, "rental_uris": {"android": "https://dc.lft.to/lastmile_qr_scan", "ios": "https://dc.lft.to/lastmile_qr_scan"}, "fusion_lon": 0.0}, {"lat": 38.91420316666667, "is_disabled": 0, "type": "electric_scooter", "lon": -77.03902416666666, "bike_id": "66d18e56a3e503ae63ed630cf22b7a21", "fusion_lat": 0.0, "name": "66d18e56a3e503ae63ed630cf22b7a21", "is_reserved": 0, "rental_uris": {"android": "https://dc.lft.to/lastmile_qr_scan", "ios": "https://dc.lft.to/lastmile_qr_scan"}, "fusion_lon": 0.0}, {"lat": 38.906364333333336, "is_disabled": 0, "type": "electric_scooter", "lon": -77.02503766666666, "bike_id": "f830c4159f18d20bc7b8958165c26eb0", "fusion_lat": 0.0, "name": "f830c4159f18d20bc7b8958165c26eb0", "is_reserved": 0, "rental_uris": {"android": "https://dc.lft.to/lastmile_qr_scan", "ios": "https://dc.lft.to/lastmile_qr_scan"}, "fusion_lon": 0.0}, {"lat": 38.86363133333333, "is_disabled": 0, "type": "electric_scooter", "lon": -76.990407, "bike_id": "e05acf642ef72f86d02a12a23d064a2d", "fusion_lat": 0.0, "name": "e05acf642ef72f86d02a12a23d064a2d", "is_reserved": 0, "rental_uris": {"android": "https://dc.lft.to/lastmile_qr_scan", "ios": "https://dc.lft.to/lastmile_qr_scan"}, "fusion_lon": 0.0}, {"lat": 38.922292166666665, "is_disabled": 0, "type": "electric_scooter", "lon": -77.04362616666667, "bike_id": "5979665304e1cec6074ae40655e25b10", "fusion_lat": 0.0, "name": "5979665304e1cec6074ae40655e25b10", "is_reserved": 0, "rental_uris": {"android": "https://dc.lft.to/lastmile_qr_scan", "ios": "https://dc.lft.to/lastmile_qr_scan"}, "fusion_lon": 0.0}, {"lat": 38.80229666666666, "is_disabled": 0, "type": "electric_bike", "lon": -77.07919566666666, "bike_id": "975f390405907d880c535e0436adc0c3", "fusion_lat": 0.0, "name": "975f390405907d880c535e0436adc0c3", "is_reserved": 0, "rental_uris": {"android": "https://dc.lft.to/lastmile_qr_scan", "ios": "https://dc.lft.to/lastmile_qr_scan"}, "fusion_lon": 0.0}, {"lat": 38.954017, "is_disabled": 0, "type": "electric_bike", "lon": -76.97865033333333, "bike_id": "eb3a5bc66e7b95fd8b191fc263474d32", "fusion_lat": 0.0, "name": "eb3a5bc66e7b95fd8b191fc263474d32", "is_reserved": 0, "rental_uris": {"android": "https://dc.lft.to/lastmile_qr_scan", "ios": "https://dc.lft.to/lastmile_qr_scan"}, "fusion_lon": 0.0}, {"lat": 38.91939083333333, "is_disabled": 0, "type": "electric_scooter", "lon": -77.02596983333333, "bike_id": "8505466e3ce6a5ae58a03cae7ba2ccc4", "fusion_lat": 0.0, "name": "8505466e3ce6a5ae58a03cae7ba2ccc4", "is_reserved": 0, "rental_uris": {"android": "https://dc.lft.to/lastmile_qr_scan", "ios": "https://dc.lft.to/lastmile_qr_scan"}, "fusion_lon": 0.0}, {"lat": 38.884867166666666, "is_disabled": 0, "type": "electric_scooter", "lon": -77.03476116666667, "bike_id": "59e1969f4bf33200f0eb7ee7c36dc234", "fusion_lat": 0.0, "name": "59e1969f4bf33200f0eb7ee7c36dc234", "is_reserved": 0, "rental_uris": {"android": "https://dc.lft.to/lastmile_qr_scan", "ios": "https://dc.lft.to/lastmile_qr_scan"}, "fusion_lon": 0.0}, {"lat": 38.920060666666664, "is_disabled": 0, "type": "electric_scooter", "lon": -77.025225, "bike_id": "29ac58d9e31f789792c40d68e841c9af", "fusion_lat": 0.0, "name": "29ac58d9e31f789792c40d68e841c9af", "is_reserved": 0, "rental_uris": {"android": "https://dc.lft.to/lastmile_qr_scan", "ios": "https://dc.lft.to/lastmile_qr_scan"}, "fusion_lon": 0.0}, {"lat": 38.919323166666665, "is_disabled": 0, "type": "electric_scooter", "lon": -76.97017283333334, "bike_id": "3afc38e4d344b75d2b82941691ce3738", "fusion_lat": 0.0, "name": "3afc38e4d344b75d2b82941691ce3738", "is_reserved": 0, "rental_uris": {"android": "https://dc.lft.to/lastmile_qr_scan", "ios": "https://dc.lft.to/lastmile_qr_scan"}, "fusion_lon": 0.0}, {"lat": 38.873625833333335, "is_disabled": 0, "type": "electric_scooter", "lon": -77.00884733333334, "bike_id": "4655c9c837d07327a29e4615f06b3c9a", "fusion_lat": 0.0, "name": "4655c9c837d07327a29e4615f06b3c9a", "is_reserved": 0, "rental_uris": {"android": "https://dc.lft.to/lastmile_qr_scan", "ios": "https://dc.lft.to/lastmile_qr_scan"}, "fusion_lon": 0.0}, {"lat": 38.90462316666667, "is_disabled": 0, "type": "electric_scooter", "lon": -77.03904066666666, "bike_id": "6946c6a0e727a8831655df250fac6531", "fusion_lat": 0.0, "name": "6946c6a0e727a8831655df250fac6531", "is_reserved": 0, "rental_uris": {"android": "https://dc.lft.to/lastmile_qr_scan", "ios": "https://dc.lft.to/lastmile_qr_scan"}, "fusion_lon": 0.0}, {"lat": 38.928560833333336, "is_disabled": 0, "type": "electric_scooter", "lon": -77.0141455, "bike_id": "6133ed5c56f9ee83f87b315f92a11901", "fusion_lat": 0.0, "name": "6133ed5c56f9ee83f87b315f92a11901", "is_reserved": 0, "rental_uris": {"android": "https://dc.lft.to/lastmile_qr_scan", "ios": "https://dc.lft.to/lastmile_qr_scan"}, "fusion_lon": 0.0}, {"lat": 38.94141183333333, "is_disabled": 0, "type": "electric_bike", "lon": -77.03285283333334, "bike_id": "ef116f57c8fc539edb1e20ff719fd77c", "fusion_lat": 0.0, "name": "ef116f57c8fc539edb1e20ff719fd77c", "is_reserved": 0, "rental_uris": {"android": "https://dc.lft.to/lastmile_qr_scan", "ios": "https://dc.lft.to/lastmile_qr_scan"}, "fusion_lon": 0.0}, {"lat": 38.901637666666666, "is_disabled": 0, "type": "electric_scooter", "lon": -76.9985745, "bike_id": "27943c50b6ce25aa0ae9ff7d13c78b4e", "fusion_lat": 0.0, "name": "27943c50b6ce25aa0ae9ff7d13c78b4e", "is_reserved": 0, "rental_uris": {"android": "https://dc.lft.to/lastmile_qr_scan", "ios": "https://dc.lft.to/lastmile_qr_scan"}, "fusion_lon": 0.0}, {"lat": 38.859513166666666, "is_disabled": 0, "type": "electric_scooter", "lon": -76.99141, "bike_id": "5e974f79066a7fea9ea512c48f8614e7", "fusion_lat": 0.0, "name": "5e974f79066a7fea9ea512c48f8614e7", "is_reserved": 0, "rental_uris": {"android": "https://dc.lft.to/lastmile_qr_scan", "ios": "https://dc.lft.to/lastmile_qr_scan"}, "fusion_lon": 0.0}, {"lat": 38.80269083333334, "is_disabled": 0, "type": "electric_bike", "lon": -77.08115666666667, "bike_id": "43d96f58677ded04797417edf9f2df77", "fusion_lat": 0.0, "name": "43d96f58677ded04797417edf9f2df77", "is_reserved": 0, "rental_uris": {"android": "https://dc.lft.to/lastmile_qr_scan", "ios": "https://dc.lft.to/lastmile_qr_scan"}, "fusion_lon": 0.0}, {"lat": 39.0038165, "is_disabled": 0, "type": "electric_bike", "lon": -77.01286166666667, "bike_id": "4fa408237ad8fcad9691b60dff86252e", "fusion_lat": 0.0, "name": "4fa408237ad8fcad9691b60dff86252e", "is_reserved": 0, "rental_uris": {"android": "https://dc.lft.to/lastmile_qr_scan", "ios": "https://dc.lft.to/lastmile_qr_scan"}, "fusion_lon": 0.0}, {"lat": 38.9234115, "is_disabled": 0, "type": "electric_scooter", "lon": -77.02446216666667, "bike_id": "8e2203562ac7d6eecab3348f7e8b3edb", "fusion_lat": 0.0, "name": "8e2203562ac7d6eecab3348f7e8b3edb", "is_reserved": 0, "rental_uris": {"android": "https://dc.lft.to/lastmile_qr_scan", "ios": "https://dc.lft.to/lastmile_qr_scan"}, "fusion_lon": 0.0}, {"lat": 38.902205, "is_disabled": 0, "type": "electric_scooter", "lon": -77.02291683333333, "bike_id": "56a067245d3592a32da6cb3a7e2fb2c3", "fusion_lat": 0.0, "name": "56a067245d3592a32da6cb3a7e2fb2c3", "is_reserved": 0, "rental_uris": {"android": "https://dc.lft.to/lastmile_qr_scan", "ios": "https://dc.lft.to/lastmile_qr_scan"}, "fusion_lon": 0.0}, {"lat": 38.93362233333333, "is_disabled": 0, "type": "electric_scooter", "lon": -77.02494566666667, "bike_id": "1dc2fa8d482928502d5a9c2c31ae9d83", "fusion_lat": 0.0, "name": "1dc2fa8d482928502d5a9c2c31ae9d83", "is_reserved": 0, "rental_uris": {"android": "https://dc.lft.to/lastmile_qr_scan", "ios": "https://dc.lft.to/lastmile_qr_scan"}, "fusion_lon": 0.0}, {"lat": 38.9245, "is_disabled": 0, "type": "electric_scooter", "lon": -77.04024, "bike_id": "dcb960975cd15b78c9a7b963cc3d8973", "fusion_lat": 0.0, "name": "dcb960975cd15b78c9a7b963cc3d8973", "is_reserved": 0, "rental_uris": {"android": "https://dc.lft.to/lastmile_qr_scan", "ios": "https://dc.lft.to/lastmile_qr_scan"}, "fusion_lon": 0.0}, {"lat": 38.9190945, "is_disabled": 0, "type": "electric_scooter", "lon": -77.02593866666666, "bike_id": "d47f607b58fad5fb2f3eeb2f1228576c", "fusion_lat": 0.0, "name": "d47f607b58fad5fb2f3eeb2f1228576c", "is_reserved": 0, "rental_uris": {"android": "https://dc.lft.to/lastmile_qr_scan", "ios": "https://dc.lft.to/lastmile_qr_scan"}, "fusion_lon": 0.0}, {"lat": 38.95415633333333, "is_disabled": 0, "type": "electric_bike", "lon": -76.98057966666667, "bike_id": "1052711cdf7187d593c628ee7ed98ac9", "fusion_lat": 0.0, "name": "1052711cdf7187d593c628ee7ed98ac9", "is_reserved": 0, "rental_uris": {"android": "https://dc.lft.to/lastmile_qr_scan", "ios": "https://dc.lft.to/lastmile_qr_scan"}, "fusion_lon": 0.0}, {"lat": 38.873438666666665, "is_disabled": 0, "type": "electric_scooter", "lon": -76.99171683333333, "bike_id": "67469bc69682e0dfaf4e486fcd82281e", "fusion_lat": 0.0, "name": "67469bc69682e0dfaf4e486fcd82281e", "is_reserved": 0, "rental_uris": {"android": "https://dc.lft.to/lastmile_qr_scan", "ios": "https://dc.lft.to/lastmile_qr_scan"}, "fusion_lon": 0.0}, {"lat": 38.9061685, "is_disabled": 0, "type": "electric_scooter", "lon": -77.02185666666666, "bike_id": "8d2c40681a73deb2e8b6e2dc950d657d", "fusion_lat": 0.0, "name": "8d2c40681a73deb2e8b6e2dc950d657d", "is_reserved": 0, "rental_uris": {"android": "https://dc.lft.to/lastmile_qr_scan", "ios": "https://dc.lft.to/lastmile_qr_scan"}, "fusion_lon": 0.0}, {"lat": 38.90095266666667, "is_disabled": 0, "type": "electric_scooter", "lon": -77.00061316666667, "bike_id": "3266d1bd5dc4b9be8d3df37dc8b1f58b", "fusion_lat": 0.0, "name": "3266d1bd5dc4b9be8d3df37dc8b1f58b", "is_reserved": 0, "rental_uris": {"android": "https://dc.lft.to/lastmile_qr_scan", "ios": "https://dc.lft.to/lastmile_qr_scan"}, "fusion_lon": 0.0}, {"lat": 38.900647666666664, "is_disabled": 0, "type": "electric_scooter", "lon": -77.04400183333334, "bike_id": "b8d0e98d2ab625bf226e36f83e3de8df", "fusion_lat": 0.0, "name": "b8d0e98d2ab625bf226e36f83e3de8df", "is_reserved": 0, "rental_uris": {"android": "https://dc.lft.to/lastmile_qr_scan", "ios": "https://dc.lft.to/lastmile_qr_scan"}, "fusion_lon": 0.0}, {"lat": 38.876318, "is_disabled": 0, "type": "electric_scooter", "lon": -76.96524916666667, "bike_id": "c76549839441e18b63dc324b23f01b13", "fusion_lat": 0.0, "name": "c76549839441e18b63dc324b23f01b13", "is_reserved": 0, "rental_uris": {"android": "https://dc.lft.to/lastmile_qr_scan", "ios": "https://dc.lft.to/lastmile_qr_scan"}, "fusion_lon": 0.0}, {"lat": 38.91562916666667, "is_disabled": 0, "type": "electric_scooter", "lon": -77.02003633333334, "bike_id": "aea9550f5e9014c3b8d956c1646c3b00", "fusion_lat": 0.0, "name": "aea9550f5e9014c3b8d956c1646c3b00", "is_reserved": 0, "rental_uris": {"android": "https://dc.lft.to/lastmile_qr_scan", "ios": "https://dc.lft.to/lastmile_qr_scan"}, "fusion_lon": 0.0}, {"lat": 38.9553, "is_disabled": 0, "type": "electric_bike", "lon": -76.93534733333334, "bike_id": "2eca4fca9bad8e0cdbaa39ff56e3fe15", "fusion_lat": 0.0, "name": "2eca4fca9bad8e0cdbaa39ff56e3fe15", "is_reserved": 0, "rental_uris": {"android": "https://dc.lft.to/lastmile_qr_scan", "ios": "https://dc.lft.to/lastmile_qr_scan"}, "fusion_lon": 0.0}, {"lat": 38.932062, "is_disabled": 0, "type": "electric_scooter", "lon": -77.03669616666667, "bike_id": "0df39646cac4c233dd5f0039bc72f717", "fusion_lat": 0.0, "name": "0df39646cac4c233dd5f0039bc72f717", "is_reserved": 0, "rental_uris": {"android": "https://dc.lft.to/lastmile_qr_scan", "ios": "https://dc.lft.to/lastmile_qr_scan"}, "fusion_lon": 0.0}, {"lat": 38.89878933333333, "is_disabled": 0, "type": "electric_scooter", "lon": -77.05338116666667, "bike_id": "f4477916e62846c3dd4a6463f6c977fe", "fusion_lat": 0.0, "name": "f4477916e62846c3dd4a6463f6c977fe", "is_reserved": 0, "rental_uris": {"android": "https://dc.lft.to/lastmile_qr_scan", "ios": "https://dc.lft.to/lastmile_qr_scan"}, "fusion_lon": 0.0}, {"lat": 38.911015666666664, "is_disabled": 0, "type": "electric_scooter", "lon": -77.0318785, "bike_id": "5528df4fc2b000c6aeb8e52e214abf4c", "fusion_lat": 0.0, "name": "5528df4fc2b000c6aeb8e52e214abf4c", "is_reserved": 0, "rental_uris": {"android": "https://dc.lft.to/lastmile_qr_scan", "ios": "https://dc.lft.to/lastmile_qr_scan"}, "fusion_lon": 0.0}, {"lat": 38.948353, "is_disabled": 0, "type": "electric_bike", "lon": -77.0388745, "bike_id": "1b74f03d0f6232e71a9367e458472e87", "fusion_lat": 0.0, "name": "1b74f03d0f6232e71a9367e458472e87", "is_reserved": 0, "rental_uris": {"android": "https://dc.lft.to/lastmile_qr_scan", "ios": "https://dc.lft.to/lastmile_qr_scan"}, "fusion_lon": 0.0}, {"lat": 38.90680033333334, "is_disabled": 0, "type": "electric_scooter", "lon": -77.02717316666667, "bike_id": "0d397b7f07a9700285926332e86fe06e", "fusion_lat": 0.0, "name": "0d397b7f07a9700285926332e86fe06e", "is_reserved": 0, "rental_uris": {"android": "https://dc.lft.to/lastmile_qr_scan", "ios": "https://dc.lft.to/lastmile_qr_scan"}, "fusion_lon": 0.0}, {"lat": 38.899161, "is_disabled": 0, "type": "electric_scooter", "lon": -76.93381033333333, "bike_id": "a5d6d475ad9a01f036b2d3e9e84b2f27", "fusion_lat": 0.0, "name": "a5d6d475ad9a01f036b2d3e9e84b2f27", "is_reserved": 0, "rental_uris": {"android": "https://dc.lft.to/lastmile_qr_scan", "ios": "https://dc.lft.to/lastmile_qr_scan"}, "fusion_lon": 0.0}, {"lat": 38.863482, "is_disabled": 0, "type": "electric_scooter", "lon": -76.99002316666666, "bike_id": "a9529b8cc6b121206979cb50240265ef", "fusion_lat": 0.0, "name": "a9529b8cc6b121206979cb50240265ef", "is_reserved": 0, "rental_uris": {"android": "https://dc.lft.to/lastmile_qr_scan", "ios": "https://dc.lft.to/lastmile_qr_scan"}, "fusion_lon": 0.0}, {"lat": 38.917901, "is_disabled": 0, "type": "electric_bike", "lon": -76.97188766666666, "bike_id": "8de863600c2f46dadde1ca7f344d5c8e", "fusion_lat": 0.0, "name": "8de863600c2f46dadde1ca7f344d5c8e", "is_reserved": 0, "rental_uris": {"android": "https://dc.lft.to/lastmile_qr_scan", "ios": "https://dc.lft.to/lastmile_qr_scan"}, "fusion_lon": 0.0}, {"lat": 38.906782166666666, "is_disabled": 0, "type": "electric_scooter", "lon": -77.02722433333334, "bike_id": "f9a01d52e3ef9d4960e8c9b47810588e", "fusion_lat": 0.0, "name": "f9a01d52e3ef9d4960e8c9b47810588e", "is_reserved": 0, "rental_uris": {"android": "https://dc.lft.to/lastmile_qr_scan", "ios": "https://dc.lft.to/lastmile_qr_scan"}, "fusion_lon": 0.0}, {"lat": 38.905583166666666, "is_disabled": 0, "type": "electric_scooter", "lon": -77.01776333333333, "bike_id": "c5ae38aff56a11dcbb90c63870a0431d", "fusion_lat": 0.0, "name": "c5ae38aff56a11dcbb90c63870a0431d", "is_reserved": 0, "rental_uris": {"android": "https://dc.lft.to/lastmile_qr_scan", "ios": "https://dc.lft.to/lastmile_qr_scan"}, "fusion_lon": 0.0}, {"lat": 38.9014785, "is_disabled": 0, "type": "electric_scooter", "lon": -77.04058783333333, "bike_id": "35c6e37e4463a38c365e8743832b405a", "fusion_lat": 0.0, "name": "35c6e37e4463a38c365e8743832b405a", "is_reserved": 0, "rental_uris": {"android": "https://dc.lft.to/lastmile_qr_scan", "ios": "https://dc.lft.to/lastmile_qr_scan"}, "fusion_lon": 0.0}, {"lat": 38.920989, "is_disabled": 0, "type": "electric_scooter", "lon": -77.03948116666666, "bike_id": "e44ab233938cabf808310cfa2892240b", "fusion_lat": 0.0, "name": "e44ab233938cabf808310cfa2892240b", "is_reserved": 0, "rental_uris": {"android": "https://dc.lft.to/lastmile_qr_scan", "ios": "https://dc.lft.to/lastmile_qr_scan"}, "fusion_lon": 0.0}, {"lat": 38.88526183333333, "is_disabled": 0, "type": "electric_scooter", "lon": -77.01134283333333, "bike_id": "1b33b28f2d9bae68fe6b711e45b632d7", "fusion_lat": 0.0, "name": "1b33b28f2d9bae68fe6b711e45b632d7", "is_reserved": 0, "rental_uris": {"android": "https://dc.lft.to/lastmile_qr_scan", "ios": "https://dc.lft.to/lastmile_qr_scan"}, "fusion_lon": 0.0}, {"lat": 38.91742216666667, "is_disabled": 0, "type": "electric_scooter", "lon": -77.031834, "bike_id": "734b32a25d7855f5775c0da132a773aa", "fusion_lat": 0.0, "name": "734b32a25d7855f5775c0da132a773aa", "is_reserved": 0, "rental_uris": {"android": "https://dc.lft.to/lastmile_qr_scan", "ios": "https://dc.lft.to/lastmile_qr_scan"}, "fusion_lon": 0.0}, {"lat": 38.931127333333336, "is_disabled": 0, "type": "electric_scooter", "lon": -77.02095566666667, "bike_id": "f3b045fee437cd7f5c7705a0d0ff81b2", "fusion_lat": 0.0, "name": "f3b045fee437cd7f5c7705a0d0ff81b2", "is_reserved": 0, "rental_uris": {"android": "https://dc.lft.to/lastmile_qr_scan", "ios": "https://dc.lft.to/lastmile_qr_scan"}, "fusion_lon": 0.0}, {"lat": 38.86704616666667, "is_disabled": 0, "type": "electric_scooter", "lon": -76.98713566666666, "bike_id": "a5c94d317b74cb43b5f0dee6cdc77a2b", "fusion_lat": 0.0, "name": "a5c94d317b74cb43b5f0dee6cdc77a2b", "is_reserved": 0, "rental_uris": {"android": "https://dc.lft.to/lastmile_qr_scan", "ios": "https://dc.lft.to/lastmile_qr_scan"}, "fusion_lon": 0.0}, {"lat": 38.86170516666667, "is_disabled": 0, "type": "electric_bike", "lon": -77.131476, "bike_id": "89280df12cefca203a3641ee53d9c8e0", "fusion_lat": 0.0, "name": "89280df12cefca203a3641ee53d9c8e0", "is_reserved": 0, "rental_uris": {"android": "https://dc.lft.to/lastmile_qr_scan", "ios": "https://dc.lft.to/lastmile_qr_scan"}, "fusion_lon": 0.0}, {"lat": 38.91795716666667, "is_disabled": 0, "type": "electric_scooter", "lon": -77.0346375, "bike_id": "7c65083aeac595c4c4fcdee66da1e70f", "fusion_lat": 0.0, "name": "7c65083aeac595c4c4fcdee66da1e70f", "is_reserved": 0, "rental_uris": {"android": "https://dc.lft.to/lastmile_qr_scan", "ios": "https://dc.lft.to/lastmile_qr_scan"}, "fusion_lon": 0.0}, {"lat": 38.8973555, "is_disabled": 0, "type": "electric_scooter", "lon": -77.00779833333333, "bike_id": "15ef2b2df76c323bd421423243a9569b", "fusion_lat": 0.0, "name": "15ef2b2df76c323bd421423243a9569b", "is_reserved": 0, "rental_uris": {"android": "https://dc.lft.to/lastmile_qr_scan", "ios": "https://dc.lft.to/lastmile_qr_scan"}, "fusion_lon": 0.0}, {"lat": 38.92288283333333, "is_disabled": 0, "type": "electric_scooter", "lon": -77.04264183333333, "bike_id": "972d90b87c623d0aa385f98891939cb5", "fusion_lat": 0.0, "name": "972d90b87c623d0aa385f98891939cb5", "is_reserved": 0, "rental_uris": {"android": "https://dc.lft.to/lastmile_qr_scan", "ios": "https://dc.lft.to/lastmile_qr_scan"}, "fusion_lon": 0.0}, {"lat": 38.933287666666665, "is_disabled": 0, "type": "electric_scooter", "lon": -77.04372066666667, "bike_id": "16a16ba9025ee2498684283b48d80b52", "fusion_lat": 0.0, "name": "16a16ba9025ee2498684283b48d80b52", "is_reserved": 0, "rental_uris": {"android": "https://dc.lft.to/lastmile_qr_scan", "ios": "https://dc.lft.to/lastmile_qr_scan"}, "fusion_lon": 0.0}, {"lat": 38.90529133333333, "is_disabled": 0, "type": "electric_scooter", "lon": -77.0624185, "bike_id": "c21628086fad945a74209c94d9cafd6c", "fusion_lat": 0.0, "name": "c21628086fad945a74209c94d9cafd6c", "is_reserved": 0, "rental_uris": {"android": "https://dc.lft.to/lastmile_qr_scan", "ios": "https://dc.lft.to/lastmile_qr_scan"}, "fusion_lon": 0.0}, {"lat": 38.90232316666667, "is_disabled": 0, "type": "electric_scooter", "lon": -77.06056666666667, "bike_id": "f9361cd5bdabaa59d720b8bfb27dbccb", "fusion_lat": 0.0, "name": "f9361cd5bdabaa59d720b8bfb27dbccb", "is_reserved": 0, "rental_uris": {"android": "https://dc.lft.to/lastmile_qr_scan", "ios": "https://dc.lft.to/lastmile_qr_scan"}, "fusion_lon": 0.0}, {"lat": 38.919478, "is_disabled": 0, "type": "electric_scooter", "lon": -76.980815, "bike_id": "0c99e0ee344a40ae57c6eac8692f7163", "fusion_lat": 0.0, "name": "0c99e0ee344a40ae57c6eac8692f7163", "is_reserved": 0, "rental_uris": {"android": "https://dc.lft.to/lastmile_qr_scan", "ios": "https://dc.lft.to/lastmile_qr_scan"}, "fusion_lon": 0.0}, {"lat": 38.9595505, "is_disabled": 0, "type": "electric_bike", "lon": -77.10093933333333, "bike_id": "6bc5a3246b78a849f50c5bf12b99b70f", "fusion_lat": 0.0, "name": "6bc5a3246b78a849f50c5bf12b99b70f", "is_reserved": 0, "rental_uris": {"android": "https://dc.lft.to/lastmile_qr_scan", "ios": "https://dc.lft.to/lastmile_qr_scan"}, "fusion_lon": 0.0}, {"lat": 38.871005333333336, "is_disabled": 0, "type": "electric_bike", "lon": -77.01205916666666, "bike_id": "4787609e4d3c9fce5015247b6c7deb1e", "fusion_lat": 0.0, "name": "4787609e4d3c9fce5015247b6c7deb1e", "is_reserved": 0, "rental_uris": {"android": "https://dc.lft.to/lastmile_qr_scan", "ios": "https://dc.lft.to/lastmile_qr_scan"}, "fusion_lon": 0.0}, {"lat": 38.9191535, "is_disabled": 0, "type": "electric_scooter", "lon": -77.048114, "bike_id": "d86da54e922e3b2c5ef86efd93491d0c", "fusion_lat": 0.0, "name": "d86da54e922e3b2c5ef86efd93491d0c", "is_reserved": 0, "rental_uris": {"android": "https://dc.lft.to/lastmile_qr_scan", "ios": "https://dc.lft.to/lastmile_qr_scan"}, "fusion_lon": 0.0}, {"lat": 38.922915, "is_disabled": 0, "type": "electric_scooter", "lon": -77.01998833333333, "bike_id": "5190ec794d98e83f4b91f0e997250adc", "fusion_lat": 0.0, "name": "5190ec794d98e83f4b91f0e997250adc", "is_reserved": 0, "rental_uris": {"android": "https://dc.lft.to/lastmile_qr_scan", "ios": "https://dc.lft.to/lastmile_qr_scan"}, "fusion_lon": 0.0}, {"lat": 38.92071466666667, "is_disabled": 0, "type": "electric_scooter", "lon": -77.043415, "bike_id": "56a6cb59f21e44d44fcf20dfe683e33d", "fusion_lat": 0.0, "name": "56a6cb59f21e44d44fcf20dfe683e33d", "is_reserved": 0, "rental_uris": {"android": "https://dc.lft.to/lastmile_qr_scan", "ios": "https://dc.lft.to/lastmile_qr_scan"}, "fusion_lon": 0.0}, {"lat": 38.884868166666664, "is_disabled": 0, "type": "electric_scooter", "lon": -77.03470183333333, "bike_id": "0d3a0dbd816a76310ed6acb94dbe208c", "fusion_lat": 0.0, "name": "0d3a0dbd816a76310ed6acb94dbe208c", "is_reserved": 0, "rental_uris": {"android": "https://dc.lft.to/lastmile_qr_scan", "ios": "https://dc.lft.to/lastmile_qr_scan"}, "fusion_lon": 0.0}, {"lat": 38.91322016666667, "is_disabled": 0, "type": "electric_scooter", "lon": -77.03264233333333, "bike_id": "e4a122b3430dc4ff435034867c69be0d", "fusion_lat": 0.0, "name": "e4a122b3430dc4ff435034867c69be0d", "is_reserved": 0, "rental_uris": {"android": "https://dc.lft.to/lastmile_qr_scan", "ios": "https://dc.lft.to/lastmile_qr_scan"}, "fusion_lon": 0.0}, {"lat": 38.959559666666664, "is_disabled": 0, "type": "electric_scooter", "lon": -77.033109, "bike_id": "ff4b2922bffd9d52c14fafdd970835f8", "fusion_lat": 0.0, "name": "ff4b2922bffd9d52c14fafdd970835f8", "is_reserved": 0, "rental_uris": {"android": "https://dc.lft.to/lastmile_qr_scan", "ios": "https://dc.lft.to/lastmile_qr_scan"}, "fusion_lon": 0.0}, {"lat": 38.900456, "is_disabled": 0, "type": "electric_scooter", "lon": -77.018802, "bike_id": "c5c20b2690ae5da768938fba808f8af4", "fusion_lat": 0.0, "name": "c5c20b2690ae5da768938fba808f8af4", "is_reserved": 0, "rental_uris": {"android": "https://dc.lft.to/lastmile_qr_scan", "ios": "https://dc.lft.to/lastmile_qr_scan"}, "fusion_lon": 0.0}, {"lat": 38.905454166666665, "is_disabled": 0, "type": "electric_scooter", "lon": -77.057091, "bike_id": "54bc59abf93c19869f4890c9269d98ec", "fusion_lat": 0.0, "name": "54bc59abf93c19869f4890c9269d98ec", "is_reserved": 0, "rental_uris": {"android": "https://dc.lft.to/lastmile_qr_scan", "ios": "https://dc.lft.to/lastmile_qr_scan"}, "fusion_lon": 0.0}, {"lat": 38.916858500000004, "is_disabled": 0, "type": "electric_scooter", "lon": -77.03358, "bike_id": "8868eedb5dbe00da1605d7417de20640", "fusion_lat": 0.0, "name": "8868eedb5dbe00da1605d7417de20640", "is_reserved": 0, "rental_uris": {"android": "https://dc.lft.to/lastmile_qr_scan", "ios": "https://dc.lft.to/lastmile_qr_scan"}, "fusion_lon": 0.0}, {"lat": 38.918004333333336, "is_disabled": 0, "type": "electric_scooter", "lon": -77.03206783333333, "bike_id": "f9ba6828e1854de31446106bf274b6b6", "fusion_lat": 0.0, "name": "f9ba6828e1854de31446106bf274b6b6", "is_reserved": 0, "rental_uris": {"android": "https://dc.lft.to/lastmile_qr_scan", "ios": "https://dc.lft.to/lastmile_qr_scan"}, "fusion_lon": 0.0}, {"lat": 38.91799, "is_disabled": 0, "type": "electric_scooter", "lon": -77.03459066666667, "bike_id": "e1b1c378107b9f67c4b298e694dc73db", "fusion_lat": 0.0, "name": "e1b1c378107b9f67c4b298e694dc73db", "is_reserved": 0, "rental_uris": {"android": "https://dc.lft.to/lastmile_qr_scan", "ios": "https://dc.lft.to/lastmile_qr_scan"}, "fusion_lon": 0.0}, {"lat": 38.913267, "is_disabled": 0, "type": "electric_scooter", "lon": -77.03182466666667, "bike_id": "9d23cf4b3df23d119675511845e2a22e", "fusion_lat": 0.0, "name": "9d23cf4b3df23d119675511845e2a22e", "is_reserved": 0, "rental_uris": {"android": "https://dc.lft.to/lastmile_qr_scan", "ios": "https://dc.lft.to/lastmile_qr_scan"}, "fusion_lon": 0.0}, {"lat": 38.916321833333335, "is_disabled": 0, "type": "electric_scooter", "lon": -77.0232175, "bike_id": "774bfc6b4c92aaa712fd67e3061e52cc", "fusion_lat": 0.0, "name": "774bfc6b4c92aaa712fd67e3061e52cc", "is_reserved": 0, "rental_uris": {"android": "https://dc.lft.to/lastmile_qr_scan", "ios": "https://dc.lft.to/lastmile_qr_scan"}, "fusion_lon": 0.0}, {"lat": 38.93296383333333, "is_disabled": 0, "type": "electric_scooter", "lon": -77.02195566666667, "bike_id": "4a8203ffd00a06b936dc919c8a8b9352", "fusion_lat": 0.0, "name": "4a8203ffd00a06b936dc919c8a8b9352", "is_reserved": 0, "rental_uris": {"android": "https://dc.lft.to/lastmile_qr_scan", "ios": "https://dc.lft.to/lastmile_qr_scan"}, "fusion_lon": 0.0}, {"lat": 38.844441833333335, "is_disabled": 0, "type": "electric_bike", "lon": -77.06830616666667, "bike_id": "9e097f64b3814bd61a002bdfe601ebe8", "fusion_lat": 0.0, "name": "9e097f64b3814bd61a002bdfe601ebe8", "is_reserved": 0, "rental_uris": {"android": "https://dc.lft.to/lastmile_qr_scan", "ios": "https://dc.lft.to/lastmile_qr_scan"}, "fusion_lon": 0.0}, {"lat": 38.923693666666665, "is_disabled": 0, "type": "electric_scooter", "lon": -77.02542016666666, "bike_id": "f431650551bd23356272283ae1065884", "fusion_lat": 0.0, "name": "f431650551bd23356272283ae1065884", "is_reserved": 0, "rental_uris": {"android": "https://dc.lft.to/lastmile_qr_scan", "ios": "https://dc.lft.to/lastmile_qr_scan"}, "fusion_lon": 0.0}, {"lat": 38.951951666666666, "is_disabled": 0, "type": "electric_bike", "lon": -77.023933, "bike_id": "064bc67c31935db0d3464cf6387fe05f", "fusion_lat": 0.0, "name": "064bc67c31935db0d3464cf6387fe05f", "is_reserved": 0, "rental_uris": {"android": "https://dc.lft.to/lastmile_qr_scan", "ios": "https://dc.lft.to/lastmile_qr_scan"}, "fusion_lon": 0.0}, {"lat": 38.9118965, "is_disabled": 0, "type": "electric_scooter", "lon": -77.036371, "bike_id": "a5e280020accd77238fa6b2ef923c06b", "fusion_lat": 0.0, "name": "a5e280020accd77238fa6b2ef923c06b", "is_reserved": 0, "rental_uris": {"android": "https://dc.lft.to/lastmile_qr_scan", "ios": "https://dc.lft.to/lastmile_qr_scan"}, "fusion_lon": 0.0}, {"lat": 38.9398, "is_disabled": 0, "type": "electric_scooter", "lon": -77.02628216666666, "bike_id": "6bcf3247f22a71ea9f8c2e0681f7ec45", "fusion_lat": 0.0, "name": "6bcf3247f22a71ea9f8c2e0681f7ec45", "is_reserved": 0, "rental_uris": {"android": "https://dc.lft.to/lastmile_qr_scan", "ios": "https://dc.lft.to/lastmile_qr_scan"}, "fusion_lon": 0.0}, {"lat": 38.8990025, "is_disabled": 0, "type": "electric_scooter", "lon": -77.072394, "bike_id": "105c781b085cb699494c3f8707e4deac", "fusion_lat": 0.0, "name": "105c781b085cb699494c3f8707e4deac", "is_reserved": 0, "rental_uris": {"android": "https://dc.lft.to/lastmile_qr_scan", "ios": "https://dc.lft.to/lastmile_qr_scan"}, "fusion_lon": 0.0}, {"lat": 38.90811683333333, "is_disabled": 0, "type": "electric_scooter", "lon": -77.0343435, "bike_id": "d8885db249c7b35df330f866ee1b7f6a", "fusion_lat": 0.0, "name": "d8885db249c7b35df330f866ee1b7f6a", "is_reserved": 0, "rental_uris": {"android": "https://dc.lft.to/lastmile_qr_scan", "ios": "https://dc.lft.to/lastmile_qr_scan"}, "fusion_lon": 0.0}, {"lat": 38.92301416666667, "is_disabled": 0, "type": "electric_scooter", "lon": -77.0233515, "bike_id": "2269db3107767c22f07ea4671de69484", "fusion_lat": 0.0, "name": "2269db3107767c22f07ea4671de69484", "is_reserved": 0, "rental_uris": {"android": "https://dc.lft.to/lastmile_qr_scan", "ios": "https://dc.lft.to/lastmile_qr_scan"}, "fusion_lon": 0.0}, {"lat": 38.9040205, "is_disabled": 0, "type": "electric_scooter", "lon": -77.04470616666667, "bike_id": "dc6cc39f7a9962ec85176331732558c5", "fusion_lat": 0.0, "name": "dc6cc39f7a9962ec85176331732558c5", "is_reserved": 0, "rental_uris": {"android": "https://dc.lft.to/lastmile_qr_scan", "ios": "https://dc.lft.to/lastmile_qr_scan"}, "fusion_lon": 0.0}, {"lat": 38.909484, "is_disabled": 0, "type": "electric_scooter", "lon": -77.03467316666666, "bike_id": "7668fad96903b61a5c02504e8fabb25e", "fusion_lat": 0.0, "name": "7668fad96903b61a5c02504e8fabb25e", "is_reserved": 0, "rental_uris": {"android": "https://dc.lft.to/lastmile_qr_scan", "ios": "https://dc.lft.to/lastmile_qr_scan"}, "fusion_lon": 0.0}, {"lat": 38.90026966666667, "is_disabled": 0, "type": "electric_scooter", "lon": -77.03330116666666, "bike_id": "6027ddec008dbf86374b487f2fcef0f1", "fusion_lat": 0.0, "name": "6027ddec008dbf86374b487f2fcef0f1", "is_reserved": 0, "rental_uris": {"android": "https://dc.lft.to/lastmile_qr_scan", "ios": "https://dc.lft.to/lastmile_qr_scan"}, "fusion_lon": 0.0}, {"lat": 38.927328333333335, "is_disabled": 0, "type": "electric_scooter", "lon": -77.02243133333333, "bike_id": "88aa7baac4bcf3b97bbc41c6df3832eb", "fusion_lat": 0.0, "name": "88aa7baac4bcf3b97bbc41c6df3832eb", "is_reserved": 0, "rental_uris": {"android": "https://dc.lft.to/lastmile_qr_scan", "ios": "https://dc.lft.to/lastmile_qr_scan"}, "fusion_lon": 0.0}, {"lat": 38.917552666666666, "is_disabled": 0, "type": "electric_scooter", "lon": -77.03196866666667, "bike_id": "738f6202a3a1b9ed27412b8b183cab21", "fusion_lat": 0.0, "name": "738f6202a3a1b9ed27412b8b183cab21", "is_reserved": 0, "rental_uris": {"android": "https://dc.lft.to/lastmile_qr_scan", "ios": "https://dc.lft.to/lastmile_qr_scan"}, "fusion_lon": 0.0}, {"lat": 38.933857833333334, "is_disabled": 0, "type": "electric_scooter", "lon": -77.0325145, "bike_id": "262217b750e550bad409ba914bf86c9f", "fusion_lat": 0.0, "name": "262217b750e550bad409ba914bf86c9f", "is_reserved": 0, "rental_uris": {"android": "https://dc.lft.to/lastmile_qr_scan", "ios": "https://dc.lft.to/lastmile_qr_scan"}, "fusion_lon": 0.0}, {"lat": 38.907176, "is_disabled": 0, "type": "electric_scooter", "lon": -77.04503933333334, "bike_id": "65a1b911226e2b05ad0a837f40c66efc", "fusion_lat": 0.0, "name": "65a1b911226e2b05ad0a837f40c66efc", "is_reserved": 0, "rental_uris": {"android": "https://dc.lft.to/lastmile_qr_scan", "ios": "https://dc.lft.to/lastmile_qr_scan"}, "fusion_lon": 0.0}, {"lat": 38.91700566666667, "is_disabled": 0, "type": "electric_scooter", "lon": -77.03749433333333, "bike_id": "5818f74c334660d07b798a157c2663ee", "fusion_lat": 0.0, "name": "5818f74c334660d07b798a157c2663ee", "is_reserved": 0, "rental_uris": {"android": "https://dc.lft.to/lastmile_qr_scan", "ios": "https://dc.lft.to/lastmile_qr_scan"}, "fusion_lon": 0.0}, {"lat": 38.921622, "is_disabled": 0, "type": "electric_scooter", "lon": -77.046967, "bike_id": "0716b5dbcb6a4adb5f58e7c93a2fce85", "fusion_lat": 0.0, "name": "0716b5dbcb6a4adb5f58e7c93a2fce85", "is_reserved": 0, "rental_uris": {"android": "https://dc.lft.to/lastmile_qr_scan", "ios": "https://dc.lft.to/lastmile_qr_scan"}, "fusion_lon": 0.0}, {"lat": 38.92699483333333, "is_disabled": 0, "type": "electric_scooter", "lon": -77.01508116666666, "bike_id": "306c70adf8adec2f79f2b06a286b5bd6", "fusion_lat": 0.0, "name": "306c70adf8adec2f79f2b06a286b5bd6", "is_reserved": 0, "rental_uris": {"android": "https://dc.lft.to/lastmile_qr_scan", "ios": "https://dc.lft.to/lastmile_qr_scan"}, "fusion_lon": 0.0}, {"lat": 38.907264166666664, "is_disabled": 0, "type": "electric_scooter", "lon": -77.02978016666667, "bike_id": "8b0232cfe6c227accfdb62d045cb7801", "fusion_lat": 0.0, "name": "8b0232cfe6c227accfdb62d045cb7801", "is_reserved": 0, "rental_uris": {"android": "https://dc.lft.to/lastmile_qr_scan", "ios": "https://dc.lft.to/lastmile_qr_scan"}, "fusion_lon": 0.0}, {"lat": 38.90726516666667, "is_disabled": 0, "type": "electric_scooter", "lon": -77.03438816666667, "bike_id": "959b8887df283a02327ef05a14111be9", "fusion_lat": 0.0, "name": "959b8887df283a02327ef05a14111be9", "is_reserved": 0, "rental_uris": {"android": "https://dc.lft.to/lastmile_qr_scan", "ios": "https://dc.lft.to/lastmile_qr_scan"}, "fusion_lon": 0.0}, {"lat": 38.9028965, "is_disabled": 0, "type": "electric_scooter", "lon": -77.04393383333333, "bike_id": "446d103e0346f66b03e1210b9f854a63", "fusion_lat": 0.0, "name": "446d103e0346f66b03e1210b9f854a63", "is_reserved": 0, "rental_uris": {"android": "https://dc.lft.to/lastmile_qr_scan", "ios": "https://dc.lft.to/lastmile_qr_scan"}, "fusion_lon": 0.0}, {"lat": 38.93111866666667, "is_disabled": 0, "type": "electric_scooter", "lon": -77.02086566666667, "bike_id": "eff6df94557fb469b0967511536101d7", "fusion_lat": 0.0, "name": "eff6df94557fb469b0967511536101d7", "is_reserved": 0, "rental_uris": {"android": "https://dc.lft.to/lastmile_qr_scan", "ios": "https://dc.lft.to/lastmile_qr_scan"}, "fusion_lon": 0.0}, {"lat": 38.92774933333333, "is_disabled": 0, "type": "electric_scooter", "lon": -77.02705333333333, "bike_id": "ac2a62a259ba52b5d0a5bcdaf6100cd0", "fusion_lat": 0.0, "name": "ac2a62a259ba52b5d0a5bcdaf6100cd0", "is_reserved": 0, "rental_uris": {"android": "https://dc.lft.to/lastmile_qr_scan", "ios": "https://dc.lft.to/lastmile_qr_scan"}, "fusion_lon": 0.0}, {"lat": 38.90737016666667, "is_disabled": 0, "type": "electric_scooter", "lon": -77.027197, "bike_id": "3c270f369f277895c2141e4d8005cc96", "fusion_lat": 0.0, "name": "3c270f369f277895c2141e4d8005cc96", "is_reserved": 0, "rental_uris": {"android": "https://dc.lft.to/lastmile_qr_scan", "ios": "https://dc.lft.to/lastmile_qr_scan"}, "fusion_lon": 0.0}, {"lat": 38.886028, "is_disabled": 0, "type": "electric_scooter", "lon": -77.0220435, "bike_id": "822a1b8f835bac4abca6b72787e07d8b", "fusion_lat": 0.0, "name": "822a1b8f835bac4abca6b72787e07d8b", "is_reserved": 0, "rental_uris": {"android": "https://dc.lft.to/lastmile_qr_scan", "ios": "https://dc.lft.to/lastmile_qr_scan"}, "fusion_lon": 0.0}, {"lat": 38.92203466666667, "is_disabled": 0, "type": "electric_scooter", "lon": -77.0377265, "bike_id": "47cb731edf2fe7b90a6550e963e6ba3f", "fusion_lat": 0.0, "name": "47cb731edf2fe7b90a6550e963e6ba3f", "is_reserved": 0, "rental_uris": {"android": "https://dc.lft.to/lastmile_qr_scan", "ios": "https://dc.lft.to/lastmile_qr_scan"}, "fusion_lon": 0.0}, {"lat": 38.915552166666664, "is_disabled": 0, "type": "electric_scooter", "lon": -77.04179616666667, "bike_id": "6bd1d51c53f2197132b2e9b22fb64fff", "fusion_lat": 0.0, "name": "6bd1d51c53f2197132b2e9b22fb64fff", "is_reserved": 0, "rental_uris": {"android": "https://dc.lft.to/lastmile_qr_scan", "ios": "https://dc.lft.to/lastmile_qr_scan"}, "fusion_lon": 0.0}, {"lat": 38.866985166666666, "is_disabled": 0, "type": "electric_scooter", "lon": -76.98710966666667, "bike_id": "de5a5d1c2f3504c0adc32af514a7695a", "fusion_lat": 0.0, "name": "de5a5d1c2f3504c0adc32af514a7695a", "is_reserved": 0, "rental_uris": {"android": "https://dc.lft.to/lastmile_qr_scan", "ios": "https://dc.lft.to/lastmile_qr_scan"}, "fusion_lon": 0.0}, {"lat": 38.916864833333335, "is_disabled": 0, "type": "electric_scooter", "lon": -77.02953183333334, "bike_id": "da0380468a7e40fce950c0cb9603fc68", "fusion_lat": 0.0, "name": "da0380468a7e40fce950c0cb9603fc68", "is_reserved": 0, "rental_uris": {"android": "https://dc.lft.to/lastmile_qr_scan", "ios": "https://dc.lft.to/lastmile_qr_scan"}, "fusion_lon": 0.0}, {"lat": 38.884448166666665, "is_disabled": 0, "type": "electric_scooter", "lon": -77.000494, "bike_id": "2ec74f886d094ba7a1e1a7692069d7f5", "fusion_lat": 0.0, "name": "2ec74f886d094ba7a1e1a7692069d7f5", "is_reserved": 0, "rental_uris": {"android": "https://dc.lft.to/lastmile_qr_scan", "ios": "https://dc.lft.to/lastmile_qr_scan"}, "fusion_lon": 0.0}, {"lat": 38.928540166666664, "is_disabled": 0, "type": "electric_scooter", "lon": -77.01417383333333, "bike_id": "a724aaa00d6793cbdf584a0d83f2dbfe", "fusion_lat": 0.0, "name": "a724aaa00d6793cbdf584a0d83f2dbfe", "is_reserved": 0, "rental_uris": {"android": "https://dc.lft.to/lastmile_qr_scan", "ios": "https://dc.lft.to/lastmile_qr_scan"}, "fusion_lon": 0.0}, {"lat": 38.9004975, "is_disabled": 0, "type": "electric_scooter", "lon": -77.00205083333333, "bike_id": "8f7e9ae56d91fa09f29e7a6ac94326fa", "fusion_lat": 0.0, "name": "8f7e9ae56d91fa09f29e7a6ac94326fa", "is_reserved": 0, "rental_uris": {"android": "https://dc.lft.to/lastmile_qr_scan", "ios": "https://dc.lft.to/lastmile_qr_scan"}, "fusion_lon": 0.0}, {"lat": 38.9196035, "is_disabled": 0, "type": "electric_scooter", "lon": -77.03208516666666, "bike_id": "fbcd7dd9953f395d6a709ddb5b5005b4", "fusion_lat": 0.0, "name": "fbcd7dd9953f395d6a709ddb5b5005b4", "is_reserved": 0, "rental_uris": {"android": "https://dc.lft.to/lastmile_qr_scan", "ios": "https://dc.lft.to/lastmile_qr_scan"}, "fusion_lon": 0.0}, {"lat": 38.87239816666667, "is_disabled": 0, "type": "electric_scooter", "lon": -76.9772825, "bike_id": "4f9c8b89d88647928cfb45e3b390c17b", "fusion_lat": 0.0, "name": "4f9c8b89d88647928cfb45e3b390c17b", "is_reserved": 0, "rental_uris": {"android": "https://dc.lft.to/lastmile_qr_scan", "ios": "https://dc.lft.to/lastmile_qr_scan"}, "fusion_lon": 0.0}, {"lat": 38.908563, "is_disabled": 0, "type": "electric_scooter", "lon": -77.04770933333333, "bike_id": "42b39627a3a9ac1daa2064e0e8cf843b", "fusion_lat": 0.0, "name": "42b39627a3a9ac1daa2064e0e8cf843b", "is_reserved": 0, "rental_uris": {"android": "https://dc.lft.to/lastmile_qr_scan", "ios": "https://dc.lft.to/lastmile_qr_scan"}, "fusion_lon": 0.0}, {"lat": 38.917079, "is_disabled": 0, "type": "electric_scooter", "lon": -77.033523, "bike_id": "b556ed84e3ece1b3ee0c5747150afd83", "fusion_lat": 0.0, "name": "b556ed84e3ece1b3ee0c5747150afd83", "is_reserved": 0, "rental_uris": {"android": "https://dc.lft.to/lastmile_qr_scan", "ios": "https://dc.lft.to/lastmile_qr_scan"}, "fusion_lon": 0.0}, {"lat": 38.912906166666666, "is_disabled": 0, "type": "electric_bike", "lon": -77.04482716666666, "bike_id": "ebad9cc7f5808209dbc77a6992538bd7", "fusion_lat": 0.0, "name": "ebad9cc7f5808209dbc77a6992538bd7", "is_reserved": 0, "rental_uris": {"android": "https://dc.lft.to/lastmile_qr_scan", "ios": "https://dc.lft.to/lastmile_qr_scan"}, "fusion_lon": 0.0}, {"lat": 38.944058166666665, "is_disabled": 0, "type": "electric_scooter", "lon": -77.02648966666666, "bike_id": "a8e24b7fb8c64dbe4248f5b395c23283", "fusion_lat": 0.0, "name": "a8e24b7fb8c64dbe4248f5b395c23283", "is_reserved": 0, "rental_uris": {"android": "https://dc.lft.to/lastmile_qr_scan", "ios": "https://dc.lft.to/lastmile_qr_scan"}, "fusion_lon": 0.0}, {"lat": 38.889261166666664, "is_disabled": 0, "type": "electric_scooter", "lon": -76.973798, "bike_id": "f39febb444f548fcbb61e5c8884af046", "fusion_lat": 0.0, "name": "f39febb444f548fcbb61e5c8884af046", "is_reserved": 0, "rental_uris": {"android": "https://dc.lft.to/lastmile_qr_scan", "ios": "https://dc.lft.to/lastmile_qr_scan"}, "fusion_lon": 0.0}, {"lat": 38.92290166666667, "is_disabled": 0, "type": "electric_scooter", "lon": -77.04260166666667, "bike_id": "c8cb9381c816265dde5178ba0e8dd27f", "fusion_lat": 0.0, "name": "c8cb9381c816265dde5178ba0e8dd27f", "is_reserved": 0, "rental_uris": {"android": "https://dc.lft.to/lastmile_qr_scan", "ios": "https://dc.lft.to/lastmile_qr_scan"}, "fusion_lon": 0.0}, {"lat": 38.91686083333333, "is_disabled": 0, "type": "electric_scooter", "lon": -77.04145766666667, "bike_id": "5129edcd71047afb9f4d6cf7e958263f", "fusion_lat": 0.0, "name": "5129edcd71047afb9f4d6cf7e958263f", "is_reserved": 0, "rental_uris": {"android": "https://dc.lft.to/lastmile_qr_scan", "ios": "https://dc.lft.to/lastmile_qr_scan"}, "fusion_lon": 0.0}, {"lat": 38.929757333333335, "is_disabled": 0, "type": "electric_scooter", "lon": -77.013022, "bike_id": "6d463c41ade693465fdf19bafb60d10c", "fusion_lat": 0.0, "name": "6d463c41ade693465fdf19bafb60d10c", "is_reserved": 0, "rental_uris": {"android": "https://dc.lft.to/lastmile_qr_scan", "ios": "https://dc.lft.to/lastmile_qr_scan"}, "fusion_lon": 0.0}, {"lat": 38.906558, "is_disabled": 0, "type": "electric_scooter", "lon": -77.0386755, "bike_id": "6bf398b9368a81cb534acf379c488554", "fusion_lat": 0.0, "name": "6bf398b9368a81cb534acf379c488554", "is_reserved": 0, "rental_uris": {"android": "https://dc.lft.to/lastmile_qr_scan", "ios": "https://dc.lft.to/lastmile_qr_scan"}, "fusion_lon": 0.0}, {"lat": 38.871407, "is_disabled": 0, "type": "electric_bike", "lon": -76.93704133333334, "bike_id": "5664584279af1423da575d61ea7c4d7a", "fusion_lat": 0.0, "name": "5664584279af1423da575d61ea7c4d7a", "is_reserved": 0, "rental_uris": {"android": "https://dc.lft.to/lastmile_qr_scan", "ios": "https://dc.lft.to/lastmile_qr_scan"}, "fusion_lon": 0.0}, {"lat": 38.9204775, "is_disabled": 0, "type": "electric_scooter", "lon": -77.03402216666667, "bike_id": "84f1d2a879342bcd52c5807d48aba6b3", "fusion_lat": 0.0, "name": "84f1d2a879342bcd52c5807d48aba6b3", "is_reserved": 0, "rental_uris": {"android": "https://dc.lft.to/lastmile_qr_scan", "ios": "https://dc.lft.to/lastmile_qr_scan"}, "fusion_lon": 0.0}, {"lat": 38.93062316666666, "is_disabled": 0, "type": "electric_bike", "lon": -77.0230265, "bike_id": "65a8c734598c3093bde85e8ec83d15d3", "fusion_lat": 0.0, "name": "65a8c734598c3093bde85e8ec83d15d3", "is_reserved": 0, "rental_uris": {"android": "https://dc.lft.to/lastmile_qr_scan", "ios": "https://dc.lft.to/lastmile_qr_scan"}, "fusion_lon": 0.0}, {"lat": 38.922386333333336, "is_disabled": 0, "type": "electric_scooter", "lon": -77.0300935, "bike_id": "d957a356eba28ee9e4ea078061d482aa", "fusion_lat": 0.0, "name": "d957a356eba28ee9e4ea078061d482aa", "is_reserved": 0, "rental_uris": {"android": "https://dc.lft.to/lastmile_qr_scan", "ios": "https://dc.lft.to/lastmile_qr_scan"}, "fusion_lon": 0.0}, {"lat": 38.96139983333333, "is_disabled": 0, "type": "electric_scooter", "lon": -77.0223675, "bike_id": "7b03683704122d16a00d6be623dfce1d", "fusion_lat": 0.0, "name": "7b03683704122d16a00d6be623dfce1d", "is_reserved": 0, "rental_uris": {"android": "https://dc.lft.to/lastmile_qr_scan", "ios": "https://dc.lft.to/lastmile_qr_scan"}, "fusion_lon": 0.0}, {"lat": 38.899442, "is_disabled": 0, "type": "electric_scooter", "lon": -77.0411775, "bike_id": "cd802f11c72f5cdaccd3461590d57cab", "fusion_lat": 0.0, "name": "cd802f11c72f5cdaccd3461590d57cab", "is_reserved": 0, "rental_uris": {"android": "https://dc.lft.to/lastmile_qr_scan", "ios": "https://dc.lft.to/lastmile_qr_scan"}, "fusion_lon": 0.0}, {"lat": 38.85708233333333, "is_disabled": 0, "type": "electric_bike", "lon": -76.97144966666667, "bike_id": "65b1d114211d39c8e100dfa7a6edb9c7", "fusion_lat": 0.0, "name": "65b1d114211d39c8e100dfa7a6edb9c7", "is_reserved": 0, "rental_uris": {"android": "https://dc.lft.to/lastmile_qr_scan", "ios": "https://dc.lft.to/lastmile_qr_scan"}, "fusion_lon": 0.0}, {"lat": 38.91622533333334, "is_disabled": 0, "type": "electric_scooter", "lon": -77.02288016666667, "bike_id": "5050aaf5568d61052c1c3d349040b4fa", "fusion_lat": 0.0, "name": "5050aaf5568d61052c1c3d349040b4fa", "is_reserved": 0, "rental_uris": {"android": "https://dc.lft.to/lastmile_qr_scan", "ios": "https://dc.lft.to/lastmile_qr_scan"}, "fusion_lon": 0.0}, {"lat": 38.91751516666667, "is_disabled": 0, "type": "electric_scooter", "lon": -77.04154683333333, "bike_id": "e141a4ccffd7ed4c86a99200ab6a3f18", "fusion_lat": 0.0, "name": "e141a4ccffd7ed4c86a99200ab6a3f18", "is_reserved": 0, "rental_uris": {"android": "https://dc.lft.to/lastmile_qr_scan", "ios": "https://dc.lft.to/lastmile_qr_scan"}, "fusion_lon": 0.0}, {"lat": 38.9002765, "is_disabled": 0, "type": "electric_scooter", "lon": -76.9897755, "bike_id": "710dc8fbbca2a647628cc1c23c21001b", "fusion_lat": 0.0, "name": "710dc8fbbca2a647628cc1c23c21001b", "is_reserved": 0, "rental_uris": {"android": "https://dc.lft.to/lastmile_qr_scan", "ios": "https://dc.lft.to/lastmile_qr_scan"}, "fusion_lon": 0.0}, {"lat": 38.93862, "is_disabled": 0, "type": "electric_scooter", "lon": -77.03086733333333, "bike_id": "3fa737c232c5dc18a407b57d89b3cbac", "fusion_lat": 0.0, "name": "3fa737c232c5dc18a407b57d89b3cbac", "is_reserved": 0, "rental_uris": {"android": "https://dc.lft.to/lastmile_qr_scan", "ios": "https://dc.lft.to/lastmile_qr_scan"}, "fusion_lon": 0.0}, {"lat": 38.916811833333334, "is_disabled": 0, "type": "electric_scooter", "lon": -77.03746283333334, "bike_id": "89d84f51662144d402b6f164d1d2869d", "fusion_lat": 0.0, "name": "89d84f51662144d402b6f164d1d2869d", "is_reserved": 0, "rental_uris": {"android": "https://dc.lft.to/lastmile_qr_scan", "ios": "https://dc.lft.to/lastmile_qr_scan"}, "fusion_lon": 0.0}, {"lat": 38.900062, "is_disabled": 0, "type": "electric_bike", "lon": -77.01521733333334, "bike_id": "6b963394ecff01c18d3e7b7b9ed77d3d", "fusion_lat": 0.0, "name": "6b963394ecff01c18d3e7b7b9ed77d3d", "is_reserved": 0, "rental_uris": {"android": "https://dc.lft.to/lastmile_qr_scan", "ios": "https://dc.lft.to/lastmile_qr_scan"}, "fusion_lon": 0.0}, {"lat": 38.93873333333333, "is_disabled": 0, "type": "electric_scooter", "lon": -77.03134766666666, "bike_id": "012aa4be95f7f5682b67338e31689e92", "fusion_lat": 0.0, "name": "012aa4be95f7f5682b67338e31689e92", "is_reserved": 0, "rental_uris": {"android": "https://dc.lft.to/lastmile_qr_scan", "ios": "https://dc.lft.to/lastmile_qr_scan"}, "fusion_lon": 0.0}, {"lat": 38.86655966666667, "is_disabled": 0, "type": "electric_scooter", "lon": -76.98888533333333, "bike_id": "49bfb4688d248752ca1335b42c722f9d", "fusion_lat": 0.0, "name": "49bfb4688d248752ca1335b42c722f9d", "is_reserved": 0, "rental_uris": {"android": "https://dc.lft.to/lastmile_qr_scan", "ios": "https://dc.lft.to/lastmile_qr_scan"}, "fusion_lon": 0.0}, {"lat": 38.88021066666667, "is_disabled": 0, "type": "electric_scooter", "lon": -76.96013133333334, "bike_id": "eba4b5eb9dc420dd62f0e1838a81f91e", "fusion_lat": 0.0, "name": "eba4b5eb9dc420dd62f0e1838a81f91e", "is_reserved": 0, "rental_uris": {"android": "https://dc.lft.to/lastmile_qr_scan", "ios": "https://dc.lft.to/lastmile_qr_scan"}, "fusion_lon": 0.0}, {"lat": 38.89032866666667, "is_disabled": 0, "type": "electric_scooter", "lon": -76.93760033333334, "bike_id": "7b8eaa15c454ba1d1b01002d01e468cf", "fusion_lat": 0.0, "name": "7b8eaa15c454ba1d1b01002d01e468cf", "is_reserved": 0, "rental_uris": {"android": "https://dc.lft.to/lastmile_qr_scan", "ios": "https://dc.lft.to/lastmile_qr_scan"}, "fusion_lon": 0.0}, {"lat": 38.93296983333333, "is_disabled": 0, "type": "electric_scooter", "lon": -77.04535366666667, "bike_id": "736c1de5cf26d5f7204d7e604ec860c9", "fusion_lat": 0.0, "name": "736c1de5cf26d5f7204d7e604ec860c9", "is_reserved": 0, "rental_uris": {"android": "https://dc.lft.to/lastmile_qr_scan", "ios": "https://dc.lft.to/lastmile_qr_scan"}, "fusion_lon": 0.0}, {"lat": 38.92868983333334, "is_disabled": 0, "type": "electric_scooter", "lon": -77.0370855, "bike_id": "eee38865c15b0f805048e7af18b70cc2", "fusion_lat": 0.0, "name": "eee38865c15b0f805048e7af18b70cc2", "is_reserved": 0, "rental_uris": {"android": "https://dc.lft.to/lastmile_qr_scan", "ios": "https://dc.lft.to/lastmile_qr_scan"}, "fusion_lon": 0.0}, {"lat": 38.91461133333333, "is_disabled": 0, "type": "electric_scooter", "lon": -77.014373, "bike_id": "667a711e8551f00d07fa68d604aab8d7", "fusion_lat": 0.0, "name": "667a711e8551f00d07fa68d604aab8d7", "is_reserved": 0, "rental_uris": {"android": "https://dc.lft.to/lastmile_qr_scan", "ios": "https://dc.lft.to/lastmile_qr_scan"}, "fusion_lon": 0.0}, {"lat": 38.8820785, "is_disabled": 0, "type": "electric_scooter", "lon": -76.9892475, "bike_id": "db363f3eb8c1c8ef6188e05f2bf59397", "fusion_lat": 0.0, "name": "db363f3eb8c1c8ef6188e05f2bf59397", "is_reserved": 0, "rental_uris": {"android": "https://dc.lft.to/lastmile_qr_scan", "ios": "https://dc.lft.to/lastmile_qr_scan"}, "fusion_lon": 0.0}, {"lat": 38.87854983333333, "is_disabled": 0, "type": "electric_scooter", "lon": -77.0176305, "bike_id": "e1079a9095c675a8ba482e22b51f9405", "fusion_lat": 0.0, "name": "e1079a9095c675a8ba482e22b51f9405", "is_reserved": 0, "rental_uris": {"android": "https://dc.lft.to/lastmile_qr_scan", "ios": "https://dc.lft.to/lastmile_qr_scan"}, "fusion_lon": 0.0}, {"lat": 38.870772333333335, "is_disabled": 0, "type": "electric_bike", "lon": -76.97837366666667, "bike_id": "ff35136cae216aeccc2d42a699b397ec", "fusion_lat": 0.0, "name": "ff35136cae216aeccc2d42a699b397ec", "is_reserved": 0, "rental_uris": {"android": "https://dc.lft.to/lastmile_qr_scan", "ios": "https://dc.lft.to/lastmile_qr_scan"}, "fusion_lon": 0.0}, {"lat": 38.92055533333333, "is_disabled": 0, "type": "electric_scooter", "lon": -77.04193233333334, "bike_id": "3f9d543b8bf6ac2766ad49f31fa3d29c", "fusion_lat": 0.0, "name": "3f9d543b8bf6ac2766ad49f31fa3d29c", "is_reserved": 0, "rental_uris": {"android": "https://dc.lft.to/lastmile_qr_scan", "ios": "https://dc.lft.to/lastmile_qr_scan"}, "fusion_lon": 0.0}, {"lat": 38.896251166666666, "is_disabled": 0, "type": "electric_scooter", "lon": -77.0316635, "bike_id": "131c73e107ace4fa5897a9fd37e613b2", "fusion_lat": 0.0, "name": "131c73e107ace4fa5897a9fd37e613b2", "is_reserved": 0, "rental_uris": {"android": "https://dc.lft.to/lastmile_qr_scan", "ios": "https://dc.lft.to/lastmile_qr_scan"}, "fusion_lon": 0.0}, {"lat": 38.89617483333333, "is_disabled": 0, "type": "electric_scooter", "lon": -77.0316835, "bike_id": "8899bd06ba6d7dec209443bd71b700e3", "fusion_lat": 0.0, "name": "8899bd06ba6d7dec209443bd71b700e3", "is_reserved": 0, "rental_uris": {"android": "https://dc.lft.to/lastmile_qr_scan", "ios": "https://dc.lft.to/lastmile_qr_scan"}, "fusion_lon": 0.0}, {"lat": 38.907272666666664, "is_disabled": 0, "type": "electric_bike", "lon": -77.01074833333334, "bike_id": "15142dca652f243d41c1e4e4c151875d", "fusion_lat": 0.0, "name": "15142dca652f243d41c1e4e4c151875d", "is_reserved": 0, "rental_uris": {"android": "https://dc.lft.to/lastmile_qr_scan", "ios": "https://dc.lft.to/lastmile_qr_scan"}, "fusion_lon": 0.0}, {"lat": 38.901511666666664, "is_disabled": 0, "type": "electric_scooter", "lon": -77.03277016666667, "bike_id": "444d6da870e3c14d7ac6f62950210449", "fusion_lat": 0.0, "name": "444d6da870e3c14d7ac6f62950210449", "is_reserved": 0, "rental_uris": {"android": "https://dc.lft.to/lastmile_qr_scan", "ios": "https://dc.lft.to/lastmile_qr_scan"}, "fusion_lon": 0.0}, {"lat": 38.861027166666666, "is_disabled": 0, "type": "electric_scooter", "lon": -76.98887416666666, "bike_id": "e870e12e128235e9e0f44582e5d93976", "fusion_lat": 0.0, "name": "e870e12e128235e9e0f44582e5d93976", "is_reserved": 0, "rental_uris": {"android": "https://dc.lft.to/lastmile_qr_scan", "ios": "https://dc.lft.to/lastmile_qr_scan"}, "fusion_lon": 0.0}, {"lat": 38.917566, "is_disabled": 0, "type": "electric_scooter", "lon": -77.01162516666666, "bike_id": "b2a1f7fe1e516509a31272718c3c4e0b", "fusion_lat": 0.0, "name": "b2a1f7fe1e516509a31272718c3c4e0b", "is_reserved": 0, "rental_uris": {"android": "https://dc.lft.to/lastmile_qr_scan", "ios": "https://dc.lft.to/lastmile_qr_scan"}, "fusion_lon": 0.0}, {"lat": 38.96611033333333, "is_disabled": 0, "type": "electric_scooter", "lon": -77.02056533333334, "bike_id": "db2827496eba4d742f7c0c51f7af12be", "fusion_lat": 0.0, "name": "db2827496eba4d742f7c0c51f7af12be", "is_reserved": 0, "rental_uris": {"android": "https://dc.lft.to/lastmile_qr_scan", "ios": "https://dc.lft.to/lastmile_qr_scan"}, "fusion_lon": 0.0}, {"lat": 38.90725, "is_disabled": 0, "type": "electric_scooter", "lon": -77.0297005, "bike_id": "649ae8019c743249bae38c49d735b77b", "fusion_lat": 0.0, "name": "649ae8019c743249bae38c49d735b77b", "is_reserved": 0, "rental_uris": {"android": "https://dc.lft.to/lastmile_qr_scan", "ios": "https://dc.lft.to/lastmile_qr_scan"}, "fusion_lon": 0.0}, {"lat": 38.91271883333334, "is_disabled": 0, "type": "electric_scooter", "lon": -77.018415, "bike_id": "ee80700b893bb7cd9a5ccc26c0dde830", "fusion_lat": 0.0, "name": "ee80700b893bb7cd9a5ccc26c0dde830", "is_reserved": 0, "rental_uris": {"android": "https://dc.lft.to/lastmile_qr_scan", "ios": "https://dc.lft.to/lastmile_qr_scan"}, "fusion_lon": 0.0}, {"lat": 38.94038833333333, "is_disabled": 0, "type": "electric_bike", "lon": -76.98816633333334, "bike_id": "ae8f62bb54f48333336825db3107c8a2", "fusion_lat": 0.0, "name": "ae8f62bb54f48333336825db3107c8a2", "is_reserved": 0, "rental_uris": {"android": "https://dc.lft.to/lastmile_qr_scan", "ios": "https://dc.lft.to/lastmile_qr_scan"}, "fusion_lon": 0.0}, {"lat": 38.95632116666667, "is_disabled": 0, "type": "electric_bike", "lon": -77.02298566666667, "bike_id": "8d2b595c86faa69c8f1e1e91086910d2", "fusion_lat": 0.0, "name": "8d2b595c86faa69c8f1e1e91086910d2", "is_reserved": 0, "rental_uris": {"android": "https://dc.lft.to/lastmile_qr_scan", "ios": "https://dc.lft.to/lastmile_qr_scan"}, "fusion_lon": 0.0}, {"lat": 38.92068483333333, "is_disabled": 0, "type": "electric_scooter", "lon": -77.02538416666667, "bike_id": "fb4921bc68d06b5e1af983ed4753a39e", "fusion_lat": 0.0, "name": "fb4921bc68d06b5e1af983ed4753a39e", "is_reserved": 0, "rental_uris": {"android": "https://dc.lft.to/lastmile_qr_scan", "ios": "https://dc.lft.to/lastmile_qr_scan"}, "fusion_lon": 0.0}, {"lat": 38.86653166666667, "is_disabled": 0, "type": "electric_scooter", "lon": -76.988876, "bike_id": "7c370997284b952637eb67f40551f87c", "fusion_lat": 0.0, "name": "7c370997284b952637eb67f40551f87c", "is_reserved": 0, "rental_uris": {"android": "https://dc.lft.to/lastmile_qr_scan", "ios": "https://dc.lft.to/lastmile_qr_scan"}, "fusion_lon": 0.0}, {"lat": 38.88494816666667, "is_disabled": 0, "type": "electric_scooter", "lon": -77.00707366666667, "bike_id": "4bd0182d1e43ccdad8faad9ddc34c188", "fusion_lat": 0.0, "name": "4bd0182d1e43ccdad8faad9ddc34c188", "is_reserved": 0, "rental_uris": {"android": "https://dc.lft.to/lastmile_qr_scan", "ios": "https://dc.lft.to/lastmile_qr_scan"}, "fusion_lon": 0.0}, {"lat": 38.908454666666664, "is_disabled": 0, "type": "electric_scooter", "lon": -77.02057833333333, "bike_id": "c4e12208636cb90e0f0ea22e285887f3", "fusion_lat": 0.0, "name": "c4e12208636cb90e0f0ea22e285887f3", "is_reserved": 0, "rental_uris": {"android": "https://dc.lft.to/lastmile_qr_scan", "ios": "https://dc.lft.to/lastmile_qr_scan"}, "fusion_lon": 0.0}, {"lat": 38.9142985, "is_disabled": 0, "type": "electric_scooter", "lon": -77.0321395, "bike_id": "ee79138fcec9348ecd44d1bec64b192c", "fusion_lat": 0.0, "name": "ee79138fcec9348ecd44d1bec64b192c", "is_reserved": 0, "rental_uris": {"android": "https://dc.lft.to/lastmile_qr_scan", "ios": "https://dc.lft.to/lastmile_qr_scan"}, "fusion_lon": 0.0}, {"lat": 38.902429833333336, "is_disabled": 0, "type": "electric_scooter", "lon": -77.01753283333333, "bike_id": "9a57046da3efdee970fe45e314f3fdff", "fusion_lat": 0.0, "name": "9a57046da3efdee970fe45e314f3fdff", "is_reserved": 0, "rental_uris": {"android": "https://dc.lft.to/lastmile_qr_scan", "ios": "https://dc.lft.to/lastmile_qr_scan"}, "fusion_lon": 0.0}, {"lat": 38.80059933333333, "is_disabled": 0, "type": "electric_bike", "lon": -77.07116366666666, "bike_id": "f960785414c6660079eb900077f19ab2", "fusion_lat": 0.0, "name": "f960785414c6660079eb900077f19ab2", "is_reserved": 0, "rental_uris": {"android": "https://dc.lft.to/lastmile_qr_scan", "ios": "https://dc.lft.to/lastmile_qr_scan"}, "fusion_lon": 0.0}, {"lat": 38.9237375, "is_disabled": 0, "type": "electric_scooter", "lon": -77.05755316666666, "bike_id": "25ddfe6631083fa6391b7598abc3b0a3", "fusion_lat": 0.0, "name": "25ddfe6631083fa6391b7598abc3b0a3", "is_reserved": 0, "rental_uris": {"android": "https://dc.lft.to/lastmile_qr_scan", "ios": "https://dc.lft.to/lastmile_qr_scan"}, "fusion_lon": 0.0}, {"lat": 38.8947935, "is_disabled": 0, "type": "electric_bike", "lon": -77.07304816666667, "bike_id": "8fb4db7f8e9bf4ff053356ef0479f92b", "fusion_lat": 0.0, "name": "8fb4db7f8e9bf4ff053356ef0479f92b", "is_reserved": 0, "rental_uris": {"android": "https://dc.lft.to/lastmile_qr_scan", "ios": "https://dc.lft.to/lastmile_qr_scan"}, "fusion_lon": 0.0}, {"lat": 38.903816166666665, "is_disabled": 0, "type": "electric_scooter", "lon": -77.0075765, "bike_id": "27741c658cf52a562cd685f14dc25ca5", "fusion_lat": 0.0, "name": "27741c658cf52a562cd685f14dc25ca5", "is_reserved": 0, "rental_uris": {"android": "https://dc.lft.to/lastmile_qr_scan", "ios": "https://dc.lft.to/lastmile_qr_scan"}, "fusion_lon": 0.0}, {"lat": 38.90866283333333, "is_disabled": 0, "type": "electric_scooter", "lon": -77.00362583333333, "bike_id": "a85ad5d03629a259de21edd1e087c1d1", "fusion_lat": 0.0, "name": "a85ad5d03629a259de21edd1e087c1d1", "is_reserved": 0, "rental_uris": {"android": "https://dc.lft.to/lastmile_qr_scan", "ios": "https://dc.lft.to/lastmile_qr_scan"}, "fusion_lon": 0.0}, {"lat": 38.886585, "is_disabled": 0, "type": "electric_scooter", "lon": -77.01358983333333, "bike_id": "5eb5620054a3552d35e9227efd5f2ef8", "fusion_lat": 0.0, "name": "5eb5620054a3552d35e9227efd5f2ef8", "is_reserved": 0, "rental_uris": {"android": "https://dc.lft.to/lastmile_qr_scan", "ios": "https://dc.lft.to/lastmile_qr_scan"}, "fusion_lon": 0.0}, {"lat": 38.9004555, "is_disabled": 0, "type": "electric_scooter", "lon": -77.02200066666667, "bike_id": "18f564852609954a08db384442ac3f6f", "fusion_lat": 0.0, "name": "18f564852609954a08db384442ac3f6f", "is_reserved": 0, "rental_uris": {"android": "https://dc.lft.to/lastmile_qr_scan", "ios": "https://dc.lft.to/lastmile_qr_scan"}, "fusion_lon": 0.0}, {"lat": 38.92519033333333, "is_disabled": 0, "type": "electric_scooter", "lon": -77.0236525, "bike_id": "9b0074915a6be454fe62efe9bfb65c33", "fusion_lat": 0.0, "name": "9b0074915a6be454fe62efe9bfb65c33", "is_reserved": 0, "rental_uris": {"android": "https://dc.lft.to/lastmile_qr_scan", "ios": "https://dc.lft.to/lastmile_qr_scan"}, "fusion_lon": 0.0}, {"lat": 38.89840483333333, "is_disabled": 0, "type": "electric_scooter", "lon": -76.99506116666667, "bike_id": "643986f3eb66f59e7b5c20e77160f341", "fusion_lat": 0.0, "name": "643986f3eb66f59e7b5c20e77160f341", "is_reserved": 0, "rental_uris": {"android": "https://dc.lft.to/lastmile_qr_scan", "ios": "https://dc.lft.to/lastmile_qr_scan"}, "fusion_lon": 0.0}, {"lat": 38.892229, "is_disabled": 0, "type": "electric_bike", "lon": -77.10784583333333, "bike_id": "2e1010662e95dbcd880bfc54bb6a25fa", "fusion_lat": 0.0, "name": "2e1010662e95dbcd880bfc54bb6a25fa", "is_reserved": 0, "rental_uris": {"android": "https://dc.lft.to/lastmile_qr_scan", "ios": "https://dc.lft.to/lastmile_qr_scan"}, "fusion_lon": 0.0}, {"lat": 38.898981666666664, "is_disabled": 0, "type": "electric_bike", "lon": -77.03284533333333, "bike_id": "270b1088a18332bbde4861a7e4527fa2", "fusion_lat": 0.0, "name": "270b1088a18332bbde4861a7e4527fa2", "is_reserved": 0, "rental_uris": {"android": "https://dc.lft.to/lastmile_qr_scan", "ios": "https://dc.lft.to/lastmile_qr_scan"}, "fusion_lon": 0.0}, {"lat": 38.9622725, "is_disabled": 0, "type": "electric_bike", "lon": -77.02629883333333, "bike_id": "78062c5300a3ef5771e10faedba7ef29", "fusion_lat": 0.0, "name": "78062c5300a3ef5771e10faedba7ef29", "is_reserved": 0, "rental_uris": {"android": "https://dc.lft.to/lastmile_qr_scan", "ios": "https://dc.lft.to/lastmile_qr_scan"}, "fusion_lon": 0.0}, {"lat": 38.91647366666667, "is_disabled": 0, "type": "electric_scooter", "lon": -77.04784633333334, "bike_id": "2d534dcac9c3c15fbf1ab0d0ceaad585", "fusion_lat": 0.0, "name": "2d534dcac9c3c15fbf1ab0d0ceaad585", "is_reserved": 0, "rental_uris": {"android": "https://dc.lft.to/lastmile_qr_scan", "ios": "https://dc.lft.to/lastmile_qr_scan"}, "fusion_lon": 0.0}, {"lat": 38.91487083333333, "is_disabled": 0, "type": "electric_scooter", "lon": -77.03258183333334, "bike_id": "98c314dbf873440d8863e127f0b940d7", "fusion_lat": 0.0, "name": "98c314dbf873440d8863e127f0b940d7", "is_reserved": 0, "rental_uris": {"android": "https://dc.lft.to/lastmile_qr_scan", "ios": "https://dc.lft.to/lastmile_qr_scan"}, "fusion_lon": 0.0}, {"lat": 38.93084833333333, "is_disabled": 0, "type": "electric_scooter", "lon": -77.0374795, "bike_id": "89290af46898e61d6fcb9f6f4dc5f028", "fusion_lat": 0.0, "name": "89290af46898e61d6fcb9f6f4dc5f028", "is_reserved": 0, "rental_uris": {"android": "https://dc.lft.to/lastmile_qr_scan", "ios": "https://dc.lft.to/lastmile_qr_scan"}, "fusion_lon": 0.0}, {"lat": 38.936428666666664, "is_disabled": 0, "type": "electric_scooter", "lon": -77.02486166666667, "bike_id": "ecf7b0ea15e717c6b0dcfca50e482d75", "fusion_lat": 0.0, "name": "ecf7b0ea15e717c6b0dcfca50e482d75", "is_reserved": 0, "rental_uris": {"android": "https://dc.lft.to/lastmile_qr_scan", "ios": "https://dc.lft.to/lastmile_qr_scan"}, "fusion_lon": 0.0}, {"lat": 38.89351466666667, "is_disabled": 0, "type": "electric_scooter", "lon": -77.0414505, "bike_id": "7fd540fe14def13d172e0ef5aa8c0ff5", "fusion_lat": 0.0, "name": "7fd540fe14def13d172e0ef5aa8c0ff5", "is_reserved": 0, "rental_uris": {"android": "https://dc.lft.to/lastmile_qr_scan", "ios": "https://dc.lft.to/lastmile_qr_scan"}, "fusion_lon": 0.0}, {"lat": 38.925203833333335, "is_disabled": 0, "type": "electric_scooter", "lon": -77.04419816666666, "bike_id": "bacb638a382b149384cc7dcb00c1dc1c", "fusion_lat": 0.0, "name": "bacb638a382b149384cc7dcb00c1dc1c", "is_reserved": 0, "rental_uris": {"android": "https://dc.lft.to/lastmile_qr_scan", "ios": "https://dc.lft.to/lastmile_qr_scan"}, "fusion_lon": 0.0}, {"lat": 38.9003045, "is_disabled": 0, "type": "electric_scooter", "lon": -76.99381066666666, "bike_id": "1be366e3868606a7cd3ac588f1e36d64", "fusion_lat": 0.0, "name": "1be366e3868606a7cd3ac588f1e36d64", "is_reserved": 0, "rental_uris": {"android": "https://dc.lft.to/lastmile_qr_scan", "ios": "https://dc.lft.to/lastmile_qr_scan"}, "fusion_lon": 0.0}, {"lat": 38.901057333333334, "is_disabled": 0, "type": "electric_scooter", "lon": -77.018149, "bike_id": "f23765d3611071e1e0bf4f0de5c63622", "fusion_lat": 0.0, "name": "f23765d3611071e1e0bf4f0de5c63622", "is_reserved": 0, "rental_uris": {"android": "https://dc.lft.to/lastmile_qr_scan", "ios": "https://dc.lft.to/lastmile_qr_scan"}, "fusion_lon": 0.0}, {"lat": 38.91806416666667, "is_disabled": 0, "type": "electric_scooter", "lon": -77.03214866666667, "bike_id": "420ab9f411eaffcda20094d10aa6ec81", "fusion_lat": 0.0, "name": "420ab9f411eaffcda20094d10aa6ec81", "is_reserved": 0, "rental_uris": {"android": "https://dc.lft.to/lastmile_qr_scan", "ios": "https://dc.lft.to/lastmile_qr_scan"}, "fusion_lon": 0.0}, {"lat": 38.9225625, "is_disabled": 0, "type": "electric_scooter", "lon": -77.043019, "bike_id": "e3b237cdac0c6471191b7290ba5dade4", "fusion_lat": 0.0, "name": "e3b237cdac0c6471191b7290ba5dade4", "is_reserved": 0, "rental_uris": {"android": "https://dc.lft.to/lastmile_qr_scan", "ios": "https://dc.lft.to/lastmile_qr_scan"}, "fusion_lon": 0.0}, {"lat": 38.905179833333335, "is_disabled": 0, "type": "electric_scooter", "lon": -77.05131266666666, "bike_id": "a03a5ed856481147ff9c98ca8203c9fd", "fusion_lat": 0.0, "name": "a03a5ed856481147ff9c98ca8203c9fd", "is_reserved": 0, "rental_uris": {"android": "https://dc.lft.to/lastmile_qr_scan", "ios": "https://dc.lft.to/lastmile_qr_scan"}, "fusion_lon": 0.0}, {"lat": 38.9274495, "is_disabled": 0, "type": "electric_scooter", "lon": -77.02419333333333, "bike_id": "7fbcfb50cffd03ecec16f058dee82d4f", "fusion_lat": 0.0, "name": "7fbcfb50cffd03ecec16f058dee82d4f", "is_reserved": 0, "rental_uris": {"android": "https://dc.lft.to/lastmile_qr_scan", "ios": "https://dc.lft.to/lastmile_qr_scan"}, "fusion_lon": 0.0}, {"lat": 38.89730216666667, "is_disabled": 0, "type": "electric_scooter", "lon": -77.04909833333333, "bike_id": "ddf71342f617fbe1e29388178f8cf493", "fusion_lat": 0.0, "name": "ddf71342f617fbe1e29388178f8cf493", "is_reserved": 0, "rental_uris": {"android": "https://dc.lft.to/lastmile_qr_scan", "ios": "https://dc.lft.to/lastmile_qr_scan"}, "fusion_lon": 0.0}, {"lat": 38.921851, "is_disabled": 0, "type": "electric_scooter", "lon": -77.047204, "bike_id": "98d95bfbaa88c74573951f5e3a180b1d", "fusion_lat": 0.0, "name": "98d95bfbaa88c74573951f5e3a180b1d", "is_reserved": 0, "rental_uris": {"android": "https://dc.lft.to/lastmile_qr_scan", "ios": "https://dc.lft.to/lastmile_qr_scan"}, "fusion_lon": 0.0}, {"lat": 38.9479285, "is_disabled": 0, "type": "electric_scooter", "lon": -77.02174016666666, "bike_id": "bb3dc02f5a1000d7c981a9b9fac8e711", "fusion_lat": 0.0, "name": "bb3dc02f5a1000d7c981a9b9fac8e711", "is_reserved": 0, "rental_uris": {"android": "https://dc.lft.to/lastmile_qr_scan", "ios": "https://dc.lft.to/lastmile_qr_scan"}, "fusion_lon": 0.0}, {"lat": 38.9217125, "is_disabled": 0, "type": "electric_scooter", "lon": -77.03190216666667, "bike_id": "17d1733802a1b1c36be36420c8796645", "fusion_lat": 0.0, "name": "17d1733802a1b1c36be36420c8796645", "is_reserved": 0, "rental_uris": {"android": "https://dc.lft.to/lastmile_qr_scan", "ios": "https://dc.lft.to/lastmile_qr_scan"}, "fusion_lon": 0.0}, {"lat": 38.919337166666665, "is_disabled": 0, "type": "electric_scooter", "lon": -77.03194216666667, "bike_id": "b9e4946c064c038deb1986d22d96caff", "fusion_lat": 0.0, "name": "b9e4946c064c038deb1986d22d96caff", "is_reserved": 0, "rental_uris": {"android": "https://dc.lft.to/lastmile_qr_scan", "ios": "https://dc.lft.to/lastmile_qr_scan"}, "fusion_lon": 0.0}, {"lat": 38.892183333333335, "is_disabled": 0, "type": "electric_scooter", "lon": -77.03164983333333, "bike_id": "8edbed926c58e920225d0ea8fa3372cf", "fusion_lat": 0.0, "name": "8edbed926c58e920225d0ea8fa3372cf", "is_reserved": 0, "rental_uris": {"android": "https://dc.lft.to/lastmile_qr_scan", "ios": "https://dc.lft.to/lastmile_qr_scan"}, "fusion_lon": 0.0}, {"lat": 38.93752116666667, "is_disabled": 0, "type": "electric_scooter", "lon": -77.03469483333333, "bike_id": "28f59a8a8c5037e6c8aff46e55836c70", "fusion_lat": 0.0, "name": "28f59a8a8c5037e6c8aff46e55836c70", "is_reserved": 0, "rental_uris": {"android": "https://dc.lft.to/lastmile_qr_scan", "ios": "https://dc.lft.to/lastmile_qr_scan"}, "fusion_lon": 0.0}, {"lat": 38.9096615, "is_disabled": 0, "type": "electric_scooter", "lon": -77.03836583333333, "bike_id": "110b4fe444683f06bc0a776d33ab1981", "fusion_lat": 0.0, "name": "110b4fe444683f06bc0a776d33ab1981", "is_reserved": 0, "rental_uris": {"android": "https://dc.lft.to/lastmile_qr_scan", "ios": "https://dc.lft.to/lastmile_qr_scan"}, "fusion_lon": 0.0}, {"lat": 38.909563, "is_disabled": 0, "type": "electric_scooter", "lon": -77.02284166666666, "bike_id": "06832e911cf633d56f74e113c2ec303b", "fusion_lat": 0.0, "name": "06832e911cf633d56f74e113c2ec303b", "is_reserved": 0, "rental_uris": {"android": "https://dc.lft.to/lastmile_qr_scan", "ios": "https://dc.lft.to/lastmile_qr_scan"}, "fusion_lon": 0.0}, {"lat": 38.901116333333334, "is_disabled": 0, "type": "electric_scooter", "lon": -76.99623833333334, "bike_id": "9c13b037bb20ae1cc9f387fac197221c", "fusion_lat": 0.0, "name": "9c13b037bb20ae1cc9f387fac197221c", "is_reserved": 0, "rental_uris": {"android": "https://dc.lft.to/lastmile_qr_scan", "ios": "https://dc.lft.to/lastmile_qr_scan"}, "fusion_lon": 0.0}, {"lat": 38.92427833333333, "is_disabled": 0, "type": "electric_scooter", "lon": -77.0517875, "bike_id": "a6e5516211248bf09fd62368c2aa2066", "fusion_lat": 0.0, "name": "a6e5516211248bf09fd62368c2aa2066", "is_reserved": 0, "rental_uris": {"android": "https://dc.lft.to/lastmile_qr_scan", "ios": "https://dc.lft.to/lastmile_qr_scan"}, "fusion_lon": 0.0}, {"lat": 38.88576966666667, "is_disabled": 0, "type": "electric_scooter", "lon": -76.91913366666667, "bike_id": "11b38f2b0f4c656f1457954bd5ed9828", "fusion_lat": 0.0, "name": "11b38f2b0f4c656f1457954bd5ed9828", "is_reserved": 0, "rental_uris": {"android": "https://dc.lft.to/lastmile_qr_scan", "ios": "https://dc.lft.to/lastmile_qr_scan"}, "fusion_lon": 0.0}, {"lat": 38.914154833333335, "is_disabled": 0, "type": "electric_scooter", "lon": -77.02218716666667, "bike_id": "7e63df1cea9cc7adcfc07f707b1be5d0", "fusion_lat": 0.0, "name": "7e63df1cea9cc7adcfc07f707b1be5d0", "is_reserved": 0, "rental_uris": {"android": "https://dc.lft.to/lastmile_qr_scan", "ios": "https://dc.lft.to/lastmile_qr_scan"}, "fusion_lon": 0.0}, {"lat": 38.933389166666664, "is_disabled": 0, "type": "electric_bike", "lon": -77.04227316666666, "bike_id": "95ee1240fdc89a0449817a8b86869685", "fusion_lat": 0.0, "name": "95ee1240fdc89a0449817a8b86869685", "is_reserved": 0, "rental_uris": {"android": "https://dc.lft.to/lastmile_qr_scan", "ios": "https://dc.lft.to/lastmile_qr_scan"}, "fusion_lon": 0.0}, {"lat": 38.904213, "is_disabled": 0, "type": "electric_scooter", "lon": -77.025435, "bike_id": "c87b112178239042036ed37b65d034a7", "fusion_lat": 0.0, "name": "c87b112178239042036ed37b65d034a7", "is_reserved": 0, "rental_uris": {"android": "https://dc.lft.to/lastmile_qr_scan", "ios": "https://dc.lft.to/lastmile_qr_scan"}, "fusion_lon": 0.0}, {"lat": 38.91694966666667, "is_disabled": 0, "type": "electric_scooter", "lon": -77.03125733333333, "bike_id": "517216a0381e5a7d7c187ce33c106502", "fusion_lat": 0.0, "name": "517216a0381e5a7d7c187ce33c106502", "is_reserved": 0, "rental_uris": {"android": "https://dc.lft.to/lastmile_qr_scan", "ios": "https://dc.lft.to/lastmile_qr_scan"}, "fusion_lon": 0.0}, {"lat": 38.96226933333333, "is_disabled": 0, "type": "electric_bike", "lon": -77.02627733333334, "bike_id": "235918e54b9cf54009f2927bfde41483", "fusion_lat": 0.0, "name": "235918e54b9cf54009f2927bfde41483", "is_reserved": 0, "rental_uris": {"android": "https://dc.lft.to/lastmile_qr_scan", "ios": "https://dc.lft.to/lastmile_qr_scan"}, "fusion_lon": 0.0}, {"lat": 38.90254766666666, "is_disabled": 0, "type": "electric_scooter", "lon": -77.0261065, "bike_id": "b5053b5a6b64f3101884269037d4670d", "fusion_lat": 0.0, "name": "b5053b5a6b64f3101884269037d4670d", "is_reserved": 0, "rental_uris": {"android": "https://dc.lft.to/lastmile_qr_scan", "ios": "https://dc.lft.to/lastmile_qr_scan"}, "fusion_lon": 0.0}, {"lat": 38.897278166666666, "is_disabled": 0, "type": "electric_scooter", "lon": -77.02160083333334, "bike_id": "f35efc2284ee91803a31e9c0ff07d711", "fusion_lat": 0.0, "name": "f35efc2284ee91803a31e9c0ff07d711", "is_reserved": 0, "rental_uris": {"android": "https://dc.lft.to/lastmile_qr_scan", "ios": "https://dc.lft.to/lastmile_qr_scan"}, "fusion_lon": 0.0}, {"lat": 38.913733, "is_disabled": 0, "type": "electric_scooter", "lon": -77.02001916666667, "bike_id": "c0e5f6410e1ccaa05260b7277364cf4c", "fusion_lat": 0.0, "name": "c0e5f6410e1ccaa05260b7277364cf4c", "is_reserved": 0, "rental_uris": {"android": "https://dc.lft.to/lastmile_qr_scan", "ios": "https://dc.lft.to/lastmile_qr_scan"}, "fusion_lon": 0.0}, {"lat": 38.91687066666667, "is_disabled": 0, "type": "electric_scooter", "lon": -77.03235366666667, "bike_id": "d71f06b6c4c6f811bb947c0643e89b73", "fusion_lat": 0.0, "name": "d71f06b6c4c6f811bb947c0643e89b73", "is_reserved": 0, "rental_uris": {"android": "https://dc.lft.to/lastmile_qr_scan", "ios": "https://dc.lft.to/lastmile_qr_scan"}, "fusion_lon": 0.0}, {"lat": 38.948213, "is_disabled": 0, "type": "electric_scooter", "lon": -76.99908666666667, "bike_id": "14f972fd750a9222795779a74be506e7", "fusion_lat": 0.0, "name": "14f972fd750a9222795779a74be506e7", "is_reserved": 0, "rental_uris": {"android": "https://dc.lft.to/lastmile_qr_scan", "ios": "https://dc.lft.to/lastmile_qr_scan"}, "fusion_lon": 0.0}, {"lat": 38.88741616666667, "is_disabled": 0, "type": "electric_scooter", "lon": -77.01536083333333, "bike_id": "5e7d1f7cd7a64c8cb7e55eb97523e9b0", "fusion_lat": 0.0, "name": "5e7d1f7cd7a64c8cb7e55eb97523e9b0", "is_reserved": 0, "rental_uris": {"android": "https://dc.lft.to/lastmile_qr_scan", "ios": "https://dc.lft.to/lastmile_qr_scan"}, "fusion_lon": 0.0}, {"lat": 38.89043066666667, "is_disabled": 0, "type": "electric_scooter", "lon": -76.95249933333334, "bike_id": "9a68d4d7e948e30a2da6be97ab80dbf1", "fusion_lat": 0.0, "name": "9a68d4d7e948e30a2da6be97ab80dbf1", "is_reserved": 0, "rental_uris": {"android": "https://dc.lft.to/lastmile_qr_scan", "ios": "https://dc.lft.to/lastmile_qr_scan"}, "fusion_lon": 0.0}, {"lat": 38.902857833333336, "is_disabled": 0, "type": "electric_scooter", "lon": -77.04391616666666, "bike_id": "5966a05dd596ea544a98bc8a499ca484", "fusion_lat": 0.0, "name": "5966a05dd596ea544a98bc8a499ca484", "is_reserved": 0, "rental_uris": {"android": "https://dc.lft.to/lastmile_qr_scan", "ios": "https://dc.lft.to/lastmile_qr_scan"}, "fusion_lon": 0.0}, {"lat": 38.898264166666664, "is_disabled": 0, "type": "electric_scooter", "lon": -77.031113, "bike_id": "97ac4693f7f91b5d44554aecf5d94035", "fusion_lat": 0.0, "name": "97ac4693f7f91b5d44554aecf5d94035", "is_reserved": 0, "rental_uris": {"android": "https://dc.lft.to/lastmile_qr_scan", "ios": "https://dc.lft.to/lastmile_qr_scan"}, "fusion_lon": 0.0}, {"lat": 39.056359, "is_disabled": 0, "type": "electric_bike", "lon": -77.12526366666667, "bike_id": "e7520c134e5d550a29acb9b339c2d293", "fusion_lat": 0.0, "name": "e7520c134e5d550a29acb9b339c2d293", "is_reserved": 0, "rental_uris": {"android": "https://dc.lft.to/lastmile_qr_scan", "ios": "https://dc.lft.to/lastmile_qr_scan"}, "fusion_lon": 0.0}, {"lat": 38.918668333333336, "is_disabled": 0, "type": "electric_scooter", "lon": -77.03178816666667, "bike_id": "3f56fec2ea227b65bf7bc617a6962804", "fusion_lat": 0.0, "name": "3f56fec2ea227b65bf7bc617a6962804", "is_reserved": 0, "rental_uris": {"android": "https://dc.lft.to/lastmile_qr_scan", "ios": "https://dc.lft.to/lastmile_qr_scan"}, "fusion_lon": 0.0}, {"lat": 38.91189083333333, "is_disabled": 0, "type": "electric_scooter", "lon": -77.04301516666666, "bike_id": "404b05111214d87f9a41aa1b1d7028e0", "fusion_lat": 0.0, "name": "404b05111214d87f9a41aa1b1d7028e0", "is_reserved": 0, "rental_uris": {"android": "https://dc.lft.to/lastmile_qr_scan", "ios": "https://dc.lft.to/lastmile_qr_scan"}, "fusion_lon": 0.0}, {"lat": 38.93219333333333, "is_disabled": 0, "type": "electric_scooter", "lon": -77.02247183333333, "bike_id": "aa542e396602e853a5895ca03a3b3cc1", "fusion_lat": 0.0, "name": "aa542e396602e853a5895ca03a3b3cc1", "is_reserved": 0, "rental_uris": {"android": "https://dc.lft.to/lastmile_qr_scan", "ios": "https://dc.lft.to/lastmile_qr_scan"}, "fusion_lon": 0.0}, {"lat": 38.911240666666664, "is_disabled": 0, "type": "electric_scooter", "lon": -77.0379155, "bike_id": "878c9549e10d8ebac66fa6e63f6cfbb8", "fusion_lat": 0.0, "name": "878c9549e10d8ebac66fa6e63f6cfbb8", "is_reserved": 0, "rental_uris": {"android": "https://dc.lft.to/lastmile_qr_scan", "ios": "https://dc.lft.to/lastmile_qr_scan"}, "fusion_lon": 0.0}, {"lat": 38.884068666666664, "is_disabled": 0, "type": "electric_bike", "lon": -76.95415433333334, "bike_id": "8723599f63e4ca61a277d25813c3a728", "fusion_lat": 0.0, "name": "8723599f63e4ca61a277d25813c3a728", "is_reserved": 0, "rental_uris": {"android": "https://dc.lft.to/lastmile_qr_scan", "ios": "https://dc.lft.to/lastmile_qr_scan"}, "fusion_lon": 0.0}, {"lat": 38.881424, "is_disabled": 0, "type": "electric_scooter", "lon": -76.99518166666667, "bike_id": "14aa4f87db415f4690799b1e816b7f88", "fusion_lat": 0.0, "name": "14aa4f87db415f4690799b1e816b7f88", "is_reserved": 0, "rental_uris": {"android": "https://dc.lft.to/lastmile_qr_scan", "ios": "https://dc.lft.to/lastmile_qr_scan"}, "fusion_lon": 0.0}, {"lat": 38.8989255, "is_disabled": 0, "type": "electric_scooter", "lon": -76.99728683333333, "bike_id": "10bb8cf47fe270d7c985ba1f544574d5", "fusion_lat": 0.0, "name": "10bb8cf47fe270d7c985ba1f544574d5", "is_reserved": 0, "rental_uris": {"android": "https://dc.lft.to/lastmile_qr_scan", "ios": "https://dc.lft.to/lastmile_qr_scan"}, "fusion_lon": 0.0}, {"lat": 38.90226833333333, "is_disabled": 0, "type": "electric_scooter", "lon": -77.0006795, "bike_id": "336561a7ba1e69234e5f22f04cc3756e", "fusion_lat": 0.0, "name": "336561a7ba1e69234e5f22f04cc3756e", "is_reserved": 0, "rental_uris": {"android": "https://dc.lft.to/lastmile_qr_scan", "ios": "https://dc.lft.to/lastmile_qr_scan"}, "fusion_lon": 0.0},