{"data": {"bikes": [{"is_disabled": 0, "type": "electric_scooter", "fusion_lon": 0.0, "is_reserved": 0, "fusion_lat": 0.0, "lon": -76.948887, "rental_uris": {"ios": "https://dc.lft.to/lastmile_qr_scan", "android": "https://dc.lft.to/lastmile_qr_scan"}, "bike_id": "89e30417df8e4fcc3dcac5a05de920a1", "lat": 38.8950895, "name": "89e30417df8e4fcc3dcac5a05de920a1"}, {"is_disabled": 0, "type": "electric_scooter", "fusion_lon": 0.0, "is_reserved": 0, "fusion_lat": 0.0, "lon": -77.02296716666666, "rental_uris": {"ios": "https://dc.lft.to/lastmile_qr_scan", "android": "https://dc.lft.to/lastmile_qr_scan"}, "bike_id": "effec392363471ea49d20cf3331e6618", "lat": 38.959194333333336, "name": "effec392363471ea49d20cf3331e6618"}, {"is_disabled": 0, "type": "electric_scooter", "fusion_lon": 0.0, "is_reserved": 0, "fusion_lat": 0.0, "lon": -77.03435566666667, "rental_uris": {"ios": "https://dc.lft.to/lastmile_qr_scan", "android": "https://dc.lft.to/lastmile_qr_scan"}, "bike_id": "8609a3570f7740d98dd0eae9a3023ad0", "lat": 38.900820333333336, "name": "8609a3570f7740d98dd0eae9a3023ad0"}, {"is_disabled": 0, "type": "electric_bike", "fusion_lon": 0.0, "is_reserved": 0, "fusion_lat": 0.0, "lon": -76.9730275, "rental_uris": {"ios": "https://dc.lft.to/lastmile_qr_scan", "android": "https://dc.lft.to/lastmile_qr_scan"}, "bike_id": "b1956ae218ffffe1dfa8cff6ec138b11", "lat": 38.86497633333333, "name": "b1956ae218ffffe1dfa8cff6ec138b11"}, {"is_disabled": 0, "type": "electric_scooter", "fusion_lon": 0.0, "is_reserved": 0, "fusion_lat": 0.0, "lon": -77.0749605, "rental_uris": {"ios": "https://dc.lft.to/lastmile_qr_scan", "android": "https://dc.lft.to/lastmile_qr_scan"}, "bike_id": "1c6bcb0878aa01ffb81138cd46c74ff0", "lat": 38.91188966666667, "name": "1c6bcb0878aa01ffb81138cd46c74ff0"}, {"is_disabled": 0, "type": "electric_scooter", "fusion_lon": 0.0, "is_reserved": 0, "fusion_lat": 0.0, "lon": -77.02411366666666, "rental_uris": {"ios": "https://dc.lft.to/lastmile_qr_scan", "android": "https://dc.lft.to/lastmile_qr_scan"}, "bike_id": "01f4f769f8e47a966ee8c8eb0bada1d6", "lat": 38.941879, "name": "01f4f769f8e47a966ee8c8eb0bada1d6"}, {"is_disabled": 0, "type": "electric_scooter", "fusion_lon": 0.0, "is_reserved": 0, "fusion_lat": 0.0, "lon": -77.016994, "rental_uris": {"ios": "https://dc.lft.to/lastmile_qr_scan", "android": "https://dc.lft.to/lastmile_qr_scan"}, "bike_id": "f3118ba3f79b961cfe8172c4d42cfc2b", "lat": 38.90756716666667, "name": "f3118ba3f79b961cfe8172c4d42cfc2b"}, {"is_disabled": 0, "type": "electric_scooter", "fusion_lon": 0.0, "is_reserved": 0, "fusion_lat": 0.0, "lon": -77.035305, "rental_uris": {"ios": "https://dc.lft.to/lastmile_qr_scan", "android": "https://dc.lft.to/lastmile_qr_scan"}, "bike_id": "af9a18957c0b74f92883fdac203cfecc", "lat": 38.923823, "name": "af9a18957c0b74f92883fdac203cfecc"}, {"is_disabled": 0, "type": "electric_scooter", "fusion_lon": 0.0, "is_reserved": 0, "fusion_lat": 0.0, "lon": -77.00329683333334, "rental_uris": {"ios": "https://dc.lft.to/lastmile_qr_scan", "android": "https://dc.lft.to/lastmile_qr_scan"}, "bike_id": "a5d91294a5c0b7a2a0ef7c804de2ab97", "lat": 38.893633333333334, "name": "a5d91294a5c0b7a2a0ef7c804de2ab97"}, {"is_disabled": 0, "type": "electric_bike", "fusion_lon": 0.0, "is_reserved": 0, "fusion_lat": 0.0, "lon": -77.14876416666667, "rental_uris": {"ios": "https://dc.lft.to/lastmile_qr_scan", "android": "https://dc.lft.to/lastmile_qr_scan"}, "bike_id": "dc9173e06ac9a1e6a0ca4d10c4be644e", "lat": 38.87741883333333, "name": "dc9173e06ac9a1e6a0ca4d10c4be644e"}, {"is_disabled": 0, "type": "electric_scooter", "fusion_lon": 0.0, "is_reserved": 0, "fusion_lat": 0.0, "lon": -77.05004383333333, "rental_uris": {"ios": "https://dc.lft.to/lastmile_qr_scan", "android": "https://dc.lft.to/lastmile_qr_scan"}, "bike_id": "c430d7117189cce05776de44da58fdc2", "lat": 38.89226516666667, "name": "c430d7117189cce05776de44da58fdc2"}, {"is_disabled": 0, "type": "electric_scooter", "fusion_lon": 0.0, "is_reserved": 0, "fusion_lat": 0.0, "lon": -77.00592966666666, "rental_uris": {"ios": "https://dc.lft.to/lastmile_qr_scan", "android": "https://dc.lft.to/lastmile_qr_scan"}, "bike_id": "23a0dfef811215bb4027c63d32be6a1f", "lat": 38.8756345, "name": "23a0dfef811215bb4027c63d32be6a1f"}, {"is_disabled": 0, "type": "electric_scooter", "fusion_lon": 0.0, "is_reserved": 0, "fusion_lat": 0.0, "lon": -77.04310483333333, "rental_uris": {"ios": "https://dc.lft.to/lastmile_qr_scan", "android": "https://dc.lft.to/lastmile_qr_scan"}, "bike_id": "d6129b3dbeb0ed06082029c4cea7e2e9", "lat": 38.922266666666665, "name": "d6129b3dbeb0ed06082029c4cea7e2e9"}, {"is_disabled": 0, "type": "electric_scooter", "fusion_lon": 0.0, "is_reserved": 0, "fusion_lat": 0.0, "lon": -77.030885, "rental_uris": {"ios": "https://dc.lft.to/lastmile_qr_scan", "android": "https://dc.lft.to/lastmile_qr_scan"}, "bike_id": "5f6ee05997a6592296769f136e61a43f", "lat": 38.91059, "name": "5f6ee05997a6592296769f136e61a43f"}, {"is_disabled": 0, "type": "electric_scooter", "fusion_lon": 0.0, "is_reserved": 0, "fusion_lat": 0.0, "lon": -77.01943666666666, "rental_uris": {"ios": "https://dc.lft.to/lastmile_qr_scan", "android": "https://dc.lft.to/lastmile_qr_scan"}, "bike_id": "f2a88300c4c034654d832974aff9c520", "lat": 38.92270116666667, "name": "f2a88300c4c034654d832974aff9c520"}, {"is_disabled": 0, "type": "electric_scooter", "fusion_lon": 0.0, "is_reserved": 0, "fusion_lat": 0.0, "lon": -77.032339, "rental_uris": {"ios": "https://dc.lft.to/lastmile_qr_scan", "android": "https://dc.lft.to/lastmile_qr_scan"}, "bike_id": "1f31593c0ae6d0ac2c5eba502a265b09", "lat": 38.9268725, "name": "1f31593c0ae6d0ac2c5eba502a265b09"}, {"is_disabled": 0, "type": "electric_scooter", "fusion_lon": 0.0, "is_reserved": 0, "fusion_lat": 0.0, "lon": -77.02948633333334, "rental_uris": {"ios": "https://dc.lft.to/lastmile_qr_scan", "android": "https://dc.lft.to/lastmile_qr_scan"}, "bike_id": "97fc865c9d1e19ebac247b8d3ffd3244", "lat": 38.904621666666664, "name": "97fc865c9d1e19ebac247b8d3ffd3244"}, {"is_disabled": 0, "type": "electric_scooter", "fusion_lon": 0.0, "is_reserved": 0, "fusion_lat": 0.0, "lon": -76.99625316666666, "rental_uris": {"ios": "https://dc.lft.to/lastmile_qr_scan", "android": "https://dc.lft.to/lastmile_qr_scan"}, "bike_id": "8f0d23cd45537d831e93375c589e9b0f", "lat": 38.8814295, "name": "8f0d23cd45537d831e93375c589e9b0f"}, {"is_disabled": 0, "type": "electric_scooter", "fusion_lon": 0.0, "is_reserved": 0, "fusion_lat": 0.0, "lon": -77.0153725, "rental_uris": {"ios": "https://dc.lft.to/lastmile_qr_scan", "android": "https://dc.lft.to/lastmile_qr_scan"}, "bike_id": "0a0a194c0d9862336ca442766491bbb6", "lat": 38.92061133333333, "name": "0a0a194c0d9862336ca442766491bbb6"}, {"is_disabled": 0, "type": "electric_scooter", "fusion_lon": 0.0, "is_reserved": 0, "fusion_lat": 0.0, "lon": -77.024906, "rental_uris": {"ios": "https://dc.lft.to/lastmile_qr_scan", "android": "https://dc.lft.to/lastmile_qr_scan"}, "bike_id": "b5b2a9c8dc1ceabee6e6524c762dec1e", "lat": 38.93754283333333, "name": "b5b2a9c8dc1ceabee6e6524c762dec1e"}, {"is_disabled": 0, "type": "electric_scooter", "fusion_lon": 0.0, "is_reserved": 0, "fusion_lat": 0.0, "lon": -77.04907716666666, "rental_uris": {"ios": "https://dc.lft.to/lastmile_qr_scan", "android": "https://dc.lft.to/lastmile_qr_scan"}, "bike_id": "dde87c201f8a029aaa1271f11f04c46c", "lat": 38.9160515, "name": "dde87c201f8a029aaa1271f11f04c46c"}, {"is_disabled": 0, "type": "electric_scooter", "fusion_lon": 0.0, "is_reserved": 0, "fusion_lat": 0.0, "lon": -77.03183683333333, "rental_uris": {"ios": "https://dc.lft.to/lastmile_qr_scan", "android": "https://dc.lft.to/lastmile_qr_scan"}, "bike_id": "17932bd38ec1e584aeab480dbab2b340", "lat": 38.915709, "name": "17932bd38ec1e584aeab480dbab2b340"}, {"is_disabled": 0, "type": "electric_scooter", "fusion_lon": 0.0, "is_reserved": 0, "fusion_lat": 0.0, "lon": -77.02178083333334, "rental_uris": {"ios": "https://dc.lft.to/lastmile_qr_scan", "android": "https://dc.lft.to/lastmile_qr_scan"}, "bike_id": "51214a0cf993be8f82ad2d63c9750552", "lat": 38.9249555, "name": "51214a0cf993be8f82ad2d63c9750552"}, {"is_disabled": 0, "type": "electric_scooter", "fusion_lon": 0.0, "is_reserved": 0, "fusion_lat": 0.0, "lon": -77.0032695, "rental_uris": {"ios": "https://dc.lft.to/lastmile_qr_scan", "android": "https://dc.lft.to/lastmile_qr_scan"}, "bike_id": "2db17f449204aeb0689b3897b774512a", "lat": 38.89365033333333, "name": "2db17f449204aeb0689b3897b774512a"}, {"is_disabled": 0, "type": "electric_scooter", "fusion_lon": 0.0, "is_reserved": 0, "fusion_lat": 0.0, "lon": -77.012059, "rental_uris": {"ios": "https://dc.lft.to/lastmile_qr_scan", "android": "https://dc.lft.to/lastmile_qr_scan"}, "bike_id": "9a9446d3db0ee36bc310201b37f42323", "lat": 38.8981945, "name": "9a9446d3db0ee36bc310201b37f42323"}, {"is_disabled": 0, "type": "electric_scooter", "fusion_lon": 0.0, "is_reserved": 0, "fusion_lat": 0.0, "lon": -77.00180833333333, "rental_uris": {"ios": "https://dc.lft.to/lastmile_qr_scan", "android": "https://dc.lft.to/lastmile_qr_scan"}, "bike_id": "f6da980ed1f888bedf74235b53224715", "lat": 38.873910333333335, "name": "f6da980ed1f888bedf74235b53224715"}, {"is_disabled": 0, "type": "electric_scooter", "fusion_lon": 0.0, "is_reserved": 0, "fusion_lat": 0.0, "lon": -77.01883433333333, "rental_uris": {"ios": "https://dc.lft.to/lastmile_qr_scan", "android": "https://dc.lft.to/lastmile_qr_scan"}, "bike_id": "9052d286eb99e5a4249281712414e642", "lat": 38.8974425, "name": "9052d286eb99e5a4249281712414e642"}, {"is_disabled": 0, "type": "electric_scooter", "fusion_lon": 0.0, "is_reserved": 0, "fusion_lat": 0.0, "lon": -77.03801666666666, "rental_uris": {"ios": "https://dc.lft.to/lastmile_qr_scan", "android": "https://dc.lft.to/lastmile_qr_scan"}, "bike_id": "788d4927b1efa2aa73efd22aec3c1ab1", "lat": 38.93019866666667, "name": "788d4927b1efa2aa73efd22aec3c1ab1"}, {"is_disabled": 0, "type": "electric_scooter", "fusion_lon": 0.0, "is_reserved": 0, "fusion_lat": 0.0, "lon": -77.04356266666667, "rental_uris": {"ios": "https://dc.lft.to/lastmile_qr_scan", "android": "https://dc.lft.to/lastmile_qr_scan"}, "bike_id": "cfd48be646d40e57f049443d8bb0a6b1", "lat": 38.902938666666664, "name": "cfd48be646d40e57f049443d8bb0a6b1"}, {"is_disabled": 0, "type": "electric_scooter", "fusion_lon": 0.0, "is_reserved": 0, "fusion_lat": 0.0, "lon": -77.05520116666666, "rental_uris": {"ios": "https://dc.lft.to/lastmile_qr_scan", "android": "https://dc.lft.to/lastmile_qr_scan"}, "bike_id": "44ed635a37675fcd0a7407571f443e2d", "lat": 38.92967566666667, "name": "44ed635a37675fcd0a7407571f443e2d"}, {"is_disabled": 0, "type": "electric_scooter", "fusion_lon": 0.0, "is_reserved": 0, "fusion_lat": 0.0, "lon": -76.93593166666666, "rental_uris": {"ios": "https://dc.lft.to/lastmile_qr_scan", "android": "https://dc.lft.to/lastmile_qr_scan"}, "bike_id": "3630a0d875e4d9fdde4f3eaad1a60f8d", "lat": 38.90946983333333, "name": "3630a0d875e4d9fdde4f3eaad1a60f8d"}, {"is_disabled": 0, "type": "electric_bike", "fusion_lon": 0.0, "is_reserved": 0, "fusion_lat": 0.0, "lon": -76.95161083333333, "rental_uris": {"ios": "https://dc.lft.to/lastmile_qr_scan", "android": "https://dc.lft.to/lastmile_qr_scan"}, "bike_id": "80acad6ce5b6c03f233acb8f0df4b33f", "lat": 39.084359166666665, "name": "80acad6ce5b6c03f233acb8f0df4b33f"}, {"is_disabled": 0, "type": "electric_scooter", "fusion_lon": 0.0, "is_reserved": 0, "fusion_lat": 0.0, "lon": -77.03210533333333, "rental_uris": {"ios": "https://dc.lft.to/lastmile_qr_scan", "android": "https://dc.lft.to/lastmile_qr_scan"}, "bike_id": "20a94fbb871922f83be0477b0df39809", "lat": 38.916726, "name": "20a94fbb871922f83be0477b0df39809"}, {"is_disabled": 0, "type": "electric_scooter", "fusion_lon": 0.0, "is_reserved": 0, "fusion_lat": 0.0, "lon": -77.02442083333334, "rental_uris": {"ios": "https://dc.lft.to/lastmile_qr_scan", "android": "https://dc.lft.to/lastmile_qr_scan"}, "bike_id": "669558db8295bacfc9f26490c35606ca", "lat": 38.89728066666667, "name": "669558db8295bacfc9f26490c35606ca"}, {"is_disabled": 0, "type": "electric_scooter", "fusion_lon": 0.0, "is_reserved": 0, "fusion_lat": 0.0, "lon": -77.03842383333334, "rental_uris": {"ios": "https://dc.lft.to/lastmile_qr_scan", "android": "https://dc.lft.to/lastmile_qr_scan"}, "bike_id": "f5d4ffab186a94dc05c4875a73edfee4", "lat": 38.90978783333333, "name": "f5d4ffab186a94dc05c4875a73edfee4"}, {"is_disabled": 0, "type": "electric_scooter", "fusion_lon": 0.0, "is_reserved": 0, "fusion_lat": 0.0, "lon": -77.005681, "rental_uris": {"ios": "https://dc.lft.to/lastmile_qr_scan", "android": "https://dc.lft.to/lastmile_qr_scan"}, "bike_id": "b677c716f1c862bac59e8152a1110ce7", "lat": 38.88503766666667, "name": "b677c716f1c862bac59e8152a1110ce7"}, {"is_disabled": 0, "type": "electric_scooter", "fusion_lon": 0.0, "is_reserved": 0, "fusion_lat": 0.0, "lon": -77.02093316666667, "rental_uris": {"ios": "https://dc.lft.to/lastmile_qr_scan", "android": "https://dc.lft.to/lastmile_qr_scan"}, "bike_id": "4403ac4f3f7f6c368bfd7801c0f4eda3", "lat": 38.921577166666665, "name": "4403ac4f3f7f6c368bfd7801c0f4eda3"}, {"is_disabled": 0, "type": "electric_scooter", "fusion_lon": 0.0, "is_reserved": 0, "fusion_lat": 0.0, "lon": -77.028655, "rental_uris": {"ios": "https://dc.lft.to/lastmile_qr_scan", "android": "https://dc.lft.to/lastmile_qr_scan"}, "bike_id": "f241a9b2fbf27c5f469c50a3d163f62a", "lat": 38.89853, "name": "f241a9b2fbf27c5f469c50a3d163f62a"}, {"is_disabled": 0, "type": "electric_scooter", "fusion_lon": 0.0, "is_reserved": 0, "fusion_lat": 0.0, "lon": -77.02585916666666, "rental_uris": {"ios": "https://dc.lft.to/lastmile_qr_scan", "android": "https://dc.lft.to/lastmile_qr_scan"}, "bike_id": "e9154bd65e9f7e5d30a8e317647c0416", "lat": 38.920332333333334, "name": "e9154bd65e9f7e5d30a8e317647c0416"}, {"is_disabled": 0, "type": "electric_scooter", "fusion_lon": 0.0, "is_reserved": 0, "fusion_lat": 0.0, "lon": -77.0280155, "rental_uris": {"ios": "https://dc.lft.to/lastmile_qr_scan", "android": "https://dc.lft.to/lastmile_qr_scan"}, "bike_id": "64ada9245c2cbc85698f8e57aeb89d32", "lat": 38.898903833333335, "name": "64ada9245c2cbc85698f8e57aeb89d32"}, {"is_disabled": 0, "type": "electric_scooter", "fusion_lon": 0.0, "is_reserved": 0, "fusion_lat": 0.0, "lon": -77.00889433333333, "rental_uris": {"ios": "https://dc.lft.to/lastmile_qr_scan", "android": "https://dc.lft.to/lastmile_qr_scan"}, "bike_id": "8d55cae700e67c1a55b7cdb8d41d9cf2", "lat": 38.9098575, "name": "8d55cae700e67c1a55b7cdb8d41d9cf2"}, {"is_disabled": 0, "type": "electric_scooter", "fusion_lon": 0.0, "is_reserved": 0, "fusion_lat": 0.0, "lon": -77.02396083333333, "rental_uris": {"ios": "https://dc.lft.to/lastmile_qr_scan", "android": "https://dc.lft.to/lastmile_qr_scan"}, "bike_id": "ab26bae21f23b1e0feb0774cc3378d9e", "lat": 38.900373333333334, "name": "ab26bae21f23b1e0feb0774cc3378d9e"}, {"is_disabled": 0, "type": "electric_scooter", "fusion_lon": 0.0, "is_reserved": 0, "fusion_lat": 0.0, "lon": -76.97804566666667, "rental_uris": {"ios": "https://dc.lft.to/lastmile_qr_scan", "android": "https://dc.lft.to/lastmile_qr_scan"}, "bike_id": "bb05821a94ac3e02d2ab3bd532e887d0", "lat": 38.9203585, "name": "bb05821a94ac3e02d2ab3bd532e887d0"}, {"is_disabled": 0, "type": "electric_scooter", "fusion_lon": 0.0, "is_reserved": 0, "fusion_lat": 0.0, "lon": -77.01902833333334, "rental_uris": {"ios": "https://dc.lft.to/lastmile_qr_scan", "android": "https://dc.lft.to/lastmile_qr_scan"}, "bike_id": "089f8bd6f6833ce6159c8a875d15ede9", "lat": 38.89457266666667, "name": "089f8bd6f6833ce6159c8a875d15ede9"}, {"is_disabled": 0, "type": "electric_scooter", "fusion_lon": 0.0, "is_reserved": 0, "fusion_lat": 0.0, "lon": -77.03624383333333, "rental_uris": {"ios": "https://dc.lft.to/lastmile_qr_scan", "android": "https://dc.lft.to/lastmile_qr_scan"}, "bike_id": "431da783a75704c6d0beb8f251081ace", "lat": 38.923337333333336, "name": "431da783a75704c6d0beb8f251081ace"}, {"is_disabled": 0, "type": "electric_scooter", "fusion_lon": 0.0, "is_reserved": 0, "fusion_lat": 0.0, "lon": -77.03202033333334, "rental_uris": {"ios": "https://dc.lft.to/lastmile_qr_scan", "android": "https://dc.lft.to/lastmile_qr_scan"}, "bike_id": "8a73e9f1a78057f0589747e2e3223e29", "lat": 38.9132595, "name": "8a73e9f1a78057f0589747e2e3223e29"}, {"is_disabled": 0, "type": "electric_scooter", "fusion_lon": 0.0, "is_reserved": 0, "fusion_lat": 0.0, "lon": -77.0366715, "rental_uris": {"ios": "https://dc.lft.to/lastmile_qr_scan", "android": "https://dc.lft.to/lastmile_qr_scan"}, "bike_id": "49ee0edfc96325c8ce0fc7909823bdb2", "lat": 38.903114, "name": "49ee0edfc96325c8ce0fc7909823bdb2"}, {"is_disabled": 0, "type": "electric_scooter", "fusion_lon": 0.0, "is_reserved": 0, "fusion_lat": 0.0, "lon": -77.023093, "rental_uris": {"ios": "https://dc.lft.to/lastmile_qr_scan", "android": "https://dc.lft.to/lastmile_qr_scan"}, "bike_id": "3351c7f4f1c5b9dbd86fd1306e3b4278", "lat": 38.90213283333333, "name": "3351c7f4f1c5b9dbd86fd1306e3b4278"}, {"is_disabled": 0, "type": "electric_scooter", "fusion_lon": 0.0, "is_reserved": 0, "fusion_lat": 0.0, "lon": -77.0854385, "rental_uris": {"ios": "https://dc.lft.to/lastmile_qr_scan", "android": "https://dc.lft.to/lastmile_qr_scan"}, "bike_id": "0b6cafcf5a6060ef0b923eb456e06d55", "lat": 38.93833333333333, "name": "0b6cafcf5a6060ef0b923eb456e06d55"}, {"is_disabled": 0, "type": "electric_scooter", "fusion_lon": 0.0, "is_reserved": 0, "fusion_lat": 0.0, "lon": -77.02499633333333, "rental_uris": {"ios": "https://dc.lft.to/lastmile_qr_scan", "android": "https://dc.lft.to/lastmile_qr_scan"}, "bike_id": "14a5c2bdf6ff5f61a380f9b0551a641e", "lat": 38.9209035, "name": "14a5c2bdf6ff5f61a380f9b0551a641e"}, {"is_disabled": 0, "type": "electric_scooter", "fusion_lon": 0.0, "is_reserved": 0, "fusion_lat": 0.0, "lon": -77.02162033333333, "rental_uris": {"ios": "https://dc.lft.to/lastmile_qr_scan", "android": "https://dc.lft.to/lastmile_qr_scan"}, "bike_id": "3dc76b1fc3c7306347b8e7acdd14ddd6", "lat": 38.926118833333334, "name": "3dc76b1fc3c7306347b8e7acdd14ddd6"}, {"is_disabled": 0, "type": "electric_scooter", "fusion_lon": 0.0, "is_reserved": 0, "fusion_lat": 0.0, "lon": -77.034983, "rental_uris": {"ios": "https://dc.lft.to/lastmile_qr_scan", "android": "https://dc.lft.to/lastmile_qr_scan"}, "bike_id": "8835657d3a05fe4f8237563ac8f29971", "lat": 38.923466, "name": "8835657d3a05fe4f8237563ac8f29971"}, {"is_disabled": 0, "type": "electric_scooter", "fusion_lon": 0.0, "is_reserved": 0, "fusion_lat": 0.0, "lon": -77.03136233333333, "rental_uris": {"ios": "https://dc.lft.to/lastmile_qr_scan", "android": "https://dc.lft.to/lastmile_qr_scan"}, "bike_id": "ef58bf4994c0fda9fd787115bfe84bad", "lat": 38.9111115, "name": "ef58bf4994c0fda9fd787115bfe84bad"}, {"is_disabled": 0, "type": "electric_scooter", "fusion_lon": 0.0, "is_reserved": 0, "fusion_lat": 0.0, "lon": -77.02081483333333, "rental_uris": {"ios": "https://dc.lft.to/lastmile_qr_scan", "android": "https://dc.lft.to/lastmile_qr_scan"}, "bike_id": "267b64bbe337688ca6e0cd0265a542da", "lat": 38.919009, "name": "267b64bbe337688ca6e0cd0265a542da"}, {"is_disabled": 0, "type": "electric_scooter", "fusion_lon": 0.0, "is_reserved": 0, "fusion_lat": 0.0, "lon": -77.02085383333333, "rental_uris": {"ios": "https://dc.lft.to/lastmile_qr_scan", "android": "https://dc.lft.to/lastmile_qr_scan"}, "bike_id": "66a4ddd59c008e89c6b02349df8a87bc", "lat": 38.92173, "name": "66a4ddd59c008e89c6b02349df8a87bc"}, {"is_disabled": 0, "type": "electric_scooter", "fusion_lon": 0.0, "is_reserved": 0, "fusion_lat": 0.0, "lon": -77.02789, "rental_uris": {"ios": "https://dc.lft.to/lastmile_qr_scan", "android": "https://dc.lft.to/lastmile_qr_scan"}, "bike_id": "ea989dd29209d7e3e574ff45e3c35ba6", "lat": 38.884219, "name": "ea989dd29209d7e3e574ff45e3c35ba6"}, {"is_disabled": 0, "type": "electric_scooter", "fusion_lon": 0.0, "is_reserved": 0, "fusion_lat": 0.0, "lon": -77.04598133333333, "rental_uris": {"ios": "https://dc.lft.to/lastmile_qr_scan", "android": "https://dc.lft.to/lastmile_qr_scan"}, "bike_id": "550d9dc0ac06a7f08ee8a09b661de92d", "lat": 38.896125, "name": "550d9dc0ac06a7f08ee8a09b661de92d"}, {"is_disabled": 0, "type": "electric_scooter", "fusion_lon": 0.0, "is_reserved": 0, "fusion_lat": 0.0, "lon": -77.000556, "rental_uris": {"ios": "https://dc.lft.to/lastmile_qr_scan", "android": "https://dc.lft.to/lastmile_qr_scan"}, "bike_id": "c9a2466af65b441243656341356d9701", "lat": 38.8788205, "name": "c9a2466af65b441243656341356d9701"}, {"is_disabled": 0, "type": "electric_bike", "fusion_lon": 0.0, "is_reserved": 0, "fusion_lat": 0.0, "lon": -77.09645516666667, "rental_uris": {"ios": "https://dc.lft.to/lastmile_qr_scan", "android": "https://dc.lft.to/lastmile_qr_scan"}, "bike_id": "c764b109eebc061fcecf9bc6b815ec03", "lat": 38.98221816666667, "name": "c764b109eebc061fcecf9bc6b815ec03"}, {"is_disabled": 0, "type": "electric_scooter", "fusion_lon": 0.0, "is_reserved": 0, "fusion_lat": 0.0, "lon": -77.0219595, "rental_uris": {"ios": "https://dc.lft.to/lastmile_qr_scan", "android": "https://dc.lft.to/lastmile_qr_scan"}, "bike_id": "434389a0af6e037db76fab50df433120", "lat": 38.929110666666666, "name": "434389a0af6e037db76fab50df433120"}, {"is_disabled": 0, "type": "electric_scooter", "fusion_lon": 0.0, "is_reserved": 0, "fusion_lat": 0.0, "lon": -76.99678733333333, "rental_uris": {"ios": "https://dc.lft.to/lastmile_qr_scan", "android": "https://dc.lft.to/lastmile_qr_scan"}, "bike_id": "1e8acbc792f44ba1ed6952b5775148ee", "lat": 38.88432, "name": "1e8acbc792f44ba1ed6952b5775148ee"}, {"is_disabled": 0, "type": "electric_scooter", "fusion_lon": 0.0, "is_reserved": 0, "fusion_lat": 0.0, "lon": -77.024707, "rental_uris": {"ios": "https://dc.lft.to/lastmile_qr_scan", "android": "https://dc.lft.to/lastmile_qr_scan"}, "bike_id": "ad8d0d2902497c12c3f07f9feceba871", "lat": 38.92593266666667, "name": "ad8d0d2902497c12c3f07f9feceba871"}, {"is_disabled": 0, "type": "electric_scooter", "fusion_lon": 0.0, "is_reserved": 0, "fusion_lat": 0.0, "lon": -77.01506983333333, "rental_uris": {"ios": "https://dc.lft.to/lastmile_qr_scan", "android": "https://dc.lft.to/lastmile_qr_scan"}, "bike_id": "ad83d353d9f0875753d31a0d10d7e379", "lat": 38.88893316666667, "name": "ad83d353d9f0875753d31a0d10d7e379"}, {"is_disabled": 0, "type": "electric_bike", "fusion_lon": 0.0, "is_reserved": 0, "fusion_lat": 0.0, "lon": -77.065285, "rental_uris": {"ios": "https://dc.lft.to/lastmile_qr_scan", "android": "https://dc.lft.to/lastmile_qr_scan"}, "bike_id": "bf581ae20a9deb64c15c773158d5edc0", "lat": 38.992253166666664, "name": "bf581ae20a9deb64c15c773158d5edc0"}, {"is_disabled": 0, "type": "electric_scooter", "fusion_lon": 0.0, "is_reserved": 0, "fusion_lat": 0.0, "lon": -77.02692433333333, "rental_uris": {"ios": "https://dc.lft.to/lastmile_qr_scan", "android": "https://dc.lft.to/lastmile_qr_scan"}, "bike_id": "ef9eacefd6cba7b6431003e6eea88d4a", "lat": 38.89714983333333, "name": "ef9eacefd6cba7b6431003e6eea88d4a"}, {"is_disabled": 0, "type": "electric_scooter", "fusion_lon": 0.0, "is_reserved": 0, "fusion_lat": 0.0, "lon": -77.02929333333333, "rental_uris": {"ios": "https://dc.lft.to/lastmile_qr_scan", "android": "https://dc.lft.to/lastmile_qr_scan"}, "bike_id": "75afff3c2603723b789639f4f0c532d2", "lat": 38.94278633333333, "name": "75afff3c2603723b789639f4f0c532d2"}, {"is_disabled": 0, "type": "electric_scooter", "fusion_lon": 0.0, "is_reserved": 0, "fusion_lat": 0.0, "lon": -77.02113633333333, "rental_uris": {"ios": "https://dc.lft.to/lastmile_qr_scan", "android": "https://dc.lft.to/lastmile_qr_scan"}, "bike_id": "9d784c04ce064dcf16b29a4d9a3fa62c", "lat": 38.917390166666664, "name": "9d784c04ce064dcf16b29a4d9a3fa62c"}, {"is_disabled": 0, "type": "electric_scooter", "fusion_lon": 0.0, "is_reserved": 0, "fusion_lat": 0.0, "lon": -77.03092366666667, "rental_uris": {"ios": "https://dc.lft.to/lastmile_qr_scan", "android": "https://dc.lft.to/lastmile_qr_scan"}, "bike_id": "f8f5c43b813756a39d3b0da22459feaa", "lat": 38.9353555, "name": "f8f5c43b813756a39d3b0da22459feaa"}, {"is_disabled": 0, "type": "electric_scooter", "fusion_lon": 0.0, "is_reserved": 0, "fusion_lat": 0.0, "lon": -77.01206833333333, "rental_uris": {"ios": "https://dc.lft.to/lastmile_qr_scan", "android": "https://dc.lft.to/lastmile_qr_scan"}, "bike_id": "dc193ee147450c4475a0b481ebede4e3", "lat": 38.898217833333334, "name": "dc193ee147450c4475a0b481ebede4e3"}, {"is_disabled": 0, "type": "electric_scooter", "fusion_lon": 0.0, "is_reserved": 0, "fusion_lat": 0.0, "lon": -77.05297616666667, "rental_uris": {"ios": "https://dc.lft.to/lastmile_qr_scan", "android": "https://dc.lft.to/lastmile_qr_scan"}, "bike_id": "7094ddc2a46a4983f1cc1769c19c36f8", "lat": 38.904233, "name": "7094ddc2a46a4983f1cc1769c19c36f8"}, {"is_disabled": 0, "type": "electric_scooter", "fusion_lon": 0.0, "is_reserved": 0, "fusion_lat": 0.0, "lon": -77.0253545, "rental_uris": {"ios": "https://dc.lft.to/lastmile_qr_scan", "android": "https://dc.lft.to/lastmile_qr_scan"}, "bike_id": "b8f757cb3908a728168e7b6b860ffb7a", "lat": 38.920813833333334, "name": "b8f757cb3908a728168e7b6b860ffb7a"}, {"is_disabled": 0, "type": "electric_scooter", "fusion_lon": 0.0, "is_reserved": 0, "fusion_lat": 0.0, "lon": -77.0281095, "rental_uris": {"ios": "https://dc.lft.to/lastmile_qr_scan", "android": "https://dc.lft.to/lastmile_qr_scan"}, "bike_id": "45ae8a24c695ef9dd139986145b744a9", "lat": 38.893578, "name": "45ae8a24c695ef9dd139986145b744a9"}, {"is_disabled": 0, "type": "electric_scooter", "fusion_lon": 0.0, "is_reserved": 0, "fusion_lat": 0.0, "lon": -77.02343266666666, "rental_uris": {"ios": "https://dc.lft.to/lastmile_qr_scan", "android": "https://dc.lft.to/lastmile_qr_scan"}, "bike_id": "34b69b6a9e4ad28aa022b0e46a833b6b", "lat": 38.944400333333334, "name": "34b69b6a9e4ad28aa022b0e46a833b6b"}, {"is_disabled": 0, "type": "electric_bike", "fusion_lon": 0.0, "is_reserved": 0, "fusion_lat": 0.0, "lon": -77.037764, "rental_uris": {"ios": "https://dc.lft.to/lastmile_qr_scan", "android": "https://dc.lft.to/lastmile_qr_scan"}, "bike_id": "a9cc8fc15191e023c478fb872f377204", "lat": 38.996689833333335, "name": "a9cc8fc15191e023c478fb872f377204"}, {"is_disabled": 0, "type": "electric_bike", "fusion_lon": 0.0, "is_reserved": 0, "fusion_lat": 0.0, "lon": -77.013579, "rental_uris": {"ios": "https://dc.lft.to/lastmile_qr_scan", "android": "https://dc.lft.to/lastmile_qr_scan"}, "bike_id": "42c3ecdfcb20391f7c8a3847e9724ea4", "lat": 38.8974735, "name": "42c3ecdfcb20391f7c8a3847e9724ea4"}, {"is_disabled": 0, "type": "electric_scooter", "fusion_lon": 0.0, "is_reserved": 0, "fusion_lat": 0.0, "lon": -77.059899, "rental_uris": {"ios": "https://dc.lft.to/lastmile_qr_scan", "android": "https://dc.lft.to/lastmile_qr_scan"}, "bike_id": "f89d34ba219aa2195458fb57a8993f18", "lat": 38.927117333333335, "name": "f89d34ba219aa2195458fb57a8993f18"}, {"is_disabled": 0, "type": "electric_scooter", "fusion_lon": 0.0, "is_reserved": 0, "fusion_lat": 0.0, "lon": -77.02824966666667, "rental_uris": {"ios": "https://dc.lft.to/lastmile_qr_scan", "android": "https://dc.lft.to/lastmile_qr_scan"}, "bike_id": "e9829101b5a15b9e1a0e5c62e2204c66", "lat": 38.931263, "name": "e9829101b5a15b9e1a0e5c62e2204c66"}, {"is_disabled": 0, "type": "electric_bike", "fusion_lon": 0.0, "is_reserved": 0, "fusion_lat": 0.0, "lon": -77.01220883333333, "rental_uris": {"ios": "https://dc.lft.to/lastmile_qr_scan", "android": "https://dc.lft.to/lastmile_qr_scan"}, "bike_id": "d38018467de0a7f0b28ed0580f6521cc", "lat": 38.91272516666667, "name": "d38018467de0a7f0b28ed0580f6521cc"}, {"is_disabled": 0, "type": "electric_scooter", "fusion_lon": 0.0, "is_reserved": 0, "fusion_lat": 0.0, "lon": -77.02208566666667, "rental_uris": {"ios": "https://dc.lft.to/lastmile_qr_scan", "android": "https://dc.lft.to/lastmile_qr_scan"}, "bike_id": "cbceada1d35c3d6f6bcf0cd4395e56f3", "lat": 38.9162545, "name": "cbceada1d35c3d6f6bcf0cd4395e56f3"}, {"is_disabled": 0, "type": "electric_scooter", "fusion_lon": 0.0, "is_reserved": 0, "fusion_lat": 0.0, "lon": -77.02840066666667, "rental_uris": {"ios": "https://dc.lft.to/lastmile_qr_scan", "android": "https://dc.lft.to/lastmile_qr_scan"}, "bike_id": "48ac198d6e91673e4e8b0dbc0c40a159", "lat": 38.904383333333335, "name": "48ac198d6e91673e4e8b0dbc0c40a159"}, {"is_disabled": 0, "type": "electric_scooter", "fusion_lon": 0.0, "is_reserved": 0, "fusion_lat": 0.0, "lon": -77.01682366666667, "rental_uris": {"ios": "https://dc.lft.to/lastmile_qr_scan", "android": "https://dc.lft.to/lastmile_qr_scan"}, "bike_id": "415e172f1e0d0ea11fd488807269f74a", "lat": 38.9204265, "name": "415e172f1e0d0ea11fd488807269f74a"}, {"is_disabled": 0, "type": "electric_bike", "fusion_lon": 0.0, "is_reserved": 0, "fusion_lat": 0.0, "lon": -77.1147645, "rental_uris": {"ios": "https://dc.lft.to/lastmile_qr_scan", "android": "https://dc.lft.to/lastmile_qr_scan"}, "bike_id": "b082807f8eac33aec782d385d44c6a53", "lat": 38.858340166666665, "name": "b082807f8eac33aec782d385d44c6a53"}, {"is_disabled": 0, "type": "electric_scooter", "fusion_lon": 0.0, "is_reserved": 0, "fusion_lat": 0.0, "lon": -77.03350966666666, "rental_uris": {"ios": "https://dc.lft.to/lastmile_qr_scan", "android": "https://dc.lft.to/lastmile_qr_scan"}, "bike_id": "48288b73b8a20b252e8ac5a122b6b602", "lat": 38.895301333333336, "name": "48288b73b8a20b252e8ac5a122b6b602"}, {"is_disabled": 0, "type": "electric_scooter", "fusion_lon": 0.0, "is_reserved": 0, "fusion_lat": 0.0, "lon": -77.0467975, "rental_uris": {"ios": "https://dc.lft.to/lastmile_qr_scan", "android": "https://dc.lft.to/lastmile_qr_scan"}, "bike_id": "a8c4e88094be323aa8e3ffd219ec8481", "lat": 38.89558683333333, "name": "a8c4e88094be323aa8e3ffd219ec8481"}, {"is_disabled": 0, "type": "electric_scooter", "fusion_lon": 0.0, "is_reserved": 0, "fusion_lat": 0.0, "lon": -77.01907266666667, "rental_uris": {"ios": "https://dc.lft.to/lastmile_qr_scan", "android": "https://dc.lft.to/lastmile_qr_scan"}, "bike_id": "bc2ae75ac67a8cda0229cc1ecaf390a8", "lat": 38.93725633333333, "name": "bc2ae75ac67a8cda0229cc1ecaf390a8"}, {"is_disabled": 0, "type": "electric_scooter", "fusion_lon": 0.0, "is_reserved": 0, "fusion_lat": 0.0, "lon": -77.0428095, "rental_uris": {"ios": "https://dc.lft.to/lastmile_qr_scan", "android": "https://dc.lft.to/lastmile_qr_scan"}, "bike_id": "44b592a611874a42b2d9860833902b01", "lat": 38.92292833333333, "name": "44b592a611874a42b2d9860833902b01"}, {"is_disabled": 0, "type": "electric_scooter", "fusion_lon": 0.0, "is_reserved": 0, "fusion_lat": 0.0, "lon": -77.03052133333334, "rental_uris": {"ios": "https://dc.lft.to/lastmile_qr_scan", "android": "https://dc.lft.to/lastmile_qr_scan"}, "bike_id": "07f686eed04a369a6ae01c917a72a515", "lat": 38.90304166666667, "name": "07f686eed04a369a6ae01c917a72a515"}, {"is_disabled": 0, "type": "electric_scooter", "fusion_lon": 0.0, "is_reserved": 0, "fusion_lat": 0.0, "lon": -77.05138883333333, "rental_uris": {"ios": "https://dc.lft.to/lastmile_qr_scan", "android": "https://dc.lft.to/lastmile_qr_scan"}, "bike_id": "197b207cc207745b72ef3a11b9b5a902", "lat": 38.90226583333333, "name": "197b207cc207745b72ef3a11b9b5a902"}, {"is_disabled": 0, "type": "electric_scooter", "fusion_lon": 0.0, "is_reserved": 0, "fusion_lat": 0.0, "lon": -77.02761966666667, "rental_uris": {"ios": "https://dc.lft.to/lastmile_qr_scan", "android": "https://dc.lft.to/lastmile_qr_scan"}, "bike_id": "eaf5729e381e9e5c377e82bc7e2d545d", "lat": 38.8922115, "name": "eaf5729e381e9e5c377e82bc7e2d545d"}, {"is_disabled": 0, "type": "electric_scooter", "fusion_lon": 0.0, "is_reserved": 0, "fusion_lat": 0.0, "lon": -77.0316085, "rental_uris": {"ios": "https://dc.lft.to/lastmile_qr_scan", "android": "https://dc.lft.to/lastmile_qr_scan"}, "bike_id": "0b30847ba74abf3a7c41d61b08b9d43d", "lat": 38.892185, "name": "0b30847ba74abf3a7c41d61b08b9d43d"}, {"is_disabled": 0, "type": "electric_scooter", "fusion_lon": 0.0, "is_reserved": 0, "fusion_lat": 0.0, "lon": -77.01899566666667, "rental_uris": {"ios": "https://dc.lft.to/lastmile_qr_scan", "android": "https://dc.lft.to/lastmile_qr_scan"}, "bike_id": "88a47b9cfe150c922f3ffa9ec5ae4273", "lat": 38.923353666666664, "name": "88a47b9cfe150c922f3ffa9ec5ae4273"}, {"is_disabled": 0, "type": "electric_scooter", "fusion_lon": 0.0, "is_reserved": 0, "fusion_lat": 0.0, "lon": -77.0206355, "rental_uris": {"ios": "https://dc.lft.to/lastmile_qr_scan", "android": "https://dc.lft.to/lastmile_qr_scan"}, "bike_id": "81a63ad780e4b6fd98d229e6680ebe95", "lat": 38.92376316666667, "name": "81a63ad780e4b6fd98d229e6680ebe95"}, {"is_disabled": 0, "type": "electric_scooter", "fusion_lon": 0.0, "is_reserved": 0, "fusion_lat": 0.0, "lon": -77.04648233333333, "rental_uris": {"ios": "https://dc.lft.to/lastmile_qr_scan", "android": "https://dc.lft.to/lastmile_qr_scan"}, "bike_id": "f97d005b7c488f02f573f6108afe1bc4", "lat": 38.89624283333333, "name": "f97d005b7c488f02f573f6108afe1bc4"}, {"is_disabled": 0, "type": "electric_scooter", "fusion_lon": 0.0, "is_reserved": 0, "fusion_lat": 0.0, "lon": -77.0657945, "rental_uris": {"ios": "https://dc.lft.to/lastmile_qr_scan", "android": "https://dc.lft.to/lastmile_qr_scan"}, "bike_id": "60d955c27a14e9dd5bdc7f545191801a", "lat": 38.9484485, "name": "60d955c27a14e9dd5bdc7f545191801a"}, {"is_disabled": 0, "type": "electric_scooter", "fusion_lon": 0.0, "is_reserved": 0, "fusion_lat": 0.0, "lon": -77.04167233333334, "rental_uris": {"ios": "https://dc.lft.to/lastmile_qr_scan", "android": "https://dc.lft.to/lastmile_qr_scan"}, "bike_id": "f14227714f19b56cea7a573447425b45", "lat": 38.907075166666665, "name": "f14227714f19b56cea7a573447425b45"}, {"is_disabled": 0, "type": "electric_scooter", "fusion_lon": 0.0, "is_reserved": 0, "fusion_lat": 0.0, "lon": -77.04876833333333, "rental_uris": {"ios": "https://dc.lft.to/lastmile_qr_scan", "android": "https://dc.lft.to/lastmile_qr_scan"}, "bike_id": "8fd32a69f3cc6ddd75c0c3f4a7cad250", "lat": 38.90031283333333, "name": "8fd32a69f3cc6ddd75c0c3f4a7cad250"}, {"is_disabled": 0, "type": "electric_bike", "fusion_lon": 0.0, "is_reserved": 0, "fusion_lat": 0.0, "lon": -76.9884245, "rental_uris": {"ios": "https://dc.lft.to/lastmile_qr_scan", "android": "https://dc.lft.to/lastmile_qr_scan"}, "bike_id": "8d1a7fe4092c5c180e05fb1dda330d50", "lat": 38.842787, "name": "8d1a7fe4092c5c180e05fb1dda330d50"}, {"is_disabled": 0, "type": "electric_scooter", "fusion_lon": 0.0, "is_reserved": 0, "fusion_lat": 0.0, "lon": -77.00915933333333, "rental_uris": {"ios": "https://dc.lft.to/lastmile_qr_scan", "android": "https://dc.lft.to/lastmile_qr_scan"}, "bike_id": "acd8f2c396c93e43aaa2033e1baeb251", "lat": 38.923378166666666, "name": "acd8f2c396c93e43aaa2033e1baeb251"}, {"is_disabled": 0, "type": "electric_scooter", "fusion_lon": 0.0, "is_reserved": 0, "fusion_lat": 0.0, "lon": -77.04345016666667, "rental_uris": {"ios": "https://dc.lft.to/lastmile_qr_scan", "android": "https://dc.lft.to/lastmile_qr_scan"}, "bike_id": "a80a880fb071e5a873a0db79859de339", "lat": 38.899734333333335, "name": "a80a880fb071e5a873a0db79859de339"}, {"is_disabled": 0, "type": "electric_scooter", "fusion_lon": 0.0, "is_reserved": 0, "fusion_lat": 0.0, "lon": -77.04636133333334, "rental_uris": {"ios": "https://dc.lft.to/lastmile_qr_scan", "android": "https://dc.lft.to/lastmile_qr_scan"}, "bike_id": "7814422f7242b270b51d726fec061cac", "lat": 38.9096325, "name": "7814422f7242b270b51d726fec061cac"}, {"is_disabled": 0, "type": "electric_scooter", "fusion_lon": 0.0, "is_reserved": 0, "fusion_lat": 0.0, "lon": -77.02086116666666, "rental_uris": {"ios": "https://dc.lft.to/lastmile_qr_scan", "android": "https://dc.lft.to/lastmile_qr_scan"}, "bike_id": "6f1b65e0314a5a674ca0e620334cd5db", "lat": 38.90283933333333, "name": "6f1b65e0314a5a674ca0e620334cd5db"}, {"is_disabled": 0, "type": "electric_scooter", "fusion_lon": 0.0, "is_reserved": 0, "fusion_lat": 0.0, "lon": -76.93064483333333, "rental_uris": {"ios": "https://dc.lft.to/lastmile_qr_scan", "android": "https://dc.lft.to/lastmile_qr_scan"}, "bike_id": "61b240b2a5d1b298a452d5a77132e797", "lat": 38.895553166666666, "name": "61b240b2a5d1b298a452d5a77132e797"}, {"is_disabled": 0, "type": "electric_scooter", "fusion_lon": 0.0, "is_reserved": 0, "fusion_lat": 0.0, "lon": -77.01216083333334, "rental_uris": {"ios": "https://dc.lft.to/lastmile_qr_scan", "android": "https://dc.lft.to/lastmile_qr_scan"}, "bike_id": "3330300fe561657f748af7016f17d57e", "lat": 38.896084, "name": "3330300fe561657f748af7016f17d57e"}, {"is_disabled": 0, "type": "electric_scooter", "fusion_lon": 0.0, "is_reserved": 0, "fusion_lat": 0.0, "lon": -77.01109616666666, "rental_uris": {"ios": "https://dc.lft.to/lastmile_qr_scan", "android": "https://dc.lft.to/lastmile_qr_scan"}, "bike_id": "9172018e1d4025e88d75310e3e9da576", "lat": 38.8947375, "name": "9172018e1d4025e88d75310e3e9da576"}, {"is_disabled": 0, "type": "electric_scooter", "fusion_lon": 0.0, "is_reserved": 0, "fusion_lat": 0.0, "lon": -77.04136416666667, "rental_uris": {"ios": "https://dc.lft.to/lastmile_qr_scan", "android": "https://dc.lft.to/lastmile_qr_scan"}, "bike_id": "51f039f6b94deba0710d1faf004154e7", "lat": 38.9021615, "name": "51f039f6b94deba0710d1faf004154e7"}, {"is_disabled": 0, "type": "electric_scooter", "fusion_lon": 0.0, "is_reserved": 0, "fusion_lat": 0.0, "lon": -77.02198433333334, "rental_uris": {"ios": "https://dc.lft.to/lastmile_qr_scan", "android": "https://dc.lft.to/lastmile_qr_scan"}, "bike_id": "ea6c55a7b124404e044af77461cb5658", "lat": 38.921724166666664, "name": "ea6c55a7b124404e044af77461cb5658"}, {"is_disabled": 0, "type": "electric_scooter", "fusion_lon": 0.0, "is_reserved": 0, "fusion_lat": 0.0, "lon": -77.0395605, "rental_uris": {"ios": "https://dc.lft.to/lastmile_qr_scan", "android": "https://dc.lft.to/lastmile_qr_scan"}, "bike_id": "21293f3704de3cf6eba8924c45413a0e", "lat": 38.9196435, "name": "21293f3704de3cf6eba8924c45413a0e"}, {"is_disabled": 0, "type": "electric_scooter", "fusion_lon": 0.0, "is_reserved": 0, "fusion_lat": 0.0, "lon": -77.01570383333333, "rental_uris": {"ios": "https://dc.lft.to/lastmile_qr_scan", "android": "https://dc.lft.to/lastmile_qr_scan"}, "bike_id": "c65c01be7673d96d37044ab866b2eb7e", "lat": 38.9268735, "name": "c65c01be7673d96d37044ab866b2eb7e"}, {"is_disabled": 0, "type": "electric_scooter", "fusion_lon": 0.0, "is_reserved": 0, "fusion_lat": 0.0, "lon": -77.0111255, "rental_uris": {"ios": "https://dc.lft.to/lastmile_qr_scan", "android": "https://dc.lft.to/lastmile_qr_scan"}, "bike_id": "ba070b35bd9a30bcf51cd7235e24b0ab", "lat": 38.88508916666667, "name": "ba070b35bd9a30bcf51cd7235e24b0ab"}, {"is_disabled": 0, "type": "electric_bike", "fusion_lon": 0.0, "is_reserved": 0, "fusion_lat": 0.0, "lon": -77.00413683333333, "rental_uris": {"ios": "https://dc.lft.to/lastmile_qr_scan", "android": "https://dc.lft.to/lastmile_qr_scan"}, "bike_id": "2461ffef90ba9e8bb7f2b1cba21e309f", "lat": 38.98527633333333, "name": "2461ffef90ba9e8bb7f2b1cba21e309f"}, {"is_disabled": 0, "type": "electric_scooter", "fusion_lon": 0.0, "is_reserved": 0, "fusion_lat": 0.0, "lon": -76.93210933333333, "rental_uris": {"ios": "https://dc.lft.to/lastmile_qr_scan", "android": "https://dc.lft.to/lastmile_qr_scan"}, "bike_id": "6b7a189814ee0e555a1a0181a0467901", "lat": 38.8966825, "name": "6b7a189814ee0e555a1a0181a0467901"}, {"is_disabled": 0, "type": "electric_scooter", "fusion_lon": 0.0, "is_reserved": 0, "fusion_lat": 0.0, "lon": -77.0248695, "rental_uris": {"ios": "https://dc.lft.to/lastmile_qr_scan", "android": "https://dc.lft.to/lastmile_qr_scan"}, "bike_id": "1c8693f70886a02582c1f2865e690d5d", "lat": 38.919272, "name": "1c8693f70886a02582c1f2865e690d5d"}, {"is_disabled": 0, "type": "electric_scooter", "fusion_lon": 0.0, "is_reserved": 0, "fusion_lat": 0.0, "lon": -77.01948583333333, "rental_uris": {"ios": "https://dc.lft.to/lastmile_qr_scan", "android": "https://dc.lft.to/lastmile_qr_scan"}, "bike_id": "e50bf1e89d028ce435f8b82bb77169b4", "lat": 38.92417066666667, "name": "e50bf1e89d028ce435f8b82bb77169b4"}, {"is_disabled": 0, "type": "electric_scooter", "fusion_lon": 0.0, "is_reserved": 0, "fusion_lat": 0.0, "lon": -76.93466033333333, "rental_uris": {"ios": "https://dc.lft.to/lastmile_qr_scan", "android": "https://dc.lft.to/lastmile_qr_scan"}, "bike_id": "8ce9ebc46f712d25515cf0dcc9b24413", "lat": 38.901833, "name": "8ce9ebc46f712d25515cf0dcc9b24413"}, {"is_disabled": 0, "type": "electric_scooter", "fusion_lon": 0.0, "is_reserved": 0, "fusion_lat": 0.0, "lon": -77.011711, "rental_uris": {"ios": "https://dc.lft.to/lastmile_qr_scan", "android": "https://dc.lft.to/lastmile_qr_scan"}, "bike_id": "fe87e29a98b87a652634c455a5a99442", "lat": 38.89623316666667, "name": "fe87e29a98b87a652634c455a5a99442"}, {"is_disabled": 0, "type": "electric_scooter", "fusion_lon": 0.0, "is_reserved": 0, "fusion_lat": 0.0, "lon": -77.03764366666667, "rental_uris": {"ios": "https://dc.lft.to/lastmile_qr_scan", "android": "https://dc.lft.to/lastmile_qr_scan"}, "bike_id": "a3ff56e1d8d4b8962cca93bd9f729808", "lat": 38.911209166666666, "name": "a3ff56e1d8d4b8962cca93bd9f729808"}, {"is_disabled": 0, "type": "electric_scooter", "fusion_lon": 0.0, "is_reserved": 0, "fusion_lat": 0.0, "lon": -77.04682516666666, "rental_uris": {"ios": "https://dc.lft.to/lastmile_qr_scan", "android": "https://dc.lft.to/lastmile_qr_scan"}, "bike_id": "849f562ed6b915f39c9d2e871419e1d7", "lat": 38.8995895, "name": "849f562ed6b915f39c9d2e871419e1d7"}, {"is_disabled": 0, "type": "electric_scooter", "fusion_lon": 0.0, "is_reserved": 0, "fusion_lat": 0.0, "lon": -77.0271845, "rental_uris": {"ios": "https://dc.lft.to/lastmile_qr_scan", "android": "https://dc.lft.to/lastmile_qr_scan"}, "bike_id": "f0805c930653f6b1f8bed1d34d2b5015", "lat": 38.901453333333336, "name": "f0805c930653f6b1f8bed1d34d2b5015"}, {"is_disabled": 0, "type": "electric_scooter", "fusion_lon": 0.0, "is_reserved": 0, "fusion_lat": 0.0, "lon": -77.0071285, "rental_uris": {"ios": "https://dc.lft.to/lastmile_qr_scan", "android": "https://dc.lft.to/lastmile_qr_scan"}, "bike_id": "76ac7c1d65165c9b36d9e110d53a5b5d", "lat": 38.884897, "name": "76ac7c1d65165c9b36d9e110d53a5b5d"}, {"is_disabled": 0, "type": "electric_scooter", "fusion_lon": 0.0, "is_reserved": 0, "fusion_lat": 0.0, "lon": -77.06271383333333, "rental_uris": {"ios": "https://dc.lft.to/lastmile_qr_scan", "android": "https://dc.lft.to/lastmile_qr_scan"}, "bike_id": "1da3e136513ac5c73e5303ecd7ff1c66", "lat": 38.905675333333335, "name": "1da3e136513ac5c73e5303ecd7ff1c66"}, {"is_disabled": 0, "type": "electric_scooter", "fusion_lon": 0.0, "is_reserved": 0, "fusion_lat": 0.0, "lon": -77.03639333333334, "rental_uris": {"ios": "https://dc.lft.to/lastmile_qr_scan", "android": "https://dc.lft.to/lastmile_qr_scan"}, "bike_id": "7c8fbbcee1b670c311b4a7d60039eb9b", "lat": 38.91816716666666, "name": "7c8fbbcee1b670c311b4a7d60039eb9b"}, {"is_disabled": 0, "type": "electric_scooter", "fusion_lon": 0.0, "is_reserved": 0, "fusion_lat": 0.0, "lon": -77.04160066666667, "rental_uris": {"ios": "https://dc.lft.to/lastmile_qr_scan", "android": "https://dc.lft.to/lastmile_qr_scan"}, "bike_id": "c12c17bc5c762e635278c5447443a8af", "lat": 38.934097666666666, "name": "c12c17bc5c762e635278c5447443a8af"}, {"is_disabled": 0, "type": "electric_scooter", "fusion_lon": 0.0, "is_reserved": 0, "fusion_lat": 0.0, "lon": -77.0151105, "rental_uris": {"ios": "https://dc.lft.to/lastmile_qr_scan", "android": "https://dc.lft.to/lastmile_qr_scan"}, "bike_id": "6c597c33748f81dd322f8147df60da4b", "lat": 38.89954916666667, "name": "6c597c33748f81dd322f8147df60da4b"}, {"is_disabled": 0, "type": "electric_scooter", "fusion_lon": 0.0, "is_reserved": 0, "fusion_lat": 0.0, "lon": -77.02709016666667, "rental_uris": {"ios": "https://dc.lft.to/lastmile_qr_scan", "android": "https://dc.lft.to/lastmile_qr_scan"}, "bike_id": "accbbe881a9b42a7000d5e4951e2cf2f", "lat": 38.91964216666667, "name": "accbbe881a9b42a7000d5e4951e2cf2f"}, {"is_disabled": 0, "type": "electric_scooter", "fusion_lon": 0.0, "is_reserved": 0, "fusion_lat": 0.0, "lon": -77.04646766666667, "rental_uris": {"ios": "https://dc.lft.to/lastmile_qr_scan", "android": "https://dc.lft.to/lastmile_qr_scan"}, "bike_id": "3b2b75933237444addda12babe345935", "lat": 38.907166, "name": "3b2b75933237444addda12babe345935"}, {"is_disabled": 0, "type": "electric_scooter", "fusion_lon": 0.0, "is_reserved": 0, "fusion_lat": 0.0, "lon": -77.018493, "rental_uris": {"ios": "https://dc.lft.to/lastmile_qr_scan", "android": "https://dc.lft.to/lastmile_qr_scan"}, "bike_id": "25f3729aace2287e537a600d2fd49aae", "lat": 38.94930266666667, "name": "25f3729aace2287e537a600d2fd49aae"}, {"is_disabled": 0, "type": "electric_scooter", "fusion_lon": 0.0, "is_reserved": 0, "fusion_lat": 0.0, "lon": -77.01793266666667, "rental_uris": {"ios": "https://dc.lft.to/lastmile_qr_scan", "android": "https://dc.lft.to/lastmile_qr_scan"}, "bike_id": "f5a68020a868bf1e1e761ef7baa0e92d", "lat": 38.921484166666666, "name": "f5a68020a868bf1e1e761ef7baa0e92d"}, {"is_disabled": 0, "type": "electric_scooter", "fusion_lon": 0.0, "is_reserved": 0, "fusion_lat": 0.0, "lon": -77.02536833333333, "rental_uris": {"ios": "https://dc.lft.to/lastmile_qr_scan", "android": "https://dc.lft.to/lastmile_qr_scan"}, "bike_id": "c9562d47c734fd4bed7daa9133d56bee", "lat": 38.920920333333335, "name": "c9562d47c734fd4bed7daa9133d56bee"}, {"is_disabled": 0, "type": "electric_scooter", "fusion_lon": 0.0, "is_reserved": 0, "fusion_lat": 0.0, "lon": -77.00338866666667, "rental_uris": {"ios": "https://dc.lft.to/lastmile_qr_scan", "android": "https://dc.lft.to/lastmile_qr_scan"}, "bike_id": "524ce9378516553f8f6410d9a285057c", "lat": 38.89357866666667, "name": "524ce9378516553f8f6410d9a285057c"}, {"is_disabled": 0, "type": "electric_scooter", "fusion_lon": 0.0, "is_reserved": 0, "fusion_lat": 0.0, "lon": -77.054577, "rental_uris": {"ios": "https://dc.lft.to/lastmile_qr_scan", "android": "https://dc.lft.to/lastmile_qr_scan"}, "bike_id": "5adf6a95d1146ce7a598fcc731b7b196", "lat": 38.92900566666667, "name": "5adf6a95d1146ce7a598fcc731b7b196"}, {"is_disabled": 0, "type": "electric_scooter", "fusion_lon": 0.0, "is_reserved": 0, "fusion_lat": 0.0, "lon": -77.03642983333333, "rental_uris": {"ios": "https://dc.lft.to/lastmile_qr_scan", "android": "https://dc.lft.to/lastmile_qr_scan"}, "bike_id": "26bea26999a2a3ed76e4ec0335bdce28", "lat": 38.918130166666664, "name": "26bea26999a2a3ed76e4ec0335bdce28"}, {"is_disabled": 0, "type": "electric_bike", "fusion_lon": 0.0, "is_reserved": 0, "fusion_lat": 0.0, "lon": -76.90750033333333, "rental_uris": {"ios": "https://dc.lft.to/lastmile_qr_scan", "android": "https://dc.lft.to/lastmile_qr_scan"}, "bike_id": "f7cad4dce52875835002961c0be62d6e", "lat": 38.89620016666667, "name": "f7cad4dce52875835002961c0be62d6e"}, {"is_disabled": 0, "type": "electric_scooter", "fusion_lon": 0.0, "is_reserved": 0, "fusion_lat": 0.0, "lon": -77.03644183333333, "rental_uris": {"ios": "https://dc.lft.to/lastmile_qr_scan", "android": "https://dc.lft.to/lastmile_qr_scan"}, "bike_id": "f8d414e520b869021a46bddca76f4c6d", "lat": 38.916889, "name": "f8d414e520b869021a46bddca76f4c6d"}, {"is_disabled": 0, "type": "electric_scooter", "fusion_lon": 0.0, "is_reserved": 0, "fusion_lat": 0.0, "lon": -77.038543, "rental_uris": {"ios": "https://dc.lft.to/lastmile_qr_scan", "android": "https://dc.lft.to/lastmile_qr_scan"}, "bike_id": "d3126b7663c24753c8899f0a1d88c41a", "lat": 38.91207583333333, "name": "d3126b7663c24753c8899f0a1d88c41a"}, {"is_disabled": 0, "type": "electric_scooter", "fusion_lon": 0.0, "is_reserved": 0, "fusion_lat": 0.0, "lon": -77.03713066666667, "rental_uris": {"ios": "https://dc.lft.to/lastmile_qr_scan", "android": "https://dc.lft.to/lastmile_qr_scan"}, "bike_id": "b440951a2033bb0ec6c6d790b17e7fe4", "lat": 38.9265125, "name": "b440951a2033bb0ec6c6d790b17e7fe4"}, {"is_disabled": 0, "type": "electric_scooter", "fusion_lon": 0.0, "is_reserved": 0, "fusion_lat": 0.0, "lon": -77.01935033333334, "rental_uris": {"ios": "https://dc.lft.to/lastmile_qr_scan", "android": "https://dc.lft.to/lastmile_qr_scan"}, "bike_id": "c1e83c6b914b517c56c5e736fe5a4b79", "lat": 38.92252166666667, "name": "c1e83c6b914b517c56c5e736fe5a4b79"}, {"is_disabled": 0, "type": "electric_scooter", "fusion_lon": 0.0, "is_reserved": 0, "fusion_lat": 0.0, "lon": -77.02755083333334, "rental_uris": {"ios": "https://dc.lft.to/lastmile_qr_scan", "android": "https://dc.lft.to/lastmile_qr_scan"}, "bike_id": "e2e3ff8ca6c379653d8f8fb47a91cd44", "lat": 38.95413333333333, "name": "e2e3ff8ca6c379653d8f8fb47a91cd44"}, {"is_disabled": 0, "type": "electric_scooter", "fusion_lon": 0.0, "is_reserved": 0, "fusion_lat": 0.0, "lon": -77.0271245, "rental_uris": {"ios": "https://dc.lft.to/lastmile_qr_scan", "android": "https://dc.lft.to/lastmile_qr_scan"}, "bike_id": "76b61dc25f2c047feeaada1f4e4c38af", "lat": 38.8976945, "name": "76b61dc25f2c047feeaada1f4e4c38af"}, {"is_disabled": 0, "type": "electric_scooter", "fusion_lon": 0.0, "is_reserved": 0, "fusion_lat": 0.0, "lon": -77.00537783333333, "rental_uris": {"ios": "https://dc.lft.to/lastmile_qr_scan", "android": "https://dc.lft.to/lastmile_qr_scan"}, "bike_id": "4e9942d3ef0d7577b3d90a83fac31d27", "lat": 38.8754445, "name": "4e9942d3ef0d7577b3d90a83fac31d27"}, {"is_disabled": 0, "type": "electric_scooter", "fusion_lon": 0.0, "is_reserved": 0, "fusion_lat": 0.0, "lon": -77.05311966666666, "rental_uris": {"ios": "https://dc.lft.to/lastmile_qr_scan", "android": "https://dc.lft.to/lastmile_qr_scan"}, "bike_id": "e0554242b9e55eea70e3c5c7a0ce85ef", "lat": 38.901685666666665, "name": "e0554242b9e55eea70e3c5c7a0ce85ef"}, {"is_disabled": 0, "type": "electric_scooter", "fusion_lon": 0.0, "is_reserved": 0, "fusion_lat": 0.0, "lon": -77.04494566666666, "rental_uris": {"ios": "https://dc.lft.to/lastmile_qr_scan", "android": "https://dc.lft.to/lastmile_qr_scan"}, "bike_id": "cf80111979dc39915b9af357b6f02364", "lat": 38.899535666666665, "name": "cf80111979dc39915b9af357b6f02364"}, {"is_disabled": 0, "type": "electric_scooter", "fusion_lon": 0.0, "is_reserved": 0, "fusion_lat": 0.0, "lon": -76.971388, "rental_uris": {"ios": "https://dc.lft.to/lastmile_qr_scan", "android": "https://dc.lft.to/lastmile_qr_scan"}, "bike_id": "f68991cc40d0a6eac1f204c126eb81bd", "lat": 38.913503166666665, "name": "f68991cc40d0a6eac1f204c126eb81bd"}, {"is_disabled": 0, "type": "electric_bike", "fusion_lon": 0.0, "is_reserved": 0, "fusion_lat": 0.0, "lon": -77.07659216666667, "rental_uris": {"ios": "https://dc.lft.to/lastmile_qr_scan", "android": "https://dc.lft.to/lastmile_qr_scan"}, "bike_id": "338769092560007a6b622323df319ace", "lat": 38.80980683333333, "name": "338769092560007a6b622323df319ace"}, {"is_disabled": 0, "type": "electric_scooter", "fusion_lon": 0.0, "is_reserved": 0, "fusion_lat": 0.0, "lon": -77.04145283333334, "rental_uris": {"ios": "https://dc.lft.to/lastmile_qr_scan", "android": "https://dc.lft.to/lastmile_qr_scan"}, "bike_id": "6e8e2afef0df96f4f4e1708c5c1aa6d3", "lat": 38.89955366666667, "name": "6e8e2afef0df96f4f4e1708c5c1aa6d3"}, {"is_disabled": 0, "type": "electric_scooter", "fusion_lon": 0.0, "is_reserved": 0, "fusion_lat": 0.0, "lon": -76.97824016666667, "rental_uris": {"ios": "https://dc.lft.to/lastmile_qr_scan", "android": "https://dc.lft.to/lastmile_qr_scan"}, "bike_id": "92d3b5070102a91856755fb98d2ff6fa", "lat": 38.89395416666667, "name": "92d3b5070102a91856755fb98d2ff6fa"}, {"is_disabled": 0, "type": "electric_scooter", "fusion_lon": 0.0, "is_reserved": 0, "fusion_lat": 0.0, "lon": -77.04711266666666, "rental_uris": {"ios": "https://dc.lft.to/lastmile_qr_scan", "android": "https://dc.lft.to/lastmile_qr_scan"}, "bike_id": "d5141a2d9a5c14fc2ccc288ee9b9f4e9", "lat": 38.901937833333335, "name": "d5141a2d9a5c14fc2ccc288ee9b9f4e9"}, {"is_disabled": 0, "type": "electric_scooter", "fusion_lon": 0.0, "is_reserved": 0, "fusion_lat": 0.0, "lon": -77.02143116666667, "rental_uris": {"ios": "https://dc.lft.to/lastmile_qr_scan", "android": "https://dc.lft.to/lastmile_qr_scan"}, "bike_id": "5defb3d113c3d5dd6a1c4400123cf2be", "lat": 38.92414933333333, "name": "5defb3d113c3d5dd6a1c4400123cf2be"}, {"is_disabled": 0, "type": "electric_scooter", "fusion_lon": 0.0, "is_reserved": 0, "fusion_lat": 0.0, "lon": -77.04177116666666, "rental_uris": {"ios": "https://dc.lft.to/lastmile_qr_scan", "android": "https://dc.lft.to/lastmile_qr_scan"}, "bike_id": "58c0cf21b2d2ac0ac5871d84b71e1e00", "lat": 38.89831, "name": "58c0cf21b2d2ac0ac5871d84b71e1e00"}, {"is_disabled": 0, "type": "electric_scooter", "fusion_lon": 0.0, "is_reserved": 0, "fusion_lat": 0.0, "lon": -77.0122775, "rental_uris": {"ios": "https://dc.lft.to/lastmile_qr_scan", "android": "https://dc.lft.to/lastmile_qr_scan"}, "bike_id": "1a3673e2726756f4a59030315cd92db2", "lat": 38.8771395, "name": "1a3673e2726756f4a59030315cd92db2"}, {"is_disabled": 0, "type": "electric_scooter", "fusion_lon": 0.0, "is_reserved": 0, "fusion_lat": 0.0, "lon": -77.025144, "rental_uris": {"ios": "https://dc.lft.to/lastmile_qr_scan", "android": "https://dc.lft.to/lastmile_qr_scan"}, "bike_id": "fc7c7a6764bfb214f3bdf7b48869ccba", "lat": 38.91917883333333, "name": "fc7c7a6764bfb214f3bdf7b48869ccba"}, {"is_disabled": 0, "type": "electric_scooter", "fusion_lon": 0.0, "is_reserved": 0, "fusion_lat": 0.0, "lon": -77.02012183333333, "rental_uris": {"ios": "https://dc.lft.to/lastmile_qr_scan", "android": "https://dc.lft.to/lastmile_qr_scan"}, "bike_id": "3bdb47e126ad59658c1066e30ed096e0", "lat": 38.92408316666667, "name": "3bdb47e126ad59658c1066e30ed096e0"}, {"is_disabled": 0, "type": "electric_scooter", "fusion_lon": 0.0, "is_reserved": 0, "fusion_lat": 0.0, "lon": -77.04666, "rental_uris": {"ios": "https://dc.lft.to/lastmile_qr_scan", "android": "https://dc.lft.to/lastmile_qr_scan"}, "bike_id": "5cf37a856fb2560867f84345c1c57f54", "lat": 38.8999985, "name": "5cf37a856fb2560867f84345c1c57f54"}, {"is_disabled": 0, "type": "electric_scooter", "fusion_lon": 0.0, "is_reserved": 0, "fusion_lat": 0.0, "lon": -77.046576, "rental_uris": {"ios": "https://dc.lft.to/lastmile_qr_scan", "android": "https://dc.lft.to/lastmile_qr_scan"}, "bike_id": "60659dde0459220e75c16d0371224c1d", "lat": 38.898431333333335, "name": "60659dde0459220e75c16d0371224c1d"}, {"is_disabled": 0, "type": "electric_scooter", "fusion_lon": 0.0, "is_reserved": 0, "fusion_lat": 0.0, "lon": -77.03775416666667, "rental_uris": {"ios": "https://dc.lft.to/lastmile_qr_scan", "android": "https://dc.lft.to/lastmile_qr_scan"}, "bike_id": "1d58a8d0480c5519ac441dd9c444219d", "lat": 38.91695883333333, "name": "1d58a8d0480c5519ac441dd9c444219d"}, {"is_disabled": 0, "type": "electric_scooter", "fusion_lon": 0.0, "is_reserved": 0, "fusion_lat": 0.0, "lon": -77.01601233333334, "rental_uris": {"ios": "https://dc.lft.to/lastmile_qr_scan", "android": "https://dc.lft.to/lastmile_qr_scan"}, "bike_id": "1a6022593300a2beb8e7361e3a5b3d86", "lat": 38.88318616666667, "name": "1a6022593300a2beb8e7361e3a5b3d86"}, {"is_disabled": 0, "type": "electric_scooter", "fusion_lon": 0.0, "is_reserved": 0, "fusion_lat": 0.0, "lon": -77.02792583333333, "rental_uris": {"ios": "https://dc.lft.to/lastmile_qr_scan", "android": "https://dc.lft.to/lastmile_qr_scan"}, "bike_id": "eabf50bf7dbea0c56ac1d5df694f6169", "lat": 38.92684033333333, "name": "eabf50bf7dbea0c56ac1d5df694f6169"}, {"is_disabled": 0, "type": "electric_scooter", "fusion_lon": 0.0, "is_reserved": 0, "fusion_lat": 0.0, "lon": -77.05045633333333, "rental_uris": {"ios": "https://dc.lft.to/lastmile_qr_scan", "android": "https://dc.lft.to/lastmile_qr_scan"}, "bike_id": "e064e6993edb62b5dbaf352871c8d7c5", "lat": 38.9030545, "name": "e064e6993edb62b5dbaf352871c8d7c5"}, {"is_disabled": 0, "type": "electric_scooter", "fusion_lon": 0.0, "is_reserved": 0, "fusion_lat": 0.0, "lon": -77.04172216666667, "rental_uris": {"ios": "https://dc.lft.to/lastmile_qr_scan", "android": "https://dc.lft.to/lastmile_qr_scan"}, "bike_id": "9ec2c13168c64652ad37bd66c74f8de9", "lat": 38.91772016666667, "name": "9ec2c13168c64652ad37bd66c74f8de9"}, {"is_disabled": 0, "type": "electric_bike", "fusion_lon": 0.0, "is_reserved": 0, "fusion_lat": 0.0, "lon": -76.9878585, "rental_uris": {"ios": "https://dc.lft.to/lastmile_qr_scan", "android": "https://dc.lft.to/lastmile_qr_scan"}, "bike_id": "d682b34a09082852f1a92e1eeebe1ec6", "lat": 38.844742333333336, "name": "d682b34a09082852f1a92e1eeebe1ec6"}, {"is_disabled": 0, "type": "electric_scooter", "fusion_lon": 0.0, "is_reserved": 0, "fusion_lat": 0.0, "lon": -77.041933, "rental_uris": {"ios": "https://dc.lft.to/lastmile_qr_scan", "android": "https://dc.lft.to/lastmile_qr_scan"}, "bike_id": "ad464e701dd20d512fd68cecbf758736", "lat": 38.923313666666665, "name": "ad464e701dd20d512fd68cecbf758736"}, {"is_disabled": 0, "type": "electric_scooter", "fusion_lon": 0.0, "is_reserved": 0, "fusion_lat": 0.0, "lon": -76.99456983333333, "rental_uris": {"ios": "https://dc.lft.to/lastmile_qr_scan", "android": "https://dc.lft.to/lastmile_qr_scan"}, "bike_id": "a55fe63ae07d0b6eebb9ae15bc354ec4", "lat": 38.90823416666667, "name": "a55fe63ae07d0b6eebb9ae15bc354ec4"}, {"is_disabled": 0, "type": "electric_scooter", "fusion_lon": 0.0, "is_reserved": 0, "fusion_lat": 0.0, "lon": -77.04015416666667, "rental_uris": {"ios": "https://dc.lft.to/lastmile_qr_scan", "android": "https://dc.lft.to/lastmile_qr_scan"}, "bike_id": "0cdc12426a1979887d10012c50e73a17", "lat": 38.9023265, "name": "0cdc12426a1979887d10012c50e73a17"}, {"is_disabled": 0, "type": "electric_scooter", "fusion_lon": 0.0, "is_reserved": 0, "fusion_lat": 0.0, "lon": -76.98802166666667, "rental_uris": {"ios": "https://dc.lft.to/lastmile_qr_scan", "android": "https://dc.lft.to/lastmile_qr_scan"}, "bike_id": "419cdd3c2c515f7efd4c720eaca63c15", "lat": 38.905928, "name": "419cdd3c2c515f7efd4c720eaca63c15"}, {"is_disabled": 0, "type": "electric_scooter", "fusion_lon": 0.0, "is_reserved": 0, "fusion_lat": 0.0, "lon": -77.020837, "rental_uris": {"ios": "https://dc.lft.to/lastmile_qr_scan", "android": "https://dc.lft.to/lastmile_qr_scan"}, "bike_id": "1903e2cad594cda2f38783c215306ad8", "lat": 38.91905766666667, "name": "1903e2cad594cda2f38783c215306ad8"}, {"is_disabled": 0, "type": "electric_scooter", "fusion_lon": 0.0, "is_reserved": 0, "fusion_lat": 0.0, "lon": -77.00599233333334, "rental_uris": {"ios": "https://dc.lft.to/lastmile_qr_scan", "android": "https://dc.lft.to/lastmile_qr_scan"}, "bike_id": "0094972ba2e95a22d19f506a421e5a38", "lat": 38.90623266666667, "name": "0094972ba2e95a22d19f506a421e5a38"}, {"is_disabled": 0, "type": "electric_scooter", "fusion_lon": 0.0, "is_reserved": 0, "fusion_lat": 0.0, "lon": -77.039982, "rental_uris": {"ios": "https://dc.lft.to/lastmile_qr_scan", "android": "https://dc.lft.to/lastmile_qr_scan"}, "bike_id": "727de5fc1b5d12cbe6dde608f99bfff4", "lat": 38.908416333333335, "name": "727de5fc1b5d12cbe6dde608f99bfff4"}, {"is_disabled": 0, "type": "electric_scooter", "fusion_lon": 0.0, "is_reserved": 0, "fusion_lat": 0.0, "lon": -77.00052266666667, "rental_uris": {"ios": "https://dc.lft.to/lastmile_qr_scan", "android": "https://dc.lft.to/lastmile_qr_scan"}, "bike_id": "d4fe6b05a73b06d61d5cb6c4594d2a0d", "lat": 38.87883033333333, "name": "d4fe6b05a73b06d61d5cb6c4594d2a0d"}, {"is_disabled": 0, "type": "electric_scooter", "fusion_lon": 0.0, "is_reserved": 0, "fusion_lat": 0.0, "lon": -77.05723416666666, "rental_uris": {"ios": "https://dc.lft.to/lastmile_qr_scan", "android": "https://dc.lft.to/lastmile_qr_scan"}, "bike_id": "ac84d7d9515800adfaf3bb6c1223e654", "lat": 38.931311, "name": "ac84d7d9515800adfaf3bb6c1223e654"}, {"is_disabled": 0, "type": "electric_scooter", "fusion_lon": 0.0, "is_reserved": 0, "fusion_lat": 0.0, "lon": -77.00128583333333, "rental_uris": {"ios": "https://dc.lft.to/lastmile_qr_scan", "android": "https://dc.lft.to/lastmile_qr_scan"}, "bike_id": "237353a5c48a992508d9125fea31b3ae", "lat": 38.87792316666667, "name": "237353a5c48a992508d9125fea31b3ae"}, {"is_disabled": 0, "type": "electric_scooter", "fusion_lon": 0.0, "is_reserved": 0, "fusion_lat": 0.0, "lon": -77.05238166666666, "rental_uris": {"ios": "https://dc.lft.to/lastmile_qr_scan", "android": "https://dc.lft.to/lastmile_qr_scan"}, "bike_id": "10becf57d2cb2418ab24030e60a0e120", "lat": 38.924672666666666, "name": "10becf57d2cb2418ab24030e60a0e120"}, {"is_disabled": 0, "type": "electric_scooter", "fusion_lon": 0.0, "is_reserved": 0, "fusion_lat": 0.0, "lon": -77.04818633333333, "rental_uris": {"ios": "https://dc.lft.to/lastmile_qr_scan", "android": "https://dc.lft.to/lastmile_qr_scan"}, "bike_id": "96dd0dd4ac841420930b68a26c68a596", "lat": 38.91335983333333, "name": "96dd0dd4ac841420930b68a26c68a596"}, {"is_disabled": 0, "type": "electric_scooter", "fusion_lon": 0.0, "is_reserved": 0, "fusion_lat": 0.0, "lon": -77.0423135, "rental_uris": {"ios": "https://dc.lft.to/lastmile_qr_scan", "android": "https://dc.lft.to/lastmile_qr_scan"}, "bike_id": "cf79df5d54937080a14c3828145d4c1e", "lat": 38.92146833333334, "name": "cf79df5d54937080a14c3828145d4c1e"}, {"is_disabled": 0, "type": "electric_scooter", "fusion_lon": 0.0, "is_reserved": 0, "fusion_lat": 0.0, "lon": -77.017939, "rental_uris": {"ios": "https://dc.lft.to/lastmile_qr_scan", "android": "https://dc.lft.to/lastmile_qr_scan"}, "bike_id": "6c26b16511128cc5837ee65ee2cbdfc1", "lat": 38.92142166666667, "name": "6c26b16511128cc5837ee65ee2cbdfc1"}, {"is_disabled": 0, "type": "electric_scooter", "fusion_lon": 0.0, "is_reserved": 0, "fusion_lat": 0.0, "lon": -76.98085516666667, "rental_uris": {"ios": "https://dc.lft.to/lastmile_qr_scan", "android": "https://dc.lft.to/lastmile_qr_scan"}, "bike_id": "e12871754ec10bcfcfbbcee0f305c57a", "lat": 38.8944165, "name": "e12871754ec10bcfcfbbcee0f305c57a"}, {"is_disabled": 0, "type": "electric_scooter", "fusion_lon": 0.0, "is_reserved": 0, "fusion_lat": 0.0, "lon": -77.00918466666667, "rental_uris": {"ios": "https://dc.lft.to/lastmile_qr_scan", "android": "https://dc.lft.to/lastmile_qr_scan"}, "bike_id": "756eb4542b3c56c92e664fcfe7b73f23", "lat": 38.89546983333334, "name": "756eb4542b3c56c92e664fcfe7b73f23"}, {"is_disabled": 0, "type": "electric_bike", "fusion_lon": 0.0, "is_reserved": 0, "fusion_lat": 0.0, "lon": -77.01060683333333, "rental_uris": {"ios": "https://dc.lft.to/lastmile_qr_scan", "android": "https://dc.lft.to/lastmile_qr_scan"}, "bike_id": "8106b25a79fdc5ad65df679c39c3ed56", "lat": 38.96631433333334, "name": "8106b25a79fdc5ad65df679c39c3ed56"}, {"is_disabled": 0, "type": "electric_scooter", "fusion_lon": 0.0, "is_reserved": 0, "fusion_lat": 0.0, "lon": -76.92586133333333, "rental_uris": {"ios": "https://dc.lft.to/lastmile_qr_scan", "android": "https://dc.lft.to/lastmile_qr_scan"}, "bike_id": "f41b00ef661728e5e3742c582c59afb8", "lat": 38.897308833333334, "name": "f41b00ef661728e5e3742c582c59afb8"}, {"is_disabled": 0, "type": "electric_scooter", "fusion_lon": 0.0, "is_reserved": 0, "fusion_lat": 0.0, "lon": -77.02140183333333, "rental_uris": {"ios": "https://dc.lft.to/lastmile_qr_scan", "android": "https://dc.lft.to/lastmile_qr_scan"}, "bike_id": "42aeed9a32978cca3fde9e7465b6a7a7", "lat": 38.9249005, "name": "42aeed9a32978cca3fde9e7465b6a7a7"}, {"is_disabled": 0, "type": "electric_scooter", "fusion_lon": 0.0, "is_reserved": 0, "fusion_lat": 0.0, "lon": -77.019134, "rental_uris": {"ios": "https://dc.lft.to/lastmile_qr_scan", "android": "https://dc.lft.to/lastmile_qr_scan"}, "bike_id": "7c6e2112c9b2b63af19511a2d396795c", "lat": 38.923709, "name": "7c6e2112c9b2b63af19511a2d396795c"}, {"is_disabled": 0, "type": "electric_scooter", "fusion_lon": 0.0, "is_reserved": 0, "fusion_lat": 0.0, "lon": -77.0258615, "rental_uris": {"ios": "https://dc.lft.to/lastmile_qr_scan", "android": "https://dc.lft.to/lastmile_qr_scan"}, "bike_id": "390382db9449d9840fe5ddc3c15c92cc", "lat": 38.92033966666666, "name": "390382db9449d9840fe5ddc3c15c92cc"}, {"is_disabled": 0, "type": "electric_scooter", "fusion_lon": 0.0, "is_reserved": 0, "fusion_lat": 0.0, "lon": -77.02212033333333, "rental_uris": {"ios": "https://dc.lft.to/lastmile_qr_scan", "android": "https://dc.lft.to/lastmile_qr_scan"}, "bike_id": "b2d242c13909da7efe9f3c219da35863", "lat": 38.9163775, "name": "b2d242c13909da7efe9f3c219da35863"}, {"is_disabled": 0, "type": "electric_scooter", "fusion_lon": 0.0, "is_reserved": 0, "fusion_lat": 0.0, "lon": -77.04469716666667, "rental_uris": {"ios": "https://dc.lft.to/lastmile_qr_scan", "android": "https://dc.lft.to/lastmile_qr_scan"}, "bike_id": "dbebb1a6ccbbcd0980ee4ee5cc550f20", "lat": 38.915296833333336, "name": "dbebb1a6ccbbcd0980ee4ee5cc550f20"}, {"is_disabled": 0, "type": "electric_bike", "fusion_lon": 0.0, "is_reserved": 0, "fusion_lat": 0.0, "lon": -77.02440433333334, "rental_uris": {"ios": "https://dc.lft.to/lastmile_qr_scan", "android": "https://dc.lft.to/lastmile_qr_scan"}, "bike_id": "7fc4dcba8802803c0097532e41712c06", "lat": 38.926012666666665, "name": "7fc4dcba8802803c0097532e41712c06"}, {"is_disabled": 0, "type": "electric_bike", "fusion_lon": 0.0, "is_reserved": 0, "fusion_lat": 0.0, "lon": -77.00335866666667, "rental_uris": {"ios": "https://dc.lft.to/lastmile_qr_scan", "android": "https://dc.lft.to/lastmile_qr_scan"}, "bike_id": "8b9cfab3608278ec9174ede5ffe939ab", "lat": 38.9202005, "name": "8b9cfab3608278ec9174ede5ffe939ab"}, {"is_disabled": 0, "type": "electric_scooter", "fusion_lon": 0.0, "is_reserved": 0, "fusion_lat": 0.0, "lon": -76.99956166666666, "rental_uris": {"ios": "https://dc.lft.to/lastmile_qr_scan", "android": "https://dc.lft.to/lastmile_qr_scan"}, "bike_id": "26dc6c8b7687f3dc5b1c06953428a3f6", "lat": 38.906911666666666, "name": "26dc6c8b7687f3dc5b1c06953428a3f6"}, {"is_disabled": 0, "type": "electric_scooter", "fusion_lon": 0.0, "is_reserved": 0, "fusion_lat": 0.0, "lon": -77.0399195, "rental_uris": {"ios": "https://dc.lft.to/lastmile_qr_scan", "android": "https://dc.lft.to/lastmile_qr_scan"}, "bike_id": "6cfb1245f4767217332509abcb77d30a", "lat": 38.90608, "name": "6cfb1245f4767217332509abcb77d30a"}, {"is_disabled": 0, "type": "electric_scooter", "fusion_lon": 0.0, "is_reserved": 0, "fusion_lat": 0.0, "lon": -77.02286916666667, "rental_uris": {"ios": "https://dc.lft.to/lastmile_qr_scan", "android": "https://dc.lft.to/lastmile_qr_scan"}, "bike_id": "844d8df721f9cf7ae42d2e44397b9a9c", "lat": 38.90156966666667, "name": "844d8df721f9cf7ae42d2e44397b9a9c"}, {"is_disabled": 0, "type": "electric_scooter", "fusion_lon": 0.0, "is_reserved": 0, "fusion_lat": 0.0, "lon": -77.03129733333333, "rental_uris": {"ios": "https://dc.lft.to/lastmile_qr_scan", "android": "https://dc.lft.to/lastmile_qr_scan"}, "bike_id": "8e6c7c2510de41512518ecf41591576f", "lat": 38.920174333333335, "name": "8e6c7c2510de41512518ecf41591576f"}, {"is_disabled": 0, "type": "electric_scooter", "fusion_lon": 0.0, "is_reserved": 0, "fusion_lat": 0.0, "lon": -77.0357435, "rental_uris": {"ios": "https://dc.lft.to/lastmile_qr_scan", "android": "https://dc.lft.to/lastmile_qr_scan"}, "bike_id": "95bc18c0fcf6e0191c30b54923715f70", "lat": 38.926830833333334, "name": "95bc18c0fcf6e0191c30b54923715f70"}, {"is_disabled": 0, "type": "electric_scooter", "fusion_lon": 0.0, "is_reserved": 0, "fusion_lat": 0.0, "lon": -77.05705666666667, "rental_uris": {"ios": "https://dc.lft.to/lastmile_qr_scan", "android": "https://dc.lft.to/lastmile_qr_scan"}, "bike_id": "a6f9c1987ad5aedcea53eeaa10c5f3ad", "lat": 38.925999833333336, "name": "a6f9c1987ad5aedcea53eeaa10c5f3ad"}, {"is_disabled": 0, "type": "electric_scooter", "fusion_lon": 0.0, "is_reserved": 0, "fusion_lat": 0.0, "lon": -77.01855933333333, "rental_uris": {"ios": "https://dc.lft.to/lastmile_qr_scan", "android": "https://dc.lft.to/lastmile_qr_scan"}, "bike_id": "6bca2aa239266b7fc4558608a63517e3", "lat": 38.914916166666664, "name": "6bca2aa239266b7fc4558608a63517e3"}, {"is_disabled": 0, "type": "electric_scooter", "fusion_lon": 0.0, "is_reserved": 0, "fusion_lat": 0.0, "lon": -77.01893516666667, "rental_uris": {"ios": "https://dc.lft.to/lastmile_qr_scan", "android": "https://dc.lft.to/lastmile_qr_scan"}, "bike_id": "f3ddf4f381564bfd632ccbbb6def9fdd", "lat": 38.919497, "name": "f3ddf4f381564bfd632ccbbb6def9fdd"}, {"is_disabled": 0, "type": "electric_scooter", "fusion_lon": 0.0, "is_reserved": 0, "fusion_lat": 0.0, "lon": -77.03062466666667, "rental_uris": {"ios": "https://dc.lft.to/lastmile_qr_scan", "android": "https://dc.lft.to/lastmile_qr_scan"}, "bike_id": "e12440616c3d0771df81260413a365dc", "lat": 38.9461205, "name": "e12440616c3d0771df81260413a365dc"}, {"is_disabled": 0, "type": "electric_scooter", "fusion_lon": 0.0, "is_reserved": 0, "fusion_lat": 0.0, "lon": -77.0388255, "rental_uris": {"ios": "https://dc.lft.to/lastmile_qr_scan", "android": "https://dc.lft.to/lastmile_qr_scan"}, "bike_id": "a4057c422947872da609f80221861cb0", "lat": 38.918450166666666, "name": "a4057c422947872da609f80221861cb0"}, {"is_disabled": 0, "type": "electric_scooter", "fusion_lon": 0.0, "is_reserved": 0, "fusion_lat": 0.0, "lon": -77.01777116666666, "rental_uris": {"ios": "https://dc.lft.to/lastmile_qr_scan", "android": "https://dc.lft.to/lastmile_qr_scan"}, "bike_id": "9bbc87b5da8cd233de26249743c32ea9", "lat": 38.919958, "name": "9bbc87b5da8cd233de26249743c32ea9"}, {"is_disabled": 0, "type": "electric_scooter", "fusion_lon": 0.0, "is_reserved": 0, "fusion_lat": 0.0, "lon": -77.0176425, "rental_uris": {"ios": "https://dc.lft.to/lastmile_qr_scan", "android": "https://dc.lft.to/lastmile_qr_scan"}, "bike_id": "1854a6b0f3800ab72ee6846aa7067d2d", "lat": 38.87705416666667, "name": "1854a6b0f3800ab72ee6846aa7067d2d"}, {"is_disabled": 0, "type": "electric_scooter", "fusion_lon": 0.0, "is_reserved": 0, "fusion_lat": 0.0, "lon": -77.02349633333333, "rental_uris": {"ios": "https://dc.lft.to/lastmile_qr_scan", "android": "https://dc.lft.to/lastmile_qr_scan"}, "bike_id": "78129a1425ad0c471a64926f62d993a9", "lat": 38.93534283333334, "name": "78129a1425ad0c471a64926f62d993a9"}, {"is_disabled": 0, "type": "electric_scooter", "fusion_lon": 0.0, "is_reserved": 0, "fusion_lat": 0.0, "lon": -77.05758516666667, "rental_uris": {"ios": "https://dc.lft.to/lastmile_qr_scan", "android": "https://dc.lft.to/lastmile_qr_scan"}, "bike_id": "ae3371957048a9bd836e1b5c02411a4b", "lat": 38.924881666666664, "name": "ae3371957048a9bd836e1b5c02411a4b"}, {"is_disabled": 0, "type": "electric_scooter", "fusion_lon": 0.0, "is_reserved": 0, "fusion_lat": 0.0, "lon": -77.04060166666666, "rental_uris": {"ios": "https://dc.lft.to/lastmile_qr_scan", "android": "https://dc.lft.to/lastmile_qr_scan"}, "bike_id": "ce3c8c84921efc04d2903e8b4525d202", "lat": 38.91764883333333, "name": "ce3c8c84921efc04d2903e8b4525d202"}, {"is_disabled": 0, "type": "electric_scooter", "fusion_lon": 0.0, "is_reserved": 0, "fusion_lat": 0.0, "lon": -77.04349616666667, "rental_uris": {"ios": "https://dc.lft.to/lastmile_qr_scan", "android": "https://dc.lft.to/lastmile_qr_scan"}, "bike_id": "c95c6281ea2ed89cf8b5bec34fa527cd", "lat": 38.89841, "name": "c95c6281ea2ed89cf8b5bec34fa527cd"}, {"is_disabled": 0, "type": "electric_scooter", "fusion_lon": 0.0, "is_reserved": 0, "fusion_lat": 0.0, "lon": -77.0005485, "rental_uris": {"ios": "https://dc.lft.to/lastmile_qr_scan", "android": "https://dc.lft.to/lastmile_qr_scan"}, "bike_id": "af3bce8722243e45520197b3b6362130", "lat": 38.876808833333335, "name": "af3bce8722243e45520197b3b6362130"}, {"is_disabled": 0, "type": "electric_scooter", "fusion_lon": 0.0, "is_reserved": 0, "fusion_lat": 0.0, "lon": -77.029689, "rental_uris": {"ios": "https://dc.lft.to/lastmile_qr_scan", "android": "https://dc.lft.to/lastmile_qr_scan"}, "bike_id": "5c93cc2314957321368ac5c9da46f297", "lat": 38.90079466666667, "name": "5c93cc2314957321368ac5c9da46f297"}, {"is_disabled": 0, "type": "electric_scooter", "fusion_lon": 0.0, "is_reserved": 0, "fusion_lat": 0.0, "lon": -76.98134416666667, "rental_uris": {"ios": "https://dc.lft.to/lastmile_qr_scan", "android": "https://dc.lft.to/lastmile_qr_scan"}, "bike_id": "f293ebbb72d309355b783747f9a8d53f", "lat": 38.9034115, "name": "f293ebbb72d309355b783747f9a8d53f"}, {"is_disabled": 0, "type": "electric_scooter", "fusion_lon": 0.0, "is_reserved": 0, "fusion_lat": 0.0, "lon": -76.92504183333334, "rental_uris": {"ios": "https://dc.lft.to/lastmile_qr_scan", "android": "https://dc.lft.to/lastmile_qr_scan"}, "bike_id": "5173c6a36592152961aa59b658bd22b9", "lat": 38.88603916666667, "name": "5173c6a36592152961aa59b658bd22b9"}, {"is_disabled": 0, "type": "electric_scooter", "fusion_lon": 0.0, "is_reserved": 0, "fusion_lat": 0.0, "lon": -77.00370866666667, "rental_uris": {"ios": "https://dc.lft.to/lastmile_qr_scan", "android": "https://dc.lft.to/lastmile_qr_scan"}, "bike_id": "1f24cfde7d7649adf1752c832ee45c2b", "lat": 38.897077, "name": "1f24cfde7d7649adf1752c832ee45c2b"}, {"is_disabled": 0, "type": "electric_scooter", "fusion_lon": 0.0, "is_reserved": 0, "fusion_lat": 0.0, "lon": -76.99497583333333, "rental_uris": {"ios": "https://dc.lft.to/lastmile_qr_scan", "android": "https://dc.lft.to/lastmile_qr_scan"}, "bike_id": "1609cb66c232870686f7c1a5510e19f4", "lat": 38.880778666666664, "name": "1609cb66c232870686f7c1a5510e19f4"}, {"is_disabled": 0, "type": "electric_scooter", "fusion_lon": 0.0, "is_reserved": 0, "fusion_lat": 0.0, "lon": -77.05703483333333, "rental_uris": {"ios": "https://dc.lft.to/lastmile_qr_scan", "android": "https://dc.lft.to/lastmile_qr_scan"}, "bike_id": "4642c4a510225853f7b251850de91e2e", "lat": 38.916704, "name": "4642c4a510225853f7b251850de91e2e"}, {"is_disabled": 0, "type": "electric_scooter", "fusion_lon": 0.0, "is_reserved": 0, "fusion_lat": 0.0, "lon": -77.0170415, "rental_uris": {"ios": "https://dc.lft.to/lastmile_qr_scan", "android": "https://dc.lft.to/lastmile_qr_scan"}, "bike_id": "61d07ff0fd6d263ad198887dd4e7dd8e", "lat": 38.87290866666667, "name": "61d07ff0fd6d263ad198887dd4e7dd8e"}, {"is_disabled": 0, "type": "electric_scooter", "fusion_lon": 0.0, "is_reserved": 0, "fusion_lat": 0.0, "lon": -77.02761666666666, "rental_uris": {"ios": "https://dc.lft.to/lastmile_qr_scan", "android": "https://dc.lft.to/lastmile_qr_scan"}, "bike_id": "38301b1e1b919974f9a3d3b7f39d4921", "lat": 38.956124833333334, "name": "38301b1e1b919974f9a3d3b7f39d4921"}, {"is_disabled": 0, "type": "electric_scooter", "fusion_lon": 0.0, "is_reserved": 0, "fusion_lat": 0.0, "lon": -77.02116066666666, "rental_uris": {"ios": "https://dc.lft.to/lastmile_qr_scan", "android": "https://dc.lft.to/lastmile_qr_scan"}, "bike_id": "754964f32bd8c0f3b104b4038cd600b6", "lat": 38.917410833333335, "name": "754964f32bd8c0f3b104b4038cd600b6"}, {"is_disabled": 0, "type": "electric_scooter", "fusion_lon": 0.0, "is_reserved": 0, "fusion_lat": 0.0, "lon": -77.01955066666666, "rental_uris": {"ios": "https://dc.lft.to/lastmile_qr_scan", "android": "https://dc.lft.to/lastmile_qr_scan"}, "bike_id": "9d6db7dffa636c7d6489f7a917bcf8a1", "lat": 38.8849155, "name": "9d6db7dffa636c7d6489f7a917bcf8a1"}, {"is_disabled": 0, "type": "electric_scooter", "fusion_lon": 0.0, "is_reserved": 0, "fusion_lat": 0.0, "lon": -77.02964133333333, "rental_uris": {"ios": "https://dc.lft.to/lastmile_qr_scan", "android": "https://dc.lft.to/lastmile_qr_scan"}, "bike_id": "d6a532fe4407555fe6b281c972765563", "lat": 38.904971333333336, "name": "d6a532fe4407555fe6b281c972765563"}, {"is_disabled": 0, "type": "electric_scooter", "fusion_lon": 0.0, "is_reserved": 0, "fusion_lat": 0.0, "lon": -77.00299266666667, "rental_uris": {"ios": "https://dc.lft.to/lastmile_qr_scan", "android": "https://dc.lft.to/lastmile_qr_scan"}, "bike_id": "7a67d04405ba0f9f0f53df9519308b07", "lat": 38.87657566666667, "name": "7a67d04405ba0f9f0f53df9519308b07"}, {"is_disabled": 0, "type": "electric_scooter", "fusion_lon": 0.0, "is_reserved": 0, "fusion_lat": 0.0, "lon": -77.05022633333333, "rental_uris": {"ios": "https://dc.lft.to/lastmile_qr_scan", "android": "https://dc.lft.to/lastmile_qr_scan"}, "bike_id": "ea5e6d8eb24e8b05341d7e7db286d43a", "lat": 38.8965325, "name": "ea5e6d8eb24e8b05341d7e7db286d43a"}, {"is_disabled": 0, "type": "electric_scooter", "fusion_lon": 0.0, "is_reserved": 0, "fusion_lat": 0.0, "lon": -77.04344666666667, "rental_uris": {"ios": "https://dc.lft.to/lastmile_qr_scan", "android": "https://dc.lft.to/lastmile_qr_scan"}, "bike_id": "49a0d814249a9ab67b3fdd8cd195b513", "lat": 38.897309, "name": "49a0d814249a9ab67b3fdd8cd195b513"}, {"is_disabled": 0, "type": "electric_scooter", "fusion_lon": 0.0, "is_reserved": 0, "fusion_lat": 0.0, "lon": -76.99500966666666, "rental_uris": {"ios": "https://dc.lft.to/lastmile_qr_scan", "android": "https://dc.lft.to/lastmile_qr_scan"}, "bike_id": "f6e03b3de34bcb980ba827a56c4c5893", "lat": 38.883426166666666, "name": "f6e03b3de34bcb980ba827a56c4c5893"}, {"is_disabled": 0, "type": "electric_bike", "fusion_lon": 0.0, "is_reserved": 0, "fusion_lat": 0.0, "lon": -77.03271083333334, "rental_uris": {"ios": "https://dc.lft.to/lastmile_qr_scan", "android": "https://dc.lft.to/lastmile_qr_scan"}, "bike_id": "8c22abb4b29445d09e4c38ee0e0663a6", "lat": 38.961239, "name": "8c22abb4b29445d09e4c38ee0e0663a6"}, {"is_disabled": 0, "type": "electric_scooter", "fusion_lon": 0.0, "is_reserved": 0, "fusion_lat": 0.0, "lon": -77.0406655, "rental_uris": {"ios": "https://dc.lft.to/lastmile_qr_scan", "android": "https://dc.lft.to/lastmile_qr_scan"}, "bike_id": "55f9312bd32683a7b2bfee3f5d7fa81d", "lat": 38.89898383333333, "name": "55f9312bd32683a7b2bfee3f5d7fa81d"}, {"is_disabled": 0, "type": "electric_scooter", "fusion_lon": 0.0, "is_reserved": 0, "fusion_lat": 0.0, "lon": -77.03980383333334, "rental_uris": {"ios": "https://dc.lft.to/lastmile_qr_scan", "android": "https://dc.lft.to/lastmile_qr_scan"}, "bike_id": "e5dac848e073c54d321857add300e9bf", "lat": 38.905474166666664, "name": "e5dac848e073c54d321857add300e9bf"}, {"is_disabled": 0, "type": "electric_scooter", "fusion_lon": 0.0, "is_reserved": 0, "fusion_lat": 0.0, "lon": -77.02386, "rental_uris": {"ios": "https://dc.lft.to/lastmile_qr_scan", "android": "https://dc.lft.to/lastmile_qr_scan"}, "bike_id": "13d09e519154faa4b1dfa287c370ead7", "lat": 38.91703283333333, "name": "13d09e519154faa4b1dfa287c370ead7"}, {"is_disabled": 0, "type": "electric_scooter", "fusion_lon": 0.0, "is_reserved": 0, "fusion_lat": 0.0, "lon": -77.02026933333333, "rental_uris": {"ios": "https://dc.lft.to/lastmile_qr_scan", "android": "https://dc.lft.to/lastmile_qr_scan"}, "bike_id": "f1951618594150d18b7ab4bdba775849", "lat": 38.921256, "name": "f1951618594150d18b7ab4bdba775849"}, {"is_disabled": 0, "type": "electric_scooter", "fusion_lon": 0.0, "is_reserved": 0, "fusion_lat": 0.0, "lon": -77.03637083333334, "rental_uris": {"ios": "https://dc.lft.to/lastmile_qr_scan", "android": "https://dc.lft.to/lastmile_qr_scan"}, "bike_id": "6532042e4c6f6016606b789cf0fc53e6", "lat": 38.9181515, "name": "6532042e4c6f6016606b789cf0fc53e6"}, {"is_disabled": 0, "type": "electric_scooter", "fusion_lon": 0.0, "is_reserved": 0, "fusion_lat": 0.0, "lon": -77.05557, "rental_uris": {"ios": "https://dc.lft.to/lastmile_qr_scan", "android": "https://dc.lft.to/lastmile_qr_scan"}, "bike_id": "2c67e5afbd67fe25210f8ed5dffaf063", "lat": 38.899735, "name": "2c67e5afbd67fe25210f8ed5dffaf063"}, {"is_disabled": 0, "type": "electric_scooter", "fusion_lon": 0.0, "is_reserved": 0, "fusion_lat": 0.0, "lon": -77.02779366666667, "rental_uris": {"ios": "https://dc.lft.to/lastmile_qr_scan", "android": "https://dc.lft.to/lastmile_qr_scan"}, "bike_id": "5ded51cad666195c3222f451f1c1f001", "lat": 38.9553975, "name": "5ded51cad666195c3222f451f1c1f001"}, {"is_disabled": 0, "type": "electric_bike", "fusion_lon": 0.0, "is_reserved": 0, "fusion_lat": 0.0, "lon": -76.91720916666667, "rental_uris": {"ios": "https://dc.lft.to/lastmile_qr_scan", "android": "https://dc.lft.to/lastmile_qr_scan"}, "bike_id": "bd19065af2eeb9d9060c41cd182002c4", "lat": 38.88028416666667, "name": "bd19065af2eeb9d9060c41cd182002c4"}, {"is_disabled": 0, "type": "electric_scooter", "fusion_lon": 0.0, "is_reserved": 0, "fusion_lat": 0.0, "lon": -77.020686, "rental_uris": {"ios": "https://dc.lft.to/lastmile_qr_scan", "android": "https://dc.lft.to/lastmile_qr_scan"}, "bike_id": "8687e2148c898a247d97774378124afe", "lat": 38.923717333333336, "name": "8687e2148c898a247d97774378124afe"}, {"is_disabled": 0, "type": "electric_scooter", "fusion_lon": 0.0, "is_reserved": 0, "fusion_lat": 0.0, "lon": -77.06036066666667, "rental_uris": {"ios": "https://dc.lft.to/lastmile_qr_scan", "android": "https://dc.lft.to/lastmile_qr_scan"}, "bike_id": "e7d030c58acc7f9b7f55cdc8ccb7f171", "lat": 38.905178, "name": "e7d030c58acc7f9b7f55cdc8ccb7f171"}, {"is_disabled": 0, "type": "electric_scooter", "fusion_lon": 0.0, "is_reserved": 0, "fusion_lat": 0.0, "lon": -77.004373, "rental_uris": {"ios": "https://dc.lft.to/lastmile_qr_scan", "android": "https://dc.lft.to/lastmile_qr_scan"}, "bike_id": "10080ebe067574d029d85f6776b0e6fd", "lat": 38.91669366666667, "name": "10080ebe067574d029d85f6776b0e6fd"}, {"is_disabled": 0, "type": "electric_scooter", "fusion_lon": 0.0, "is_reserved": 0, "fusion_lat": 0.0, "lon": -77.02804, "rental_uris": {"ios": "https://dc.lft.to/lastmile_qr_scan", "android": "https://dc.lft.to/lastmile_qr_scan"}, "bike_id": "b7a7c4b0223be61a2453f899ac102ce1", "lat": 38.907392333333334, "name": "b7a7c4b0223be61a2453f899ac102ce1"}, {"is_disabled": 0, "type": "electric_scooter", "fusion_lon": 0.0, "is_reserved": 0, "fusion_lat": 0.0, "lon": -77.01414033333333, "rental_uris": {"ios": "https://dc.lft.to/lastmile_qr_scan", "android": "https://dc.lft.to/lastmile_qr_scan"}, "bike_id": "214c136eed84ba287c2ded5afba808c6", "lat": 38.9064135, "name": "214c136eed84ba287c2ded5afba808c6"}, {"is_disabled": 0, "type": "electric_scooter", "fusion_lon": 0.0, "is_reserved": 0, "fusion_lat": 0.0, "lon": -77.07221566666666, "rental_uris": {"ios": "https://dc.lft.to/lastmile_qr_scan", "android": "https://dc.lft.to/lastmile_qr_scan"}, "bike_id": "47e2b9254cb057fc2597e53b25704ee6", "lat": 38.91363666666667, "name": "47e2b9254cb057fc2597e53b25704ee6"}, {"is_disabled": 0, "type": "electric_scooter", "fusion_lon": 0.0, "is_reserved": 0, "fusion_lat": 0.0, "lon": -77.0142375, "rental_uris": {"ios": "https://dc.lft.to/lastmile_qr_scan", "android": "https://dc.lft.to/lastmile_qr_scan"}, "bike_id": "5804f766398ace8bbfa4337db242f4eb", "lat": 38.89932483333333, "name": "5804f766398ace8bbfa4337db242f4eb"}, {"is_disabled": 0, "type": "electric_scooter", "fusion_lon": 0.0, "is_reserved": 0, "fusion_lat": 0.0, "lon": -77.00711816666667, "rental_uris": {"ios": "https://dc.lft.to/lastmile_qr_scan", "android": "https://dc.lft.to/lastmile_qr_scan"}, "bike_id": "56dff40f18e17a994480428302f9ae40", "lat": 38.88491, "name": "56dff40f18e17a994480428302f9ae40"}, {"is_disabled": 0, "type": "electric_scooter", "fusion_lon": 0.0, "is_reserved": 0, "fusion_lat": 0.0, "lon": -77.00058683333333, "rental_uris": {"ios": "https://dc.lft.to/lastmile_qr_scan", "android": "https://dc.lft.to/lastmile_qr_scan"}, "bike_id": "c0d26ade1d304ab3a348071e3c81d6e6", "lat": 38.87886983333333, "name": "c0d26ade1d304ab3a348071e3c81d6e6"}, {"is_disabled": 0, "type": "electric_scooter", "fusion_lon": 0.0, "is_reserved": 0, "fusion_lat": 0.0, "lon": -76.98974933333334, "rental_uris": {"ios": "https://dc.lft.to/lastmile_qr_scan", "android": "https://dc.lft.to/lastmile_qr_scan"}, "bike_id": "8ebe88a03833e5c34df1f9a5697cf9eb", "lat": 38.890403, "name": "8ebe88a03833e5c34df1f9a5697cf9eb"}, {"is_disabled": 0, "type": "electric_scooter", "fusion_lon": 0.0, "is_reserved": 0, "fusion_lat": 0.0, "lon": -77.00884683333334, "rental_uris": {"ios": "https://dc.lft.to/lastmile_qr_scan", "android": "https://dc.lft.to/lastmile_qr_scan"}, "bike_id": "1bd281fccf0d55f1205ddb9e4da949f2", "lat": 38.909743166666665, "name": "1bd281fccf0d55f1205ddb9e4da949f2"}, {"is_disabled": 0, "type": "electric_scooter", "fusion_lon": 0.0, "is_reserved": 0, "fusion_lat": 0.0, "lon": -77.026848, "rental_uris": {"ios": "https://dc.lft.to/lastmile_qr_scan", "android": "https://dc.lft.to/lastmile_qr_scan"}, "bike_id": "64c956220c6f5a08e4d8f86c46f921ea", "lat": 38.92774716666667, "name": "64c956220c6f5a08e4d8f86c46f921ea"}, {"is_disabled": 0, "type": "electric_scooter", "fusion_lon": 0.0, "is_reserved": 0, "fusion_lat": 0.0, "lon": -77.0770285, "rental_uris": {"ios": "https://dc.lft.to/lastmile_qr_scan", "android": "https://dc.lft.to/lastmile_qr_scan"}, "bike_id": "12ffda47e53431340ac853e6feb058cf", "lat": 38.92246, "name": "12ffda47e53431340ac853e6feb058cf"}, {"is_disabled": 0, "type": "electric_scooter", "fusion_lon": 0.0, "is_reserved": 0, "fusion_lat": 0.0, "lon": -77.00124266666667, "rental_uris": {"ios": "https://dc.lft.to/lastmile_qr_scan", "android": "https://dc.lft.to/lastmile_qr_scan"}, "bike_id": "7686067ffe5b02128166e0842a0e858b", "lat": 38.905578, "name": "7686067ffe5b02128166e0842a0e858b"}, {"is_disabled": 0, "type": "electric_scooter", "fusion_lon": 0.0, "is_reserved": 0, "fusion_lat": 0.0, "lon": -77.04104366666667, "rental_uris": {"ios": "https://dc.lft.to/lastmile_qr_scan", "android": "https://dc.lft.to/lastmile_qr_scan"}, "bike_id": "9ce9692e1cd281ebb9eece3c59ecd7f0", "lat": 38.901152333333336, "name": "9ce9692e1cd281ebb9eece3c59ecd7f0"}, {"is_disabled": 0, "type": "electric_scooter", "fusion_lon": 0.0, "is_reserved": 0, "fusion_lat": 0.0, "lon": -77.00335533333333, "rental_uris": {"ios": "https://dc.lft.to/lastmile_qr_scan", "android": "https://dc.lft.to/lastmile_qr_scan"}, "bike_id": "1358fd0dcd8e562c2cbe1bf29c74fa8d", "lat": 38.893549, "name": "1358fd0dcd8e562c2cbe1bf29c74fa8d"}, {"is_disabled": 0, "type": "electric_bike", "fusion_lon": 0.0, "is_reserved": 0, "fusion_lat": 0.0, "lon": -77.23410916666667, "rental_uris": {"ios": "https://dc.lft.to/lastmile_qr_scan", "android": "https://dc.lft.to/lastmile_qr_scan"}, "bike_id": "edf884f338a0bdac3f626657a98ae718", "lat": 38.87577683333333, "name": "edf884f338a0bdac3f626657a98ae718"}, {"is_disabled": 0, "type": "electric_scooter", "fusion_lon": 0.0, "is_reserved": 0, "fusion_lat": 0.0, "lon": -76.96821966666667, "rental_uris": {"ios": "https://dc.lft.to/lastmile_qr_scan", "android": "https://dc.lft.to/lastmile_qr_scan"}, "bike_id": "ea29ebfab27bc15bcf3034f78c89069c", "lat": 38.8471325, "name": "ea29ebfab27bc15bcf3034f78c89069c"}, {"is_disabled": 0, "type": "electric_scooter", "fusion_lon": 0.0, "is_reserved": 0, "fusion_lat": 0.0, "lon": -76.97907633333334, "rental_uris": {"ios": "https://dc.lft.to/lastmile_qr_scan", "android": "https://dc.lft.to/lastmile_qr_scan"}, "bike_id": "06710025dd22b189c943e94b827de468", "lat": 38.888586, "name": "06710025dd22b189c943e94b827de468"}, {"is_disabled": 0, "type": "electric_scooter", "fusion_lon": 0.0, "is_reserved": 0, "fusion_lat": 0.0, "lon": -76.94891866666667, "rental_uris": {"ios": "https://dc.lft.to/lastmile_qr_scan", "android": "https://dc.lft.to/lastmile_qr_scan"}, "bike_id": "0ab8f4788314f89296148a1559c4d0dd", "lat": 38.89533683333333, "name": "0ab8f4788314f89296148a1559c4d0dd"}, {"is_disabled": 0, "type": "electric_scooter", "fusion_lon": 0.0, "is_reserved": 0, "fusion_lat": 0.0, "lon": -77.0408575, "rental_uris": {"ios": "https://dc.lft.to/lastmile_qr_scan", "android": "https://dc.lft.to/lastmile_qr_scan"}, "bike_id": "f203dda6535d382792144ddaced488db", "lat": 38.90385233333333, "name": "f203dda6535d382792144ddaced488db"}, {"is_disabled": 0, "type": "electric_scooter", "fusion_lon": 0.0, "is_reserved": 0, "fusion_lat": 0.0, "lon": -77.04539533333333, "rental_uris": {"ios": "https://dc.lft.to/lastmile_qr_scan", "android": "https://dc.lft.to/lastmile_qr_scan"}, "bike_id": "730f3d36236a5242398bf87b33f268a0", "lat": 38.91194566666667, "name": "730f3d36236a5242398bf87b33f268a0"}, {"is_disabled": 0, "type": "electric_scooter", "fusion_lon": 0.0, "is_reserved": 0, "fusion_lat": 0.0, "lon": -77.01949633333334, "rental_uris": {"ios": "https://dc.lft.to/lastmile_qr_scan", "android": "https://dc.lft.to/lastmile_qr_scan"}, "bike_id": "1fcbddb039b763e3f47a1f556a8d0432", "lat": 38.92415233333333, "name": "1fcbddb039b763e3f47a1f556a8d0432"}, {"is_disabled": 0, "type": "electric_scooter", "fusion_lon": 0.0, "is_reserved": 0, "fusion_lat": 0.0, "lon": -76.92501283333333, "rental_uris": {"ios": "https://dc.lft.to/lastmile_qr_scan", "android": "https://dc.lft.to/lastmile_qr_scan"}, "bike_id": "56431f52c5df47dfb654fd09ff74f4f2", "lat": 38.8860215, "name": "56431f52c5df47dfb654fd09ff74f4f2"}, {"is_disabled": 0, "type": "electric_scooter", "fusion_lon": 0.0, "is_reserved": 0, "fusion_lat": 0.0, "lon": -77.0645045, "rental_uris": {"ios": "https://dc.lft.to/lastmile_qr_scan", "android": "https://dc.lft.to/lastmile_qr_scan"}, "bike_id": "6280e1cc916d9338163797969aba7691", "lat": 38.948882, "name": "6280e1cc916d9338163797969aba7691"}, {"is_disabled": 0, "type": "electric_scooter", "fusion_lon": 0.0, "is_reserved": 0, "fusion_lat": 0.0, "lon": -77.04113866666667, "rental_uris": {"ios": "https://dc.lft.to/lastmile_qr_scan", "android": "https://dc.lft.to/lastmile_qr_scan"}, "bike_id": "77fbb4bcc16cd699fe2377422c5567a6", "lat": 38.892259, "name": "77fbb4bcc16cd699fe2377422c5567a6"}, {"is_disabled": 0, "type": "electric_scooter", "fusion_lon": 0.0, "is_reserved": 0, "fusion_lat": 0.0, "lon": -77.01874433333333, "rental_uris": {"ios": "https://dc.lft.to/lastmile_qr_scan", "android": "https://dc.lft.to/lastmile_qr_scan"}, "bike_id": "7b571b92a65eec402586737a130e9bcd", "lat": 38.93054333333333, "name": "7b571b92a65eec402586737a130e9bcd"}, {"is_disabled": 0, "type": "electric_scooter", "fusion_lon": 0.0, "is_reserved": 0, "fusion_lat": 0.0, "lon": -76.9885675, "rental_uris": {"ios": "https://dc.lft.to/lastmile_qr_scan", "android": "https://dc.lft.to/lastmile_qr_scan"}, "bike_id": "ca6798faff4f8ffda887172654f808b5", "lat": 38.90027116666667, "name": "ca6798faff4f8ffda887172654f808b5"}, {"is_disabled": 0, "type": "electric_scooter", "fusion_lon": 0.0, "is_reserved": 0, "fusion_lat": 0.0, "lon": -77.02443616666666, "rental_uris": {"ios": "https://dc.lft.to/lastmile_qr_scan", "android": "https://dc.lft.to/lastmile_qr_scan"}, "bike_id": "4ceaf99c0ab361753d72d24f6c4913e6", "lat": 38.925098166666665, "name": "4ceaf99c0ab361753d72d24f6c4913e6"}, {"is_disabled": 0, "type": "electric_scooter", "fusion_lon": 0.0, "is_reserved": 0, "fusion_lat": 0.0, "lon": -76.99057316666666, "rental_uris": {"ios": "https://dc.lft.to/lastmile_qr_scan", "android": "https://dc.lft.to/lastmile_qr_scan"}, "bike_id": "62c47a8bb560d175f57615fe04d92e11", "lat": 38.86373616666667, "name": "62c47a8bb560d175f57615fe04d92e11"}, {"is_disabled": 0, "type": "electric_scooter", "fusion_lon": 0.0, "is_reserved": 0, "fusion_lat": 0.0, "lon": -77.02699216666667, "rental_uris": {"ios": "https://dc.lft.to/lastmile_qr_scan", "android": "https://dc.lft.to/lastmile_qr_scan"}, "bike_id": "b652b82d506588fba14053440cb227ee", "lat": 38.8975055, "name": "b652b82d506588fba14053440cb227ee"}, {"is_disabled": 0, "type": "electric_scooter", "fusion_lon": 0.0, "is_reserved": 0, "fusion_lat": 0.0, "lon": -77.03185133333334, "rental_uris": {"ios": "https://dc.lft.to/lastmile_qr_scan", "android": "https://dc.lft.to/lastmile_qr_scan"}, "bike_id": "93afe0a2b2becf1f93ba388502e822f8", "lat": 38.903608166666665, "name": "93afe0a2b2becf1f93ba388502e822f8"}, {"is_disabled": 0, "type": "electric_bike", "fusion_lon": 0.0, "is_reserved": 0, "fusion_lat": 0.0, "lon": -77.035888, "rental_uris": {"ios": "https://dc.lft.to/lastmile_qr_scan", "android": "https://dc.lft.to/lastmile_qr_scan"}, "bike_id": "b3eb76ee98e36fd78dddb6c566dff0d1", "lat": 38.99228166666666, "name": "b3eb76ee98e36fd78dddb6c566dff0d1"}, {"is_disabled": 0, "type": "electric_bike", "fusion_lon": 0.0, "is_reserved": 0, "fusion_lat": 0.0, "lon": -77.00377, "rental_uris": {"ios": "https://dc.lft.to/lastmile_qr_scan", "android": "https://dc.lft.to/lastmile_qr_scan"}, "bike_id": "10f4c0679990e0a4e11f03c917872aea", "lat": 38.836068833333336, "name": "10f4c0679990e0a4e11f03c917872aea"}, {"is_disabled": 0, "type": "electric_scooter", "fusion_lon": 0.0, "is_reserved": 0, "fusion_lat": 0.0, "lon": -77.01623, "rental_uris": {"ios": "https://dc.lft.to/lastmile_qr_scan", "android": "https://dc.lft.to/lastmile_qr_scan"}, "bike_id": "fcbb57ac04600ceb6d1e908b7040a300", "lat": 38.9131775, "name": "fcbb57ac04600ceb6d1e908b7040a300"}, {"is_disabled": 0, "type": "electric_scooter", "fusion_lon": 0.0, "is_reserved": 0, "fusion_lat": 0.0, "lon": -77.04174266666666, "rental_uris": {"ios": "https://dc.lft.to/lastmile_qr_scan", "android": "https://dc.lft.to/lastmile_qr_scan"}, "bike_id": "12c96b1e9d1d1d204f9aaea1439736cc", "lat": 38.900664166666665, "name": "12c96b1e9d1d1d204f9aaea1439736cc"}, {"is_disabled": 0, "type": "electric_scooter", "fusion_lon": 0.0, "is_reserved": 0, "fusion_lat": 0.0, "lon": -76.99020883333333, "rental_uris": {"ios": "https://dc.lft.to/lastmile_qr_scan", "android": "https://dc.lft.to/lastmile_qr_scan"}, "bike_id": "8e02cbf9b6741247805c185f42daa1e3", "lat": 38.865149833333334, "name": "8e02cbf9b6741247805c185f42daa1e3"}, {"is_disabled": 0, "type": "electric_bike", "fusion_lon": 0.0, "is_reserved": 0, "fusion_lat": 0.0, "lon": -77.00275166666667, "rental_uris": {"ios": "https://dc.lft.to/lastmile_qr_scan", "android": "https://dc.lft.to/lastmile_qr_scan"}, "bike_id": "00a67cdccd5a4656ca7d71fd8b171294", "lat": 38.838063166666664, "name": "00a67cdccd5a4656ca7d71fd8b171294"}, {"is_disabled": 0, "type": "electric_scooter", "fusion_lon": 0.0, "is_reserved": 0, "fusion_lat": 0.0, "lon": -77.02364933333334, "rental_uris": {"ios": "https://dc.lft.to/lastmile_qr_scan", "android": "https://dc.lft.to/lastmile_qr_scan"}, "bike_id": "5f2722702de99567c9e94ba9696a7c38", "lat": 38.947351166666664, "name": "5f2722702de99567c9e94ba9696a7c38"}, {"is_disabled": 0, "type": "electric_scooter", "fusion_lon": 0.0, "is_reserved": 0, "fusion_lat": 0.0, "lon": -77.01376016666667, "rental_uris": {"ios": "https://dc.lft.to/lastmile_qr_scan", "android": "https://dc.lft.to/lastmile_qr_scan"}, "bike_id": "bedd771e48983afa60722b7a74a3f458", "lat": 38.910349833333335, "name": "bedd771e48983afa60722b7a74a3f458"}, {"is_disabled": 0, "type": "electric_scooter", "fusion_lon": 0.0, "is_reserved": 0, "fusion_lat": 0.0, "lon": -77.02940916666667, "rental_uris": {"ios": "https://dc.lft.to/lastmile_qr_scan", "android": "https://dc.lft.to/lastmile_qr_scan"}, "bike_id": "75e28894b4379761bb76b134e2ab961d", "lat": 38.904873, "name": "75e28894b4379761bb76b134e2ab961d"}, {"is_disabled": 0, "type": "electric_scooter", "fusion_lon": 0.0, "is_reserved": 0, "fusion_lat": 0.0, "lon": -77.01994216666667, "rental_uris": {"ios": "https://dc.lft.to/lastmile_qr_scan", "android": "https://dc.lft.to/lastmile_qr_scan"}, "bike_id": "6e2e5160e07b7ce3f0f12a296a4f1308", "lat": 38.91573916666667, "name": "6e2e5160e07b7ce3f0f12a296a4f1308"}, {"is_disabled": 0, "type": "electric_scooter", "fusion_lon": 0.0, "is_reserved": 0, "fusion_lat": 0.0, "lon": -77.073092, "rental_uris": {"ios": "https://dc.lft.to/lastmile_qr_scan", "android": "https://dc.lft.to/lastmile_qr_scan"}, "bike_id": "d551a32b710e5c5432c98694f37c07bf", "lat": 38.911912666666666, "name": "d551a32b710e5c5432c98694f37c07bf"}, {"is_disabled": 0, "type": "electric_scooter", "fusion_lon": 0.0, "is_reserved": 0, "fusion_lat": 0.0, "lon": -77.04659216666667, "rental_uris": {"ios": "https://dc.lft.to/lastmile_qr_scan", "android": "https://dc.lft.to/lastmile_qr_scan"}, "bike_id": "390a2082605a6d31f220c374da2857f4", "lat": 38.904748166666664, "name": "390a2082605a6d31f220c374da2857f4"}, {"is_disabled": 0, "type": "electric_scooter", "fusion_lon": 0.0, "is_reserved": 0, "fusion_lat": 0.0, "lon": -77.02117266666667, "rental_uris": {"ios": "https://dc.lft.to/lastmile_qr_scan", "android": "https://dc.lft.to/lastmile_qr_scan"}, "bike_id": "6f38b90807c20502f871ae97b2bce0bb", "lat": 38.917357, "name": "6f38b90807c20502f871ae97b2bce0bb"}, {"is_disabled": 0, "type": "electric_scooter", "fusion_lon": 0.0, "is_reserved": 0, "fusion_lat": 0.0, "lon": -77.027545, "rental_uris": {"ios": "https://dc.lft.to/lastmile_qr_scan", "android": "https://dc.lft.to/lastmile_qr_scan"}, "bike_id": "f657e456f73de193f4508109b71fde5a", "lat": 38.96648866666666, "name": "f657e456f73de193f4508109b71fde5a"}, {"is_disabled": 0, "type": "electric_scooter", "fusion_lon": 0.0, "is_reserved": 0, "fusion_lat": 0.0, "lon": -77.04458766666667, "rental_uris": {"ios": "https://dc.lft.to/lastmile_qr_scan", "android": "https://dc.lft.to/lastmile_qr_scan"}, "bike_id": "5ef5956b96f89f20d09ff3ab02832952", "lat": 38.903591, "name": "5ef5956b96f89f20d09ff3ab02832952"}, {"is_disabled": 0, "type": "electric_scooter", "fusion_lon": 0.0, "is_reserved": 0, "fusion_lat": 0.0, "lon": -76.996074, "rental_uris": {"ios": "https://dc.lft.to/lastmile_qr_scan", "android": "https://dc.lft.to/lastmile_qr_scan"}, "bike_id": "e83fa18ded233abc87b2694037de10d5", "lat": 38.90139933333333, "name": "e83fa18ded233abc87b2694037de10d5"}, {"is_disabled": 0, "type": "electric_scooter", "fusion_lon": 0.0, "is_reserved": 0, "fusion_lat": 0.0, "lon": -77.02917433333333, "rental_uris": {"ios": "https://dc.lft.to/lastmile_qr_scan", "android": "https://dc.lft.to/lastmile_qr_scan"}, "bike_id": "7d1bba95757076864c7846f410c507d4", "lat": 38.9443965, "name": "7d1bba95757076864c7846f410c507d4"}, {"is_disabled": 0, "type": "electric_scooter", "fusion_lon": 0.0, "is_reserved": 0, "fusion_lat": 0.0, "lon": -77.02815283333334, "rental_uris": {"ios": "https://dc.lft.to/lastmile_qr_scan", "android": "https://dc.lft.to/lastmile_qr_scan"}, "bike_id": "75274a0032a8e2dbd4257f348a30ca3f", "lat": 38.9224225, "name": "75274a0032a8e2dbd4257f348a30ca3f"}, {"is_disabled": 0, "type": "electric_scooter", "fusion_lon": 0.0, "is_reserved": 0, "fusion_lat": 0.0, "lon": -77.02798033333333, "rental_uris": {"ios": "https://dc.lft.to/lastmile_qr_scan", "android": "https://dc.lft.to/lastmile_qr_scan"}, "bike_id": "c3333d4633d06913162b5a3c78ef8cd3", "lat": 38.907326833333336, "name": "c3333d4633d06913162b5a3c78ef8cd3"}, {"is_disabled": 0, "type": "electric_scooter", "fusion_lon": 0.0, "is_reserved": 0, "fusion_lat": 0.0, "lon": -77.01798166666667, "rental_uris": {"ios": "https://dc.lft.to/lastmile_qr_scan", "android": "https://dc.lft.to/lastmile_qr_scan"}, "bike_id": "c255d62e0163ba7b3eb4bf77290f3d69", "lat": 38.88595383333333, "name": "c255d62e0163ba7b3eb4bf77290f3d69"}, {"is_disabled": 0, "type": "electric_scooter", "fusion_lon": 0.0, "is_reserved": 0, "fusion_lat": 0.0, "lon": -77.02535633333333, "rental_uris": {"ios": "https://dc.lft.to/lastmile_qr_scan", "android": "https://dc.lft.to/lastmile_qr_scan"}, "bike_id": "b106176aeb51ed331de79ccce61f8516", "lat": 38.892197, "name": "b106176aeb51ed331de79ccce61f8516"}, {"is_disabled": 0, "type": "electric_bike", "fusion_lon": 0.0, "is_reserved": 0, "fusion_lat": 0.0, "lon": -77.1299385, "rental_uris": {"ios": "https://dc.lft.to/lastmile_qr_scan", "android": "https://dc.lft.to/lastmile_qr_scan"}, "bike_id": "24e5fb396f1e596797eb50675fd80bfd", "lat": 38.8001015, "name": "24e5fb396f1e596797eb50675fd80bfd"}, {"is_disabled": 0, "type": "electric_scooter", "fusion_lon": 0.0, "is_reserved": 0, "fusion_lat": 0.0, "lon": -77.06873883333333, "rental_uris": {"ios": "https://dc.lft.to/lastmile_qr_scan", "android": "https://dc.lft.to/lastmile_qr_scan"}, "bike_id": "6e896977bb2e04674bc6677209eaa508", "lat": 38.90514816666666, "name": "6e896977bb2e04674bc6677209eaa508"}, {"is_disabled": 0, "type": "electric_scooter", "fusion_lon": 0.0, "is_reserved": 0, "fusion_lat": 0.0, "lon": -77.022974, "rental_uris": {"ios": "https://dc.lft.to/lastmile_qr_scan", "android": "https://dc.lft.to/lastmile_qr_scan"}, "bike_id": "7ab2a2544b5e1afed6b67c821b187827", "lat": 38.9178335, "name": "7ab2a2544b5e1afed6b67c821b187827"}, {"is_disabled": 0, "type": "electric_scooter", "fusion_lon": 0.0, "is_reserved": 0, "fusion_lat": 0.0, "lon": -77.03034866666667, "rental_uris": {"ios": "https://dc.lft.to/lastmile_qr_scan", "android": "https://dc.lft.to/lastmile_qr_scan"}, "bike_id": "07ca1b14f23a24c51fc8971304ef802e", "lat": 38.91706833333333, "name": "07ca1b14f23a24c51fc8971304ef802e"},