{"data": {"bikes": [{"type": "electric_scooter", "bike_id": "383b44fbe09bc483af7d363bf920eecf", "is_disabled": 0, "name": "383b44fbe09bc483af7d363bf920eecf", "lon": -77.0357445, "is_reserved": 0, "fusion_lon": 0.0, "lat": 38.923257666666665, "rental_uris": {"android": "https://dc.lft.to/lastmile_qr_scan", "ios": "https://dc.lft.to/lastmile_qr_scan"}, "fusion_lat": 0.0}, {"type": "electric_scooter", "bike_id": "39c9449064cfcee04845a27fff9ce7eb", "is_disabled": 0, "name": "39c9449064cfcee04845a27fff9ce7eb", "lon": -77.04495366666667, "is_reserved": 0, "fusion_lon": 0.0, "lat": 38.89942633333333, "rental_uris": {"android": "https://dc.lft.to/lastmile_qr_scan", "ios": "https://dc.lft.to/lastmile_qr_scan"}, "fusion_lat": 0.0}, {"type": "electric_bike", "bike_id": "4893fed4a50776636fdce22bb751e9ab", "is_disabled": 0, "name": "4893fed4a50776636fdce22bb751e9ab", "lon": -76.99077616666666, "is_reserved": 0, "fusion_lon": 0.0, "lat": 38.898149333333336, "rental_uris": {"android": "https://dc.lft.to/lastmile_qr_scan", "ios": "https://dc.lft.to/lastmile_qr_scan"}, "fusion_lat": 0.0}, {"type": "electric_scooter", "bike_id": "6f19fa43a43fb881a7b4cd674f87c973", "is_disabled": 0, "name": "6f19fa43a43fb881a7b4cd674f87c973", "lon": -77.0366005, "is_reserved": 0, "fusion_lon": 0.0, "lat": 38.923042833333334, "rental_uris": {"android": "https://dc.lft.to/lastmile_qr_scan", "ios": "https://dc.lft.to/lastmile_qr_scan"}, "fusion_lat": 0.0}, {"type": "electric_scooter", "bike_id": "aeb8ac1cf9d032527890089dcf06e00c", "is_disabled": 0, "name": "aeb8ac1cf9d032527890089dcf06e00c", "lon": -77.04950766666667, "is_reserved": 0, "fusion_lon": 0.0, "lat": 38.90548366666667, "rental_uris": {"android": "https://dc.lft.to/lastmile_qr_scan", "ios": "https://dc.lft.to/lastmile_qr_scan"}, "fusion_lat": 0.0}, {"type": "electric_scooter", "bike_id": "7fbf833beb326e0e495c956244330d52", "is_disabled": 0, "name": "7fbf833beb326e0e495c956244330d52", "lon": -77.038627, "is_reserved": 0, "fusion_lon": 0.0, "lat": 38.9033455, "rental_uris": {"android": "https://dc.lft.to/lastmile_qr_scan", "ios": "https://dc.lft.to/lastmile_qr_scan"}, "fusion_lat": 0.0}, {"type": "electric_scooter", "bike_id": "4cdeca6eb57673d3263185b1e05c9678", "is_disabled": 0, "name": "4cdeca6eb57673d3263185b1e05c9678", "lon": -77.04057416666667, "is_reserved": 0, "fusion_lon": 0.0, "lat": 38.89529916666667, "rental_uris": {"android": "https://dc.lft.to/lastmile_qr_scan", "ios": "https://dc.lft.to/lastmile_qr_scan"}, "fusion_lat": 0.0}, {"type": "electric_scooter", "bike_id": "4ae737611e59c926cf280b0c1cc53134", "is_disabled": 0, "name": "4ae737611e59c926cf280b0c1cc53134", "lon": -77.02166933333334, "is_reserved": 0, "fusion_lon": 0.0, "lat": 38.89754416666667, "rental_uris": {"android": "https://dc.lft.to/lastmile_qr_scan", "ios": "https://dc.lft.to/lastmile_qr_scan"}, "fusion_lat": 0.0}, {"type": "electric_scooter", "bike_id": "d5b54e3a409b50f63181f0e52c75f90a", "is_disabled": 0, "name": "d5b54e3a409b50f63181f0e52c75f90a", "lon": -77.051706, "is_reserved": 0, "fusion_lon": 0.0, "lat": 38.903180666666664, "rental_uris": {"android": "https://dc.lft.to/lastmile_qr_scan", "ios": "https://dc.lft.to/lastmile_qr_scan"}, "fusion_lat": 0.0}, {"type": "electric_scooter", "bike_id": "b7787b5c67b4d98cae97e6061d074826", "is_disabled": 0, "name": "b7787b5c67b4d98cae97e6061d074826", "lon": -77.02495033333334, "is_reserved": 0, "fusion_lon": 0.0, "lat": 38.94181733333333, "rental_uris": {"android": "https://dc.lft.to/lastmile_qr_scan", "ios": "https://dc.lft.to/lastmile_qr_scan"}, "fusion_lat": 0.0}, {"type": "electric_bike", "bike_id": "6f400440fb8c57943c2f5dcba8015d03", "is_disabled": 0, "name": "6f400440fb8c57943c2f5dcba8015d03", "lon": -77.028764, "is_reserved": 0, "fusion_lon": 0.0, "lat": 38.921368666666666, "rental_uris": {"android": "https://dc.lft.to/lastmile_qr_scan", "ios": "https://dc.lft.to/lastmile_qr_scan"}, "fusion_lat": 0.0}, {"type": "electric_scooter", "bike_id": "8adcad0a58c887667403df68603932f7", "is_disabled": 0, "name": "8adcad0a58c887667403df68603932f7", "lon": -77.02810266666667, "is_reserved": 0, "fusion_lon": 0.0, "lat": 38.907298833333336, "rental_uris": {"android": "https://dc.lft.to/lastmile_qr_scan", "ios": "https://dc.lft.to/lastmile_qr_scan"}, "fusion_lat": 0.0}, {"type": "electric_scooter", "bike_id": "b8b1cdd31de163fa09e0cda68fe91551", "is_disabled": 0, "name": "b8b1cdd31de163fa09e0cda68fe91551", "lon": -77.0256785, "is_reserved": 0, "fusion_lon": 0.0, "lat": 38.94850233333333, "rental_uris": {"android": "https://dc.lft.to/lastmile_qr_scan", "ios": "https://dc.lft.to/lastmile_qr_scan"}, "fusion_lat": 0.0}, {"type": "electric_scooter", "bike_id": "a4baab244b6b257b63f976fcd575230b", "is_disabled": 0, "name": "a4baab244b6b257b63f976fcd575230b", "lon": -77.019639, "is_reserved": 0, "fusion_lon": 0.0, "lat": 38.92330466666667, "rental_uris": {"android": "https://dc.lft.to/lastmile_qr_scan", "ios": "https://dc.lft.to/lastmile_qr_scan"}, "fusion_lat": 0.0}, {"type": "electric_scooter", "bike_id": "84847a90f037dcb52a557b7e30f98943", "is_disabled": 0, "name": "84847a90f037dcb52a557b7e30f98943", "lon": -77.00657033333333, "is_reserved": 0, "fusion_lon": 0.0, "lat": 38.90983116666666, "rental_uris": {"android": "https://dc.lft.to/lastmile_qr_scan", "ios": "https://dc.lft.to/lastmile_qr_scan"}, "fusion_lat": 0.0}, {"type": "electric_scooter", "bike_id": "c7630a909fb106d2fa2eda61196405a7", "is_disabled": 0, "name": "c7630a909fb106d2fa2eda61196405a7", "lon": -77.02425783333334, "is_reserved": 0, "fusion_lon": 0.0, "lat": 38.92093416666667, "rental_uris": {"android": "https://dc.lft.to/lastmile_qr_scan", "ios": "https://dc.lft.to/lastmile_qr_scan"}, "fusion_lat": 0.0}, {"type": "electric_bike", "bike_id": "d0048187b280f497ec7e4c5f6d973a04", "is_disabled": 0, "name": "d0048187b280f497ec7e4c5f6d973a04", "lon": -77.23181183333334, "is_reserved": 0, "fusion_lon": 0.0, "lat": 38.9289385, "rental_uris": {"android": "https://dc.lft.to/lastmile_qr_scan", "ios": "https://dc.lft.to/lastmile_qr_scan"}, "fusion_lat": 0.0}, {"type": "electric_scooter", "bike_id": "89084bd356bf6e8c39c81783775decdf", "is_disabled": 0, "name": "89084bd356bf6e8c39c81783775decdf", "lon": -77.03257883333333, "is_reserved": 0, "fusion_lon": 0.0, "lat": 38.919838, "rental_uris": {"android": "https://dc.lft.to/lastmile_qr_scan", "ios": "https://dc.lft.to/lastmile_qr_scan"}, "fusion_lat": 0.0}, {"type": "electric_scooter", "bike_id": "59b71a385c08a86222e4e3b0c1951d2a", "is_disabled": 0, "name": "59b71a385c08a86222e4e3b0c1951d2a", "lon": -77.0237775, "is_reserved": 0, "fusion_lon": 0.0, "lat": 38.9371135, "rental_uris": {"android": "https://dc.lft.to/lastmile_qr_scan", "ios": "https://dc.lft.to/lastmile_qr_scan"}, "fusion_lat": 0.0}, {"type": "electric_scooter", "bike_id": "e56d5160bc9c601ba38ea9740c86cc3b", "is_disabled": 0, "name": "e56d5160bc9c601ba38ea9740c86cc3b", "lon": -77.02763616666667, "is_reserved": 0, "fusion_lon": 0.0, "lat": 38.954163333333334, "rental_uris": {"android": "https://dc.lft.to/lastmile_qr_scan", "ios": "https://dc.lft.to/lastmile_qr_scan"}, "fusion_lat": 0.0}, {"type": "electric_scooter", "bike_id": "ff47e9420ab73852dfff8e4aaf3dde05", "is_disabled": 0, "name": "ff47e9420ab73852dfff8e4aaf3dde05", "lon": -77.06524533333334, "is_reserved": 0, "fusion_lon": 0.0, "lat": 38.90530533333333, "rental_uris": {"android": "https://dc.lft.to/lastmile_qr_scan", "ios": "https://dc.lft.to/lastmile_qr_scan"}, "fusion_lat": 0.0}, {"type": "electric_scooter", "bike_id": "5772dec0d18e879016587745766aad52", "is_disabled": 0, "name": "5772dec0d18e879016587745766aad52", "lon": -77.04526466666667, "is_reserved": 0, "fusion_lon": 0.0, "lat": 38.9182595, "rental_uris": {"android": "https://dc.lft.to/lastmile_qr_scan", "ios": "https://dc.lft.to/lastmile_qr_scan"}, "fusion_lat": 0.0}, {"type": "electric_scooter", "bike_id": "f413e4750e35c21497c38107a281416b", "is_disabled": 0, "name": "f413e4750e35c21497c38107a281416b", "lon": -77.01212633333333, "is_reserved": 0, "fusion_lon": 0.0, "lat": 38.915005, "rental_uris": {"android": "https://dc.lft.to/lastmile_qr_scan", "ios": "https://dc.lft.to/lastmile_qr_scan"}, "fusion_lat": 0.0}, {"type": "electric_scooter", "bike_id": "b889c930602ba5338b737ed24b26f139", "is_disabled": 0, "name": "b889c930602ba5338b737ed24b26f139", "lon": -77.022023, "is_reserved": 0, "fusion_lon": 0.0, "lat": 38.910559666666664, "rental_uris": {"android": "https://dc.lft.to/lastmile_qr_scan", "ios": "https://dc.lft.to/lastmile_qr_scan"}, "fusion_lat": 0.0}, {"type": "electric_bike", "bike_id": "f245cd6257adf49cde32eec857c57386", "is_disabled": 0, "name": "f245cd6257adf49cde32eec857c57386", "lon": -77.07917666666667, "is_reserved": 0, "fusion_lon": 0.0, "lat": 38.83826633333334, "rental_uris": {"android": "https://dc.lft.to/lastmile_qr_scan", "ios": "https://dc.lft.to/lastmile_qr_scan"}, "fusion_lat": 0.0}, {"type": "electric_bike", "bike_id": "b2196c1451807c341aaaace771060cbc", "is_disabled": 0, "name": "b2196c1451807c341aaaace771060cbc", "lon": -77.10296833333334, "is_reserved": 0, "fusion_lon": 0.0, "lat": 38.85252066666666, "rental_uris": {"android": "https://dc.lft.to/lastmile_qr_scan", "ios": "https://dc.lft.to/lastmile_qr_scan"}, "fusion_lat": 0.0}, {"type": "electric_bike", "bike_id": "1cc47c128358713e59c26f8e57746c60", "is_disabled": 0, "name": "1cc47c128358713e59c26f8e57746c60", "lon": -76.97961866666667, "is_reserved": 0, "fusion_lon": 0.0, "lat": 38.9203505, "rental_uris": {"android": "https://dc.lft.to/lastmile_qr_scan", "ios": "https://dc.lft.to/lastmile_qr_scan"}, "fusion_lat": 0.0}, {"type": "electric_scooter", "bike_id": "a7a24eca920ec91777943d111c54a043", "is_disabled": 0, "name": "a7a24eca920ec91777943d111c54a043", "lon": -76.93364933333334, "is_reserved": 0, "fusion_lon": 0.0, "lat": 38.898330333333334, "rental_uris": {"android": "https://dc.lft.to/lastmile_qr_scan", "ios": "https://dc.lft.to/lastmile_qr_scan"}, "fusion_lat": 0.0}, {"type": "electric_scooter", "bike_id": "99604c2a3b419657735ff57297e71062", "is_disabled": 0, "name": "99604c2a3b419657735ff57297e71062", "lon": -77.033631, "is_reserved": 0, "fusion_lon": 0.0, "lat": 38.93582983333334, "rental_uris": {"android": "https://dc.lft.to/lastmile_qr_scan", "ios": "https://dc.lft.to/lastmile_qr_scan"}, "fusion_lat": 0.0}, {"type": "electric_scooter", "bike_id": "f9bef14e0556402b278d4f9db583241f", "is_disabled": 0, "name": "f9bef14e0556402b278d4f9db583241f", "lon": -77.04484916666667, "is_reserved": 0, "fusion_lon": 0.0, "lat": 38.91350833333333, "rental_uris": {"android": "https://dc.lft.to/lastmile_qr_scan", "ios": "https://dc.lft.to/lastmile_qr_scan"}, "fusion_lat": 0.0}, {"type": "electric_scooter", "bike_id": "a0553a7fe2938f21d88725eccd15482e", "is_disabled": 0, "name": "a0553a7fe2938f21d88725eccd15482e", "lon": -76.9957335, "is_reserved": 0, "fusion_lon": 0.0, "lat": 38.90006483333333, "rental_uris": {"android": "https://dc.lft.to/lastmile_qr_scan", "ios": "https://dc.lft.to/lastmile_qr_scan"}, "fusion_lat": 0.0}, {"type": "electric_scooter", "bike_id": "14a8fc9d0a01ad9290b38910b1a6262e", "is_disabled": 0, "name": "14a8fc9d0a01ad9290b38910b1a6262e", "lon": -76.9837005, "is_reserved": 0, "fusion_lon": 0.0, "lat": 38.8926415, "rental_uris": {"android": "https://dc.lft.to/lastmile_qr_scan", "ios": "https://dc.lft.to/lastmile_qr_scan"}, "fusion_lat": 0.0}, {"type": "electric_scooter", "bike_id": "9030a046c252e499d36337c5617b7d8e", "is_disabled": 0, "name": "9030a046c252e499d36337c5617b7d8e", "lon": -77.02403616666666, "is_reserved": 0, "fusion_lon": 0.0, "lat": 38.9207175, "rental_uris": {"android": "https://dc.lft.to/lastmile_qr_scan", "ios": "https://dc.lft.to/lastmile_qr_scan"}, "fusion_lat": 0.0}, {"type": "electric_scooter", "bike_id": "68533745d075bed1555216d415c5f6b5", "is_disabled": 0, "name": "68533745d075bed1555216d415c5f6b5", "lon": -77.07321633333333, "is_reserved": 0, "fusion_lon": 0.0, "lat": 38.92197983333333, "rental_uris": {"android": "https://dc.lft.to/lastmile_qr_scan", "ios": "https://dc.lft.to/lastmile_qr_scan"}, "fusion_lat": 0.0}, {"type": "electric_scooter", "bike_id": "8feae13fd954288ce944d2a00cce6a65", "is_disabled": 0, "name": "8feae13fd954288ce944d2a00cce6a65", "lon": -77.04239283333334, "is_reserved": 0, "fusion_lon": 0.0, "lat": 38.90370016666667, "rental_uris": {"android": "https://dc.lft.to/lastmile_qr_scan", "ios": "https://dc.lft.to/lastmile_qr_scan"}, "fusion_lat": 0.0}, {"type": "electric_scooter", "bike_id": "69576fb39c6f193f5b51781bd0737d26", "is_disabled": 0, "name": "69576fb39c6f193f5b51781bd0737d26", "lon": -77.011762, "is_reserved": 0, "fusion_lon": 0.0, "lat": 38.90014866666667, "rental_uris": {"android": "https://dc.lft.to/lastmile_qr_scan", "ios": "https://dc.lft.to/lastmile_qr_scan"}, "fusion_lat": 0.0}, {"type": "electric_bike", "bike_id": "f7b85aed066689dde711ba286174a824", "is_disabled": 0, "name": "f7b85aed066689dde711ba286174a824", "lon": -77.02887183333333, "is_reserved": 0, "fusion_lon": 0.0, "lat": 38.921365, "rental_uris": {"android": "https://dc.lft.to/lastmile_qr_scan", "ios": "https://dc.lft.to/lastmile_qr_scan"}, "fusion_lat": 0.0}, {"type": "electric_scooter", "bike_id": "8fb1d7542a28bd9923015f188d4e0723", "is_disabled": 0, "name": "8fb1d7542a28bd9923015f188d4e0723", "lon": -77.04888483333333, "is_reserved": 0, "fusion_lon": 0.0, "lat": 38.905317833333335, "rental_uris": {"android": "https://dc.lft.to/lastmile_qr_scan", "ios": "https://dc.lft.to/lastmile_qr_scan"}, "fusion_lat": 0.0}, {"type": "electric_scooter", "bike_id": "4ede71ec34c238aaeff00845570fea3b", "is_disabled": 0, "name": "4ede71ec34c238aaeff00845570fea3b", "lon": -77.01186283333334, "is_reserved": 0, "fusion_lon": 0.0, "lat": 38.900263, "rental_uris": {"android": "https://dc.lft.to/lastmile_qr_scan", "ios": "https://dc.lft.to/lastmile_qr_scan"}, "fusion_lat": 0.0}, {"type": "electric_scooter", "bike_id": "bdbdf50460294e3b6df63478d26499fe", "is_disabled": 0, "name": "bdbdf50460294e3b6df63478d26499fe", "lon": -77.02939716666667, "is_reserved": 0, "fusion_lon": 0.0, "lat": 38.90722483333333, "rental_uris": {"android": "https://dc.lft.to/lastmile_qr_scan", "ios": "https://dc.lft.to/lastmile_qr_scan"}, "fusion_lat": 0.0}, {"type": "electric_scooter", "bike_id": "9e1e74330fb9560fb0668498988702fe", "is_disabled": 0, "name": "9e1e74330fb9560fb0668498988702fe", "lon": -77.033914, "is_reserved": 0, "fusion_lon": 0.0, "lat": 38.924641666666666, "rental_uris": {"android": "https://dc.lft.to/lastmile_qr_scan", "ios": "https://dc.lft.to/lastmile_qr_scan"}, "fusion_lat": 0.0}, {"type": "electric_scooter", "bike_id": "42b28ec38176eaf24ecae98f618f77c3", "is_disabled": 0, "name": "42b28ec38176eaf24ecae98f618f77c3", "lon": -77.04360233333334, "is_reserved": 0, "fusion_lon": 0.0, "lat": 38.911178166666666, "rental_uris": {"android": "https://dc.lft.to/lastmile_qr_scan", "ios": "https://dc.lft.to/lastmile_qr_scan"}, "fusion_lat": 0.0}, {"type": "electric_bike", "bike_id": "8fdc2152edb86ae5605e72b5e33b8538", "is_disabled": 0, "name": "8fdc2152edb86ae5605e72b5e33b8538", "lon": -77.07755266666666, "is_reserved": 0, "fusion_lon": 0.0, "lat": 38.8418975, "rental_uris": {"android": "https://dc.lft.to/lastmile_qr_scan", "ios": "https://dc.lft.to/lastmile_qr_scan"}, "fusion_lat": 0.0}, {"type": "electric_scooter", "bike_id": "c9970e24090934f4f7ae7521333d56aa", "is_disabled": 0, "name": "c9970e24090934f4f7ae7521333d56aa", "lon": -77.03463933333333, "is_reserved": 0, "fusion_lon": 0.0, "lat": 38.911703, "rental_uris": {"android": "https://dc.lft.to/lastmile_qr_scan", "ios": "https://dc.lft.to/lastmile_qr_scan"}, "fusion_lat": 0.0}, {"type": "electric_scooter", "bike_id": "bf84e84324cf34ef5fcf006c011c564d", "is_disabled": 0, "name": "bf84e84324cf34ef5fcf006c011c564d", "lon": -77.01544283333334, "is_reserved": 0, "fusion_lon": 0.0, "lat": 38.8933195, "rental_uris": {"android": "https://dc.lft.to/lastmile_qr_scan", "ios": "https://dc.lft.to/lastmile_qr_scan"}, "fusion_lat": 0.0}, {"type": "electric_scooter", "bike_id": "d6c287695f40f0fe46512d81925a37ae", "is_disabled": 0, "name": "d6c287695f40f0fe46512d81925a37ae", "lon": -76.9574075, "is_reserved": 0, "fusion_lon": 0.0, "lat": 38.883948333333336, "rental_uris": {"android": "https://dc.lft.to/lastmile_qr_scan", "ios": "https://dc.lft.to/lastmile_qr_scan"}, "fusion_lat": 0.0}, {"type": "electric_bike", "bike_id": "b0e4b00c1275ec95ac8839c833da5ae9", "is_disabled": 0, "name": "b0e4b00c1275ec95ac8839c833da5ae9", "lon": -77.02073866666667, "is_reserved": 0, "fusion_lon": 0.0, "lat": 38.96437616666667, "rental_uris": {"android": "https://dc.lft.to/lastmile_qr_scan", "ios": "https://dc.lft.to/lastmile_qr_scan"}, "fusion_lat": 0.0}, {"type": "electric_scooter", "bike_id": "2360d8ed5ed9310fd49c425fe68af5e4", "is_disabled": 0, "name": "2360d8ed5ed9310fd49c425fe68af5e4", "lon": -77.04078533333333, "is_reserved": 0, "fusion_lon": 0.0, "lat": 38.90527483333334, "rental_uris": {"android": "https://dc.lft.to/lastmile_qr_scan", "ios": "https://dc.lft.to/lastmile_qr_scan"}, "fusion_lat": 0.0}, {"type": "electric_scooter", "bike_id": "4c3b60fd7226b14477ae71e5debf3830", "is_disabled": 0, "name": "4c3b60fd7226b14477ae71e5debf3830", "lon": -77.03707883333334, "is_reserved": 0, "fusion_lon": 0.0, "lat": 38.92631766666667, "rental_uris": {"android": "https://dc.lft.to/lastmile_qr_scan", "ios": "https://dc.lft.to/lastmile_qr_scan"}, "fusion_lat": 0.0}, {"type": "electric_scooter", "bike_id": "a9be6e74acccd1e20f174e3cc653c910", "is_disabled": 0, "name": "a9be6e74acccd1e20f174e3cc653c910", "lon": -76.941816, "is_reserved": 0, "fusion_lon": 0.0, "lat": 38.897583833333336, "rental_uris": {"android": "https://dc.lft.to/lastmile_qr_scan", "ios": "https://dc.lft.to/lastmile_qr_scan"}, "fusion_lat": 0.0}, {"type": "electric_scooter", "bike_id": "4e72840fbdf44fc89b7ecb51ba7b15b3", "is_disabled": 0, "name": "4e72840fbdf44fc89b7ecb51ba7b15b3", "lon": -77.033778, "is_reserved": 0, "fusion_lon": 0.0, "lat": 38.901307, "rental_uris": {"android": "https://dc.lft.to/lastmile_qr_scan", "ios": "https://dc.lft.to/lastmile_qr_scan"}, "fusion_lat": 0.0}, {"type": "electric_scooter", "bike_id": "68ae1cc1ae6de8145e67f9da1f511e82", "is_disabled": 0, "name": "68ae1cc1ae6de8145e67f9da1f511e82", "lon": -77.0355485, "is_reserved": 0, "fusion_lon": 0.0, "lat": 38.9247625, "rental_uris": {"android": "https://dc.lft.to/lastmile_qr_scan", "ios": "https://dc.lft.to/lastmile_qr_scan"}, "fusion_lat": 0.0}, {"type": "electric_scooter", "bike_id": "41db5d1bb74ec6d0c02ebb16134db110", "is_disabled": 0, "name": "41db5d1bb74ec6d0c02ebb16134db110", "lon": -76.99625016666667, "is_reserved": 0, "fusion_lon": 0.0, "lat": 38.885559, "rental_uris": {"android": "https://dc.lft.to/lastmile_qr_scan", "ios": "https://dc.lft.to/lastmile_qr_scan"}, "fusion_lat": 0.0}, {"type": "electric_scooter", "bike_id": "7bf6dffa5febca48cec5999ff686f703", "is_disabled": 0, "name": "7bf6dffa5febca48cec5999ff686f703", "lon": -77.0299775, "is_reserved": 0, "fusion_lon": 0.0, "lat": 38.89771566666667, "rental_uris": {"android": "https://dc.lft.to/lastmile_qr_scan", "ios": "https://dc.lft.to/lastmile_qr_scan"}, "fusion_lat": 0.0}, {"type": "electric_scooter", "bike_id": "581633792981590682460ed404b7e077", "is_disabled": 0, "name": "581633792981590682460ed404b7e077", "lon": -77.0269195, "is_reserved": 0, "fusion_lon": 0.0, "lat": 38.9127515, "rental_uris": {"android": "https://dc.lft.to/lastmile_qr_scan", "ios": "https://dc.lft.to/lastmile_qr_scan"}, "fusion_lat": 0.0}, {"type": "electric_scooter", "bike_id": "acc3f41be6cb53851b838a2d739737ba", "is_disabled": 0, "name": "acc3f41be6cb53851b838a2d739737ba", "lon": -77.02905766666667, "is_reserved": 0, "fusion_lon": 0.0, "lat": 38.916895, "rental_uris": {"android": "https://dc.lft.to/lastmile_qr_scan", "ios": "https://dc.lft.to/lastmile_qr_scan"}, "fusion_lat": 0.0}, {"type": "electric_scooter", "bike_id": "96f8037a76b52132c5b280ec7103c8b5", "is_disabled": 0, "name": "96f8037a76b52132c5b280ec7103c8b5", "lon": -77.018032, "is_reserved": 0, "fusion_lon": 0.0, "lat": 38.919680666666665, "rental_uris": {"android": "https://dc.lft.to/lastmile_qr_scan", "ios": "https://dc.lft.to/lastmile_qr_scan"}, "fusion_lat": 0.0}, {"type": "electric_bike", "bike_id": "0bb1b3175bf069f1f99db1f6e833b422", "is_disabled": 0, "name": "0bb1b3175bf069f1f99db1f6e833b422", "lon": -77.02993083333334, "is_reserved": 0, "fusion_lon": 0.0, "lat": 38.9408445, "rental_uris": {"android": "https://dc.lft.to/lastmile_qr_scan", "ios": "https://dc.lft.to/lastmile_qr_scan"}, "fusion_lat": 0.0}, {"type": "electric_scooter", "bike_id": "30c80fb6a8cae8a7ce37def01e13a2b9", "is_disabled": 0, "name": "30c80fb6a8cae8a7ce37def01e13a2b9", "lon": -77.06279066666667, "is_reserved": 0, "fusion_lon": 0.0, "lat": 38.90311883333333, "rental_uris": {"android": "https://dc.lft.to/lastmile_qr_scan", "ios": "https://dc.lft.to/lastmile_qr_scan"}, "fusion_lat": 0.0}, {"type": "electric_scooter", "bike_id": "f4d66aa2381f8457c3a32d87e97ee27d", "is_disabled": 0, "name": "f4d66aa2381f8457c3a32d87e97ee27d", "lon": -77.00342133333334, "is_reserved": 0, "fusion_lon": 0.0, "lat": 38.8918725, "rental_uris": {"android": "https://dc.lft.to/lastmile_qr_scan", "ios": "https://dc.lft.to/lastmile_qr_scan"}, "fusion_lat": 0.0}, {"type": "electric_scooter", "bike_id": "157ef60fb71b28998b71732720983a26", "is_disabled": 0, "name": "157ef60fb71b28998b71732720983a26", "lon": -77.0240315, "is_reserved": 0, "fusion_lon": 0.0, "lat": 38.9097425, "rental_uris": {"android": "https://dc.lft.to/lastmile_qr_scan", "ios": "https://dc.lft.to/lastmile_qr_scan"}, "fusion_lat": 0.0}, {"type": "electric_scooter", "bike_id": "daf4becd0ba8acc6ed3633816e20be16", "is_disabled": 0, "name": "daf4becd0ba8acc6ed3633816e20be16", "lon": -77.03823966666667, "is_reserved": 0, "fusion_lon": 0.0, "lat": 38.906703, "rental_uris": {"android": "https://dc.lft.to/lastmile_qr_scan", "ios": "https://dc.lft.to/lastmile_qr_scan"}, "fusion_lat": 0.0}, {"type": "electric_scooter", "bike_id": "6c9dbfccce80d18d4c4fdbe981e8d717", "is_disabled": 0, "name": "6c9dbfccce80d18d4c4fdbe981e8d717", "lon": -77.03536233333334, "is_reserved": 0, "fusion_lon": 0.0, "lat": 38.917024833333336, "rental_uris": {"android": "https://dc.lft.to/lastmile_qr_scan", "ios": "https://dc.lft.to/lastmile_qr_scan"}, "fusion_lat": 0.0}, {"type": "electric_scooter", "bike_id": "4be56e400c19df464af118fc7b07d32e", "is_disabled": 0, "name": "4be56e400c19df464af118fc7b07d32e", "lon": -77.0319155, "is_reserved": 0, "fusion_lon": 0.0, "lat": 38.9010775, "rental_uris": {"android": "https://dc.lft.to/lastmile_qr_scan", "ios": "https://dc.lft.to/lastmile_qr_scan"}, "fusion_lat": 0.0}, {"type": "electric_scooter", "bike_id": "106fa27feb522c0f556997e5ca2b3297", "is_disabled": 0, "name": "106fa27feb522c0f556997e5ca2b3297", "lon": -77.0582215, "is_reserved": 0, "fusion_lon": 0.0, "lat": 38.9352665, "rental_uris": {"android": "https://dc.lft.to/lastmile_qr_scan", "ios": "https://dc.lft.to/lastmile_qr_scan"}, "fusion_lat": 0.0}, {"type": "electric_scooter", "bike_id": "2c1641ef99e01f748f30339867e29f0d", "is_disabled": 0, "name": "2c1641ef99e01f748f30339867e29f0d", "lon": -76.97328866666666, "is_reserved": 0, "fusion_lon": 0.0, "lat": 38.904122, "rental_uris": {"android": "https://dc.lft.to/lastmile_qr_scan", "ios": "https://dc.lft.to/lastmile_qr_scan"}, "fusion_lat": 0.0}, {"type": "electric_scooter", "bike_id": "8c6a13f7fdbc1b27d6b2b038bffd9587", "is_disabled": 0, "name": "8c6a13f7fdbc1b27d6b2b038bffd9587", "lon": -77.02367683333334, "is_reserved": 0, "fusion_lon": 0.0, "lat": 38.90223266666667, "rental_uris": {"android": "https://dc.lft.to/lastmile_qr_scan", "ios": "https://dc.lft.to/lastmile_qr_scan"}, "fusion_lat": 0.0}, {"type": "electric_scooter", "bike_id": "43aa00557c201c23f0c5da62337aacff", "is_disabled": 0, "name": "43aa00557c201c23f0c5da62337aacff", "lon": -77.04504033333333, "is_reserved": 0, "fusion_lon": 0.0, "lat": 38.89219683333334, "rental_uris": {"android": "https://dc.lft.to/lastmile_qr_scan", "ios": "https://dc.lft.to/lastmile_qr_scan"}, "fusion_lat": 0.0}, {"type": "electric_scooter", "bike_id": "0ba8ee2977a67bf50760278068b4b249", "is_disabled": 0, "name": "0ba8ee2977a67bf50760278068b4b249", "lon": -77.0533735, "is_reserved": 0, "fusion_lon": 0.0, "lat": 38.923322166666665, "rental_uris": {"android": "https://dc.lft.to/lastmile_qr_scan", "ios": "https://dc.lft.to/lastmile_qr_scan"}, "fusion_lat": 0.0}, {"type": "electric_bike", "bike_id": "e5aa5ac56c236713c4877316d71a1bad", "is_disabled": 0, "name": "e5aa5ac56c236713c4877316d71a1bad", "lon": -77.06951583333333, "is_reserved": 0, "fusion_lon": 0.0, "lat": 38.8362455, "rental_uris": {"android": "https://dc.lft.to/lastmile_qr_scan", "ios": "https://dc.lft.to/lastmile_qr_scan"}, "fusion_lat": 0.0}, {"type": "electric_scooter", "bike_id": "f8d7e5a038513d59a7187040cda6250f", "is_disabled": 0, "name": "f8d7e5a038513d59a7187040cda6250f", "lon": -77.04427516666667, "is_reserved": 0, "fusion_lon": 0.0, "lat": 38.896073, "rental_uris": {"android": "https://dc.lft.to/lastmile_qr_scan", "ios": "https://dc.lft.to/lastmile_qr_scan"}, "fusion_lat": 0.0}, {"type": "electric_scooter", "bike_id": "a677cf7c11bb203a0ee3ca13ad6c5f5d", "is_disabled": 0, "name": "a677cf7c11bb203a0ee3ca13ad6c5f5d", "lon": -77.0321675, "is_reserved": 0, "fusion_lon": 0.0, "lat": 38.916448333333335, "rental_uris": {"android": "https://dc.lft.to/lastmile_qr_scan", "ios": "https://dc.lft.to/lastmile_qr_scan"}, "fusion_lat": 0.0}, {"type": "electric_scooter", "bike_id": "16982a7b4fb48334205d65e0ecf7b8f3", "is_disabled": 0, "name": "16982a7b4fb48334205d65e0ecf7b8f3", "lon": -77.03628833333333, "is_reserved": 0, "fusion_lon": 0.0, "lat": 38.936729166666666, "rental_uris": {"android": "https://dc.lft.to/lastmile_qr_scan", "ios": "https://dc.lft.to/lastmile_qr_scan"}, "fusion_lat": 0.0}, {"type": "electric_scooter", "bike_id": "4c42b6df970ec5040e13c483212cc66f", "is_disabled": 0, "name": "4c42b6df970ec5040e13c483212cc66f", "lon": -77.0415745, "is_reserved": 0, "fusion_lon": 0.0, "lat": 38.914184666666664, "rental_uris": {"android": "https://dc.lft.to/lastmile_qr_scan", "ios": "https://dc.lft.to/lastmile_qr_scan"}, "fusion_lat": 0.0}, {"type": "electric_scooter", "bike_id": "00f5d6f2ed9b54ce58ac3844974511e9", "is_disabled": 0, "name": "00f5d6f2ed9b54ce58ac3844974511e9", "lon": -77.04333083333333, "is_reserved": 0, "fusion_lon": 0.0, "lat": 38.922209, "rental_uris": {"android": "https://dc.lft.to/lastmile_qr_scan", "ios": "https://dc.lft.to/lastmile_qr_scan"}, "fusion_lat": 0.0}, {"type": "electric_scooter", "bike_id": "ed831f14ac1c92bdf444c8bf907d785b", "is_disabled": 0, "name": "ed831f14ac1c92bdf444c8bf907d785b", "lon": -77.04836816666666, "is_reserved": 0, "fusion_lon": 0.0, "lat": 38.91634033333333, "rental_uris": {"android": "https://dc.lft.to/lastmile_qr_scan", "ios": "https://dc.lft.to/lastmile_qr_scan"}, "fusion_lat": 0.0}, {"type": "electric_scooter", "bike_id": "e6e4e2d5454e4dfbc83682e66a216f13", "is_disabled": 0, "name": "e6e4e2d5454e4dfbc83682e66a216f13", "lon": -77.033986, "is_reserved": 0, "fusion_lon": 0.0, "lat": 38.90241066666667, "rental_uris": {"android": "https://dc.lft.to/lastmile_qr_scan", "ios": "https://dc.lft.to/lastmile_qr_scan"}, "fusion_lat": 0.0}, {"type": "electric_scooter", "bike_id": "a0b8b9474e5a8f752b5ed06d97095f30", "is_disabled": 0, "name": "a0b8b9474e5a8f752b5ed06d97095f30", "lon": -76.99016616666667, "is_reserved": 0, "fusion_lon": 0.0, "lat": 38.864270833333336, "rental_uris": {"android": "https://dc.lft.to/lastmile_qr_scan", "ios": "https://dc.lft.to/lastmile_qr_scan"}, "fusion_lat": 0.0}, {"type": "electric_scooter", "bike_id": "e3717dfe31e6f528cdd2d0559f4a2de9", "is_disabled": 0, "name": "e3717dfe31e6f528cdd2d0559f4a2de9", "lon": -77.03366933333334, "is_reserved": 0, "fusion_lon": 0.0, "lat": 38.92540116666667, "rental_uris": {"android": "https://dc.lft.to/lastmile_qr_scan", "ios": "https://dc.lft.to/lastmile_qr_scan"}, "fusion_lat": 0.0}, {"type": "electric_scooter", "bike_id": "835fb0f9ca4d1e3e48ddbd5a6adb22cd", "is_disabled": 0, "name": "835fb0f9ca4d1e3e48ddbd5a6adb22cd", "lon": -77.040426, "is_reserved": 0, "fusion_lon": 0.0, "lat": 38.9040045, "rental_uris": {"android": "https://dc.lft.to/lastmile_qr_scan", "ios": "https://dc.lft.to/lastmile_qr_scan"}, "fusion_lat": 0.0}, {"type": "electric_scooter", "bike_id": "68d5ed144ed549c45359b90b1059180b", "is_disabled": 0, "name": "68d5ed144ed549c45359b90b1059180b", "lon": -77.03083166666667, "is_reserved": 0, "fusion_lon": 0.0, "lat": 38.89979966666667, "rental_uris": {"android": "https://dc.lft.to/lastmile_qr_scan", "ios": "https://dc.lft.to/lastmile_qr_scan"}, "fusion_lat": 0.0}, {"type": "electric_scooter", "bike_id": "07cd1b21d5a48245ef3f630d23e5179a", "is_disabled": 0, "name": "07cd1b21d5a48245ef3f630d23e5179a", "lon": -77.0032165, "is_reserved": 0, "fusion_lon": 0.0, "lat": 38.88609983333333, "rental_uris": {"android": "https://dc.lft.to/lastmile_qr_scan", "ios": "https://dc.lft.to/lastmile_qr_scan"}, "fusion_lat": 0.0}, {"type": "electric_scooter", "bike_id": "8e5e17f0337d368ab91f76d642c805a8", "is_disabled": 0, "name": "8e5e17f0337d368ab91f76d642c805a8", "lon": -76.9961755, "is_reserved": 0, "fusion_lon": 0.0, "lat": 38.93168816666667, "rental_uris": {"android": "https://dc.lft.to/lastmile_qr_scan", "ios": "https://dc.lft.to/lastmile_qr_scan"}, "fusion_lat": 0.0}, {"type": "electric_scooter", "bike_id": "a7e6906a684efe7147beaae60ba5efed", "is_disabled": 0, "name": "a7e6906a684efe7147beaae60ba5efed", "lon": -76.99108583333333, "is_reserved": 0, "fusion_lon": 0.0, "lat": 38.857252333333335, "rental_uris": {"android": "https://dc.lft.to/lastmile_qr_scan", "ios": "https://dc.lft.to/lastmile_qr_scan"}, "fusion_lat": 0.0}, {"type": "electric_scooter", "bike_id": "e053622b13d8d7e188cdf479ad0b0cd5", "is_disabled": 0, "name": "e053622b13d8d7e188cdf479ad0b0cd5", "lon": -77.041725, "is_reserved": 0, "fusion_lon": 0.0, "lat": 38.898164333333334, "rental_uris": {"android": "https://dc.lft.to/lastmile_qr_scan", "ios": "https://dc.lft.to/lastmile_qr_scan"}, "fusion_lat": 0.0}, {"type": "electric_scooter", "bike_id": "7adb73ca152adc164adaa01c6ea45ce8", "is_disabled": 0, "name": "7adb73ca152adc164adaa01c6ea45ce8", "lon": -77.04250333333333, "is_reserved": 0, "fusion_lon": 0.0, "lat": 38.91960666666667, "rental_uris": {"android": "https://dc.lft.to/lastmile_qr_scan", "ios": "https://dc.lft.to/lastmile_qr_scan"}, "fusion_lat": 0.0}, {"type": "electric_scooter", "bike_id": "3171f2c979837fdd82a7c5f246247267", "is_disabled": 0, "name": "3171f2c979837fdd82a7c5f246247267", "lon": -77.039795, "is_reserved": 0, "fusion_lon": 0.0, "lat": 38.90279066666667, "rental_uris": {"android": "https://dc.lft.to/lastmile_qr_scan", "ios": "https://dc.lft.to/lastmile_qr_scan"}, "fusion_lat": 0.0}, {"type": "electric_scooter", "bike_id": "e17faad5681cd5d93e423722bb056b34", "is_disabled": 0, "name": "e17faad5681cd5d93e423722bb056b34", "lon": -77.0413265, "is_reserved": 0, "fusion_lon": 0.0, "lat": 38.90884766666667, "rental_uris": {"android": "https://dc.lft.to/lastmile_qr_scan", "ios": "https://dc.lft.to/lastmile_qr_scan"}, "fusion_lat": 0.0}, {"type": "electric_scooter", "bike_id": "4dd6249a3fff6c766e75a96f2180f971", "is_disabled": 0, "name": "4dd6249a3fff6c766e75a96f2180f971", "lon": -77.01561666666667, "is_reserved": 0, "fusion_lon": 0.0, "lat": 38.8763895, "rental_uris": {"android": "https://dc.lft.to/lastmile_qr_scan", "ios": "https://dc.lft.to/lastmile_qr_scan"}, "fusion_lat": 0.0}, {"type": "electric_scooter", "bike_id": "d5538884f6fda648463507de73719d52", "is_disabled": 0, "name": "d5538884f6fda648463507de73719d52", "lon": -77.04668866666667, "is_reserved": 0, "fusion_lon": 0.0, "lat": 38.909446833333334, "rental_uris": {"android": "https://dc.lft.to/lastmile_qr_scan", "ios": "https://dc.lft.to/lastmile_qr_scan"}, "fusion_lat": 0.0}, {"type": "electric_scooter", "bike_id": "844fc4be5380af41b1f1cbbb26b6ba82", "is_disabled": 0, "name": "844fc4be5380af41b1f1cbbb26b6ba82", "lon": -77.02660316666666, "is_reserved": 0, "fusion_lon": 0.0, "lat": 38.92377466666667, "rental_uris": {"android": "https://dc.lft.to/lastmile_qr_scan", "ios": "https://dc.lft.to/lastmile_qr_scan"}, "fusion_lat": 0.0}, {"type": "electric_bike", "bike_id": "c754aa85bea29936fa356e91af3ab593", "is_disabled": 0, "name": "c754aa85bea29936fa356e91af3ab593", "lon": -76.98977316666667, "is_reserved": 0, "fusion_lon": 0.0, "lat": 38.9371785, "rental_uris": {"android": "https://dc.lft.to/lastmile_qr_scan", "ios": "https://dc.lft.to/lastmile_qr_scan"}, "fusion_lat": 0.0}, {"type": "electric_bike", "bike_id": "22988411af15315123086173a068b2cf", "is_disabled": 0, "name": "22988411af15315123086173a068b2cf", "lon": -77.030633, "is_reserved": 0, "fusion_lon": 0.0, "lat": 38.928660666666666, "rental_uris": {"android": "https://dc.lft.to/lastmile_qr_scan", "ios": "https://dc.lft.to/lastmile_qr_scan"}, "fusion_lat": 0.0}, {"type": "electric_scooter", "bike_id": "bc9ddff7433fdd862d81fdb1c8f65ab5", "is_disabled": 0, "name": "bc9ddff7433fdd862d81fdb1c8f65ab5", "lon": -77.0450635, "is_reserved": 0, "fusion_lon": 0.0, "lat": 38.8922075, "rental_uris": {"android": "https://dc.lft.to/lastmile_qr_scan", "ios": "https://dc.lft.to/lastmile_qr_scan"}, "fusion_lat": 0.0}, {"type": "electric_scooter", "bike_id": "8dcf03b88ebac32bcc1f3079bbe92fd8", "is_disabled": 0, "name": "8dcf03b88ebac32bcc1f3079bbe92fd8", "lon": -76.98116916666666, "is_reserved": 0, "fusion_lon": 0.0, "lat": 38.914698, "rental_uris": {"android": "https://dc.lft.to/lastmile_qr_scan", "ios": "https://dc.lft.to/lastmile_qr_scan"}, "fusion_lat": 0.0}, {"type": "electric_bike", "bike_id": "99c8b0ca099ac4ac8a73b34059d56cfc", "is_disabled": 0, "name": "99c8b0ca099ac4ac8a73b34059d56cfc", "lon": -77.065325, "is_reserved": 0, "fusion_lon": 0.0, "lat": 38.99227116666667, "rental_uris": {"android": "https://dc.lft.to/lastmile_qr_scan", "ios": "https://dc.lft.to/lastmile_qr_scan"}, "fusion_lat": 0.0}, {"type": "electric_scooter", "bike_id": "d39ab56512d2724a91963af617dd1b16", "is_disabled": 0, "name": "d39ab56512d2724a91963af617dd1b16", "lon": -77.03660416666666, "is_reserved": 0, "fusion_lon": 0.0, "lat": 38.92092433333333, "rental_uris": {"android": "https://dc.lft.to/lastmile_qr_scan", "ios": "https://dc.lft.to/lastmile_qr_scan"}, "fusion_lat": 0.0}, {"type": "electric_scooter", "bike_id": "2009bdf709fddaff49e57230c19d65c2", "is_disabled": 0, "name": "2009bdf709fddaff49e57230c19d65c2", "lon": -77.03258366666667, "is_reserved": 0, "fusion_lon": 0.0, "lat": 38.93970366666667, "rental_uris": {"android": "https://dc.lft.to/lastmile_qr_scan", "ios": "https://dc.lft.to/lastmile_qr_scan"}, "fusion_lat": 0.0}, {"type": "electric_scooter", "bike_id": "8a7ece9fdef745a38816e389ab97b16e", "is_disabled": 0, "name": "8a7ece9fdef745a38816e389ab97b16e", "lon": -77.02734916666667, "is_reserved": 0, "fusion_lon": 0.0, "lat": 38.92478533333333, "rental_uris": {"android": "https://dc.lft.to/lastmile_qr_scan", "ios": "https://dc.lft.to/lastmile_qr_scan"}, "fusion_lat": 0.0}, {"type": "electric_scooter", "bike_id": "69f9101f8d1dffa1ef735a5681e186b2", "is_disabled": 0, "name": "69f9101f8d1dffa1ef735a5681e186b2", "lon": -77.02969283333333, "is_reserved": 0, "fusion_lon": 0.0, "lat": 38.93194783333333, "rental_uris": {"android": "https://dc.lft.to/lastmile_qr_scan", "ios": "https://dc.lft.to/lastmile_qr_scan"}, "fusion_lat": 0.0}, {"type": "electric_scooter", "bike_id": "25b913f68cf444fff08a59cb3fd6e739", "is_disabled": 0, "name": "25b913f68cf444fff08a59cb3fd6e739", "lon": -77.02341916666667, "is_reserved": 0, "fusion_lon": 0.0, "lat": 38.88132933333333, "rental_uris": {"android": "https://dc.lft.to/lastmile_qr_scan", "ios": "https://dc.lft.to/lastmile_qr_scan"}, "fusion_lat": 0.0}, {"type": "electric_scooter", "bike_id": "97eede38b5226aa3688eda6872b6888c", "is_disabled": 0, "name": "97eede38b5226aa3688eda6872b6888c", "lon": -77.0221565, "is_reserved": 0, "fusion_lon": 0.0, "lat": 38.90531816666667, "rental_uris": {"android": "https://dc.lft.to/lastmile_qr_scan", "ios": "https://dc.lft.to/lastmile_qr_scan"}, "fusion_lat": 0.0}, {"type": "electric_scooter", "bike_id": "1186171fc54729c366ed4155a3c841d5", "is_disabled": 0, "name": "1186171fc54729c366ed4155a3c841d5", "lon": -77.01640433333333, "is_reserved": 0, "fusion_lon": 0.0, "lat": 38.915903666666665, "rental_uris": {"android": "https://dc.lft.to/lastmile_qr_scan", "ios": "https://dc.lft.to/lastmile_qr_scan"}, "fusion_lat": 0.0}, {"type": "electric_scooter", "bike_id": "25f1c552d140cc13eca0c39d15cf9531", "is_disabled": 0, "name": "25f1c552d140cc13eca0c39d15cf9531", "lon": -77.01316433333334, "is_reserved": 0, "fusion_lon": 0.0, "lat": 38.89735116666667, "rental_uris": {"android": "https://dc.lft.to/lastmile_qr_scan", "ios": "https://dc.lft.to/lastmile_qr_scan"}, "fusion_lat": 0.0}, {"type": "electric_scooter", "bike_id": "f857ea2cc265a4a17c02a7c54ff71b1b", "is_disabled": 0, "name": "f857ea2cc265a4a17c02a7c54ff71b1b", "lon": -77.04211933333333, "is_reserved": 0, "fusion_lon": 0.0, "lat": 38.91120033333333, "rental_uris": {"android": "https://dc.lft.to/lastmile_qr_scan", "ios": "https://dc.lft.to/lastmile_qr_scan"}, "fusion_lat": 0.0}, {"type": "electric_scooter", "bike_id": "97f7860304d891dcbd6d97fcae5a8a4c", "is_disabled": 0, "name": "97f7860304d891dcbd6d97fcae5a8a4c", "lon": -77.01914666666667, "is_reserved": 0, "fusion_lon": 0.0, "lat": 38.92171283333333, "rental_uris": {"android": "https://dc.lft.to/lastmile_qr_scan", "ios": "https://dc.lft.to/lastmile_qr_scan"}, "fusion_lat": 0.0}, {"type": "electric_scooter", "bike_id": "c82daa2d68496a58283c2aa01d7510b7", "is_disabled": 0, "name": "c82daa2d68496a58283c2aa01d7510b7", "lon": -77.05131233333333, "is_reserved": 0, "fusion_lon": 0.0, "lat": 38.905096, "rental_uris": {"android": "https://dc.lft.to/lastmile_qr_scan", "ios": "https://dc.lft.to/lastmile_qr_scan"}, "fusion_lat": 0.0}, {"type": "electric_scooter", "bike_id": "6a352113e24a250ea7bb1702d64f7875", "is_disabled": 0, "name": "6a352113e24a250ea7bb1702d64f7875", "lon": -77.01766016666667, "is_reserved": 0, "fusion_lon": 0.0, "lat": 38.877168, "rental_uris": {"android": "https://dc.lft.to/lastmile_qr_scan", "ios": "https://dc.lft.to/lastmile_qr_scan"}, "fusion_lat": 0.0}, {"type": "electric_scooter", "bike_id": "00bf2b85807f8cad15cb836645f569de", "is_disabled": 0, "name": "00bf2b85807f8cad15cb836645f569de", "lon": -77.0048785, "is_reserved": 0, "fusion_lon": 0.0, "lat": 38.874595666666664, "rental_uris": {"android": "https://dc.lft.to/lastmile_qr_scan", "ios": "https://dc.lft.to/lastmile_qr_scan"}, "fusion_lat": 0.0}, {"type": "electric_scooter", "bike_id": "76cc50e7f92bc159562948b9e9452591", "is_disabled": 0, "name": "76cc50e7f92bc159562948b9e9452591", "lon": -77.03293166666667, "is_reserved": 0, "fusion_lon": 0.0, "lat": 38.92845833333333, "rental_uris": {"android": "https://dc.lft.to/lastmile_qr_scan", "ios": "https://dc.lft.to/lastmile_qr_scan"}, "fusion_lat": 0.0}, {"type": "electric_bike", "bike_id": "b7f37d83fe9e3dff51ab0b9cf066f5e6", "is_disabled": 0, "name": "b7f37d83fe9e3dff51ab0b9cf066f5e6", "lon": -76.983475, "is_reserved": 0, "fusion_lon": 0.0, "lat": 38.862654666666664, "rental_uris": {"android": "https://dc.lft.to/lastmile_qr_scan", "ios": "https://dc.lft.to/lastmile_qr_scan"}, "fusion_lat": 0.0}, {"type": "electric_scooter", "bike_id": "dfba3369e1ada5e4903463bced516279", "is_disabled": 0, "name": "dfba3369e1ada5e4903463bced516279", "lon": -77.07888716666666, "is_reserved": 0, "fusion_lon": 0.0, "lat": 38.9484885, "rental_uris": {"android": "https://dc.lft.to/lastmile_qr_scan", "ios": "https://dc.lft.to/lastmile_qr_scan"}, "fusion_lat": 0.0}, {"type": "electric_scooter", "bike_id": "78e2470fd4d415fb39cacb8ea5d7ab3a", "is_disabled": 0, "name": "78e2470fd4d415fb39cacb8ea5d7ab3a", "lon": -77.03460216666667, "is_reserved": 0, "fusion_lon": 0.0, "lat": 38.90736866666667, "rental_uris": {"android": "https://dc.lft.to/lastmile_qr_scan", "ios": "https://dc.lft.to/lastmile_qr_scan"}, "fusion_lat": 0.0}, {"type": "electric_scooter", "bike_id": "118778ba430fe4ea5199a42f9b750377", "is_disabled": 0, "name": "118778ba430fe4ea5199a42f9b750377", "lon": -77.00318166666666, "is_reserved": 0, "fusion_lon": 0.0, "lat": 38.889847833333334, "rental_uris": {"android": "https://dc.lft.to/lastmile_qr_scan", "ios": "https://dc.lft.to/lastmile_qr_scan"}, "fusion_lat": 0.0}, {"type": "electric_scooter", "bike_id": "f9cd883d96fbac669a77a71155e9dba4", "is_disabled": 0, "name": "f9cd883d96fbac669a77a71155e9dba4", "lon": -76.982397, "is_reserved": 0, "fusion_lon": 0.0, "lat": 38.908876166666666, "rental_uris": {"android": "https://dc.lft.to/lastmile_qr_scan", "ios": "https://dc.lft.to/lastmile_qr_scan"}, "fusion_lat": 0.0}, {"type": "electric_scooter", "bike_id": "a9d6bcd715a5a93b360a90ece8e7f72d", "is_disabled": 0, "name": "a9d6bcd715a5a93b360a90ece8e7f72d", "lon": -77.02185733333333, "is_reserved": 0, "fusion_lon": 0.0, "lat": 38.89919833333333, "rental_uris": {"android": "https://dc.lft.to/lastmile_qr_scan", "ios": "https://dc.lft.to/lastmile_qr_scan"}, "fusion_lat": 0.0}, {"type": "electric_scooter", "bike_id": "bb4058242b4a8222643b478266c3fa30", "is_disabled": 0, "name": "bb4058242b4a8222643b478266c3fa30", "lon": -77.04841616666667, "is_reserved": 0, "fusion_lon": 0.0, "lat": 38.9096535, "rental_uris": {"android": "https://dc.lft.to/lastmile_qr_scan", "ios": "https://dc.lft.to/lastmile_qr_scan"}, "fusion_lat": 0.0}, {"type": "electric_scooter", "bike_id": "16b66472c9131642a52f64f2df2bbd47", "is_disabled": 0, "name": "16b66472c9131642a52f64f2df2bbd47", "lon": -77.0414135, "is_reserved": 0, "fusion_lon": 0.0, "lat": 38.89345333333333, "rental_uris": {"android": "https://dc.lft.to/lastmile_qr_scan", "ios": "https://dc.lft.to/lastmile_qr_scan"}, "fusion_lat": 0.0}, {"type": "electric_scooter", "bike_id": "9b15271ed3bafb4d87be10d2d950238b", "is_disabled": 0, "name": "9b15271ed3bafb4d87be10d2d950238b", "lon": -76.93210483333333, "is_reserved": 0, "fusion_lon": 0.0, "lat": 38.88045966666667, "rental_uris": {"android": "https://dc.lft.to/lastmile_qr_scan", "ios": "https://dc.lft.to/lastmile_qr_scan"}, "fusion_lat": 0.0}, {"type": "electric_scooter", "bike_id": "1388044827a9f096873ea2deab62fa7f", "is_disabled": 0, "name": "1388044827a9f096873ea2deab62fa7f", "lon": -77.03210416666667, "is_reserved": 0, "fusion_lon": 0.0, "lat": 38.91727266666667, "rental_uris": {"android": "https://dc.lft.to/lastmile_qr_scan", "ios": "https://dc.lft.to/lastmile_qr_scan"}, "fusion_lat": 0.0}, {"type": "electric_scooter", "bike_id": "fd53ff484206f580ea53991e802de4a2", "is_disabled": 0, "name": "fd53ff484206f580ea53991e802de4a2", "lon": -77.03671, "is_reserved": 0, "fusion_lon": 0.0, "lat": 38.922702666666666, "rental_uris": {"android": "https://dc.lft.to/lastmile_qr_scan", "ios": "https://dc.lft.to/lastmile_qr_scan"}, "fusion_lat": 0.0}, {"type": "electric_scooter", "bike_id": "4f3c449496e58d79d48b14463fd95ed8", "is_disabled": 0, "name": "4f3c449496e58d79d48b14463fd95ed8", "lon": -77.04888533333333, "is_reserved": 0, "fusion_lon": 0.0, "lat": 38.9008845, "rental_uris": {"android": "https://dc.lft.to/lastmile_qr_scan", "ios": "https://dc.lft.to/lastmile_qr_scan"}, "fusion_lat": 0.0}, {"type": "electric_scooter", "bike_id": "8e9311bfb5a1f542983c29526bae148b", "is_disabled": 0, "name": "8e9311bfb5a1f542983c29526bae148b", "lon": -77.04557016666666, "is_reserved": 0, "fusion_lon": 0.0, "lat": 38.90073183333333, "rental_uris": {"android": "https://dc.lft.to/lastmile_qr_scan", "ios": "https://dc.lft.to/lastmile_qr_scan"}, "fusion_lat": 0.0}, {"type": "electric_scooter", "bike_id": "b26ec03a6b38fb489cadcdeafe2efed6", "is_disabled": 0, "name": "b26ec03a6b38fb489cadcdeafe2efed6", "lon": -77.01456316666666, "is_reserved": 0, "fusion_lon": 0.0, "lat": 38.9177385, "rental_uris": {"android": "https://dc.lft.to/lastmile_qr_scan", "ios": "https://dc.lft.to/lastmile_qr_scan"}, "fusion_lat": 0.0}, {"type": "electric_scooter", "bike_id": "2b8890ad3f3ad43290e3171ab8d20062", "is_disabled": 0, "name": "2b8890ad3f3ad43290e3171ab8d20062", "lon": -77.021971, "is_reserved": 0, "fusion_lon": 0.0, "lat": 38.911227833333335, "rental_uris": {"android": "https://dc.lft.to/lastmile_qr_scan", "ios": "https://dc.lft.to/lastmile_qr_scan"}, "fusion_lat": 0.0}, {"type": "electric_scooter", "bike_id": "e22f408f5f57cd0b5515eb9437022632", "is_disabled": 0, "name": "e22f408f5f57cd0b5515eb9437022632", "lon": -77.062852, "is_reserved": 0, "fusion_lon": 0.0, "lat": 38.90589516666667, "rental_uris": {"android": "https://dc.lft.to/lastmile_qr_scan", "ios": "https://dc.lft.to/lastmile_qr_scan"}, "fusion_lat": 0.0}, {"type": "electric_scooter", "bike_id": "bd5d520c6fe5c8feef17a23f4137ce4e", "is_disabled": 0, "name": "bd5d520c6fe5c8feef17a23f4137ce4e", "lon": -77.00276633333333, "is_reserved": 0, "fusion_lon": 0.0, "lat": 38.91118866666667, "rental_uris": {"android": "https://dc.lft.to/lastmile_qr_scan", "ios": "https://dc.lft.to/lastmile_qr_scan"}, "fusion_lat": 0.0}, {"type": "electric_scooter", "bike_id": "e0b4760224f89b330558810dc2291107", "is_disabled": 0, "name": "e0b4760224f89b330558810dc2291107", "lon": -77.022288, "is_reserved": 0, "fusion_lon": 0.0, "lat": 38.9218875, "rental_uris": {"android": "https://dc.lft.to/lastmile_qr_scan", "ios": "https://dc.lft.to/lastmile_qr_scan"}, "fusion_lat": 0.0}, {"type": "electric_scooter", "bike_id": "524256c9f88e3a744d75e108599565bc", "is_disabled": 0, "name": "524256c9f88e3a744d75e108599565bc", "lon": -77.0123065, "is_reserved": 0, "fusion_lon": 0.0, "lat": 38.870932, "rental_uris": {"android": "https://dc.lft.to/lastmile_qr_scan", "ios": "https://dc.lft.to/lastmile_qr_scan"}, "fusion_lat": 0.0}, {"type": "electric_scooter", "bike_id": "a788b11670f474957af1e1a1301a76b5", "is_disabled": 0, "name": "a788b11670f474957af1e1a1301a76b5", "lon": -77.06869183333333, "is_reserved": 0, "fusion_lon": 0.0, "lat": 38.930142833333335, "rental_uris": {"android": "https://dc.lft.to/lastmile_qr_scan", "ios": "https://dc.lft.to/lastmile_qr_scan"}, "fusion_lat": 0.0}, {"type": "electric_bike", "bike_id": "b9fcdf10302d39fc0870d335a3efd050", "is_disabled": 0, "name": "b9fcdf10302d39fc0870d335a3efd050", "lon": -77.09618266666666, "is_reserved": 0, "fusion_lon": 0.0, "lat": 38.97438566666667, "rental_uris": {"android": "https://dc.lft.to/lastmile_qr_scan", "ios": "https://dc.lft.to/lastmile_qr_scan"}, "fusion_lat": 0.0}, {"type": "electric_scooter", "bike_id": "eddf9b5faf746a5bd8118f10398c2205", "is_disabled": 0, "name": "eddf9b5faf746a5bd8118f10398c2205", "lon": -77.03237516666667, "is_reserved": 0, "fusion_lon": 0.0, "lat": 38.915593666666666, "rental_uris": {"android": "https://dc.lft.to/lastmile_qr_scan", "ios": "https://dc.lft.to/lastmile_qr_scan"}, "fusion_lat": 0.0}, {"type": "electric_bike", "bike_id": "c87fb27609af2db92ecd669b72e534a8", "is_disabled": 0, "name": "c87fb27609af2db92ecd669b72e534a8", "lon": -76.9333435, "is_reserved": 0, "fusion_lon": 0.0, "lat": 38.951500833333334, "rental_uris": {"android": "https://dc.lft.to/lastmile_qr_scan", "ios": "https://dc.lft.to/lastmile_qr_scan"}, "fusion_lat": 0.0}, {"type": "electric_scooter", "bike_id": "5a3c41a107cbd62229243c6164e78f72", "is_disabled": 0, "name": "5a3c41a107cbd62229243c6164e78f72", "lon": -77.00044983333333, "is_reserved": 0, "fusion_lon": 0.0, "lat": 38.874993, "rental_uris": {"android": "https://dc.lft.to/lastmile_qr_scan", "ios": "https://dc.lft.to/lastmile_qr_scan"}, "fusion_lat": 0.0}, {"type": "electric_scooter", "bike_id": "bd37f6641bfd7b531848f42279f248ef", "is_disabled": 0, "name": "bd37f6641bfd7b531848f42279f248ef", "lon": -77.025676, "is_reserved": 0, "fusion_lon": 0.0, "lat": 38.941907666666665, "rental_uris": {"android": "https://dc.lft.to/lastmile_qr_scan", "ios": "https://dc.lft.to/lastmile_qr_scan"}, "fusion_lat": 0.0}, {"type": "electric_scooter", "bike_id": "4955f735bf773933c71e8eb00fa61018", "is_disabled": 0, "name": "4955f735bf773933c71e8eb00fa61018", "lon": -77.00961766666667, "is_reserved": 0, "fusion_lon": 0.0, "lat": 38.87454916666667, "rental_uris": {"android": "https://dc.lft.to/lastmile_qr_scan", "ios": "https://dc.lft.to/lastmile_qr_scan"}, "fusion_lat": 0.0}, {"type": "electric_scooter", "bike_id": "f591bb1e86bea13a51800a2d5827109e", "is_disabled": 0, "name": "f591bb1e86bea13a51800a2d5827109e", "lon": -77.03998266666666, "is_reserved": 0, "fusion_lon": 0.0, "lat": 38.93420666666667, "rental_uris": {"android": "https://dc.lft.to/lastmile_qr_scan", "ios": "https://dc.lft.to/lastmile_qr_scan"}, "fusion_lat": 0.0}, {"type": "electric_scooter", "bike_id": "bca069cb47fd371d90182c580d13d57e", "is_disabled": 0, "name": "bca069cb47fd371d90182c580d13d57e", "lon": -77.02785883333334, "is_reserved": 0, "fusion_lon": 0.0, "lat": 38.9619095, "rental_uris": {"android": "https://dc.lft.to/lastmile_qr_scan", "ios": "https://dc.lft.to/lastmile_qr_scan"}, "fusion_lat": 0.0}, {"type": "electric_scooter", "bike_id": "d16825fad46d094d203b8ce0672bf87e", "is_disabled": 0, "name": "d16825fad46d094d203b8ce0672bf87e", "lon": -77.02087733333333, "is_reserved": 0, "fusion_lon": 0.0, "lat": 38.88182183333333, "rental_uris": {"android": "https://dc.lft.to/lastmile_qr_scan", "ios": "https://dc.lft.to/lastmile_qr_scan"}, "fusion_lat": 0.0}, {"type": "electric_bike", "bike_id": "eed7ddd37c4fe18c7df4626e76d62773", "is_disabled": 0, "name": "eed7ddd37c4fe18c7df4626e76d62773", "lon": -76.99377583333333, "is_reserved": 0, "fusion_lon": 0.0, "lat": 38.9909385, "rental_uris": {"android": "https://dc.lft.to/lastmile_qr_scan", "ios": "https://dc.lft.to/lastmile_qr_scan"}, "fusion_lat": 0.0}, {"type": "electric_scooter", "bike_id": "c0b68b40d0679e22e2147b7f100714a7", "is_disabled": 0, "name": "c0b68b40d0679e22e2147b7f100714a7", "lon": -77.00830166666667, "is_reserved": 0, "fusion_lon": 0.0, "lat": 38.875862, "rental_uris": {"android": "https://dc.lft.to/lastmile_qr_scan", "ios": "https://dc.lft.to/lastmile_qr_scan"}, "fusion_lat": 0.0}, {"type": "electric_scooter", "bike_id": "0662671f80511011796c7b30bbdc4103", "is_disabled": 0, "name": "0662671f80511011796c7b30bbdc4103", "lon": -77.02695233333333, "is_reserved": 0, "fusion_lon": 0.0, "lat": 38.90235783333333, "rental_uris": {"android": "https://dc.lft.to/lastmile_qr_scan", "ios": "https://dc.lft.to/lastmile_qr_scan"}, "fusion_lat": 0.0}, {"type": "electric_scooter", "bike_id": "9a0dc7b503f0ad3bbc0d2545f29213f9", "is_disabled": 0, "name": "9a0dc7b503f0ad3bbc0d2545f29213f9", "lon": -76.99772883333333, "is_reserved": 0, "fusion_lon": 0.0, "lat": 38.922859833333334, "rental_uris": {"android": "https://dc.lft.to/lastmile_qr_scan", "ios": "https://dc.lft.to/lastmile_qr_scan"}, "fusion_lat": 0.0}, {"type": "electric_scooter", "bike_id": "abc48ce25e38d38032ef28aab370c23b", "is_disabled": 0, "name": "abc48ce25e38d38032ef28aab370c23b", "lon": -77.01456066666667, "is_reserved": 0, "fusion_lon": 0.0, "lat": 38.87426083333333, "rental_uris": {"android": "https://dc.lft.to/lastmile_qr_scan", "ios": "https://dc.lft.to/lastmile_qr_scan"}, "fusion_lat": 0.0}, {"type": "electric_scooter", "bike_id": "726efd6eab260f0fe2516ed1e46ca373", "is_disabled": 0, "name": "726efd6eab260f0fe2516ed1e46ca373", "lon": -77.0222675, "is_reserved": 0, "fusion_lon": 0.0, "lat": 38.91270516666667, "rental_uris": {"android": "https://dc.lft.to/lastmile_qr_scan", "ios": "https://dc.lft.to/lastmile_qr_scan"}, "fusion_lat": 0.0}, {"type": "electric_scooter", "bike_id": "a2053cc783426c3a3a99570b69d3019e", "is_disabled": 0, "name": "a2053cc783426c3a3a99570b69d3019e", "lon": -77.01906866666667, "is_reserved": 0, "fusion_lon": 0.0, "lat": 38.923379833333335, "rental_uris": {"android": "https://dc.lft.to/lastmile_qr_scan", "ios": "https://dc.lft.to/lastmile_qr_scan"}, "fusion_lat": 0.0}, {"type": "electric_scooter", "bike_id": "5b64f168d12b522ccf715e56c97005c6", "is_disabled": 0, "name": "5b64f168d12b522ccf715e56c97005c6", "lon": -76.93631583333334, "is_reserved": 0, "fusion_lon": 0.0, "lat": 38.883493666666666, "rental_uris": {"android": "https://dc.lft.to/lastmile_qr_scan", "ios": "https://dc.lft.to/lastmile_qr_scan"}, "fusion_lat": 0.0}, {"type": "electric_scooter", "bike_id": "c051f1c1b404b89b65d3979224efc219", "is_disabled": 0, "name": "c051f1c1b404b89b65d3979224efc219", "lon": -77.02119416666666, "is_reserved": 0, "fusion_lon": 0.0, "lat": 38.923605, "rental_uris": {"android": "https://dc.lft.to/lastmile_qr_scan", "ios": "https://dc.lft.to/lastmile_qr_scan"}, "fusion_lat": 0.0}, {"type": "electric_bike", "bike_id": "69fa7b009758b9e420cc10890bc3f6c4", "is_disabled": 0, "name": "69fa7b009758b9e420cc10890bc3f6c4", "lon": -76.94231283333333, "is_reserved": 0, "fusion_lon": 0.0, "lat": 38.89050316666667, "rental_uris": {"android": "https://dc.lft.to/lastmile_qr_scan", "ios": "https://dc.lft.to/lastmile_qr_scan"}, "fusion_lat": 0.0}, {"type": "electric_scooter", "bike_id": "398b55da200a5152e276f29ee1e91958", "is_disabled": 0, "name": "398b55da200a5152e276f29ee1e91958", "lon": -77.04196266666666, "is_reserved": 0, "fusion_lon": 0.0, "lat": 38.920494, "rental_uris": {"android": "https://dc.lft.to/lastmile_qr_scan", "ios": "https://dc.lft.to/lastmile_qr_scan"}, "fusion_lat": 0.0}, {"type": "electric_scooter", "bike_id": "fdcbf1c109946907c4e858f4faec4ad9", "is_disabled": 0, "name": "fdcbf1c109946907c4e858f4faec4ad9", "lon": -77.03218233333334, "is_reserved": 0, "fusion_lon": 0.0, "lat": 38.91027783333333, "rental_uris": {"android": "https://dc.lft.to/lastmile_qr_scan", "ios": "https://dc.lft.to/lastmile_qr_scan"}, "fusion_lat": 0.0}, {"type": "electric_bike", "bike_id": "833ed92d52bbcf48e039cc84d4ef3de3", "is_disabled": 0, "name": "833ed92d52bbcf48e039cc84d4ef3de3", "lon": -77.06699383333333, "is_reserved": 0, "fusion_lon": 0.0, "lat": 38.83167666666667, "rental_uris": {"android": "https://dc.lft.to/lastmile_qr_scan", "ios": "https://dc.lft.to/lastmile_qr_scan"}, "fusion_lat": 0.0}, {"type": "electric_scooter", "bike_id": "f5ba7eac1fc7767107fd9d7168fa8095", "is_disabled": 0, "name": "f5ba7eac1fc7767107fd9d7168fa8095", "lon": -77.02287866666667, "is_reserved": 0, "fusion_lon": 0.0, "lat": 38.9167175, "rental_uris": {"android": "https://dc.lft.to/lastmile_qr_scan", "ios": "https://dc.lft.to/lastmile_qr_scan"}, "fusion_lat": 0.0}, {"type": "electric_scooter", "bike_id": "02a095739e00c0c10c29fdbab3b95bf5", "is_disabled": 0, "name": "02a095739e00c0c10c29fdbab3b95bf5", "lon": -77.014414, "is_reserved": 0, "fusion_lon": 0.0, "lat": 38.909571166666666, "rental_uris": {"android": "https://dc.lft.to/lastmile_qr_scan", "ios": "https://dc.lft.to/lastmile_qr_scan"}, "fusion_lat": 0.0}, {"type": "electric_scooter", "bike_id": "440dcc147774ef4ccce5aaec85715726", "is_disabled": 0, "name": "440dcc147774ef4ccce5aaec85715726", "lon": -77.00351633333334, "is_reserved": 0, "fusion_lon": 0.0, "lat": 38.87771516666667, "rental_uris": {"android": "https://dc.lft.to/lastmile_qr_scan", "ios": "https://dc.lft.to/lastmile_qr_scan"}, "fusion_lat": 0.0}, {"type": "electric_scooter", "bike_id": "6330c27d568dd821198b1914efb2a73f", "is_disabled": 0, "name": "6330c27d568dd821198b1914efb2a73f", "lon": -76.97035566666666, "is_reserved": 0, "fusion_lon": 0.0, "lat": 38.8731415, "rental_uris": {"android": "https://dc.lft.to/lastmile_qr_scan", "ios": "https://dc.lft.to/lastmile_qr_scan"}, "fusion_lat": 0.0}, {"type": "electric_scooter", "bike_id": "e7a3510b166b401f3bff2cb8584d2070", "is_disabled": 0, "name": "e7a3510b166b401f3bff2cb8584d2070", "lon": -77.0387255, "is_reserved": 0, "fusion_lon": 0.0, "lat": 38.90972216666667, "rental_uris": {"android": "https://dc.lft.to/lastmile_qr_scan", "ios": "https://dc.lft.to/lastmile_qr_scan"}, "fusion_lat": 0.0}, {"type": "electric_scooter", "bike_id": "8b6aa68cbae415bd399c53cfeb90ce35", "is_disabled": 0, "name": "8b6aa68cbae415bd399c53cfeb90ce35", "lon": -77.0244005, "is_reserved": 0, "fusion_lon": 0.0, "lat": 38.93632016666667, "rental_uris": {"android": "https://dc.lft.to/lastmile_qr_scan", "ios": "https://dc.lft.to/lastmile_qr_scan"}, "fusion_lat": 0.0}, {"type": "electric_scooter", "bike_id": "6692c1d5b7ff1686bb37b1b19d1654b5", "is_disabled": 0, "name": "6692c1d5b7ff1686bb37b1b19d1654b5", "lon": -77.0255335, "is_reserved": 0, "fusion_lon": 0.0, "lat": 38.97003216666667, "rental_uris": {"android": "https://dc.lft.to/lastmile_qr_scan", "ios": "https://dc.lft.to/lastmile_qr_scan"}, "fusion_lat": 0.0}, {"type": "electric_scooter", "bike_id": "7130ab52ad3ef06862e6d5784523455d", "is_disabled": 0, "name": "7130ab52ad3ef06862e6d5784523455d", "lon": -77.04559333333333, "is_reserved": 0, "fusion_lon": 0.0, "lat": 38.9038595, "rental_uris": {"android": "https://dc.lft.to/lastmile_qr_scan", "ios": "https://dc.lft.to/lastmile_qr_scan"}, "fusion_lat": 0.0}, {"type": "electric_scooter", "bike_id": "e574050bb6045efb64e50b6d751e2701", "is_disabled": 0, "name": "e574050bb6045efb64e50b6d751e2701", "lon": -77.0397755, "is_reserved": 0, "fusion_lon": 0.0, "lat": 38.8953995, "rental_uris": {"android": "https://dc.lft.to/lastmile_qr_scan", "ios": "https://dc.lft.to/lastmile_qr_scan"}, "fusion_lat": 0.0}, {"type": "electric_scooter", "bike_id": "2174fbac39619dc9a1a36dbb1a5dd2eb", "is_disabled": 0, "name": "2174fbac39619dc9a1a36dbb1a5dd2eb", "lon": -77.0570285, "is_reserved": 0, "fusion_lon": 0.0, "lat": 38.90532783333333, "rental_uris": {"android": "https://dc.lft.to/lastmile_qr_scan", "ios": "https://dc.lft.to/lastmile_qr_scan"}, "fusion_lat": 0.0}, {"type": "electric_bike", "bike_id": "c1a463947b6ec0039ed6df7876dc5c45", "is_disabled": 0, "name": "c1a463947b6ec0039ed6df7876dc5c45", "lon": -76.96160166666667, "is_reserved": 0, "fusion_lon": 0.0, "lat": 38.856155, "rental_uris": {"android": "https://dc.lft.to/lastmile_qr_scan", "ios": "https://dc.lft.to/lastmile_qr_scan"}, "fusion_lat": 0.0}, {"type": "electric_scooter", "bike_id": "d656a00ba75b9134fb8d8c129b9789b2", "is_disabled": 0, "name": "d656a00ba75b9134fb8d8c129b9789b2", "lon": -76.99752016666666, "is_reserved": 0, "fusion_lon": 0.0, "lat": 38.88507116666667, "rental_uris": {"android": "https://dc.lft.to/lastmile_qr_scan", "ios": "https://dc.lft.to/lastmile_qr_scan"}, "fusion_lat": 0.0}, {"type": "electric_scooter", "bike_id": "a8786e2ac3c46218e293e3b2ce516da0", "is_disabled": 0, "name": "a8786e2ac3c46218e293e3b2ce516da0", "lon": -77.00754633333334, "is_reserved": 0, "fusion_lon": 0.0, "lat": 38.8764815, "rental_uris": {"android": "https://dc.lft.to/lastmile_qr_scan", "ios": "https://dc.lft.to/lastmile_qr_scan"}, "fusion_lat": 0.0}, {"type": "electric_scooter", "bike_id": "0f812ac38e4b2c599f855f9401924d90", "is_disabled": 0, "name": "0f812ac38e4b2c599f855f9401924d90", "lon": -77.00934583333333, "is_reserved": 0, "fusion_lon": 0.0, "lat": 38.916559166666666, "rental_uris": {"android": "https://dc.lft.to/lastmile_qr_scan", "ios": "https://dc.lft.to/lastmile_qr_scan"}, "fusion_lat": 0.0}, {"type": "electric_scooter", "bike_id": "37d85b7f71eba3019f097c54e7727592", "is_disabled": 0, "name": "37d85b7f71eba3019f097c54e7727592", "lon": -77.02600583333333, "is_reserved": 0, "fusion_lon": 0.0, "lat": 38.98262116666667, "rental_uris": {"android": "https://dc.lft.to/lastmile_qr_scan", "ios": "https://dc.lft.to/lastmile_qr_scan"}, "fusion_lat": 0.0}, {"type": "electric_scooter", "bike_id": "e3d2611eb8f2e327d23d381ccdc0b4af", "is_disabled": 0, "name": "e3d2611eb8f2e327d23d381ccdc0b4af", "lon": -77.03849583333333, "is_reserved": 0, "fusion_lon": 0.0, "lat": 38.916618, "rental_uris": {"android": "https://dc.lft.to/lastmile_qr_scan", "ios": "https://dc.lft.to/lastmile_qr_scan"}, "fusion_lat": 0.0}, {"type": "electric_scooter", "bike_id": "1b92cb7cc0bd0078c9697bf7ff06988d", "is_disabled": 0, "name": "1b92cb7cc0bd0078c9697bf7ff06988d", "lon": -77.03860683333333, "is_reserved": 0, "fusion_lon": 0.0, "lat": 38.917189666666665, "rental_uris": {"android": "https://dc.lft.to/lastmile_qr_scan", "ios": "https://dc.lft.to/lastmile_qr_scan"}, "fusion_lat": 0.0}, {"type": "electric_scooter", "bike_id": "63a406feb7f2d9152994aacc05a7ddc9", "is_disabled": 0, "name": "63a406feb7f2d9152994aacc05a7ddc9", "lon": -77.032989, "is_reserved": 0, "fusion_lon": 0.0, "lat": 38.90972333333333, "rental_uris": {"android": "https://dc.lft.to/lastmile_qr_scan", "ios": "https://dc.lft.to/lastmile_qr_scan"}, "fusion_lat": 0.0}, {"type": "electric_scooter", "bike_id": "b13cc66a489611e336dc237936722543", "is_disabled": 0, "name": "b13cc66a489611e336dc237936722543", "lon": -77.02388166666667, "is_reserved": 0, "fusion_lon": 0.0, "lat": 38.90964316666667, "rental_uris": {"android": "https://dc.lft.to/lastmile_qr_scan", "ios": "https://dc.lft.to/lastmile_qr_scan"}, "fusion_lat": 0.0}, {"type": "electric_scooter", "bike_id": "ff1186c8ef8962976f6c51b2e641fab4", "is_disabled": 0, "name": "ff1186c8ef8962976f6c51b2e641fab4", "lon": -77.01544316666667, "is_reserved": 0, "fusion_lon": 0.0, "lat": 38.891634333333336, "rental_uris": {"android": "https://dc.lft.to/lastmile_qr_scan", "ios": "https://dc.lft.to/lastmile_qr_scan"}, "fusion_lat": 0.0}, {"type": "electric_scooter", "bike_id": "0320a7680dd03d75c83a39e613182b51", "is_disabled": 0, "name": "0320a7680dd03d75c83a39e613182b51", "lon": -77.02555183333334, "is_reserved": 0, "fusion_lon": 0.0, "lat": 38.916352, "rental_uris": {"android": "https://dc.lft.to/lastmile_qr_scan", "ios": "https://dc.lft.to/lastmile_qr_scan"}, "fusion_lat": 0.0}, {"type": "electric_scooter", "bike_id": "fee656943ec0de3255944bc2c407f3d4", "is_disabled": 0, "name": "fee656943ec0de3255944bc2c407f3d4", "lon": -77.02968816666667, "is_reserved": 0, "fusion_lon": 0.0, "lat": 38.94290816666667, "rental_uris": {"android": "https://dc.lft.to/lastmile_qr_scan", "ios": "https://dc.lft.to/lastmile_qr_scan"}, "fusion_lat": 0.0}, {"type": "electric_scooter", "bike_id": "6e998b64106547a5b21e75585fc3ad44", "is_disabled": 0, "name": "6e998b64106547a5b21e75585fc3ad44", "lon": -77.02090183333334, "is_reserved": 0, "fusion_lon": 0.0, "lat": 38.92366766666667, "rental_uris": {"android": "https://dc.lft.to/lastmile_qr_scan", "ios": "https://dc.lft.to/lastmile_qr_scan"}, "fusion_lat": 0.0}, {"type": "electric_scooter", "bike_id": "99ea4ee878d1306863ac80bc8c5aeb0b", "is_disabled": 0, "name": "99ea4ee878d1306863ac80bc8c5aeb0b", "lon": -77.044746, "is_reserved": 0, "fusion_lon": 0.0, "lat": 38.911153666666664, "rental_uris": {"android": "https://dc.lft.to/lastmile_qr_scan", "ios": "https://dc.lft.to/lastmile_qr_scan"}, "fusion_lat": 0.0}, {"type": "electric_scooter", "bike_id": "4e28d031422cdfbe516d9b40e197362a", "is_disabled": 0, "name": "4e28d031422cdfbe516d9b40e197362a", "lon": -77.0148155, "is_reserved": 0, "fusion_lon": 0.0, "lat": 38.9140985, "rental_uris": {"android": "https://dc.lft.to/lastmile_qr_scan", "ios": "https://dc.lft.to/lastmile_qr_scan"}, "fusion_lat": 0.0}, {"type": "electric_scooter", "bike_id": "0fd0a1e5a5ab0443c60f5aff01ec814b", "is_disabled": 0, "name": "0fd0a1e5a5ab0443c60f5aff01ec814b", "lon": -77.02367816666667, "is_reserved": 0, "fusion_lon": 0.0, "lat": 38.892196166666665, "rental_uris": {"android": "https://dc.lft.to/lastmile_qr_scan", "ios": "https://dc.lft.to/lastmile_qr_scan"}, "fusion_lat": 0.0}, {"type": "electric_scooter", "bike_id": "3acc8f67e6c022439ba817f83afc9722", "is_disabled": 0, "name": "3acc8f67e6c022439ba817f83afc9722", "lon": -77.01982166666667, "is_reserved": 0, "fusion_lon": 0.0, "lat": 38.88716766666667, "rental_uris": {"android": "https://dc.lft.to/lastmile_qr_scan", "ios": "https://dc.lft.to/lastmile_qr_scan"}, "fusion_lat": 0.0}, {"type": "electric_scooter", "bike_id": "40d03e7fe2f7c857ad478b63cec845ca", "is_disabled": 0, "name": "40d03e7fe2f7c857ad478b63cec845ca", "lon": -77.032042, "is_reserved": 0, "fusion_lon": 0.0, "lat": 38.90203283333334, "rental_uris": {"android": "https://dc.lft.to/lastmile_qr_scan", "ios": "https://dc.lft.to/lastmile_qr_scan"}, "fusion_lat": 0.0}, {"type": "electric_scooter", "bike_id": "4e8acd15ddc07256dcb6af21524a90a6", "is_disabled": 0, "name": "4e8acd15ddc07256dcb6af21524a90a6", "lon": -77.01098566666667, "is_reserved": 0, "fusion_lon": 0.0, "lat": 38.89538966666667, "rental_uris": {"android": "https://dc.lft.to/lastmile_qr_scan", "ios": "https://dc.lft.to/lastmile_qr_scan"}, "fusion_lat": 0.0}, {"type": "electric_bike", "bike_id": "9ac3e8a6135101bb2ee4180acb4711b2", "is_disabled": 0, "name": "9ac3e8a6135101bb2ee4180acb4711b2", "lon": -76.95566066666666, "is_reserved": 0, "fusion_lon": 0.0, "lat": 38.9849765, "rental_uris": {"android": "https://dc.lft.to/lastmile_qr_scan", "ios": "https://dc.lft.to/lastmile_qr_scan"}, "fusion_lat": 0.0}, {"type": "electric_scooter", "bike_id": "076060872a904592b1fec23a7070726f", "is_disabled": 0, "name": "076060872a904592b1fec23a7070726f", "lon": -77.0282205, "is_reserved": 0, "fusion_lon": 0.0, "lat": 38.91752233333333, "rental_uris": {"android": "https://dc.lft.to/lastmile_qr_scan", "ios": "https://dc.lft.to/lastmile_qr_scan"}, "fusion_lat": 0.0}, {"type": "electric_scooter", "bike_id": "be0a69291b785f9b224cdba354fa77ae", "is_disabled": 0, "name": "be0a69291b785f9b224cdba354fa77ae", "lon": -77.03996183333334, "is_reserved": 0, "fusion_lon": 0.0, "lat": 38.90271283333333, "rental_uris": {"android": "https://dc.lft.to/lastmile_qr_scan", "ios": "https://dc.lft.to/lastmile_qr_scan"}, "fusion_lat": 0.0}, {"type": "electric_scooter", "bike_id": "ca129624b5b5629a40c66ef807d9aaea", "is_disabled": 0, "name": "ca129624b5b5629a40c66ef807d9aaea", "lon": -77.037186, "is_reserved": 0, "fusion_lon": 0.0, "lat": 38.928652166666666, "rental_uris": {"android": "https://dc.lft.to/lastmile_qr_scan", "ios": "https://dc.lft.to/lastmile_qr_scan"}, "fusion_lat": 0.0}, {"type": "electric_scooter", "bike_id": "bafec96d9100769f1ea1c9c66d05bae9", "is_disabled": 0, "name": "bafec96d9100769f1ea1c9c66d05bae9", "lon": -77.06301066666667, "is_reserved": 0, "fusion_lon": 0.0, "lat": 38.903939333333334, "rental_uris": {"android": "https://dc.lft.to/lastmile_qr_scan", "ios": "https://dc.lft.to/lastmile_qr_scan"}, "fusion_lat": 0.0}, {"type": "electric_scooter", "bike_id": "4e61cd6f5fe8cdd4700fa8bdf1ded396", "is_disabled": 0, "name": "4e61cd6f5fe8cdd4700fa8bdf1ded396", "lon": -77.04125316666666, "is_reserved": 0, "fusion_lon": 0.0, "lat": 38.91705966666667, "rental_uris": {"android": "https://dc.lft.to/lastmile_qr_scan", "ios": "https://dc.lft.to/lastmile_qr_scan"}, "fusion_lat": 0.0}, {"type": "electric_scooter", "bike_id": "8771302eeadbee6232d0eb2eaa80256d", "is_disabled": 0, "name": "8771302eeadbee6232d0eb2eaa80256d", "lon": -77.044661, "is_reserved": 0, "fusion_lon": 0.0, "lat": 38.9246785, "rental_uris": {"android": "https://dc.lft.to/lastmile_qr_scan", "ios": "https://dc.lft.to/lastmile_qr_scan"}, "fusion_lat": 0.0}, {"type": "electric_scooter", "bike_id": "9ffe7b1bc5f569106faacb8f4cffd07b", "is_disabled": 0, "name": "9ffe7b1bc5f569106faacb8f4cffd07b", "lon": -77.0128125, "is_reserved": 0, "fusion_lon": 0.0, "lat": 38.95651816666667, "rental_uris": {"android": "https://dc.lft.to/lastmile_qr_scan", "ios": "https://dc.lft.to/lastmile_qr_scan"}, "fusion_lat": 0.0}, {"type": "electric_bike", "bike_id": "9e9b941edb27ac946ffa493b373a3f38", "is_disabled": 0, "name": "9e9b941edb27ac946ffa493b373a3f38", "lon": -77.01201816666666, "is_reserved": 0, "fusion_lon": 0.0, "lat": 38.95068783333333, "rental_uris": {"android": "https://dc.lft.to/lastmile_qr_scan", "ios": "https://dc.lft.to/lastmile_qr_scan"}, "fusion_lat": 0.0}, {"type": "electric_scooter", "bike_id": "95fb31e7a57bc56cde76fee9935cec39", "is_disabled": 0, "name": "95fb31e7a57bc56cde76fee9935cec39", "lon": -77.06822633333333, "is_reserved": 0, "fusion_lon": 0.0, "lat": 38.91664316666667, "rental_uris": {"android": "https://dc.lft.to/lastmile_qr_scan", "ios": "https://dc.lft.to/lastmile_qr_scan"}, "fusion_lat": 0.0}, {"type": "electric_scooter", "bike_id": "9ff3ffe52238be0117ff5a03a98fd36e", "is_disabled": 0, "name": "9ff3ffe52238be0117ff5a03a98fd36e", "lon": -77.04172633333333, "is_reserved": 0, "fusion_lon": 0.0, "lat": 38.917295333333335, "rental_uris": {"android": "https://dc.lft.to/lastmile_qr_scan", "ios": "https://dc.lft.to/lastmile_qr_scan"}, "fusion_lat": 0.0}, {"type": "electric_scooter", "bike_id": "1ef35c719e999be609b2631766236af1", "is_disabled": 0, "name": "1ef35c719e999be609b2631766236af1", "lon": -77.01983816666667, "is_reserved": 0, "fusion_lon": 0.0, "lat": 38.87601633333333, "rental_uris": {"android": "https://dc.lft.to/lastmile_qr_scan", "ios": "https://dc.lft.to/lastmile_qr_scan"}, "fusion_lat": 0.0}, {"type": "electric_scooter", "bike_id": "fd2308cdb72f7fb07557508ccc301b23", "is_disabled": 0, "name": "fd2308cdb72f7fb07557508ccc301b23", "lon": -77.052139, "is_reserved": 0, "fusion_lon": 0.0, "lat": 38.902557, "rental_uris": {"android": "https://dc.lft.to/lastmile_qr_scan", "ios": "https://dc.lft.to/lastmile_qr_scan"}, "fusion_lat": 0.0}, {"type": "electric_bike", "bike_id": "b56231bf3e6d96f13cb7a27acba95380", "is_disabled": 0, "name": "b56231bf3e6d96f13cb7a27acba95380", "lon": -77.06567316666667, "is_reserved": 0, "fusion_lon": 0.0, "lat": 38.932610333333336, "rental_uris": {"android": "https://dc.lft.to/lastmile_qr_scan", "ios": "https://dc.lft.to/lastmile_qr_scan"}, "fusion_lat": 0.0}, {"type": "electric_scooter", "bike_id": "cb992190aee36891dab4792c19d8449a", "is_disabled": 0, "name": "cb992190aee36891dab4792c19d8449a", "lon": -76.9985355, "is_reserved": 0, "fusion_lon": 0.0, "lat": 38.89619483333333, "rental_uris": {"android": "https://dc.lft.to/lastmile_qr_scan", "ios": "https://dc.lft.to/lastmile_qr_scan"}, "fusion_lat": 0.0}, {"type": "electric_scooter", "bike_id": "e65d094b06a5d32bf7dff6fedd8f67d1", "is_disabled": 0, "name": "e65d094b06a5d32bf7dff6fedd8f67d1", "lon": -77.02602416666667, "is_reserved": 0, "fusion_lon": 0.0, "lat": 38.918358, "rental_uris": {"android": "https://dc.lft.to/lastmile_qr_scan", "ios": "https://dc.lft.to/lastmile_qr_scan"}, "fusion_lat": 0.0}, {"type": "electric_scooter", "bike_id": "cd36d07899b3fd51b16178ed377c918e", "is_disabled": 0, "name": "cd36d07899b3fd51b16178ed377c918e", "lon": -77.049416, "is_reserved": 0, "fusion_lon": 0.0, "lat": 38.90071833333333, "rental_uris": {"android": "https://dc.lft.to/lastmile_qr_scan", "ios": "https://dc.lft.to/lastmile_qr_scan"}, "fusion_lat": 0.0}, {"type": "electric_scooter", "bike_id": "956159e7d9bedc258f7a1b8e68dc6003", "is_disabled": 0, "name": "956159e7d9bedc258f7a1b8e68dc6003", "lon": -77.03456416666667, "is_reserved": 0, "fusion_lon": 0.0, "lat": 38.90805316666667, "rental_uris": {"android": "https://dc.lft.to/lastmile_qr_scan", "ios": "https://dc.lft.to/lastmile_qr_scan"}, "fusion_lat": 0.0}, {"type": "electric_scooter", "bike_id": "d6678a125904aaca6c6cddf6df6ff822", "is_disabled": 0, "name": "d6678a125904aaca6c6cddf6df6ff822", "lon": -77.015079, "is_reserved": 0, "fusion_lon": 0.0, "lat": 38.89237766666667, "rental_uris": {"android": "https://dc.lft.to/lastmile_qr_scan", "ios": "https://dc.lft.to/lastmile_qr_scan"}, "fusion_lat": 0.0}, {"type": "electric_scooter", "bike_id": "398aae704156fcc3230bde4d32cc45df", "is_disabled": 0, "name": "398aae704156fcc3230bde4d32cc45df", "lon": -77.03667466666667, "is_reserved": 0, "fusion_lon": 0.0, "lat": 38.9138875, "rental_uris": {"android": "https://dc.lft.to/lastmile_qr_scan", "ios": "https://dc.lft.to/lastmile_qr_scan"}, "fusion_lat": 0.0}, {"type": "electric_scooter", "bike_id": "d2b95d431c4655c72a35e86263c0202a", "is_disabled": 0, "name": "d2b95d431c4655c72a35e86263c0202a", "lon": -77.03227283333334, "is_reserved": 0, "fusion_lon": 0.0, "lat": 38.916919666666665, "rental_uris": {"android": "https://dc.lft.to/lastmile_qr_scan", "ios": "https://dc.lft.to/lastmile_qr_scan"}, "fusion_lat": 0.0}, {"type": "electric_scooter", "bike_id": "b23806a282d80fdff8784de42da14abe", "is_disabled": 0, "name": "b23806a282d80fdff8784de42da14abe", "lon": -77.026299, "is_reserved": 0, "fusion_lon": 0.0, "lat": 38.897463, "rental_uris": {"android": "https://dc.lft.to/lastmile_qr_scan", "ios": "https://dc.lft.to/lastmile_qr_scan"}, "fusion_lat": 0.0}, {"type": "electric_scooter", "bike_id": "8964412116eccee84c1f622ed20e9440", "is_disabled": 0, "name": "8964412116eccee84c1f622ed20e9440", "lon": -77.0226035, "is_reserved": 0, "fusion_lon": 0.0, "lat": 38.9282265, "rental_uris": {"android": "https://dc.lft.to/lastmile_qr_scan", "ios": "https://dc.lft.to/lastmile_qr_scan"}, "fusion_lat": 0.0}, {"type": "electric_scooter", "bike_id": "f9e6275da2809a324f860561e26f8d1b", "is_disabled": 0, "name": "f9e6275da2809a324f860561e26f8d1b", "lon": -77.02444783333333, "is_reserved": 0, "fusion_lon": 0.0, "lat": 38.95637333333333, "rental_uris": {"android": "https://dc.lft.to/lastmile_qr_scan", "ios": "https://dc.lft.to/lastmile_qr_scan"}, "fusion_lat": 0.0}, {"type": "electric_scooter", "bike_id": "153b0cdf593f86d3506097166b655f7f", "is_disabled": 0, "name": "153b0cdf593f86d3506097166b655f7f", "lon": -77.04501316666666, "is_reserved": 0, "fusion_lon": 0.0, "lat": 38.905546666666666, "rental_uris": {"android": "https://dc.lft.to/lastmile_qr_scan", "ios": "https://dc.lft.to/lastmile_qr_scan"}, "fusion_lat": 0.0}, {"type": "electric_scooter", "bike_id": "9bc2dcf51f45ace04181a68cdc69f24d", "is_disabled": 0, "name": "9bc2dcf51f45ace04181a68cdc69f24d", "lon": -77.02831816666666, "is_reserved": 0, "fusion_lon": 0.0, "lat": 38.931673333333336, "rental_uris": {"android": "https://dc.lft.to/lastmile_qr_scan", "ios": "https://dc.lft.to/lastmile_qr_scan"}, "fusion_lat": 0.0}, {"type": "electric_scooter", "bike_id": "ee7caf37fa8d40610cc4f2df65673eb1", "is_disabled": 0, "name": "ee7caf37fa8d40610cc4f2df65673eb1", "lon": -77.02313216666667, "is_reserved": 0, "fusion_lon": 0.0, "lat": 38.89491366666667, "rental_uris": {"android": "https://dc.lft.to/lastmile_qr_scan", "ios": "https://dc.lft.to/lastmile_qr_scan"}, "fusion_lat": 0.0}, {"type": "electric_bike", "bike_id": "3b9dadf30b1ef9c406aa46b47f925dd9", "is_disabled": 0, "name": "3b9dadf30b1ef9c406aa46b47f925dd9", "lon": -77.02009016666666, "is_reserved": 0, "fusion_lon": 0.0, "lat": 39.026219166666664, "rental_uris": {"android": "https://dc.lft.to/lastmile_qr_scan", "ios": "https://dc.lft.to/lastmile_qr_scan"}, "fusion_lat": 0.0}, {"type": "electric_bike", "bike_id": "df215db000b01d73667caba147da6efa", "is_disabled": 0, "name": "df215db000b01d73667caba147da6efa", "lon": -77.112869, "is_reserved": 0, "fusion_lon": 0.0, "lat": 38.831052166666666, "rental_uris": {"android": "https://dc.lft.to/lastmile_qr_scan", "ios": "https://dc.lft.to/lastmile_qr_scan"}, "fusion_lat": 0.0}, {"type": "electric_scooter", "bike_id": "b60ccda7580b8a57945619b35f3c20b2", "is_disabled": 0, "name": "b60ccda7580b8a57945619b35f3c20b2", "lon": -77.00821316666666, "is_reserved": 0, "fusion_lon": 0.0, "lat": 38.915619666666665, "rental_uris": {"android": "https://dc.lft.to/lastmile_qr_scan", "ios": "https://dc.lft.to/lastmile_qr_scan"}, "fusion_lat": 0.0}, {"type": "electric_scooter", "bike_id": "803a5115a3bf0b130c762015c8af453a", "is_disabled": 0, "name": "803a5115a3bf0b130c762015c8af453a", "lon": -77.02691066666667, "is_reserved": 0, "fusion_lon": 0.0, "lat": 38.930785666666665, "rental_uris": {"android": "https://dc.lft.to/lastmile_qr_scan", "ios": "https://dc.lft.to/lastmile_qr_scan"}, "fusion_lat": 0.0}, {"type": "electric_scooter", "bike_id": "9e74302b188bf5ccc8e8bd7f3193cf2a", "is_disabled": 0, "name": "9e74302b188bf5ccc8e8bd7f3193cf2a", "lon": -77.01837433333333, "is_reserved": 0, "fusion_lon": 0.0, "lat": 38.92150733333333, "rental_uris": {"android": "https://dc.lft.to/lastmile_qr_scan", "ios": "https://dc.lft.to/lastmile_qr_scan"}, "fusion_lat": 0.0}, {"type": "electric_scooter", "bike_id": "b0fbc53a8eb2b02d78835a600336fbf0", "is_disabled": 0, "name": "b0fbc53a8eb2b02d78835a600336fbf0", "lon": -77.03659383333333, "is_reserved": 0, "fusion_lon": 0.0, "lat": 38.91793, "rental_uris": {"android": "https://dc.lft.to/lastmile_qr_scan", "ios": "https://dc.lft.to/lastmile_qr_scan"}, "fusion_lat": 0.0}, {"type": "electric_bike", "bike_id": "bee44074a021501efc9fd4cc01373443", "is_disabled": 0, "name": "bee44074a021501efc9fd4cc01373443", "lon": -76.995467, "is_reserved": 0, "fusion_lon": 0.0, "lat": 38.86203366666667, "rental_uris": {"android": "https://dc.lft.to/lastmile_qr_scan", "ios": "https://dc.lft.to/lastmile_qr_scan"}, "fusion_lat": 0.0}, {"type": "electric_scooter", "bike_id": "dfc93637ad50197727c32c5fd2d56c4b", "is_disabled": 0, "name": "dfc93637ad50197727c32c5fd2d56c4b", "lon": -77.03426683333333, "is_reserved": 0, "fusion_lon": 0.0, "lat": 38.9140455, "rental_uris": {"android": "https://dc.lft.to/lastmile_qr_scan", "ios": "https://dc.lft.to/lastmile_qr_scan"}, "fusion_lat": 0.0}, {"type": "electric_scooter", "bike_id": "fda56d0d31bbb4e77cebfa7d5273ef9d", "is_disabled": 0, "name": "fda56d0d31bbb4e77cebfa7d5273ef9d", "lon": -77.0665555, "is_reserved": 0, "fusion_lon": 0.0, "lat": 38.95061183333333, "rental_uris": {"android": "https://dc.lft.to/lastmile_qr_scan", "ios": "https://dc.lft.to/lastmile_qr_scan"}, "fusion_lat": 0.0}, {"type": "electric_scooter", "bike_id": "fcd5d3acff2a4a7ed2dc393db87eee06", "is_disabled": 0, "name": "fcd5d3acff2a4a7ed2dc393db87eee06", "lon": -77.06114766666667, "is_reserved": 0, "fusion_lon": 0.0, "lat": 38.9022715, "rental_uris": {"android": "https://dc.lft.to/lastmile_qr_scan", "ios": "https://dc.lft.to/lastmile_qr_scan"}, "fusion_lat": 0.0}, {"type": "electric_scooter", "bike_id": "2c165bf38ac341bb551cf6511507d811", "is_disabled": 0, "name": "2c165bf38ac341bb551cf6511507d811", "lon": -77.0033505, "is_reserved": 0, "fusion_lon": 0.0, "lat": 38.89505116666667, "rental_uris": {"android": "https://dc.lft.to/lastmile_qr_scan", "ios": "https://dc.lft.to/lastmile_qr_scan"}, "fusion_lat": 0.0}, {"type": "electric_scooter", "bike_id": "fe85b2cc4244a20d75bb8ea34881517c", "is_disabled": 0, "name": "fe85b2cc4244a20d75bb8ea34881517c", "lon": -77.02210116666667, "is_reserved": 0, "fusion_lon": 0.0, "lat": 38.9014745, "rental_uris": {"android": "https://dc.lft.to/lastmile_qr_scan", "ios": "https://dc.lft.to/lastmile_qr_scan"}, "fusion_lat": 0.0}, {"type": "electric_scooter", "bike_id": "d4359f9c6953633d57c6e758bb67f4dd", "is_disabled": 0, "name": "d4359f9c6953633d57c6e758bb67f4dd", "lon": -77.02942883333333, "is_reserved": 0, "fusion_lon": 0.0, "lat": 38.90719683333333, "rental_uris": {"android": "https://dc.lft.to/lastmile_qr_scan", "ios": "https://dc.lft.to/lastmile_qr_scan"}, "fusion_lat": 0.0}, {"type": "electric_scooter", "bike_id": "518a4ed872a9afcfd23af3541d3bbd12", "is_disabled": 0, "name": "518a4ed872a9afcfd23af3541d3bbd12", "lon": -77.0229435, "is_reserved": 0, "fusion_lon": 0.0, "lat": 38.91688416666667, "rental_uris": {"android": "https://dc.lft.to/lastmile_qr_scan", "ios": "https://dc.lft.to/lastmile_qr_scan"}, "fusion_lat": 0.0}, {"type": "electric_scooter", "bike_id": "284509166bc9c40350ef2b2a4d0ab68b", "is_disabled": 0, "name": "284509166bc9c40350ef2b2a4d0ab68b", "lon": -76.994977, "is_reserved": 0, "fusion_lon": 0.0, "lat": 38.880780666666666, "rental_uris": {"android": "https://dc.lft.to/lastmile_qr_scan", "ios": "https://dc.lft.to/lastmile_qr_scan"}, "fusion_lat": 0.0}, {"type": "electric_bike", "bike_id": "4649003490689851f7137e8fbba0def9", "is_disabled": 0, "name": "4649003490689851f7137e8fbba0def9", "lon": -77.2341095, "is_reserved": 0, "fusion_lon": 0.0, "lat": 38.8757815, "rental_uris": {"android": "https://dc.lft.to/lastmile_qr_scan", "ios": "https://dc.lft.to/lastmile_qr_scan"}, "fusion_lat": 0.0}, {"type": "electric_scooter", "bike_id": "9b15f7cc2cc03ad202e53b40a3a95eb7", "is_disabled": 0, "name": "9b15f7cc2cc03ad202e53b40a3a95eb7", "lon": -77.0093765, "is_reserved": 0, "fusion_lon": 0.0, "lat": 38.918025, "rental_uris": {"android": "https://dc.lft.to/lastmile_qr_scan", "ios": "https://dc.lft.to/lastmile_qr_scan"}, "fusion_lat": 0.0}, {"type": "electric_scooter", "bike_id": "2b40bbbe8dd116733ad7e8f4833fae1e", "is_disabled": 0, "name": "2b40bbbe8dd116733ad7e8f4833fae1e", "lon": -77.03515983333334, "is_reserved": 0, "fusion_lon": 0.0, "lat": 38.90143333333333, "rental_uris": {"android": "https://dc.lft.to/lastmile_qr_scan", "ios": "https://dc.lft.to/lastmile_qr_scan"}, "fusion_lat": 0.0}, {"type": "electric_scooter", "bike_id": "1117ac4e8aee3d99648696de6a190b14", "is_disabled": 0, "name": "1117ac4e8aee3d99648696de6a190b14", "lon": -77.02162966666667, "is_reserved": 0, "fusion_lon": 0.0, "lat": 38.919912833333335, "rental_uris": {"android": "https://dc.lft.to/lastmile_qr_scan", "ios": "https://dc.lft.to/lastmile_qr_scan"}, "fusion_lat": 0.0}, {"type": "electric_scooter", "bike_id": "5d427f6b8f1b869787236c79dcf4601a", "is_disabled": 0, "name": "5d427f6b8f1b869787236c79dcf4601a", "lon": -77.0272735, "is_reserved": 0, "fusion_lon": 0.0, "lat": 38.91815116666667, "rental_uris": {"android": "https://dc.lft.to/lastmile_qr_scan", "ios": "https://dc.lft.to/lastmile_qr_scan"}, "fusion_lat": 0.0}, {"type": "electric_bike", "bike_id": "fd997d21a4ad981dd66494d62492713b", "is_disabled": 0, "name": "fd997d21a4ad981dd66494d62492713b", "lon": -76.95254266666667, "is_reserved": 0, "fusion_lon": 0.0, "lat": 38.906958, "rental_uris": {"android": "https://dc.lft.to/lastmile_qr_scan", "ios": "https://dc.lft.to/lastmile_qr_scan"}, "fusion_lat": 0.0}, {"type": "electric_scooter", "bike_id": "2c0482b55dd8fd07ee27a38f84ddfc9f", "is_disabled": 0, "name": "2c0482b55dd8fd07ee27a38f84ddfc9f", "lon": -76.98807233333333, "is_reserved": 0, "fusion_lon": 0.0, "lat": 38.893583666666665, "rental_uris": {"android": "https://dc.lft.to/lastmile_qr_scan", "ios": "https://dc.lft.to/lastmile_qr_scan"}, "fusion_lat": 0.0}, {"type": "electric_bike", "bike_id": "abc505808ee46dca8426a3b819f13899", "is_disabled": 0, "name": "abc505808ee46dca8426a3b819f13899", "lon": -77.0464625, "is_reserved": 0, "fusion_lon": 0.0, "lat": 38.81541416666666, "rental_uris": {"android": "https://dc.lft.to/lastmile_qr_scan", "ios": "https://dc.lft.to/lastmile_qr_scan"}, "fusion_lat": 0.0}, {"type": "electric_scooter", "bike_id": "36f4ef2bf3dda586578145578d087320", "is_disabled": 0, "name": "36f4ef2bf3dda586578145578d087320", "lon": -77.0138805, "is_reserved": 0, "fusion_lon": 0.0, "lat": 38.911076666666666, "rental_uris": {"android": "https://dc.lft.to/lastmile_qr_scan", "ios": "https://dc.lft.to/lastmile_qr_scan"}, "fusion_lat": 0.0}, {"type": "electric_scooter", "bike_id": "7014f6d8803f8d20bfac6d4542b80f51", "is_disabled": 0, "name": "7014f6d8803f8d20bfac6d4542b80f51", "lon": -76.983367, "is_reserved": 0, "fusion_lon": 0.0, "lat": 38.8954315, "rental_uris": {"android": "https://dc.lft.to/lastmile_qr_scan", "ios": "https://dc.lft.to/lastmile_qr_scan"}, "fusion_lat": 0.0}, {"type": "electric_bike", "bike_id": "15444d7e36fcbfdc29b59804e08e493c", "is_disabled": 0, "name": "15444d7e36fcbfdc29b59804e08e493c", "lon": -77.12991216666667, "is_reserved": 0, "fusion_lon": 0.0, "lat": 38.799802166666666, "rental_uris": {"android": "https://dc.lft.to/lastmile_qr_scan", "ios": "https://dc.lft.to/lastmile_qr_scan"}, "fusion_lat": 0.0}, {"type": "electric_scooter", "bike_id": "e1a25ec3e6fa4d98f594509314a127c7", "is_disabled": 0, "name": "e1a25ec3e6fa4d98f594509314a127c7", "lon": -77.03255766666666, "is_reserved": 0, "fusion_lon": 0.0, "lat": 38.911174833333334, "rental_uris": {"android": "https://dc.lft.to/lastmile_qr_scan", "ios": "https://dc.lft.to/lastmile_qr_scan"}, "fusion_lat": 0.0}, {"type": "electric_scooter", "bike_id": "4c448dc42a4acb9c3acc3d15596e2b65", "is_disabled": 0, "name": "4c448dc42a4acb9c3acc3d15596e2b65", "lon": -77.04044116666667, "is_reserved": 0, "fusion_lon": 0.0, "lat": 38.90565816666667, "rental_uris": {"android": "https://dc.lft.to/lastmile_qr_scan", "ios": "https://dc.lft.to/lastmile_qr_scan"}, "fusion_lat": 0.0}, {"type": "electric_scooter", "bike_id": "e5377cd0839d696cb416f188ca585e16", "is_disabled": 0, "name": "e5377cd0839d696cb416f188ca585e16", "lon": -77.02619783333333, "is_reserved": 0, "fusion_lon": 0.0, "lat": 38.90223233333333, "rental_uris": {"android": "https://dc.lft.to/lastmile_qr_scan", "ios": "https://dc.lft.to/lastmile_qr_scan"}, "fusion_lat": 0.0}, {"type": "electric_scooter", "bike_id": "93c5ff77fae4bcecb56be92c625f0a40", "is_disabled": 0, "name": "93c5ff77fae4bcecb56be92c625f0a40", "lon": -77.000158, "is_reserved": 0, "fusion_lon": 0.0, "lat": 38.87392166666667, "rental_uris": {"android": "https://dc.lft.to/lastmile_qr_scan", "ios": "https://dc.lft.to/lastmile_qr_scan"}, "fusion_lat": 0.0}, {"type": "electric_scooter", "bike_id": "2dba5a7589249721b12a6db71bc49e5b", "is_disabled": 0, "name": "2dba5a7589249721b12a6db71bc49e5b", "lon": -77.03628883333333, "is_reserved": 0, "fusion_lon": 0.0, "lat": 38.9367755, "rental_uris": {"android": "https://dc.lft.to/lastmile_qr_scan", "ios": "https://dc.lft.to/lastmile_qr_scan"}, "fusion_lat": 0.0}, {"type": "electric_scooter", "bike_id": "6b4f14a532f7db59f888b9965dd96e3f", "is_disabled": 0, "name": "6b4f14a532f7db59f888b9965dd96e3f", "lon": -76.97964733333333, "is_reserved": 0, "fusion_lon": 0.0, "lat": 38.897896833333334, "rental_uris": {"android": "https://dc.lft.to/lastmile_qr_scan", "ios": "https://dc.lft.to/lastmile_qr_scan"}, "fusion_lat": 0.0}, {"type": "electric_scooter", "bike_id": "3f7622081133d8c9dd71ae4c6c0e0de8", "is_disabled": 0, "name": "3f7622081133d8c9dd71ae4c6c0e0de8", "lon": -77.03370783333334, "is_reserved": 0, "fusion_lon": 0.0, "lat": 38.900354666666665, "rental_uris": {"android": "https://dc.lft.to/lastmile_qr_scan", "ios": "https://dc.lft.to/lastmile_qr_scan"}, "fusion_lat": 0.0}, {"type": "electric_bike", "bike_id": "2d18a00a471338e97651d7d6fd818b16", "is_disabled": 0, "name": "2d18a00a471338e97651d7d6fd818b16", "lon": -77.09955866666667, "is_reserved": 0, "fusion_lon": 0.0, "lat": 38.85787466666667, "rental_uris": {"android": "https://dc.lft.to/lastmile_qr_scan", "ios": "https://dc.lft.to/lastmile_qr_scan"}, "fusion_lat": 0.0}, {"type": "electric_scooter", "bike_id": "9fd83ca36cdae4cfeebdab47f63a53dc", "is_disabled": 0, "name": "9fd83ca36cdae4cfeebdab47f63a53dc", "lon": -77.07105233333333, "is_reserved": 0, "fusion_lon": 0.0, "lat": 38.91963033333333, "rental_uris": {"android": "https://dc.lft.to/lastmile_qr_scan", "ios": "https://dc.lft.to/lastmile_qr_scan"}, "fusion_lat": 0.0}, {"type": "electric_scooter", "bike_id": "243e4c410f432698c928fc53e97a5a3b", "is_disabled": 0, "name": "243e4c410f432698c928fc53e97a5a3b", "lon": -77.02831316666666, "is_reserved": 0, "fusion_lon": 0.0, "lat": 38.904593166666665, "rental_uris": {"android": "https://dc.lft.to/lastmile_qr_scan", "ios": "https://dc.lft.to/lastmile_qr_scan"}, "fusion_lat": 0.0}, {"type": "electric_scooter", "bike_id": "6356ea2aba234b8d6832fcf71be7f79c", "is_disabled": 0, "name": "6356ea2aba234b8d6832fcf71be7f79c", "lon": -77.02693483333333, "is_reserved": 0, "fusion_lon": 0.0, "lat": 38.902320833333334, "rental_uris": {"android": "https://dc.lft.to/lastmile_qr_scan", "ios": "https://dc.lft.to/lastmile_qr_scan"}, "fusion_lat": 0.0}, {"type": "electric_bike", "bike_id": "b99788e97bc40a7e9139a7300d54a25a", "is_disabled": 0, "name": "b99788e97bc40a7e9139a7300d54a25a", "lon": -76.98206783333333, "is_reserved": 0, "fusion_lon": 0.0, "lat": 38.98502833333333, "rental_uris": {"android": "https://dc.lft.to/lastmile_qr_scan", "ios": "https://dc.lft.to/lastmile_qr_scan"}, "fusion_lat": 0.0}, {"type": "electric_scooter", "bike_id": "65dd1bfa4e833994857f0800d225a589", "is_disabled": 0, "name": "65dd1bfa4e833994857f0800d225a589", "lon": -77.01567166666666, "is_reserved": 0, "fusion_lon": 0.0, "lat": 38.927961, "rental_uris": {"android": "https://dc.lft.to/lastmile_qr_scan", "ios": "https://dc.lft.to/lastmile_qr_scan"}, "fusion_lat": 0.0}, {"type": "electric_scooter", "bike_id": "390c6f148cbb11a568efdb532387a118", "is_disabled": 0, "name": "390c6f148cbb11a568efdb532387a118", "lon": -77.02282, "is_reserved": 0, "fusion_lon": 0.0, "lat": 38.92686366666667, "rental_uris": {"android": "https://dc.lft.to/lastmile_qr_scan", "ios": "https://dc.lft.to/lastmile_qr_scan"}, "fusion_lat": 0.0}, {"type": "electric_scooter", "bike_id": "7cfb8573711b0745569acbfa5c09c704", "is_disabled": 0, "name": "7cfb8573711b0745569acbfa5c09c704", "lon": -77.003164, "is_reserved": 0, "fusion_lon": 0.0, "lat": 38.894705333333334, "rental_uris": {"android": "https://dc.lft.to/lastmile_qr_scan", "ios": "https://dc.lft.to/lastmile_qr_scan"}, "fusion_lat": 0.0}, {"type": "electric_scooter", "bike_id": "e1d8355383860b73a40d90dc001faf9b", "is_disabled": 0, "name": "e1d8355383860b73a40d90dc001faf9b", "lon": -77.02023716666666, "is_reserved": 0, "fusion_lon": 0.0, "lat": 38.92429683333334, "rental_uris": {"android": "https://dc.lft.to/lastmile_qr_scan", "ios": "https://dc.lft.to/lastmile_qr_scan"}, "fusion_lat": 0.0}, {"type": "electric_scooter", "bike_id": "7d6e7e371c146a95efc9fa2c99b55c82", "is_disabled": 0, "name": "7d6e7e371c146a95efc9fa2c99b55c82", "lon": -77.021818, "is_reserved": 0, "fusion_lon": 0.0, "lat": 38.89984883333333, "rental_uris": {"android": "https://dc.lft.to/lastmile_qr_scan", "ios": "https://dc.lft.to/lastmile_qr_scan"}, "fusion_lat": 0.0}, {"type": "electric_scooter", "bike_id": "b3e9525cbe6ef72f6d7c5ad79c600a35", "is_disabled": 0, "name": "b3e9525cbe6ef72f6d7c5ad79c600a35", "lon": -77.03564966666667, "is_reserved": 0, "fusion_lon": 0.0, "lat": 38.924730833333335, "rental_uris": {"android": "https://dc.lft.to/lastmile_qr_scan", "ios": "https://dc.lft.to/lastmile_qr_scan"}, "fusion_lat": 0.0}, {"type": "electric_scooter", "bike_id": "5d2729ff5bb7766f4e286d42f241bf65", "is_disabled": 0, "name": "5d2729ff5bb7766f4e286d42f241bf65", "lon": -77.03637716666667, "is_reserved": 0, "fusion_lon": 0.0, "lat": 38.92706233333333, "rental_uris": {"android": "https://dc.lft.to/lastmile_qr_scan", "ios": "https://dc.lft.to/lastmile_qr_scan"}, "fusion_lat": 0.0}, {"type": "electric_scooter", "bike_id": "974572ed4231cce45736c7e8f55feeba", "is_disabled": 0, "name": "974572ed4231cce45736c7e8f55feeba", "lon": -77.03271416666666, "is_reserved": 0, "fusion_lon": 0.0, "lat": 38.93299966666667, "rental_uris": {"android": "https://dc.lft.to/lastmile_qr_scan", "ios": "https://dc.lft.to/lastmile_qr_scan"}, "fusion_lat": 0.0}, {"type": "electric_scooter", "bike_id": "f4551abf35134ccf57a79426cff1e139", "is_disabled": 0, "name": "f4551abf35134ccf57a79426cff1e139", "lon": -77.01955233333334, "is_reserved": 0, "fusion_lon": 0.0, "lat": 38.9225555, "rental_uris": {"android": "https://dc.lft.to/lastmile_qr_scan", "ios": "https://dc.lft.to/lastmile_qr_scan"}, "fusion_lat": 0.0}, {"type": "electric_scooter", "bike_id": "1aea97d085b71533e0ea0ef6a0372bcb", "is_disabled": 0, "name": "1aea97d085b71533e0ea0ef6a0372bcb", "lon": -77.03632833333333, "is_reserved": 0, "fusion_lon": 0.0, "lat": 38.9038315, "rental_uris": {"android": "https://dc.lft.to/lastmile_qr_scan", "ios": "https://dc.lft.to/lastmile_qr_scan"}, "fusion_lat": 0.0}, {"type": "electric_scooter", "bike_id": "e7523824614a7aeedd6a862a857426e8", "is_disabled": 0, "name": "e7523824614a7aeedd6a862a857426e8", "lon": -77.02562566666667, "is_reserved": 0, "fusion_lon": 0.0, "lat": 38.94193283333333, "rental_uris": {"android": "https://dc.lft.to/lastmile_qr_scan", "ios": "https://dc.lft.to/lastmile_qr_scan"}, "fusion_lat": 0.0}, {"type": "electric_bike", "bike_id": "c6f27d2a9e6c3355876013821a4de3d5", "is_disabled": 0, "name": "c6f27d2a9e6c3355876013821a4de3d5", "lon": -77.09690983333333, "is_reserved": 0, "fusion_lon": 0.0, "lat": 38.88690316666667, "rental_uris": {"android": "https://dc.lft.to/lastmile_qr_scan", "ios": "https://dc.lft.to/lastmile_qr_scan"}, "fusion_lat": 0.0}, {"type": "electric_scooter", "bike_id": "d0c8ab85ad214061b41b06f1f37c6ca1", "is_disabled": 0, "name": "d0c8ab85ad214061b41b06f1f37c6ca1", "lon": -77.02063733333334, "is_reserved": 0, "fusion_lon": 0.0, "lat": 38.92365616666667, "rental_uris": {"android": "https://dc.lft.to/lastmile_qr_scan", "ios": "https://dc.lft.to/lastmile_qr_scan"}, "fusion_lat": 0.0}, {"type": "electric_scooter", "bike_id": "d8dafc87dec7b892131aaf4639181f4c", "is_disabled": 0, "name": "d8dafc87dec7b892131aaf4639181f4c", "lon": -77.0467185, "is_reserved": 0, "fusion_lon": 0.0, "lat": 38.902475, "rental_uris": {"android": "https://dc.lft.to/lastmile_qr_scan", "ios": "https://dc.lft.to/lastmile_qr_scan"}, "fusion_lat": 0.0}, {"type": "electric_scooter", "bike_id": "13c1d666d1790ed974a4484cf7cf29d0", "is_disabled": 0, "name": "13c1d666d1790ed974a4484cf7cf29d0", "lon": -77.05319733333333, "is_reserved": 0, "fusion_lon": 0.0, "lat": 38.915508333333335, "rental_uris": {"android": "https://dc.lft.to/lastmile_qr_scan", "ios": "https://dc.lft.to/lastmile_qr_scan"}, "fusion_lat": 0.0}, {"type": "electric_scooter", "bike_id": "472830e34dd13351be980e25f16fdebe", "is_disabled": 0, "name": "472830e34dd13351be980e25f16fdebe", "lon": -77.0398275, "is_reserved": 0, "fusion_lon": 0.0, "lat": 38.898846166666665, "rental_uris": {"android": "https://dc.lft.to/lastmile_qr_scan", "ios": "https://dc.lft.to/lastmile_qr_scan"}, "fusion_lat": 0.0}, {"type": "electric_scooter", "bike_id": "f462efeb211ca472cf3c46ed96a3286d", "is_disabled": 0, "name": "f462efeb211ca472cf3c46ed96a3286d", "lon": -77.04142916666666, "is_reserved": 0, "fusion_lon": 0.0, "lat": 38.9306585, "rental_uris": {"android": "https://dc.lft.to/lastmile_qr_scan", "ios": "https://dc.lft.to/lastmile_qr_scan"}, "fusion_lat": 0.0}, {"type": "electric_scooter", "bike_id": "a143e75a896af5314bf72fca4244c37d", "is_disabled": 0, "name": "a143e75a896af5314bf72fca4244c37d", "lon": -77.03182733333334, "is_reserved": 0, "fusion_lon": 0.0, "lat": 38.90359133333333, "rental_uris": {"android": "https://dc.lft.to/lastmile_qr_scan", "ios": "https://dc.lft.to/lastmile_qr_scan"}, "fusion_lat": 0.0}, {"type": "electric_scooter", "bike_id": "140005b96c41c76d1f4b2e3e907b30c3", "is_disabled": 0, "name": "140005b96c41c76d1f4b2e3e907b30c3", "lon": -77.029769, "is_reserved": 0, "fusion_lon": 0.0, "lat": 38.90495883333333, "rental_uris": {"android": "https://dc.lft.to/lastmile_qr_scan", "ios": "https://dc.lft.to/lastmile_qr_scan"}, "fusion_lat": 0.0}, {"type": "electric_scooter", "bike_id": "b651a218ac9107d20cee74f94b7855d5", "is_disabled": 0, "name": "b651a218ac9107d20cee74f94b7855d5", "lon": -77.04357866666666, "is_reserved": 0, "fusion_lon": 0.0, "lat": 38.904355, "rental_uris": {"android": "https://dc.lft.to/lastmile_qr_scan", "ios": "https://dc.lft.to/lastmile_qr_scan"}, "fusion_lat": 0.0}, {"type": "electric_scooter", "bike_id": "86a573694d4de5b97206f6adccf2f4fb", "is_disabled": 0, "name": "86a573694d4de5b97206f6adccf2f4fb", "lon": -77.00067, "is_reserved": 0, "fusion_lon": 0.0, "lat": 38.88113166666667, "rental_uris": {"android": "https://dc.lft.to/lastmile_qr_scan", "ios": "https://dc.lft.to/lastmile_qr_scan"}, "fusion_lat": 0.0}, {"type": "electric_scooter", "bike_id": "2432fd9bf90ed3208d90ea2f81c2e80b", "is_disabled": 0, "name": "2432fd9bf90ed3208d90ea2f81c2e80b", "lon": -77.02871233333333, "is_reserved": 0, "fusion_lon": 0.0, "lat": 38.912522, "rental_uris": {"android": "https://dc.lft.to/lastmile_qr_scan", "ios": "https://dc.lft.to/lastmile_qr_scan"}, "fusion_lat": 0.0}, {"type": "electric_scooter", "bike_id": "2ba2b0f5cadbd29a6e4621cda1d1be08", "is_disabled": 0, "name": "2ba2b0f5cadbd29a6e4621cda1d1be08", "lon": -77.0347645, "is_reserved": 0, "fusion_lon": 0.0, "lat": 38.90148583333333, "rental_uris": {"android": "https://dc.lft.to/lastmile_qr_scan", "ios": "https://dc.lft.to/lastmile_qr_scan"}, "fusion_lat": 0.0}, {"type": "electric_bike", "bike_id": "48672dfd508ad13e6cf3b3d73139abb6", "is_disabled": 0, "name": "48672dfd508ad13e6cf3b3d73139abb6", "lon": -76.97342, "is_reserved": 0, "fusion_lon": 0.0, "lat": 38.865647833333334, "rental_uris": {"android": "https://dc.lft.to/lastmile_qr_scan", "ios": "https://dc.lft.to/lastmile_qr_scan"}, "fusion_lat": 0.0}, {"type": "electric_scooter", "bike_id": "46bf480608542141d94e5d37a30a9413", "is_disabled": 0, "name": "46bf480608542141d94e5d37a30a9413", "lon": -77.01028666666667, "is_reserved": 0, "fusion_lon": 0.0, "lat": 38.911402333333335, "rental_uris": {"android": "https://dc.lft.to/lastmile_qr_scan", "ios": "https://dc.lft.to/lastmile_qr_scan"}, "fusion_lat": 0.0}, {"type": "electric_scooter", "bike_id": "4667ad24877886d0c2aaaf38fc65eb16", "is_disabled": 0, "name": "4667ad24877886d0c2aaaf38fc65eb16", "lon": -77.01336616666667, "is_reserved": 0, "fusion_lon": 0.0, "lat": 38.881260833333336, "rental_uris": {"android": "https://dc.lft.to/lastmile_qr_scan", "ios": "https://dc.lft.to/lastmile_qr_scan"}, "fusion_lat": 0.0}, {"type": "electric_scooter", "bike_id": "90cc2ab5eb56e5cd66c4a11fb445f1aa", "is_disabled": 0, "name": "90cc2ab5eb56e5cd66c4a11fb445f1aa", "lon": -77.02090266666667, "is_reserved": 0, "fusion_lon": 0.0, "lat": 38.90732883333333, "rental_uris": {"android": "https://dc.lft.to/lastmile_qr_scan", "ios": "https://dc.lft.to/lastmile_qr_scan"}, "fusion_lat": 0.0}, {"type": "electric_scooter", "bike_id": "9faffde21a66b5031cc173a344b5ed17", "is_disabled": 0, "name": "9faffde21a66b5031cc173a344b5ed17", "lon": -77.05339033333334, "is_reserved": 0, "fusion_lon": 0.0, "lat": 38.923170166666665, "rental_uris": {"android": "https://dc.lft.to/lastmile_qr_scan", "ios": "https://dc.lft.to/lastmile_qr_scan"}, "fusion_lat": 0.0}, {"type": "electric_scooter", "bike_id": "d7c915bf032f888497718a501eabc838", "is_disabled": 0, "name": "d7c915bf032f888497718a501eabc838", "lon": -77.01630033333333, "is_reserved": 0, "fusion_lon": 0.0, "lat": 38.916924, "rental_uris": {"android": "https://dc.lft.to/lastmile_qr_scan", "ios": "https://dc.lft.to/lastmile_qr_scan"}, "fusion_lat": 0.0}, {"type": "electric_scooter", "bike_id": "c9fa1515b18777056abf96175f463d54", "is_disabled": 0, "name": "c9fa1515b18777056abf96175f463d54", "lon": -77.04318916666666, "is_reserved": 0, "fusion_lon": 0.0, "lat": 38.905682, "rental_uris": {"android": "https://dc.lft.to/lastmile_qr_scan", "ios": "https://dc.lft.to/lastmile_qr_scan"}, "fusion_lat": 0.0}, {"type": "electric_scooter", "bike_id": "d46f06c577ee60605e6a726d5bc2df90", "is_disabled": 0, "name": "d46f06c577ee60605e6a726d5bc2df90", "lon": -77.01680583333334, "is_reserved": 0, "fusion_lon": 0.0, "lat": 38.901471, "rental_uris": {"android": "https://dc.lft.to/lastmile_qr_scan", "ios": "https://dc.lft.to/lastmile_qr_scan"}, "fusion_lat": 0.0}, {"type": "electric_bike", "bike_id": "807854ed0535e0d04c5ec459208d0f08", "is_disabled": 0, "name": "807854ed0535e0d04c5ec459208d0f08", "lon": -76.97898016666667, "is_reserved": 0, "fusion_lon": 0.0, "lat": 38.9269435, "rental_uris": {"android": "https://dc.lft.to/lastmile_qr_scan", "ios": "https://dc.lft.to/lastmile_qr_scan"}, "fusion_lat": 0.0}, {"type": "electric_scooter", "bike_id": "da3455e6e8260ff30f69a31e11d3f12d", "is_disabled": 0, "name": "da3455e6e8260ff30f69a31e11d3f12d", "lon": -77.0324035, "is_reserved": 0, "fusion_lon": 0.0, "lat": 38.897199, "rental_uris": {"android": "https://dc.lft.to/lastmile_qr_scan", "ios": "https://dc.lft.to/lastmile_qr_scan"}, "fusion_lat": 0.0}, {"type": "electric_scooter", "bike_id": "7ecb73d1d47520a6e8e1c88c1c01cc6c", "is_disabled": 0, "name": "7ecb73d1d47520a6e8e1c88c1c01cc6c", "lon": -77.0217645, "is_reserved": 0, "fusion_lon": 0.0, "lat": 38.92002566666667, "rental_uris": {"android": "https://dc.lft.to/lastmile_qr_scan", "ios": "https://dc.lft.to/lastmile_qr_scan"}, "fusion_lat": 0.0}, {"type": "electric_scooter", "bike_id": "d0f32ac39270e817fb9b3821203e253f", "is_disabled": 0, "name": "d0f32ac39270e817fb9b3821203e253f", "lon": -77.0413625, "is_reserved": 0, "fusion_lon": 0.0, "lat": 38.9216875, "rental_uris": {"android": "https://dc.lft.to/lastmile_qr_scan", "ios": "https://dc.lft.to/lastmile_qr_scan"}, "fusion_lat": 0.0}, {"type": "electric_scooter", "bike_id": "9810de84eee7e6053729b991f3ec1da6", "is_disabled": 0, "name": "9810de84eee7e6053729b991f3ec1da6", "lon": -77.0385325, "is_reserved": 0, "fusion_lon": 0.0, "lat": 38.911714833333335, "rental_uris": {"android": "https://dc.lft.to/lastmile_qr_scan", "ios": "https://dc.lft.to/lastmile_qr_scan"}, "fusion_lat": 0.0},