{"data": {"bikes": [{"name": "97f71fd6c2f47eca4d0601f96df1251d", "type": "electric_scooter", "lat": 38.90669233333333, "is_reserved": 0, "lon": -77.0270225, "fusion_lon": 0.0, "is_disabled": 0, "fusion_lat": 0.0, "bike_id": "97f71fd6c2f47eca4d0601f96df1251d", "rental_uris": {"ios": "https://dc.lft.to/lastmile_qr_scan", "android": "https://dc.lft.to/lastmile_qr_scan"}}, {"name": "080f95f2dc223002fab9486a76890a7b", "type": "electric_scooter", "lat": 38.87782466666667, "is_reserved": 0, "lon": -76.99412683333334, "fusion_lon": 0.0, "is_disabled": 0, "fusion_lat": 0.0, "bike_id": "080f95f2dc223002fab9486a76890a7b", "rental_uris": {"ios": "https://dc.lft.to/lastmile_qr_scan", "android": "https://dc.lft.to/lastmile_qr_scan"}}, {"name": "2e84732affdc41efe8b0c0a4cd2b2c27", "type": "electric_scooter", "lat": 38.905700833333334, "is_reserved": 0, "lon": -77.03849333333334, "fusion_lon": 0.0, "is_disabled": 0, "fusion_lat": 0.0, "bike_id": "2e84732affdc41efe8b0c0a4cd2b2c27", "rental_uris": {"ios": "https://dc.lft.to/lastmile_qr_scan", "android": "https://dc.lft.to/lastmile_qr_scan"}}, {"name": "35f6d1ad5b2af7de2f6036792e6a9b47", "type": "electric_scooter", "lat": 38.90385766666667, "is_reserved": 0, "lon": -77.04168533333333, "fusion_lon": 0.0, "is_disabled": 0, "fusion_lat": 0.0, "bike_id": "35f6d1ad5b2af7de2f6036792e6a9b47", "rental_uris": {"ios": "https://dc.lft.to/lastmile_qr_scan", "android": "https://dc.lft.to/lastmile_qr_scan"}}, {"name": "84e916667aab63b0af253cb887046600", "type": "electric_scooter", "lat": 38.927145333333335, "is_reserved": 0, "lon": -77.0210545, "fusion_lon": 0.0, "is_disabled": 0, "fusion_lat": 0.0, "bike_id": "84e916667aab63b0af253cb887046600", "rental_uris": {"ios": "https://dc.lft.to/lastmile_qr_scan", "android": "https://dc.lft.to/lastmile_qr_scan"}}, {"name": "528f0371668b397c7d97881adb31be03", "type": "electric_scooter", "lat": 38.86658666666666, "is_reserved": 0, "lon": -76.9888635, "fusion_lon": 0.0, "is_disabled": 0, "fusion_lat": 0.0, "bike_id": "528f0371668b397c7d97881adb31be03", "rental_uris": {"ios": "https://dc.lft.to/lastmile_qr_scan", "android": "https://dc.lft.to/lastmile_qr_scan"}}, {"name": "4e22d0d174eebafcf6cea66d567e2c20", "type": "electric_bike", "lat": 38.96506816666667, "is_reserved": 0, "lon": -77.10336233333334, "fusion_lon": 0.0, "is_disabled": 0, "fusion_lat": 0.0, "bike_id": "4e22d0d174eebafcf6cea66d567e2c20", "rental_uris": {"ios": "https://dc.lft.to/lastmile_qr_scan", "android": "https://dc.lft.to/lastmile_qr_scan"}}, {"name": "a8e0039254baa9993582f6d37477fb68", "type": "electric_scooter", "lat": 38.905645166666666, "is_reserved": 0, "lon": -77.0347565, "fusion_lon": 0.0, "is_disabled": 0, "fusion_lat": 0.0, "bike_id": "a8e0039254baa9993582f6d37477fb68", "rental_uris": {"ios": "https://dc.lft.to/lastmile_qr_scan", "android": "https://dc.lft.to/lastmile_qr_scan"}}, {"name": "7ce9d2d29b23e6a88943dab219895628", "type": "electric_scooter", "lat": 38.942789833333336, "is_reserved": 0, "lon": -77.02506666666666, "fusion_lon": 0.0, "is_disabled": 0, "fusion_lat": 0.0, "bike_id": "7ce9d2d29b23e6a88943dab219895628", "rental_uris": {"ios": "https://dc.lft.to/lastmile_qr_scan", "android": "https://dc.lft.to/lastmile_qr_scan"}}, {"name": "be8e9cc03851aadff02f273eb065bd36", "type": "electric_scooter", "lat": 38.90029966666667, "is_reserved": 0, "lon": -77.04669216666667, "fusion_lon": 0.0, "is_disabled": 0, "fusion_lat": 0.0, "bike_id": "be8e9cc03851aadff02f273eb065bd36", "rental_uris": {"ios": "https://dc.lft.to/lastmile_qr_scan", "android": "https://dc.lft.to/lastmile_qr_scan"}}, {"name": "9425670fabd179bcc0ef8ed03c7102c1", "type": "electric_scooter", "lat": 38.92944216666667, "is_reserved": 0, "lon": -77.0326145, "fusion_lon": 0.0, "is_disabled": 0, "fusion_lat": 0.0, "bike_id": "9425670fabd179bcc0ef8ed03c7102c1", "rental_uris": {"ios": "https://dc.lft.to/lastmile_qr_scan", "android": "https://dc.lft.to/lastmile_qr_scan"}}, {"name": "c1d60872604c3286efb8620a40675097", "type": "electric_scooter", "lat": 38.92337766666667, "is_reserved": 0, "lon": -77.035035, "fusion_lon": 0.0, "is_disabled": 0, "fusion_lat": 0.0, "bike_id": "c1d60872604c3286efb8620a40675097", "rental_uris": {"ios": "https://dc.lft.to/lastmile_qr_scan", "android": "https://dc.lft.to/lastmile_qr_scan"}}, {"name": "d7a9ae57d960ca8bb13dfc7837865935", "type": "electric_scooter", "lat": 38.92286583333333, "is_reserved": 0, "lon": -77.03662466666667, "fusion_lon": 0.0, "is_disabled": 0, "fusion_lat": 0.0, "bike_id": "d7a9ae57d960ca8bb13dfc7837865935", "rental_uris": {"ios": "https://dc.lft.to/lastmile_qr_scan", "android": "https://dc.lft.to/lastmile_qr_scan"}}, {"name": "e6e5cc402f6a89e885a3694bd773bfa4", "type": "electric_scooter", "lat": 38.886136, "is_reserved": 0, "lon": -76.99513916666666, "fusion_lon": 0.0, "is_disabled": 0, "fusion_lat": 0.0, "bike_id": "e6e5cc402f6a89e885a3694bd773bfa4", "rental_uris": {"ios": "https://dc.lft.to/lastmile_qr_scan", "android": "https://dc.lft.to/lastmile_qr_scan"}}, {"name": "533c02b84937b81904ed8121d5b7c4e3", "type": "electric_scooter", "lat": 38.90662583333334, "is_reserved": 0, "lon": -77.03851733333333, "fusion_lon": 0.0, "is_disabled": 0, "fusion_lat": 0.0, "bike_id": "533c02b84937b81904ed8121d5b7c4e3", "rental_uris": {"ios": "https://dc.lft.to/lastmile_qr_scan", "android": "https://dc.lft.to/lastmile_qr_scan"}}, {"name": "bc2c04463cb9c0ca699ad66633ea8c36", "type": "electric_scooter", "lat": 38.8763675, "is_reserved": 0, "lon": -76.96525566666666, "fusion_lon": 0.0, "is_disabled": 0, "fusion_lat": 0.0, "bike_id": "bc2c04463cb9c0ca699ad66633ea8c36", "rental_uris": {"ios": "https://dc.lft.to/lastmile_qr_scan", "android": "https://dc.lft.to/lastmile_qr_scan"}}, {"name": "560b13baff4ec9a01c414608d6d1add5", "type": "electric_scooter", "lat": 38.82897166666667, "is_reserved": 0, "lon": -76.997078, "fusion_lon": 0.0, "is_disabled": 0, "fusion_lat": 0.0, "bike_id": "560b13baff4ec9a01c414608d6d1add5", "rental_uris": {"ios": "https://dc.lft.to/lastmile_qr_scan", "android": "https://dc.lft.to/lastmile_qr_scan"}}, {"name": "9214213ba710a447fc0df398061faad9", "type": "electric_scooter", "lat": 38.936075, "is_reserved": 0, "lon": -77.03655816666667, "fusion_lon": 0.0, "is_disabled": 0, "fusion_lat": 0.0, "bike_id": "9214213ba710a447fc0df398061faad9", "rental_uris": {"ios": "https://dc.lft.to/lastmile_qr_scan", "android": "https://dc.lft.to/lastmile_qr_scan"}}, {"name": "90fa6ff3ef496243cc776752f359c124", "type": "electric_scooter", "lat": 38.899764, "is_reserved": 0, "lon": -76.99149533333333, "fusion_lon": 0.0, "is_disabled": 0, "fusion_lat": 0.0, "bike_id": "90fa6ff3ef496243cc776752f359c124", "rental_uris": {"ios": "https://dc.lft.to/lastmile_qr_scan", "android": "https://dc.lft.to/lastmile_qr_scan"}}, {"name": "9b74ca5327baf4cc3493785edbe53c31", "type": "electric_scooter", "lat": 38.903826333333335, "is_reserved": 0, "lon": -77.04348366666666, "fusion_lon": 0.0, "is_disabled": 0, "fusion_lat": 0.0, "bike_id": "9b74ca5327baf4cc3493785edbe53c31", "rental_uris": {"ios": "https://dc.lft.to/lastmile_qr_scan", "android": "https://dc.lft.to/lastmile_qr_scan"}}, {"name": "fa39b14208a5e65f8fd4d0e56f3e4474", "type": "electric_scooter", "lat": 38.901255666666664, "is_reserved": 0, "lon": -77.04999066666667, "fusion_lon": 0.0, "is_disabled": 0, "fusion_lat": 0.0, "bike_id": "fa39b14208a5e65f8fd4d0e56f3e4474", "rental_uris": {"ios": "https://dc.lft.to/lastmile_qr_scan", "android": "https://dc.lft.to/lastmile_qr_scan"}}, {"name": "1c0c6ed7c297f4897142f1f895e9da95", "type": "electric_scooter", "lat": 38.893273666666666, "is_reserved": 0, "lon": -76.92991483333333, "fusion_lon": 0.0, "is_disabled": 0, "fusion_lat": 0.0, "bike_id": "1c0c6ed7c297f4897142f1f895e9da95", "rental_uris": {"ios": "https://dc.lft.to/lastmile_qr_scan", "android": "https://dc.lft.to/lastmile_qr_scan"}}, {"name": "cbab9d03225089ad453089d9b4990aab", "type": "electric_scooter", "lat": 38.89900516666667, "is_reserved": 0, "lon": -77.03333033333334, "fusion_lon": 0.0, "is_disabled": 0, "fusion_lat": 0.0, "bike_id": "cbab9d03225089ad453089d9b4990aab", "rental_uris": {"ios": "https://dc.lft.to/lastmile_qr_scan", "android": "https://dc.lft.to/lastmile_qr_scan"}}, {"name": "52b3f7b1e5d9a95649d9808589997002", "type": "electric_scooter", "lat": 38.8839965, "is_reserved": 0, "lon": -76.93042116666666, "fusion_lon": 0.0, "is_disabled": 0, "fusion_lat": 0.0, "bike_id": "52b3f7b1e5d9a95649d9808589997002", "rental_uris": {"ios": "https://dc.lft.to/lastmile_qr_scan", "android": "https://dc.lft.to/lastmile_qr_scan"}}, {"name": "778e043a26559f869c5df76ffa013502", "type": "electric_bike", "lat": 38.9221105, "is_reserved": 0, "lon": -76.98801216666666, "fusion_lon": 0.0, "is_disabled": 0, "fusion_lat": 0.0, "bike_id": "778e043a26559f869c5df76ffa013502", "rental_uris": {"ios": "https://dc.lft.to/lastmile_qr_scan", "android": "https://dc.lft.to/lastmile_qr_scan"}}, {"name": "769773c02ebc9f7eaa9e3b6fc84d72cc", "type": "electric_scooter", "lat": 38.894711, "is_reserved": 0, "lon": -77.046619, "fusion_lon": 0.0, "is_disabled": 0, "fusion_lat": 0.0, "bike_id": "769773c02ebc9f7eaa9e3b6fc84d72cc", "rental_uris": {"ios": "https://dc.lft.to/lastmile_qr_scan", "android": "https://dc.lft.to/lastmile_qr_scan"}}, {"name": "1d7ef7c5e3f91daeb8946cf345b3b331", "type": "electric_scooter", "lat": 38.943684833333336, "is_reserved": 0, "lon": -77.02183016666666, "fusion_lon": 0.0, "is_disabled": 0, "fusion_lat": 0.0, "bike_id": "1d7ef7c5e3f91daeb8946cf345b3b331", "rental_uris": {"ios": "https://dc.lft.to/lastmile_qr_scan", "android": "https://dc.lft.to/lastmile_qr_scan"}}, {"name": "9fb48a03f2cff2833acb9ad8cfa7deba", "type": "electric_scooter", "lat": 38.8875605, "is_reserved": 0, "lon": -76.97984083333333, "fusion_lon": 0.0, "is_disabled": 0, "fusion_lat": 0.0, "bike_id": "9fb48a03f2cff2833acb9ad8cfa7deba", "rental_uris": {"ios": "https://dc.lft.to/lastmile_qr_scan", "android": "https://dc.lft.to/lastmile_qr_scan"}}, {"name": "68f63c47f22aeb9b5d0377aa16493ad7", "type": "electric_bike", "lat": 38.87581, "is_reserved": 0, "lon": -77.10565933333334, "fusion_lon": 0.0, "is_disabled": 0, "fusion_lat": 0.0, "bike_id": "68f63c47f22aeb9b5d0377aa16493ad7", "rental_uris": {"ios": "https://dc.lft.to/lastmile_qr_scan", "android": "https://dc.lft.to/lastmile_qr_scan"}}, {"name": "fa2dd8c2db8e5cb7d9834002b1694c74", "type": "electric_scooter", "lat": 38.8949125, "is_reserved": 0, "lon": -77.010142, "fusion_lon": 0.0, "is_disabled": 0, "fusion_lat": 0.0, "bike_id": "fa2dd8c2db8e5cb7d9834002b1694c74", "rental_uris": {"ios": "https://dc.lft.to/lastmile_qr_scan", "android": "https://dc.lft.to/lastmile_qr_scan"}}, {"name": "8245a1c7b2fe4e901ffb685689c9d18a", "type": "electric_scooter", "lat": 38.93506, "is_reserved": 0, "lon": -77.01998883333333, "fusion_lon": 0.0, "is_disabled": 0, "fusion_lat": 0.0, "bike_id": "8245a1c7b2fe4e901ffb685689c9d18a", "rental_uris": {"ios": "https://dc.lft.to/lastmile_qr_scan", "android": "https://dc.lft.to/lastmile_qr_scan"}}, {"name": "0c8b9b27511e4fd057a67a86fc883814", "type": "electric_scooter", "lat": 38.918085, "is_reserved": 0, "lon": -77.03149966666666, "fusion_lon": 0.0, "is_disabled": 0, "fusion_lat": 0.0, "bike_id": "0c8b9b27511e4fd057a67a86fc883814", "rental_uris": {"ios": "https://dc.lft.to/lastmile_qr_scan", "android": "https://dc.lft.to/lastmile_qr_scan"}}, {"name": "151c4b242645ac826f87be46cba1d1bf", "type": "electric_scooter", "lat": 38.877256833333334, "is_reserved": 0, "lon": -77.01763833333334, "fusion_lon": 0.0, "is_disabled": 0, "fusion_lat": 0.0, "bike_id": "151c4b242645ac826f87be46cba1d1bf", "rental_uris": {"ios": "https://dc.lft.to/lastmile_qr_scan", "android": "https://dc.lft.to/lastmile_qr_scan"}}, {"name": "788c857b0e4331de99ac3f413d74365c", "type": "electric_bike", "lat": 38.9048755, "is_reserved": 0, "lon": -77.02765166666667, "fusion_lon": 0.0, "is_disabled": 0, "fusion_lat": 0.0, "bike_id": "788c857b0e4331de99ac3f413d74365c", "rental_uris": {"ios": "https://dc.lft.to/lastmile_qr_scan", "android": "https://dc.lft.to/lastmile_qr_scan"}}, {"name": "5bdde21663897cd0be97eb4dff141c76", "type": "electric_bike", "lat": 39.0304605, "is_reserved": 0, "lon": -77.09482383333334, "fusion_lon": 0.0, "is_disabled": 0, "fusion_lat": 0.0, "bike_id": "5bdde21663897cd0be97eb4dff141c76", "rental_uris": {"ios": "https://dc.lft.to/lastmile_qr_scan", "android": "https://dc.lft.to/lastmile_qr_scan"}}, {"name": "715122edce61c88db69b80efa8bf677e", "type": "electric_scooter", "lat": 38.90467366666667, "is_reserved": 0, "lon": -77.06008516666667, "fusion_lon": 0.0, "is_disabled": 0, "fusion_lat": 0.0, "bike_id": "715122edce61c88db69b80efa8bf677e", "rental_uris": {"ios": "https://dc.lft.to/lastmile_qr_scan", "android": "https://dc.lft.to/lastmile_qr_scan"}}, {"name": "6338ba516059e6ed9ad08393bb29c9ed", "type": "electric_scooter", "lat": 38.89353083333334, "is_reserved": 0, "lon": -77.00336833333333, "fusion_lon": 0.0, "is_disabled": 0, "fusion_lat": 0.0, "bike_id": "6338ba516059e6ed9ad08393bb29c9ed", "rental_uris": {"ios": "https://dc.lft.to/lastmile_qr_scan", "android": "https://dc.lft.to/lastmile_qr_scan"}}, {"name": "cc3058f934ecd1fee81de30e74ae9fca", "type": "electric_scooter", "lat": 38.909249833333334, "is_reserved": 0, "lon": -77.0321095, "fusion_lon": 0.0, "is_disabled": 0, "fusion_lat": 0.0, "bike_id": "cc3058f934ecd1fee81de30e74ae9fca", "rental_uris": {"ios": "https://dc.lft.to/lastmile_qr_scan", "android": "https://dc.lft.to/lastmile_qr_scan"}}, {"name": "d98d6a2d509f2b8e48d17f3374c4c98b", "type": "electric_bike", "lat": 38.913573666666665, "is_reserved": 0, "lon": -77.02875533333334, "fusion_lon": 0.0, "is_disabled": 0, "fusion_lat": 0.0, "bike_id": "d98d6a2d509f2b8e48d17f3374c4c98b", "rental_uris": {"ios": "https://dc.lft.to/lastmile_qr_scan", "android": "https://dc.lft.to/lastmile_qr_scan"}}, {"name": "8bc5c0fa472fecf8a31255853ab6211e", "type": "electric_bike", "lat": 38.970450666666665, "is_reserved": 0, "lon": -76.93620683333333, "fusion_lon": 0.0, "is_disabled": 0, "fusion_lat": 0.0, "bike_id": "8bc5c0fa472fecf8a31255853ab6211e", "rental_uris": {"ios": "https://dc.lft.to/lastmile_qr_scan", "android": "https://dc.lft.to/lastmile_qr_scan"}}, {"name": "843e3a35e1f32da3d2a8b09f36d5b3eb", "type": "electric_scooter", "lat": 38.92365266666667, "is_reserved": 0, "lon": -77.05044033333333, "fusion_lon": 0.0, "is_disabled": 0, "fusion_lat": 0.0, "bike_id": "843e3a35e1f32da3d2a8b09f36d5b3eb", "rental_uris": {"ios": "https://dc.lft.to/lastmile_qr_scan", "android": "https://dc.lft.to/lastmile_qr_scan"}}, {"name": "0950781f7f7ee6d962ff19123cdf7cf3", "type": "electric_scooter", "lat": 38.90212866666667, "is_reserved": 0, "lon": -77.0503385, "fusion_lon": 0.0, "is_disabled": 0, "fusion_lat": 0.0, "bike_id": "0950781f7f7ee6d962ff19123cdf7cf3", "rental_uris": {"ios": "https://dc.lft.to/lastmile_qr_scan", "android": "https://dc.lft.to/lastmile_qr_scan"}}, {"name": "a2a3fab4049e3dd27e51a6602decdc6c", "type": "electric_scooter", "lat": 38.931125, "is_reserved": 0, "lon": -77.0384065, "fusion_lon": 0.0, "is_disabled": 0, "fusion_lat": 0.0, "bike_id": "a2a3fab4049e3dd27e51a6602decdc6c", "rental_uris": {"ios": "https://dc.lft.to/lastmile_qr_scan", "android": "https://dc.lft.to/lastmile_qr_scan"}}, {"name": "8754ee8e247391ce76bcdf0ed104315f", "type": "electric_scooter", "lat": 38.8955115, "is_reserved": 0, "lon": -77.00920033333334, "fusion_lon": 0.0, "is_disabled": 0, "fusion_lat": 0.0, "bike_id": "8754ee8e247391ce76bcdf0ed104315f", "rental_uris": {"ios": "https://dc.lft.to/lastmile_qr_scan", "android": "https://dc.lft.to/lastmile_qr_scan"}}, {"name": "46c50ae778a0a81f5decc62f7ebb3775", "type": "electric_scooter", "lat": 38.928519333333334, "is_reserved": 0, "lon": -77.05428733333333, "fusion_lon": 0.0, "is_disabled": 0, "fusion_lat": 0.0, "bike_id": "46c50ae778a0a81f5decc62f7ebb3775", "rental_uris": {"ios": "https://dc.lft.to/lastmile_qr_scan", "android": "https://dc.lft.to/lastmile_qr_scan"}}, {"name": "19c65917438b526943f44133d1e0e457", "type": "electric_scooter", "lat": 38.8950945, "is_reserved": 0, "lon": -77.00340983333334, "fusion_lon": 0.0, "is_disabled": 0, "fusion_lat": 0.0, "bike_id": "19c65917438b526943f44133d1e0e457", "rental_uris": {"ios": "https://dc.lft.to/lastmile_qr_scan", "android": "https://dc.lft.to/lastmile_qr_scan"}}, {"name": "ddc49de2e37df4c2acca9531064d7d2d", "type": "electric_scooter", "lat": 38.884968666666666, "is_reserved": 0, "lon": -77.00728416666666, "fusion_lon": 0.0, "is_disabled": 0, "fusion_lat": 0.0, "bike_id": "ddc49de2e37df4c2acca9531064d7d2d", "rental_uris": {"ios": "https://dc.lft.to/lastmile_qr_scan", "android": "https://dc.lft.to/lastmile_qr_scan"}}, {"name": "fba71c07573592da2f65405892fa4d80", "type": "electric_scooter", "lat": 38.89727466666667, "is_reserved": 0, "lon": -77.026894, "fusion_lon": 0.0, "is_disabled": 0, "fusion_lat": 0.0, "bike_id": "fba71c07573592da2f65405892fa4d80", "rental_uris": {"ios": "https://dc.lft.to/lastmile_qr_scan", "android": "https://dc.lft.to/lastmile_qr_scan"}}, {"name": "d7296e0752b1f151153d91aa258b92ae", "type": "electric_scooter", "lat": 38.906628, "is_reserved": 0, "lon": -77.0092375, "fusion_lon": 0.0, "is_disabled": 0, "fusion_lat": 0.0, "bike_id": "d7296e0752b1f151153d91aa258b92ae", "rental_uris": {"ios": "https://dc.lft.to/lastmile_qr_scan", "android": "https://dc.lft.to/lastmile_qr_scan"}}, {"name": "4bdafd8a08646150be79dc683a55268b", "type": "electric_scooter", "lat": 38.91197316666667, "is_reserved": 0, "lon": -77.06098183333333, "fusion_lon": 0.0, "is_disabled": 0, "fusion_lat": 0.0, "bike_id": "4bdafd8a08646150be79dc683a55268b", "rental_uris": {"ios": "https://dc.lft.to/lastmile_qr_scan", "android": "https://dc.lft.to/lastmile_qr_scan"}}, {"name": "575abef154dca9fe2080dbcd4a598170", "type": "electric_scooter", "lat": 38.929908833333336, "is_reserved": 0, "lon": -77.02486633333334, "fusion_lon": 0.0, "is_disabled": 0, "fusion_lat": 0.0, "bike_id": "575abef154dca9fe2080dbcd4a598170", "rental_uris": {"ios": "https://dc.lft.to/lastmile_qr_scan", "android": "https://dc.lft.to/lastmile_qr_scan"}}, {"name": "ea07d881bbf87d4454152df916cbdb0a", "type": "electric_scooter", "lat": 38.921559, "is_reserved": 0, "lon": -77.03529483333334, "fusion_lon": 0.0, "is_disabled": 0, "fusion_lat": 0.0, "bike_id": "ea07d881bbf87d4454152df916cbdb0a", "rental_uris": {"ios": "https://dc.lft.to/lastmile_qr_scan", "android": "https://dc.lft.to/lastmile_qr_scan"}}, {"name": "710ddf3ed5ee1d96abbeadbde6b0af35", "type": "electric_bike", "lat": 38.959577833333334, "is_reserved": 0, "lon": -77.10094466666666, "fusion_lon": 0.0, "is_disabled": 0, "fusion_lat": 0.0, "bike_id": "710ddf3ed5ee1d96abbeadbde6b0af35", "rental_uris": {"ios": "https://dc.lft.to/lastmile_qr_scan", "android": "https://dc.lft.to/lastmile_qr_scan"}}, {"name": "71acf388bcc98c7888c77aae0123a595", "type": "electric_scooter", "lat": 38.9120125, "is_reserved": 0, "lon": -77.0730815, "fusion_lon": 0.0, "is_disabled": 0, "fusion_lat": 0.0, "bike_id": "71acf388bcc98c7888c77aae0123a595", "rental_uris": {"ios": "https://dc.lft.to/lastmile_qr_scan", "android": "https://dc.lft.to/lastmile_qr_scan"}}, {"name": "0c791f1feed619e14a9b4773e3ef4399", "type": "electric_scooter", "lat": 38.90956716666667, "is_reserved": 0, "lon": -77.04865966666667, "fusion_lon": 0.0, "is_disabled": 0, "fusion_lat": 0.0, "bike_id": "0c791f1feed619e14a9b4773e3ef4399", "rental_uris": {"ios": "https://dc.lft.to/lastmile_qr_scan", "android": "https://dc.lft.to/lastmile_qr_scan"}}, {"name": "00566facff4706d049a71d1dc16f6955", "type": "electric_scooter", "lat": 38.90284483333333, "is_reserved": 0, "lon": -77.05969916666666, "fusion_lon": 0.0, "is_disabled": 0, "fusion_lat": 0.0, "bike_id": "00566facff4706d049a71d1dc16f6955", "rental_uris": {"ios": "https://dc.lft.to/lastmile_qr_scan", "android": "https://dc.lft.to/lastmile_qr_scan"}}, {"name": "1894c515f94fe851852ecc69c853ae89", "type": "electric_scooter", "lat": 38.90413783333333, "is_reserved": 0, "lon": -77.0435635, "fusion_lon": 0.0, "is_disabled": 0, "fusion_lat": 0.0, "bike_id": "1894c515f94fe851852ecc69c853ae89", "rental_uris": {"ios": "https://dc.lft.to/lastmile_qr_scan", "android": "https://dc.lft.to/lastmile_qr_scan"}}, {"name": "d4f9eda48d1447abc1660e031273d4a5", "type": "electric_scooter", "lat": 38.90792016666666, "is_reserved": 0, "lon": -77.0096485, "fusion_lon": 0.0, "is_disabled": 0, "fusion_lat": 0.0, "bike_id": "d4f9eda48d1447abc1660e031273d4a5", "rental_uris": {"ios": "https://dc.lft.to/lastmile_qr_scan", "android": "https://dc.lft.to/lastmile_qr_scan"}}, {"name": "d19c84aeaaf4495f07cf01dc993979fa", "type": "electric_scooter", "lat": 38.91945, "is_reserved": 0, "lon": -77.045431, "fusion_lon": 0.0, "is_disabled": 0, "fusion_lat": 0.0, "bike_id": "d19c84aeaaf4495f07cf01dc993979fa", "rental_uris": {"ios": "https://dc.lft.to/lastmile_qr_scan", "android": "https://dc.lft.to/lastmile_qr_scan"}}, {"name": "c51a756f9958e8789aaa0d6fbb2864bf", "type": "electric_scooter", "lat": 38.86527266666667, "is_reserved": 0, "lon": -76.99028716666666, "fusion_lon": 0.0, "is_disabled": 0, "fusion_lat": 0.0, "bike_id": "c51a756f9958e8789aaa0d6fbb2864bf", "rental_uris": {"ios": "https://dc.lft.to/lastmile_qr_scan", "android": "https://dc.lft.to/lastmile_qr_scan"}}, {"name": "c2e3f79e52a2c5d27e9682c52576c39e", "type": "electric_scooter", "lat": 38.8953485, "is_reserved": 0, "lon": -77.02798983333334, "fusion_lon": 0.0, "is_disabled": 0, "fusion_lat": 0.0, "bike_id": "c2e3f79e52a2c5d27e9682c52576c39e", "rental_uris": {"ios": "https://dc.lft.to/lastmile_qr_scan", "android": "https://dc.lft.to/lastmile_qr_scan"}}, {"name": "c4a0b1d129c528c241b7f6258d29fa0d", "type": "electric_scooter", "lat": 38.893680833333335, "is_reserved": 0, "lon": -77.046797, "fusion_lon": 0.0, "is_disabled": 0, "fusion_lat": 0.0, "bike_id": "c4a0b1d129c528c241b7f6258d29fa0d", "rental_uris": {"ios": "https://dc.lft.to/lastmile_qr_scan", "android": "https://dc.lft.to/lastmile_qr_scan"}}, {"name": "321e5b0095b538414ccc5e7a3f706218", "type": "electric_scooter", "lat": 38.92263783333333, "is_reserved": 0, "lon": -77.03642966666666, "fusion_lon": 0.0, "is_disabled": 0, "fusion_lat": 0.0, "bike_id": "321e5b0095b538414ccc5e7a3f706218", "rental_uris": {"ios": "https://dc.lft.to/lastmile_qr_scan", "android": "https://dc.lft.to/lastmile_qr_scan"}}, {"name": "1b30237493a16f4aab25fa343acf9dcf", "type": "electric_scooter", "lat": 38.9062175, "is_reserved": 0, "lon": -77.0396875, "fusion_lon": 0.0, "is_disabled": 0, "fusion_lat": 0.0, "bike_id": "1b30237493a16f4aab25fa343acf9dcf", "rental_uris": {"ios": "https://dc.lft.to/lastmile_qr_scan", "android": "https://dc.lft.to/lastmile_qr_scan"}}, {"name": "68d9fa48a2cb53eb51a3e99913e87ae6", "type": "electric_scooter", "lat": 38.924781333333335, "is_reserved": 0, "lon": -77.02671016666666, "fusion_lon": 0.0, "is_disabled": 0, "fusion_lat": 0.0, "bike_id": "68d9fa48a2cb53eb51a3e99913e87ae6", "rental_uris": {"ios": "https://dc.lft.to/lastmile_qr_scan", "android": "https://dc.lft.to/lastmile_qr_scan"}}, {"name": "edae30ac3f8e65b3085b3d5ded11c0ae", "type": "electric_scooter", "lat": 38.955289666666665, "is_reserved": 0, "lon": -77.069813, "fusion_lon": 0.0, "is_disabled": 0, "fusion_lat": 0.0, "bike_id": "edae30ac3f8e65b3085b3d5ded11c0ae", "rental_uris": {"ios": "https://dc.lft.to/lastmile_qr_scan", "android": "https://dc.lft.to/lastmile_qr_scan"}}, {"name": "2579960d4120cc301f1c1fa2e6b8ce96", "type": "electric_bike", "lat": 38.99236283333333, "is_reserved": 0, "lon": -76.87823166666666, "fusion_lon": 0.0, "is_disabled": 0, "fusion_lat": 0.0, "bike_id": "2579960d4120cc301f1c1fa2e6b8ce96", "rental_uris": {"ios": "https://dc.lft.to/lastmile_qr_scan", "android": "https://dc.lft.to/lastmile_qr_scan"}}, {"name": "f7672d0195c82d121cf0db192b03363e", "type": "electric_bike", "lat": 38.96898783333334, "is_reserved": 0, "lon": -76.95663933333333, "fusion_lon": 0.0, "is_disabled": 0, "fusion_lat": 0.0, "bike_id": "f7672d0195c82d121cf0db192b03363e", "rental_uris": {"ios": "https://dc.lft.to/lastmile_qr_scan", "android": "https://dc.lft.to/lastmile_qr_scan"}}, {"name": "5cf0c9b8087caf5bda9daa973d970f91", "type": "electric_scooter", "lat": 38.90389016666666, "is_reserved": 0, "lon": -77.04171483333333, "fusion_lon": 0.0, "is_disabled": 0, "fusion_lat": 0.0, "bike_id": "5cf0c9b8087caf5bda9daa973d970f91", "rental_uris": {"ios": "https://dc.lft.to/lastmile_qr_scan", "android": "https://dc.lft.to/lastmile_qr_scan"}}, {"name": "bc748837617f9e66308b6468ebf9812f", "type": "electric_bike", "lat": 38.9221065, "is_reserved": 0, "lon": -76.98837816666666, "fusion_lon": 0.0, "is_disabled": 0, "fusion_lat": 0.0, "bike_id": "bc748837617f9e66308b6468ebf9812f", "rental_uris": {"ios": "https://dc.lft.to/lastmile_qr_scan", "android": "https://dc.lft.to/lastmile_qr_scan"}}, {"name": "13c3acbcd47bf56f7ac01990a812e449", "type": "electric_scooter", "lat": 38.902727, "is_reserved": 0, "lon": -77.06111583333333, "fusion_lon": 0.0, "is_disabled": 0, "fusion_lat": 0.0, "bike_id": "13c3acbcd47bf56f7ac01990a812e449", "rental_uris": {"ios": "https://dc.lft.to/lastmile_qr_scan", "android": "https://dc.lft.to/lastmile_qr_scan"}}, {"name": "aed1b4b06a92b264b2ceebff6c159050", "type": "electric_scooter", "lat": 38.90371233333333, "is_reserved": 0, "lon": -77.03162083333333, "fusion_lon": 0.0, "is_disabled": 0, "fusion_lat": 0.0, "bike_id": "aed1b4b06a92b264b2ceebff6c159050", "rental_uris": {"ios": "https://dc.lft.to/lastmile_qr_scan", "android": "https://dc.lft.to/lastmile_qr_scan"}}, {"name": "3c7cce5eb1c258c13f94afdc8d447a0c", "type": "electric_scooter", "lat": 38.901280666666665, "is_reserved": 0, "lon": -77.01198233333334, "fusion_lon": 0.0, "is_disabled": 0, "fusion_lat": 0.0, "bike_id": "3c7cce5eb1c258c13f94afdc8d447a0c", "rental_uris": {"ios": "https://dc.lft.to/lastmile_qr_scan", "android": "https://dc.lft.to/lastmile_qr_scan"}}, {"name": "dff6d0b7349c88166c60c91f09b71679", "type": "electric_scooter", "lat": 38.8429285, "is_reserved": 0, "lon": -76.99953116666667, "fusion_lon": 0.0, "is_disabled": 0, "fusion_lat": 0.0, "bike_id": "dff6d0b7349c88166c60c91f09b71679", "rental_uris": {"ios": "https://dc.lft.to/lastmile_qr_scan", "android": "https://dc.lft.to/lastmile_qr_scan"}}, {"name": "de33b9090a011ffd6a277b51b4a3230b", "type": "electric_bike", "lat": 38.8278965, "is_reserved": 0, "lon": -77.00918483333334, "fusion_lon": 0.0, "is_disabled": 0, "fusion_lat": 0.0, "bike_id": "de33b9090a011ffd6a277b51b4a3230b", "rental_uris": {"ios": "https://dc.lft.to/lastmile_qr_scan", "android": "https://dc.lft.to/lastmile_qr_scan"}}, {"name": "f660e0fefbc9147315e8115eceb5b729", "type": "electric_scooter", "lat": 38.90962733333333, "is_reserved": 0, "lon": -77.0386645, "fusion_lon": 0.0, "is_disabled": 0, "fusion_lat": 0.0, "bike_id": "f660e0fefbc9147315e8115eceb5b729", "rental_uris": {"ios": "https://dc.lft.to/lastmile_qr_scan", "android": "https://dc.lft.to/lastmile_qr_scan"}}, {"name": "27b880cbab884ffa491992893ca25398", "type": "electric_bike", "lat": 39.00385766666667, "is_reserved": 0, "lon": -77.01291133333334, "fusion_lon": 0.0, "is_disabled": 0, "fusion_lat": 0.0, "bike_id": "27b880cbab884ffa491992893ca25398", "rental_uris": {"ios": "https://dc.lft.to/lastmile_qr_scan", "android": "https://dc.lft.to/lastmile_qr_scan"}}, {"name": "0418ce0722ec10f05737499ae1ea3448", "type": "electric_scooter", "lat": 38.902799, "is_reserved": 0, "lon": -77.026491, "fusion_lon": 0.0, "is_disabled": 0, "fusion_lat": 0.0, "bike_id": "0418ce0722ec10f05737499ae1ea3448", "rental_uris": {"ios": "https://dc.lft.to/lastmile_qr_scan", "android": "https://dc.lft.to/lastmile_qr_scan"}}, {"name": "19b0b5d4e8403d0e500664822dd61c2d", "type": "electric_scooter", "lat": 38.93456966666667, "is_reserved": 0, "lon": -77.07296016666666, "fusion_lon": 0.0, "is_disabled": 0, "fusion_lat": 0.0, "bike_id": "19b0b5d4e8403d0e500664822dd61c2d", "rental_uris": {"ios": "https://dc.lft.to/lastmile_qr_scan", "android": "https://dc.lft.to/lastmile_qr_scan"}}, {"name": "d8694ce21efef82194fca679c3d3b5bf", "type": "electric_bike", "lat": 38.807830333333335, "is_reserved": 0, "lon": -77.12951083333333, "fusion_lon": 0.0, "is_disabled": 0, "fusion_lat": 0.0, "bike_id": "d8694ce21efef82194fca679c3d3b5bf", "rental_uris": {"ios": "https://dc.lft.to/lastmile_qr_scan", "android": "https://dc.lft.to/lastmile_qr_scan"}}, {"name": "3fa4a6fa0bcbe0dd76b7b41463fcb3a1", "type": "electric_scooter", "lat": 38.884918666666664, "is_reserved": 0, "lon": -77.00727883333333, "fusion_lon": 0.0, "is_disabled": 0, "fusion_lat": 0.0, "bike_id": "3fa4a6fa0bcbe0dd76b7b41463fcb3a1", "rental_uris": {"ios": "https://dc.lft.to/lastmile_qr_scan", "android": "https://dc.lft.to/lastmile_qr_scan"}}, {"name": "bd0cfbfa16e7e7e271972f5fd61ffd16", "type": "electric_scooter", "lat": 38.8924665, "is_reserved": 0, "lon": -77.01540083333333, "fusion_lon": 0.0, "is_disabled": 0, "fusion_lat": 0.0, "bike_id": "bd0cfbfa16e7e7e271972f5fd61ffd16", "rental_uris": {"ios": "https://dc.lft.to/lastmile_qr_scan", "android": "https://dc.lft.to/lastmile_qr_scan"}}, {"name": "3de13eb8b12df39e999e77fc35cef93b", "type": "electric_scooter", "lat": 38.95647983333333, "is_reserved": 0, "lon": -77.0329005, "fusion_lon": 0.0, "is_disabled": 0, "fusion_lat": 0.0, "bike_id": "3de13eb8b12df39e999e77fc35cef93b", "rental_uris": {"ios": "https://dc.lft.to/lastmile_qr_scan", "android": "https://dc.lft.to/lastmile_qr_scan"}}, {"name": "6e2c8ef916b51ef4e5e93c66816fe523", "type": "electric_scooter", "lat": 38.9245535, "is_reserved": 0, "lon": -77.00208833333333, "fusion_lon": 0.0, "is_disabled": 0, "fusion_lat": 0.0, "bike_id": "6e2c8ef916b51ef4e5e93c66816fe523", "rental_uris": {"ios": "https://dc.lft.to/lastmile_qr_scan", "android": "https://dc.lft.to/lastmile_qr_scan"}}, {"name": "7ba6e4a5c0c8dc0516a7f2770353f37e", "type": "electric_scooter", "lat": 38.9444185, "is_reserved": 0, "lon": -77.06354766666666, "fusion_lon": 0.0, "is_disabled": 0, "fusion_lat": 0.0, "bike_id": "7ba6e4a5c0c8dc0516a7f2770353f37e", "rental_uris": {"ios": "https://dc.lft.to/lastmile_qr_scan", "android": "https://dc.lft.to/lastmile_qr_scan"}}, {"name": "2586e258a8e861b159ddfee168faa22f", "type": "electric_scooter", "lat": 38.898312833333335, "is_reserved": 0, "lon": -77.0295165, "fusion_lon": 0.0, "is_disabled": 0, "fusion_lat": 0.0, "bike_id": "2586e258a8e861b159ddfee168faa22f", "rental_uris": {"ios": "https://dc.lft.to/lastmile_qr_scan", "android": "https://dc.lft.to/lastmile_qr_scan"}}, {"name": "b4f19b01dab07e539609073fe1e91a7a", "type": "electric_scooter", "lat": 38.91194933333333, "is_reserved": 0, "lon": -76.99620766666666, "fusion_lon": 0.0, "is_disabled": 0, "fusion_lat": 0.0, "bike_id": "b4f19b01dab07e539609073fe1e91a7a", "rental_uris": {"ios": "https://dc.lft.to/lastmile_qr_scan", "android": "https://dc.lft.to/lastmile_qr_scan"}}, {"name": "21ed1a57ceafd92e94ac15bf30d62ff2", "type": "electric_scooter", "lat": 38.89792333333333, "is_reserved": 0, "lon": -77.02989516666666, "fusion_lon": 0.0, "is_disabled": 0, "fusion_lat": 0.0, "bike_id": "21ed1a57ceafd92e94ac15bf30d62ff2", "rental_uris": {"ios": "https://dc.lft.to/lastmile_qr_scan", "android": "https://dc.lft.to/lastmile_qr_scan"}}, {"name": "6b26e4be8276880c127905f9e0585054", "type": "electric_scooter", "lat": 38.89224733333333, "is_reserved": 0, "lon": -77.04266683333333, "fusion_lon": 0.0, "is_disabled": 0, "fusion_lat": 0.0, "bike_id": "6b26e4be8276880c127905f9e0585054", "rental_uris": {"ios": "https://dc.lft.to/lastmile_qr_scan", "android": "https://dc.lft.to/lastmile_qr_scan"}}, {"name": "483d2dfa2045d759cb1bccb7a8a41821", "type": "electric_scooter", "lat": 38.9206535, "is_reserved": 0, "lon": -77.02917383333333, "fusion_lon": 0.0, "is_disabled": 0, "fusion_lat": 0.0, "bike_id": "483d2dfa2045d759cb1bccb7a8a41821", "rental_uris": {"ios": "https://dc.lft.to/lastmile_qr_scan", "android": "https://dc.lft.to/lastmile_qr_scan"}}, {"name": "a5399663fbc68a4542f8a7b5a9be7fec", "type": "electric_scooter", "lat": 38.883388833333335, "is_reserved": 0, "lon": -77.01742683333333, "fusion_lon": 0.0, "is_disabled": 0, "fusion_lat": 0.0, "bike_id": "a5399663fbc68a4542f8a7b5a9be7fec", "rental_uris": {"ios": "https://dc.lft.to/lastmile_qr_scan", "android": "https://dc.lft.to/lastmile_qr_scan"}}, {"name": "d2c368a8c8f7f32043cf47b936261cce", "type": "electric_scooter", "lat": 38.903649333333334, "is_reserved": 0, "lon": -77.03173866666667, "fusion_lon": 0.0, "is_disabled": 0, "fusion_lat": 0.0, "bike_id": "d2c368a8c8f7f32043cf47b936261cce", "rental_uris": {"ios": "https://dc.lft.to/lastmile_qr_scan", "android": "https://dc.lft.to/lastmile_qr_scan"}}, {"name": "1bd2b6e710deef1ca8c03a1cb3f9115c", "type": "electric_scooter", "lat": 38.91007366666667, "is_reserved": 0, "lon": -76.994005, "fusion_lon": 0.0, "is_disabled": 0, "fusion_lat": 0.0, "bike_id": "1bd2b6e710deef1ca8c03a1cb3f9115c", "rental_uris": {"ios": "https://dc.lft.to/lastmile_qr_scan", "android": "https://dc.lft.to/lastmile_qr_scan"}}, {"name": "b1215d2d5c09d78446cbcc7827099bce", "type": "electric_scooter", "lat": 38.961132, "is_reserved": 0, "lon": -77.0281805, "fusion_lon": 0.0, "is_disabled": 0, "fusion_lat": 0.0, "bike_id": "b1215d2d5c09d78446cbcc7827099bce", "rental_uris": {"ios": "https://dc.lft.to/lastmile_qr_scan", "android": "https://dc.lft.to/lastmile_qr_scan"}}, {"name": "b91e2b27bcbcde7770325d1c1c391902", "type": "electric_scooter", "lat": 38.90561966666667, "is_reserved": 0, "lon": -77.0347115, "fusion_lon": 0.0, "is_disabled": 0, "fusion_lat": 0.0, "bike_id": "b91e2b27bcbcde7770325d1c1c391902", "rental_uris": {"ios": "https://dc.lft.to/lastmile_qr_scan", "android": "https://dc.lft.to/lastmile_qr_scan"}}, {"name": "0516e5f3abc9fffdc8b9f646e4514098", "type": "electric_bike", "lat": 38.855354166666665, "is_reserved": 0, "lon": -77.11329433333333, "fusion_lon": 0.0, "is_disabled": 0, "fusion_lat": 0.0, "bike_id": "0516e5f3abc9fffdc8b9f646e4514098", "rental_uris": {"ios": "https://dc.lft.to/lastmile_qr_scan", "android": "https://dc.lft.to/lastmile_qr_scan"}}, {"name": "403bb2b6734668eeff11b07a20d308c6", "type": "electric_scooter", "lat": 38.917105166666666, "is_reserved": 0, "lon": -77.031216, "fusion_lon": 0.0, "is_disabled": 0, "fusion_lat": 0.0, "bike_id": "403bb2b6734668eeff11b07a20d308c6", "rental_uris": {"ios": "https://dc.lft.to/lastmile_qr_scan", "android": "https://dc.lft.to/lastmile_qr_scan"}}, {"name": "0b3daf69383d252ee3ba6acae84d2b52", "type": "electric_scooter", "lat": 38.89671933333333, "is_reserved": 0, "lon": -77.029594, "fusion_lon": 0.0, "is_disabled": 0, "fusion_lat": 0.0, "bike_id": "0b3daf69383d252ee3ba6acae84d2b52", "rental_uris": {"ios": "https://dc.lft.to/lastmile_qr_scan", "android": "https://dc.lft.to/lastmile_qr_scan"}}, {"name": "57e4154305fea80922a5ab861fd9c265", "type": "electric_scooter", "lat": 38.91941033333333, "is_reserved": 0, "lon": -77.0135405, "fusion_lon": 0.0, "is_disabled": 0, "fusion_lat": 0.0, "bike_id": "57e4154305fea80922a5ab861fd9c265", "rental_uris": {"ios": "https://dc.lft.to/lastmile_qr_scan", "android": "https://dc.lft.to/lastmile_qr_scan"}}, {"name": "4e95e0f73b0487592bf9a7e9ab5553f0", "type": "electric_scooter", "lat": 38.925778666666666, "is_reserved": 0, "lon": -77.039206, "fusion_lon": 0.0, "is_disabled": 0, "fusion_lat": 0.0, "bike_id": "4e95e0f73b0487592bf9a7e9ab5553f0", "rental_uris": {"ios": "https://dc.lft.to/lastmile_qr_scan", "android": "https://dc.lft.to/lastmile_qr_scan"}}, {"name": "b9ae4e2f6fffc817c2e81858e80659e3", "type": "electric_scooter", "lat": 38.912943166666665, "is_reserved": 0, "lon": -77.0611505, "fusion_lon": 0.0, "is_disabled": 0, "fusion_lat": 0.0, "bike_id": "b9ae4e2f6fffc817c2e81858e80659e3", "rental_uris": {"ios": "https://dc.lft.to/lastmile_qr_scan", "android": "https://dc.lft.to/lastmile_qr_scan"}}, {"name": "bb6849146e44a0096061a7258709b52f", "type": "electric_scooter", "lat": 38.915681666666664, "is_reserved": 0, "lon": -77.03836533333333, "fusion_lon": 0.0, "is_disabled": 0, "fusion_lat": 0.0, "bike_id": "bb6849146e44a0096061a7258709b52f", "rental_uris": {"ios": "https://dc.lft.to/lastmile_qr_scan", "android": "https://dc.lft.to/lastmile_qr_scan"}}, {"name": "76ddc028899b216f5b711f5035b36483", "type": "electric_scooter", "lat": 38.90309383333334, "is_reserved": 0, "lon": -77.03986333333333, "fusion_lon": 0.0, "is_disabled": 0, "fusion_lat": 0.0, "bike_id": "76ddc028899b216f5b711f5035b36483", "rental_uris": {"ios": "https://dc.lft.to/lastmile_qr_scan", "android": "https://dc.lft.to/lastmile_qr_scan"}}, {"name": "7a39808334624b422336f4f60035e665", "type": "electric_scooter", "lat": 38.936202, "is_reserved": 0, "lon": -77.03217833333333, "fusion_lon": 0.0, "is_disabled": 0, "fusion_lat": 0.0, "bike_id": "7a39808334624b422336f4f60035e665", "rental_uris": {"ios": "https://dc.lft.to/lastmile_qr_scan", "android": "https://dc.lft.to/lastmile_qr_scan"}}, {"name": "c0511a03b8e5465fee78a27ec6f49880", "type": "electric_scooter", "lat": 38.905063, "is_reserved": 0, "lon": -77.053273, "fusion_lon": 0.0, "is_disabled": 0, "fusion_lat": 0.0, "bike_id": "c0511a03b8e5465fee78a27ec6f49880", "rental_uris": {"ios": "https://dc.lft.to/lastmile_qr_scan", "android": "https://dc.lft.to/lastmile_qr_scan"}}, {"name": "d2460331d86c7c6abd8de7e7b161de4f", "type": "electric_scooter", "lat": 38.864339666666666, "is_reserved": 0, "lon": -76.98004416666667, "fusion_lon": 0.0, "is_disabled": 0, "fusion_lat": 0.0, "bike_id": "d2460331d86c7c6abd8de7e7b161de4f", "rental_uris": {"ios": "https://dc.lft.to/lastmile_qr_scan", "android": "https://dc.lft.to/lastmile_qr_scan"}}, {"name": "9c6fb28362f834cf3007ef69479fcb59", "type": "electric_scooter", "lat": 38.89810816666667, "is_reserved": 0, "lon": -77.029929, "fusion_lon": 0.0, "is_disabled": 0, "fusion_lat": 0.0, "bike_id": "9c6fb28362f834cf3007ef69479fcb59", "rental_uris": {"ios": "https://dc.lft.to/lastmile_qr_scan", "android": "https://dc.lft.to/lastmile_qr_scan"}}, {"name": "847f2f90cfb693bd98251d5bc1971a6b", "type": "electric_scooter", "lat": 38.90271716666667, "is_reserved": 0, "lon": -77.03846883333334, "fusion_lon": 0.0, "is_disabled": 0, "fusion_lat": 0.0, "bike_id": "847f2f90cfb693bd98251d5bc1971a6b", "rental_uris": {"ios": "https://dc.lft.to/lastmile_qr_scan", "android": "https://dc.lft.to/lastmile_qr_scan"}}, {"name": "566e591443c9679d097c86e4ac8b7d16", "type": "electric_scooter", "lat": 38.905209666666664, "is_reserved": 0, "lon": -77.04154116666666, "fusion_lon": 0.0, "is_disabled": 0, "fusion_lat": 0.0, "bike_id": "566e591443c9679d097c86e4ac8b7d16", "rental_uris": {"ios": "https://dc.lft.to/lastmile_qr_scan", "android": "https://dc.lft.to/lastmile_qr_scan"}}, {"name": "6d3d0ec936bd6881935daea524aad7ca", "type": "electric_scooter", "lat": 38.933487666666664, "is_reserved": 0, "lon": -77.05867883333333, "fusion_lon": 0.0, "is_disabled": 0, "fusion_lat": 0.0, "bike_id": "6d3d0ec936bd6881935daea524aad7ca", "rental_uris": {"ios": "https://dc.lft.to/lastmile_qr_scan", "android": "https://dc.lft.to/lastmile_qr_scan"}}, {"name": "bbc436544d1689517f980dca5bfe24f5", "type": "electric_scooter", "lat": 38.90603816666667, "is_reserved": 0, "lon": -77.0514825, "fusion_lon": 0.0, "is_disabled": 0, "fusion_lat": 0.0, "bike_id": "bbc436544d1689517f980dca5bfe24f5", "rental_uris": {"ios": "https://dc.lft.to/lastmile_qr_scan", "android": "https://dc.lft.to/lastmile_qr_scan"}}, {"name": "a4edec06c33390836d19f125d54581a3", "type": "electric_bike", "lat": 38.87734283333333, "is_reserved": 0, "lon": -77.11852883333333, "fusion_lon": 0.0, "is_disabled": 0, "fusion_lat": 0.0, "bike_id": "a4edec06c33390836d19f125d54581a3", "rental_uris": {"ios": "https://dc.lft.to/lastmile_qr_scan", "android": "https://dc.lft.to/lastmile_qr_scan"}}, {"name": "ea9c47a65b5db1c9c9e7ea72297104a8", "type": "electric_scooter", "lat": 38.91557866666667, "is_reserved": 0, "lon": -77.04156633333334, "fusion_lon": 0.0, "is_disabled": 0, "fusion_lat": 0.0, "bike_id": "ea9c47a65b5db1c9c9e7ea72297104a8", "rental_uris": {"ios": "https://dc.lft.to/lastmile_qr_scan", "android": "https://dc.lft.to/lastmile_qr_scan"}}, {"name": "d3f0a7067db8f064d474437179c8803c", "type": "electric_scooter", "lat": 38.885046, "is_reserved": 0, "lon": -77.00568, "fusion_lon": 0.0, "is_disabled": 0, "fusion_lat": 0.0, "bike_id": "d3f0a7067db8f064d474437179c8803c", "rental_uris": {"ios": "https://dc.lft.to/lastmile_qr_scan", "android": "https://dc.lft.to/lastmile_qr_scan"}}, {"name": "5d2f805b9dcdd35936e01c424737db67", "type": "electric_scooter", "lat": 38.93966966666667, "is_reserved": 0, "lon": -77.05321716666667, "fusion_lon": 0.0, "is_disabled": 0, "fusion_lat": 0.0, "bike_id": "5d2f805b9dcdd35936e01c424737db67", "rental_uris": {"ios": "https://dc.lft.to/lastmile_qr_scan", "android": "https://dc.lft.to/lastmile_qr_scan"}}, {"name": "e165078c57a853e984cbf973340ecce8", "type": "electric_scooter", "lat": 38.87341133333334, "is_reserved": 0, "lon": -76.96783883333333, "fusion_lon": 0.0, "is_disabled": 0, "fusion_lat": 0.0, "bike_id": "e165078c57a853e984cbf973340ecce8", "rental_uris": {"ios": "https://dc.lft.to/lastmile_qr_scan", "android": "https://dc.lft.to/lastmile_qr_scan"}}, {"name": "f613d0e77b6b1a8b67ba289d0c8be6b2", "type": "electric_scooter", "lat": 38.879247166666666, "is_reserved": 0, "lon": -77.01342316666667, "fusion_lon": 0.0, "is_disabled": 0, "fusion_lat": 0.0, "bike_id": "f613d0e77b6b1a8b67ba289d0c8be6b2", "rental_uris": {"ios": "https://dc.lft.to/lastmile_qr_scan", "android": "https://dc.lft.to/lastmile_qr_scan"}}, {"name": "e5bb1593004aa12977af400e67d0b13c", "type": "electric_scooter", "lat": 38.9298575, "is_reserved": 0, "lon": -77.03472933333333, "fusion_lon": 0.0, "is_disabled": 0, "fusion_lat": 0.0, "bike_id": "e5bb1593004aa12977af400e67d0b13c", "rental_uris": {"ios": "https://dc.lft.to/lastmile_qr_scan", "android": "https://dc.lft.to/lastmile_qr_scan"}}, {"name": "bb2ac4ff6bf15aa70ea121f06bf0d081", "type": "electric_scooter", "lat": 38.903105, "is_reserved": 0, "lon": -77.06027316666666, "fusion_lon": 0.0, "is_disabled": 0, "fusion_lat": 0.0, "bike_id": "bb2ac4ff6bf15aa70ea121f06bf0d081", "rental_uris": {"ios": "https://dc.lft.to/lastmile_qr_scan", "android": "https://dc.lft.to/lastmile_qr_scan"}}, {"name": "6e9d3de655504c6c12099c8aaf32cca5", "type": "electric_scooter", "lat": 38.932075833333336, "is_reserved": 0, "lon": -77.02382833333333, "fusion_lon": 0.0, "is_disabled": 0, "fusion_lat": 0.0, "bike_id": "6e9d3de655504c6c12099c8aaf32cca5", "rental_uris": {"ios": "https://dc.lft.to/lastmile_qr_scan", "android": "https://dc.lft.to/lastmile_qr_scan"}}, {"name": "076bcd95639503ef3f435382879650cb", "type": "electric_bike", "lat": 38.89607316666667, "is_reserved": 0, "lon": -77.03168416666666, "fusion_lon": 0.0, "is_disabled": 0, "fusion_lat": 0.0, "bike_id": "076bcd95639503ef3f435382879650cb", "rental_uris": {"ios": "https://dc.lft.to/lastmile_qr_scan", "android": "https://dc.lft.to/lastmile_qr_scan"}}, {"name": "5638a05a5de839f873c7811cc180c911", "type": "electric_scooter", "lat": 38.93068733333333, "is_reserved": 0, "lon": -77.03804233333334, "fusion_lon": 0.0, "is_disabled": 0, "fusion_lat": 0.0, "bike_id": "5638a05a5de839f873c7811cc180c911", "rental_uris": {"ios": "https://dc.lft.to/lastmile_qr_scan", "android": "https://dc.lft.to/lastmile_qr_scan"}}, {"name": "6ca8448c14bbee5b6032875c189c3b39", "type": "electric_scooter", "lat": 38.896650666666666, "is_reserved": 0, "lon": -77.05171216666666, "fusion_lon": 0.0, "is_disabled": 0, "fusion_lat": 0.0, "bike_id": "6ca8448c14bbee5b6032875c189c3b39", "rental_uris": {"ios": "https://dc.lft.to/lastmile_qr_scan", "android": "https://dc.lft.to/lastmile_qr_scan"}}, {"name": "1e848bbc6ee2bbbc585e053c9125b92a", "type": "electric_scooter", "lat": 38.9003425, "is_reserved": 0, "lon": -77.01113883333333, "fusion_lon": 0.0, "is_disabled": 0, "fusion_lat": 0.0, "bike_id": "1e848bbc6ee2bbbc585e053c9125b92a", "rental_uris": {"ios": "https://dc.lft.to/lastmile_qr_scan", "android": "https://dc.lft.to/lastmile_qr_scan"}}, {"name": "1e21813cfb353aa9c17c385170c0f674", "type": "electric_scooter", "lat": 38.918971, "is_reserved": 0, "lon": -77.01971, "fusion_lon": 0.0, "is_disabled": 0, "fusion_lat": 0.0, "bike_id": "1e21813cfb353aa9c17c385170c0f674", "rental_uris": {"ios": "https://dc.lft.to/lastmile_qr_scan", "android": "https://dc.lft.to/lastmile_qr_scan"}}, {"name": "247a15fa307e952c7362b9fa5b42d684", "type": "electric_scooter", "lat": 38.949600833333335, "is_reserved": 0, "lon": -77.02723783333333, "fusion_lon": 0.0, "is_disabled": 0, "fusion_lat": 0.0, "bike_id": "247a15fa307e952c7362b9fa5b42d684", "rental_uris": {"ios": "https://dc.lft.to/lastmile_qr_scan", "android": "https://dc.lft.to/lastmile_qr_scan"}}, {"name": "b09553e3f676b5f04618e04120a6b85a", "type": "electric_scooter", "lat": 38.8842575, "is_reserved": 0, "lon": -76.996955, "fusion_lon": 0.0, "is_disabled": 0, "fusion_lat": 0.0, "bike_id": "b09553e3f676b5f04618e04120a6b85a", "rental_uris": {"ios": "https://dc.lft.to/lastmile_qr_scan", "android": "https://dc.lft.to/lastmile_qr_scan"}}, {"name": "3b616ad10a1a1ecdea59100ce362d8ba", "type": "electric_scooter", "lat": 38.876455, "is_reserved": 0, "lon": -76.99589733333333, "fusion_lon": 0.0, "is_disabled": 0, "fusion_lat": 0.0, "bike_id": "3b616ad10a1a1ecdea59100ce362d8ba", "rental_uris": {"ios": "https://dc.lft.to/lastmile_qr_scan", "android": "https://dc.lft.to/lastmile_qr_scan"}}, {"name": "c4a638fdb35ae51ec07532024b7e7087", "type": "electric_scooter", "lat": 38.902766, "is_reserved": 0, "lon": -77.03846183333333, "fusion_lon": 0.0, "is_disabled": 0, "fusion_lat": 0.0, "bike_id": "c4a638fdb35ae51ec07532024b7e7087", "rental_uris": {"ios": "https://dc.lft.to/lastmile_qr_scan", "android": "https://dc.lft.to/lastmile_qr_scan"}}, {"name": "b3d55678590d37ef7db1140a24c4ac5d", "type": "electric_scooter", "lat": 38.87708283333333, "is_reserved": 0, "lon": -76.99385566666666, "fusion_lon": 0.0, "is_disabled": 0, "fusion_lat": 0.0, "bike_id": "b3d55678590d37ef7db1140a24c4ac5d", "rental_uris": {"ios": "https://dc.lft.to/lastmile_qr_scan", "android": "https://dc.lft.to/lastmile_qr_scan"}}, {"name": "b15b036cd375dd6cb119c1c3b18f38bf", "type": "electric_scooter", "lat": 38.8982135, "is_reserved": 0, "lon": -77.0330615, "fusion_lon": 0.0, "is_disabled": 0, "fusion_lat": 0.0, "bike_id": "b15b036cd375dd6cb119c1c3b18f38bf", "rental_uris": {"ios": "https://dc.lft.to/lastmile_qr_scan", "android": "https://dc.lft.to/lastmile_qr_scan"}}, {"name": "844c101cd49074fc79de7aa167644228", "type": "electric_scooter", "lat": 38.924873, "is_reserved": 0, "lon": -77.02713933333334, "fusion_lon": 0.0, "is_disabled": 0, "fusion_lat": 0.0, "bike_id": "844c101cd49074fc79de7aa167644228", "rental_uris": {"ios": "https://dc.lft.to/lastmile_qr_scan", "android": "https://dc.lft.to/lastmile_qr_scan"}}, {"name": "2eb1a406406fe6768efaebeeb7007267", "type": "electric_scooter", "lat": 38.92993216666667, "is_reserved": 0, "lon": -77.0794465, "fusion_lon": 0.0, "is_disabled": 0, "fusion_lat": 0.0, "bike_id": "2eb1a406406fe6768efaebeeb7007267", "rental_uris": {"ios": "https://dc.lft.to/lastmile_qr_scan", "android": "https://dc.lft.to/lastmile_qr_scan"}}, {"name": "1f774bd8676301a2fb9e64148b6f0653", "type": "electric_bike", "lat": 38.871388, "is_reserved": 0, "lon": -76.93732333333334, "fusion_lon": 0.0, "is_disabled": 0, "fusion_lat": 0.0, "bike_id": "1f774bd8676301a2fb9e64148b6f0653", "rental_uris": {"ios": "https://dc.lft.to/lastmile_qr_scan", "android": "https://dc.lft.to/lastmile_qr_scan"}}, {"name": "9f8bab75f350925cd42e5b09d7efe441", "type": "electric_scooter", "lat": 38.92369, "is_reserved": 0, "lon": -77.01958666666667, "fusion_lon": 0.0, "is_disabled": 0, "fusion_lat": 0.0, "bike_id": "9f8bab75f350925cd42e5b09d7efe441", "rental_uris": {"ios": "https://dc.lft.to/lastmile_qr_scan", "android": "https://dc.lft.to/lastmile_qr_scan"}}, {"name": "dfd8d56f8e73adcee9c3b62bff6dd416", "type": "electric_scooter", "lat": 38.90577, "is_reserved": 0, "lon": -77.03856133333333, "fusion_lon": 0.0, "is_disabled": 0, "fusion_lat": 0.0, "bike_id": "dfd8d56f8e73adcee9c3b62bff6dd416", "rental_uris": {"ios": "https://dc.lft.to/lastmile_qr_scan", "android": "https://dc.lft.to/lastmile_qr_scan"}}, {"name": "10636ce7fc892bb4888419e01a7b3051", "type": "electric_scooter", "lat": 38.921653, "is_reserved": 0, "lon": -77.03256983333333, "fusion_lon": 0.0, "is_disabled": 0, "fusion_lat": 0.0, "bike_id": "10636ce7fc892bb4888419e01a7b3051", "rental_uris": {"ios": "https://dc.lft.to/lastmile_qr_scan", "android": "https://dc.lft.to/lastmile_qr_scan"}}, {"name": "63c35305ad2b4833fe38d9f640d91e81", "type": "electric_scooter", "lat": 38.89833866666667, "is_reserved": 0, "lon": -77.03272883333334, "fusion_lon": 0.0, "is_disabled": 0, "fusion_lat": 0.0, "bike_id": "63c35305ad2b4833fe38d9f640d91e81", "rental_uris": {"ios": "https://dc.lft.to/lastmile_qr_scan", "android": "https://dc.lft.to/lastmile_qr_scan"}}, {"name": "63e0d65e2ed429e8ca246257ed45677c", "type": "electric_bike", "lat": 38.832410833333334, "is_reserved": 0, "lon": -76.9462585, "fusion_lon": 0.0, "is_disabled": 0, "fusion_lat": 0.0, "bike_id": "63e0d65e2ed429e8ca246257ed45677c", "rental_uris": {"ios": "https://dc.lft.to/lastmile_qr_scan", "android": "https://dc.lft.to/lastmile_qr_scan"}}, {"name": "bdf89dad056b4550d9e0d5c5c300570c", "type": "electric_scooter", "lat": 38.916032333333334, "is_reserved": 0, "lon": -76.98367766666667, "fusion_lon": 0.0, "is_disabled": 0, "fusion_lat": 0.0, "bike_id": "bdf89dad056b4550d9e0d5c5c300570c", "rental_uris": {"ios": "https://dc.lft.to/lastmile_qr_scan", "android": "https://dc.lft.to/lastmile_qr_scan"}}, {"name": "198db94aafcf72ae4df805c3b0bb0a13", "type": "electric_scooter", "lat": 38.94133683333333, "is_reserved": 0, "lon": -77.015492, "fusion_lon": 0.0, "is_disabled": 0, "fusion_lat": 0.0, "bike_id": "198db94aafcf72ae4df805c3b0bb0a13", "rental_uris": {"ios": "https://dc.lft.to/lastmile_qr_scan", "android": "https://dc.lft.to/lastmile_qr_scan"}}, {"name": "a2c2a579d2625235347f391fa6ae933f", "type": "electric_scooter", "lat": 38.942943666666665, "is_reserved": 0, "lon": -77.02173083333334, "fusion_lon": 0.0, "is_disabled": 0, "fusion_lat": 0.0, "bike_id": "a2c2a579d2625235347f391fa6ae933f", "rental_uris": {"ios": "https://dc.lft.to/lastmile_qr_scan", "android": "https://dc.lft.to/lastmile_qr_scan"}}, {"name": "c4fc04cce0ed263e6357591aeb9dd881", "type": "electric_scooter", "lat": 38.93115783333333, "is_reserved": 0, "lon": -77.0381825, "fusion_lon": 0.0, "is_disabled": 0, "fusion_lat": 0.0, "bike_id": "c4fc04cce0ed263e6357591aeb9dd881", "rental_uris": {"ios": "https://dc.lft.to/lastmile_qr_scan", "android": "https://dc.lft.to/lastmile_qr_scan"}}, {"name": "0d4e970354efdb7a9a2c6e43ba518b20", "type": "electric_scooter", "lat": 38.904962833333336, "is_reserved": 0, "lon": -77.0675375, "fusion_lon": 0.0, "is_disabled": 0, "fusion_lat": 0.0, "bike_id": "0d4e970354efdb7a9a2c6e43ba518b20", "rental_uris": {"ios": "https://dc.lft.to/lastmile_qr_scan", "android": "https://dc.lft.to/lastmile_qr_scan"}}, {"name": "32d18af63b1e8e3f547f33ecb3304913", "type": "electric_scooter", "lat": 38.926405333333335, "is_reserved": 0, "lon": -77.03708583333334, "fusion_lon": 0.0, "is_disabled": 0, "fusion_lat": 0.0, "bike_id": "32d18af63b1e8e3f547f33ecb3304913", "rental_uris": {"ios": "https://dc.lft.to/lastmile_qr_scan", "android": "https://dc.lft.to/lastmile_qr_scan"}}, {"name": "daa65db16cda091206a18a362265c735", "type": "electric_scooter", "lat": 38.90255283333333, "is_reserved": 0, "lon": -77.017624, "fusion_lon": 0.0, "is_disabled": 0, "fusion_lat": 0.0, "bike_id": "daa65db16cda091206a18a362265c735", "rental_uris": {"ios": "https://dc.lft.to/lastmile_qr_scan", "android": "https://dc.lft.to/lastmile_qr_scan"}}, {"name": "1516e9fa7d68f128cd074a404861d15b", "type": "electric_bike", "lat": 38.89224016666667, "is_reserved": 0, "lon": -77.10778166666667, "fusion_lon": 0.0, "is_disabled": 0, "fusion_lat": 0.0, "bike_id": "1516e9fa7d68f128cd074a404861d15b", "rental_uris": {"ios": "https://dc.lft.to/lastmile_qr_scan", "android": "https://dc.lft.to/lastmile_qr_scan"}}, {"name": "91f803cede744d04f050d2dc14a604fc", "type": "electric_scooter", "lat": 38.93393866666667, "is_reserved": 0, "lon": -77.03584066666667, "fusion_lon": 0.0, "is_disabled": 0, "fusion_lat": 0.0, "bike_id": "91f803cede744d04f050d2dc14a604fc", "rental_uris": {"ios": "https://dc.lft.to/lastmile_qr_scan", "android": "https://dc.lft.to/lastmile_qr_scan"}}, {"name": "18d08884618641682f8d91e1d63e861d", "type": "electric_scooter", "lat": 38.933022, "is_reserved": 0, "lon": -77.02842383333333, "fusion_lon": 0.0, "is_disabled": 0, "fusion_lat": 0.0, "bike_id": "18d08884618641682f8d91e1d63e861d", "rental_uris": {"ios": "https://dc.lft.to/lastmile_qr_scan", "android": "https://dc.lft.to/lastmile_qr_scan"}}, {"name": "de0308b2bd3fdcf9da10e32de930e5e4", "type": "electric_scooter", "lat": 38.9311495, "is_reserved": 0, "lon": -77.03843833333333, "fusion_lon": 0.0, "is_disabled": 0, "fusion_lat": 0.0, "bike_id": "de0308b2bd3fdcf9da10e32de930e5e4", "rental_uris": {"ios": "https://dc.lft.to/lastmile_qr_scan", "android": "https://dc.lft.to/lastmile_qr_scan"}}, {"name": "498bc40bdc5a299928c4d6185bd19a41", "type": "electric_scooter", "lat": 38.9060565, "is_reserved": 0, "lon": -77.04883033333333, "fusion_lon": 0.0, "is_disabled": 0, "fusion_lat": 0.0, "bike_id": "498bc40bdc5a299928c4d6185bd19a41", "rental_uris": {"ios": "https://dc.lft.to/lastmile_qr_scan", "android": "https://dc.lft.to/lastmile_qr_scan"}}, {"name": "80f930688b3d450d777c3c6506437606", "type": "electric_scooter", "lat": 38.86827916666667, "is_reserved": 0, "lon": -76.98614133333334, "fusion_lon": 0.0, "is_disabled": 0, "fusion_lat": 0.0, "bike_id": "80f930688b3d450d777c3c6506437606", "rental_uris": {"ios": "https://dc.lft.to/lastmile_qr_scan", "android": "https://dc.lft.to/lastmile_qr_scan"}}, {"name": "27224618d0de56e4368b230d0bc81ee7", "type": "electric_scooter", "lat": 38.88534, "is_reserved": 0, "lon": -77.00582566666667, "fusion_lon": 0.0, "is_disabled": 0, "fusion_lat": 0.0, "bike_id": "27224618d0de56e4368b230d0bc81ee7", "rental_uris": {"ios": "https://dc.lft.to/lastmile_qr_scan", "android": "https://dc.lft.to/lastmile_qr_scan"}}, {"name": "f5540ffb1d0c50ee1725c20abe69d39e", "type": "electric_scooter", "lat": 38.882830166666665, "is_reserved": 0, "lon": -76.98609216666667, "fusion_lon": 0.0, "is_disabled": 0, "fusion_lat": 0.0, "bike_id": "f5540ffb1d0c50ee1725c20abe69d39e", "rental_uris": {"ios": "https://dc.lft.to/lastmile_qr_scan", "android": "https://dc.lft.to/lastmile_qr_scan"}}, {"name": "c584240e44766d188547cd4dfe3a9fc0", "type": "electric_scooter", "lat": 38.93283733333333, "is_reserved": 0, "lon": -77.02979566666667, "fusion_lon": 0.0, "is_disabled": 0, "fusion_lat": 0.0, "bike_id": "c584240e44766d188547cd4dfe3a9fc0", "rental_uris": {"ios": "https://dc.lft.to/lastmile_qr_scan", "android": "https://dc.lft.to/lastmile_qr_scan"}}, {"name": "92779b58f753f22489e8972de2698156", "type": "electric_scooter", "lat": 38.90961766666667, "is_reserved": 0, "lon": -77.0241545, "fusion_lon": 0.0, "is_disabled": 0, "fusion_lat": 0.0, "bike_id": "92779b58f753f22489e8972de2698156", "rental_uris": {"ios": "https://dc.lft.to/lastmile_qr_scan", "android": "https://dc.lft.to/lastmile_qr_scan"}}, {"name": "457a3516b5c0f4b4f838d552f16317b6", "type": "electric_scooter", "lat": 38.899674833333336, "is_reserved": 0, "lon": -77.02104416666667, "fusion_lon": 0.0, "is_disabled": 0, "fusion_lat": 0.0, "bike_id": "457a3516b5c0f4b4f838d552f16317b6", "rental_uris": {"ios": "https://dc.lft.to/lastmile_qr_scan", "android": "https://dc.lft.to/lastmile_qr_scan"}}, {"name": "b1975acce6a781836e62ce70c9f9cba3", "type": "electric_scooter", "lat": 38.908120833333335, "is_reserved": 0, "lon": -77.03839883333333, "fusion_lon": 0.0, "is_disabled": 0, "fusion_lat": 0.0, "bike_id": "b1975acce6a781836e62ce70c9f9cba3", "rental_uris": {"ios": "https://dc.lft.to/lastmile_qr_scan", "android": "https://dc.lft.to/lastmile_qr_scan"}}, {"name": "0502606873890186367f8d792c763ce1", "type": "electric_scooter", "lat": 38.91724133333334, "is_reserved": 0, "lon": -77.0366355, "fusion_lon": 0.0, "is_disabled": 0, "fusion_lat": 0.0, "bike_id": "0502606873890186367f8d792c763ce1", "rental_uris": {"ios": "https://dc.lft.to/lastmile_qr_scan", "android": "https://dc.lft.to/lastmile_qr_scan"}}, {"name": "c72e92dbf66c8397a5a7f0c3f95978bc", "type": "electric_scooter", "lat": 38.92724066666667, "is_reserved": 0, "lon": -77.02096066666667, "fusion_lon": 0.0, "is_disabled": 0, "fusion_lat": 0.0, "bike_id": "c72e92dbf66c8397a5a7f0c3f95978bc", "rental_uris": {"ios": "https://dc.lft.to/lastmile_qr_scan", "android": "https://dc.lft.to/lastmile_qr_scan"}}, {"name": "516ab69cb7587ab8f6b2801185ca6a4f", "type": "electric_scooter", "lat": 38.90869266666667, "is_reserved": 0, "lon": -77.085939, "fusion_lon": 0.0, "is_disabled": 0, "fusion_lat": 0.0, "bike_id": "516ab69cb7587ab8f6b2801185ca6a4f", "rental_uris": {"ios": "https://dc.lft.to/lastmile_qr_scan", "android": "https://dc.lft.to/lastmile_qr_scan"}}, {"name": "813ab183c0a8317bac19b2a80ff5bbe7", "type": "electric_scooter", "lat": 38.902014333333334, "is_reserved": 0, "lon": -76.98209733333333, "fusion_lon": 0.0, "is_disabled": 0, "fusion_lat": 0.0, "bike_id": "813ab183c0a8317bac19b2a80ff5bbe7", "rental_uris": {"ios": "https://dc.lft.to/lastmile_qr_scan", "android": "https://dc.lft.to/lastmile_qr_scan"}}, {"name": "862bc3b46078383d0b0fc662bf377b5a", "type": "electric_scooter", "lat": 38.927806, "is_reserved": 0, "lon": -77.01410633333333, "fusion_lon": 0.0, "is_disabled": 0, "fusion_lat": 0.0, "bike_id": "862bc3b46078383d0b0fc662bf377b5a", "rental_uris": {"ios": "https://dc.lft.to/lastmile_qr_scan", "android": "https://dc.lft.to/lastmile_qr_scan"}}, {"name": "276539d5946599c4983f0b5fac0eb5e5", "type": "electric_scooter", "lat": 38.923357333333335, "is_reserved": 0, "lon": -77.03659133333333, "fusion_lon": 0.0, "is_disabled": 0, "fusion_lat": 0.0, "bike_id": "276539d5946599c4983f0b5fac0eb5e5", "rental_uris": {"ios": "https://dc.lft.to/lastmile_qr_scan", "android": "https://dc.lft.to/lastmile_qr_scan"}}, {"name": "cb425d6424f83f3416f4dd6e90ab11be", "type": "electric_scooter", "lat": 38.939515, "is_reserved": 0, "lon": -77.03265066666667, "fusion_lon": 0.0, "is_disabled": 0, "fusion_lat": 0.0, "bike_id": "cb425d6424f83f3416f4dd6e90ab11be", "rental_uris": {"ios": "https://dc.lft.to/lastmile_qr_scan", "android": "https://dc.lft.to/lastmile_qr_scan"}}, {"name": "58010a62b253a7f68e8f496ba06a41e0", "type": "electric_scooter", "lat": 38.883272, "is_reserved": 0, "lon": -77.01747983333334, "fusion_lon": 0.0, "is_disabled": 0, "fusion_lat": 0.0, "bike_id": "58010a62b253a7f68e8f496ba06a41e0", "rental_uris": {"ios": "https://dc.lft.to/lastmile_qr_scan", "android": "https://dc.lft.to/lastmile_qr_scan"}}, {"name": "00abdce3c6a100e339412bb8ca93de7d", "type": "electric_scooter", "lat": 38.929492333333336, "is_reserved": 0, "lon": -77.03467516666667, "fusion_lon": 0.0, "is_disabled": 0, "fusion_lat": 0.0, "bike_id": "00abdce3c6a100e339412bb8ca93de7d", "rental_uris": {"ios": "https://dc.lft.to/lastmile_qr_scan", "android": "https://dc.lft.to/lastmile_qr_scan"}}, {"name": "ee2775873a77c23f412f1bbee09963e9", "type": "electric_scooter", "lat": 38.94776133333333, "is_reserved": 0, "lon": -77.06537683333333, "fusion_lon": 0.0, "is_disabled": 0, "fusion_lat": 0.0, "bike_id": "ee2775873a77c23f412f1bbee09963e9", "rental_uris": {"ios": "https://dc.lft.to/lastmile_qr_scan", "android": "https://dc.lft.to/lastmile_qr_scan"}}, {"name": "cae80a705b58da203ca15b2495474318", "type": "electric_scooter", "lat": 38.901941666666666, "is_reserved": 0, "lon": -77.04649416666666, "fusion_lon": 0.0, "is_disabled": 0, "fusion_lat": 0.0, "bike_id": "cae80a705b58da203ca15b2495474318", "rental_uris": {"ios": "https://dc.lft.to/lastmile_qr_scan", "android": "https://dc.lft.to/lastmile_qr_scan"}}, {"name": "ab428d0b7d1a6884c0de118fcb1bb5b3", "type": "electric_scooter", "lat": 38.922637, "is_reserved": 0, "lon": -77.04142716666667, "fusion_lon": 0.0, "is_disabled": 0, "fusion_lat": 0.0, "bike_id": "ab428d0b7d1a6884c0de118fcb1bb5b3", "rental_uris": {"ios": "https://dc.lft.to/lastmile_qr_scan", "android": "https://dc.lft.to/lastmile_qr_scan"}}, {"name": "f55c6e6bd24fc2b2f19ffb6c2d1408f2", "type": "electric_scooter", "lat": 38.9407615, "is_reserved": 0, "lon": -77.02701166666667, "fusion_lon": 0.0, "is_disabled": 0, "fusion_lat": 0.0, "bike_id": "f55c6e6bd24fc2b2f19ffb6c2d1408f2", "rental_uris": {"ios": "https://dc.lft.to/lastmile_qr_scan", "android": "https://dc.lft.to/lastmile_qr_scan"}}, {"name": "d0173ead22ea57ca8c4de5b4b909a072", "type": "electric_scooter", "lat": 38.895566333333335, "is_reserved": 0, "lon": -77.04162466666666, "fusion_lon": 0.0, "is_disabled": 0, "fusion_lat": 0.0, "bike_id": "d0173ead22ea57ca8c4de5b4b909a072", "rental_uris": {"ios": "https://dc.lft.to/lastmile_qr_scan", "android": "https://dc.lft.to/lastmile_qr_scan"}}, {"name": "9f6a7792a938e7b82928dd92a7408efa", "type": "electric_scooter", "lat": 38.939692, "is_reserved": 0, "lon": -77.03260516666667, "fusion_lon": 0.0, "is_disabled": 0, "fusion_lat": 0.0, "bike_id": "9f6a7792a938e7b82928dd92a7408efa", "rental_uris": {"ios": "https://dc.lft.to/lastmile_qr_scan", "android": "https://dc.lft.to/lastmile_qr_scan"}}, {"name": "3bec24c2577d7ce7c2b933516c8e15e8", "type": "electric_scooter", "lat": 38.9072525, "is_reserved": 0, "lon": -77.03068316666666, "fusion_lon": 0.0, "is_disabled": 0, "fusion_lat": 0.0, "bike_id": "3bec24c2577d7ce7c2b933516c8e15e8", "rental_uris": {"ios": "https://dc.lft.to/lastmile_qr_scan", "android": "https://dc.lft.to/lastmile_qr_scan"}}, {"name": "f102ae42bb7aeb1b241f0d1f63c78e7a", "type": "electric_bike", "lat": 38.990664, "is_reserved": 0, "lon": -77.10029216666666, "fusion_lon": 0.0, "is_disabled": 0, "fusion_lat": 0.0, "bike_id": "f102ae42bb7aeb1b241f0d1f63c78e7a", "rental_uris": {"ios": "https://dc.lft.to/lastmile_qr_scan", "android": "https://dc.lft.to/lastmile_qr_scan"}}, {"name": "0ce4c9051503ad5fee30cd8d3a077ad2", "type": "electric_bike", "lat": 38.873100666666666, "is_reserved": 0, "lon": -77.01096783333334, "fusion_lon": 0.0, "is_disabled": 0, "fusion_lat": 0.0, "bike_id": "0ce4c9051503ad5fee30cd8d3a077ad2", "rental_uris": {"ios": "https://dc.lft.to/lastmile_qr_scan", "android": "https://dc.lft.to/lastmile_qr_scan"}}, {"name": "289bec2376416012371ef864597aa88b", "type": "electric_scooter", "lat": 38.920484333333334, "is_reserved": 0, "lon": -76.99823016666667, "fusion_lon": 0.0, "is_disabled": 0, "fusion_lat": 0.0, "bike_id": "289bec2376416012371ef864597aa88b", "rental_uris": {"ios": "https://dc.lft.to/lastmile_qr_scan", "android": "https://dc.lft.to/lastmile_qr_scan"}}, {"name": "f6661102442c6da2ec1c36a45e226605", "type": "electric_scooter", "lat": 38.85322716666667, "is_reserved": 0, "lon": -76.98006333333333, "fusion_lon": 0.0, "is_disabled": 0, "fusion_lat": 0.0, "bike_id": "f6661102442c6da2ec1c36a45e226605", "rental_uris": {"ios": "https://dc.lft.to/lastmile_qr_scan", "android": "https://dc.lft.to/lastmile_qr_scan"}}, {"name": "3ba54b026b3d6a84847fb6f5c3d77adc", "type": "electric_scooter", "lat": 38.88988583333333, "is_reserved": 0, "lon": -77.0033825, "fusion_lon": 0.0, "is_disabled": 0, "fusion_lat": 0.0, "bike_id": "3ba54b026b3d6a84847fb6f5c3d77adc", "rental_uris": {"ios": "https://dc.lft.to/lastmile_qr_scan", "android": "https://dc.lft.to/lastmile_qr_scan"}}, {"name": "14287be991b71d109bd1da2c4ab07dc0", "type": "electric_scooter", "lat": 38.910587, "is_reserved": 0, "lon": -77.0219255, "fusion_lon": 0.0, "is_disabled": 0, "fusion_lat": 0.0, "bike_id": "14287be991b71d109bd1da2c4ab07dc0", "rental_uris": {"ios": "https://dc.lft.to/lastmile_qr_scan", "android": "https://dc.lft.to/lastmile_qr_scan"}}, {"name": "1c0dbba89fd7ea914a26b82845a8baca", "type": "electric_scooter", "lat": 38.90086183333333, "is_reserved": 0, "lon": -77.04913833333333, "fusion_lon": 0.0, "is_disabled": 0, "fusion_lat": 0.0, "bike_id": "1c0dbba89fd7ea914a26b82845a8baca", "rental_uris": {"ios": "https://dc.lft.to/lastmile_qr_scan", "android": "https://dc.lft.to/lastmile_qr_scan"}}, {"name": "72931415d3f19086bb282bd84372b5a6", "type": "electric_scooter", "lat": 38.903208, "is_reserved": 0, "lon": -77.04345183333334, "fusion_lon": 0.0, "is_disabled": 0, "fusion_lat": 0.0, "bike_id": "72931415d3f19086bb282bd84372b5a6", "rental_uris": {"ios": "https://dc.lft.to/lastmile_qr_scan", "android": "https://dc.lft.to/lastmile_qr_scan"}}, {"name": "a76cdda708c8801c326da2a9c048f6ea", "type": "electric_scooter", "lat": 38.90507266666667, "is_reserved": 0, "lon": -77.06938483333333, "fusion_lon": 0.0, "is_disabled": 0, "fusion_lat": 0.0, "bike_id": "a76cdda708c8801c326da2a9c048f6ea", "rental_uris": {"ios": "https://dc.lft.to/lastmile_qr_scan", "android": "https://dc.lft.to/lastmile_qr_scan"}}, {"name": "c21733d115638a1ff5654ff7512aa267", "type": "electric_scooter", "lat": 38.896574666666666, "is_reserved": 0, "lon": -77.0502415, "fusion_lon": 0.0, "is_disabled": 0, "fusion_lat": 0.0, "bike_id": "c21733d115638a1ff5654ff7512aa267", "rental_uris": {"ios": "https://dc.lft.to/lastmile_qr_scan", "android": "https://dc.lft.to/lastmile_qr_scan"}}, {"name": "393d66706a2ae34b06074614b421075f", "type": "electric_scooter", "lat": 38.92345533333334, "is_reserved": 0, "lon": -77.01904483333334, "fusion_lon": 0.0, "is_disabled": 0, "fusion_lat": 0.0, "bike_id": "393d66706a2ae34b06074614b421075f", "rental_uris": {"ios": "https://dc.lft.to/lastmile_qr_scan", "android": "https://dc.lft.to/lastmile_qr_scan"}}, {"name": "b6820f746179130f1131f970d2eea961", "type": "electric_bike", "lat": 38.8616615, "is_reserved": 0, "lon": -76.95068333333333, "fusion_lon": 0.0, "is_disabled": 0, "fusion_lat": 0.0, "bike_id": "b6820f746179130f1131f970d2eea961", "rental_uris": {"ios": "https://dc.lft.to/lastmile_qr_scan", "android": "https://dc.lft.to/lastmile_qr_scan"}}, {"name": "bd050e2179cd7605edc6bc9b933ea1a6", "type": "electric_scooter", "lat": 38.892459, "is_reserved": 0, "lon": -77.03210633333333, "fusion_lon": 0.0, "is_disabled": 0, "fusion_lat": 0.0, "bike_id": "bd050e2179cd7605edc6bc9b933ea1a6", "rental_uris": {"ios": "https://dc.lft.to/lastmile_qr_scan", "android": "https://dc.lft.to/lastmile_qr_scan"}}, {"name": "ce769813dc5a1f9e6104ccf8fd322bc6", "type": "electric_scooter", "lat": 38.939022, "is_reserved": 0, "lon": -77.02486416666666, "fusion_lon": 0.0, "is_disabled": 0, "fusion_lat": 0.0, "bike_id": "ce769813dc5a1f9e6104ccf8fd322bc6", "rental_uris": {"ios": "https://dc.lft.to/lastmile_qr_scan", "android": "https://dc.lft.to/lastmile_qr_scan"}}, {"name": "56350cd2eac3b720151522b0daed417d", "type": "electric_scooter", "lat": 38.916911666666664, "is_reserved": 0, "lon": -77.025331, "fusion_lon": 0.0, "is_disabled": 0, "fusion_lat": 0.0, "bike_id": "56350cd2eac3b720151522b0daed417d", "rental_uris": {"ios": "https://dc.lft.to/lastmile_qr_scan", "android": "https://dc.lft.to/lastmile_qr_scan"}}, {"name": "2fd99015cd914b75d6db0eedf74db7f6", "type": "electric_scooter", "lat": 38.91677933333333, "is_reserved": 0, "lon": -77.0298335, "fusion_lon": 0.0, "is_disabled": 0, "fusion_lat": 0.0, "bike_id": "2fd99015cd914b75d6db0eedf74db7f6", "rental_uris": {"ios": "https://dc.lft.to/lastmile_qr_scan", "android": "https://dc.lft.to/lastmile_qr_scan"}}, {"name": "2308cea0857c0793d9e17c72292d3193", "type": "electric_scooter", "lat": 38.92564133333333, "is_reserved": 0, "lon": -77.0228695, "fusion_lon": 0.0, "is_disabled": 0, "fusion_lat": 0.0, "bike_id": "2308cea0857c0793d9e17c72292d3193", "rental_uris": {"ios": "https://dc.lft.to/lastmile_qr_scan", "android": "https://dc.lft.to/lastmile_qr_scan"}}, {"name": "aa8b3e8ac32381c1819ec268d9713461", "type": "electric_scooter", "lat": 38.923326, "is_reserved": 0, "lon": -77.0388825, "fusion_lon": 0.0, "is_disabled": 0, "fusion_lat": 0.0, "bike_id": "aa8b3e8ac32381c1819ec268d9713461", "rental_uris": {"ios": "https://dc.lft.to/lastmile_qr_scan", "android": "https://dc.lft.to/lastmile_qr_scan"}}, {"name": "acd07ccb70e1c8ff5a9cb2170ca170f6", "type": "electric_scooter", "lat": 38.95246316666667, "is_reserved": 0, "lon": -77.00185183333333, "fusion_lon": 0.0, "is_disabled": 0, "fusion_lat": 0.0, "bike_id": "acd07ccb70e1c8ff5a9cb2170ca170f6", "rental_uris": {"ios": "https://dc.lft.to/lastmile_qr_scan", "android": "https://dc.lft.to/lastmile_qr_scan"}}, {"name": "60b940e313b3347f082cc3b277ccfa52", "type": "electric_scooter", "lat": 38.88497783333333, "is_reserved": 0, "lon": -77.00728583333333, "fusion_lon": 0.0, "is_disabled": 0, "fusion_lat": 0.0, "bike_id": "60b940e313b3347f082cc3b277ccfa52", "rental_uris": {"ios": "https://dc.lft.to/lastmile_qr_scan", "android": "https://dc.lft.to/lastmile_qr_scan"}}, {"name": "375a79ce4d3cc4b999fe40c69c396cef", "type": "electric_scooter", "lat": 38.898414, "is_reserved": 0, "lon": -77.02681633333333, "fusion_lon": 0.0, "is_disabled": 0, "fusion_lat": 0.0, "bike_id": "375a79ce4d3cc4b999fe40c69c396cef", "rental_uris": {"ios": "https://dc.lft.to/lastmile_qr_scan", "android": "https://dc.lft.to/lastmile_qr_scan"}}, {"name": "5fbb9eacba12654e43935568c5ec6352", "type": "electric_scooter", "lat": 38.88129566666667, "is_reserved": 0, "lon": -77.00242783333333, "fusion_lon": 0.0, "is_disabled": 0, "fusion_lat": 0.0, "bike_id": "5fbb9eacba12654e43935568c5ec6352", "rental_uris": {"ios": "https://dc.lft.to/lastmile_qr_scan", "android": "https://dc.lft.to/lastmile_qr_scan"}}, {"name": "eda0937486af886db631f0858656fcd3", "type": "electric_scooter", "lat": 38.92408116666667, "is_reserved": 0, "lon": -77.01950983333333, "fusion_lon": 0.0, "is_disabled": 0, "fusion_lat": 0.0, "bike_id": "eda0937486af886db631f0858656fcd3", "rental_uris": {"ios": "https://dc.lft.to/lastmile_qr_scan", "android": "https://dc.lft.to/lastmile_qr_scan"}}, {"name": "4dc536ab8b468a42e08f7a0f1a651c36", "type": "electric_scooter", "lat": 38.8875835, "is_reserved": 0, "lon": -77.03139883333333, "fusion_lon": 0.0, "is_disabled": 0, "fusion_lat": 0.0, "bike_id": "4dc536ab8b468a42e08f7a0f1a651c36", "rental_uris": {"ios": "https://dc.lft.to/lastmile_qr_scan", "android": "https://dc.lft.to/lastmile_qr_scan"}}, {"name": "da5e57628dcf3014909a2f8cdb10d719", "type": "electric_scooter", "lat": 38.884037166666666, "is_reserved": 0, "lon": -76.99529166666667, "fusion_lon": 0.0, "is_disabled": 0, "fusion_lat": 0.0, "bike_id": "da5e57628dcf3014909a2f8cdb10d719", "rental_uris": {"ios": "https://dc.lft.to/lastmile_qr_scan", "android": "https://dc.lft.to/lastmile_qr_scan"}}, {"name": "c13a66816c16ff9dd30f45ce80fbba52", "type": "electric_scooter", "lat": 38.9287225, "is_reserved": 0, "lon": -77.03755583333333, "fusion_lon": 0.0, "is_disabled": 0, "fusion_lat": 0.0, "bike_id": "c13a66816c16ff9dd30f45ce80fbba52", "rental_uris": {"ios": "https://dc.lft.to/lastmile_qr_scan", "android": "https://dc.lft.to/lastmile_qr_scan"}}, {"name": "a33f1d53331a248f1b0daf3f99ac7329", "type": "electric_scooter", "lat": 38.88751283333333, "is_reserved": 0, "lon": -77.0201985, "fusion_lon": 0.0, "is_disabled": 0, "fusion_lat": 0.0, "bike_id": "a33f1d53331a248f1b0daf3f99ac7329", "rental_uris": {"ios": "https://dc.lft.to/lastmile_qr_scan", "android": "https://dc.lft.to/lastmile_qr_scan"}}, {"name": "1c42cfa022b11b6dbe247387d5688ca4", "type": "electric_scooter", "lat": 38.935716, "is_reserved": 0, "lon": -77.037301, "fusion_lon": 0.0, "is_disabled": 0, "fusion_lat": 0.0, "bike_id": "1c42cfa022b11b6dbe247387d5688ca4", "rental_uris": {"ios": "https://dc.lft.to/lastmile_qr_scan", "android": "https://dc.lft.to/lastmile_qr_scan"}}, {"name": "98fd4e882346b892b5958f2c3a63a75b", "type": "electric_bike", "lat": 38.93063333333333, "is_reserved": 0, "lon": -76.9732835, "fusion_lon": 0.0, "is_disabled": 0, "fusion_lat": 0.0, "bike_id": "98fd4e882346b892b5958f2c3a63a75b", "rental_uris": {"ios": "https://dc.lft.to/lastmile_qr_scan", "android": "https://dc.lft.to/lastmile_qr_scan"}}, {"name": "88a7ec20d4843c44c5fe6df175a56056", "type": "electric_bike", "lat": 38.94587166666667, "is_reserved": 0, "lon": -77.002731, "fusion_lon": 0.0, "is_disabled": 0, "fusion_lat": 0.0, "bike_id": "88a7ec20d4843c44c5fe6df175a56056", "rental_uris": {"ios": "https://dc.lft.to/lastmile_qr_scan", "android": "https://dc.lft.to/lastmile_qr_scan"}}, {"name": "9f1a15ccbf22aa8bd49c0956a85400a5", "type": "electric_scooter", "lat": 38.883644, "is_reserved": 0, "lon": -77.0243895, "fusion_lon": 0.0, "is_disabled": 0, "fusion_lat": 0.0, "bike_id": "9f1a15ccbf22aa8bd49c0956a85400a5", "rental_uris": {"ios": "https://dc.lft.to/lastmile_qr_scan", "android": "https://dc.lft.to/lastmile_qr_scan"}}, {"name": "8382d7b8c4479909ce1336e656c833ba", "type": "electric_scooter", "lat": 38.92396983333333, "is_reserved": 0, "lon": -77.05254116666667, "fusion_lon": 0.0, "is_disabled": 0, "fusion_lat": 0.0, "bike_id": "8382d7b8c4479909ce1336e656c833ba", "rental_uris": {"ios": "https://dc.lft.to/lastmile_qr_scan", "android": "https://dc.lft.to/lastmile_qr_scan"}}, {"name": "64c94379e83e5a05e080e019a4d9684b", "type": "electric_scooter", "lat": 38.89222, "is_reserved": 0, "lon": -77.04642266666667, "fusion_lon": 0.0, "is_disabled": 0, "fusion_lat": 0.0, "bike_id": "64c94379e83e5a05e080e019a4d9684b", "rental_uris": {"ios": "https://dc.lft.to/lastmile_qr_scan", "android": "https://dc.lft.to/lastmile_qr_scan"}}, {"name": "c723c62ce4917bbeaf1915a44eeac613", "type": "electric_scooter", "lat": 38.89877466666667, "is_reserved": 0, "lon": -76.93161866666667, "fusion_lon": 0.0, "is_disabled": 0, "fusion_lat": 0.0, "bike_id": "c723c62ce4917bbeaf1915a44eeac613", "rental_uris": {"ios": "https://dc.lft.to/lastmile_qr_scan", "android": "https://dc.lft.to/lastmile_qr_scan"}}, {"name": "f75dc1ac0d44ca2d5752b84f1cf0d952", "type": "electric_scooter", "lat": 38.916729833333335, "is_reserved": 0, "lon": -77.02947683333333, "fusion_lon": 0.0, "is_disabled": 0, "fusion_lat": 0.0, "bike_id": "f75dc1ac0d44ca2d5752b84f1cf0d952", "rental_uris": {"ios": "https://dc.lft.to/lastmile_qr_scan", "android": "https://dc.lft.to/lastmile_qr_scan"}}, {"name": "1e41e89ace5d2b70ba621526d7bc0c80", "type": "electric_scooter", "lat": 38.894824, "is_reserved": 0, "lon": -77.010976, "fusion_lon": 0.0, "is_disabled": 0, "fusion_lat": 0.0, "bike_id": "1e41e89ace5d2b70ba621526d7bc0c80", "rental_uris": {"ios": "https://dc.lft.to/lastmile_qr_scan", "android": "https://dc.lft.to/lastmile_qr_scan"}}, {"name": "1a7ad55698566ca69e32b6a3c9835ab6", "type": "electric_scooter", "lat": 38.90275183333333, "is_reserved": 0, "lon": -77.03147, "fusion_lon": 0.0, "is_disabled": 0, "fusion_lat": 0.0, "bike_id": "1a7ad55698566ca69e32b6a3c9835ab6", "rental_uris": {"ios": "https://dc.lft.to/lastmile_qr_scan", "android": "https://dc.lft.to/lastmile_qr_scan"}}, {"name": "a6ca1372531983fa267018034de99d7f", "type": "electric_scooter", "lat": 38.89224816666667, "is_reserved": 0, "lon": -77.0426225, "fusion_lon": 0.0, "is_disabled": 0, "fusion_lat": 0.0, "bike_id": "a6ca1372531983fa267018034de99d7f", "rental_uris": {"ios": "https://dc.lft.to/lastmile_qr_scan", "android": "https://dc.lft.to/lastmile_qr_scan"}}, {"name": "8967fb41248d32de949ba97bbcb738fc", "type": "electric_scooter", "lat": 38.93059866666667, "is_reserved": 0, "lon": -77.02319933333334, "fusion_lon": 0.0, "is_disabled": 0, "fusion_lat": 0.0, "bike_id": "8967fb41248d32de949ba97bbcb738fc", "rental_uris": {"ios": "https://dc.lft.to/lastmile_qr_scan", "android": "https://dc.lft.to/lastmile_qr_scan"}}, {"name": "67c1850334691c88839481cd88728465", "type": "electric_bike", "lat": 38.928547333333334, "is_reserved": 0, "lon": -77.106768, "fusion_lon": 0.0, "is_disabled": 0, "fusion_lat": 0.0, "bike_id": "67c1850334691c88839481cd88728465", "rental_uris": {"ios": "https://dc.lft.to/lastmile_qr_scan", "android": "https://dc.lft.to/lastmile_qr_scan"}}, {"name": "b56bb14cb3d2e00848097070f66727d5", "type": "electric_scooter", "lat": 38.883484333333335, "is_reserved": 0, "lon": -76.94935483333333, "fusion_lon": 0.0, "is_disabled": 0, "fusion_lat": 0.0, "bike_id": "b56bb14cb3d2e00848097070f66727d5", "rental_uris": {"ios": "https://dc.lft.to/lastmile_qr_scan", "android": "https://dc.lft.to/lastmile_qr_scan"}}, {"name": "00ea5ab403d08f76febff7b0d0257bb8", "type": "electric_scooter", "lat": 38.90727316666667, "is_reserved": 0, "lon": -76.98604666666667, "fusion_lon": 0.0, "is_disabled": 0, "fusion_lat": 0.0, "bike_id": "00ea5ab403d08f76febff7b0d0257bb8", "rental_uris": {"ios": "https://dc.lft.to/lastmile_qr_scan", "android": "https://dc.lft.to/lastmile_qr_scan"}}, {"name": "095eac9a9fe267bb7e5ac862c3f1d4c1", "type": "electric_scooter", "lat": 38.944908833333336, "is_reserved": 0, "lon": -77.06385066666667, "fusion_lon": 0.0, "is_disabled": 0, "fusion_lat": 0.0, "bike_id": "095eac9a9fe267bb7e5ac862c3f1d4c1", "rental_uris": {"ios": "https://dc.lft.to/lastmile_qr_scan", "android": "https://dc.lft.to/lastmile_qr_scan"}}, {"name": "0c81c4b8014fff3a0fe7579e0d0f9bbd", "type": "electric_bike", "lat": 38.85066616666667, "is_reserved": 0, "lon": -76.97337183333333, "fusion_lon": 0.0, "is_disabled": 0, "fusion_lat": 0.0, "bike_id": "0c81c4b8014fff3a0fe7579e0d0f9bbd", "rental_uris": {"ios": "https://dc.lft.to/lastmile_qr_scan", "android": "https://dc.lft.to/lastmile_qr_scan"}}, {"name": "a6532004d82d7bb8e1fcb9350f74657c", "type": "electric_scooter", "lat": 38.9051905, "is_reserved": 0, "lon": -77.03441466666666, "fusion_lon": 0.0, "is_disabled": 0, "fusion_lat": 0.0, "bike_id": "a6532004d82d7bb8e1fcb9350f74657c", "rental_uris": {"ios": "https://dc.lft.to/lastmile_qr_scan", "android": "https://dc.lft.to/lastmile_qr_scan"}}, {"name": "5d084acdd950a2975342bae99020c655", "type": "electric_scooter", "lat": 38.9065855, "is_reserved": 0, "lon": -77.03648766666667, "fusion_lon": 0.0, "is_disabled": 0, "fusion_lat": 0.0, "bike_id": "5d084acdd950a2975342bae99020c655", "rental_uris": {"ios": "https://dc.lft.to/lastmile_qr_scan", "android": "https://dc.lft.to/lastmile_qr_scan"}}, {"name": "0a61af5adce9cf177b3f6adf188e7359", "type": "electric_scooter", "lat": 38.905693, "is_reserved": 0, "lon": -77.02980883333333, "fusion_lon": 0.0, "is_disabled": 0, "fusion_lat": 0.0, "bike_id": "0a61af5adce9cf177b3f6adf188e7359", "rental_uris": {"ios": "https://dc.lft.to/lastmile_qr_scan", "android": "https://dc.lft.to/lastmile_qr_scan"}}, {"name": "224ebe9f3514b0054bea60cfb5f23047", "type": "electric_scooter", "lat": 38.917396, "is_reserved": 0, "lon": -77.02119516666667, "fusion_lon": 0.0, "is_disabled": 0, "fusion_lat": 0.0, "bike_id": "224ebe9f3514b0054bea60cfb5f23047", "rental_uris": {"ios": "https://dc.lft.to/lastmile_qr_scan", "android": "https://dc.lft.to/lastmile_qr_scan"}}, {"name": "c1ada18bddbd38370466b06a84235ff9", "type": "electric_scooter", "lat": 38.903765166666666, "is_reserved": 0, "lon": -77.04480766666667, "fusion_lon": 0.0, "is_disabled": 0, "fusion_lat": 0.0, "bike_id": "c1ada18bddbd38370466b06a84235ff9", "rental_uris": {"ios": "https://dc.lft.to/lastmile_qr_scan", "android": "https://dc.lft.to/lastmile_qr_scan"}}, {"name": "d5d433b3eb650721926e148dd83273a2", "type": "electric_scooter", "lat": 38.95111033333333, "is_reserved": 0, "lon": -77.01580183333333, "fusion_lon": 0.0, "is_disabled": 0, "fusion_lat": 0.0, "bike_id": "d5d433b3eb650721926e148dd83273a2", "rental_uris": {"ios": "https://dc.lft.to/lastmile_qr_scan", "android": "https://dc.lft.to/lastmile_qr_scan"}}, {"name": "b8e8d1a498821da496020a60fb8d6263", "type": "electric_scooter", "lat": 38.940152, "is_reserved": 0, "lon": -77.07173233333333, "fusion_lon": 0.0, "is_disabled": 0, "fusion_lat": 0.0, "bike_id": "b8e8d1a498821da496020a60fb8d6263", "rental_uris": {"ios": "https://dc.lft.to/lastmile_qr_scan", "android": "https://dc.lft.to/lastmile_qr_scan"}}, {"name": "caa297da969a90fa0e830f1b45be8860", "type": "electric_scooter", "lat": 38.903732833333336, "is_reserved": 0, "lon": -77.0402195, "fusion_lon": 0.0, "is_disabled": 0, "fusion_lat": 0.0, "bike_id": "caa297da969a90fa0e830f1b45be8860", "rental_uris": {"ios": "https://dc.lft.to/lastmile_qr_scan", "android": "https://dc.lft.to/lastmile_qr_scan"}}, {"name": "696c5e00a11fc33d6687ffbb8362b930", "type": "electric_scooter", "lat": 38.894771, "is_reserved": 0, "lon": -76.98599566666667, "fusion_lon": 0.0, "is_disabled": 0, "fusion_lat": 0.0, "bike_id": "696c5e00a11fc33d6687ffbb8362b930", "rental_uris": {"ios": "https://dc.lft.to/lastmile_qr_scan", "android": "https://dc.lft.to/lastmile_qr_scan"}}, {"name": "1f48f81dbdcddcb1c87f11c9c46cdc00", "type": "electric_scooter", "lat": 38.910419166666664, "is_reserved": 0, "lon": -77.0435595, "fusion_lon": 0.0, "is_disabled": 0, "fusion_lat": 0.0, "bike_id": "1f48f81dbdcddcb1c87f11c9c46cdc00", "rental_uris": {"ios": "https://dc.lft.to/lastmile_qr_scan", "android": "https://dc.lft.to/lastmile_qr_scan"}}, {"name": "e6c149743051c2340585b553ee1af3fc", "type": "electric_scooter", "lat": 38.91699766666667, "is_reserved": 0, "lon": -77.00810833333334, "fusion_lon": 0.0, "is_disabled": 0, "fusion_lat": 0.0, "bike_id": "e6c149743051c2340585b553ee1af3fc", "rental_uris": {"ios": "https://dc.lft.to/lastmile_qr_scan", "android": "https://dc.lft.to/lastmile_qr_scan"}}, {"name": "da87a66d2fb131c4893bd4a0c6d5cd98", "type": "electric_scooter", "lat": 38.8919765, "is_reserved": 0, "lon": -77.04584916666667, "fusion_lon": 0.0, "is_disabled": 0, "fusion_lat": 0.0, "bike_id": "da87a66d2fb131c4893bd4a0c6d5cd98", "rental_uris": {"ios": "https://dc.lft.to/lastmile_qr_scan", "android": "https://dc.lft.to/lastmile_qr_scan"}}, {"name": "68ec8d5cc5f2bed88d7fdc3224e77db9", "type": "electric_scooter", "lat": 38.901011, "is_reserved": 0, "lon": -77.02105983333334, "fusion_lon": 0.0, "is_disabled": 0, "fusion_lat": 0.0, "bike_id": "68ec8d5cc5f2bed88d7fdc3224e77db9", "rental_uris": {"ios": "https://dc.lft.to/lastmile_qr_scan", "android": "https://dc.lft.to/lastmile_qr_scan"}}, {"name": "41b1d8bd3028e00859bac1dbfa793120", "type": "electric_bike", "lat": 38.90685966666667, "is_reserved": 0, "lon": -76.95189216666667, "fusion_lon": 0.0, "is_disabled": 0, "fusion_lat": 0.0, "bike_id": "41b1d8bd3028e00859bac1dbfa793120", "rental_uris": {"ios": "https://dc.lft.to/lastmile_qr_scan", "android": "https://dc.lft.to/lastmile_qr_scan"}}, {"name": "f23c5fde6e684820fbdfbf6b882ae86a", "type": "electric_scooter", "lat": 38.944146833333335, "is_reserved": 0, "lon": -77.05521116666667, "fusion_lon": 0.0, "is_disabled": 0, "fusion_lat": 0.0, "bike_id": "f23c5fde6e684820fbdfbf6b882ae86a", "rental_uris": {"ios": "https://dc.lft.to/lastmile_qr_scan", "android": "https://dc.lft.to/lastmile_qr_scan"}}, {"name": "73946469feae2c4f7936dbed8c8de465", "type": "electric_bike", "lat": 38.802284666666665, "is_reserved": 0, "lon": -77.07916883333333, "fusion_lon": 0.0, "is_disabled": 0, "fusion_lat": 0.0, "bike_id": "73946469feae2c4f7936dbed8c8de465", "rental_uris": {"ios": "https://dc.lft.to/lastmile_qr_scan", "android": "https://dc.lft.to/lastmile_qr_scan"}}, {"name": "284ef3216f252ecb1a256c4e2ea4d7f1", "type": "electric_scooter", "lat": 38.9294825, "is_reserved": 0, "lon": -77.04406016666667, "fusion_lon": 0.0, "is_disabled": 0, "fusion_lat": 0.0, "bike_id": "284ef3216f252ecb1a256c4e2ea4d7f1", "rental_uris": {"ios": "https://dc.lft.to/lastmile_qr_scan", "android": "https://dc.lft.to/lastmile_qr_scan"}}, {"name": "0193f5312f2519a03a3258e4bedae7aa", "type": "electric_scooter", "lat": 38.901525666666664, "is_reserved": 0, "lon": -77.03308983333334, "fusion_lon": 0.0, "is_disabled": 0, "fusion_lat": 0.0, "bike_id": "0193f5312f2519a03a3258e4bedae7aa", "rental_uris": {"ios": "https://dc.lft.to/lastmile_qr_scan", "android": "https://dc.lft.to/lastmile_qr_scan"}}, {"name": "66448cb817bb5d55999e4f9b2b6798d0", "type": "electric_scooter", "lat": 38.9096045, "is_reserved": 0, "lon": -77.00763133333334, "fusion_lon": 0.0, "is_disabled": 0, "fusion_lat": 0.0, "bike_id": "66448cb817bb5d55999e4f9b2b6798d0", "rental_uris": {"ios": "https://dc.lft.to/lastmile_qr_scan", "android": "https://dc.lft.to/lastmile_qr_scan"}}, {"name": "e8f8735cd664a794179d310920276777", "type": "electric_scooter", "lat": 38.932027166666664, "is_reserved": 0, "lon": -77.03877283333334, "fusion_lon": 0.0, "is_disabled": 0, "fusion_lat": 0.0, "bike_id": "e8f8735cd664a794179d310920276777", "rental_uris": {"ios": "https://dc.lft.to/lastmile_qr_scan", "android": "https://dc.lft.to/lastmile_qr_scan"}}, {"name": "b16d73c233b9338c7c0d249d36992904", "type": "electric_scooter", "lat": 38.90983116666666, "is_reserved": 0, "lon": -77.03298183333334, "fusion_lon": 0.0, "is_disabled": 0, "fusion_lat": 0.0, "bike_id": "b16d73c233b9338c7c0d249d36992904", "rental_uris": {"ios": "https://dc.lft.to/lastmile_qr_scan", "android": "https://dc.lft.to/lastmile_qr_scan"}}, {"name": "1387980f25159f0628e34c117cff799a", "type": "electric_scooter", "lat": 38.8953875, "is_reserved": 0, "lon": -77.046547, "fusion_lon": 0.0, "is_disabled": 0, "fusion_lat": 0.0, "bike_id": "1387980f25159f0628e34c117cff799a", "rental_uris": {"ios": "https://dc.lft.to/lastmile_qr_scan", "android": "https://dc.lft.to/lastmile_qr_scan"}}, {"name": "c58e5381656c85d106acaecfb8e7d5a3", "type": "electric_scooter", "lat": 38.906518166666665, "is_reserved": 0, "lon": -77.0391205, "fusion_lon": 0.0, "is_disabled": 0, "fusion_lat": 0.0, "bike_id": "c58e5381656c85d106acaecfb8e7d5a3", "rental_uris": {"ios": "https://dc.lft.to/lastmile_qr_scan", "android": "https://dc.lft.to/lastmile_qr_scan"}}, {"name": "eebdf2811a1e0872aa087ea4b982f410", "type": "electric_scooter", "lat": 38.86701466666667, "is_reserved": 0, "lon": -76.98714416666667, "fusion_lon": 0.0, "is_disabled": 0, "fusion_lat": 0.0, "bike_id": "eebdf2811a1e0872aa087ea4b982f410", "rental_uris": {"ios": "https://dc.lft.to/lastmile_qr_scan", "android": "https://dc.lft.to/lastmile_qr_scan"}}, {"name": "e88547a4a51451dfe6f98c1d9dbb7806", "type": "electric_scooter", "lat": 38.9257185, "is_reserved": 0, "lon": -77.02720416666666, "fusion_lon": 0.0, "is_disabled": 0, "fusion_lat": 0.0, "bike_id": "e88547a4a51451dfe6f98c1d9dbb7806", "rental_uris": {"ios": "https://dc.lft.to/lastmile_qr_scan", "android": "https://dc.lft.to/lastmile_qr_scan"}}, {"name": "6e2b96dbd3fa8d08362d1406135f9a5b", "type": "electric_scooter", "lat": 38.844264833333334, "is_reserved": 0, "lon": -76.99779933333333, "fusion_lon": 0.0, "is_disabled": 0, "fusion_lat": 0.0, "bike_id": "6e2b96dbd3fa8d08362d1406135f9a5b", "rental_uris": {"ios": "https://dc.lft.to/lastmile_qr_scan", "android": "https://dc.lft.to/lastmile_qr_scan"}}, {"name": "a10230bdca55e6351e793f169cd7763d", "type": "electric_scooter", "lat": 38.88400933333333, "is_reserved": 0, "lon": -76.93042766666667, "fusion_lon": 0.0, "is_disabled": 0, "fusion_lat": 0.0, "bike_id": "a10230bdca55e6351e793f169cd7763d", "rental_uris": {"ios": "https://dc.lft.to/lastmile_qr_scan", "android": "https://dc.lft.to/lastmile_qr_scan"}}, {"name": "b03509b114c52a3fbce4ff9c281f69b4", "type": "electric_scooter", "lat": 38.9054095, "is_reserved": 0, "lon": -77.0474685, "fusion_lon": 0.0, "is_disabled": 0, "fusion_lat": 0.0, "bike_id": "b03509b114c52a3fbce4ff9c281f69b4", "rental_uris": {"ios": "https://dc.lft.to/lastmile_qr_scan", "android": "https://dc.lft.to/lastmile_qr_scan"}}, {"name": "8a60049c0557beeae633097febd9b055", "type": "electric_scooter", "lat": 38.91705416666667, "is_reserved": 0, "lon": -77.02240516666667, "fusion_lon": 0.0, "is_disabled": 0, "fusion_lat": 0.0, "bike_id": "8a60049c0557beeae633097febd9b055", "rental_uris": {"ios": "https://dc.lft.to/lastmile_qr_scan", "android": "https://dc.lft.to/lastmile_qr_scan"}}, {"name": "e8a26af50bc519c4a8547b7090e76ffc", "type": "electric_scooter", "lat": 38.89378416666667, "is_reserved": 0, "lon": -76.94981683333333, "fusion_lon": 0.0, "is_disabled": 0, "fusion_lat": 0.0, "bike_id": "e8a26af50bc519c4a8547b7090e76ffc", "rental_uris": {"ios": "https://dc.lft.to/lastmile_qr_scan", "android": "https://dc.lft.to/lastmile_qr_scan"}}, {"name": "2ef0d6ebb88913ae3184a31248ec2ee2", "type": "electric_bike", "lat": 38.97330816666667, "is_reserved": 0, "lon": -77.02151433333333, "fusion_lon": 0.0, "is_disabled": 0, "fusion_lat": 0.0, "bike_id": "2ef0d6ebb88913ae3184a31248ec2ee2", "rental_uris": {"ios": "https://dc.lft.to/lastmile_qr_scan", "android": "https://dc.lft.to/lastmile_qr_scan"}}, {"name": "0a77c6818c1f60aeadf12f91fa4e8c02", "type": "electric_scooter", "lat": 38.9101325, "is_reserved": 0, "lon": -76.993906, "fusion_lon": 0.0, "is_disabled": 0, "fusion_lat": 0.0, "bike_id": "0a77c6818c1f60aeadf12f91fa4e8c02", "rental_uris": {"ios": "https://dc.lft.to/lastmile_qr_scan", "android": "https://dc.lft.to/lastmile_qr_scan"}}, {"name": "b595b170b9bdda3e222655b8dab64058", "type": "electric_scooter", "lat": 38.9089875, "is_reserved": 0, "lon": -77.03216266666666, "fusion_lon": 0.0, "is_disabled": 0, "fusion_lat": 0.0, "bike_id": "b595b170b9bdda3e222655b8dab64058", "rental_uris": {"ios": "https://dc.lft.to/lastmile_qr_scan", "android": "https://dc.lft.to/lastmile_qr_scan"}}, {"name": "e9fa7bf3700fd57eae33b360d89be7a1", "type": "electric_scooter", "lat": 38.922542166666666, "is_reserved": 0, "lon": -77.03067883333334, "fusion_lon": 0.0, "is_disabled": 0, "fusion_lat": 0.0, "bike_id": "e9fa7bf3700fd57eae33b360d89be7a1", "rental_uris": {"ios": "https://dc.lft.to/lastmile_qr_scan", "android": "https://dc.lft.to/lastmile_qr_scan"}}, {"name": "f0623d8f46c4679095eb05c929b10aa2", "type": "electric_scooter", "lat": 38.89474216666667, "is_reserved": 0, "lon": -77.01212766666667, "fusion_lon": 0.0, "is_disabled": 0, "fusion_lat": 0.0, "bike_id": "f0623d8f46c4679095eb05c929b10aa2", "rental_uris": {"ios": "https://dc.lft.to/lastmile_qr_scan", "android": "https://dc.lft.to/lastmile_qr_scan"}}, {"name": "4ee452ca96b0f3b7445df48019927ada", "type": "electric_scooter", "lat": 38.93362883333333, "is_reserved": 0, "lon": -77.0361775, "fusion_lon": 0.0, "is_disabled": 0, "fusion_lat": 0.0, "bike_id": "4ee452ca96b0f3b7445df48019927ada", "rental_uris": {"ios": "https://dc.lft.to/lastmile_qr_scan", "android": "https://dc.lft.to/lastmile_qr_scan"}}, {"name": "4473f91096578b8dfc32aa31ce165640", "type": "electric_scooter", "lat": 38.91957216666667, "is_reserved": 0, "lon": -77.026072, "fusion_lon": 0.0, "is_disabled": 0, "fusion_lat": 0.0, "bike_id": "4473f91096578b8dfc32aa31ce165640", "rental_uris": {"ios": "https://dc.lft.to/lastmile_qr_scan", "android": "https://dc.lft.to/lastmile_qr_scan"}}, {"name": "29fa54750a2a2cb38b59f4d0d5a8fb52", "type": "electric_bike", "lat": 38.94550916666667, "is_reserved": 0, "lon": -76.89538866666666, "fusion_lon": 0.0, "is_disabled": 0, "fusion_lat": 0.0, "bike_id": "29fa54750a2a2cb38b59f4d0d5a8fb52", "rental_uris": {"ios": "https://dc.lft.to/lastmile_qr_scan", "android": "https://dc.lft.to/lastmile_qr_scan"}}, {"name": "eeecaf8eb5feef83e94b59099fc8061c", "type": "electric_scooter", "lat": 38.910685666666666, "is_reserved": 0, "lon": -77.03029166666667, "fusion_lon": 0.0, "is_disabled": 0, "fusion_lat": 0.0, "bike_id": "eeecaf8eb5feef83e94b59099fc8061c", "rental_uris": {"ios": "https://dc.lft.to/lastmile_qr_scan", "android": "https://dc.lft.to/lastmile_qr_scan"}}, {"name": "d285e112893027330d908d9ea230f09c", "type": "electric_scooter", "lat": 38.89833266666667, "is_reserved": 0, "lon": -76.94634283333333, "fusion_lon": 0.0, "is_disabled": 0, "fusion_lat": 0.0, "bike_id": "d285e112893027330d908d9ea230f09c", "rental_uris": {"ios": "https://dc.lft.to/lastmile_qr_scan", "android": "https://dc.lft.to/lastmile_qr_scan"}}, {"name": "ad0efd14e232f40e06370a27feff871a", "type": "electric_scooter", "lat": 38.9003305, "is_reserved": 0, "lon": -76.99856966666667, "fusion_lon": 0.0, "is_disabled": 0, "fusion_lat": 0.0, "bike_id": "ad0efd14e232f40e06370a27feff871a", "rental_uris": {"ios": "https://dc.lft.to/lastmile_qr_scan", "android": "https://dc.lft.to/lastmile_qr_scan"}}, {"name": "a2c2c3f6e1e56b28e81b48ef7925402f", "type": "electric_scooter", "lat": 38.93256066666667, "is_reserved": 0, "lon": -77.04005766666667, "fusion_lon": 0.0, "is_disabled": 0, "fusion_lat": 0.0, "bike_id": "a2c2c3f6e1e56b28e81b48ef7925402f", "rental_uris": {"ios": "https://dc.lft.to/lastmile_qr_scan", "android": "https://dc.lft.to/lastmile_qr_scan"}}, {"name": "c5f160caf18c04659b825500871ec980", "type": "electric_scooter", "lat": 38.892434, "is_reserved": 0, "lon": -77.03185683333334, "fusion_lon": 0.0, "is_disabled": 0, "fusion_lat": 0.0, "bike_id": "c5f160caf18c04659b825500871ec980", "rental_uris": {"ios": "https://dc.lft.to/lastmile_qr_scan", "android": "https://dc.lft.to/lastmile_qr_scan"}}, {"name": "d72e4027c8a7f30b53667e69b73686fb", "type": "electric_scooter", "lat": 38.93401333333333, "is_reserved": 0, "lon": -77.03888966666666, "fusion_lon": 0.0, "is_disabled": 0, "fusion_lat": 0.0, "bike_id": "d72e4027c8a7f30b53667e69b73686fb", "rental_uris": {"ios": "https://dc.lft.to/lastmile_qr_scan", "android": "https://dc.lft.to/lastmile_qr_scan"}}, {"name": "a28416eca3dd11dc630203783ec82a13", "type": "electric_scooter", "lat": 38.959110833333334, "is_reserved": 0, "lon": -77.08078433333333, "fusion_lon": 0.0, "is_disabled": 0, "fusion_lat": 0.0, "bike_id": "a28416eca3dd11dc630203783ec82a13", "rental_uris": {"ios": "https://dc.lft.to/lastmile_qr_scan", "android": "https://dc.lft.to/lastmile_qr_scan"}}, {"name": "f9ca3f52cbbb3f5d64b4fe90104873d8", "type": "electric_scooter", "lat": 38.8950295, "is_reserved": 0, "lon": -77.046743, "fusion_lon": 0.0, "is_disabled": 0, "fusion_lat": 0.0, "bike_id": "f9ca3f52cbbb3f5d64b4fe90104873d8", "rental_uris": {"ios": "https://dc.lft.to/lastmile_qr_scan", "android": "https://dc.lft.to/lastmile_qr_scan"}}, {"name": "6770c271e2a0830585aa8c19e46e6801", "type": "electric_scooter", "lat": 38.884931333333334, "is_reserved": 0, "lon": -77.00732616666667, "fusion_lon": 0.0, "is_disabled": 0, "fusion_lat": 0.0, "bike_id": "6770c271e2a0830585aa8c19e46e6801", "rental_uris": {"ios": "https://dc.lft.to/lastmile_qr_scan", "android": "https://dc.lft.to/lastmile_qr_scan"}}, {"name": "1c263c2c23ee1b354e0569b89c8778ef", "type": "electric_scooter", "lat": 38.892334166666664, "is_reserved": 0, "lon": -77.0127355, "fusion_lon": 0.0, "is_disabled": 0, "fusion_lat": 0.0, "bike_id": "1c263c2c23ee1b354e0569b89c8778ef", "rental_uris": {"ios": "https://dc.lft.to/lastmile_qr_scan", "android": "https://dc.lft.to/lastmile_qr_scan"}}, {"name": "682a90899b1557f969ed4fa359e0da26", "type": "electric_scooter", "lat": 38.883182, "is_reserved": 0, "lon": -77.0059735, "fusion_lon": 0.0, "is_disabled": 0, "fusion_lat": 0.0, "bike_id": "682a90899b1557f969ed4fa359e0da26", "rental_uris": {"ios": "https://dc.lft.to/lastmile_qr_scan", "android": "https://dc.lft.to/lastmile_qr_scan"}}, {"name": "c80e9dd2392569e1cac98d9f4fab1a4f", "type": "electric_scooter", "lat": 38.8803015, "is_reserved": 0, "lon": -76.9883855, "fusion_lon": 0.0, "is_disabled": 0, "fusion_lat": 0.0, "bike_id": "c80e9dd2392569e1cac98d9f4fab1a4f", "rental_uris": {"ios": "https://dc.lft.to/lastmile_qr_scan", "android": "https://dc.lft.to/lastmile_qr_scan"}}, {"name": "37198ee73a7c7b89b4df593480001f32", "type": "electric_scooter", "lat": 38.8712855, "is_reserved": 0, "lon": -77.00599433333333, "fusion_lon": 0.0, "is_disabled": 0, "fusion_lat": 0.0, "bike_id": "37198ee73a7c7b89b4df593480001f32", "rental_uris": {"ios": "https://dc.lft.to/lastmile_qr_scan", "android": "https://dc.lft.to/lastmile_qr_scan"}}, {"name": "bb0f01ef974014d41236c2bd4b58b3d3", "type": "electric_scooter", "lat": 38.914949166666666, "is_reserved": 0, "lon": -77.01853933333334, "fusion_lon": 0.0, "is_disabled": 0, "fusion_lat": 0.0, "bike_id": "bb0f01ef974014d41236c2bd4b58b3d3", "rental_uris": {"ios": "https://dc.lft.to/lastmile_qr_scan", "android": "https://dc.lft.to/lastmile_qr_scan"}}, {"name": "6d6877601441a6555f6e231da53a588b", "type": "electric_scooter", "lat": 38.87633733333333, "is_reserved": 0, "lon": -77.00921516666666, "fusion_lon": 0.0, "is_disabled": 0, "fusion_lat": 0.0, "bike_id": "6d6877601441a6555f6e231da53a588b", "rental_uris": {"ios": "https://dc.lft.to/lastmile_qr_scan", "android": "https://dc.lft.to/lastmile_qr_scan"}}, {"name": "e1927c9290de735be6c2617f18473419", "type": "electric_bike", "lat": 38.828765, "is_reserved": 0, "lon": -77.11220516666667, "fusion_lon": 0.0, "is_disabled": 0, "fusion_lat": 0.0, "bike_id": "e1927c9290de735be6c2617f18473419", "rental_uris": {"ios": "https://dc.lft.to/lastmile_qr_scan", "android": "https://dc.lft.to/lastmile_qr_scan"}}, {"name": "bcf20f595d63a9a4605aaa6ee1040a3c", "type": "electric_scooter", "lat": 38.9360725, "is_reserved": 0, "lon": -77.05862616666667, "fusion_lon": 0.0, "is_disabled": 0, "fusion_lat": 0.0, "bike_id": "bcf20f595d63a9a4605aaa6ee1040a3c", "rental_uris": {"ios": "https://dc.lft.to/lastmile_qr_scan", "android": "https://dc.lft.to/lastmile_qr_scan"}}, {"name": "32b78aaa9f7418d5dd97b67c2346f932", "type": "electric_scooter", "lat": 38.884038, "is_reserved": 0, "lon": -77.01529133333334, "fusion_lon": 0.0, "is_disabled": 0, "fusion_lat": 0.0, "bike_id": "32b78aaa9f7418d5dd97b67c2346f932", "rental_uris": {"ios": "https://dc.lft.to/lastmile_qr_scan", "android": "https://dc.lft.to/lastmile_qr_scan"}}, {"name": "84625b05682f6d9d3cbd3832001b65f9", "type": "electric_scooter", "lat": 38.901517166666665, "is_reserved": 0, "lon": -77.0438585, "fusion_lon": 0.0, "is_disabled": 0, "fusion_lat": 0.0, "bike_id": "84625b05682f6d9d3cbd3832001b65f9", "rental_uris": {"ios": "https://dc.lft.to/lastmile_qr_scan", "android": "https://dc.lft.to/lastmile_qr_scan"}}, {"name": "92d6aadba468ca0c26b524b26e8194c6", "type": "electric_scooter", "lat": 38.892309833333336, "is_reserved": 0, "lon": -77.02208783333333, "fusion_lon": 0.0, "is_disabled": 0, "fusion_lat": 0.0, "bike_id": "92d6aadba468ca0c26b524b26e8194c6", "rental_uris": {"ios": "https://dc.lft.to/lastmile_qr_scan", "android": "https://dc.lft.to/lastmile_qr_scan"}}, {"name": "3d36041aead158e26d2aba6cdae1b540", "type": "electric_scooter", "lat": 38.905382833333334, "is_reserved": 0, "lon": -77.05908083333334, "fusion_lon": 0.0, "is_disabled": 0, "fusion_lat": 0.0, "bike_id": "3d36041aead158e26d2aba6cdae1b540", "rental_uris": {"ios": "https://dc.lft.to/lastmile_qr_scan", "android": "https://dc.lft.to/lastmile_qr_scan"}}, {"name": "e3c8c4b00adcff1c718fab6bb08f2ee2", "type": "electric_scooter", "lat": 38.900125, "is_reserved": 0, "lon": -77.01110183333333, "fusion_lon": 0.0, "is_disabled": 0, "fusion_lat": 0.0, "bike_id": "e3c8c4b00adcff1c718fab6bb08f2ee2", "rental_uris": {"ios": "https://dc.lft.to/lastmile_qr_scan", "android": "https://dc.lft.to/lastmile_qr_scan"}}, {"name": "e5e99940d9bae6dbf908312b683c663c", "type": "electric_bike", "lat": 38.9909105, "is_reserved": 0, "lon": -76.874984, "fusion_lon": 0.0, "is_disabled": 0, "fusion_lat": 0.0, "bike_id": "e5e99940d9bae6dbf908312b683c663c", "rental_uris": {"ios": "https://dc.lft.to/lastmile_qr_scan", "android": "https://dc.lft.to/lastmile_qr_scan"}}, {"name": "7e463e267f6dabcc20ec77ea7fa2b3d6", "type": "electric_scooter", "lat": 38.924435833333334, "is_reserved": 0, "lon": -77.03353966666667, "fusion_lon": 0.0, "is_disabled": 0, "fusion_lat": 0.0, "bike_id": "7e463e267f6dabcc20ec77ea7fa2b3d6", "rental_uris": {"ios": "https://dc.lft.to/lastmile_qr_scan", "android": "https://dc.lft.to/lastmile_qr_scan"}}, {"name": "f8c0ba77f265879e652a9e0015c0accb", "type": "electric_scooter", "lat": 38.90592566666667, "is_reserved": 0, "lon": -77.04882083333334, "fusion_lon": 0.0, "is_disabled": 0, "fusion_lat": 0.0, "bike_id": "f8c0ba77f265879e652a9e0015c0accb", "rental_uris": {"ios": "https://dc.lft.to/lastmile_qr_scan", "android": "https://dc.lft.to/lastmile_qr_scan"}}, {"name": "65f0c37d9ac6a6297b8d8f62a90cac00", "type": "electric_scooter", "lat": 38.896209999999996, "is_reserved": 0, "lon": -77.02587033333333, "fusion_lon": 0.0, "is_disabled": 0, "fusion_lat": 0.0, "bike_id": "65f0c37d9ac6a6297b8d8f62a90cac00", "rental_uris": {"ios": "https://dc.lft.to/lastmile_qr_scan", "android": "https://dc.lft.to/lastmile_qr_scan"}},