{"data": {"bikes": [{"name": "2f03028e28f0f5e8e663ee2e98eacd29", "type": "electric_scooter", "lat": 38.917975166666665, "is_reserved": 0, "lon": -77.02709916666667, "fusion_lon": 0.0, "is_disabled": 0, "fusion_lat": 0.0, "bike_id": "2f03028e28f0f5e8e663ee2e98eacd29", "rental_uris": {"ios": "https://dc.lft.to/lastmile_qr_scan", "android": "https://dc.lft.to/lastmile_qr_scan"}}, {"name": "9bc1724d24787da951a44e92d5f93a78", "type": "electric_scooter", "lat": 38.94076483333333, "is_reserved": 0, "lon": -77.02708466666667, "fusion_lon": 0.0, "is_disabled": 0, "fusion_lat": 0.0, "bike_id": "9bc1724d24787da951a44e92d5f93a78", "rental_uris": {"ios": "https://dc.lft.to/lastmile_qr_scan", "android": "https://dc.lft.to/lastmile_qr_scan"}}, {"name": "ec367463efc3d84d79ebdb92a59e4538", "type": "electric_scooter", "lat": 38.929521, "is_reserved": 0, "lon": -77.03468583333333, "fusion_lon": 0.0, "is_disabled": 0, "fusion_lat": 0.0, "bike_id": "ec367463efc3d84d79ebdb92a59e4538", "rental_uris": {"ios": "https://dc.lft.to/lastmile_qr_scan", "android": "https://dc.lft.to/lastmile_qr_scan"}}, {"name": "3b020a4c6341284a0cfea349e08f87b7", "type": "electric_scooter", "lat": 38.883384166666666, "is_reserved": 0, "lon": -77.01755733333333, "fusion_lon": 0.0, "is_disabled": 0, "fusion_lat": 0.0, "bike_id": "3b020a4c6341284a0cfea349e08f87b7", "rental_uris": {"ios": "https://dc.lft.to/lastmile_qr_scan", "android": "https://dc.lft.to/lastmile_qr_scan"}}, {"name": "ec3a1887da80a88bb01ee4f1f68030fe", "type": "electric_scooter", "lat": 38.91311783333333, "is_reserved": 0, "lon": -77.04485133333333, "fusion_lon": 0.0, "is_disabled": 0, "fusion_lat": 0.0, "bike_id": "ec3a1887da80a88bb01ee4f1f68030fe", "rental_uris": {"ios": "https://dc.lft.to/lastmile_qr_scan", "android": "https://dc.lft.to/lastmile_qr_scan"}}, {"name": "58b121501a1406ab233f379a85e82aa8", "type": "electric_scooter", "lat": 38.93847866666667, "is_reserved": 0, "lon": -77.0247455, "fusion_lon": 0.0, "is_disabled": 0, "fusion_lat": 0.0, "bike_id": "58b121501a1406ab233f379a85e82aa8", "rental_uris": {"ios": "https://dc.lft.to/lastmile_qr_scan", "android": "https://dc.lft.to/lastmile_qr_scan"}}, {"name": "73a20d689a1205d3978499f4384f6a47", "type": "electric_scooter", "lat": 38.907287333333336, "is_reserved": 0, "lon": -77.03080183333333, "fusion_lon": 0.0, "is_disabled": 0, "fusion_lat": 0.0, "bike_id": "73a20d689a1205d3978499f4384f6a47", "rental_uris": {"ios": "https://dc.lft.to/lastmile_qr_scan", "android": "https://dc.lft.to/lastmile_qr_scan"}}, {"name": "9847fdead9ec7529c480efd098316d04", "type": "electric_scooter", "lat": 38.9476835, "is_reserved": 0, "lon": -77.06540666666666, "fusion_lon": 0.0, "is_disabled": 0, "fusion_lat": 0.0, "bike_id": "9847fdead9ec7529c480efd098316d04", "rental_uris": {"ios": "https://dc.lft.to/lastmile_qr_scan", "android": "https://dc.lft.to/lastmile_qr_scan"}}, {"name": "8311aa230e44c7c184d5b1cd16928dd3", "type": "electric_scooter", "lat": 38.911869, "is_reserved": 0, "lon": -77.00552666666667, "fusion_lon": 0.0, "is_disabled": 0, "fusion_lat": 0.0, "bike_id": "8311aa230e44c7c184d5b1cd16928dd3", "rental_uris": {"ios": "https://dc.lft.to/lastmile_qr_scan", "android": "https://dc.lft.to/lastmile_qr_scan"}}, {"name": "ee3240911fde03c3a069765ee37f6952", "type": "electric_scooter", "lat": 38.9234495, "is_reserved": 0, "lon": -77.03524683333333, "fusion_lon": 0.0, "is_disabled": 0, "fusion_lat": 0.0, "bike_id": "ee3240911fde03c3a069765ee37f6952", "rental_uris": {"ios": "https://dc.lft.to/lastmile_qr_scan", "android": "https://dc.lft.to/lastmile_qr_scan"}}, {"name": "dafc39b8ededbd2f8811fa14eebf9488", "type": "electric_scooter", "lat": 38.93945216666667, "is_reserved": 0, "lon": -77.032734, "fusion_lon": 0.0, "is_disabled": 0, "fusion_lat": 0.0, "bike_id": "dafc39b8ededbd2f8811fa14eebf9488", "rental_uris": {"ios": "https://dc.lft.to/lastmile_qr_scan", "android": "https://dc.lft.to/lastmile_qr_scan"}}, {"name": "fc21f8471e8ddd043eb7b43444fa72f6", "type": "electric_scooter", "lat": 38.9397435, "is_reserved": 0, "lon": -77.03264116666666, "fusion_lon": 0.0, "is_disabled": 0, "fusion_lat": 0.0, "bike_id": "fc21f8471e8ddd043eb7b43444fa72f6", "rental_uris": {"ios": "https://dc.lft.to/lastmile_qr_scan", "android": "https://dc.lft.to/lastmile_qr_scan"}}, {"name": "2ecbc015315849bc27ad7d1d6ee6c7fe", "type": "electric_scooter", "lat": 38.88112, "is_reserved": 0, "lon": -76.99948516666667, "fusion_lon": 0.0, "is_disabled": 0, "fusion_lat": 0.0, "bike_id": "2ecbc015315849bc27ad7d1d6ee6c7fe", "rental_uris": {"ios": "https://dc.lft.to/lastmile_qr_scan", "android": "https://dc.lft.to/lastmile_qr_scan"}}, {"name": "3283bb128c89fe2c9f21bf2f2ba3a24a", "type": "electric_scooter", "lat": 38.853229666666664, "is_reserved": 0, "lon": -76.980083, "fusion_lon": 0.0, "is_disabled": 0, "fusion_lat": 0.0, "bike_id": "3283bb128c89fe2c9f21bf2f2ba3a24a", "rental_uris": {"ios": "https://dc.lft.to/lastmile_qr_scan", "android": "https://dc.lft.to/lastmile_qr_scan"}}, {"name": "e018c0c54a44ee21410936fb5ff43a6f", "type": "electric_bike", "lat": 38.9906495, "is_reserved": 0, "lon": -77.10033416666667, "fusion_lon": 0.0, "is_disabled": 0, "fusion_lat": 0.0, "bike_id": "e018c0c54a44ee21410936fb5ff43a6f", "rental_uris": {"ios": "https://dc.lft.to/lastmile_qr_scan", "android": "https://dc.lft.to/lastmile_qr_scan"}}, {"name": "7ec5bfd2368c6ef00fa782caa80d36c0", "type": "electric_scooter", "lat": 38.87650033333333, "is_reserved": 0, "lon": -76.9650955, "fusion_lon": 0.0, "is_disabled": 0, "fusion_lat": 0.0, "bike_id": "7ec5bfd2368c6ef00fa782caa80d36c0", "rental_uris": {"ios": "https://dc.lft.to/lastmile_qr_scan", "android": "https://dc.lft.to/lastmile_qr_scan"}}, {"name": "7d1b58f217e26920a4bea9456701a142", "type": "electric_bike", "lat": 38.82877833333333, "is_reserved": 0, "lon": -77.11215933333334, "fusion_lon": 0.0, "is_disabled": 0, "fusion_lat": 0.0, "bike_id": "7d1b58f217e26920a4bea9456701a142", "rental_uris": {"ios": "https://dc.lft.to/lastmile_qr_scan", "android": "https://dc.lft.to/lastmile_qr_scan"}}, {"name": "d96c725247e5f5fa2d6f962551a0d87a", "type": "electric_scooter", "lat": 38.92438966666667, "is_reserved": 0, "lon": -77.03352283333334, "fusion_lon": 0.0, "is_disabled": 0, "fusion_lat": 0.0, "bike_id": "d96c725247e5f5fa2d6f962551a0d87a", "rental_uris": {"ios": "https://dc.lft.to/lastmile_qr_scan", "android": "https://dc.lft.to/lastmile_qr_scan"}}, {"name": "fd17d3d4e209e323dce1754cda9e6f6a", "type": "electric_scooter", "lat": 38.866794166666665, "is_reserved": 0, "lon": -76.9845175, "fusion_lon": 0.0, "is_disabled": 0, "fusion_lat": 0.0, "bike_id": "fd17d3d4e209e323dce1754cda9e6f6a", "rental_uris": {"ios": "https://dc.lft.to/lastmile_qr_scan", "android": "https://dc.lft.to/lastmile_qr_scan"}}, {"name": "9e9891923df0214abbdb43af947992c6", "type": "electric_scooter", "lat": 38.905895, "is_reserved": 0, "lon": -77.0486835, "fusion_lon": 0.0, "is_disabled": 0, "fusion_lat": 0.0, "bike_id": "9e9891923df0214abbdb43af947992c6", "rental_uris": {"ios": "https://dc.lft.to/lastmile_qr_scan", "android": "https://dc.lft.to/lastmile_qr_scan"}}, {"name": "7af2cc7ed7a6ca4920b433b8ed51c2f3", "type": "electric_scooter", "lat": 38.900253166666666, "is_reserved": 0, "lon": -77.00193916666667, "fusion_lon": 0.0, "is_disabled": 0, "fusion_lat": 0.0, "bike_id": "7af2cc7ed7a6ca4920b433b8ed51c2f3", "rental_uris": {"ios": "https://dc.lft.to/lastmile_qr_scan", "android": "https://dc.lft.to/lastmile_qr_scan"}}, {"name": "210ed32f03046f02a4ef65c39ab8058f", "type": "electric_scooter", "lat": 38.917171833333335, "is_reserved": 0, "lon": -77.038593, "fusion_lon": 0.0, "is_disabled": 0, "fusion_lat": 0.0, "bike_id": "210ed32f03046f02a4ef65c39ab8058f", "rental_uris": {"ios": "https://dc.lft.to/lastmile_qr_scan", "android": "https://dc.lft.to/lastmile_qr_scan"}}, {"name": "0f1941fbe704947cc504f24bb26be996", "type": "electric_scooter", "lat": 38.9190205, "is_reserved": 0, "lon": -77.03128383333333, "fusion_lon": 0.0, "is_disabled": 0, "fusion_lat": 0.0, "bike_id": "0f1941fbe704947cc504f24bb26be996", "rental_uris": {"ios": "https://dc.lft.to/lastmile_qr_scan", "android": "https://dc.lft.to/lastmile_qr_scan"}}, {"name": "a9f9977257068bc8e3f1a10ca59b03c3", "type": "electric_scooter", "lat": 38.89232666666667, "is_reserved": 0, "lon": -77.02206366666667, "fusion_lon": 0.0, "is_disabled": 0, "fusion_lat": 0.0, "bike_id": "a9f9977257068bc8e3f1a10ca59b03c3", "rental_uris": {"ios": "https://dc.lft.to/lastmile_qr_scan", "android": "https://dc.lft.to/lastmile_qr_scan"}}, {"name": "d2d17cf4b31de818b524890bcc9ebee3", "type": "electric_scooter", "lat": 38.905375166666666, "is_reserved": 0, "lon": -77.059301, "fusion_lon": 0.0, "is_disabled": 0, "fusion_lat": 0.0, "bike_id": "d2d17cf4b31de818b524890bcc9ebee3", "rental_uris": {"ios": "https://dc.lft.to/lastmile_qr_scan", "android": "https://dc.lft.to/lastmile_qr_scan"}}, {"name": "4c1a400a9ede73a0ecd6ae8ca925f865", "type": "electric_scooter", "lat": 38.88413716666667, "is_reserved": 0, "lon": -77.01537416666666, "fusion_lon": 0.0, "is_disabled": 0, "fusion_lat": 0.0, "bike_id": "4c1a400a9ede73a0ecd6ae8ca925f865", "rental_uris": {"ios": "https://dc.lft.to/lastmile_qr_scan", "android": "https://dc.lft.to/lastmile_qr_scan"}}, {"name": "5e52155384816008ae5f1a99595c4c4f", "type": "electric_bike", "lat": 38.990910166666666, "is_reserved": 0, "lon": -76.87497766666667, "fusion_lon": 0.0, "is_disabled": 0, "fusion_lat": 0.0, "bike_id": "5e52155384816008ae5f1a99595c4c4f", "rental_uris": {"ios": "https://dc.lft.to/lastmile_qr_scan", "android": "https://dc.lft.to/lastmile_qr_scan"}}, {"name": "193a36df3857520710d08d73e3919314", "type": "electric_scooter", "lat": 38.87638466666667, "is_reserved": 0, "lon": -77.00920383333333, "fusion_lon": 0.0, "is_disabled": 0, "fusion_lat": 0.0, "bike_id": "193a36df3857520710d08d73e3919314", "rental_uris": {"ios": "https://dc.lft.to/lastmile_qr_scan", "android": "https://dc.lft.to/lastmile_qr_scan"}}, {"name": "fc5c3d35c2193eb6ad237fe5c1457659", "type": "electric_scooter", "lat": 38.92487083333333, "is_reserved": 0, "lon": -77.03782916666667, "fusion_lon": 0.0, "is_disabled": 0, "fusion_lat": 0.0, "bike_id": "fc5c3d35c2193eb6ad237fe5c1457659", "rental_uris": {"ios": "https://dc.lft.to/lastmile_qr_scan", "android": "https://dc.lft.to/lastmile_qr_scan"}}, {"name": "50523836de3bd86e21a8e8bb5962c4f0", "type": "electric_scooter", "lat": 38.922339666666666, "is_reserved": 0, "lon": -77.038846, "fusion_lon": 0.0, "is_disabled": 0, "fusion_lat": 0.0, "bike_id": "50523836de3bd86e21a8e8bb5962c4f0", "rental_uris": {"ios": "https://dc.lft.to/lastmile_qr_scan", "android": "https://dc.lft.to/lastmile_qr_scan"}}, {"name": "c95e8a40da926aec1cb1bf7c68ce3396", "type": "electric_bike", "lat": 38.89767883333333, "is_reserved": 0, "lon": -76.90440716666667, "fusion_lon": 0.0, "is_disabled": 0, "fusion_lat": 0.0, "bike_id": "c95e8a40da926aec1cb1bf7c68ce3396", "rental_uris": {"ios": "https://dc.lft.to/lastmile_qr_scan", "android": "https://dc.lft.to/lastmile_qr_scan"}}, {"name": "8bbbc9486b82354f0acce706511d6a3d", "type": "electric_scooter", "lat": 38.916762, "is_reserved": 0, "lon": -77.02975383333333, "fusion_lon": 0.0, "is_disabled": 0, "fusion_lat": 0.0, "bike_id": "8bbbc9486b82354f0acce706511d6a3d", "rental_uris": {"ios": "https://dc.lft.to/lastmile_qr_scan", "android": "https://dc.lft.to/lastmile_qr_scan"}}, {"name": "56b1209a665131303dff79a68f4d59a2", "type": "electric_scooter", "lat": 38.89764383333333, "is_reserved": 0, "lon": -77.02691566666667, "fusion_lon": 0.0, "is_disabled": 0, "fusion_lat": 0.0, "bike_id": "56b1209a665131303dff79a68f4d59a2", "rental_uris": {"ios": "https://dc.lft.to/lastmile_qr_scan", "android": "https://dc.lft.to/lastmile_qr_scan"}}, {"name": "d6c08485a4cd59cc82f11449b6359765", "type": "electric_scooter", "lat": 38.86701516666667, "is_reserved": 0, "lon": -76.987101, "fusion_lon": 0.0, "is_disabled": 0, "fusion_lat": 0.0, "bike_id": "d6c08485a4cd59cc82f11449b6359765", "rental_uris": {"ios": "https://dc.lft.to/lastmile_qr_scan", "android": "https://dc.lft.to/lastmile_qr_scan"}}, {"name": "29681923d7d67c83faa284af38212b1b", "type": "electric_scooter", "lat": 38.93244933333333, "is_reserved": 0, "lon": -77.0294845, "fusion_lon": 0.0, "is_disabled": 0, "fusion_lat": 0.0, "bike_id": "29681923d7d67c83faa284af38212b1b", "rental_uris": {"ios": "https://dc.lft.to/lastmile_qr_scan", "android": "https://dc.lft.to/lastmile_qr_scan"}}, {"name": "9962b6aaacd6459404be082f036244b8", "type": "electric_scooter", "lat": 38.90237466666667, "is_reserved": 0, "lon": -77.0220135, "fusion_lon": 0.0, "is_disabled": 0, "fusion_lat": 0.0, "bike_id": "9962b6aaacd6459404be082f036244b8", "rental_uris": {"ios": "https://dc.lft.to/lastmile_qr_scan", "android": "https://dc.lft.to/lastmile_qr_scan"}}, {"name": "2d3f3abfa819b73e70bd3b37b5f3432c", "type": "electric_bike", "lat": 38.94626066666667, "is_reserved": 0, "lon": -76.94629683333334, "fusion_lon": 0.0, "is_disabled": 0, "fusion_lat": 0.0, "bike_id": "2d3f3abfa819b73e70bd3b37b5f3432c", "rental_uris": {"ios": "https://dc.lft.to/lastmile_qr_scan", "android": "https://dc.lft.to/lastmile_qr_scan"}}, {"name": "bc5ad73cd319d54a6aa6b52e08f01e6a", "type": "electric_scooter", "lat": 38.931232, "is_reserved": 0, "lon": -77.03605816666666, "fusion_lon": 0.0, "is_disabled": 0, "fusion_lat": 0.0, "bike_id": "bc5ad73cd319d54a6aa6b52e08f01e6a", "rental_uris": {"ios": "https://dc.lft.to/lastmile_qr_scan", "android": "https://dc.lft.to/lastmile_qr_scan"}}, {"name": "99613c476ace43f05dc55b3416127de5", "type": "electric_scooter", "lat": 38.906529666666664, "is_reserved": 0, "lon": -77.02972316666667, "fusion_lon": 0.0, "is_disabled": 0, "fusion_lat": 0.0, "bike_id": "99613c476ace43f05dc55b3416127de5", "rental_uris": {"ios": "https://dc.lft.to/lastmile_qr_scan", "android": "https://dc.lft.to/lastmile_qr_scan"}}, {"name": "bd65c55b1d76cd8fd0110ba749cc12a0", "type": "electric_scooter", "lat": 38.89683266666667, "is_reserved": 0, "lon": -77.011629, "fusion_lon": 0.0, "is_disabled": 0, "fusion_lat": 0.0, "bike_id": "bd65c55b1d76cd8fd0110ba749cc12a0", "rental_uris": {"ios": "https://dc.lft.to/lastmile_qr_scan", "android": "https://dc.lft.to/lastmile_qr_scan"}}, {"name": "ae9aca039ed592bc9c769a2eb99bac62", "type": "electric_scooter", "lat": 38.89942683333334, "is_reserved": 0, "lon": -77.03184483333334, "fusion_lon": 0.0, "is_disabled": 0, "fusion_lat": 0.0, "bike_id": "ae9aca039ed592bc9c769a2eb99bac62", "rental_uris": {"ios": "https://dc.lft.to/lastmile_qr_scan", "android": "https://dc.lft.to/lastmile_qr_scan"}}, {"name": "c553079438ae478edc50f6f305b1ceae", "type": "electric_scooter", "lat": 38.92270633333333, "is_reserved": 0, "lon": -77.03409216666667, "fusion_lon": 0.0, "is_disabled": 0, "fusion_lat": 0.0, "bike_id": "c553079438ae478edc50f6f305b1ceae", "rental_uris": {"ios": "https://dc.lft.to/lastmile_qr_scan", "android": "https://dc.lft.to/lastmile_qr_scan"}}, {"name": "f57d5f2c60eff1b9e2e9467118bc5d29", "type": "electric_scooter", "lat": 38.870877666666665, "is_reserved": 0, "lon": -77.01210866666666, "fusion_lon": 0.0, "is_disabled": 0, "fusion_lat": 0.0, "bike_id": "f57d5f2c60eff1b9e2e9467118bc5d29", "rental_uris": {"ios": "https://dc.lft.to/lastmile_qr_scan", "android": "https://dc.lft.to/lastmile_qr_scan"}}, {"name": "f15c36532ba2d9ad59f8b29d9b944bf3", "type": "electric_scooter", "lat": 38.934490833333335, "is_reserved": 0, "lon": -77.02845683333334, "fusion_lon": 0.0, "is_disabled": 0, "fusion_lat": 0.0, "bike_id": "f15c36532ba2d9ad59f8b29d9b944bf3", "rental_uris": {"ios": "https://dc.lft.to/lastmile_qr_scan", "android": "https://dc.lft.to/lastmile_qr_scan"}}, {"name": "f4a152cb09a48ad142b7fbc4b07bc80f", "type": "electric_scooter", "lat": 38.89891316666667, "is_reserved": 0, "lon": -76.99142816666667, "fusion_lon": 0.0, "is_disabled": 0, "fusion_lat": 0.0, "bike_id": "f4a152cb09a48ad142b7fbc4b07bc80f", "rental_uris": {"ios": "https://dc.lft.to/lastmile_qr_scan", "android": "https://dc.lft.to/lastmile_qr_scan"}}, {"name": "2ab64c5c6a86e61bda3f82bb26cb54aa", "type": "electric_scooter", "lat": 38.9047555, "is_reserved": 0, "lon": -77.04191716666666, "fusion_lon": 0.0, "is_disabled": 0, "fusion_lat": 0.0, "bike_id": "2ab64c5c6a86e61bda3f82bb26cb54aa", "rental_uris": {"ios": "https://dc.lft.to/lastmile_qr_scan", "android": "https://dc.lft.to/lastmile_qr_scan"}}, {"name": "1dcc1a102c85d268c7b57e6d16876952", "type": "electric_scooter", "lat": 38.887174333333334, "is_reserved": 0, "lon": -77.0178025, "fusion_lon": 0.0, "is_disabled": 0, "fusion_lat": 0.0, "bike_id": "1dcc1a102c85d268c7b57e6d16876952", "rental_uris": {"ios": "https://dc.lft.to/lastmile_qr_scan", "android": "https://dc.lft.to/lastmile_qr_scan"}}, {"name": "b4b6e991420d4bf3fa040c8eb6dadd34", "type": "electric_scooter", "lat": 38.92861416666667, "is_reserved": 0, "lon": -77.02612683333334, "fusion_lon": 0.0, "is_disabled": 0, "fusion_lat": 0.0, "bike_id": "b4b6e991420d4bf3fa040c8eb6dadd34", "rental_uris": {"ios": "https://dc.lft.to/lastmile_qr_scan", "android": "https://dc.lft.to/lastmile_qr_scan"}}, {"name": "8fe5b554255b9d0bfd80ebc11236d764", "type": "electric_scooter", "lat": 38.93536183333333, "is_reserved": 0, "lon": -77.0332665, "fusion_lon": 0.0, "is_disabled": 0, "fusion_lat": 0.0, "bike_id": "8fe5b554255b9d0bfd80ebc11236d764", "rental_uris": {"ios": "https://dc.lft.to/lastmile_qr_scan", "android": "https://dc.lft.to/lastmile_qr_scan"}}, {"name": "03abb4748d7c98f3cf1f2bb17a6f035e", "type": "electric_bike", "lat": 38.85247483333333, "is_reserved": 0, "lon": -77.114309, "fusion_lon": 0.0, "is_disabled": 0, "fusion_lat": 0.0, "bike_id": "03abb4748d7c98f3cf1f2bb17a6f035e", "rental_uris": {"ios": "https://dc.lft.to/lastmile_qr_scan", "android": "https://dc.lft.to/lastmile_qr_scan"}}, {"name": "e256581f65f612cf5a9e9afcfcdd0359", "type": "electric_scooter", "lat": 38.88397466666667, "is_reserved": 0, "lon": -77.019886, "fusion_lon": 0.0, "is_disabled": 0, "fusion_lat": 0.0, "bike_id": "e256581f65f612cf5a9e9afcfcdd0359", "rental_uris": {"ios": "https://dc.lft.to/lastmile_qr_scan", "android": "https://dc.lft.to/lastmile_qr_scan"}}, {"name": "fd68eeff03447a8f85c2cd8774a9cea3", "type": "electric_scooter", "lat": 38.90110583333333, "is_reserved": 0, "lon": -77.0497895, "fusion_lon": 0.0, "is_disabled": 0, "fusion_lat": 0.0, "bike_id": "fd68eeff03447a8f85c2cd8774a9cea3", "rental_uris": {"ios": "https://dc.lft.to/lastmile_qr_scan", "android": "https://dc.lft.to/lastmile_qr_scan"}}, {"name": "e5ba57078bd75eb4d806fecc4dd1bdce", "type": "electric_scooter", "lat": 38.91911983333333, "is_reserved": 0, "lon": -77.03013833333333, "fusion_lon": 0.0, "is_disabled": 0, "fusion_lat": 0.0, "bike_id": "e5ba57078bd75eb4d806fecc4dd1bdce", "rental_uris": {"ios": "https://dc.lft.to/lastmile_qr_scan", "android": "https://dc.lft.to/lastmile_qr_scan"}}, {"name": "80b09cc89792e80686e5a2312182c657", "type": "electric_scooter", "lat": 38.89949766666667, "is_reserved": 0, "lon": -77.02983883333333, "fusion_lon": 0.0, "is_disabled": 0, "fusion_lat": 0.0, "bike_id": "80b09cc89792e80686e5a2312182c657", "rental_uris": {"ios": "https://dc.lft.to/lastmile_qr_scan", "android": "https://dc.lft.to/lastmile_qr_scan"}}, {"name": "e3e826ba986d5a6b20c2bb32ad41eaea", "type": "electric_scooter", "lat": 38.922372833333334, "is_reserved": 0, "lon": -77.0425255, "fusion_lon": 0.0, "is_disabled": 0, "fusion_lat": 0.0, "bike_id": "e3e826ba986d5a6b20c2bb32ad41eaea", "rental_uris": {"ios": "https://dc.lft.to/lastmile_qr_scan", "android": "https://dc.lft.to/lastmile_qr_scan"}}, {"name": "750d7f3f5c9e6323c89f5f4a392400b0", "type": "electric_scooter", "lat": 38.90284033333333, "is_reserved": 0, "lon": -77.03843433333333, "fusion_lon": 0.0, "is_disabled": 0, "fusion_lat": 0.0, "bike_id": "750d7f3f5c9e6323c89f5f4a392400b0", "rental_uris": {"ios": "https://dc.lft.to/lastmile_qr_scan", "android": "https://dc.lft.to/lastmile_qr_scan"}}, {"name": "e696458807092d9afb7d0618b5abe63e", "type": "electric_scooter", "lat": 38.84294416666667, "is_reserved": 0, "lon": -76.9994885, "fusion_lon": 0.0, "is_disabled": 0, "fusion_lat": 0.0, "bike_id": "e696458807092d9afb7d0618b5abe63e", "rental_uris": {"ios": "https://dc.lft.to/lastmile_qr_scan", "android": "https://dc.lft.to/lastmile_qr_scan"}}, {"name": "18673391b23f92a3804aa5fd536e0e78", "type": "electric_scooter", "lat": 38.921143, "is_reserved": 0, "lon": -77.0365565, "fusion_lon": 0.0, "is_disabled": 0, "fusion_lat": 0.0, "bike_id": "18673391b23f92a3804aa5fd536e0e78", "rental_uris": {"ios": "https://dc.lft.to/lastmile_qr_scan", "android": "https://dc.lft.to/lastmile_qr_scan"}}, {"name": "18d63ae20bc54f0d3ed86fc1336f29c3", "type": "electric_scooter", "lat": 38.9672545, "is_reserved": 0, "lon": -77.02346166666666, "fusion_lon": 0.0, "is_disabled": 0, "fusion_lat": 0.0, "bike_id": "18d63ae20bc54f0d3ed86fc1336f29c3", "rental_uris": {"ios": "https://dc.lft.to/lastmile_qr_scan", "android": "https://dc.lft.to/lastmile_qr_scan"}}, {"name": "3f13a658f765998ea3184a457c993d77", "type": "electric_bike", "lat": 38.865955666666665, "is_reserved": 0, "lon": -76.93227066666667, "fusion_lon": 0.0, "is_disabled": 0, "fusion_lat": 0.0, "bike_id": "3f13a658f765998ea3184a457c993d77", "rental_uris": {"ios": "https://dc.lft.to/lastmile_qr_scan", "android": "https://dc.lft.to/lastmile_qr_scan"}}, {"name": "138e60acac5472392abb3c6e034c4e1b", "type": "electric_scooter", "lat": 38.92489483333333, "is_reserved": 0, "lon": -77.027182, "fusion_lon": 0.0, "is_disabled": 0, "fusion_lat": 0.0, "bike_id": "138e60acac5472392abb3c6e034c4e1b", "rental_uris": {"ios": "https://dc.lft.to/lastmile_qr_scan", "android": "https://dc.lft.to/lastmile_qr_scan"}}, {"name": "0b340dd65c24de9a60dccfcf7204dd23", "type": "electric_bike", "lat": 38.9845065, "is_reserved": 0, "lon": -76.95529, "fusion_lon": 0.0, "is_disabled": 0, "fusion_lat": 0.0, "bike_id": "0b340dd65c24de9a60dccfcf7204dd23", "rental_uris": {"ios": "https://dc.lft.to/lastmile_qr_scan", "android": "https://dc.lft.to/lastmile_qr_scan"}}, {"name": "9d940225c5e5149ce07e387400559249", "type": "electric_scooter", "lat": 38.883159666666664, "is_reserved": 0, "lon": -77.01755333333334, "fusion_lon": 0.0, "is_disabled": 0, "fusion_lat": 0.0, "bike_id": "9d940225c5e5149ce07e387400559249", "rental_uris": {"ios": "https://dc.lft.to/lastmile_qr_scan", "android": "https://dc.lft.to/lastmile_qr_scan"}}, {"name": "3d1077aa3bdaa8e0776ac5f38cdd4170", "type": "electric_bike", "lat": 38.8323485, "is_reserved": 0, "lon": -77.00730066666667, "fusion_lon": 0.0, "is_disabled": 0, "fusion_lat": 0.0, "bike_id": "3d1077aa3bdaa8e0776ac5f38cdd4170", "rental_uris": {"ios": "https://dc.lft.to/lastmile_qr_scan", "android": "https://dc.lft.to/lastmile_qr_scan"}}, {"name": "8485d512a4e8dfbd3c80c8eb35ec8218", "type": "electric_scooter", "lat": 38.939479, "is_reserved": 0, "lon": -77.032743, "fusion_lon": 0.0, "is_disabled": 0, "fusion_lat": 0.0, "bike_id": "8485d512a4e8dfbd3c80c8eb35ec8218", "rental_uris": {"ios": "https://dc.lft.to/lastmile_qr_scan", "android": "https://dc.lft.to/lastmile_qr_scan"}}, {"name": "302e9755e42fc5ab86c7a102f8a8305a", "type": "electric_scooter", "lat": 38.8835265, "is_reserved": 0, "lon": -76.985586, "fusion_lon": 0.0, "is_disabled": 0, "fusion_lat": 0.0, "bike_id": "302e9755e42fc5ab86c7a102f8a8305a", "rental_uris": {"ios": "https://dc.lft.to/lastmile_qr_scan", "android": "https://dc.lft.to/lastmile_qr_scan"}}, {"name": "fb9b92f054a05876a6a0e0c15249faa2", "type": "electric_scooter", "lat": 38.885912, "is_reserved": 0, "lon": -76.95264533333334, "fusion_lon": 0.0, "is_disabled": 0, "fusion_lat": 0.0, "bike_id": "fb9b92f054a05876a6a0e0c15249faa2", "rental_uris": {"ios": "https://dc.lft.to/lastmile_qr_scan", "android": "https://dc.lft.to/lastmile_qr_scan"}}, {"name": "122f1c91d48a0f14db31f313d41a7f56", "type": "electric_scooter", "lat": 38.90262633333333, "is_reserved": 0, "lon": -77.04081183333334, "fusion_lon": 0.0, "is_disabled": 0, "fusion_lat": 0.0, "bike_id": "122f1c91d48a0f14db31f313d41a7f56", "rental_uris": {"ios": "https://dc.lft.to/lastmile_qr_scan", "android": "https://dc.lft.to/lastmile_qr_scan"}}, {"name": "47073c0be0fd125d849469848bb68cd7", "type": "electric_scooter", "lat": 38.92752766666667, "is_reserved": 0, "lon": -77.05374633333334, "fusion_lon": 0.0, "is_disabled": 0, "fusion_lat": 0.0, "bike_id": "47073c0be0fd125d849469848bb68cd7", "rental_uris": {"ios": "https://dc.lft.to/lastmile_qr_scan", "android": "https://dc.lft.to/lastmile_qr_scan"}}, {"name": "b36286658d9ed11551e7790287d48fc6", "type": "electric_bike", "lat": 38.80698133333333, "is_reserved": 0, "lon": -77.05964533333334, "fusion_lon": 0.0, "is_disabled": 0, "fusion_lat": 0.0, "bike_id": "b36286658d9ed11551e7790287d48fc6", "rental_uris": {"ios": "https://dc.lft.to/lastmile_qr_scan", "android": "https://dc.lft.to/lastmile_qr_scan"}}, {"name": "9d16745dec1f8fc168a5f53dce47878b", "type": "electric_scooter", "lat": 38.939512666666666, "is_reserved": 0, "lon": -77.03272916666667, "fusion_lon": 0.0, "is_disabled": 0, "fusion_lat": 0.0, "bike_id": "9d16745dec1f8fc168a5f53dce47878b", "rental_uris": {"ios": "https://dc.lft.to/lastmile_qr_scan", "android": "https://dc.lft.to/lastmile_qr_scan"}}, {"name": "7bff525b1d972ae4d3d72451e9bebe8e", "type": "electric_bike", "lat": 38.8522175, "is_reserved": 0, "lon": -77.12966966666667, "fusion_lon": 0.0, "is_disabled": 0, "fusion_lat": 0.0, "bike_id": "7bff525b1d972ae4d3d72451e9bebe8e", "rental_uris": {"ios": "https://dc.lft.to/lastmile_qr_scan", "android": "https://dc.lft.to/lastmile_qr_scan"}}, {"name": "0fdeca6b5262adc740c9c45da13e4c49", "type": "electric_scooter", "lat": 38.92245916666667, "is_reserved": 0, "lon": -77.03518866666667, "fusion_lon": 0.0, "is_disabled": 0, "fusion_lat": 0.0, "bike_id": "0fdeca6b5262adc740c9c45da13e4c49", "rental_uris": {"ios": "https://dc.lft.to/lastmile_qr_scan", "android": "https://dc.lft.to/lastmile_qr_scan"}}, {"name": "e60cb00668d94f880404238d52bc5dc0", "type": "electric_scooter", "lat": 38.90579283333334, "is_reserved": 0, "lon": -77.06271033333333, "fusion_lon": 0.0, "is_disabled": 0, "fusion_lat": 0.0, "bike_id": "e60cb00668d94f880404238d52bc5dc0", "rental_uris": {"ios": "https://dc.lft.to/lastmile_qr_scan", "android": "https://dc.lft.to/lastmile_qr_scan"}}, {"name": "a7fa7efe5c92f1df6e71bafd8c49931d", "type": "electric_scooter", "lat": 38.89583916666667, "is_reserved": 0, "lon": -76.93721266666667, "fusion_lon": 0.0, "is_disabled": 0, "fusion_lat": 0.0, "bike_id": "a7fa7efe5c92f1df6e71bafd8c49931d", "rental_uris": {"ios": "https://dc.lft.to/lastmile_qr_scan", "android": "https://dc.lft.to/lastmile_qr_scan"}}, {"name": "c106a38c8856161f1b86e0256ca35195", "type": "electric_scooter", "lat": 38.912731, "is_reserved": 0, "lon": -77.06084866666667, "fusion_lon": 0.0, "is_disabled": 0, "fusion_lat": 0.0, "bike_id": "c106a38c8856161f1b86e0256ca35195", "rental_uris": {"ios": "https://dc.lft.to/lastmile_qr_scan", "android": "https://dc.lft.to/lastmile_qr_scan"}}, {"name": "4017756eac59ecc28a32dc01d4a9d623", "type": "electric_scooter", "lat": 38.84295183333333, "is_reserved": 0, "lon": -76.99951766666666, "fusion_lon": 0.0, "is_disabled": 0, "fusion_lat": 0.0, "bike_id": "4017756eac59ecc28a32dc01d4a9d623", "rental_uris": {"ios": "https://dc.lft.to/lastmile_qr_scan", "android": "https://dc.lft.to/lastmile_qr_scan"}}, {"name": "1df6d05d9ec5f1f4c769493470e6ac58", "type": "electric_scooter", "lat": 38.9045125, "is_reserved": 0, "lon": -76.99625, "fusion_lon": 0.0, "is_disabled": 0, "fusion_lat": 0.0, "bike_id": "1df6d05d9ec5f1f4c769493470e6ac58", "rental_uris": {"ios": "https://dc.lft.to/lastmile_qr_scan", "android": "https://dc.lft.to/lastmile_qr_scan"}}, {"name": "b1b11b9b975d548114c5f55362ef1868", "type": "electric_scooter", "lat": 38.9102065, "is_reserved": 0, "lon": -77.00925016666666, "fusion_lon": 0.0, "is_disabled": 0, "fusion_lat": 0.0, "bike_id": "b1b11b9b975d548114c5f55362ef1868", "rental_uris": {"ios": "https://dc.lft.to/lastmile_qr_scan", "android": "https://dc.lft.to/lastmile_qr_scan"}}, {"name": "e379067c68003a727c4055a163dd687a", "type": "electric_scooter", "lat": 38.87833633333334, "is_reserved": 0, "lon": -76.990423, "fusion_lon": 0.0, "is_disabled": 0, "fusion_lat": 0.0, "bike_id": "e379067c68003a727c4055a163dd687a", "rental_uris": {"ios": "https://dc.lft.to/lastmile_qr_scan", "android": "https://dc.lft.to/lastmile_qr_scan"}}, {"name": "11c08cf7f15e3f13bd6f4d3b3201161a", "type": "electric_scooter", "lat": 38.9029815, "is_reserved": 0, "lon": -76.998574, "fusion_lon": 0.0, "is_disabled": 0, "fusion_lat": 0.0, "bike_id": "11c08cf7f15e3f13bd6f4d3b3201161a", "rental_uris": {"ios": "https://dc.lft.to/lastmile_qr_scan", "android": "https://dc.lft.to/lastmile_qr_scan"}}, {"name": "6d9d4741c8c37f01955b34885ea7dc62", "type": "electric_scooter", "lat": 38.917315333333335, "is_reserved": 0, "lon": -77.06831283333334, "fusion_lon": 0.0, "is_disabled": 0, "fusion_lat": 0.0, "bike_id": "6d9d4741c8c37f01955b34885ea7dc62", "rental_uris": {"ios": "https://dc.lft.to/lastmile_qr_scan", "android": "https://dc.lft.to/lastmile_qr_scan"}}, {"name": "2bc118e64186098c37f7af3f6087947d", "type": "electric_scooter", "lat": 38.93491, "is_reserved": 0, "lon": -77.032877, "fusion_lon": 0.0, "is_disabled": 0, "fusion_lat": 0.0, "bike_id": "2bc118e64186098c37f7af3f6087947d", "rental_uris": {"ios": "https://dc.lft.to/lastmile_qr_scan", "android": "https://dc.lft.to/lastmile_qr_scan"}}, {"name": "9774b1c774f851f5cc414433533f5388", "type": "electric_scooter", "lat": 38.9191525, "is_reserved": 0, "lon": -77.01342633333333, "fusion_lon": 0.0, "is_disabled": 0, "fusion_lat": 0.0, "bike_id": "9774b1c774f851f5cc414433533f5388", "rental_uris": {"ios": "https://dc.lft.to/lastmile_qr_scan", "android": "https://dc.lft.to/lastmile_qr_scan"}}, {"name": "67a816216915bf8e4097c140b391d67b", "type": "electric_scooter", "lat": 38.85616783333333, "is_reserved": 0, "lon": -76.9802675, "fusion_lon": 0.0, "is_disabled": 0, "fusion_lat": 0.0, "bike_id": "67a816216915bf8e4097c140b391d67b", "rental_uris": {"ios": "https://dc.lft.to/lastmile_qr_scan", "android": "https://dc.lft.to/lastmile_qr_scan"}}, {"name": "f1b2186531107244ad6c8f247bc53db4", "type": "electric_scooter", "lat": 38.919881, "is_reserved": 0, "lon": -76.99957416666666, "fusion_lon": 0.0, "is_disabled": 0, "fusion_lat": 0.0, "bike_id": "f1b2186531107244ad6c8f247bc53db4", "rental_uris": {"ios": "https://dc.lft.to/lastmile_qr_scan", "android": "https://dc.lft.to/lastmile_qr_scan"}}, {"name": "75d5d0476795672f4d393e8576b952f9", "type": "electric_scooter", "lat": 38.905668166666665, "is_reserved": 0, "lon": -77.00619683333333, "fusion_lon": 0.0, "is_disabled": 0, "fusion_lat": 0.0, "bike_id": "75d5d0476795672f4d393e8576b952f9", "rental_uris": {"ios": "https://dc.lft.to/lastmile_qr_scan", "android": "https://dc.lft.to/lastmile_qr_scan"}}, {"name": "cb53298d8918694e206ef33929eb7be3", "type": "electric_scooter", "lat": 38.93098083333334, "is_reserved": 0, "lon": -77.025111, "fusion_lon": 0.0, "is_disabled": 0, "fusion_lat": 0.0, "bike_id": "cb53298d8918694e206ef33929eb7be3", "rental_uris": {"ios": "https://dc.lft.to/lastmile_qr_scan", "android": "https://dc.lft.to/lastmile_qr_scan"}}, {"name": "d86e6b94c85056d3e91597411f9abd74", "type": "electric_scooter", "lat": 38.907228333333336, "is_reserved": 0, "lon": -76.9861115, "fusion_lon": 0.0, "is_disabled": 0, "fusion_lat": 0.0, "bike_id": "d86e6b94c85056d3e91597411f9abd74", "rental_uris": {"ios": "https://dc.lft.to/lastmile_qr_scan", "android": "https://dc.lft.to/lastmile_qr_scan"}}, {"name": "e2f66de0974c5c8fa5bfa8b29feb4cce", "type": "electric_scooter", "lat": 38.90373483333333, "is_reserved": 0, "lon": -77.0450525, "fusion_lon": 0.0, "is_disabled": 0, "fusion_lat": 0.0, "bike_id": "e2f66de0974c5c8fa5bfa8b29feb4cce", "rental_uris": {"ios": "https://dc.lft.to/lastmile_qr_scan", "android": "https://dc.lft.to/lastmile_qr_scan"}}, {"name": "3e045802e9da61187d07e5a4017906c8", "type": "electric_scooter", "lat": 38.9425105, "is_reserved": 0, "lon": -77.02172433333334, "fusion_lon": 0.0, "is_disabled": 0, "fusion_lat": 0.0, "bike_id": "3e045802e9da61187d07e5a4017906c8", "rental_uris": {"ios": "https://dc.lft.to/lastmile_qr_scan", "android": "https://dc.lft.to/lastmile_qr_scan"}}, {"name": "2cc06bb39522bc071fcb821aae62cdf9", "type": "electric_scooter", "lat": 38.95105616666667, "is_reserved": 0, "lon": -77.01584733333334, "fusion_lon": 0.0, "is_disabled": 0, "fusion_lat": 0.0, "bike_id": "2cc06bb39522bc071fcb821aae62cdf9", "rental_uris": {"ios": "https://dc.lft.to/lastmile_qr_scan", "android": "https://dc.lft.to/lastmile_qr_scan"}}, {"name": "3dba4ea7dd34cbe89491b8dda603082a", "type": "electric_scooter", "lat": 38.913466166666666, "is_reserved": 0, "lon": -77.02085966666667, "fusion_lon": 0.0, "is_disabled": 0, "fusion_lat": 0.0, "bike_id": "3dba4ea7dd34cbe89491b8dda603082a", "rental_uris": {"ios": "https://dc.lft.to/lastmile_qr_scan", "android": "https://dc.lft.to/lastmile_qr_scan"}}, {"name": "ba6e748cef4d531ac94522147f393c64", "type": "electric_scooter", "lat": 38.94014833333333, "is_reserved": 0, "lon": -77.07173066666667, "fusion_lon": 0.0, "is_disabled": 0, "fusion_lat": 0.0, "bike_id": "ba6e748cef4d531ac94522147f393c64", "rental_uris": {"ios": "https://dc.lft.to/lastmile_qr_scan", "android": "https://dc.lft.to/lastmile_qr_scan"}}, {"name": "4d1fd0a14da7ea545ba047e26af16fd5", "type": "electric_scooter", "lat": 38.957322833333336, "is_reserved": 0, "lon": -77.02404683333333, "fusion_lon": 0.0, "is_disabled": 0, "fusion_lat": 0.0, "bike_id": "4d1fd0a14da7ea545ba047e26af16fd5", "rental_uris": {"ios": "https://dc.lft.to/lastmile_qr_scan", "android": "https://dc.lft.to/lastmile_qr_scan"}}, {"name": "398b41e63e02357ef30d16b2d42db748", "type": "electric_scooter", "lat": 38.902785333333334, "is_reserved": 0, "lon": -77.03640116666666, "fusion_lon": 0.0, "is_disabled": 0, "fusion_lat": 0.0, "bike_id": "398b41e63e02357ef30d16b2d42db748", "rental_uris": {"ios": "https://dc.lft.to/lastmile_qr_scan", "android": "https://dc.lft.to/lastmile_qr_scan"}}, {"name": "dbbd55267a2465ba6b97472606d79690", "type": "electric_scooter", "lat": 38.917143833333334, "is_reserved": 0, "lon": -77.0386165, "fusion_lon": 0.0, "is_disabled": 0, "fusion_lat": 0.0, "bike_id": "dbbd55267a2465ba6b97472606d79690", "rental_uris": {"ios": "https://dc.lft.to/lastmile_qr_scan", "android": "https://dc.lft.to/lastmile_qr_scan"}}, {"name": "2ffe57c704806bd541d7fa1827af6a80", "type": "electric_scooter", "lat": 38.903889166666666, "is_reserved": 0, "lon": -77.04037133333334, "fusion_lon": 0.0, "is_disabled": 0, "fusion_lat": 0.0, "bike_id": "2ffe57c704806bd541d7fa1827af6a80", "rental_uris": {"ios": "https://dc.lft.to/lastmile_qr_scan", "android": "https://dc.lft.to/lastmile_qr_scan"}}, {"name": "4d7080659a6598a4c68239e911c89a6a", "type": "electric_scooter", "lat": 38.91698866666667, "is_reserved": 0, "lon": -77.00811383333334, "fusion_lon": 0.0, "is_disabled": 0, "fusion_lat": 0.0, "bike_id": "4d7080659a6598a4c68239e911c89a6a", "rental_uris": {"ios": "https://dc.lft.to/lastmile_qr_scan", "android": "https://dc.lft.to/lastmile_qr_scan"}}, {"name": "dc2a8d833f40ed0e35be38eaceb33fc6", "type": "electric_scooter", "lat": 38.9498875, "is_reserved": 0, "lon": -77.066952, "fusion_lon": 0.0, "is_disabled": 0, "fusion_lat": 0.0, "bike_id": "dc2a8d833f40ed0e35be38eaceb33fc6", "rental_uris": {"ios": "https://dc.lft.to/lastmile_qr_scan", "android": "https://dc.lft.to/lastmile_qr_scan"}}, {"name": "952628be16d76d7d0e9c5457a5e0f544", "type": "electric_scooter", "lat": 38.894755, "is_reserved": 0, "lon": -76.98600616666667, "fusion_lon": 0.0, "is_disabled": 0, "fusion_lat": 0.0, "bike_id": "952628be16d76d7d0e9c5457a5e0f544", "rental_uris": {"ios": "https://dc.lft.to/lastmile_qr_scan", "android": "https://dc.lft.to/lastmile_qr_scan"}}, {"name": "45a2cce3595c90942cb48c059d4282a5", "type": "electric_bike", "lat": 38.850628666666665, "is_reserved": 0, "lon": -76.973298, "fusion_lon": 0.0, "is_disabled": 0, "fusion_lat": 0.0, "bike_id": "45a2cce3595c90942cb48c059d4282a5", "rental_uris": {"ios": "https://dc.lft.to/lastmile_qr_scan", "android": "https://dc.lft.to/lastmile_qr_scan"}}, {"name": "6f2dd3f809c19317e718bb7191433012", "type": "electric_scooter", "lat": 38.93438533333333, "is_reserved": 0, "lon": -77.07253683333333, "fusion_lon": 0.0, "is_disabled": 0, "fusion_lat": 0.0, "bike_id": "6f2dd3f809c19317e718bb7191433012", "rental_uris": {"ios": "https://dc.lft.to/lastmile_qr_scan", "android": "https://dc.lft.to/lastmile_qr_scan"}}, {"name": "fff5ba81f26e445d0272942af68065bb", "type": "electric_scooter", "lat": 38.897299833333335, "is_reserved": 0, "lon": -77.055709, "fusion_lon": 0.0, "is_disabled": 0, "fusion_lat": 0.0, "bike_id": "fff5ba81f26e445d0272942af68065bb", "rental_uris": {"ios": "https://dc.lft.to/lastmile_qr_scan", "android": "https://dc.lft.to/lastmile_qr_scan"}}, {"name": "c6af798f1156694cb9f6bfe21946109d", "type": "electric_scooter", "lat": 38.91681583333333, "is_reserved": 0, "lon": -77.0120885, "fusion_lon": 0.0, "is_disabled": 0, "fusion_lat": 0.0, "bike_id": "c6af798f1156694cb9f6bfe21946109d", "rental_uris": {"ios": "https://dc.lft.to/lastmile_qr_scan", "android": "https://dc.lft.to/lastmile_qr_scan"}}, {"name": "69298ca58fe45c7305e21afc2674f139", "type": "electric_scooter", "lat": 38.896846333333336, "is_reserved": 0, "lon": -76.99629083333333, "fusion_lon": 0.0, "is_disabled": 0, "fusion_lat": 0.0, "bike_id": "69298ca58fe45c7305e21afc2674f139", "rental_uris": {"ios": "https://dc.lft.to/lastmile_qr_scan", "android": "https://dc.lft.to/lastmile_qr_scan"}}, {"name": "fd0bc732b2534dbb277f671b25f7b28f", "type": "electric_scooter", "lat": 38.9409815, "is_reserved": 0, "lon": -77.02111866666667, "fusion_lon": 0.0, "is_disabled": 0, "fusion_lat": 0.0, "bike_id": "fd0bc732b2534dbb277f671b25f7b28f", "rental_uris": {"ios": "https://dc.lft.to/lastmile_qr_scan", "android": "https://dc.lft.to/lastmile_qr_scan"}}, {"name": "bba00c99ee9bd8c5a4d92a8b0f0fdfdf", "type": "electric_scooter", "lat": 38.915707833333336, "is_reserved": 0, "lon": -77.02201416666666, "fusion_lon": 0.0, "is_disabled": 0, "fusion_lat": 0.0, "bike_id": "bba00c99ee9bd8c5a4d92a8b0f0fdfdf", "rental_uris": {"ios": "https://dc.lft.to/lastmile_qr_scan", "android": "https://dc.lft.to/lastmile_qr_scan"}}, {"name": "47a73d682cf486916e3c4c92aafdaf74", "type": "electric_scooter", "lat": 38.89725883333333, "is_reserved": 0, "lon": -77.03268533333333, "fusion_lon": 0.0, "is_disabled": 0, "fusion_lat": 0.0, "bike_id": "47a73d682cf486916e3c4c92aafdaf74", "rental_uris": {"ios": "https://dc.lft.to/lastmile_qr_scan", "android": "https://dc.lft.to/lastmile_qr_scan"}}, {"name": "6ee3aa9075c5edac0feb88cf62b78513", "type": "electric_scooter", "lat": 38.872271833333336, "is_reserved": 0, "lon": -77.01172183333334, "fusion_lon": 0.0, "is_disabled": 0, "fusion_lat": 0.0, "bike_id": "6ee3aa9075c5edac0feb88cf62b78513", "rental_uris": {"ios": "https://dc.lft.to/lastmile_qr_scan", "android": "https://dc.lft.to/lastmile_qr_scan"}}, {"name": "c494ce32bb1e003f2e24719a9b503dc7", "type": "electric_scooter", "lat": 38.9187715, "is_reserved": 0, "lon": -77.04350316666667, "fusion_lon": 0.0, "is_disabled": 0, "fusion_lat": 0.0, "bike_id": "c494ce32bb1e003f2e24719a9b503dc7", "rental_uris": {"ios": "https://dc.lft.to/lastmile_qr_scan", "android": "https://dc.lft.to/lastmile_qr_scan"}}, {"name": "63f3a9f1478b7428aad0c1fc5bfadb75", "type": "electric_scooter", "lat": 38.899555666666664, "is_reserved": 0, "lon": -77.03132366666667, "fusion_lon": 0.0, "is_disabled": 0, "fusion_lat": 0.0, "bike_id": "63f3a9f1478b7428aad0c1fc5bfadb75", "rental_uris": {"ios": "https://dc.lft.to/lastmile_qr_scan", "android": "https://dc.lft.to/lastmile_qr_scan"}}, {"name": "425c4b942032d840c640c48863c50db1", "type": "electric_scooter", "lat": 38.91708216666667, "is_reserved": 0, "lon": -77.028865, "fusion_lon": 0.0, "is_disabled": 0, "fusion_lat": 0.0, "bike_id": "425c4b942032d840c640c48863c50db1", "rental_uris": {"ios": "https://dc.lft.to/lastmile_qr_scan", "android": "https://dc.lft.to/lastmile_qr_scan"}}, {"name": "a2ac7850b9427b362b1e331117641d81", "type": "electric_scooter", "lat": 38.92882016666667, "is_reserved": 0, "lon": -77.0375815, "fusion_lon": 0.0, "is_disabled": 0, "fusion_lat": 0.0, "bike_id": "a2ac7850b9427b362b1e331117641d81", "rental_uris": {"ios": "https://dc.lft.to/lastmile_qr_scan", "android": "https://dc.lft.to/lastmile_qr_scan"}}, {"name": "d62d3a33d9191ea19a7889dfb950b199", "type": "electric_bike", "lat": 38.959116333333334, "is_reserved": 0, "lon": -77.0015625, "fusion_lon": 0.0, "is_disabled": 0, "fusion_lat": 0.0, "bike_id": "d62d3a33d9191ea19a7889dfb950b199", "rental_uris": {"ios": "https://dc.lft.to/lastmile_qr_scan", "android": "https://dc.lft.to/lastmile_qr_scan"}}, {"name": "cbb0deaef980e1495b9b7efba169246e", "type": "electric_scooter", "lat": 38.87844233333333, "is_reserved": 0, "lon": -77.0197595, "fusion_lon": 0.0, "is_disabled": 0, "fusion_lat": 0.0, "bike_id": "cbb0deaef980e1495b9b7efba169246e", "rental_uris": {"ios": "https://dc.lft.to/lastmile_qr_scan", "android": "https://dc.lft.to/lastmile_qr_scan"}}, {"name": "f9b8422c57973876c97e23fc26be2ef6", "type": "electric_scooter", "lat": 38.86240033333333, "is_reserved": 0, "lon": -76.99494183333333, "fusion_lon": 0.0, "is_disabled": 0, "fusion_lat": 0.0, "bike_id": "f9b8422c57973876c97e23fc26be2ef6", "rental_uris": {"ios": "https://dc.lft.to/lastmile_qr_scan", "android": "https://dc.lft.to/lastmile_qr_scan"}}, {"name": "894ee91afc698e0fe151c473dfd08816", "type": "electric_scooter", "lat": 38.93094266666667, "is_reserved": 0, "lon": -77.025466, "fusion_lon": 0.0, "is_disabled": 0, "fusion_lat": 0.0, "bike_id": "894ee91afc698e0fe151c473dfd08816", "rental_uris": {"ios": "https://dc.lft.to/lastmile_qr_scan", "android": "https://dc.lft.to/lastmile_qr_scan"}}, {"name": "59a524c1813d962ece2ff46e0c6c4f48", "type": "electric_scooter", "lat": 38.923573166666664, "is_reserved": 0, "lon": -77.05319316666667, "fusion_lon": 0.0, "is_disabled": 0, "fusion_lat": 0.0, "bike_id": "59a524c1813d962ece2ff46e0c6c4f48", "rental_uris": {"ios": "https://dc.lft.to/lastmile_qr_scan", "android": "https://dc.lft.to/lastmile_qr_scan"}}, {"name": "a540bdff6e2e174bdbd359780549d33a", "type": "electric_scooter", "lat": 38.932901, "is_reserved": 0, "lon": -77.03980233333333, "fusion_lon": 0.0, "is_disabled": 0, "fusion_lat": 0.0, "bike_id": "a540bdff6e2e174bdbd359780549d33a", "rental_uris": {"ios": "https://dc.lft.to/lastmile_qr_scan", "android": "https://dc.lft.to/lastmile_qr_scan"}}, {"name": "316fcab9dcc15f713cdf6f16299db5a3", "type": "electric_scooter", "lat": 38.897427666666665, "is_reserved": 0, "lon": -76.9384615, "fusion_lon": 0.0, "is_disabled": 0, "fusion_lat": 0.0, "bike_id": "316fcab9dcc15f713cdf6f16299db5a3", "rental_uris": {"ios": "https://dc.lft.to/lastmile_qr_scan", "android": "https://dc.lft.to/lastmile_qr_scan"}}, {"name": "294d2b44e4e6a5bdd2f9b8e184e84a9c", "type": "electric_scooter", "lat": 38.89451966666667, "is_reserved": 0, "lon": -77.01923183333334, "fusion_lon": 0.0, "is_disabled": 0, "fusion_lat": 0.0, "bike_id": "294d2b44e4e6a5bdd2f9b8e184e84a9c", "rental_uris": {"ios": "https://dc.lft.to/lastmile_qr_scan", "android": "https://dc.lft.to/lastmile_qr_scan"}}, {"name": "1925f5f5f438b835cbe51c6dacad8aa0", "type": "electric_scooter", "lat": 38.865193833333336, "is_reserved": 0, "lon": -76.990294, "fusion_lon": 0.0, "is_disabled": 0, "fusion_lat": 0.0, "bike_id": "1925f5f5f438b835cbe51c6dacad8aa0", "rental_uris": {"ios": "https://dc.lft.to/lastmile_qr_scan", "android": "https://dc.lft.to/lastmile_qr_scan"}}, {"name": "56dd577acd92466d95f629627fc6f9b1", "type": "electric_scooter", "lat": 38.886872, "is_reserved": 0, "lon": -76.95762116666667, "fusion_lon": 0.0, "is_disabled": 0, "fusion_lat": 0.0, "bike_id": "56dd577acd92466d95f629627fc6f9b1", "rental_uris": {"ios": "https://dc.lft.to/lastmile_qr_scan", "android": "https://dc.lft.to/lastmile_qr_scan"}}, {"name": "8e489202244b8cc5b63bfb18d2d4fdd7", "type": "electric_bike", "lat": 38.838243166666665, "is_reserved": 0, "lon": -76.99686966666667, "fusion_lon": 0.0, "is_disabled": 0, "fusion_lat": 0.0, "bike_id": "8e489202244b8cc5b63bfb18d2d4fdd7", "rental_uris": {"ios": "https://dc.lft.to/lastmile_qr_scan", "android": "https://dc.lft.to/lastmile_qr_scan"}}, {"name": "5c55ff79a8d0334220f74c1456c59768", "type": "electric_scooter", "lat": 38.89234416666667, "is_reserved": 0, "lon": -77.01523716666667, "fusion_lon": 0.0, "is_disabled": 0, "fusion_lat": 0.0, "bike_id": "5c55ff79a8d0334220f74c1456c59768", "rental_uris": {"ios": "https://dc.lft.to/lastmile_qr_scan", "android": "https://dc.lft.to/lastmile_qr_scan"}}, {"name": "cc6c3b4a100fb1d7c95bdc8dacc99506", "type": "electric_scooter", "lat": 38.9262995, "is_reserved": 0, "lon": -77.03514566666666, "fusion_lon": 0.0, "is_disabled": 0, "fusion_lat": 0.0, "bike_id": "cc6c3b4a100fb1d7c95bdc8dacc99506", "rental_uris": {"ios": "https://dc.lft.to/lastmile_qr_scan", "android": "https://dc.lft.to/lastmile_qr_scan"}}, {"name": "903da8e70f29f5de2fd558387c1bb3eb", "type": "electric_bike", "lat": 38.88838283333333, "is_reserved": 0, "lon": -76.99367216666667, "fusion_lon": 0.0, "is_disabled": 0, "fusion_lat": 0.0, "bike_id": "903da8e70f29f5de2fd558387c1bb3eb", "rental_uris": {"ios": "https://dc.lft.to/lastmile_qr_scan", "android": "https://dc.lft.to/lastmile_qr_scan"}}, {"name": "0c60f4e4b010fe916b8e238a5ab7dc5f", "type": "electric_scooter", "lat": 38.90783016666666, "is_reserved": 0, "lon": -77.03861566666667, "fusion_lon": 0.0, "is_disabled": 0, "fusion_lat": 0.0, "bike_id": "0c60f4e4b010fe916b8e238a5ab7dc5f", "rental_uris": {"ios": "https://dc.lft.to/lastmile_qr_scan", "android": "https://dc.lft.to/lastmile_qr_scan"}}, {"name": "020e055ed7d8221665c29f744cb38fca", "type": "electric_scooter", "lat": 38.917348, "is_reserved": 0, "lon": -77.03643116666667, "fusion_lon": 0.0, "is_disabled": 0, "fusion_lat": 0.0, "bike_id": "020e055ed7d8221665c29f744cb38fca", "rental_uris": {"ios": "https://dc.lft.to/lastmile_qr_scan", "android": "https://dc.lft.to/lastmile_qr_scan"}}, {"name": "d4308e726161e8139e23f281607c4deb", "type": "electric_scooter", "lat": 38.90587266666667, "is_reserved": 0, "lon": -77.06524216666666, "fusion_lon": 0.0, "is_disabled": 0, "fusion_lat": 0.0, "bike_id": "d4308e726161e8139e23f281607c4deb", "rental_uris": {"ios": "https://dc.lft.to/lastmile_qr_scan", "android": "https://dc.lft.to/lastmile_qr_scan"}}, {"name": "29a9e6493963beeca7e8eedda59432f2", "type": "electric_scooter", "lat": 38.90972433333334, "is_reserved": 0, "lon": -77.0112395, "fusion_lon": 0.0, "is_disabled": 0, "fusion_lat": 0.0, "bike_id": "29a9e6493963beeca7e8eedda59432f2", "rental_uris": {"ios": "https://dc.lft.to/lastmile_qr_scan", "android": "https://dc.lft.to/lastmile_qr_scan"}}, {"name": "3004db6876dab638d956f53174a3bc1c", "type": "electric_scooter", "lat": 38.920676666666665, "is_reserved": 0, "lon": -76.97807483333334, "fusion_lon": 0.0, "is_disabled": 0, "fusion_lat": 0.0, "bike_id": "3004db6876dab638d956f53174a3bc1c", "rental_uris": {"ios": "https://dc.lft.to/lastmile_qr_scan", "android": "https://dc.lft.to/lastmile_qr_scan"}}, {"name": "b33ed7febf65ff08242cafebbc843d89", "type": "electric_scooter", "lat": 38.90570533333333, "is_reserved": 0, "lon": -77.0058935, "fusion_lon": 0.0, "is_disabled": 0, "fusion_lat": 0.0, "bike_id": "b33ed7febf65ff08242cafebbc843d89", "rental_uris": {"ios": "https://dc.lft.to/lastmile_qr_scan", "android": "https://dc.lft.to/lastmile_qr_scan"}}, {"name": "eb03503ecf6573f9eb0fa1b1549a38a4", "type": "electric_scooter", "lat": 38.917266166666664, "is_reserved": 0, "lon": -77.0081945, "fusion_lon": 0.0, "is_disabled": 0, "fusion_lat": 0.0, "bike_id": "eb03503ecf6573f9eb0fa1b1549a38a4", "rental_uris": {"ios": "https://dc.lft.to/lastmile_qr_scan", "android": "https://dc.lft.to/lastmile_qr_scan"}}, {"name": "18534ad31889312ca92bfaa591446f45", "type": "electric_scooter", "lat": 38.9205905, "is_reserved": 0, "lon": -77.02974833333333, "fusion_lon": 0.0, "is_disabled": 0, "fusion_lat": 0.0, "bike_id": "18534ad31889312ca92bfaa591446f45", "rental_uris": {"ios": "https://dc.lft.to/lastmile_qr_scan", "android": "https://dc.lft.to/lastmile_qr_scan"}}, {"name": "1e1f9017a987a58c9808992e2c5830c0", "type": "electric_bike", "lat": 38.95536966666667, "is_reserved": 0, "lon": -77.02296166666666, "fusion_lon": 0.0, "is_disabled": 0, "fusion_lat": 0.0, "bike_id": "1e1f9017a987a58c9808992e2c5830c0", "rental_uris": {"ios": "https://dc.lft.to/lastmile_qr_scan", "android": "https://dc.lft.to/lastmile_qr_scan"}}, {"name": "85f75cbd3b8b98b10ddf1901b29c6fe5", "type": "electric_scooter", "lat": 38.923487, "is_reserved": 0, "lon": -77.0190715, "fusion_lon": 0.0, "is_disabled": 0, "fusion_lat": 0.0, "bike_id": "85f75cbd3b8b98b10ddf1901b29c6fe5", "rental_uris": {"ios": "https://dc.lft.to/lastmile_qr_scan", "android": "https://dc.lft.to/lastmile_qr_scan"}}, {"name": "ea79f229fef3191d26fd3cce1716ab22", "type": "electric_scooter", "lat": 38.905851166666665, "is_reserved": 0, "lon": -77.06522183333334, "fusion_lon": 0.0, "is_disabled": 0, "fusion_lat": 0.0, "bike_id": "ea79f229fef3191d26fd3cce1716ab22", "rental_uris": {"ios": "https://dc.lft.to/lastmile_qr_scan", "android": "https://dc.lft.to/lastmile_qr_scan"}}, {"name": "6372f1a4e9bcaae48667854d4310b7fb", "type": "electric_bike", "lat": 38.954817166666665, "is_reserved": 0, "lon": -77.08241083333333, "fusion_lon": 0.0, "is_disabled": 0, "fusion_lat": 0.0, "bike_id": "6372f1a4e9bcaae48667854d4310b7fb", "rental_uris": {"ios": "https://dc.lft.to/lastmile_qr_scan", "android": "https://dc.lft.to/lastmile_qr_scan"}}, {"name": "7b8899888ff0c225a4cc9faa757f852f", "type": "electric_scooter", "lat": 38.907829, "is_reserved": 0, "lon": -77.03863116666666, "fusion_lon": 0.0, "is_disabled": 0, "fusion_lat": 0.0, "bike_id": "7b8899888ff0c225a4cc9faa757f852f", "rental_uris": {"ios": "https://dc.lft.to/lastmile_qr_scan", "android": "https://dc.lft.to/lastmile_qr_scan"}}, {"name": "d3da0bd66a8399aaae506e5ab5c34df9", "type": "electric_scooter", "lat": 38.92771466666667, "is_reserved": 0, "lon": -77.026548, "fusion_lon": 0.0, "is_disabled": 0, "fusion_lat": 0.0, "bike_id": "d3da0bd66a8399aaae506e5ab5c34df9", "rental_uris": {"ios": "https://dc.lft.to/lastmile_qr_scan", "android": "https://dc.lft.to/lastmile_qr_scan"}}, {"name": "396adf8dcf2fa6d8245d007c6ce5d1c4", "type": "electric_scooter", "lat": 38.92171283333333, "is_reserved": 0, "lon": -77.032103, "fusion_lon": 0.0, "is_disabled": 0, "fusion_lat": 0.0, "bike_id": "396adf8dcf2fa6d8245d007c6ce5d1c4", "rental_uris": {"ios": "https://dc.lft.to/lastmile_qr_scan", "android": "https://dc.lft.to/lastmile_qr_scan"}}, {"name": "4f5c6bbcf943bb70aa3a74f96cfc9b1c", "type": "electric_scooter", "lat": 38.928748, "is_reserved": 0, "lon": -77.04129216666666, "fusion_lon": 0.0, "is_disabled": 0, "fusion_lat": 0.0, "bike_id": "4f5c6bbcf943bb70aa3a74f96cfc9b1c", "rental_uris": {"ios": "https://dc.lft.to/lastmile_qr_scan", "android": "https://dc.lft.to/lastmile_qr_scan"}}, {"name": "335fafd62a98822aa314cddb6b7dff5f", "type": "electric_scooter", "lat": 38.86356283333333, "is_reserved": 0, "lon": -76.990715, "fusion_lon": 0.0, "is_disabled": 0, "fusion_lat": 0.0, "bike_id": "335fafd62a98822aa314cddb6b7dff5f", "rental_uris": {"ios": "https://dc.lft.to/lastmile_qr_scan", "android": "https://dc.lft.to/lastmile_qr_scan"}}, {"name": "690f6aa6ccac1efc492ee7e3292d11c6", "type": "electric_scooter", "lat": 38.920550166666665, "is_reserved": 0, "lon": -77.04270216666667, "fusion_lon": 0.0, "is_disabled": 0, "fusion_lat": 0.0, "bike_id": "690f6aa6ccac1efc492ee7e3292d11c6", "rental_uris": {"ios": "https://dc.lft.to/lastmile_qr_scan", "android": "https://dc.lft.to/lastmile_qr_scan"}}, {"name": "c762d74413775869206c0dc606f37dd2", "type": "electric_scooter", "lat": 38.89495333333333, "is_reserved": 0, "lon": -77.01097633333333, "fusion_lon": 0.0, "is_disabled": 0, "fusion_lat": 0.0, "bike_id": "c762d74413775869206c0dc606f37dd2", "rental_uris": {"ios": "https://dc.lft.to/lastmile_qr_scan", "android": "https://dc.lft.to/lastmile_qr_scan"}}, {"name": "392e9def9074199d09d564a39ffd2619", "type": "electric_scooter", "lat": 38.90489783333334, "is_reserved": 0, "lon": -77.04165283333333, "fusion_lon": 0.0, "is_disabled": 0, "fusion_lat": 0.0, "bike_id": "392e9def9074199d09d564a39ffd2619", "rental_uris": {"ios": "https://dc.lft.to/lastmile_qr_scan", "android": "https://dc.lft.to/lastmile_qr_scan"}}, {"name": "a18134923a60b2adbe3e3021cbf05233", "type": "electric_scooter", "lat": 38.905902833333336, "is_reserved": 0, "lon": -77.06280383333333, "fusion_lon": 0.0, "is_disabled": 0, "fusion_lat": 0.0, "bike_id": "a18134923a60b2adbe3e3021cbf05233", "rental_uris": {"ios": "https://dc.lft.to/lastmile_qr_scan", "android": "https://dc.lft.to/lastmile_qr_scan"}}, {"name": "fbf57baeb2f6c50377e21a36da08bd7b", "type": "electric_scooter", "lat": 38.91480166666667, "is_reserved": 0, "lon": -77.0094885, "fusion_lon": 0.0, "is_disabled": 0, "fusion_lat": 0.0, "bike_id": "fbf57baeb2f6c50377e21a36da08bd7b", "rental_uris": {"ios": "https://dc.lft.to/lastmile_qr_scan", "android": "https://dc.lft.to/lastmile_qr_scan"}}, {"name": "7c4e41ce95f870ad910e7ce7c4fe493d", "type": "electric_scooter", "lat": 38.92420116666667, "is_reserved": 0, "lon": -77.01955466666666, "fusion_lon": 0.0, "is_disabled": 0, "fusion_lat": 0.0, "bike_id": "7c4e41ce95f870ad910e7ce7c4fe493d", "rental_uris": {"ios": "https://dc.lft.to/lastmile_qr_scan", "android": "https://dc.lft.to/lastmile_qr_scan"}}, {"name": "95800b4d0dc6919e473aaa71d02e267a", "type": "electric_scooter", "lat": 38.899073333333334, "is_reserved": 0, "lon": -77.03301516666667, "fusion_lon": 0.0, "is_disabled": 0, "fusion_lat": 0.0, "bike_id": "95800b4d0dc6919e473aaa71d02e267a", "rental_uris": {"ios": "https://dc.lft.to/lastmile_qr_scan", "android": "https://dc.lft.to/lastmile_qr_scan"}}, {"name": "d4ba3be7c06b2c462a2e48c2e4fbe314", "type": "electric_scooter", "lat": 38.93457516666667, "is_reserved": 0, "lon": -77.03051633333334, "fusion_lon": 0.0, "is_disabled": 0, "fusion_lat": 0.0, "bike_id": "d4ba3be7c06b2c462a2e48c2e4fbe314", "rental_uris": {"ios": "https://dc.lft.to/lastmile_qr_scan", "android": "https://dc.lft.to/lastmile_qr_scan"}}, {"name": "5fc6a01ad9f691e89a180c531f2b83a6", "type": "electric_scooter", "lat": 38.890148833333335, "is_reserved": 0, "lon": -76.9373455, "fusion_lon": 0.0, "is_disabled": 0, "fusion_lat": 0.0, "bike_id": "5fc6a01ad9f691e89a180c531f2b83a6", "rental_uris": {"ios": "https://dc.lft.to/lastmile_qr_scan", "android": "https://dc.lft.to/lastmile_qr_scan"}}, {"name": "b50378251a809bb94393e2f265be3455", "type": "electric_scooter", "lat": 38.914814166666666, "is_reserved": 0, "lon": -77.0084435, "fusion_lon": 0.0, "is_disabled": 0, "fusion_lat": 0.0, "bike_id": "b50378251a809bb94393e2f265be3455", "rental_uris": {"ios": "https://dc.lft.to/lastmile_qr_scan", "android": "https://dc.lft.to/lastmile_qr_scan"}}, {"name": "01c010db3ee7027f78d5e64f2192d15a", "type": "electric_scooter", "lat": 38.92333416666666, "is_reserved": 0, "lon": -77.04024766666667, "fusion_lon": 0.0, "is_disabled": 0, "fusion_lat": 0.0, "bike_id": "01c010db3ee7027f78d5e64f2192d15a", "rental_uris": {"ios": "https://dc.lft.to/lastmile_qr_scan", "android": "https://dc.lft.to/lastmile_qr_scan"}}, {"name": "e153db0d7c25e4d1eb4569744e8417a6", "type": "electric_bike", "lat": 39.058119166666664, "is_reserved": 0, "lon": -77.12629183333334, "fusion_lon": 0.0, "is_disabled": 0, "fusion_lat": 0.0, "bike_id": "e153db0d7c25e4d1eb4569744e8417a6", "rental_uris": {"ios": "https://dc.lft.to/lastmile_qr_scan", "android": "https://dc.lft.to/lastmile_qr_scan"}}, {"name": "776f510b8b50bfc1429de730e6fe483f", "type": "electric_scooter", "lat": 38.8850235, "is_reserved": 0, "lon": -76.99843216666666, "fusion_lon": 0.0, "is_disabled": 0, "fusion_lat": 0.0, "bike_id": "776f510b8b50bfc1429de730e6fe483f", "rental_uris": {"ios": "https://dc.lft.to/lastmile_qr_scan", "android": "https://dc.lft.to/lastmile_qr_scan"}}, {"name": "075b58899ef241d79d6067385024e250", "type": "electric_scooter", "lat": 38.9155345, "is_reserved": 0, "lon": -77.029391, "fusion_lon": 0.0, "is_disabled": 0, "fusion_lat": 0.0, "bike_id": "075b58899ef241d79d6067385024e250", "rental_uris": {"ios": "https://dc.lft.to/lastmile_qr_scan", "android": "https://dc.lft.to/lastmile_qr_scan"}}, {"name": "2974002ed86cc2644112c8bbe83ed44e", "type": "electric_scooter", "lat": 38.92486316666667, "is_reserved": 0, "lon": -77.05219983333333, "fusion_lon": 0.0, "is_disabled": 0, "fusion_lat": 0.0, "bike_id": "2974002ed86cc2644112c8bbe83ed44e", "rental_uris": {"ios": "https://dc.lft.to/lastmile_qr_scan", "android": "https://dc.lft.to/lastmile_qr_scan"}}, {"name": "e032b7d33c2755981d9e156f30319e6e", "type": "electric_bike", "lat": 38.8460815, "is_reserved": 0, "lon": -76.9783605, "fusion_lon": 0.0, "is_disabled": 0, "fusion_lat": 0.0, "bike_id": "e032b7d33c2755981d9e156f30319e6e", "rental_uris": {"ios": "https://dc.lft.to/lastmile_qr_scan", "android": "https://dc.lft.to/lastmile_qr_scan"}}, {"name": "ca056a780bbbfeadb3941c7406b879e2", "type": "electric_scooter", "lat": 38.89938466666667, "is_reserved": 0, "lon": -77.0153625, "fusion_lon": 0.0, "is_disabled": 0, "fusion_lat": 0.0, "bike_id": "ca056a780bbbfeadb3941c7406b879e2", "rental_uris": {"ios": "https://dc.lft.to/lastmile_qr_scan", "android": "https://dc.lft.to/lastmile_qr_scan"}}, {"name": "d125e3d7c02ce9a3a2e5bcc43e509dd2", "type": "electric_bike", "lat": 38.8461115, "is_reserved": 0, "lon": -76.96883416666667, "fusion_lon": 0.0, "is_disabled": 0, "fusion_lat": 0.0, "bike_id": "d125e3d7c02ce9a3a2e5bcc43e509dd2", "rental_uris": {"ios": "https://dc.lft.to/lastmile_qr_scan", "android": "https://dc.lft.to/lastmile_qr_scan"}}, {"name": "23443624563dde486fdf44aa8acfac09", "type": "electric_scooter", "lat": 38.941825, "is_reserved": 0, "lon": -77.03028833333333, "fusion_lon": 0.0, "is_disabled": 0, "fusion_lat": 0.0, "bike_id": "23443624563dde486fdf44aa8acfac09", "rental_uris": {"ios": "https://dc.lft.to/lastmile_qr_scan", "android": "https://dc.lft.to/lastmile_qr_scan"}}, {"name": "5564235d74de901d374bc68912989856", "type": "electric_bike", "lat": 38.952895, "is_reserved": 0, "lon": -76.97808933333333, "fusion_lon": 0.0, "is_disabled": 0, "fusion_lat": 0.0, "bike_id": "5564235d74de901d374bc68912989856", "rental_uris": {"ios": "https://dc.lft.to/lastmile_qr_scan", "android": "https://dc.lft.to/lastmile_qr_scan"}}, {"name": "06e256d96857048df66afbc7625b808d", "type": "electric_scooter", "lat": 38.91589666666667, "is_reserved": 0, "lon": -76.983818, "fusion_lon": 0.0, "is_disabled": 0, "fusion_lat": 0.0, "bike_id": "06e256d96857048df66afbc7625b808d", "rental_uris": {"ios": "https://dc.lft.to/lastmile_qr_scan", "android": "https://dc.lft.to/lastmile_qr_scan"}}, {"name": "0d0c162890304891cf3e4582b2a93e5c", "type": "electric_scooter", "lat": 38.911895, "is_reserved": 0, "lon": -77.03214083333333, "fusion_lon": 0.0, "is_disabled": 0, "fusion_lat": 0.0, "bike_id": "0d0c162890304891cf3e4582b2a93e5c", "rental_uris": {"ios": "https://dc.lft.to/lastmile_qr_scan", "android": "https://dc.lft.to/lastmile_qr_scan"}}, {"name": "5968e465f34926e8eabcdc281ed16c5f", "type": "electric_scooter", "lat": 38.8771485, "is_reserved": 0, "lon": -77.018427, "fusion_lon": 0.0, "is_disabled": 0, "fusion_lat": 0.0, "bike_id": "5968e465f34926e8eabcdc281ed16c5f", "rental_uris": {"ios": "https://dc.lft.to/lastmile_qr_scan", "android": "https://dc.lft.to/lastmile_qr_scan"}}, {"name": "9dc2ead929ac4fd4ee7ef6ae821e2b52", "type": "electric_scooter", "lat": 38.928727, "is_reserved": 0, "lon": -77.04054533333333, "fusion_lon": 0.0, "is_disabled": 0, "fusion_lat": 0.0, "bike_id": "9dc2ead929ac4fd4ee7ef6ae821e2b52", "rental_uris": {"ios": "https://dc.lft.to/lastmile_qr_scan", "android": "https://dc.lft.to/lastmile_qr_scan"}}, {"name": "da9a2996641c7fa26f365a7d42654abf", "type": "electric_bike", "lat": 38.936748, "is_reserved": 0, "lon": -76.95211066666667, "fusion_lon": 0.0, "is_disabled": 0, "fusion_lat": 0.0, "bike_id": "da9a2996641c7fa26f365a7d42654abf", "rental_uris": {"ios": "https://dc.lft.to/lastmile_qr_scan", "android": "https://dc.lft.to/lastmile_qr_scan"}}, {"name": "16bce6aa42c9570300d1da7fede72de6", "type": "electric_scooter", "lat": 38.876448833333335, "is_reserved": 0, "lon": -77.01588066666666, "fusion_lon": 0.0, "is_disabled": 0, "fusion_lat": 0.0, "bike_id": "16bce6aa42c9570300d1da7fede72de6", "rental_uris": {"ios": "https://dc.lft.to/lastmile_qr_scan", "android": "https://dc.lft.to/lastmile_qr_scan"}}, {"name": "0b1371a7e495e753b5c5eb98b5404f44", "type": "electric_scooter", "lat": 38.9447675, "is_reserved": 0, "lon": -77.04139216666667, "fusion_lon": 0.0, "is_disabled": 0, "fusion_lat": 0.0, "bike_id": "0b1371a7e495e753b5c5eb98b5404f44", "rental_uris": {"ios": "https://dc.lft.to/lastmile_qr_scan", "android": "https://dc.lft.to/lastmile_qr_scan"}}, {"name": "042780a3c2d818ffb9614ac8ca62c08b", "type": "electric_scooter", "lat": 38.92751833333333, "is_reserved": 0, "lon": -77.02422, "fusion_lon": 0.0, "is_disabled": 0, "fusion_lat": 0.0, "bike_id": "042780a3c2d818ffb9614ac8ca62c08b", "rental_uris": {"ios": "https://dc.lft.to/lastmile_qr_scan", "android": "https://dc.lft.to/lastmile_qr_scan"}}, {"name": "9b906a8806b03c8a10acbc54b2f78bc5", "type": "electric_scooter", "lat": 38.91899033333333, "is_reserved": 0, "lon": -77.04173516666667, "fusion_lon": 0.0, "is_disabled": 0, "fusion_lat": 0.0, "bike_id": "9b906a8806b03c8a10acbc54b2f78bc5", "rental_uris": {"ios": "https://dc.lft.to/lastmile_qr_scan", "android": "https://dc.lft.to/lastmile_qr_scan"}}, {"name": "c5b3433996c8969e2fa79af77df8dc49", "type": "electric_scooter", "lat": 38.9142345, "is_reserved": 0, "lon": -77.02182633333334, "fusion_lon": 0.0, "is_disabled": 0, "fusion_lat": 0.0, "bike_id": "c5b3433996c8969e2fa79af77df8dc49", "rental_uris": {"ios": "https://dc.lft.to/lastmile_qr_scan", "android": "https://dc.lft.to/lastmile_qr_scan"}}, {"name": "f48cc6d0c927ca37548803f9e76ded21", "type": "electric_scooter", "lat": 38.917365833333335, "is_reserved": 0, "lon": -77.01029933333334, "fusion_lon": 0.0, "is_disabled": 0, "fusion_lat": 0.0, "bike_id": "f48cc6d0c927ca37548803f9e76ded21", "rental_uris": {"ios": "https://dc.lft.to/lastmile_qr_scan", "android": "https://dc.lft.to/lastmile_qr_scan"}}, {"name": "20240696cc339e45178aeee41b24beac", "type": "electric_bike", "lat": 38.96125166666667, "is_reserved": 0, "lon": -77.03275066666667, "fusion_lon": 0.0, "is_disabled": 0, "fusion_lat": 0.0, "bike_id": "20240696cc339e45178aeee41b24beac", "rental_uris": {"ios": "https://dc.lft.to/lastmile_qr_scan", "android": "https://dc.lft.to/lastmile_qr_scan"}}, {"name": "925fb04dee9b08564e528e61e7d55227", "type": "electric_scooter", "lat": 38.88304183333333, "is_reserved": 0, "lon": -76.99514266666667, "fusion_lon": 0.0, "is_disabled": 0, "fusion_lat": 0.0, "bike_id": "925fb04dee9b08564e528e61e7d55227", "rental_uris": {"ios": "https://dc.lft.to/lastmile_qr_scan", "android": "https://dc.lft.to/lastmile_qr_scan"}}, {"name": "85764fc646fc46fa4dda7a0d2bda9233", "type": "electric_scooter", "lat": 38.924504666666664, "is_reserved": 0, "lon": -76.9933905, "fusion_lon": 0.0, "is_disabled": 0, "fusion_lat": 0.0, "bike_id": "85764fc646fc46fa4dda7a0d2bda9233", "rental_uris": {"ios": "https://dc.lft.to/lastmile_qr_scan", "android": "https://dc.lft.to/lastmile_qr_scan"}}, {"name": "29760f7e335f6195264f95353d5ae70b", "type": "electric_scooter", "lat": 38.91554816666667, "is_reserved": 0, "lon": -77.04621016666667, "fusion_lon": 0.0, "is_disabled": 0, "fusion_lat": 0.0, "bike_id": "29760f7e335f6195264f95353d5ae70b", "rental_uris": {"ios": "https://dc.lft.to/lastmile_qr_scan", "android": "https://dc.lft.to/lastmile_qr_scan"}}, {"name": "eb01f5c97e653d342ea9acae7db444cb", "type": "electric_scooter", "lat": 38.901559666666664, "is_reserved": 0, "lon": -77.03184933333333, "fusion_lon": 0.0, "is_disabled": 0, "fusion_lat": 0.0, "bike_id": "eb01f5c97e653d342ea9acae7db444cb", "rental_uris": {"ios": "https://dc.lft.to/lastmile_qr_scan", "android": "https://dc.lft.to/lastmile_qr_scan"}}, {"name": "1d5d0bc85d41dcc6c3dd1471482e1027", "type": "electric_scooter", "lat": 38.90655733333333, "is_reserved": 0, "lon": -77.02505916666667, "fusion_lon": 0.0, "is_disabled": 0, "fusion_lat": 0.0, "bike_id": "1d5d0bc85d41dcc6c3dd1471482e1027", "rental_uris": {"ios": "https://dc.lft.to/lastmile_qr_scan", "android": "https://dc.lft.to/lastmile_qr_scan"}}, {"name": "ae48ca3f0417f6e9c2165ad8f5d8a775", "type": "electric_scooter", "lat": 38.898762833333336, "is_reserved": 0, "lon": -76.93163116666666, "fusion_lon": 0.0, "is_disabled": 0, "fusion_lat": 0.0, "bike_id": "ae48ca3f0417f6e9c2165ad8f5d8a775", "rental_uris": {"ios": "https://dc.lft.to/lastmile_qr_scan", "android": "https://dc.lft.to/lastmile_qr_scan"}}, {"name": "2e0d343a5ecd8ebd0737e2731999b685", "type": "electric_scooter", "lat": 38.908904166666666, "is_reserved": 0, "lon": -77.00576233333334, "fusion_lon": 0.0, "is_disabled": 0, "fusion_lat": 0.0, "bike_id": "2e0d343a5ecd8ebd0737e2731999b685", "rental_uris": {"ios": "https://dc.lft.to/lastmile_qr_scan", "android": "https://dc.lft.to/lastmile_qr_scan"}}, {"name": "7a26c7aa541cb75d9d3d5a446dbf4ab5", "type": "electric_scooter", "lat": 38.918211, "is_reserved": 0, "lon": -77.03193683333333, "fusion_lon": 0.0, "is_disabled": 0, "fusion_lat": 0.0, "bike_id": "7a26c7aa541cb75d9d3d5a446dbf4ab5", "rental_uris": {"ios": "https://dc.lft.to/lastmile_qr_scan", "android": "https://dc.lft.to/lastmile_qr_scan"}}, {"name": "b3fb84ceea5963ec37d6e389dcb92951", "type": "electric_scooter", "lat": 38.90035316666667, "is_reserved": 0, "lon": -77.01158966666667, "fusion_lon": 0.0, "is_disabled": 0, "fusion_lat": 0.0, "bike_id": "b3fb84ceea5963ec37d6e389dcb92951", "rental_uris": {"ios": "https://dc.lft.to/lastmile_qr_scan", "android": "https://dc.lft.to/lastmile_qr_scan"}}, {"name": "18a0bb026723bf75afe19f575d33fe52", "type": "electric_bike", "lat": 38.8111865, "is_reserved": 0, "lon": -77.050018, "fusion_lon": 0.0, "is_disabled": 0, "fusion_lat": 0.0, "bike_id": "18a0bb026723bf75afe19f575d33fe52", "rental_uris": {"ios": "https://dc.lft.to/lastmile_qr_scan", "android": "https://dc.lft.to/lastmile_qr_scan"}}, {"name": "5755c32be9bc225331ec02024dfdc94c", "type": "electric_scooter", "lat": 38.903599666666665, "is_reserved": 0, "lon": -77.01668216666667, "fusion_lon": 0.0, "is_disabled": 0, "fusion_lat": 0.0, "bike_id": "5755c32be9bc225331ec02024dfdc94c", "rental_uris": {"ios": "https://dc.lft.to/lastmile_qr_scan", "android": "https://dc.lft.to/lastmile_qr_scan"}}, {"name": "5db4b5c9f6821b74eca6a0812e24b9b4", "type": "electric_scooter", "lat": 38.87674616666666, "is_reserved": 0, "lon": -77.0178165, "fusion_lon": 0.0, "is_disabled": 0, "fusion_lat": 0.0, "bike_id": "5db4b5c9f6821b74eca6a0812e24b9b4", "rental_uris": {"ios": "https://dc.lft.to/lastmile_qr_scan", "android": "https://dc.lft.to/lastmile_qr_scan"}}, {"name": "3e7d7c816d9c89577eafc06ad2d872bc", "type": "electric_scooter", "lat": 38.93172083333333, "is_reserved": 0, "lon": -77.03635983333334, "fusion_lon": 0.0, "is_disabled": 0, "fusion_lat": 0.0, "bike_id": "3e7d7c816d9c89577eafc06ad2d872bc", "rental_uris": {"ios": "https://dc.lft.to/lastmile_qr_scan", "android": "https://dc.lft.to/lastmile_qr_scan"}}, {"name": "df7172d0b3659599ea1f0b86e58cc73e", "type": "electric_scooter", "lat": 38.899891, "is_reserved": 0, "lon": -77.02161183333334, "fusion_lon": 0.0, "is_disabled": 0, "fusion_lat": 0.0, "bike_id": "df7172d0b3659599ea1f0b86e58cc73e", "rental_uris": {"ios": "https://dc.lft.to/lastmile_qr_scan", "android": "https://dc.lft.to/lastmile_qr_scan"}}, {"name": "3df972bde64b919cdb58537f6e9056db", "type": "electric_scooter", "lat": 38.92161466666667, "is_reserved": 0, "lon": -77.0336535, "fusion_lon": 0.0, "is_disabled": 0, "fusion_lat": 0.0, "bike_id": "3df972bde64b919cdb58537f6e9056db", "rental_uris": {"ios": "https://dc.lft.to/lastmile_qr_scan", "android": "https://dc.lft.to/lastmile_qr_scan"}}, {"name": "dbbf4f831851e526ab29788fc3b06cc1", "type": "electric_scooter", "lat": 38.9325275, "is_reserved": 0, "lon": -77.03277, "fusion_lon": 0.0, "is_disabled": 0, "fusion_lat": 0.0, "bike_id": "dbbf4f831851e526ab29788fc3b06cc1", "rental_uris": {"ios": "https://dc.lft.to/lastmile_qr_scan", "android": "https://dc.lft.to/lastmile_qr_scan"}}, {"name": "0dc160bebe53163ef0038002206b1e7c", "type": "electric_scooter", "lat": 38.893590333333336, "is_reserved": 0, "lon": -76.95216716666667, "fusion_lon": 0.0, "is_disabled": 0, "fusion_lat": 0.0, "bike_id": "0dc160bebe53163ef0038002206b1e7c", "rental_uris": {"ios": "https://dc.lft.to/lastmile_qr_scan", "android": "https://dc.lft.to/lastmile_qr_scan"}}, {"name": "78756a4074609b131046186cae8f1aa9", "type": "electric_scooter", "lat": 38.90721833333333, "is_reserved": 0, "lon": -77.043472, "fusion_lon": 0.0, "is_disabled": 0, "fusion_lat": 0.0, "bike_id": "78756a4074609b131046186cae8f1aa9", "rental_uris": {"ios": "https://dc.lft.to/lastmile_qr_scan", "android": "https://dc.lft.to/lastmile_qr_scan"}}, {"name": "0c536e7c794e56b77c176b7ab8c7f2e6", "type": "electric_scooter", "lat": 38.92165983333334, "is_reserved": 0, "lon": -77.03856883333333, "fusion_lon": 0.0, "is_disabled": 0, "fusion_lat": 0.0, "bike_id": "0c536e7c794e56b77c176b7ab8c7f2e6", "rental_uris": {"ios": "https://dc.lft.to/lastmile_qr_scan", "android": "https://dc.lft.to/lastmile_qr_scan"}}, {"name": "b8db95e271306cb900a06d4a30cab935", "type": "electric_scooter", "lat": 38.908027833333335, "is_reserved": 0, "lon": -77.03210766666666, "fusion_lon": 0.0, "is_disabled": 0, "fusion_lat": 0.0, "bike_id": "b8db95e271306cb900a06d4a30cab935", "rental_uris": {"ios": "https://dc.lft.to/lastmile_qr_scan", "android": "https://dc.lft.to/lastmile_qr_scan"}}, {"name": "d83a405b7e4bfcf14715bc30df853bc2", "type": "electric_scooter", "lat": 38.8621215, "is_reserved": 0, "lon": -76.9947035, "fusion_lon": 0.0, "is_disabled": 0, "fusion_lat": 0.0, "bike_id": "d83a405b7e4bfcf14715bc30df853bc2", "rental_uris": {"ios": "https://dc.lft.to/lastmile_qr_scan", "android": "https://dc.lft.to/lastmile_qr_scan"}}, {"name": "90706a9754198950cc56a3c62656abb6", "type": "electric_scooter", "lat": 38.91719366666667, "is_reserved": 0, "lon": -77.01867533333333, "fusion_lon": 0.0, "is_disabled": 0, "fusion_lat": 0.0, "bike_id": "90706a9754198950cc56a3c62656abb6", "rental_uris": {"ios": "https://dc.lft.to/lastmile_qr_scan", "android": "https://dc.lft.to/lastmile_qr_scan"}}, {"name": "ff85e5389631e3d83973e2158b3bf9c5", "type": "electric_scooter", "lat": 38.90012016666667, "is_reserved": 0, "lon": -76.9908715, "fusion_lon": 0.0, "is_disabled": 0, "fusion_lat": 0.0, "bike_id": "ff85e5389631e3d83973e2158b3bf9c5", "rental_uris": {"ios": "https://dc.lft.to/lastmile_qr_scan", "android": "https://dc.lft.to/lastmile_qr_scan"}}, {"name": "e0d390844feefe2433c05d559c9f51bd", "type": "electric_scooter", "lat": 38.905618, "is_reserved": 0, "lon": -77.0217655, "fusion_lon": 0.0, "is_disabled": 0, "fusion_lat": 0.0, "bike_id": "e0d390844feefe2433c05d559c9f51bd", "rental_uris": {"ios": "https://dc.lft.to/lastmile_qr_scan", "android": "https://dc.lft.to/lastmile_qr_scan"}}, {"name": "cc6e1dd7d0d222a8acb4c69e6d57c6d7", "type": "electric_scooter", "lat": 38.91498283333333, "is_reserved": 0, "lon": -77.032485, "fusion_lon": 0.0, "is_disabled": 0, "fusion_lat": 0.0, "bike_id": "cc6e1dd7d0d222a8acb4c69e6d57c6d7", "rental_uris": {"ios": "https://dc.lft.to/lastmile_qr_scan", "android": "https://dc.lft.to/lastmile_qr_scan"}}, {"name": "8ae7a51379858389a680d78619d9a498", "type": "electric_scooter", "lat": 38.944877, "is_reserved": 0, "lon": -77.06416466666667, "fusion_lon": 0.0, "is_disabled": 0, "fusion_lat": 0.0, "bike_id": "8ae7a51379858389a680d78619d9a498", "rental_uris": {"ios": "https://dc.lft.to/lastmile_qr_scan", "android": "https://dc.lft.to/lastmile_qr_scan"}}, {"name": "cdd947199fd599ac79d4a784a8f7433f", "type": "electric_bike", "lat": 38.90296683333333, "is_reserved": 0, "lon": -76.9444565, "fusion_lon": 0.0, "is_disabled": 0, "fusion_lat": 0.0, "bike_id": "cdd947199fd599ac79d4a784a8f7433f", "rental_uris": {"ios": "https://dc.lft.to/lastmile_qr_scan", "android": "https://dc.lft.to/lastmile_qr_scan"}}, {"name": "d976bebac8fdd3d838ca3d6ee38570cd", "type": "electric_scooter", "lat": 38.955264, "is_reserved": 0, "lon": -77.02473133333334, "fusion_lon": 0.0, "is_disabled": 0, "fusion_lat": 0.0, "bike_id": "d976bebac8fdd3d838ca3d6ee38570cd", "rental_uris": {"ios": "https://dc.lft.to/lastmile_qr_scan", "android": "https://dc.lft.to/lastmile_qr_scan"}}, {"name": "7a0ea6a79e14ef56309d0937281bcce6", "type": "electric_scooter", "lat": 38.927872, "is_reserved": 0, "lon": -77.03155416666667, "fusion_lon": 0.0, "is_disabled": 0, "fusion_lat": 0.0, "bike_id": "7a0ea6a79e14ef56309d0937281bcce6", "rental_uris": {"ios": "https://dc.lft.to/lastmile_qr_scan", "android": "https://dc.lft.to/lastmile_qr_scan"}}, {"name": "95923f4dc476c2914218d5207ca37bef", "type": "electric_scooter", "lat": 38.9051515, "is_reserved": 0, "lon": -77.06939133333333, "fusion_lon": 0.0, "is_disabled": 0, "fusion_lat": 0.0, "bike_id": "95923f4dc476c2914218d5207ca37bef", "rental_uris": {"ios": "https://dc.lft.to/lastmile_qr_scan", "android": "https://dc.lft.to/lastmile_qr_scan"}}, {"name": "63cc41687818ba11d9014e6dac3b6c96", "type": "electric_scooter", "lat": 38.92040566666667, "is_reserved": 0, "lon": -77.03427733333334, "fusion_lon": 0.0, "is_disabled": 0, "fusion_lat": 0.0, "bike_id": "63cc41687818ba11d9014e6dac3b6c96", "rental_uris": {"ios": "https://dc.lft.to/lastmile_qr_scan", "android": "https://dc.lft.to/lastmile_qr_scan"}}, {"name": "20ae7cbd7b5aad9d05ee6a7e7069eb09", "type": "electric_scooter", "lat": 38.93915966666667, "is_reserved": 0, "lon": -77.02471566666667, "fusion_lon": 0.0, "is_disabled": 0, "fusion_lat": 0.0, "bike_id": "20ae7cbd7b5aad9d05ee6a7e7069eb09", "rental_uris": {"ios": "https://dc.lft.to/lastmile_qr_scan", "android": "https://dc.lft.to/lastmile_qr_scan"}}, {"name": "79ab18ca26f340fbdc8b075f31b92cb4", "type": "electric_scooter", "lat": 38.91402716666666, "is_reserved": 0, "lon": -77.02118033333333, "fusion_lon": 0.0, "is_disabled": 0, "fusion_lat": 0.0, "bike_id": "79ab18ca26f340fbdc8b075f31b92cb4", "rental_uris": {"ios": "https://dc.lft.to/lastmile_qr_scan", "android": "https://dc.lft.to/lastmile_qr_scan"}}, {"name": "6edc23ed890e29b1ab5075b21624c5d5", "type": "electric_scooter", "lat": 38.910159166666666, "is_reserved": 0, "lon": -77.05279183333333, "fusion_lon": 0.0, "is_disabled": 0, "fusion_lat": 0.0, "bike_id": "6edc23ed890e29b1ab5075b21624c5d5", "rental_uris": {"ios": "https://dc.lft.to/lastmile_qr_scan", "android": "https://dc.lft.to/lastmile_qr_scan"}}, {"name": "ccd6d4cd5dd0547df876a5e0d3dd72e6", "type": "electric_scooter", "lat": 38.9008095, "is_reserved": 0, "lon": -77.04931966666666, "fusion_lon": 0.0, "is_disabled": 0, "fusion_lat": 0.0, "bike_id": "ccd6d4cd5dd0547df876a5e0d3dd72e6", "rental_uris": {"ios": "https://dc.lft.to/lastmile_qr_scan", "android": "https://dc.lft.to/lastmile_qr_scan"}}, {"name": "a90f3cc43cb0f102a87d8fe8a149d996", "type": "electric_scooter", "lat": 38.91107183333333, "is_reserved": 0, "lon": -77.010623, "fusion_lon": 0.0, "is_disabled": 0, "fusion_lat": 0.0, "bike_id": "a90f3cc43cb0f102a87d8fe8a149d996", "rental_uris": {"ios": "https://dc.lft.to/lastmile_qr_scan", "android": "https://dc.lft.to/lastmile_qr_scan"}}, {"name": "934d6c5d735c7de3ec5c6663fa826535", "type": "electric_scooter", "lat": 38.92330533333333, "is_reserved": 0, "lon": -77.03904416666667, "fusion_lon": 0.0, "is_disabled": 0, "fusion_lat": 0.0, "bike_id": "934d6c5d735c7de3ec5c6663fa826535", "rental_uris": {"ios": "https://dc.lft.to/lastmile_qr_scan", "android": "https://dc.lft.to/lastmile_qr_scan"}}, {"name": "8692cd80da89aa3dbc3c432c7f3ce09a", "type": "electric_scooter", "lat": 38.892529, "is_reserved": 0, "lon": -77.03185066666667, "fusion_lon": 0.0, "is_disabled": 0, "fusion_lat": 0.0, "bike_id": "8692cd80da89aa3dbc3c432c7f3ce09a", "rental_uris": {"ios": "https://dc.lft.to/lastmile_qr_scan", "android": "https://dc.lft.to/lastmile_qr_scan"}}, {"name": "a8de2a5817de1c59dc5ac572ea152132", "type": "electric_scooter", "lat": 38.9168675, "is_reserved": 0, "lon": -77.02532433333333, "fusion_lon": 0.0, "is_disabled": 0, "fusion_lat": 0.0, "bike_id": "a8de2a5817de1c59dc5ac572ea152132", "rental_uris": {"ios": "https://dc.lft.to/lastmile_qr_scan", "android": "https://dc.lft.to/lastmile_qr_scan"}}, {"name": "56a457730a1410b52fd23a00296e1d32", "type": "electric_scooter", "lat": 38.915416, "is_reserved": 0, "lon": -77.032101, "fusion_lon": 0.0, "is_disabled": 0, "fusion_lat": 0.0, "bike_id": "56a457730a1410b52fd23a00296e1d32", "rental_uris": {"ios": "https://dc.lft.to/lastmile_qr_scan", "android": "https://dc.lft.to/lastmile_qr_scan"}}, {"name": "3b245443fa4da0662301c62196ebce85", "type": "electric_scooter", "lat": 38.911900333333335, "is_reserved": 0, "lon": -77.03228966666667, "fusion_lon": 0.0, "is_disabled": 0, "fusion_lat": 0.0, "bike_id": "3b245443fa4da0662301c62196ebce85", "rental_uris": {"ios": "https://dc.lft.to/lastmile_qr_scan", "android": "https://dc.lft.to/lastmile_qr_scan"}}, {"name": "7e7563fa1d47be4299c111bcd268c259", "type": "electric_scooter", "lat": 38.900166166666665, "is_reserved": 0, "lon": -77.033338, "fusion_lon": 0.0, "is_disabled": 0, "fusion_lat": 0.0, "bike_id": "7e7563fa1d47be4299c111bcd268c259", "rental_uris": {"ios": "https://dc.lft.to/lastmile_qr_scan", "android": "https://dc.lft.to/lastmile_qr_scan"}}, {"name": "c8d3fde99b552e43486f43a8f004566f", "type": "electric_scooter", "lat": 38.89739433333333, "is_reserved": 0, "lon": -76.94253966666666, "fusion_lon": 0.0, "is_disabled": 0, "fusion_lat": 0.0, "bike_id": "c8d3fde99b552e43486f43a8f004566f", "rental_uris": {"ios": "https://dc.lft.to/lastmile_qr_scan", "android": "https://dc.lft.to/lastmile_qr_scan"}}, {"name": "c39aa52d2e7549e6e11deed7923a3289", "type": "electric_scooter", "lat": 38.9086055, "is_reserved": 0, "lon": -77.024838, "fusion_lon": 0.0, "is_disabled": 0, "fusion_lat": 0.0, "bike_id": "c39aa52d2e7549e6e11deed7923a3289", "rental_uris": {"ios": "https://dc.lft.to/lastmile_qr_scan", "android": "https://dc.lft.to/lastmile_qr_scan"}}, {"name": "6933ba7c80010846e95a97a7b5953aa1", "type": "electric_scooter", "lat": 38.93382283333333, "is_reserved": 0, "lon": -77.05768166666667, "fusion_lon": 0.0, "is_disabled": 0, "fusion_lat": 0.0, "bike_id": "6933ba7c80010846e95a97a7b5953aa1", "rental_uris": {"ios": "https://dc.lft.to/lastmile_qr_scan", "android": "https://dc.lft.to/lastmile_qr_scan"}}, {"name": "076d165400872fb0f154e8e14c595870", "type": "electric_scooter", "lat": 38.913196166666665, "is_reserved": 0, "lon": -77.02179616666666, "fusion_lon": 0.0, "is_disabled": 0, "fusion_lat": 0.0, "bike_id": "076d165400872fb0f154e8e14c595870", "rental_uris": {"ios": "https://dc.lft.to/lastmile_qr_scan", "android": "https://dc.lft.to/lastmile_qr_scan"}}, {"name": "0ab36a90c858a8ea56ab0aee34599244", "type": "electric_scooter", "lat": 38.91210916666667, "is_reserved": 0, "lon": -77.03847816666666, "fusion_lon": 0.0, "is_disabled": 0, "fusion_lat": 0.0, "bike_id": "0ab36a90c858a8ea56ab0aee34599244", "rental_uris": {"ios": "https://dc.lft.to/lastmile_qr_scan", "android": "https://dc.lft.to/lastmile_qr_scan"}}, {"name": "0394e7da3641b8d2391d62390afc9c83", "type": "electric_scooter", "lat": 38.89467833333333, "is_reserved": 0, "lon": -76.97725733333333, "fusion_lon": 0.0, "is_disabled": 0, "fusion_lat": 0.0, "bike_id": "0394e7da3641b8d2391d62390afc9c83", "rental_uris": {"ios": "https://dc.lft.to/lastmile_qr_scan", "android": "https://dc.lft.to/lastmile_qr_scan"}}, {"name": "5432004ddc644deea2e14a1fdbfd5855", "type": "electric_scooter", "lat": 38.961139833333334, "is_reserved": 0, "lon": -77.028178, "fusion_lon": 0.0, "is_disabled": 0, "fusion_lat": 0.0, "bike_id": "5432004ddc644deea2e14a1fdbfd5855", "rental_uris": {"ios": "https://dc.lft.to/lastmile_qr_scan", "android": "https://dc.lft.to/lastmile_qr_scan"}}, {"name": "3f3c1c72a391be190b2bfbe09e706998", "type": "electric_scooter", "lat": 38.919339666666666, "is_reserved": 0, "lon": -77.0449445, "fusion_lon": 0.0, "is_disabled": 0, "fusion_lat": 0.0, "bike_id": "3f3c1c72a391be190b2bfbe09e706998", "rental_uris": {"ios": "https://dc.lft.to/lastmile_qr_scan", "android": "https://dc.lft.to/lastmile_qr_scan"}}, {"name": "efde8a5d1a80b50aa74cab480efc6111", "type": "electric_scooter", "lat": 38.91339933333333, "is_reserved": 0, "lon": -77.01626266666666, "fusion_lon": 0.0, "is_disabled": 0, "fusion_lat": 0.0, "bike_id": "efde8a5d1a80b50aa74cab480efc6111", "rental_uris": {"ios": "https://dc.lft.to/lastmile_qr_scan", "android": "https://dc.lft.to/lastmile_qr_scan"}}, {"name": "7723f3b818c0f221a0070d47285d99ac", "type": "electric_scooter", "lat": 38.906824666666665, "is_reserved": 0, "lon": -77.02489583333333, "fusion_lon": 0.0, "is_disabled": 0, "fusion_lat": 0.0, "bike_id": "7723f3b818c0f221a0070d47285d99ac", "rental_uris": {"ios": "https://dc.lft.to/lastmile_qr_scan", "android": "https://dc.lft.to/lastmile_qr_scan"}}, {"name": "39ec0444c3cf231ce9aeba2e91f40f6b", "type": "electric_scooter", "lat": 38.92304216666667, "is_reserved": 0, "lon": -77.01208583333333, "fusion_lon": 0.0, "is_disabled": 0, "fusion_lat": 0.0, "bike_id": "39ec0444c3cf231ce9aeba2e91f40f6b", "rental_uris": {"ios": "https://dc.lft.to/lastmile_qr_scan", "android": "https://dc.lft.to/lastmile_qr_scan"}}, {"name": "48aa9b9821897696396903b6194f89c2", "type": "electric_scooter", "lat": 38.86368383333333, "is_reserved": 0, "lon": -77.01363683333334, "fusion_lon": 0.0, "is_disabled": 0, "fusion_lat": 0.0, "bike_id": "48aa9b9821897696396903b6194f89c2", "rental_uris": {"ios": "https://dc.lft.to/lastmile_qr_scan", "android": "https://dc.lft.to/lastmile_qr_scan"}}, {"name": "a0afc856037bec68e3f0070458638f93", "type": "electric_bike", "lat": 38.999114166666665, "is_reserved": 0, "lon": -77.0462545, "fusion_lon": 0.0, "is_disabled": 0, "fusion_lat": 0.0, "bike_id": "a0afc856037bec68e3f0070458638f93", "rental_uris": {"ios": "https://dc.lft.to/lastmile_qr_scan", "android": "https://dc.lft.to/lastmile_qr_scan"}}, {"name": "6f0b6a5253fee3430524b548e3d38140", "type": "electric_bike", "lat": 38.84573733333333, "is_reserved": 0, "lon": -77.096259, "fusion_lon": 0.0, "is_disabled": 0, "fusion_lat": 0.0, "bike_id": "6f0b6a5253fee3430524b548e3d38140", "rental_uris": {"ios": "https://dc.lft.to/lastmile_qr_scan", "android": "https://dc.lft.to/lastmile_qr_scan"}}, {"name": "b374b2ec41861e7a4b2db55d0ee48b72", "type": "electric_scooter", "lat": 38.90272183333333, "is_reserved": 0, "lon": -77.01768383333334, "fusion_lon": 0.0, "is_disabled": 0, "fusion_lat": 0.0, "bike_id": "b374b2ec41861e7a4b2db55d0ee48b72", "rental_uris": {"ios": "https://dc.lft.to/lastmile_qr_scan", "android": "https://dc.lft.to/lastmile_qr_scan"}}, {"name": "aeb77b62fbe83169ed715e75f5885e8b", "type": "electric_scooter", "lat": 38.874007666666664, "is_reserved": 0, "lon": -77.00029733333334, "fusion_lon": 0.0, "is_disabled": 0, "fusion_lat": 0.0, "bike_id": "aeb77b62fbe83169ed715e75f5885e8b", "rental_uris": {"ios": "https://dc.lft.to/lastmile_qr_scan", "android": "https://dc.lft.to/lastmile_qr_scan"}}, {"name": "b45e6054927a93a5fb86e86343ccfe41", "type": "electric_scooter", "lat": 38.8666135, "is_reserved": 0, "lon": -76.98887833333333, "fusion_lon": 0.0, "is_disabled": 0, "fusion_lat": 0.0, "bike_id": "b45e6054927a93a5fb86e86343ccfe41", "rental_uris": {"ios": "https://dc.lft.to/lastmile_qr_scan", "android": "https://dc.lft.to/lastmile_qr_scan"}}, {"name": "7d06a117d89b216178a8d922278f650c", "type": "electric_scooter", "lat": 38.92466316666667, "is_reserved": 0, "lon": -77.03916183333334, "fusion_lon": 0.0, "is_disabled": 0, "fusion_lat": 0.0, "bike_id": "7d06a117d89b216178a8d922278f650c", "rental_uris": {"ios": "https://dc.lft.to/lastmile_qr_scan", "android": "https://dc.lft.to/lastmile_qr_scan"}}, {"name": "0ada064265a4d588b1d0dc33c4126965", "type": "electric_scooter", "lat": 38.91099883333333, "is_reserved": 0, "lon": -77.03668333333333, "fusion_lon": 0.0, "is_disabled": 0, "fusion_lat": 0.0, "bike_id": "0ada064265a4d588b1d0dc33c4126965", "rental_uris": {"ios": "https://dc.lft.to/lastmile_qr_scan", "android": "https://dc.lft.to/lastmile_qr_scan"}}, {"name": "7a01d282895d40760892b4ddd6ea185a", "type": "electric_scooter", "lat": 38.90545516666667, "is_reserved": 0, "lon": -77.02186866666666, "fusion_lon": 0.0, "is_disabled": 0, "fusion_lat": 0.0, "bike_id": "7a01d282895d40760892b4ddd6ea185a", "rental_uris": {"ios": "https://dc.lft.to/lastmile_qr_scan", "android": "https://dc.lft.to/lastmile_qr_scan"}}, {"name": "c9ed7ae5d0b6de6682a7ed4bcc5e882c", "type": "electric_bike", "lat": 38.82224033333333, "is_reserved": 0, "lon": -77.10449833333334, "fusion_lon": 0.0, "is_disabled": 0, "fusion_lat": 0.0, "bike_id": "c9ed7ae5d0b6de6682a7ed4bcc5e882c", "rental_uris": {"ios": "https://dc.lft.to/lastmile_qr_scan", "android": "https://dc.lft.to/lastmile_qr_scan"}}, {"name": "4cbc8d39ecd05041f6f3976892cf7988", "type": "electric_scooter", "lat": 38.92286, "is_reserved": 0, "lon": -77.03660616666667, "fusion_lon": 0.0, "is_disabled": 0, "fusion_lat": 0.0, "bike_id": "4cbc8d39ecd05041f6f3976892cf7988", "rental_uris": {"ios": "https://dc.lft.to/lastmile_qr_scan", "android": "https://dc.lft.to/lastmile_qr_scan"}}, {"name": "1f5bab910556009307937e4acaf9f3be", "type": "electric_scooter", "lat": 38.88609533333333, "is_reserved": 0, "lon": -76.99517766666666, "fusion_lon": 0.0, "is_disabled": 0, "fusion_lat": 0.0, "bike_id": "1f5bab910556009307937e4acaf9f3be", "rental_uris": {"ios": "https://dc.lft.to/lastmile_qr_scan", "android": "https://dc.lft.to/lastmile_qr_scan"}}, {"name": "998c29591c2fd18ef3094ab9951e4611", "type": "electric_scooter", "lat": 38.8932815, "is_reserved": 0, "lon": -76.92994716666666, "fusion_lon": 0.0, "is_disabled": 0, "fusion_lat": 0.0, "bike_id": "998c29591c2fd18ef3094ab9951e4611", "rental_uris": {"ios": "https://dc.lft.to/lastmile_qr_scan", "android": "https://dc.lft.to/lastmile_qr_scan"}}, {"name": "a39d1c92568c08089362f6a09f7b6ee5", "type": "electric_scooter", "lat": 38.907589, "is_reserved": 0, "lon": -77.03077633333334, "fusion_lon": 0.0, "is_disabled": 0, "fusion_lat": 0.0, "bike_id": "a39d1c92568c08089362f6a09f7b6ee5", "rental_uris": {"ios": "https://dc.lft.to/lastmile_qr_scan", "android": "https://dc.lft.to/lastmile_qr_scan"}}, {"name": "09bc5788bb009d10b8cdf2a944699b98", "type": "electric_scooter", "lat": 38.936500333333335, "is_reserved": 0, "lon": -77.0367435, "fusion_lon": 0.0, "is_disabled": 0, "fusion_lat": 0.0, "bike_id": "09bc5788bb009d10b8cdf2a944699b98", "rental_uris": {"ios": "https://dc.lft.to/lastmile_qr_scan", "android": "https://dc.lft.to/lastmile_qr_scan"}}, {"name": "13d320b6561e4949ab747bc8e56deb27", "type": "electric_scooter", "lat": 38.92159433333333, "is_reserved": 0, "lon": -77.03857483333333, "fusion_lon": 0.0, "is_disabled": 0, "fusion_lat": 0.0, "bike_id": "13d320b6561e4949ab747bc8e56deb27", "rental_uris": {"ios": "https://dc.lft.to/lastmile_qr_scan", "android": "https://dc.lft.to/lastmile_qr_scan"}}, {"name": "12040a7427022883dc79ea624569686e", "type": "electric_scooter", "lat": 38.899794166666666, "is_reserved": 0, "lon": -76.99148383333333, "fusion_lon": 0.0, "is_disabled": 0, "fusion_lat": 0.0, "bike_id": "12040a7427022883dc79ea624569686e", "rental_uris": {"ios": "https://dc.lft.to/lastmile_qr_scan", "android": "https://dc.lft.to/lastmile_qr_scan"}}, {"name": "7893e2b306e4216be020a25ccad3daa7", "type": "electric_scooter", "lat": 38.904939, "is_reserved": 0, "lon": -77.02689483333333, "fusion_lon": 0.0, "is_disabled": 0, "fusion_lat": 0.0, "bike_id": "7893e2b306e4216be020a25ccad3daa7", "rental_uris": {"ios": "https://dc.lft.to/lastmile_qr_scan", "android": "https://dc.lft.to/lastmile_qr_scan"}}, {"name": "df502f70109adf5ab972843fbd2bb59f", "type": "electric_bike", "lat": 38.94156316666667, "is_reserved": 0, "lon": -77.00207133333333, "fusion_lon": 0.0, "is_disabled": 0, "fusion_lat": 0.0, "bike_id": "df502f70109adf5ab972843fbd2bb59f", "rental_uris": {"ios": "https://dc.lft.to/lastmile_qr_scan", "android": "https://dc.lft.to/lastmile_qr_scan"}}, {"name": "1933a9cff4f47c380fab25489f27bce6", "type": "electric_bike", "lat": 38.875305, "is_reserved": 0, "lon": -77.19913, "fusion_lon": 0.0, "is_disabled": 0, "fusion_lat": 0.0, "bike_id": "1933a9cff4f47c380fab25489f27bce6", "rental_uris": {"ios": "https://dc.lft.to/lastmile_qr_scan", "android": "https://dc.lft.to/lastmile_qr_scan"}}, {"name": "c3efdd8e9ce9169d0c40ac753a38e98f", "type": "electric_scooter", "lat": 38.8984645, "is_reserved": 0, "lon": -76.94478616666666, "fusion_lon": 0.0, "is_disabled": 0, "fusion_lat": 0.0, "bike_id": "c3efdd8e9ce9169d0c40ac753a38e98f", "rental_uris": {"ios": "https://dc.lft.to/lastmile_qr_scan", "android": "https://dc.lft.to/lastmile_qr_scan"}}, {"name": "cacb3e041ff094f7a1740f41aabecb49", "type": "electric_bike", "lat": 38.862815499999996, "is_reserved": 0, "lon": -77.06364916666666, "fusion_lon": 0.0, "is_disabled": 0, "fusion_lat": 0.0, "bike_id": "cacb3e041ff094f7a1740f41aabecb49", "rental_uris": {"ios": "https://dc.lft.to/lastmile_qr_scan", "android": "https://dc.lft.to/lastmile_qr_scan"}}, {"name": "ec4c08738b11d1ac5ca03e0da56f45ea", "type": "electric_scooter", "lat": 38.89496833333333, "is_reserved": 0, "lon": -77.00216133333333, "fusion_lon": 0.0, "is_disabled": 0, "fusion_lat": 0.0, "bike_id": "ec4c08738b11d1ac5ca03e0da56f45ea", "rental_uris": {"ios": "https://dc.lft.to/lastmile_qr_scan", "android": "https://dc.lft.to/lastmile_qr_scan"}}, {"name": "37e6405eca7330605d57c4dbaccfdbb7", "type": "electric_scooter", "lat": 38.86245733333333, "is_reserved": 0, "lon": -76.99499566666667, "fusion_lon": 0.0, "is_disabled": 0, "fusion_lat": 0.0, "bike_id": "37e6405eca7330605d57c4dbaccfdbb7", "rental_uris": {"ios": "https://dc.lft.to/lastmile_qr_scan", "android": "https://dc.lft.to/lastmile_qr_scan"}}, {"name": "ed352b7e14973e759e575bce1faf6e94", "type": "electric_scooter", "lat": 38.92727883333333, "is_reserved": 0, "lon": -77.00571233333334, "fusion_lon": 0.0, "is_disabled": 0, "fusion_lat": 0.0, "bike_id": "ed352b7e14973e759e575bce1faf6e94", "rental_uris": {"ios": "https://dc.lft.to/lastmile_qr_scan", "android": "https://dc.lft.to/lastmile_qr_scan"}}, {"name": "cedf69d0906430b47c083f469856548b", "type": "electric_bike", "lat": 39.09459016666667, "is_reserved": 0, "lon": -77.1499515, "fusion_lon": 0.0, "is_disabled": 0, "fusion_lat": 0.0, "bike_id": "cedf69d0906430b47c083f469856548b", "rental_uris": {"ios": "https://dc.lft.to/lastmile_qr_scan", "android": "https://dc.lft.to/lastmile_qr_scan"}}, {"name": "54e2f2a239e65b6e00754e5bebc371f1", "type": "electric_scooter", "lat": 38.89906, "is_reserved": 0, "lon": -76.933524, "fusion_lon": 0.0, "is_disabled": 0, "fusion_lat": 0.0, "bike_id": "54e2f2a239e65b6e00754e5bebc371f1", "rental_uris": {"ios": "https://dc.lft.to/lastmile_qr_scan", "android": "https://dc.lft.to/lastmile_qr_scan"}}, {"name": "97fc214ef42e87c1e631781ab3c7b9f4", "type": "electric_bike", "lat": 38.84065733333333, "is_reserved": 0, "lon": -77.06406183333333, "fusion_lon": 0.0, "is_disabled": 0, "fusion_lat": 0.0, "bike_id": "97fc214ef42e87c1e631781ab3c7b9f4", "rental_uris": {"ios": "https://dc.lft.to/lastmile_qr_scan", "android": "https://dc.lft.to/lastmile_qr_scan"}}, {"name": "17019e29a16371cf0597eec64cc90569", "type": "electric_scooter", "lat": 38.9294525, "is_reserved": 0, "lon": -77.05512233333333, "fusion_lon": 0.0, "is_disabled": 0, "fusion_lat": 0.0, "bike_id": "17019e29a16371cf0597eec64cc90569", "rental_uris": {"ios": "https://dc.lft.to/lastmile_qr_scan", "android": "https://dc.lft.to/lastmile_qr_scan"}}, {"name": "be53ca440a99d3331a1716f0eddb216e", "type": "electric_scooter", "lat": 38.8976355, "is_reserved": 0, "lon": -77.010679, "fusion_lon": 0.0, "is_disabled": 0, "fusion_lat": 0.0, "bike_id": "be53ca440a99d3331a1716f0eddb216e", "rental_uris": {"ios": "https://dc.lft.to/lastmile_qr_scan", "android": "https://dc.lft.to/lastmile_qr_scan"}}, {"name": "629a1268bd68d3c0d494411859583ac1", "type": "electric_bike", "lat": 38.827891, "is_reserved": 0, "lon": -77.00911266666667, "fusion_lon": 0.0, "is_disabled": 0, "fusion_lat": 0.0, "bike_id": "629a1268bd68d3c0d494411859583ac1", "rental_uris": {"ios": "https://dc.lft.to/lastmile_qr_scan", "android": "https://dc.lft.to/lastmile_qr_scan"}}, {"name": "369e0ddb147d322cf735d4b0276b05cd", "type": "electric_scooter", "lat": 38.908352666666666, "is_reserved": 0, "lon": -76.999569, "fusion_lon": 0.0, "is_disabled": 0, "fusion_lat": 0.0, "bike_id": "369e0ddb147d322cf735d4b0276b05cd", "rental_uris": {"ios": "https://dc.lft.to/lastmile_qr_scan", "android": "https://dc.lft.to/lastmile_qr_scan"}}, {"name": "f683cc7d48f2f3a13747a0ef64df338a", "type": "electric_scooter", "lat": 38.93082166666667, "is_reserved": 0, "lon": -77.02795466666667, "fusion_lon": 0.0, "is_disabled": 0, "fusion_lat": 0.0, "bike_id": "f683cc7d48f2f3a13747a0ef64df338a", "rental_uris": {"ios": "https://dc.lft.to/lastmile_qr_scan", "android": "https://dc.lft.to/lastmile_qr_scan"}}, {"name": "b98dcd28d4e7d07c43989bd19106b453", "type": "electric_bike", "lat": 38.8945895, "is_reserved": 0, "lon": -76.97037983333334, "fusion_lon": 0.0, "is_disabled": 0, "fusion_lat": 0.0, "bike_id": "b98dcd28d4e7d07c43989bd19106b453", "rental_uris": {"ios": "https://dc.lft.to/lastmile_qr_scan", "android": "https://dc.lft.to/lastmile_qr_scan"}}, {"name": "16a5045fb0445bfdec1a22e17ec95603", "type": "electric_scooter", "lat": 38.86423666666666, "is_reserved": 0, "lon": -76.98580666666666, "fusion_lon": 0.0, "is_disabled": 0, "fusion_lat": 0.0, "bike_id": "16a5045fb0445bfdec1a22e17ec95603", "rental_uris": {"ios": "https://dc.lft.to/lastmile_qr_scan", "android": "https://dc.lft.to/lastmile_qr_scan"}}, {"name": "c884456740e9f981738644b56c3f77d0", "type": "electric_scooter", "lat": 38.9072835, "is_reserved": 0, "lon": -77.02513333333333, "fusion_lon": 0.0, "is_disabled": 0, "fusion_lat": 0.0, "bike_id": "c884456740e9f981738644b56c3f77d0", "rental_uris": {"ios": "https://dc.lft.to/lastmile_qr_scan", "android": "https://dc.lft.to/lastmile_qr_scan"}}, {"name": "750b06d9407b90c56b402a95b697a17f", "type": "electric_scooter", "lat": 38.933548333333334, "is_reserved": 0, "lon": -77.03428066666666, "fusion_lon": 0.0, "is_disabled": 0, "fusion_lat": 0.0, "bike_id": "750b06d9407b90c56b402a95b697a17f", "rental_uris": {"ios": "https://dc.lft.to/lastmile_qr_scan", "android": "https://dc.lft.to/lastmile_qr_scan"}}, {"name": "a6ed63cab1b9f31d31c005a7b8fc8487", "type": "electric_scooter", "lat": 38.9259625, "is_reserved": 0, "lon": -77.02119183333333, "fusion_lon": 0.0, "is_disabled": 0, "fusion_lat": 0.0, "bike_id": "a6ed63cab1b9f31d31c005a7b8fc8487", "rental_uris": {"ios": "https://dc.lft.to/lastmile_qr_scan", "android": "https://dc.lft.to/lastmile_qr_scan"}}, {"name": "6f885ee2ccdbb45a9361fdcd1b87c6ee", "type": "electric_scooter", "lat": 38.917613, "is_reserved": 0, "lon": -77.02711583333334, "fusion_lon": 0.0, "is_disabled": 0, "fusion_lat": 0.0, "bike_id": "6f885ee2ccdbb45a9361fdcd1b87c6ee", "rental_uris": {"ios": "https://dc.lft.to/lastmile_qr_scan", "android": "https://dc.lft.to/lastmile_qr_scan"}}, {"name": "cba3d0d4d89bd3fb39de7f555a7aebb5", "type": "electric_scooter", "lat": 38.9336585, "is_reserved": 0, "lon": -77.05727183333333, "fusion_lon": 0.0, "is_disabled": 0, "fusion_lat": 0.0, "bike_id": "cba3d0d4d89bd3fb39de7f555a7aebb5", "rental_uris": {"ios": "https://dc.lft.to/lastmile_qr_scan", "android": "https://dc.lft.to/lastmile_qr_scan"}}, {"name": "5a2de1153a566a47e95addfda20e4d90", "type": "electric_scooter", "lat": 38.91934033333333, "is_reserved": 0, "lon": -77.0248015, "fusion_lon": 0.0, "is_disabled": 0, "fusion_lat": 0.0, "bike_id": "5a2de1153a566a47e95addfda20e4d90", "rental_uris": {"ios": "https://dc.lft.to/lastmile_qr_scan", "android": "https://dc.lft.to/lastmile_qr_scan"}}, {"name": "c240bbeea8905803377e4cf882ea7444", "type": "electric_bike", "lat": 38.896853, "is_reserved": 0, "lon": -76.94064983333334, "fusion_lon": 0.0, "is_disabled": 0, "fusion_lat": 0.0, "bike_id": "c240bbeea8905803377e4cf882ea7444", "rental_uris": {"ios": "https://dc.lft.to/lastmile_qr_scan", "android": "https://dc.lft.to/lastmile_qr_scan"}}, {"name": "2cec9dd770372da19f22ef2a964c0cf9", "type": "electric_bike", "lat": 38.88642433333333, "is_reserved": 0, "lon": -76.95476916666667, "fusion_lon": 0.0, "is_disabled": 0, "fusion_lat": 0.0, "bike_id": "2cec9dd770372da19f22ef2a964c0cf9", "rental_uris": {"ios": "https://dc.lft.to/lastmile_qr_scan", "android": "https://dc.lft.to/lastmile_qr_scan"}}, {"name": "457e1414601a2d1efaae9fccd859570c", "type": "electric_scooter", "lat": 38.95635466666667, "is_reserved": 0, "lon": -77.025481, "fusion_lon": 0.0, "is_disabled": 0, "fusion_lat": 0.0, "bike_id": "457e1414601a2d1efaae9fccd859570c", "rental_uris": {"ios": "https://dc.lft.to/lastmile_qr_scan", "android": "https://dc.lft.to/lastmile_qr_scan"}}, {"name": "f09e90aa43fd9fe424ef82c6b1b8da55", "type": "electric_scooter", "lat": 38.883149333333336, "is_reserved": 0, "lon": -77.01779583333334, "fusion_lon": 0.0, "is_disabled": 0, "fusion_lat": 0.0, "bike_id": "f09e90aa43fd9fe424ef82c6b1b8da55", "rental_uris": {"ios": "https://dc.lft.to/lastmile_qr_scan", "android": "https://dc.lft.to/lastmile_qr_scan"}}, {"name": "438a5db3be8bc793603550c998b2b9c9", "type": "electric_scooter", "lat": 38.905619333333334, "is_reserved": 0, "lon": -77.02179066666666, "fusion_lon": 0.0, "is_disabled": 0, "fusion_lat": 0.0, "bike_id": "438a5db3be8bc793603550c998b2b9c9", "rental_uris": {"ios": "https://dc.lft.to/lastmile_qr_scan", "android": "https://dc.lft.to/lastmile_qr_scan"}}, {"name": "fa3deca2fe69bbde934243b500f026a4", "type": "electric_scooter", "lat": 38.92486133333333, "is_reserved": 0, "lon": -77.0521105, "fusion_lon": 0.0, "is_disabled": 0, "fusion_lat": 0.0, "bike_id": "fa3deca2fe69bbde934243b500f026a4", "rental_uris": {"ios": "https://dc.lft.to/lastmile_qr_scan", "android": "https://dc.lft.to/lastmile_qr_scan"}}, {"name": "a9e010b9ca185cfdc1889f310f58f3f9", "type": "electric_scooter", "lat": 38.92446433333333, "is_reserved": 0, "lon": -77.02035816666667, "fusion_lon": 0.0, "is_disabled": 0, "fusion_lat": 0.0, "bike_id": "a9e010b9ca185cfdc1889f310f58f3f9", "rental_uris": {"ios": "https://dc.lft.to/lastmile_qr_scan", "android": "https://dc.lft.to/lastmile_qr_scan"}}, {"name": "2bf79ce721cbc293f9f1e640f8745f4a", "type": "electric_scooter", "lat": 38.90141416666667, "is_reserved": 0, "lon": -77.03337016666667, "fusion_lon": 0.0, "is_disabled": 0, "fusion_lat": 0.0, "bike_id": "2bf79ce721cbc293f9f1e640f8745f4a", "rental_uris": {"ios": "https://dc.lft.to/lastmile_qr_scan", "android": "https://dc.lft.to/lastmile_qr_scan"}}, {"name": "13d99f7e05c7cd4ab0a8fa2ec6979580", "type": "electric_scooter", "lat": 38.855289166666665, "is_reserved": 0, "lon": -76.96923833333334, "fusion_lon": 0.0, "is_disabled": 0, "fusion_lat": 0.0, "bike_id": "13d99f7e05c7cd4ab0a8fa2ec6979580", "rental_uris": {"ios": "https://dc.lft.to/lastmile_qr_scan", "android": "https://dc.lft.to/lastmile_qr_scan"}}, {"name": "a308e18f47d2d5c1faa4f0c59c7df7af", "type": "electric_scooter", "lat": 38.930455, "is_reserved": 0, "lon": -77.02792233333334, "fusion_lon": 0.0, "is_disabled": 0, "fusion_lat": 0.0, "bike_id": "a308e18f47d2d5c1faa4f0c59c7df7af", "rental_uris": {"ios": "https://dc.lft.to/lastmile_qr_scan", "android": "https://dc.lft.to/lastmile_qr_scan"}}, {"name": "1109ef2c954ceebbf1cf59545fb0cfa8", "type": "electric_scooter", "lat": 38.9723735, "is_reserved": 0, "lon": -77.02715116666667, "fusion_lon": 0.0, "is_disabled": 0, "fusion_lat": 0.0, "bike_id": "1109ef2c954ceebbf1cf59545fb0cfa8", "rental_uris": {"ios": "https://dc.lft.to/lastmile_qr_scan", "android": "https://dc.lft.to/lastmile_qr_scan"}},