{"data": {"bikes": [{"fusion_lat": 0.0, "name": "f0e223816dd2edcafbc26e5b79020439", "is_disabled": 0, "rental_uris": {"android": "https://dc.lft.to/lastmile_qr_scan", "ios": "https://dc.lft.to/lastmile_qr_scan"}, "fusion_lon": 0.0, "lat": 38.90232783333333, "bike_id": "f0e223816dd2edcafbc26e5b79020439", "type": "electric_scooter", "is_reserved": 0, "lon": -77.0609575}, {"fusion_lat": 0.0, "name": "4036ed746c15f83a923bbb024e66519e", "is_disabled": 0, "rental_uris": {"android": "https://dc.lft.to/lastmile_qr_scan", "ios": "https://dc.lft.to/lastmile_qr_scan"}, "fusion_lon": 0.0, "lat": 38.88470133333333, "bike_id": "4036ed746c15f83a923bbb024e66519e", "type": "electric_scooter", "is_reserved": 0, "lon": -76.9967525}, {"fusion_lat": 0.0, "name": "45221f8b982fddba7b314ffec8f829c5", "is_disabled": 0, "rental_uris": {"android": "https://dc.lft.to/lastmile_qr_scan", "ios": "https://dc.lft.to/lastmile_qr_scan"}, "fusion_lon": 0.0, "lat": 38.90062566666667, "bike_id": "45221f8b982fddba7b314ffec8f829c5", "type": "electric_scooter", "is_reserved": 0, "lon": -76.933892}, {"fusion_lat": 0.0, "name": "a160c4831173e8f09d9607f1d15b80ba", "is_disabled": 0, "rental_uris": {"android": "https://dc.lft.to/lastmile_qr_scan", "ios": "https://dc.lft.to/lastmile_qr_scan"}, "fusion_lon": 0.0, "lat": 38.91547966666667, "bike_id": "a160c4831173e8f09d9607f1d15b80ba", "type": "electric_scooter", "is_reserved": 0, "lon": -77.0120215}, {"fusion_lat": 0.0, "name": "64b0cdd35525d7e93383dd158aef5fa4", "is_disabled": 0, "rental_uris": {"android": "https://dc.lft.to/lastmile_qr_scan", "ios": "https://dc.lft.to/lastmile_qr_scan"}, "fusion_lon": 0.0, "lat": 38.9038675, "bike_id": "64b0cdd35525d7e93383dd158aef5fa4", "type": "electric_scooter", "is_reserved": 0, "lon": -77.055083}, {"fusion_lat": 0.0, "name": "f70be96a7551f23cd3a90fa4e2700af2", "is_disabled": 0, "rental_uris": {"android": "https://dc.lft.to/lastmile_qr_scan", "ios": "https://dc.lft.to/lastmile_qr_scan"}, "fusion_lon": 0.0, "lat": 38.942320333333335, "bike_id": "f70be96a7551f23cd3a90fa4e2700af2", "type": "electric_scooter", "is_reserved": 0, "lon": -77.07642683333333}, {"fusion_lat": 0.0, "name": "ddbf74091b2d3caa3707a3437fc01303", "is_disabled": 0, "rental_uris": {"android": "https://dc.lft.to/lastmile_qr_scan", "ios": "https://dc.lft.to/lastmile_qr_scan"}, "fusion_lon": 0.0, "lat": 38.9325705, "bike_id": "ddbf74091b2d3caa3707a3437fc01303", "type": "electric_scooter", "is_reserved": 0, "lon": -77.03445816666667}, {"fusion_lat": 0.0, "name": "3359ae4301c7e07884fa34a7e0de3672", "is_disabled": 0, "rental_uris": {"android": "https://dc.lft.to/lastmile_qr_scan", "ios": "https://dc.lft.to/lastmile_qr_scan"}, "fusion_lon": 0.0, "lat": 38.9076495, "bike_id": "3359ae4301c7e07884fa34a7e0de3672", "type": "electric_scooter", "is_reserved": 0, "lon": -77.05589866666666}, {"fusion_lat": 0.0, "name": "1ed94f6eb8051d55657cc5a94110d26f", "is_disabled": 0, "rental_uris": {"android": "https://dc.lft.to/lastmile_qr_scan", "ios": "https://dc.lft.to/lastmile_qr_scan"}, "fusion_lon": 0.0, "lat": 38.902519, "bike_id": "1ed94f6eb8051d55657cc5a94110d26f", "type": "electric_scooter", "is_reserved": 0, "lon": -77.02828116666667}, {"fusion_lat": 0.0, "name": "a475fe2a9e6a47fa8d19f917627eb578", "is_disabled": 0, "rental_uris": {"android": "https://dc.lft.to/lastmile_qr_scan", "ios": "https://dc.lft.to/lastmile_qr_scan"}, "fusion_lon": 0.0, "lat": 38.835146, "bike_id": "a475fe2a9e6a47fa8d19f917627eb578", "type": "electric_bike", "is_reserved": 0, "lon": -76.98670483333333}, {"fusion_lat": 0.0, "name": "70ae48b9dd64181ae9f0d21c9ac09dd6", "is_disabled": 0, "rental_uris": {"android": "https://dc.lft.to/lastmile_qr_scan", "ios": "https://dc.lft.to/lastmile_qr_scan"}, "fusion_lon": 0.0, "lat": 38.8867545, "bike_id": "70ae48b9dd64181ae9f0d21c9ac09dd6", "type": "electric_scooter", "is_reserved": 0, "lon": -77.01365816666667}, {"fusion_lat": 0.0, "name": "cbdd18d4b4b2c9b3392805ae5c3b9a5f", "is_disabled": 0, "rental_uris": {"android": "https://dc.lft.to/lastmile_qr_scan", "ios": "https://dc.lft.to/lastmile_qr_scan"}, "fusion_lon": 0.0, "lat": 38.924542, "bike_id": "cbdd18d4b4b2c9b3392805ae5c3b9a5f", "type": "electric_scooter", "is_reserved": 0, "lon": -77.03425683333333}, {"fusion_lat": 0.0, "name": "c2b8f915f06bfe6a584f1b6e398e5f2b", "is_disabled": 0, "rental_uris": {"android": "https://dc.lft.to/lastmile_qr_scan", "ios": "https://dc.lft.to/lastmile_qr_scan"}, "fusion_lon": 0.0, "lat": 38.94854466666666, "bike_id": "c2b8f915f06bfe6a584f1b6e398e5f2b", "type": "electric_scooter", "is_reserved": 0, "lon": -77.02572916666666}, {"fusion_lat": 0.0, "name": "85d5dbddc05239152e35bd5eb089cf9e", "is_disabled": 0, "rental_uris": {"android": "https://dc.lft.to/lastmile_qr_scan", "ios": "https://dc.lft.to/lastmile_qr_scan"}, "fusion_lon": 0.0, "lat": 38.90004183333333, "bike_id": "85d5dbddc05239152e35bd5eb089cf9e", "type": "electric_scooter", "is_reserved": 0, "lon": -77.03351416666666}, {"fusion_lat": 0.0, "name": "a7b1cff1e9c27180050d68d3df7da7da", "is_disabled": 0, "rental_uris": {"android": "https://dc.lft.to/lastmile_qr_scan", "ios": "https://dc.lft.to/lastmile_qr_scan"}, "fusion_lon": 0.0, "lat": 38.900242, "bike_id": "a7b1cff1e9c27180050d68d3df7da7da", "type": "electric_scooter", "is_reserved": 0, "lon": -76.99855716666667}, {"fusion_lat": 0.0, "name": "0b4ccb5525aa77baaaefa4a5a691b133", "is_disabled": 0, "rental_uris": {"android": "https://dc.lft.to/lastmile_qr_scan", "ios": "https://dc.lft.to/lastmile_qr_scan"}, "fusion_lon": 0.0, "lat": 38.89007683333333, "bike_id": "0b4ccb5525aa77baaaefa4a5a691b133", "type": "electric_scooter", "is_reserved": 0, "lon": -76.93736483333333}, {"fusion_lat": 0.0, "name": "b67cbd3bf80fb9bab98832e2106d4a44", "is_disabled": 0, "rental_uris": {"android": "https://dc.lft.to/lastmile_qr_scan", "ios": "https://dc.lft.to/lastmile_qr_scan"}, "fusion_lon": 0.0, "lat": 38.89603683333333, "bike_id": "b67cbd3bf80fb9bab98832e2106d4a44", "type": "electric_scooter", "is_reserved": 0, "lon": -76.98110066666666}, {"fusion_lat": 0.0, "name": "b5be53af93c3b903afaaabd6db9f6413", "is_disabled": 0, "rental_uris": {"android": "https://dc.lft.to/lastmile_qr_scan", "ios": "https://dc.lft.to/lastmile_qr_scan"}, "fusion_lon": 0.0, "lat": 38.9207735, "bike_id": "b5be53af93c3b903afaaabd6db9f6413", "type": "electric_scooter", "is_reserved": 0, "lon": -76.994804}, {"fusion_lat": 0.0, "name": "3779a504e594ff1cebc2deca218a5456", "is_disabled": 0, "rental_uris": {"android": "https://dc.lft.to/lastmile_qr_scan", "ios": "https://dc.lft.to/lastmile_qr_scan"}, "fusion_lon": 0.0, "lat": 38.931830166666664, "bike_id": "3779a504e594ff1cebc2deca218a5456", "type": "electric_scooter", "is_reserved": 0, "lon": -77.02353816666667}, {"fusion_lat": 0.0, "name": "f0ab1a3e18f537e913ad183c9c0382d7", "is_disabled": 0, "rental_uris": {"android": "https://dc.lft.to/lastmile_qr_scan", "ios": "https://dc.lft.to/lastmile_qr_scan"}, "fusion_lon": 0.0, "lat": 38.9002475, "bike_id": "f0ab1a3e18f537e913ad183c9c0382d7", "type": "electric_scooter", "is_reserved": 0, "lon": -76.99855333333333}, {"fusion_lat": 0.0, "name": "c9dd24f1a1ccee5a7535828186927566", "is_disabled": 0, "rental_uris": {"android": "https://dc.lft.to/lastmile_qr_scan", "ios": "https://dc.lft.to/lastmile_qr_scan"}, "fusion_lon": 0.0, "lat": 38.90047, "bike_id": "c9dd24f1a1ccee5a7535828186927566", "type": "electric_scooter", "is_reserved": 0, "lon": -77.00067116666666}, {"fusion_lat": 0.0, "name": "ff5e0c3ac25922b82a40b0af26a79d9b", "is_disabled": 0, "rental_uris": {"android": "https://dc.lft.to/lastmile_qr_scan", "ios": "https://dc.lft.to/lastmile_qr_scan"}, "fusion_lon": 0.0, "lat": 38.928740166666664, "bike_id": "ff5e0c3ac25922b82a40b0af26a79d9b", "type": "electric_scooter", "is_reserved": 0, "lon": -77.01416516666667}, {"fusion_lat": 0.0, "name": "28e3192601e7cf89d4d70e2c21f77bde", "is_disabled": 0, "rental_uris": {"android": "https://dc.lft.to/lastmile_qr_scan", "ios": "https://dc.lft.to/lastmile_qr_scan"}, "fusion_lon": 0.0, "lat": 38.914136, "bike_id": "28e3192601e7cf89d4d70e2c21f77bde", "type": "electric_scooter", "is_reserved": 0, "lon": -77.0317285}, {"fusion_lat": 0.0, "name": "9f30fa0afa1b6633192886f95e095b2b", "is_disabled": 0, "rental_uris": {"android": "https://dc.lft.to/lastmile_qr_scan", "ios": "https://dc.lft.to/lastmile_qr_scan"}, "fusion_lon": 0.0, "lat": 38.9302145, "bike_id": "9f30fa0afa1b6633192886f95e095b2b", "type": "electric_scooter", "is_reserved": 0, "lon": -77.0378885}, {"fusion_lat": 0.0, "name": "16789d05e572d30b219fa2f010bc8995", "is_disabled": 0, "rental_uris": {"android": "https://dc.lft.to/lastmile_qr_scan", "ios": "https://dc.lft.to/lastmile_qr_scan"}, "fusion_lon": 0.0, "lat": 38.8662135, "bike_id": "16789d05e572d30b219fa2f010bc8995", "type": "electric_bike", "is_reserved": 0, "lon": -76.94570833333333}, {"fusion_lat": 0.0, "name": "6004e3079f329c9dc8fad2fcd760ec46", "is_disabled": 0, "rental_uris": {"android": "https://dc.lft.to/lastmile_qr_scan", "ios": "https://dc.lft.to/lastmile_qr_scan"}, "fusion_lon": 0.0, "lat": 38.9568205, "bike_id": "6004e3079f329c9dc8fad2fcd760ec46", "type": "electric_bike", "is_reserved": 0, "lon": -77.02224733333334}, {"fusion_lat": 0.0, "name": "e6024aaf1ef4d75490cd4e41609d3765", "is_disabled": 0, "rental_uris": {"android": "https://dc.lft.to/lastmile_qr_scan", "ios": "https://dc.lft.to/lastmile_qr_scan"}, "fusion_lon": 0.0, "lat": 38.91668716666667, "bike_id": "e6024aaf1ef4d75490cd4e41609d3765", "type": "electric_scooter", "is_reserved": 0, "lon": -77.02413116666666}, {"fusion_lat": 0.0, "name": "200a6ec2eacf822a8b45ca76c985bcbe", "is_disabled": 0, "rental_uris": {"android": "https://dc.lft.to/lastmile_qr_scan", "ios": "https://dc.lft.to/lastmile_qr_scan"}, "fusion_lon": 0.0, "lat": 38.90403766666667, "bike_id": "200a6ec2eacf822a8b45ca76c985bcbe", "type": "electric_scooter", "is_reserved": 0, "lon": -77.035239}, {"fusion_lat": 0.0, "name": "821cd485c6c1aa3b5cb646fc53d9e22a", "is_disabled": 0, "rental_uris": {"android": "https://dc.lft.to/lastmile_qr_scan", "ios": "https://dc.lft.to/lastmile_qr_scan"}, "fusion_lon": 0.0, "lat": 38.919226, "bike_id": "821cd485c6c1aa3b5cb646fc53d9e22a", "type": "electric_scooter", "is_reserved": 0, "lon": -77.02490016666667}, {"fusion_lat": 0.0, "name": "f83b75cf24a5deeb8a937dcb60baaf58", "is_disabled": 0, "rental_uris": {"android": "https://dc.lft.to/lastmile_qr_scan", "ios": "https://dc.lft.to/lastmile_qr_scan"}, "fusion_lon": 0.0, "lat": 38.922215, "bike_id": "f83b75cf24a5deeb8a937dcb60baaf58", "type": "electric_scooter", "is_reserved": 0, "lon": -77.02214216666667}, {"fusion_lat": 0.0, "name": "5d45e57fed49b0278f1c38c27b6fc3d1", "is_disabled": 0, "rental_uris": {"android": "https://dc.lft.to/lastmile_qr_scan", "ios": "https://dc.lft.to/lastmile_qr_scan"}, "fusion_lon": 0.0, "lat": 38.92969333333333, "bike_id": "5d45e57fed49b0278f1c38c27b6fc3d1", "type": "electric_scooter", "is_reserved": 0, "lon": -77.03132683333334}, {"fusion_lat": 0.0, "name": "277286b3e133a6009f5c9651080ae230", "is_disabled": 0, "rental_uris": {"android": "https://dc.lft.to/lastmile_qr_scan", "ios": "https://dc.lft.to/lastmile_qr_scan"}, "fusion_lon": 0.0, "lat": 38.899379833333334, "bike_id": "277286b3e133a6009f5c9651080ae230", "type": "electric_scooter", "is_reserved": 0, "lon": -77.0500235}, {"fusion_lat": 0.0, "name": "43f84c15d74da2d5a849dc77312c65d7", "is_disabled": 0, "rental_uris": {"android": "https://dc.lft.to/lastmile_qr_scan", "ios": "https://dc.lft.to/lastmile_qr_scan"}, "fusion_lon": 0.0, "lat": 38.90225783333333, "bike_id": "43f84c15d74da2d5a849dc77312c65d7", "type": "electric_scooter", "is_reserved": 0, "lon": -77.06019216666667}, {"fusion_lat": 0.0, "name": "c7fd5110a6a45f26b0f7d91fe4483ecf", "is_disabled": 0, "rental_uris": {"android": "https://dc.lft.to/lastmile_qr_scan", "ios": "https://dc.lft.to/lastmile_qr_scan"}, "fusion_lon": 0.0, "lat": 38.94153466666667, "bike_id": "c7fd5110a6a45f26b0f7d91fe4483ecf", "type": "electric_bike", "is_reserved": 0, "lon": -77.00193483333334}, {"fusion_lat": 0.0, "name": "8adf64936ad8d9ffab4632e94adff704", "is_disabled": 0, "rental_uris": {"android": "https://dc.lft.to/lastmile_qr_scan", "ios": "https://dc.lft.to/lastmile_qr_scan"}, "fusion_lon": 0.0, "lat": 38.904238, "bike_id": "8adf64936ad8d9ffab4632e94adff704", "type": "electric_scooter", "is_reserved": 0, "lon": -77.0188685}, {"fusion_lat": 0.0, "name": "c3a1c7991286ef6d1e7d94289a93b5dd", "is_disabled": 0, "rental_uris": {"android": "https://dc.lft.to/lastmile_qr_scan", "ios": "https://dc.lft.to/lastmile_qr_scan"}, "fusion_lon": 0.0, "lat": 38.9878785, "bike_id": "c3a1c7991286ef6d1e7d94289a93b5dd", "type": "electric_bike", "is_reserved": 0, "lon": -77.14096116666667}, {"fusion_lat": 0.0, "name": "043e1f6d720a8c7c0d8a95e1e07f95d9", "is_disabled": 0, "rental_uris": {"android": "https://dc.lft.to/lastmile_qr_scan", "ios": "https://dc.lft.to/lastmile_qr_scan"}, "fusion_lon": 0.0, "lat": 38.91981416666667, "bike_id": "043e1f6d720a8c7c0d8a95e1e07f95d9", "type": "electric_scooter", "is_reserved": 0, "lon": -77.0250665}, {"fusion_lat": 0.0, "name": "16eade6844ea994e8d5c436f70977546", "is_disabled": 0, "rental_uris": {"android": "https://dc.lft.to/lastmile_qr_scan", "ios": "https://dc.lft.to/lastmile_qr_scan"}, "fusion_lon": 0.0, "lat": 38.92254283333333, "bike_id": "16eade6844ea994e8d5c436f70977546", "type": "electric_scooter", "is_reserved": 0, "lon": -77.0184225}, {"fusion_lat": 0.0, "name": "5f600a9bcfee00ca5848678d0403654f", "is_disabled": 0, "rental_uris": {"android": "https://dc.lft.to/lastmile_qr_scan", "ios": "https://dc.lft.to/lastmile_qr_scan"}, "fusion_lon": 0.0, "lat": 38.93319966666667, "bike_id": "5f600a9bcfee00ca5848678d0403654f", "type": "electric_scooter", "is_reserved": 0, "lon": -77.02760066666667}, {"fusion_lat": 0.0, "name": "948a39669e1bcb5da6d37ad091076bb6", "is_disabled": 0, "rental_uris": {"android": "https://dc.lft.to/lastmile_qr_scan", "ios": "https://dc.lft.to/lastmile_qr_scan"}, "fusion_lon": 0.0, "lat": 38.900270166666665, "bike_id": "948a39669e1bcb5da6d37ad091076bb6", "type": "electric_scooter", "is_reserved": 0, "lon": -77.0002975}, {"fusion_lat": 0.0, "name": "054dd473c57f6a48636dab86fd6ffb11", "is_disabled": 0, "rental_uris": {"android": "https://dc.lft.to/lastmile_qr_scan", "ios": "https://dc.lft.to/lastmile_qr_scan"}, "fusion_lon": 0.0, "lat": 38.916001333333334, "bike_id": "054dd473c57f6a48636dab86fd6ffb11", "type": "electric_scooter", "is_reserved": 0, "lon": -77.03209833333334}, {"fusion_lat": 0.0, "name": "79649bf408b323368df9b628a0d43dd1", "is_disabled": 0, "rental_uris": {"android": "https://dc.lft.to/lastmile_qr_scan", "ios": "https://dc.lft.to/lastmile_qr_scan"}, "fusion_lon": 0.0, "lat": 38.90029666666667, "bike_id": "79649bf408b323368df9b628a0d43dd1", "type": "electric_scooter", "is_reserved": 0, "lon": -76.99555716666667}, {"fusion_lat": 0.0, "name": "26aa30c32edfd21e83001bd3b6c045e0", "is_disabled": 0, "rental_uris": {"android": "https://dc.lft.to/lastmile_qr_scan", "ios": "https://dc.lft.to/lastmile_qr_scan"}, "fusion_lon": 0.0, "lat": 38.92867733333333, "bike_id": "26aa30c32edfd21e83001bd3b6c045e0", "type": "electric_scooter", "is_reserved": 0, "lon": -77.034786}, {"fusion_lat": 0.0, "name": "f2b0285326c6c99ec68f585e7cc4bc63", "is_disabled": 0, "rental_uris": {"android": "https://dc.lft.to/lastmile_qr_scan", "ios": "https://dc.lft.to/lastmile_qr_scan"}, "fusion_lon": 0.0, "lat": 38.920184166666665, "bike_id": "f2b0285326c6c99ec68f585e7cc4bc63", "type": "electric_scooter", "is_reserved": 0, "lon": -76.995614}, {"fusion_lat": 0.0, "name": "ced949936a545f70f6c4b3ed8dbead51", "is_disabled": 0, "rental_uris": {"android": "https://dc.lft.to/lastmile_qr_scan", "ios": "https://dc.lft.to/lastmile_qr_scan"}, "fusion_lon": 0.0, "lat": 38.90509016666667, "bike_id": "ced949936a545f70f6c4b3ed8dbead51", "type": "electric_scooter", "is_reserved": 0, "lon": -77.02945133333333}, {"fusion_lat": 0.0, "name": "1912e1fcfdeb3557ca07edd99c83de5e", "is_disabled": 0, "rental_uris": {"android": "https://dc.lft.to/lastmile_qr_scan", "ios": "https://dc.lft.to/lastmile_qr_scan"}, "fusion_lon": 0.0, "lat": 38.928702333333334, "bike_id": "1912e1fcfdeb3557ca07edd99c83de5e", "type": "electric_scooter", "is_reserved": 0, "lon": -77.03791783333334}, {"fusion_lat": 0.0, "name": "52d1a8934f392e178046e25f20b42407", "is_disabled": 0, "rental_uris": {"android": "https://dc.lft.to/lastmile_qr_scan", "ios": "https://dc.lft.to/lastmile_qr_scan"}, "fusion_lon": 0.0, "lat": 38.92105033333333, "bike_id": "52d1a8934f392e178046e25f20b42407", "type": "electric_scooter", "is_reserved": 0, "lon": -77.07475566666666}, {"fusion_lat": 0.0, "name": "c5c95c51b6fdba2f01444d0de46ed9b8", "is_disabled": 0, "rental_uris": {"android": "https://dc.lft.to/lastmile_qr_scan", "ios": "https://dc.lft.to/lastmile_qr_scan"}, "fusion_lon": 0.0, "lat": 38.914632166666664, "bike_id": "c5c95c51b6fdba2f01444d0de46ed9b8", "type": "electric_scooter", "is_reserved": 0, "lon": -77.039034}, {"fusion_lat": 0.0, "name": "5ec0005edf3bab65d83ec58e00e488a8", "is_disabled": 0, "rental_uris": {"android": "https://dc.lft.to/lastmile_qr_scan", "ios": "https://dc.lft.to/lastmile_qr_scan"}, "fusion_lon": 0.0, "lat": 38.87382566666667, "bike_id": "5ec0005edf3bab65d83ec58e00e488a8", "type": "electric_scooter", "is_reserved": 0, "lon": -77.00025}, {"fusion_lat": 0.0, "name": "efe560d91e91fe82dc6ac5d4629fb25e", "is_disabled": 0, "rental_uris": {"android": "https://dc.lft.to/lastmile_qr_scan", "ios": "https://dc.lft.to/lastmile_qr_scan"}, "fusion_lon": 0.0, "lat": 38.917024166666664, "bike_id": "efe560d91e91fe82dc6ac5d4629fb25e", "type": "electric_scooter", "is_reserved": 0, "lon": -77.00112716666666}, {"fusion_lat": 0.0, "name": "26f3183131387c662ae712b3802dfbdf", "is_disabled": 0, "rental_uris": {"android": "https://dc.lft.to/lastmile_qr_scan", "ios": "https://dc.lft.to/lastmile_qr_scan"}, "fusion_lon": 0.0, "lat": 38.91063666666667, "bike_id": "26f3183131387c662ae712b3802dfbdf", "type": "electric_scooter", "is_reserved": 0, "lon": -77.04084883333333}, {"fusion_lat": 0.0, "name": "a0ad4b77a743a3f8b32858949b6e9b59", "is_disabled": 0, "rental_uris": {"android": "https://dc.lft.to/lastmile_qr_scan", "ios": "https://dc.lft.to/lastmile_qr_scan"}, "fusion_lon": 0.0, "lat": 38.88593083333333, "bike_id": "a0ad4b77a743a3f8b32858949b6e9b59", "type": "electric_scooter", "is_reserved": 0, "lon": -77.01722466666666}, {"fusion_lat": 0.0, "name": "62101352dcb318040a11b6b8675613d4", "is_disabled": 0, "rental_uris": {"android": "https://dc.lft.to/lastmile_qr_scan", "ios": "https://dc.lft.to/lastmile_qr_scan"}, "fusion_lon": 0.0, "lat": 38.90040583333333, "bike_id": "62101352dcb318040a11b6b8675613d4", "type": "electric_scooter", "is_reserved": 0, "lon": -76.98839066666666}, {"fusion_lat": 0.0, "name": "3b33b4c842e4e427fe55d4aee0730a81", "is_disabled": 0, "rental_uris": {"android": "https://dc.lft.to/lastmile_qr_scan", "ios": "https://dc.lft.to/lastmile_qr_scan"}, "fusion_lon": 0.0, "lat": 38.919838166666665, "bike_id": "3b33b4c842e4e427fe55d4aee0730a81", "type": "electric_scooter", "is_reserved": 0, "lon": -77.03263016666666}, {"fusion_lat": 0.0, "name": "dda5191787a003967db541e90faf4508", "is_disabled": 0, "rental_uris": {"android": "https://dc.lft.to/lastmile_qr_scan", "ios": "https://dc.lft.to/lastmile_qr_scan"}, "fusion_lon": 0.0, "lat": 38.90618816666667, "bike_id": "dda5191787a003967db541e90faf4508", "type": "electric_scooter", "is_reserved": 0, "lon": -77.02410866666666}, {"fusion_lat": 0.0, "name": "136c682115214c17f864fe8fce5cbcb9", "is_disabled": 0, "rental_uris": {"android": "https://dc.lft.to/lastmile_qr_scan", "ios": "https://dc.lft.to/lastmile_qr_scan"}, "fusion_lon": 0.0, "lat": 38.9505155, "bike_id": "136c682115214c17f864fe8fce5cbcb9", "type": "electric_scooter", "is_reserved": 0, "lon": -77.080273}, {"fusion_lat": 0.0, "name": "402b6ce04461ca82d3826a4298535cde", "is_disabled": 0, "rental_uris": {"android": "https://dc.lft.to/lastmile_qr_scan", "ios": "https://dc.lft.to/lastmile_qr_scan"}, "fusion_lon": 0.0, "lat": 38.93398883333333, "bike_id": "402b6ce04461ca82d3826a4298535cde", "type": "electric_scooter", "is_reserved": 0, "lon": -77.05745416666667}, {"fusion_lat": 0.0, "name": "0d7bb10ef9625a380c05adc611c999f6", "is_disabled": 0, "rental_uris": {"android": "https://dc.lft.to/lastmile_qr_scan", "ios": "https://dc.lft.to/lastmile_qr_scan"}, "fusion_lon": 0.0, "lat": 38.91689866666667, "bike_id": "0d7bb10ef9625a380c05adc611c999f6", "type": "electric_scooter", "is_reserved": 0, "lon": -77.025938}, {"fusion_lat": 0.0, "name": "41530131bbda4149be2fb7ac7c74c037", "is_disabled": 0, "rental_uris": {"android": "https://dc.lft.to/lastmile_qr_scan", "ios": "https://dc.lft.to/lastmile_qr_scan"}, "fusion_lon": 0.0, "lat": 38.899846833333335, "bike_id": "41530131bbda4149be2fb7ac7c74c037", "type": "electric_scooter", "is_reserved": 0, "lon": -77.04993883333333}, {"fusion_lat": 0.0, "name": "b36b68715a25c489272b449c46fc5459", "is_disabled": 0, "rental_uris": {"android": "https://dc.lft.to/lastmile_qr_scan", "ios": "https://dc.lft.to/lastmile_qr_scan"}, "fusion_lon": 0.0, "lat": 38.911251166666666, "bike_id": "b36b68715a25c489272b449c46fc5459", "type": "electric_scooter", "is_reserved": 0, "lon": -77.021984}, {"fusion_lat": 0.0, "name": "68aa3960daa04561699cd44dcedf7868", "is_disabled": 0, "rental_uris": {"android": "https://dc.lft.to/lastmile_qr_scan", "ios": "https://dc.lft.to/lastmile_qr_scan"}, "fusion_lon": 0.0, "lat": 38.879388166666665, "bike_id": "68aa3960daa04561699cd44dcedf7868", "type": "electric_scooter", "is_reserved": 0, "lon": -77.00899616666666}, {"fusion_lat": 0.0, "name": "7181e9899f56c1307dabcc9137fdf20c", "is_disabled": 0, "rental_uris": {"android": "https://dc.lft.to/lastmile_qr_scan", "ios": "https://dc.lft.to/lastmile_qr_scan"}, "fusion_lon": 0.0, "lat": 38.877888166666665, "bike_id": "7181e9899f56c1307dabcc9137fdf20c", "type": "electric_scooter", "is_reserved": 0, "lon": -77.001206}, {"fusion_lat": 0.0, "name": "095e0b8194a274268bd0602d4ea6ecbf", "is_disabled": 0, "rental_uris": {"android": "https://dc.lft.to/lastmile_qr_scan", "ios": "https://dc.lft.to/lastmile_qr_scan"}, "fusion_lon": 0.0, "lat": 38.946002166666666, "bike_id": "095e0b8194a274268bd0602d4ea6ecbf", "type": "electric_bike", "is_reserved": 0, "lon": -77.02863783333333}, {"fusion_lat": 0.0, "name": "33e90e52e77005c81768a9d35b13b8cd", "is_disabled": 0, "rental_uris": {"android": "https://dc.lft.to/lastmile_qr_scan", "ios": "https://dc.lft.to/lastmile_qr_scan"}, "fusion_lon": 0.0, "lat": 38.897277333333335, "bike_id": "33e90e52e77005c81768a9d35b13b8cd", "type": "electric_scooter", "is_reserved": 0, "lon": -77.044232}, {"fusion_lat": 0.0, "name": "b4c64f3dd6fcaaf0ec8ce02d869343be", "is_disabled": 0, "rental_uris": {"android": "https://dc.lft.to/lastmile_qr_scan", "ios": "https://dc.lft.to/lastmile_qr_scan"}, "fusion_lon": 0.0, "lat": 38.886218166666666, "bike_id": "b4c64f3dd6fcaaf0ec8ce02d869343be", "type": "electric_scooter", "is_reserved": 0, "lon": -76.99609533333333}, {"fusion_lat": 0.0, "name": "7d3a380033669efa0f0ff88a2dbc94b7", "is_disabled": 0, "rental_uris": {"android": "https://dc.lft.to/lastmile_qr_scan", "ios": "https://dc.lft.to/lastmile_qr_scan"}, "fusion_lon": 0.0, "lat": 38.8961355, "bike_id": "7d3a380033669efa0f0ff88a2dbc94b7", "type": "electric_scooter", "is_reserved": 0, "lon": -77.0263315}, {"fusion_lat": 0.0, "name": "b975222c745dd361c8f26fae689a89c4", "is_disabled": 0, "rental_uris": {"android": "https://dc.lft.to/lastmile_qr_scan", "ios": "https://dc.lft.to/lastmile_qr_scan"}, "fusion_lon": 0.0, "lat": 38.91595733333333, "bike_id": "b975222c745dd361c8f26fae689a89c4", "type": "electric_scooter", "is_reserved": 0, "lon": -77.02204783333333}, {"fusion_lat": 0.0, "name": "625295eae174617ec36386e670dd2550", "is_disabled": 0, "rental_uris": {"android": "https://dc.lft.to/lastmile_qr_scan", "ios": "https://dc.lft.to/lastmile_qr_scan"}, "fusion_lon": 0.0, "lat": 38.8870945, "bike_id": "625295eae174617ec36386e670dd2550", "type": "electric_scooter", "is_reserved": 0, "lon": -76.996739}, {"fusion_lat": 0.0, "name": "5c74d875c6269879c22ea37b5462d12e", "is_disabled": 0, "rental_uris": {"android": "https://dc.lft.to/lastmile_qr_scan", "ios": "https://dc.lft.to/lastmile_qr_scan"}, "fusion_lon": 0.0, "lat": 38.91695133333333, "bike_id": "5c74d875c6269879c22ea37b5462d12e", "type": "electric_scooter", "is_reserved": 0, "lon": -77.02728783333333}, {"fusion_lat": 0.0, "name": "55058b6f509c97ad01deb961b0075b26", "is_disabled": 0, "rental_uris": {"android": "https://dc.lft.to/lastmile_qr_scan", "ios": "https://dc.lft.to/lastmile_qr_scan"}, "fusion_lon": 0.0, "lat": 38.918391666666665, "bike_id": "55058b6f509c97ad01deb961b0075b26", "type": "electric_scooter", "is_reserved": 0, "lon": -76.9653955}, {"fusion_lat": 0.0, "name": "0dda78de97b1c9f49828fc55c3c81025", "is_disabled": 0, "rental_uris": {"android": "https://dc.lft.to/lastmile_qr_scan", "ios": "https://dc.lft.to/lastmile_qr_scan"}, "fusion_lon": 0.0, "lat": 38.91656016666666, "bike_id": "0dda78de97b1c9f49828fc55c3c81025", "type": "electric_scooter", "is_reserved": 0, "lon": -77.0281115}, {"fusion_lat": 0.0, "name": "6e5d00087d838a29ea7d9afa542e6cd8", "is_disabled": 0, "rental_uris": {"android": "https://dc.lft.to/lastmile_qr_scan", "ios": "https://dc.lft.to/lastmile_qr_scan"}, "fusion_lon": 0.0, "lat": 38.907359, "bike_id": "6e5d00087d838a29ea7d9afa542e6cd8", "type": "electric_scooter", "is_reserved": 0, "lon": -77.00371816666667}, {"fusion_lat": 0.0, "name": "3049c5df77d776b0404e3b314bf94d3d", "is_disabled": 0, "rental_uris": {"android": "https://dc.lft.to/lastmile_qr_scan", "ios": "https://dc.lft.to/lastmile_qr_scan"}, "fusion_lon": 0.0, "lat": 38.92476083333333, "bike_id": "3049c5df77d776b0404e3b314bf94d3d", "type": "electric_scooter", "is_reserved": 0, "lon": -77.02549316666666}, {"fusion_lat": 0.0, "name": "ab390b6202718215fedfa99ec7405a7c", "is_disabled": 0, "rental_uris": {"android": "https://dc.lft.to/lastmile_qr_scan", "ios": "https://dc.lft.to/lastmile_qr_scan"}, "fusion_lon": 0.0, "lat": 38.920890166666666, "bike_id": "ab390b6202718215fedfa99ec7405a7c", "type": "electric_scooter", "is_reserved": 0, "lon": -77.02425966666667}, {"fusion_lat": 0.0, "name": "374795c158a8011080ae5e08e35627fd", "is_disabled": 0, "rental_uris": {"android": "https://dc.lft.to/lastmile_qr_scan", "ios": "https://dc.lft.to/lastmile_qr_scan"}, "fusion_lon": 0.0, "lat": 38.984783166666666, "bike_id": "374795c158a8011080ae5e08e35627fd", "type": "electric_scooter", "is_reserved": 0, "lon": -77.026391}, {"fusion_lat": 0.0, "name": "e671b268adb3dc176d9ff0a59bf7f324", "is_disabled": 0, "rental_uris": {"android": "https://dc.lft.to/lastmile_qr_scan", "ios": "https://dc.lft.to/lastmile_qr_scan"}, "fusion_lon": 0.0, "lat": 38.917067833333334, "bike_id": "e671b268adb3dc176d9ff0a59bf7f324", "type": "electric_scooter", "is_reserved": 0, "lon": -77.02869183333334}, {"fusion_lat": 0.0, "name": "cef561566fa7d8fe16ac082befa12b6b", "is_disabled": 0, "rental_uris": {"android": "https://dc.lft.to/lastmile_qr_scan", "ios": "https://dc.lft.to/lastmile_qr_scan"}, "fusion_lon": 0.0, "lat": 38.887611666666665, "bike_id": "cef561566fa7d8fe16ac082befa12b6b", "type": "electric_scooter", "is_reserved": 0, "lon": -76.99468216666666}, {"fusion_lat": 0.0, "name": "58a05b917986ebf2bb0b933b16eb79e4", "is_disabled": 0, "rental_uris": {"android": "https://dc.lft.to/lastmile_qr_scan", "ios": "https://dc.lft.to/lastmile_qr_scan"}, "fusion_lon": 0.0, "lat": 38.921608, "bike_id": "58a05b917986ebf2bb0b933b16eb79e4", "type": "electric_scooter", "is_reserved": 0, "lon": -77.0364975}, {"fusion_lat": 0.0, "name": "5e12e9d25852e132acaa82b9bc6c5a63", "is_disabled": 0, "rental_uris": {"android": "https://dc.lft.to/lastmile_qr_scan", "ios": "https://dc.lft.to/lastmile_qr_scan"}, "fusion_lon": 0.0, "lat": 38.89851, "bike_id": "5e12e9d25852e132acaa82b9bc6c5a63", "type": "electric_scooter", "is_reserved": 0, "lon": -77.02192983333333}, {"fusion_lat": 0.0, "name": "2e7e4e7ca39151d59716c92777296b6c", "is_disabled": 0, "rental_uris": {"android": "https://dc.lft.to/lastmile_qr_scan", "ios": "https://dc.lft.to/lastmile_qr_scan"}, "fusion_lon": 0.0, "lat": 38.907248833333334, "bike_id": "2e7e4e7ca39151d59716c92777296b6c", "type": "electric_scooter", "is_reserved": 0, "lon": -77.04046133333334}, {"fusion_lat": 0.0, "name": "abbded9bc77e6899d766406a44524d1c", "is_disabled": 0, "rental_uris": {"android": "https://dc.lft.to/lastmile_qr_scan", "ios": "https://dc.lft.to/lastmile_qr_scan"}, "fusion_lon": 0.0, "lat": 38.905511833333335, "bike_id": "abbded9bc77e6899d766406a44524d1c", "type": "electric_scooter", "is_reserved": 0, "lon": -77.00585766666667}, {"fusion_lat": 0.0, "name": "aa5be9ea508c47c603605d9b3267dee2", "is_disabled": 0, "rental_uris": {"android": "https://dc.lft.to/lastmile_qr_scan", "ios": "https://dc.lft.to/lastmile_qr_scan"}, "fusion_lon": 0.0, "lat": 38.8983035, "bike_id": "aa5be9ea508c47c603605d9b3267dee2", "type": "electric_scooter", "is_reserved": 0, "lon": -77.0240795}, {"fusion_lat": 0.0, "name": "76a12dacaa668dc9246d5bc4cf228b27", "is_disabled": 0, "rental_uris": {"android": "https://dc.lft.to/lastmile_qr_scan", "ios": "https://dc.lft.to/lastmile_qr_scan"}, "fusion_lon": 0.0, "lat": 38.888042166666665, "bike_id": "76a12dacaa668dc9246d5bc4cf228b27", "type": "electric_scooter", "is_reserved": 0, "lon": -76.9835915}, {"fusion_lat": 0.0, "name": "1b94ce91549547ef32d55cea7e9329d5", "is_disabled": 0, "rental_uris": {"android": "https://dc.lft.to/lastmile_qr_scan", "ios": "https://dc.lft.to/lastmile_qr_scan"}, "fusion_lon": 0.0, "lat": 38.9125105, "bike_id": "1b94ce91549547ef32d55cea7e9329d5", "type": "electric_scooter", "is_reserved": 0, "lon": -77.03243683333334}, {"fusion_lat": 0.0, "name": "3198fd8f115df942faa4853b3e882ef1", "is_disabled": 0, "rental_uris": {"android": "https://dc.lft.to/lastmile_qr_scan", "ios": "https://dc.lft.to/lastmile_qr_scan"}, "fusion_lon": 0.0, "lat": 38.919744, "bike_id": "3198fd8f115df942faa4853b3e882ef1", "type": "electric_scooter", "is_reserved": 0, "lon": -77.02384366666666}, {"fusion_lat": 0.0, "name": "ba6d53723e7f6d6c2bc61fa6e8d473e7", "is_disabled": 0, "rental_uris": {"android": "https://dc.lft.to/lastmile_qr_scan", "ios": "https://dc.lft.to/lastmile_qr_scan"}, "fusion_lon": 0.0, "lat": 38.94167516666667, "bike_id": "ba6d53723e7f6d6c2bc61fa6e8d473e7", "type": "electric_scooter", "is_reserved": 0, "lon": -77.02510583333333}, {"fusion_lat": 0.0, "name": "125a339827c5cc4316cc2c876963cf4f", "is_disabled": 0, "rental_uris": {"android": "https://dc.lft.to/lastmile_qr_scan", "ios": "https://dc.lft.to/lastmile_qr_scan"}, "fusion_lon": 0.0, "lat": 38.90219716666667, "bike_id": "125a339827c5cc4316cc2c876963cf4f", "type": "electric_scooter", "is_reserved": 0, "lon": -77.02271833333333}, {"fusion_lat": 0.0, "name": "20c06edfff5bbe3ac956d5f4848acbf0", "is_disabled": 0, "rental_uris": {"android": "https://dc.lft.to/lastmile_qr_scan", "ios": "https://dc.lft.to/lastmile_qr_scan"}, "fusion_lon": 0.0, "lat": 38.90936383333333, "bike_id": "20c06edfff5bbe3ac956d5f4848acbf0", "type": "electric_scooter", "is_reserved": 0, "lon": -77.032094}, {"fusion_lat": 0.0, "name": "6b13d928213d8072a7c474d193b0e94c", "is_disabled": 0, "rental_uris": {"android": "https://dc.lft.to/lastmile_qr_scan", "ios": "https://dc.lft.to/lastmile_qr_scan"}, "fusion_lon": 0.0, "lat": 38.913425833333335, "bike_id": "6b13d928213d8072a7c474d193b0e94c", "type": "electric_bike", "is_reserved": 0, "lon": -76.98897133333334}, {"fusion_lat": 0.0, "name": "29c8472264fae190b67a44303b6b7e2b", "is_disabled": 0, "rental_uris": {"android": "https://dc.lft.to/lastmile_qr_scan", "ios": "https://dc.lft.to/lastmile_qr_scan"}, "fusion_lon": 0.0, "lat": 38.926809166666665, "bike_id": "29c8472264fae190b67a44303b6b7e2b", "type": "electric_scooter", "is_reserved": 0, "lon": -77.03143033333333}, {"fusion_lat": 0.0, "name": "9cee395d0fd2fa55e29ce54ddbd68169", "is_disabled": 0, "rental_uris": {"android": "https://dc.lft.to/lastmile_qr_scan", "ios": "https://dc.lft.to/lastmile_qr_scan"}, "fusion_lon": 0.0, "lat": 38.86633966666667, "bike_id": "9cee395d0fd2fa55e29ce54ddbd68169", "type": "electric_scooter", "is_reserved": 0, "lon": -76.98259583333333}, {"fusion_lat": 0.0, "name": "894466b9f640117b28707055f5cf5335", "is_disabled": 0, "rental_uris": {"android": "https://dc.lft.to/lastmile_qr_scan", "ios": "https://dc.lft.to/lastmile_qr_scan"}, "fusion_lon": 0.0, "lat": 38.916882, "bike_id": "894466b9f640117b28707055f5cf5335", "type": "electric_scooter", "is_reserved": 0, "lon": -77.028541}, {"fusion_lat": 0.0, "name": "cbaa3d6f46d445e4a184926f025b7dc5", "is_disabled": 0, "rental_uris": {"android": "https://dc.lft.to/lastmile_qr_scan", "ios": "https://dc.lft.to/lastmile_qr_scan"}, "fusion_lon": 0.0, "lat": 39.070555666666664, "bike_id": "cbaa3d6f46d445e4a184926f025b7dc5", "type": "electric_bike", "is_reserved": 0, "lon": -77.11480716666667}, {"fusion_lat": 0.0, "name": "4b7877f6c3aaa37514ff211a008972ec", "is_disabled": 0, "rental_uris": {"android": "https://dc.lft.to/lastmile_qr_scan", "ios": "https://dc.lft.to/lastmile_qr_scan"}, "fusion_lon": 0.0, "lat": 38.92468066666667, "bike_id": "4b7877f6c3aaa37514ff211a008972ec", "type": "electric_scooter", "is_reserved": 0, "lon": -77.028909}, {"fusion_lat": 0.0, "name": "96376cd8601a4b691fecb4d8e5f5bfa4", "is_disabled": 0, "rental_uris": {"android": "https://dc.lft.to/lastmile_qr_scan", "ios": "https://dc.lft.to/lastmile_qr_scan"}, "fusion_lon": 0.0, "lat": 38.9453225, "bike_id": "96376cd8601a4b691fecb4d8e5f5bfa4", "type": "electric_scooter", "is_reserved": 0, "lon": -77.0253225}, {"fusion_lat": 0.0, "name": "9041ffdc9a31555de0e75aed3bc81de2", "is_disabled": 0, "rental_uris": {"android": "https://dc.lft.to/lastmile_qr_scan", "ios": "https://dc.lft.to/lastmile_qr_scan"}, "fusion_lon": 0.0, "lat": 38.882973166666666, "bike_id": "9041ffdc9a31555de0e75aed3bc81de2", "type": "electric_scooter", "is_reserved": 0, "lon": -76.94854366666667}, {"fusion_lat": 0.0, "name": "b9561d4e11205c1e4203048e3082d79c", "is_disabled": 0, "rental_uris": {"android": "https://dc.lft.to/lastmile_qr_scan", "ios": "https://dc.lft.to/lastmile_qr_scan"}, "fusion_lon": 0.0, "lat": 38.922462333333335, "bike_id": "b9561d4e11205c1e4203048e3082d79c", "type": "electric_scooter", "is_reserved": 0, "lon": -77.02218716666667}, {"fusion_lat": 0.0, "name": "aa14c92ec0587678c655895ecd6c9800", "is_disabled": 0, "rental_uris": {"android": "https://dc.lft.to/lastmile_qr_scan", "ios": "https://dc.lft.to/lastmile_qr_scan"}, "fusion_lon": 0.0, "lat": 38.90393866666667, "bike_id": "aa14c92ec0587678c655895ecd6c9800", "type": "electric_scooter", "is_reserved": 0, "lon": -77.06779033333333}, {"fusion_lat": 0.0, "name": "f6ac0098e2f3fbe38c5345f20115fdaa", "is_disabled": 0, "rental_uris": {"android": "https://dc.lft.to/lastmile_qr_scan", "ios": "https://dc.lft.to/lastmile_qr_scan"}, "fusion_lon": 0.0, "lat": 38.8970955, "bike_id": "f6ac0098e2f3fbe38c5345f20115fdaa", "type": "electric_scooter", "is_reserved": 0, "lon": -77.02345516666666}, {"fusion_lat": 0.0, "name": "1eccc5ff4e461d368126d8271f053a7c", "is_disabled": 0, "rental_uris": {"android": "https://dc.lft.to/lastmile_qr_scan", "ios": "https://dc.lft.to/lastmile_qr_scan"}, "fusion_lon": 0.0, "lat": 38.9170635, "bike_id": "1eccc5ff4e461d368126d8271f053a7c", "type": "electric_scooter", "is_reserved": 0, "lon": -77.02775866666667}, {"fusion_lat": 0.0, "name": "357803ab4a82b3fbe397cf56f3a94f38", "is_disabled": 0, "rental_uris": {"android": "https://dc.lft.to/lastmile_qr_scan", "ios": "https://dc.lft.to/lastmile_qr_scan"}, "fusion_lon": 0.0, "lat": 38.89605666666667, "bike_id": "357803ab4a82b3fbe397cf56f3a94f38", "type": "electric_scooter", "is_reserved": 0, "lon": -77.00928733333333}, {"fusion_lat": 0.0, "name": "8557397502b9127c3039c0219674b052", "is_disabled": 0, "rental_uris": {"android": "https://dc.lft.to/lastmile_qr_scan", "ios": "https://dc.lft.to/lastmile_qr_scan"}, "fusion_lon": 0.0, "lat": 38.9175905, "bike_id": "8557397502b9127c3039c0219674b052", "type": "electric_scooter", "is_reserved": 0, "lon": -77.03073483333333}, {"fusion_lat": 0.0, "name": "592f1e70b1d2a6bb19ee291c06c6d7f2", "is_disabled": 0, "rental_uris": {"android": "https://dc.lft.to/lastmile_qr_scan", "ios": "https://dc.lft.to/lastmile_qr_scan"}, "fusion_lon": 0.0, "lat": 38.911115, "bike_id": "592f1e70b1d2a6bb19ee291c06c6d7f2", "type": "electric_scooter", "is_reserved": 0, "lon": -77.0812855}, {"fusion_lat": 0.0, "name": "371bcf0a8a0362c7aabf379bd0b845bb", "is_disabled": 0, "rental_uris": {"android": "https://dc.lft.to/lastmile_qr_scan", "ios": "https://dc.lft.to/lastmile_qr_scan"}, "fusion_lon": 0.0, "lat": 38.9213065, "bike_id": "371bcf0a8a0362c7aabf379bd0b845bb", "type": "electric_scooter", "is_reserved": 0, "lon": -77.01791116666666}, {"fusion_lat": 0.0, "name": "060cd9be1dabb0f15d34e2af0dcdf07a", "is_disabled": 0, "rental_uris": {"android": "https://dc.lft.to/lastmile_qr_scan", "ios": "https://dc.lft.to/lastmile_qr_scan"}, "fusion_lon": 0.0, "lat": 38.917073333333335, "bike_id": "060cd9be1dabb0f15d34e2af0dcdf07a", "type": "electric_scooter", "is_reserved": 0, "lon": -77.02720083333334}, {"fusion_lat": 0.0, "name": "3286cd0168d9448f762ce2fae47298e2", "is_disabled": 0, "rental_uris": {"android": "https://dc.lft.to/lastmile_qr_scan", "ios": "https://dc.lft.to/lastmile_qr_scan"}, "fusion_lon": 0.0, "lat": 38.907633, "bike_id": "3286cd0168d9448f762ce2fae47298e2", "type": "electric_scooter", "is_reserved": 0, "lon": -77.0569535}, {"fusion_lat": 0.0, "name": "afb35027effc08ce80682b932ccc522d", "is_disabled": 0, "rental_uris": {"android": "https://dc.lft.to/lastmile_qr_scan", "ios": "https://dc.lft.to/lastmile_qr_scan"}, "fusion_lon": 0.0, "lat": 38.9307255, "bike_id": "afb35027effc08ce80682b932ccc522d", "type": "electric_scooter", "is_reserved": 0, "lon": -77.02177233333333}, {"fusion_lat": 0.0, "name": "d3bd71f56355a7d27eb1f3945cb07875", "is_disabled": 0, "rental_uris": {"android": "https://dc.lft.to/lastmile_qr_scan", "ios": "https://dc.lft.to/lastmile_qr_scan"}, "fusion_lon": 0.0, "lat": 38.90228, "bike_id": "d3bd71f56355a7d27eb1f3945cb07875", "type": "electric_scooter", "is_reserved": 0, "lon": -77.05914966666667}, {"fusion_lat": 0.0, "name": "d8c92cfe38cff754917a7256cc39ea03", "is_disabled": 0, "rental_uris": {"android": "https://dc.lft.to/lastmile_qr_scan", "ios": "https://dc.lft.to/lastmile_qr_scan"}, "fusion_lon": 0.0, "lat": 38.82785766666667, "bike_id": "d8c92cfe38cff754917a7256cc39ea03", "type": "electric_bike", "is_reserved": 0, "lon": -77.1248925}, {"fusion_lat": 0.0, "name": "7748c205b54ccb985a6227ecacc4ae12", "is_disabled": 0, "rental_uris": {"android": "https://dc.lft.to/lastmile_qr_scan", "ios": "https://dc.lft.to/lastmile_qr_scan"}, "fusion_lon": 0.0, "lat": 38.903051166666664, "bike_id": "7748c205b54ccb985a6227ecacc4ae12", "type": "electric_scooter", "is_reserved": 0, "lon": -77.02707633333333}, {"fusion_lat": 0.0, "name": "f5b363c7d9d059b03c0828b49662c881", "is_disabled": 0, "rental_uris": {"android": "https://dc.lft.to/lastmile_qr_scan", "ios": "https://dc.lft.to/lastmile_qr_scan"}, "fusion_lon": 0.0, "lat": 38.909699, "bike_id": "f5b363c7d9d059b03c0828b49662c881", "type": "electric_scooter", "is_reserved": 0, "lon": -77.03866966666666}, {"fusion_lat": 0.0, "name": "8e04d4d471066ca2767ee0ac28ea19c6", "is_disabled": 0, "rental_uris": {"android": "https://dc.lft.to/lastmile_qr_scan", "ios": "https://dc.lft.to/lastmile_qr_scan"}, "fusion_lon": 0.0, "lat": 38.93140233333333, "bike_id": "8e04d4d471066ca2767ee0ac28ea19c6", "type": "electric_scooter", "is_reserved": 0, "lon": -77.02372016666666}, {"fusion_lat": 0.0, "name": "795642147170f8a914e376d5e8b32b41", "is_disabled": 0, "rental_uris": {"android": "https://dc.lft.to/lastmile_qr_scan", "ios": "https://dc.lft.to/lastmile_qr_scan"}, "fusion_lon": 0.0, "lat": 38.93698966666667, "bike_id": "795642147170f8a914e376d5e8b32b41", "type": "electric_scooter", "is_reserved": 0, "lon": -77.05595216666667}, {"fusion_lat": 0.0, "name": "7a4fde6370c02c5ed09fbf884e630d5e", "is_disabled": 0, "rental_uris": {"android": "https://dc.lft.to/lastmile_qr_scan", "ios": "https://dc.lft.to/lastmile_qr_scan"}, "fusion_lon": 0.0, "lat": 38.88533783333333, "bike_id": "7a4fde6370c02c5ed09fbf884e630d5e", "type": "electric_scooter", "is_reserved": 0, "lon": -77.00056966666666}, {"fusion_lat": 0.0, "name": "32c49447b33723188bf7de1238938458", "is_disabled": 0, "rental_uris": {"android": "https://dc.lft.to/lastmile_qr_scan", "ios": "https://dc.lft.to/lastmile_qr_scan"}, "fusion_lon": 0.0, "lat": 38.920782333333335, "bike_id": "32c49447b33723188bf7de1238938458", "type": "electric_scooter", "is_reserved": 0, "lon": -77.02305683333333}, {"fusion_lat": 0.0, "name": "ba493194bd53f01b9cdd30d9836c42af", "is_disabled": 0, "rental_uris": {"android": "https://dc.lft.to/lastmile_qr_scan", "ios": "https://dc.lft.to/lastmile_qr_scan"}, "fusion_lon": 0.0, "lat": 38.900514333333334, "bike_id": "ba493194bd53f01b9cdd30d9836c42af", "type": "electric_scooter", "is_reserved": 0, "lon": -77.03515033333333}, {"fusion_lat": 0.0, "name": "9e4e7445b3a6931863503c063e6b10d2", "is_disabled": 0, "rental_uris": {"android": "https://dc.lft.to/lastmile_qr_scan", "ios": "https://dc.lft.to/lastmile_qr_scan"}, "fusion_lon": 0.0, "lat": 38.96223783333333, "bike_id": "9e4e7445b3a6931863503c063e6b10d2", "type": "electric_bike", "is_reserved": 0, "lon": -77.02627683333333}, {"fusion_lat": 0.0, "name": "3a549ffdf2240c3629a90688e0d4bb66", "is_disabled": 0, "rental_uris": {"android": "https://dc.lft.to/lastmile_qr_scan", "ios": "https://dc.lft.to/lastmile_qr_scan"}, "fusion_lon": 0.0, "lat": 38.878928333333334, "bike_id": "3a549ffdf2240c3629a90688e0d4bb66", "type": "electric_scooter", "is_reserved": 0, "lon": -77.00575033333334}, {"fusion_lat": 0.0, "name": "d160f0af55db402559f7de108293eb7e", "is_disabled": 0, "rental_uris": {"android": "https://dc.lft.to/lastmile_qr_scan", "ios": "https://dc.lft.to/lastmile_qr_scan"}, "fusion_lon": 0.0, "lat": 38.91417716666667, "bike_id": "d160f0af55db402559f7de108293eb7e", "type": "electric_scooter", "is_reserved": 0, "lon": -77.03178133333333}, {"fusion_lat": 0.0, "name": "db6d7000525c7bec63945b20c5b736e9", "is_disabled": 0, "rental_uris": {"android": "https://dc.lft.to/lastmile_qr_scan", "ios": "https://dc.lft.to/lastmile_qr_scan"}, "fusion_lon": 0.0, "lat": 38.88442233333333, "bike_id": "db6d7000525c7bec63945b20c5b736e9", "type": "electric_scooter", "is_reserved": 0, "lon": -76.98590116666666}, {"fusion_lat": 0.0, "name": "c06bc9affd03d96a48c9ca1ade7c22db", "is_disabled": 0, "rental_uris": {"android": "https://dc.lft.to/lastmile_qr_scan", "ios": "https://dc.lft.to/lastmile_qr_scan"}, "fusion_lon": 0.0, "lat": 38.882315, "bike_id": "c06bc9affd03d96a48c9ca1ade7c22db", "type": "electric_scooter", "is_reserved": 0, "lon": -77.02616433333333}, {"fusion_lat": 0.0, "name": "001ab16b419864550098bb100c5161d2", "is_disabled": 0, "rental_uris": {"android": "https://dc.lft.to/lastmile_qr_scan", "ios": "https://dc.lft.to/lastmile_qr_scan"}, "fusion_lon": 0.0, "lat": 38.92047933333333, "bike_id": "001ab16b419864550098bb100c5161d2", "type": "electric_scooter", "is_reserved": 0, "lon": -77.02368316666667}, {"fusion_lat": 0.0, "name": "2067c74432c83563a2e2cbcbf159629c", "is_disabled": 0, "rental_uris": {"android": "https://dc.lft.to/lastmile_qr_scan", "ios": "https://dc.lft.to/lastmile_qr_scan"}, "fusion_lon": 0.0, "lat": 38.874575666666665, "bike_id": "2067c74432c83563a2e2cbcbf159629c", "type": "electric_scooter", "is_reserved": 0, "lon": -77.00967283333334}, {"fusion_lat": 0.0, "name": "db4f13c8bc1e8cb85616b31f25b45d92", "is_disabled": 0, "rental_uris": {"android": "https://dc.lft.to/lastmile_qr_scan", "ios": "https://dc.lft.to/lastmile_qr_scan"}, "fusion_lon": 0.0, "lat": 38.878133166666665, "bike_id": "db4f13c8bc1e8cb85616b31f25b45d92", "type": "electric_scooter", "is_reserved": 0, "lon": -77.01316783333333}, {"fusion_lat": 0.0, "name": "d1656b9679991c1f915a0b6392cc334c", "is_disabled": 0, "rental_uris": {"android": "https://dc.lft.to/lastmile_qr_scan", "ios": "https://dc.lft.to/lastmile_qr_scan"}, "fusion_lon": 0.0, "lat": 38.91424933333333, "bike_id": "d1656b9679991c1f915a0b6392cc334c", "type": "electric_scooter", "is_reserved": 0, "lon": -77.06423316666667}, {"fusion_lat": 0.0, "name": "013123c9ad58fff7e79d341a01f29341", "is_disabled": 0, "rental_uris": {"android": "https://dc.lft.to/lastmile_qr_scan", "ios": "https://dc.lft.to/lastmile_qr_scan"}, "fusion_lon": 0.0, "lat": 38.919434833333334, "bike_id": "013123c9ad58fff7e79d341a01f29341", "type": "electric_scooter", "is_reserved": 0, "lon": -77.02485533333333}, {"fusion_lat": 0.0, "name": "9335de6bc4615913f4f7ec525c2d1156", "is_disabled": 0, "rental_uris": {"android": "https://dc.lft.to/lastmile_qr_scan", "ios": "https://dc.lft.to/lastmile_qr_scan"}, "fusion_lon": 0.0, "lat": 38.934759166666666, "bike_id": "9335de6bc4615913f4f7ec525c2d1156", "type": "electric_scooter", "is_reserved": 0, "lon": -77.028358}, {"fusion_lat": 0.0, "name": "d2fe9a17db27a5347a9fa069299b3308", "is_disabled": 0, "rental_uris": {"android": "https://dc.lft.to/lastmile_qr_scan", "ios": "https://dc.lft.to/lastmile_qr_scan"}, "fusion_lon": 0.0, "lat": 38.898720833333336, "bike_id": "d2fe9a17db27a5347a9fa069299b3308", "type": "electric_scooter", "is_reserved": 0, "lon": -76.93181216666666}, {"fusion_lat": 0.0, "name": "18219da3a5b8a02aa8fffb6f08495480", "is_disabled": 0, "rental_uris": {"android": "https://dc.lft.to/lastmile_qr_scan", "ios": "https://dc.lft.to/lastmile_qr_scan"}, "fusion_lon": 0.0, "lat": 38.90717083333333, "bike_id": "18219da3a5b8a02aa8fffb6f08495480", "type": "electric_scooter", "is_reserved": 0, "lon": -77.03436816666667}, {"fusion_lat": 0.0, "name": "fa32d58f334fa324f500089059bf6e36", "is_disabled": 0, "rental_uris": {"android": "https://dc.lft.to/lastmile_qr_scan", "ios": "https://dc.lft.to/lastmile_qr_scan"}, "fusion_lon": 0.0, "lat": 38.90573466666667, "bike_id": "fa32d58f334fa324f500089059bf6e36", "type": "electric_scooter", "is_reserved": 0, "lon": -77.03842066666667}, {"fusion_lat": 0.0, "name": "5b4ea1fdadf1644a0230aa78e8aa12e4", "is_disabled": 0, "rental_uris": {"android": "https://dc.lft.to/lastmile_qr_scan", "ios": "https://dc.lft.to/lastmile_qr_scan"}, "fusion_lon": 0.0, "lat": 38.91676433333333, "bike_id": "5b4ea1fdadf1644a0230aa78e8aa12e4", "type": "electric_scooter", "is_reserved": 0, "lon": -77.02401333333333}, {"fusion_lat": 0.0, "name": "770fe081be3a9f6143af18e9cb692969", "is_disabled": 0, "rental_uris": {"android": "https://dc.lft.to/lastmile_qr_scan", "ios": "https://dc.lft.to/lastmile_qr_scan"}, "fusion_lon": 0.0, "lat": 38.91601216666667, "bike_id": "770fe081be3a9f6143af18e9cb692969", "type": "electric_scooter", "is_reserved": 0, "lon": -77.03183666666666}, {"fusion_lat": 0.0, "name": "7b538a1d77d73dd83ba64df7e61f2020", "is_disabled": 0, "rental_uris": {"android": "https://dc.lft.to/lastmile_qr_scan", "ios": "https://dc.lft.to/lastmile_qr_scan"}, "fusion_lon": 0.0, "lat": 38.93745416666667, "bike_id": "7b538a1d77d73dd83ba64df7e61f2020", "type": "electric_scooter", "is_reserved": 0, "lon": -77.0252345}, {"fusion_lat": 0.0, "name": "c08ada627f422565e37db2c4cacf5dc4", "is_disabled": 0, "rental_uris": {"android": "https://dc.lft.to/lastmile_qr_scan", "ios": "https://dc.lft.to/lastmile_qr_scan"}, "fusion_lon": 0.0, "lat": 38.92211316666667, "bike_id": "c08ada627f422565e37db2c4cacf5dc4", "type": "electric_scooter", "is_reserved": 0, "lon": -77.01823966666667}, {"fusion_lat": 0.0, "name": "d6802baf39bf55bfed0e0ad6ea3f84ac", "is_disabled": 0, "rental_uris": {"android": "https://dc.lft.to/lastmile_qr_scan", "ios": "https://dc.lft.to/lastmile_qr_scan"}, "fusion_lon": 0.0, "lat": 38.90381133333333, "bike_id": "d6802baf39bf55bfed0e0ad6ea3f84ac", "type": "electric_scooter", "is_reserved": 0, "lon": -77.06127266666667}, {"fusion_lat": 0.0, "name": "2154e0fd09c6e5c841e221427f332d9f", "is_disabled": 0, "rental_uris": {"android": "https://dc.lft.to/lastmile_qr_scan", "ios": "https://dc.lft.to/lastmile_qr_scan"}, "fusion_lon": 0.0, "lat": 38.916910666666666, "bike_id": "2154e0fd09c6e5c841e221427f332d9f", "type": "electric_scooter", "is_reserved": 0, "lon": -77.02866166666666}, {"fusion_lat": 0.0, "name": "014fb7b0db2fd08b8c5955a51a6f318c", "is_disabled": 0, "rental_uris": {"android": "https://dc.lft.to/lastmile_qr_scan", "ios": "https://dc.lft.to/lastmile_qr_scan"}, "fusion_lon": 0.0, "lat": 38.906455, "bike_id": "014fb7b0db2fd08b8c5955a51a6f318c", "type": "electric_scooter", "is_reserved": 0, "lon": -77.02950566666667}, {"fusion_lat": 0.0, "name": "cc55116750f1bd4e37c8ca28f9dca169", "is_disabled": 0, "rental_uris": {"android": "https://dc.lft.to/lastmile_qr_scan", "ios": "https://dc.lft.to/lastmile_qr_scan"}, "fusion_lon": 0.0, "lat": 38.9007675, "bike_id": "cc55116750f1bd4e37c8ca28f9dca169", "type": "electric_scooter", "is_reserved": 0, "lon": -77.04807483333333}, {"fusion_lat": 0.0, "name": "26b7c5ca4e11b5ff1146aa71276c4a2a", "is_disabled": 0, "rental_uris": {"android": "https://dc.lft.to/lastmile_qr_scan", "ios": "https://dc.lft.to/lastmile_qr_scan"}, "fusion_lon": 0.0, "lat": 38.94180866666667, "bike_id": "26b7c5ca4e11b5ff1146aa71276c4a2a", "type": "electric_scooter", "is_reserved": 0, "lon": -77.0249735}, {"fusion_lat": 0.0, "name": "2ff97145be53f0683f597af184987e27", "is_disabled": 0, "rental_uris": {"android": "https://dc.lft.to/lastmile_qr_scan", "ios": "https://dc.lft.to/lastmile_qr_scan"}, "fusion_lon": 0.0, "lat": 38.8956265, "bike_id": "2ff97145be53f0683f597af184987e27", "type": "electric_bike", "is_reserved": 0, "lon": -77.12736416666667}, {"fusion_lat": 0.0, "name": "cc590e1ba61c8be5049bf9f0db08adba", "is_disabled": 0, "rental_uris": {"android": "https://dc.lft.to/lastmile_qr_scan", "ios": "https://dc.lft.to/lastmile_qr_scan"}, "fusion_lon": 0.0, "lat": 38.93448633333333, "bike_id": "cc590e1ba61c8be5049bf9f0db08adba", "type": "electric_scooter", "is_reserved": 0, "lon": -77.023413}, {"fusion_lat": 0.0, "name": "83fb2ebe1c68cd9f3858102747bca148", "is_disabled": 0, "rental_uris": {"android": "https://dc.lft.to/lastmile_qr_scan", "ios": "https://dc.lft.to/lastmile_qr_scan"}, "fusion_lon": 0.0, "lat": 38.900339, "bike_id": "83fb2ebe1c68cd9f3858102747bca148", "type": "electric_scooter", "is_reserved": 0, "lon": -77.02384716666667}, {"fusion_lat": 0.0, "name": "070984bb83bd65db3cd41adb07f7454d", "is_disabled": 0, "rental_uris": {"android": "https://dc.lft.to/lastmile_qr_scan", "ios": "https://dc.lft.to/lastmile_qr_scan"}, "fusion_lon": 0.0, "lat": 38.90063116666666, "bike_id": "070984bb83bd65db3cd41adb07f7454d", "type": "electric_scooter", "is_reserved": 0, "lon": -76.93386033333333}, {"fusion_lat": 0.0, "name": "c13b1c125c0fdcbe0de7a6d93d97b420", "is_disabled": 0, "rental_uris": {"android": "https://dc.lft.to/lastmile_qr_scan", "ios": "https://dc.lft.to/lastmile_qr_scan"}, "fusion_lon": 0.0, "lat": 38.9562355, "bike_id": "c13b1c125c0fdcbe0de7a6d93d97b420", "type": "electric_scooter", "is_reserved": 0, "lon": -77.02830633333333}, {"fusion_lat": 0.0, "name": "6ddbf3f7e554963517b211a6308c94c1", "is_disabled": 0, "rental_uris": {"android": "https://dc.lft.to/lastmile_qr_scan", "ios": "https://dc.lft.to/lastmile_qr_scan"}, "fusion_lon": 0.0, "lat": 38.920136166666666, "bike_id": "6ddbf3f7e554963517b211a6308c94c1", "type": "electric_scooter", "is_reserved": 0, "lon": -77.025046}, {"fusion_lat": 0.0, "name": "861b4d619dd15f93c6263246f1e446d7", "is_disabled": 0, "rental_uris": {"android": "https://dc.lft.to/lastmile_qr_scan", "ios": "https://dc.lft.to/lastmile_qr_scan"}, "fusion_lon": 0.0, "lat": 38.84504783333333, "bike_id": "861b4d619dd15f93c6263246f1e446d7", "type": "electric_bike", "is_reserved": 0, "lon": -76.99355416666667}, {"fusion_lat": 0.0, "name": "c996b04edefab11f7eb78a159f8e08f3", "is_disabled": 0, "rental_uris": {"android": "https://dc.lft.to/lastmile_qr_scan", "ios": "https://dc.lft.to/lastmile_qr_scan"}, "fusion_lon": 0.0, "lat": 38.857787, "bike_id": "c996b04edefab11f7eb78a159f8e08f3", "type": "electric_scooter", "is_reserved": 0, "lon": -76.97300033333333}, {"fusion_lat": 0.0, "name": "03592c780469d93f17f1eb62c4ea41fd", "is_disabled": 0, "rental_uris": {"android": "https://dc.lft.to/lastmile_qr_scan", "ios": "https://dc.lft.to/lastmile_qr_scan"}, "fusion_lon": 0.0, "lat": 38.93560516666667, "bike_id": "03592c780469d93f17f1eb62c4ea41fd", "type": "electric_scooter", "is_reserved": 0, "lon": -77.034865}, {"fusion_lat": 0.0, "name": "1448b454a10b1e60118541359057ac04", "is_disabled": 0, "rental_uris": {"android": "https://dc.lft.to/lastmile_qr_scan", "ios": "https://dc.lft.to/lastmile_qr_scan"}, "fusion_lon": 0.0, "lat": 38.93061183333333, "bike_id": "1448b454a10b1e60118541359057ac04", "type": "electric_scooter", "is_reserved": 0, "lon": -77.02973533333333}, {"fusion_lat": 0.0, "name": "726fc0a20542a78494c820df5ddbaf6f", "is_disabled": 0, "rental_uris": {"android": "https://dc.lft.to/lastmile_qr_scan", "ios": "https://dc.lft.to/lastmile_qr_scan"}, "fusion_lon": 0.0, "lat": 38.857970333333334, "bike_id": "726fc0a20542a78494c820df5ddbaf6f", "type": "electric_bike", "is_reserved": 0, "lon": -77.1201485}, {"fusion_lat": 0.0, "name": "6951f19e3416278155379737c17f332e", "is_disabled": 0, "rental_uris": {"android": "https://dc.lft.to/lastmile_qr_scan", "ios": "https://dc.lft.to/lastmile_qr_scan"}, "fusion_lon": 0.0, "lat": 38.90561533333333, "bike_id": "6951f19e3416278155379737c17f332e", "type": "electric_scooter", "is_reserved": 0, "lon": -77.01313}, {"fusion_lat": 0.0, "name": "538146060900360b735bdfc8e4929b81", "is_disabled": 0, "rental_uris": {"android": "https://dc.lft.to/lastmile_qr_scan", "ios": "https://dc.lft.to/lastmile_qr_scan"}, "fusion_lon": 0.0, "lat": 38.871758, "bike_id": "538146060900360b735bdfc8e4929b81", "type": "electric_scooter", "is_reserved": 0, "lon": -77.00615516666667}, {"fusion_lat": 0.0, "name": "e0a5ae52521ae7fa1463a87a72b45b10", "is_disabled": 0, "rental_uris": {"android": "https://dc.lft.to/lastmile_qr_scan", "ios": "https://dc.lft.to/lastmile_qr_scan"}, "fusion_lon": 0.0, "lat": 38.86260583333333, "bike_id": "e0a5ae52521ae7fa1463a87a72b45b10", "type": "electric_bike", "is_reserved": 0, "lon": -76.98347283333334}, {"fusion_lat": 0.0, "name": "d3681267f2c73fd51e9c6dfd5aec4e63", "is_disabled": 0, "rental_uris": {"android": "https://dc.lft.to/lastmile_qr_scan", "ios": "https://dc.lft.to/lastmile_qr_scan"}, "fusion_lon": 0.0, "lat": 38.930464666666666, "bike_id": "d3681267f2c73fd51e9c6dfd5aec4e63", "type": "electric_scooter", "is_reserved": 0, "lon": -77.03608666666666}, {"fusion_lat": 0.0, "name": "01e2d29723220c3e7100798c86f750f9", "is_disabled": 0, "rental_uris": {"android": "https://dc.lft.to/lastmile_qr_scan", "ios": "https://dc.lft.to/lastmile_qr_scan"}, "fusion_lon": 0.0, "lat": 38.91028133333333, "bike_id": "01e2d29723220c3e7100798c86f750f9", "type": "electric_scooter", "is_reserved": 0, "lon": -77.00759916666667}, {"fusion_lat": 0.0, "name": "0825f604ee5a3597e2fc2c7f3f98efc7", "is_disabled": 0, "rental_uris": {"android": "https://dc.lft.to/lastmile_qr_scan", "ios": "https://dc.lft.to/lastmile_qr_scan"}, "fusion_lon": 0.0, "lat": 38.931383833333335, "bike_id": "0825f604ee5a3597e2fc2c7f3f98efc7", "type": "electric_scooter", "is_reserved": 0, "lon": -77.038367}, {"fusion_lat": 0.0, "name": "391d40e8c3c69677b0417982b1e20272", "is_disabled": 0, "rental_uris": {"android": "https://dc.lft.to/lastmile_qr_scan", "ios": "https://dc.lft.to/lastmile_qr_scan"}, "fusion_lon": 0.0, "lat": 38.911223, "bike_id": "391d40e8c3c69677b0417982b1e20272", "type": "electric_scooter", "is_reserved": 0, "lon": -77.022004}, {"fusion_lat": 0.0, "name": "7a4a56570298731663bbf807e475e124", "is_disabled": 0, "rental_uris": {"android": "https://dc.lft.to/lastmile_qr_scan", "ios": "https://dc.lft.to/lastmile_qr_scan"}, "fusion_lon": 0.0, "lat": 38.8815255, "bike_id": "7a4a56570298731663bbf807e475e124", "type": "electric_scooter", "is_reserved": 0, "lon": -77.02749716666666}, {"fusion_lat": 0.0, "name": "795f590b971d5defa7739ef2bba4340c", "is_disabled": 0, "rental_uris": {"android": "https://dc.lft.to/lastmile_qr_scan", "ios": "https://dc.lft.to/lastmile_qr_scan"}, "fusion_lon": 0.0, "lat": 38.94203066666667, "bike_id": "795f590b971d5defa7739ef2bba4340c", "type": "electric_bike", "is_reserved": 0, "lon": -77.01827833333333}, {"fusion_lat": 0.0, "name": "d36e84a481cfefcede51a0f19b490bcb", "is_disabled": 0, "rental_uris": {"android": "https://dc.lft.to/lastmile_qr_scan", "ios": "https://dc.lft.to/lastmile_qr_scan"}, "fusion_lon": 0.0, "lat": 38.90394833333333, "bike_id": "d36e84a481cfefcede51a0f19b490bcb", "type": "electric_scooter", "is_reserved": 0, "lon": -77.0386575}, {"fusion_lat": 0.0, "name": "2558d3249e6e82446f67b3b7255f5dc1", "is_disabled": 0, "rental_uris": {"android": "https://dc.lft.to/lastmile_qr_scan", "ios": "https://dc.lft.to/lastmile_qr_scan"}, "fusion_lon": 0.0, "lat": 38.9070935, "bike_id": "2558d3249e6e82446f67b3b7255f5dc1", "type": "electric_scooter", "is_reserved": 0, "lon": -77.05132566666667}, {"fusion_lat": 0.0, "name": "675a07f2cfbbcb867c86cfcaa167885a", "is_disabled": 0, "rental_uris": {"android": "https://dc.lft.to/lastmile_qr_scan", "ios": "https://dc.lft.to/lastmile_qr_scan"}, "fusion_lon": 0.0, "lat": 38.821745666666665, "bike_id": "675a07f2cfbbcb867c86cfcaa167885a", "type": "electric_bike", "is_reserved": 0, "lon": -76.9951235}, {"fusion_lat": 0.0, "name": "ef76e6947185e83b3c014f89c01c87d2", "is_disabled": 0, "rental_uris": {"android": "https://dc.lft.to/lastmile_qr_scan", "ios": "https://dc.lft.to/lastmile_qr_scan"}, "fusion_lon": 0.0, "lat": 38.924462, "bike_id": "ef76e6947185e83b3c014f89c01c87d2", "type": "electric_scooter", "is_reserved": 0, "lon": -77.0402105}, {"fusion_lat": 0.0, "name": "bec2edc0ee9dd56336bff31d13dc9b3e", "is_disabled": 0, "rental_uris": {"android": "https://dc.lft.to/lastmile_qr_scan", "ios": "https://dc.lft.to/lastmile_qr_scan"}, "fusion_lon": 0.0, "lat": 38.88706333333333, "bike_id": "bec2edc0ee9dd56336bff31d13dc9b3e", "type": "electric_scooter", "is_reserved": 0, "lon": -77.00244783333333}, {"fusion_lat": 0.0, "name": "8d777a9623ea353fc8754de1ac8ca5af", "is_disabled": 0, "rental_uris": {"android": "https://dc.lft.to/lastmile_qr_scan", "ios": "https://dc.lft.to/lastmile_qr_scan"}, "fusion_lon": 0.0, "lat": 38.90477683333334, "bike_id": "8d777a9623ea353fc8754de1ac8ca5af", "type": "electric_scooter", "is_reserved": 0, "lon": -77.01890166666666}, {"fusion_lat": 0.0, "name": "78a86a9d4119a66973960d22905183d4", "is_disabled": 0, "rental_uris": {"android": "https://dc.lft.to/lastmile_qr_scan", "ios": "https://dc.lft.to/lastmile_qr_scan"}, "fusion_lon": 0.0, "lat": 38.895413, "bike_id": "78a86a9d4119a66973960d22905183d4", "type": "electric_scooter", "is_reserved": 0, "lon": -76.949512}, {"fusion_lat": 0.0, "name": "be40305ed1df38f7b2d060b6ae98467d", "is_disabled": 0, "rental_uris": {"android": "https://dc.lft.to/lastmile_qr_scan", "ios": "https://dc.lft.to/lastmile_qr_scan"}, "fusion_lon": 0.0, "lat": 38.916609666666666, "bike_id": "be40305ed1df38f7b2d060b6ae98467d", "type": "electric_scooter", "is_reserved": 0, "lon": -77.02812733333333}, {"fusion_lat": 0.0, "name": "7c4e2e63533f19df66de95768c85dad1", "is_disabled": 0, "rental_uris": {"android": "https://dc.lft.to/lastmile_qr_scan", "ios": "https://dc.lft.to/lastmile_qr_scan"}, "fusion_lon": 0.0, "lat": 38.877354, "bike_id": "7c4e2e63533f19df66de95768c85dad1", "type": "electric_scooter", "is_reserved": 0, "lon": -76.996284}, {"fusion_lat": 0.0, "name": "a523ac659b5a85883af899aaa6e0e4d4", "is_disabled": 0, "rental_uris": {"android": "https://dc.lft.to/lastmile_qr_scan", "ios": "https://dc.lft.to/lastmile_qr_scan"}, "fusion_lon": 0.0, "lat": 38.87953366666667, "bike_id": "a523ac659b5a85883af899aaa6e0e4d4", "type": "electric_scooter", "is_reserved": 0, "lon": -76.989941}, {"fusion_lat": 0.0, "name": "5ea316b8a884287d777bfc8d7df709fc", "is_disabled": 0, "rental_uris": {"android": "https://dc.lft.to/lastmile_qr_scan", "ios": "https://dc.lft.to/lastmile_qr_scan"}, "fusion_lon": 0.0, "lat": 38.867113333333336, "bike_id": "5ea316b8a884287d777bfc8d7df709fc", "type": "electric_scooter", "is_reserved": 0, "lon": -77.01031516666667}, {"fusion_lat": 0.0, "name": "c0001e6e2bb7b8e3add069899395d9de", "is_disabled": 0, "rental_uris": {"android": "https://dc.lft.to/lastmile_qr_scan", "ios": "https://dc.lft.to/lastmile_qr_scan"}, "fusion_lon": 0.0, "lat": 38.89688233333333, "bike_id": "c0001e6e2bb7b8e3add069899395d9de", "type": "electric_scooter", "is_reserved": 0, "lon": -77.05098433333333}, {"fusion_lat": 0.0, "name": "88122d6a01cb7db858aeab9c7071aad5", "is_disabled": 0, "rental_uris": {"android": "https://dc.lft.to/lastmile_qr_scan", "ios": "https://dc.lft.to/lastmile_qr_scan"}, "fusion_lon": 0.0, "lat": 38.93259316666666, "bike_id": "88122d6a01cb7db858aeab9c7071aad5", "type": "electric_scooter", "is_reserved": 0, "lon": -77.020899}, {"fusion_lat": 0.0, "name": "6a82b5bedfc8b25aa0f481cb3047a538", "is_disabled": 0, "rental_uris": {"android": "https://dc.lft.to/lastmile_qr_scan", "ios": "https://dc.lft.to/lastmile_qr_scan"}, "fusion_lon": 0.0, "lat": 38.8044725, "bike_id": "6a82b5bedfc8b25aa0f481cb3047a538", "type": "electric_bike", "is_reserved": 0, "lon": -77.05383833333333}, {"fusion_lat": 0.0, "name": "3bc29a55fca0dc8a950cfb239db958ed", "is_disabled": 0, "rental_uris": {"android": "https://dc.lft.to/lastmile_qr_scan", "ios": "https://dc.lft.to/lastmile_qr_scan"}, "fusion_lon": 0.0, "lat": 38.9040855, "bike_id": "3bc29a55fca0dc8a950cfb239db958ed", "type": "electric_scooter", "is_reserved": 0, "lon": -76.97333216666667}, {"fusion_lat": 0.0, "name": "e379aeb85228394d77c25179c06a2005", "is_disabled": 0, "rental_uris": {"android": "https://dc.lft.to/lastmile_qr_scan", "ios": "https://dc.lft.to/lastmile_qr_scan"}, "fusion_lon": 0.0, "lat": 38.91131883333333, "bike_id": "e379aeb85228394d77c25179c06a2005", "type": "electric_bike", "is_reserved": 0, "lon": -77.06575533333333}, {"fusion_lat": 0.0, "name": "b678697cfe68062f7caae17d9839025e", "is_disabled": 0, "rental_uris": {"android": "https://dc.lft.to/lastmile_qr_scan", "ios": "https://dc.lft.to/lastmile_qr_scan"}, "fusion_lon": 0.0, "lat": 38.877436, "bike_id": "b678697cfe68062f7caae17d9839025e", "type": "electric_scooter", "is_reserved": 0, "lon": -77.014259}, {"fusion_lat": 0.0, "name": "e62abd7c675c3ced67db5e3ee9cc3780", "is_disabled": 0, "rental_uris": {"android": "https://dc.lft.to/lastmile_qr_scan", "ios": "https://dc.lft.to/lastmile_qr_scan"}, "fusion_lon": 0.0, "lat": 38.8812925, "bike_id": "e62abd7c675c3ced67db5e3ee9cc3780", "type": "electric_scooter", "is_reserved": 0, "lon": -77.027102}, {"fusion_lat": 0.0, "name": "22befd7918c0a394853e7eb2ee3449f6", "is_disabled": 0, "rental_uris": {"android": "https://dc.lft.to/lastmile_qr_scan", "ios": "https://dc.lft.to/lastmile_qr_scan"}, "fusion_lon": 0.0, "lat": 38.9006285, "bike_id": "22befd7918c0a394853e7eb2ee3449f6", "type": "electric_scooter", "is_reserved": 0, "lon": -76.92749166666667}, {"fusion_lat": 0.0, "name": "026a03199c0ae7c136b7379407708728", "is_disabled": 0, "rental_uris": {"android": "https://dc.lft.to/lastmile_qr_scan", "ios": "https://dc.lft.to/lastmile_qr_scan"}, "fusion_lon": 0.0, "lat": 38.85563916666667, "bike_id": "026a03199c0ae7c136b7379407708728", "type": "electric_bike", "is_reserved": 0, "lon": -77.1131785}, {"fusion_lat": 0.0, "name": "47712cb311fdf85adaac0d8907da1c52", "is_disabled": 0, "rental_uris": {"android": "https://dc.lft.to/lastmile_qr_scan", "ios": "https://dc.lft.to/lastmile_qr_scan"}, "fusion_lon": 0.0, "lat": 38.9055465, "bike_id": "47712cb311fdf85adaac0d8907da1c52", "type": "electric_scooter", "is_reserved": 0, "lon": -77.04358766666667}, {"fusion_lat": 0.0, "name": "c59a12c586720a3fc6bf7643769a379f", "is_disabled": 0, "rental_uris": {"android": "https://dc.lft.to/lastmile_qr_scan", "ios": "https://dc.lft.to/lastmile_qr_scan"}, "fusion_lon": 0.0, "lat": 38.898485666666666, "bike_id": "c59a12c586720a3fc6bf7643769a379f", "type": "electric_scooter", "is_reserved": 0, "lon": -76.93179333333333}, {"fusion_lat": 0.0, "name": "09817753a238722aa6f7e126a1dd178b", "is_disabled": 0, "rental_uris": {"android": "https://dc.lft.to/lastmile_qr_scan", "ios": "https://dc.lft.to/lastmile_qr_scan"}, "fusion_lon": 0.0, "lat": 38.91125133333333, "bike_id": "09817753a238722aa6f7e126a1dd178b", "type": "electric_scooter", "is_reserved": 0, "lon": -77.02198816666667}, {"fusion_lat": 0.0, "name": "2974ca21605ab47a4367cf29ec8f123f", "is_disabled": 0, "rental_uris": {"android": "https://dc.lft.to/lastmile_qr_scan", "ios": "https://dc.lft.to/lastmile_qr_scan"}, "fusion_lon": 0.0, "lat": 38.840546333333336, "bike_id": "2974ca21605ab47a4367cf29ec8f123f", "type": "electric_scooter", "is_reserved": 0, "lon": -76.97665533333333}, {"fusion_lat": 0.0, "name": "ada2ce30bdab3f6df961fe37426be68e", "is_disabled": 0, "rental_uris": {"android": "https://dc.lft.to/lastmile_qr_scan", "ios": "https://dc.lft.to/lastmile_qr_scan"}, "fusion_lon": 0.0, "lat": 38.89730266666667, "bike_id": "ada2ce30bdab3f6df961fe37426be68e", "type": "electric_scooter", "is_reserved": 0, "lon": -76.94701466666666}, {"fusion_lat": 0.0, "name": "d3b16aac848385f26aec38aafe08fe56", "is_disabled": 0, "rental_uris": {"android": "https://dc.lft.to/lastmile_qr_scan", "ios": "https://dc.lft.to/lastmile_qr_scan"}, "fusion_lon": 0.0, "lat": 38.9037575, "bike_id": "d3b16aac848385f26aec38aafe08fe56", "type": "electric_scooter", "is_reserved": 0, "lon": -77.03445233333333}, {"fusion_lat": 0.0, "name": "94a989fb21e6e3fb6ceb3d2b8a6296db", "is_disabled": 0, "rental_uris": {"android": "https://dc.lft.to/lastmile_qr_scan", "ios": "https://dc.lft.to/lastmile_qr_scan"}, "fusion_lon": 0.0, "lat": 38.90215333333333, "bike_id": "94a989fb21e6e3fb6ceb3d2b8a6296db", "type": "electric_scooter", "is_reserved": 0, "lon": -77.02362716666667}, {"fusion_lat": 0.0, "name": "3f65866f561469a2a7489e353e7f3b33", "is_disabled": 0, "rental_uris": {"android": "https://dc.lft.to/lastmile_qr_scan", "ios": "https://dc.lft.to/lastmile_qr_scan"}, "fusion_lon": 0.0, "lat": 38.904498, "bike_id": "3f65866f561469a2a7489e353e7f3b33", "type": "electric_bike", "is_reserved": 0, "lon": -76.97422266666666}, {"fusion_lat": 0.0, "name": "59beaa0c606ae6d4f24903cf8242e489", "is_disabled": 0, "rental_uris": {"android": "https://dc.lft.to/lastmile_qr_scan", "ios": "https://dc.lft.to/lastmile_qr_scan"}, "fusion_lon": 0.0, "lat": 38.911634166666666, "bike_id": "59beaa0c606ae6d4f24903cf8242e489", "type": "electric_bike", "is_reserved": 0, "lon": -77.00257716666667}, {"fusion_lat": 0.0, "name": "afac78a182939d6499257962eed7dd3e", "is_disabled": 0, "rental_uris": {"android": "https://dc.lft.to/lastmile_qr_scan", "ios": "https://dc.lft.to/lastmile_qr_scan"}, "fusion_lon": 0.0, "lat": 38.932319, "bike_id": "afac78a182939d6499257962eed7dd3e", "type": "electric_scooter", "is_reserved": 0, "lon": -77.034291}, {"fusion_lat": 0.0, "name": "57a69dc5eb8044de7fc99047458785aa", "is_disabled": 0, "rental_uris": {"android": "https://dc.lft.to/lastmile_qr_scan", "ios": "https://dc.lft.to/lastmile_qr_scan"}, "fusion_lon": 0.0, "lat": 38.914046666666664, "bike_id": "57a69dc5eb8044de7fc99047458785aa", "type": "electric_scooter", "is_reserved": 0, "lon": -77.032264}, {"fusion_lat": 0.0, "name": "0b5107894166c2e92d81d0f0891fc21e", "is_disabled": 0, "rental_uris": {"android": "https://dc.lft.to/lastmile_qr_scan", "ios": "https://dc.lft.to/lastmile_qr_scan"}, "fusion_lon": 0.0, "lat": 38.896731833333334, "bike_id": "0b5107894166c2e92d81d0f0891fc21e", "type": "electric_bike", "is_reserved": 0, "lon": -76.98689733333333}, {"fusion_lat": 0.0, "name": "2a3b06b1add1b7e9f75deec186c4696a", "is_disabled": 0, "rental_uris": {"android": "https://dc.lft.to/lastmile_qr_scan", "ios": "https://dc.lft.to/lastmile_qr_scan"}, "fusion_lon": 0.0, "lat": 38.885772333333335, "bike_id": "2a3b06b1add1b7e9f75deec186c4696a", "type": "electric_scooter", "is_reserved": 0, "lon": -77.01212683333334}, {"fusion_lat": 0.0, "name": "775f645cd7e15ca9e2bc9bfb3034ab35", "is_disabled": 0, "rental_uris": {"android": "https://dc.lft.to/lastmile_qr_scan", "ios": "https://dc.lft.to/lastmile_qr_scan"}, "fusion_lon": 0.0, "lat": 38.909760666666664, "bike_id": "775f645cd7e15ca9e2bc9bfb3034ab35", "type": "electric_scooter", "is_reserved": 0, "lon": -77.04871666666666}, {"fusion_lat": 0.0, "name": "f7530afe9e370eb0293fbf0616adc45d", "is_disabled": 0, "rental_uris": {"android": "https://dc.lft.to/lastmile_qr_scan", "ios": "https://dc.lft.to/lastmile_qr_scan"}, "fusion_lon": 0.0, "lat": 38.906022, "bike_id": "f7530afe9e370eb0293fbf0616adc45d", "type": "electric_scooter", "is_reserved": 0, "lon": -77.06483683333333}, {"fusion_lat": 0.0, "name": "5efc019df7f8e7246ac99d370175529f", "is_disabled": 0, "rental_uris": {"android": "https://dc.lft.to/lastmile_qr_scan", "ios": "https://dc.lft.to/lastmile_qr_scan"}, "fusion_lon": 0.0, "lat": 38.92263916666667, "bike_id": "5efc019df7f8e7246ac99d370175529f", "type": "electric_scooter", "is_reserved": 0, "lon": -77.0388865}, {"fusion_lat": 0.0, "name": "7b0ec7c2e0c0ec75b0de948aa0c217b5", "is_disabled": 0, "rental_uris": {"android": "https://dc.lft.to/lastmile_qr_scan", "ios": "https://dc.lft.to/lastmile_qr_scan"}, "fusion_lon": 0.0, "lat": 38.798488, "bike_id": "7b0ec7c2e0c0ec75b0de948aa0c217b5", "type": "electric_bike", "is_reserved": 0, "lon": -77.06308266666667}, {"fusion_lat": 0.0, "name": "fbe7de0668e93e6072ee1cd906098415", "is_disabled": 0, "rental_uris": {"android": "https://dc.lft.to/lastmile_qr_scan", "ios": "https://dc.lft.to/lastmile_qr_scan"}, "fusion_lon": 0.0, "lat": 38.898538, "bike_id": "fbe7de0668e93e6072ee1cd906098415", "type": "electric_scooter", "is_reserved": 0, "lon": -76.97664766666666}, {"fusion_lat": 0.0, "name": "647136191f87ac5be5070005230ec5e4", "is_disabled": 0, "rental_uris": {"android": "https://dc.lft.to/lastmile_qr_scan", "ios": "https://dc.lft.to/lastmile_qr_scan"}, "fusion_lon": 0.0, "lat": 38.912494, "bike_id": "647136191f87ac5be5070005230ec5e4", "type": "electric_scooter", "is_reserved": 0, "lon": -77.0200175}, {"fusion_lat": 0.0, "name": "4300b60e71ed6ff0e6a7f36ae5d3f75c", "is_disabled": 0, "rental_uris": {"android": "https://dc.lft.to/lastmile_qr_scan", "ios": "https://dc.lft.to/lastmile_qr_scan"}, "fusion_lon": 0.0, "lat": 38.8818425, "bike_id": "4300b60e71ed6ff0e6a7f36ae5d3f75c", "type": "electric_scooter", "is_reserved": 0, "lon": -77.02858533333334}, {"fusion_lat": 0.0, "name": "3090b29a7a52851482de19ae1a97fc1f", "is_disabled": 0, "rental_uris": {"android": "https://dc.lft.to/lastmile_qr_scan", "ios": "https://dc.lft.to/lastmile_qr_scan"}, "fusion_lon": 0.0, "lat": 38.89086616666667, "bike_id": "3090b29a7a52851482de19ae1a97fc1f", "type": "electric_scooter", "is_reserved": 0, "lon": -76.91925033333334}, {"fusion_lat": 0.0, "name": "8dc0566a5c76ac6a414c05efd2854b2d", "is_disabled": 0, "rental_uris": {"android": "https://dc.lft.to/lastmile_qr_scan", "ios": "https://dc.lft.to/lastmile_qr_scan"}, "fusion_lon": 0.0, "lat": 38.93814716666667, "bike_id": "8dc0566a5c76ac6a414c05efd2854b2d", "type": "electric_scooter", "is_reserved": 0, "lon": -76.996922}, {"fusion_lat": 0.0, "name": "b4494a1f87eb09633cc877629bf7e739", "is_disabled": 0, "rental_uris": {"android": "https://dc.lft.to/lastmile_qr_scan", "ios": "https://dc.lft.to/lastmile_qr_scan"}, "fusion_lon": 0.0, "lat": 38.9442915, "bike_id": "b4494a1f87eb09633cc877629bf7e739", "type": "electric_bike", "is_reserved": 0, "lon": -77.0260075}, {"fusion_lat": 0.0, "name": "38178cd5d3962ca4906b285ab84dda12", "is_disabled": 0, "rental_uris": {"android": "https://dc.lft.to/lastmile_qr_scan", "ios": "https://dc.lft.to/lastmile_qr_scan"}, "fusion_lon": 0.0, "lat": 38.91103016666667, "bike_id": "38178cd5d3962ca4906b285ab84dda12", "type": "electric_scooter", "is_reserved": 0, "lon": -77.03628016666667}, {"fusion_lat": 0.0, "name": "722203971507c3a52b6498df8c91874f", "is_disabled": 0, "rental_uris": {"android": "https://dc.lft.to/lastmile_qr_scan", "ios": "https://dc.lft.to/lastmile_qr_scan"}, "fusion_lon": 0.0, "lat": 38.914188333333335, "bike_id": "722203971507c3a52b6498df8c91874f", "type": "electric_scooter", "is_reserved": 0, "lon": -77.03208833333333}, {"fusion_lat": 0.0, "name": "69ac1291eb476a38113b39a92de09aa5", "is_disabled": 0, "rental_uris": {"android": "https://dc.lft.to/lastmile_qr_scan", "ios": "https://dc.lft.to/lastmile_qr_scan"}, "fusion_lon": 0.0, "lat": 38.92871016666667, "bike_id": "69ac1291eb476a38113b39a92de09aa5", "type": "electric_scooter", "is_reserved": 0, "lon": -77.03351983333333}, {"fusion_lat": 0.0, "name": "1b242dd736a6489b6086043c4cb47117", "is_disabled": 0, "rental_uris": {"android": "https://dc.lft.to/lastmile_qr_scan", "ios": "https://dc.lft.to/lastmile_qr_scan"}, "fusion_lon": 0.0, "lat": 38.896063, "bike_id": "1b242dd736a6489b6086043c4cb47117", "type": "electric_scooter", "is_reserved": 0, "lon": -77.03236883333334}, {"fusion_lat": 0.0, "name": "113b8177026e6da33fb13a10dd2a2ad9", "is_disabled": 0, "rental_uris": {"android": "https://dc.lft.to/lastmile_qr_scan", "ios": "https://dc.lft.to/lastmile_qr_scan"}, "fusion_lon": 0.0, "lat": 38.90976833333333, "bike_id": "113b8177026e6da33fb13a10dd2a2ad9", "type": "electric_scooter", "is_reserved": 0, "lon": -77.03373916666666}, {"fusion_lat": 0.0, "name": "95f6cc0544bdc1cbfef5618e325a4f6b", "is_disabled": 0, "rental_uris": {"android": "https://dc.lft.to/lastmile_qr_scan", "ios": "https://dc.lft.to/lastmile_qr_scan"}, "fusion_lon": 0.0, "lat": 38.92487033333333, "bike_id": "95f6cc0544bdc1cbfef5618e325a4f6b", "type": "electric_scooter", "is_reserved": 0, "lon": -77.05755533333334}, {"fusion_lat": 0.0, "name": "4ec078ad684359610ea63152c5bc329c", "is_disabled": 0, "rental_uris": {"android": "https://dc.lft.to/lastmile_qr_scan", "ios": "https://dc.lft.to/lastmile_qr_scan"}, "fusion_lon": 0.0, "lat": 38.91741666666667, "bike_id": "4ec078ad684359610ea63152c5bc329c", "type": "electric_scooter", "is_reserved": 0, "lon": -77.04163683333333}, {"fusion_lat": 0.0, "name": "baca0fe3a62c9a45fa553bb748a8ca5a", "is_disabled": 0, "rental_uris": {"android": "https://dc.lft.to/lastmile_qr_scan", "ios": "https://dc.lft.to/lastmile_qr_scan"}, "fusion_lon": 0.0, "lat": 38.9010805, "bike_id": "baca0fe3a62c9a45fa553bb748a8ca5a", "type": "electric_scooter", "is_reserved": 0, "lon": -77.03189433333333}, {"fusion_lat": 0.0, "name": "52550bad0cb87838c0c3d33771a47cc2", "is_disabled": 0, "rental_uris": {"android": "https://dc.lft.to/lastmile_qr_scan", "ios": "https://dc.lft.to/lastmile_qr_scan"}, "fusion_lon": 0.0, "lat": 38.8922195, "bike_id": "52550bad0cb87838c0c3d33771a47cc2", "type": "electric_scooter", "is_reserved": 0, "lon": -77.04863916666666}, {"fusion_lat": 0.0, "name": "69c5a6503056f2117d56f4d6b7099c18", "is_disabled": 0, "rental_uris": {"android": "https://dc.lft.to/lastmile_qr_scan", "ios": "https://dc.lft.to/lastmile_qr_scan"}, "fusion_lon": 0.0, "lat": 38.89994, "bike_id": "69c5a6503056f2117d56f4d6b7099c18", "type": "electric_scooter", "is_reserved": 0, "lon": -77.0067175}, {"fusion_lat": 0.0, "name": "1269afc421f6a3a0e4c43b862cf4ef11", "is_disabled": 0, "rental_uris": {"android": "https://dc.lft.to/lastmile_qr_scan", "ios": "https://dc.lft.to/lastmile_qr_scan"}, "fusion_lon": 0.0, "lat": 38.898573166666665, "bike_id": "1269afc421f6a3a0e4c43b862cf4ef11", "type": "electric_scooter", "is_reserved": 0, "lon": -77.018697}, {"fusion_lat": 0.0, "name": "78193d4a7a4299057fb96be954d0ac62", "is_disabled": 0, "rental_uris": {"android": "https://dc.lft.to/lastmile_qr_scan", "ios": "https://dc.lft.to/lastmile_qr_scan"}, "fusion_lon": 0.0, "lat": 38.88526266666667, "bike_id": "78193d4a7a4299057fb96be954d0ac62", "type": "electric_scooter", "is_reserved": 0, "lon": -77.015162}, {"fusion_lat": 0.0, "name": "ff9a34efde5dfb4208c78d08e1963dfd", "is_disabled": 0, "rental_uris": {"android": "https://dc.lft.to/lastmile_qr_scan", "ios": "https://dc.lft.to/lastmile_qr_scan"}, "fusion_lon": 0.0, "lat": 38.91394316666667, "bike_id": "ff9a34efde5dfb4208c78d08e1963dfd", "type": "electric_scooter", "is_reserved": 0, "lon": -77.0318265}, {"fusion_lat": 0.0, "name": "1c5f6af2579413a71e724af2e2ccf73d", "is_disabled": 0, "rental_uris": {"android": "https://dc.lft.to/lastmile_qr_scan", "ios": "https://dc.lft.to/lastmile_qr_scan"}, "fusion_lon": 0.0, "lat": 38.904241166666665, "bike_id": "1c5f6af2579413a71e724af2e2ccf73d", "type": "electric_scooter", "is_reserved": 0, "lon": -76.94976266666667}, {"fusion_lat": 0.0, "name": "aa05764e8b14cb5c9fa98ae9785e0aa6", "is_disabled": 0, "rental_uris": {"android": "https://dc.lft.to/lastmile_qr_scan", "ios": "https://dc.lft.to/lastmile_qr_scan"}, "fusion_lon": 0.0, "lat": 38.90242833333333, "bike_id": "aa05764e8b14cb5c9fa98ae9785e0aa6", "type": "electric_scooter", "is_reserved": 0, "lon": -77.00196266666667}, {"fusion_lat": 0.0, "name": "bbf0c42f684e873fe7c7848e61a564d6", "is_disabled": 0, "rental_uris": {"android": "https://dc.lft.to/lastmile_qr_scan", "ios": "https://dc.lft.to/lastmile_qr_scan"}, "fusion_lon": 0.0, "lat": 38.873707333333336, "bike_id": "bbf0c42f684e873fe7c7848e61a564d6", "type": "electric_scooter", "is_reserved": 0, "lon": -77.0008845}, {"fusion_lat": 0.0, "name": "b11b5fbbefb84a7640c877158cb75470", "is_disabled": 0, "rental_uris": {"android": "https://dc.lft.to/lastmile_qr_scan", "ios": "https://dc.lft.to/lastmile_qr_scan"}, "fusion_lon": 0.0, "lat": 38.92866583333333, "bike_id": "b11b5fbbefb84a7640c877158cb75470", "type": "electric_scooter", "is_reserved": 0, "lon": -77.03479016666667}, {"fusion_lat": 0.0, "name": "16b31d7e809ee3c9c37f9456ab03aa28", "is_disabled": 0, "rental_uris": {"android": "https://dc.lft.to/lastmile_qr_scan", "ios": "https://dc.lft.to/lastmile_qr_scan"}, "fusion_lon": 0.0, "lat": 38.9039995, "bike_id": "16b31d7e809ee3c9c37f9456ab03aa28", "type": "electric_scooter", "is_reserved": 0, "lon": -77.04501933333333}, {"fusion_lat": 0.0, "name": "3ef9d2651a195cf6e41f2e03b44ac71c", "is_disabled": 0, "rental_uris": {"android": "https://dc.lft.to/lastmile_qr_scan", "ios": "https://dc.lft.to/lastmile_qr_scan"}, "fusion_lon": 0.0, "lat": 38.865047833333335, "bike_id": "3ef9d2651a195cf6e41f2e03b44ac71c", "type": "electric_scooter", "is_reserved": 0, "lon": -76.99005366666667}, {"fusion_lat": 0.0, "name": "b9188dbf31bf91a010de8ec2c060ae17", "is_disabled": 0, "rental_uris": {"android": "https://dc.lft.to/lastmile_qr_scan", "ios": "https://dc.lft.to/lastmile_qr_scan"}, "fusion_lon": 0.0, "lat": 38.917905166666664, "bike_id": "b9188dbf31bf91a010de8ec2c060ae17", "type": "electric_scooter", "is_reserved": 0, "lon": -77.023056}, {"fusion_lat": 0.0, "name": "1986f6a66b0a18e143d83fbf3cca65d4", "is_disabled": 0, "rental_uris": {"android": "https://dc.lft.to/lastmile_qr_scan", "ios": "https://dc.lft.to/lastmile_qr_scan"}, "fusion_lon": 0.0, "lat": 38.905021166666664, "bike_id": "1986f6a66b0a18e143d83fbf3cca65d4", "type": "electric_scooter", "is_reserved": 0, "lon": -77.02949333333333}, {"fusion_lat": 0.0, "name": "939fa60fb4c65a3766d24c5a24f7554e", "is_disabled": 0, "rental_uris": {"android": "https://dc.lft.to/lastmile_qr_scan", "ios": "https://dc.lft.to/lastmile_qr_scan"}, "fusion_lon": 0.0, "lat": 38.902219833333334, "bike_id": "939fa60fb4c65a3766d24c5a24f7554e", "type": "electric_scooter", "is_reserved": 0, "lon": -77.0434985}, {"fusion_lat": 0.0, "name": "72fba09e0a12fffeef96d1c16d10fedf", "is_disabled": 0, "rental_uris": {"android": "https://dc.lft.to/lastmile_qr_scan", "ios": "https://dc.lft.to/lastmile_qr_scan"}, "fusion_lon": 0.0, "lat": 38.90554316666667, "bike_id": "72fba09e0a12fffeef96d1c16d10fedf", "type": "electric_scooter", "is_reserved": 0, "lon": -77.03125366666667}, {"fusion_lat": 0.0, "name": "dcdc8c8a3c9390902c4c0ebb26b20ad2", "is_disabled": 0, "rental_uris": {"android": "https://dc.lft.to/lastmile_qr_scan", "ios": "https://dc.lft.to/lastmile_qr_scan"}, "fusion_lon": 0.0, "lat": 38.91407433333333, "bike_id": "dcdc8c8a3c9390902c4c0ebb26b20ad2", "type": "electric_scooter", "is_reserved": 0, "lon": -77.0314625}, {"fusion_lat": 0.0, "name": "c529afab46eae3eed006462a2c80edc7", "is_disabled": 0, "rental_uris": {"android": "https://dc.lft.to/lastmile_qr_scan", "ios": "https://dc.lft.to/lastmile_qr_scan"}, "fusion_lon": 0.0, "lat": 38.93874433333333, "bike_id": "c529afab46eae3eed006462a2c80edc7", "type": "electric_scooter", "is_reserved": 0, "lon": -77.02469766666667}, {"fusion_lat": 0.0, "name": "d616a79b8650de73b9312f0e1a558233", "is_disabled": 0, "rental_uris": {"android": "https://dc.lft.to/lastmile_qr_scan", "ios": "https://dc.lft.to/lastmile_qr_scan"}, "fusion_lon": 0.0, "lat": 38.86513083333333, "bike_id": "d616a79b8650de73b9312f0e1a558233", "type": "electric_bike", "is_reserved": 0, "lon": -76.97331583333333}, {"fusion_lat": 0.0, "name": "5a096094c4de1c9f53a9518353fe4f4b", "is_disabled": 0, "rental_uris": {"android": "https://dc.lft.to/lastmile_qr_scan", "ios": "https://dc.lft.to/lastmile_qr_scan"}, "fusion_lon": 0.0, "lat": 38.90030616666667, "bike_id": "5a096094c4de1c9f53a9518353fe4f4b", "type": "electric_scooter", "is_reserved": 0, "lon": -77.0434505}, {"fusion_lat": 0.0, "name": "ef3d18456e0695b79d90f7f77a018085", "is_disabled": 0, "rental_uris": {"android": "https://dc.lft.to/lastmile_qr_scan", "ios": "https://dc.lft.to/lastmile_qr_scan"}, "fusion_lon": 0.0, "lat": 38.903566, "bike_id": "ef3d18456e0695b79d90f7f77a018085", "type": "electric_scooter", "is_reserved": 0, "lon": -77.06267133333333}, {"fusion_lat": 0.0, "name": "729a4dd101c57783837720d1bf20f001", "is_disabled": 0, "rental_uris": {"android": "https://dc.lft.to/lastmile_qr_scan", "ios": "https://dc.lft.to/lastmile_qr_scan"}, "fusion_lon": 0.0, "lat": 38.934321, "bike_id": "729a4dd101c57783837720d1bf20f001", "type": "electric_scooter", "is_reserved": 0, "lon": -77.0345115}, {"fusion_lat": 0.0, "name": "b66e49c86611c513d587dc7fc266f469", "is_disabled": 0, "rental_uris": {"android": "https://dc.lft.to/lastmile_qr_scan", "ios": "https://dc.lft.to/lastmile_qr_scan"}, "fusion_lon": 0.0, "lat": 38.8490975, "bike_id": "b66e49c86611c513d587dc7fc266f469", "type": "electric_bike", "is_reserved": 0, "lon": -77.09977016666667}, {"fusion_lat": 0.0, "name": "d9e49ace0a64417aea51723cd573476f", "is_disabled": 0, "rental_uris": {"android": "https://dc.lft.to/lastmile_qr_scan", "ios": "https://dc.lft.to/lastmile_qr_scan"}, "fusion_lon": 0.0, "lat": 38.914144666666665, "bike_id": "d9e49ace0a64417aea51723cd573476f", "type": "electric_scooter", "is_reserved": 0, "lon": -77.03176916666666}, {"fusion_lat": 0.0, "name": "d374b92e0abcfae9cc035656c8780f3f", "is_disabled": 0, "rental_uris": {"android": "https://dc.lft.to/lastmile_qr_scan", "ios": "https://dc.lft.to/lastmile_qr_scan"}, "fusion_lon": 0.0, "lat": 38.88175066666667, "bike_id": "d374b92e0abcfae9cc035656c8780f3f", "type": "electric_scooter", "is_reserved": 0, "lon": -77.02810666666667}, {"fusion_lat": 0.0, "name": "df6f3bcf840a957319500a8eb445c8cb", "is_disabled": 0, "rental_uris": {"android": "https://dc.lft.to/lastmile_qr_scan", "ios": "https://dc.lft.to/lastmile_qr_scan"}, "fusion_lon": 0.0, "lat": 38.87964566666667, "bike_id": "df6f3bcf840a957319500a8eb445c8cb", "type": "electric_bike", "is_reserved": 0, "lon": -76.9161395}, {"fusion_lat": 0.0, "name": "96eb42d13146ee9dc076bbf2a5e3da6f", "is_disabled": 0, "rental_uris": {"android": "https://dc.lft.to/lastmile_qr_scan", "ios": "https://dc.lft.to/lastmile_qr_scan"}, "fusion_lon": 0.0, "lat": 38.915605, "bike_id": "96eb42d13146ee9dc076bbf2a5e3da6f", "type": "electric_scooter", "is_reserved": 0, "lon": -77.031479}, {"fusion_lat": 0.0, "name": "7c69f94f35bf09d516d2d6524ccb87e1", "is_disabled": 0, "rental_uris": {"android": "https://dc.lft.to/lastmile_qr_scan", "ios": "https://dc.lft.to/lastmile_qr_scan"}, "fusion_lon": 0.0, "lat": 38.92422766666667, "bike_id": "7c69f94f35bf09d516d2d6524ccb87e1", "type": "electric_scooter", "is_reserved": 0, "lon": -77.01957633333333}, {"fusion_lat": 0.0, "name": "87781f5b922e7f50eb9bbebae6b84c82", "is_disabled": 0, "rental_uris": {"android": "https://dc.lft.to/lastmile_qr_scan", "ios": "https://dc.lft.to/lastmile_qr_scan"}, "fusion_lon": 0.0, "lat": 38.93007883333333, "bike_id": "87781f5b922e7f50eb9bbebae6b84c82", "type": "electric_scooter", "is_reserved": 0, "lon": -77.02084866666667}, {"fusion_lat": 0.0, "name": "f228f2423a404d35afffcddfb4f524e4", "is_disabled": 0, "rental_uris": {"android": "https://dc.lft.to/lastmile_qr_scan", "ios": "https://dc.lft.to/lastmile_qr_scan"}, "fusion_lon": 0.0, "lat": 38.92575166666666, "bike_id": "f228f2423a404d35afffcddfb4f524e4", "type": "electric_scooter", "is_reserved": 0, "lon": -77.05262083333334}, {"fusion_lat": 0.0, "name": "695c966eead85656e15e4dce8ec8de78", "is_disabled": 0, "rental_uris": {"android": "https://dc.lft.to/lastmile_qr_scan", "ios": "https://dc.lft.to/lastmile_qr_scan"}, "fusion_lon": 0.0, "lat": 38.896725, "bike_id": "695c966eead85656e15e4dce8ec8de78", "type": "electric_scooter", "is_reserved": 0, "lon": -77.00517083333334}, {"fusion_lat": 0.0, "name": "ba6c5c8cf875e54658224f5a98969412", "is_disabled": 0, "rental_uris": {"android": "https://dc.lft.to/lastmile_qr_scan", "ios": "https://dc.lft.to/lastmile_qr_scan"}, "fusion_lon": 0.0, "lat": 38.9131515, "bike_id": "ba6c5c8cf875e54658224f5a98969412", "type": "electric_scooter", "is_reserved": 0, "lon": -77.0213855}, {"fusion_lat": 0.0, "name": "356e2d7da3b40f3fd74bd2f5058251b5", "is_disabled": 0, "rental_uris": {"android": "https://dc.lft.to/lastmile_qr_scan", "ios": "https://dc.lft.to/lastmile_qr_scan"}, "fusion_lon": 0.0, "lat": 38.94616766666667, "bike_id": "356e2d7da3b40f3fd74bd2f5058251b5", "type": "electric_scooter", "is_reserved": 0, "lon": -77.08016733333334}, {"fusion_lat": 0.0, "name": "57d7934a33c31b1bdd98781956cbcbc9", "is_disabled": 0, "rental_uris": {"android": "https://dc.lft.to/lastmile_qr_scan", "ios": "https://dc.lft.to/lastmile_qr_scan"}, "fusion_lon": 0.0, "lat": 38.961867, "bike_id": "57d7934a33c31b1bdd98781956cbcbc9", "type": "electric_bike", "is_reserved": 0, "lon": -77.052674}, {"fusion_lat": 0.0, "name": "8b665c45e80ee481add1328572b59420", "is_disabled": 0, "rental_uris": {"android": "https://dc.lft.to/lastmile_qr_scan", "ios": "https://dc.lft.to/lastmile_qr_scan"}, "fusion_lon": 0.0, "lat": 38.928190666666666, "bike_id": "8b665c45e80ee481add1328572b59420", "type": "electric_scooter", "is_reserved": 0, "lon": -77.01402366666667}, {"fusion_lat": 0.0, "name": "83735cd5a2b02d0ec792151a7182ed2b", "is_disabled": 0, "rental_uris": {"android": "https://dc.lft.to/lastmile_qr_scan", "ios": "https://dc.lft.to/lastmile_qr_scan"}, "fusion_lon": 0.0, "lat": 38.922319333333334, "bike_id": "83735cd5a2b02d0ec792151a7182ed2b", "type": "electric_scooter", "is_reserved": 0, "lon": -77.01841466666667}, {"fusion_lat": 0.0, "name": "1f918fcfc19a56bbaab692253dc62d5c", "is_disabled": 0, "rental_uris": {"android": "https://dc.lft.to/lastmile_qr_scan", "ios": "https://dc.lft.to/lastmile_qr_scan"}, "fusion_lon": 0.0, "lat": 38.948247, "bike_id": "1f918fcfc19a56bbaab692253dc62d5c", "type": "electric_scooter", "is_reserved": 0, "lon": -77.080039}, {"fusion_lat": 0.0, "name": "cd06a718838bc33d2428e2de5b80066c", "is_disabled": 0, "rental_uris": {"android": "https://dc.lft.to/lastmile_qr_scan", "ios": "https://dc.lft.to/lastmile_qr_scan"}, "fusion_lon": 0.0, "lat": 38.91785433333333, "bike_id": "cd06a718838bc33d2428e2de5b80066c", "type": "electric_scooter", "is_reserved": 0, "lon": -77.03199183333334}, {"fusion_lat": 0.0, "name": "d27c169c6ff5325f30b192dced7ce802", "is_disabled": 0, "rental_uris": {"android": "https://dc.lft.to/lastmile_qr_scan", "ios": "https://dc.lft.to/lastmile_qr_scan"}, "fusion_lon": 0.0, "lat": 38.91967366666667, "bike_id": "d27c169c6ff5325f30b192dced7ce802", "type": "electric_scooter", "is_reserved": 0, "lon": -77.01802516666666}, {"fusion_lat": 0.0, "name": "5831cce6ad88b4371ae8184597882e58", "is_disabled": 0, "rental_uris": {"android": "https://dc.lft.to/lastmile_qr_scan", "ios": "https://dc.lft.to/lastmile_qr_scan"}, "fusion_lon": 0.0, "lat": 38.883614666666666, "bike_id": "5831cce6ad88b4371ae8184597882e58", "type": "electric_scooter", "is_reserved": 0, "lon": -76.94157133333333}, {"fusion_lat": 0.0, "name": "308340d2c9d016850f2e45e8b5a52571", "is_disabled": 0, "rental_uris": {"android": "https://dc.lft.to/lastmile_qr_scan", "ios": "https://dc.lft.to/lastmile_qr_scan"}, "fusion_lon": 0.0, "lat": 38.87490783333333, "bike_id": "308340d2c9d016850f2e45e8b5a52571", "type": "electric_bike", "is_reserved": 0, "lon": -77.21123666666666}, {"fusion_lat": 0.0, "name": "57b0fcdd4ccb8f8a07f7b997c8cda2eb", "is_disabled": 0, "rental_uris": {"android": "https://dc.lft.to/lastmile_qr_scan", "ios": "https://dc.lft.to/lastmile_qr_scan"}, "fusion_lon": 0.0, "lat": 38.878934666666666, "bike_id": "57b0fcdd4ccb8f8a07f7b997c8cda2eb", "type": "electric_scooter", "is_reserved": 0, "lon": -76.9949025}, {"fusion_lat": 0.0, "name": "d2470916530686a4b0c1ce90422cd2f9", "is_disabled": 0, "rental_uris": {"android": "https://dc.lft.to/lastmile_qr_scan", "ios": "https://dc.lft.to/lastmile_qr_scan"}, "fusion_lon": 0.0, "lat": 38.92659233333333, "bike_id": "d2470916530686a4b0c1ce90422cd2f9", "type": "electric_scooter", "is_reserved": 0, "lon": -77.05347783333333}, {"fusion_lat": 0.0, "name": "ed60811f26e390a2b765665fd7be0156", "is_disabled": 0, "rental_uris": {"android": "https://dc.lft.to/lastmile_qr_scan", "ios": "https://dc.lft.to/lastmile_qr_scan"}, "fusion_lon": 0.0, "lat": 38.84354866666666, "bike_id": "ed60811f26e390a2b765665fd7be0156", "type": "electric_bike", "is_reserved": 0, "lon": -76.97822783333334}, {"fusion_lat": 0.0, "name": "1deb518d0809e98037d0d2824132b255", "is_disabled": 0, "rental_uris": {"android": "https://dc.lft.to/lastmile_qr_scan", "ios": "https://dc.lft.to/lastmile_qr_scan"}, "fusion_lon": 0.0, "lat": 38.958958833333334, "bike_id": "1deb518d0809e98037d0d2824132b255", "type": "electric_bike", "is_reserved": 0, "lon": -76.92482966666667}, {"fusion_lat": 0.0, "name": "d2d752c6d83113f428961fae2a8580c9", "is_disabled": 0, "rental_uris": {"android": "https://dc.lft.to/lastmile_qr_scan", "ios": "https://dc.lft.to/lastmile_qr_scan"}, "fusion_lon": 0.0, "lat": 38.878755, "bike_id": "d2d752c6d83113f428961fae2a8580c9", "type": "electric_scooter", "is_reserved": 0, "lon": -77.023057}, {"fusion_lat": 0.0, "name": "1d6b7fa92c7a8492940b0ded188c4be2", "is_disabled": 0, "rental_uris": {"android": "https://dc.lft.to/lastmile_qr_scan", "ios": "https://dc.lft.to/lastmile_qr_scan"}, "fusion_lon": 0.0, "lat": 38.93190033333333, "bike_id": "1d6b7fa92c7a8492940b0ded188c4be2", "type": "electric_bike", "is_reserved": 0, "lon": -77.22927416666667}, {"fusion_lat": 0.0, "name": "1d7e930a6b9c093a280b14a1a934fda8", "is_disabled": 0, "rental_uris": {"android": "https://dc.lft.to/lastmile_qr_scan", "ios": "https://dc.lft.to/lastmile_qr_scan"}, "fusion_lon": 0.0, "lat": 38.924788666666664, "bike_id": "1d7e930a6b9c093a280b14a1a934fda8", "type": "electric_scooter", "is_reserved": 0, "lon": -77.02634183333333}, {"fusion_lat": 0.0, "name": "439eafb60012301d8cf3eb6c0bc579e8", "is_disabled": 0, "rental_uris": {"android": "https://dc.lft.to/lastmile_qr_scan", "ios": "https://dc.lft.to/lastmile_qr_scan"}, "fusion_lon": 0.0, "lat": 38.928787, "bike_id": "439eafb60012301d8cf3eb6c0bc579e8", "type": "electric_scooter", "is_reserved": 0, "lon": -77.03370433333333}, {"fusion_lat": 0.0, "name": "4020f0e38c2b88e68a55a87612f68ee5", "is_disabled": 0, "rental_uris": {"android": "https://dc.lft.to/lastmile_qr_scan", "ios": "https://dc.lft.to/lastmile_qr_scan"}, "fusion_lon": 0.0, "lat": 38.91411683333333, "bike_id": "4020f0e38c2b88e68a55a87612f68ee5", "type": "electric_scooter", "is_reserved": 0, "lon": -77.03995683333333}, {"fusion_lat": 0.0, "name": "f04e8511f2bb3129a0637bb456817219", "is_disabled": 0, "rental_uris": {"android": "https://dc.lft.to/lastmile_qr_scan", "ios": "https://dc.lft.to/lastmile_qr_scan"}, "fusion_lon": 0.0, "lat": 38.9350965, "bike_id": "f04e8511f2bb3129a0637bb456817219", "type": "electric_scooter", "is_reserved": 0, "lon": -77.0335235}, {"fusion_lat": 0.0, "name": "4b7323171976be43bf3ea4263084a935", "is_disabled": 0, "rental_uris": {"android": "https://dc.lft.to/lastmile_qr_scan", "ios": "https://dc.lft.to/lastmile_qr_scan"}, "fusion_lon": 0.0, "lat": 38.93548233333333, "bike_id": "4b7323171976be43bf3ea4263084a935", "type": "electric_scooter", "is_reserved": 0, "lon": -77.03257533333333}, {"fusion_lat": 0.0, "name": "8d6bda220f2a701ee10658e567c0a2ae", "is_disabled": 0, "rental_uris": {"android": "https://dc.lft.to/lastmile_qr_scan", "ios": "https://dc.lft.to/lastmile_qr_scan"}, "fusion_lon": 0.0, "lat": 38.92451666666667, "bike_id": "8d6bda220f2a701ee10658e567c0a2ae", "type": "electric_scooter", "is_reserved": 0, "lon": -77.0402225}, {"fusion_lat": 0.0, "name": "bbb385200ec57a7108f4ec6a279313c0", "is_disabled": 0, "rental_uris": {"android": "https://dc.lft.to/lastmile_qr_scan", "ios": "https://dc.lft.to/lastmile_qr_scan"}, "fusion_lon": 0.0, "lat": 38.91699, "bike_id": "bbb385200ec57a7108f4ec6a279313c0", "type": "electric_scooter", "is_reserved": 0, "lon": -77.02884483333334}, {"fusion_lat": 0.0, "name": "72040731770d1f87001453bdcd6923ea", "is_disabled": 0, "rental_uris": {"android": "https://dc.lft.to/lastmile_qr_scan", "ios": "https://dc.lft.to/lastmile_qr_scan"}, "fusion_lon": 0.0, "lat": 38.906956, "bike_id": "72040731770d1f87001453bdcd6923ea", "type": "electric_scooter", "is_reserved": 0, "lon": -76.99978066666667}, {"fusion_lat": 0.0, "name": "0a4c2054bee9a882188e353a0e38e45a", "is_disabled": 0, "rental_uris": {"android": "https://dc.lft.to/lastmile_qr_scan", "ios": "https://dc.lft.to/lastmile_qr_scan"}, "fusion_lon": 0.0, "lat": 38.917175666666665, "bike_id": "0a4c2054bee9a882188e353a0e38e45a", "type": "electric_scooter", "is_reserved": 0, "lon": -77.04154066666666}, {"fusion_lat": 0.0, "name": "818458e1d36215734efd27f506be6403", "is_disabled": 0, "rental_uris": {"android": "https://dc.lft.to/lastmile_qr_scan", "ios": "https://dc.lft.to/lastmile_qr_scan"}, "fusion_lon": 0.0, "lat": 38.961274833333334, "bike_id": "818458e1d36215734efd27f506be6403", "type": "electric_scooter", "is_reserved": 0, "lon": -77.02789116666666}, {"fusion_lat": 0.0, "name": "9ae4e3fb9d8d5087b83c8369d9c4979c", "is_disabled": 0, "rental_uris": {"android": "https://dc.lft.to/lastmile_qr_scan", "ios": "https://dc.lft.to/lastmile_qr_scan"}, "fusion_lon": 0.0, "lat": 38.986655666666664, "bike_id": "9ae4e3fb9d8d5087b83c8369d9c4979c", "type": "electric_bike", "is_reserved": 0, "lon": -76.99997333333333}, {"fusion_lat": 0.0, "name": "55b5a9f186caf563bc8693476cef2d47", "is_disabled": 0, "rental_uris": {"android": "https://dc.lft.to/lastmile_qr_scan", "ios": "https://dc.lft.to/lastmile_qr_scan"}, "fusion_lon": 0.0, "lat": 38.871045333333335, "bike_id": "55b5a9f186caf563bc8693476cef2d47", "type": "electric_scooter", "is_reserved": 0, "lon": -76.96602616666667}, {"fusion_lat": 0.0, "name": "b9dcf37913b0795c2a080edecdfc5415", "is_disabled": 0, "rental_uris": {"android": "https://dc.lft.to/lastmile_qr_scan", "ios": "https://dc.lft.to/lastmile_qr_scan"}, "fusion_lon": 0.0, "lat": 38.90531883333333, "bike_id": "b9dcf37913b0795c2a080edecdfc5415", "type": "electric_scooter", "is_reserved": 0, "lon": -77.04869666666667}, {"fusion_lat": 0.0, "name": "761d35dc8b1d26167d8acb4d20e2ad5c", "is_disabled": 0, "rental_uris": {"android": "https://dc.lft.to/lastmile_qr_scan", "ios": "https://dc.lft.to/lastmile_qr_scan"}, "fusion_lon": 0.0, "lat": 38.99441866666667, "bike_id": "761d35dc8b1d26167d8acb4d20e2ad5c", "type": "electric_bike", "is_reserved": 0, "lon": -76.99588583333333}, {"fusion_lat": 0.0, "name": "b5c2beadc462a4486ce3bc0180843994", "is_disabled": 0, "rental_uris": {"android": "https://dc.lft.to/lastmile_qr_scan", "ios": "https://dc.lft.to/lastmile_qr_scan"}, "fusion_lon": 0.0, "lat": 38.91664183333334, "bike_id": "b5c2beadc462a4486ce3bc0180843994", "type": "electric_scooter", "is_reserved": 0, "lon": -77.034662}, {"fusion_lat": 0.0, "name": "3096091480a86ec58aa16d072d724ec7", "is_disabled": 0, "rental_uris": {"android": "https://dc.lft.to/lastmile_qr_scan", "ios": "https://dc.lft.to/lastmile_qr_scan"}, "fusion_lon": 0.0, "lat": 38.92867666666667, "bike_id": "3096091480a86ec58aa16d072d724ec7", "type": "electric_scooter", "is_reserved": 0, "lon": -77.03354716666666}, {"fusion_lat": 0.0, "name": "4d09638c0018b9da91a5a711961cdfa8", "is_disabled": 0, "rental_uris": {"android": "https://dc.lft.to/lastmile_qr_scan", "ios": "https://dc.lft.to/lastmile_qr_scan"}, "fusion_lon": 0.0, "lat": 38.94049483333333, "bike_id": "4d09638c0018b9da91a5a711961cdfa8", "type": "electric_bike", "is_reserved": 0, "lon": -76.90422483333333}, {"fusion_lat": 0.0, "name": "587ffb0dd8ab90bcbf54e58fef7fbc58", "is_disabled": 0, "rental_uris": {"android": "https://dc.lft.to/lastmile_qr_scan", "ios": "https://dc.lft.to/lastmile_qr_scan"}, "fusion_lon": 0.0, "lat": 38.903921833333335, "bike_id": "587ffb0dd8ab90bcbf54e58fef7fbc58", "type": "electric_scooter", "is_reserved": 0, "lon": -77.03869383333334}, {"fusion_lat": 0.0, "name": "19260927956982094033b29b5fb255b9", "is_disabled": 0, "rental_uris": {"android": "https://dc.lft.to/lastmile_qr_scan", "ios": "https://dc.lft.to/lastmile_qr_scan"}, "fusion_lon": 0.0, "lat": 38.90025833333333, "bike_id": "19260927956982094033b29b5fb255b9", "type": "electric_scooter", "is_reserved": 0, "lon": -77.0125155}, {"fusion_lat": 0.0, "name": "7a01e09f94dd4f5e77434e746328e154", "is_disabled": 0, "rental_uris": {"android": "https://dc.lft.to/lastmile_qr_scan", "ios": "https://dc.lft.to/lastmile_qr_scan"}, "fusion_lon": 0.0, "lat": 38.91260833333333, "bike_id": "7a01e09f94dd4f5e77434e746328e154", "type": "electric_scooter", "is_reserved": 0, "lon": -77.03143116666666}, {"fusion_lat": 0.0, "name": "0858f91e3a49211249aaaff9078894bb", "is_disabled": 0, "rental_uris": {"android": "https://dc.lft.to/lastmile_qr_scan", "ios": "https://dc.lft.to/lastmile_qr_scan"}, "fusion_lon": 0.0, "lat": 38.87468716666667, "bike_id": "0858f91e3a49211249aaaff9078894bb", "type": "electric_scooter", "is_reserved": 0, "lon": -77.00026816666667}, {"fusion_lat": 0.0, "name": "8e6f0e0d49c3c00ea66aee595d0e6ba7", "is_disabled": 0, "rental_uris": {"android": "https://dc.lft.to/lastmile_qr_scan", "ios": "https://dc.lft.to/lastmile_qr_scan"}, "fusion_lon": 0.0, "lat": 38.941840166666665, "bike_id": "8e6f0e0d49c3c00ea66aee595d0e6ba7", "type": "electric_scooter", "is_reserved": 0, "lon": -77.02312933333333}, {"fusion_lat": 0.0, "name": "c39852925c955cf1e618015229550389", "is_disabled": 0, "rental_uris": {"android": "https://dc.lft.to/lastmile_qr_scan", "ios": "https://dc.lft.to/lastmile_qr_scan"}, "fusion_lon": 0.0, "lat": 38.909586, "bike_id": "c39852925c955cf1e618015229550389", "type": "electric_scooter", "is_reserved": 0, "lon": -77.01441233333334}, {"fusion_lat": 0.0, "name": "77c1a2e48a73568dc21dd1bda7ef342c", "is_disabled": 0, "rental_uris": {"android": "https://dc.lft.to/lastmile_qr_scan", "ios": "https://dc.lft.to/lastmile_qr_scan"}, "fusion_lon": 0.0, "lat": 38.90384816666667, "bike_id": "77c1a2e48a73568dc21dd1bda7ef342c", "type": "electric_scooter", "is_reserved": 0, "lon": -77.0358085}, {"fusion_lat": 0.0, "name": "c6799c86529560f63a0d817c4162b4c9", "is_disabled": 0, "rental_uris": {"android": "https://dc.lft.to/lastmile_qr_scan", "ios": "https://dc.lft.to/lastmile_qr_scan"}, "fusion_lon": 0.0, "lat": 38.916002, "bike_id": "c6799c86529560f63a0d817c4162b4c9", "type": "electric_scooter", "is_reserved": 0, "lon": -77.023959}, {"fusion_lat": 0.0, "name": "d736faa867c83f591737daa75a3d1e2e", "is_disabled": 0, "rental_uris": {"android": "https://dc.lft.to/lastmile_qr_scan", "ios": "https://dc.lft.to/lastmile_qr_scan"}, "fusion_lon": 0.0, "lat": 38.916800333333335, "bike_id": "d736faa867c83f591737daa75a3d1e2e", "type": "electric_scooter", "is_reserved": 0, "lon": -77.01583733333334},