{"data": {"bikes": [{"lon": -77.1265015, "bike_id": "e39645d29bfebcaa3f77d0cc4edc3efc", "lat": 38.81511533333333, "fusion_lon": 0.0, "fusion_lat": 0.0, "type": "electric_bike", "name": "e39645d29bfebcaa3f77d0cc4edc3efc", "is_disabled": 0, "rental_uris": {"ios": "https://dc.lft.to/lastmile_qr_scan", "android": "https://dc.lft.to/lastmile_qr_scan"}, "is_reserved": 0}, {"lon": -77.00673966666666, "bike_id": "37c5169d3db32e0dab5a5de4a6f5b299", "lat": 38.900097833333334, "fusion_lon": 0.0, "fusion_lat": 0.0, "type": "electric_scooter", "name": "37c5169d3db32e0dab5a5de4a6f5b299", "is_disabled": 0, "rental_uris": {"ios": "https://dc.lft.to/lastmile_qr_scan", "android": "https://dc.lft.to/lastmile_qr_scan"}, "is_reserved": 0}, {"lon": -77.034298, "bike_id": "b3f64f0824678fc90bdf127cc690af13", "lat": 38.91926466666666, "fusion_lon": 0.0, "fusion_lat": 0.0, "type": "electric_scooter", "name": "b3f64f0824678fc90bdf127cc690af13", "is_disabled": 0, "rental_uris": {"ios": "https://dc.lft.to/lastmile_qr_scan", "android": "https://dc.lft.to/lastmile_qr_scan"}, "is_reserved": 0}, {"lon": -77.02873483333333, "bike_id": "61bbac3f85a121ae61557ad0ee86e2ca", "lat": 38.884850666666665, "fusion_lon": 0.0, "fusion_lat": 0.0, "type": "electric_scooter", "name": "61bbac3f85a121ae61557ad0ee86e2ca", "is_disabled": 0, "rental_uris": {"ios": "https://dc.lft.to/lastmile_qr_scan", "android": "https://dc.lft.to/lastmile_qr_scan"}, "is_reserved": 0}, {"lon": -77.0066115, "bike_id": "ad5296b01ff4e19d3ea52c2e08ddeb10", "lat": 38.94462333333333, "fusion_lon": 0.0, "fusion_lat": 0.0, "type": "electric_scooter", "name": "ad5296b01ff4e19d3ea52c2e08ddeb10", "is_disabled": 0, "rental_uris": {"ios": "https://dc.lft.to/lastmile_qr_scan", "android": "https://dc.lft.to/lastmile_qr_scan"}, "is_reserved": 0}, {"lon": -77.04335533333334, "bike_id": "d2f5a0c7e88cc6a69a777a38f008dba1", "lat": 38.913381333333334, "fusion_lon": 0.0, "fusion_lat": 0.0, "type": "electric_scooter", "name": "d2f5a0c7e88cc6a69a777a38f008dba1", "is_disabled": 0, "rental_uris": {"ios": "https://dc.lft.to/lastmile_qr_scan", "android": "https://dc.lft.to/lastmile_qr_scan"}, "is_reserved": 0}, {"lon": -77.014541, "bike_id": "0215a10010d1bfa1188d5f3013bc21c4", "lat": 38.87674966666667, "fusion_lon": 0.0, "fusion_lat": 0.0, "type": "electric_bike", "name": "0215a10010d1bfa1188d5f3013bc21c4", "is_disabled": 0, "rental_uris": {"ios": "https://dc.lft.to/lastmile_qr_scan", "android": "https://dc.lft.to/lastmile_qr_scan"}, "is_reserved": 0}, {"lon": -77.03869933333333, "bike_id": "6193f5030cf74e41466b168aedd6432a", "lat": 38.915448, "fusion_lon": 0.0, "fusion_lat": 0.0, "type": "electric_scooter", "name": "6193f5030cf74e41466b168aedd6432a", "is_disabled": 0, "rental_uris": {"ios": "https://dc.lft.to/lastmile_qr_scan", "android": "https://dc.lft.to/lastmile_qr_scan"}, "is_reserved": 0}, {"lon": -76.972401, "bike_id": "948c2af8dd4be9654c66ed3b8bd89ea3", "lat": 38.949025, "fusion_lon": 0.0, "fusion_lat": 0.0, "type": "electric_bike", "name": "948c2af8dd4be9654c66ed3b8bd89ea3", "is_disabled": 0, "rental_uris": {"ios": "https://dc.lft.to/lastmile_qr_scan", "android": "https://dc.lft.to/lastmile_qr_scan"}, "is_reserved": 0}, {"lon": -77.05458266666666, "bike_id": "2a06a884c16313df97c83b08e91d6f88", "lat": 38.85535383333333, "fusion_lon": 0.0, "fusion_lat": 0.0, "type": "electric_bike", "name": "2a06a884c16313df97c83b08e91d6f88", "is_disabled": 0, "rental_uris": {"ios": "https://dc.lft.to/lastmile_qr_scan", "android": "https://dc.lft.to/lastmile_qr_scan"}, "is_reserved": 0}, {"lon": -77.02928383333334, "bike_id": "d1d54ee2520303f8a36a4a30db0470df", "lat": 38.9346665, "fusion_lon": 0.0, "fusion_lat": 0.0, "type": "electric_scooter", "name": "d1d54ee2520303f8a36a4a30db0470df", "is_disabled": 0, "rental_uris": {"ios": "https://dc.lft.to/lastmile_qr_scan", "android": "https://dc.lft.to/lastmile_qr_scan"}, "is_reserved": 0}, {"lon": -77.02806066666666, "bike_id": "f81dcbf5d083f8d460552430a682e1d2", "lat": 38.931424166666666, "fusion_lon": 0.0, "fusion_lat": 0.0, "type": "electric_scooter", "name": "f81dcbf5d083f8d460552430a682e1d2", "is_disabled": 0, "rental_uris": {"ios": "https://dc.lft.to/lastmile_qr_scan", "android": "https://dc.lft.to/lastmile_qr_scan"}, "is_reserved": 0}, {"lon": -76.99081766666667, "bike_id": "a7a8c6b258df0052288d2994f467f880", "lat": 38.862316, "fusion_lon": 0.0, "fusion_lat": 0.0, "type": "electric_bike", "name": "a7a8c6b258df0052288d2994f467f880", "is_disabled": 0, "rental_uris": {"ios": "https://dc.lft.to/lastmile_qr_scan", "android": "https://dc.lft.to/lastmile_qr_scan"}, "is_reserved": 0}, {"lon": -77.02688716666667, "bike_id": "92238fe7784ea72ddf83eee3b1ad98f1", "lat": 38.911456666666666, "fusion_lon": 0.0, "fusion_lat": 0.0, "type": "electric_bike", "name": "92238fe7784ea72ddf83eee3b1ad98f1", "is_disabled": 0, "rental_uris": {"ios": "https://dc.lft.to/lastmile_qr_scan", "android": "https://dc.lft.to/lastmile_qr_scan"}, "is_reserved": 0}, {"lon": -77.0246595, "bike_id": "0e502cc40b05d5c296ac19fa814935e7", "lat": 38.93872316666667, "fusion_lon": 0.0, "fusion_lat": 0.0, "type": "electric_scooter", "name": "0e502cc40b05d5c296ac19fa814935e7", "is_disabled": 0, "rental_uris": {"ios": "https://dc.lft.to/lastmile_qr_scan", "android": "https://dc.lft.to/lastmile_qr_scan"}, "is_reserved": 0}, {"lon": -77.02051833333333, "bike_id": "1d19d7fe7ee0261b94425523d2aff2d8", "lat": 38.897218, "fusion_lon": 0.0, "fusion_lat": 0.0, "type": "electric_scooter", "name": "1d19d7fe7ee0261b94425523d2aff2d8", "is_disabled": 0, "rental_uris": {"ios": "https://dc.lft.to/lastmile_qr_scan", "android": "https://dc.lft.to/lastmile_qr_scan"}, "is_reserved": 0}, {"lon": -76.97477083333334, "bike_id": "261a5a8659a07f12a30c9982cbe197e0", "lat": 38.90350133333333, "fusion_lon": 0.0, "fusion_lat": 0.0, "type": "electric_scooter", "name": "261a5a8659a07f12a30c9982cbe197e0", "is_disabled": 0, "rental_uris": {"ios": "https://dc.lft.to/lastmile_qr_scan", "android": "https://dc.lft.to/lastmile_qr_scan"}, "is_reserved": 0}, {"lon": -77.0068045, "bike_id": "15d8fd4c7876ccc3f61ec9426dba8ea3", "lat": 38.9001285, "fusion_lon": 0.0, "fusion_lat": 0.0, "type": "electric_scooter", "name": "15d8fd4c7876ccc3f61ec9426dba8ea3", "is_disabled": 0, "rental_uris": {"ios": "https://dc.lft.to/lastmile_qr_scan", "android": "https://dc.lft.to/lastmile_qr_scan"}, "is_reserved": 0}, {"lon": -77.0386745, "bike_id": "6a391131e77be285b1c61ad08c4e601b", "lat": 38.915455666666666, "fusion_lon": 0.0, "fusion_lat": 0.0, "type": "electric_scooter", "name": "6a391131e77be285b1c61ad08c4e601b", "is_disabled": 0, "rental_uris": {"ios": "https://dc.lft.to/lastmile_qr_scan", "android": "https://dc.lft.to/lastmile_qr_scan"}, "is_reserved": 0}, {"lon": -77.04879016666666, "bike_id": "9350fcdc4d16f60bdceca9138d1e4013", "lat": 38.91553433333333, "fusion_lon": 0.0, "fusion_lat": 0.0, "type": "electric_scooter", "name": "9350fcdc4d16f60bdceca9138d1e4013", "is_disabled": 0, "rental_uris": {"ios": "https://dc.lft.to/lastmile_qr_scan", "android": "https://dc.lft.to/lastmile_qr_scan"}, "is_reserved": 0}, {"lon": -77.04194366666667, "bike_id": "4ec9a8b4e612eb5bd807f2dc801070b3", "lat": 38.90639266666667, "fusion_lon": 0.0, "fusion_lat": 0.0, "type": "electric_scooter", "name": "4ec9a8b4e612eb5bd807f2dc801070b3", "is_disabled": 0, "rental_uris": {"ios": "https://dc.lft.to/lastmile_qr_scan", "android": "https://dc.lft.to/lastmile_qr_scan"}, "is_reserved": 0}, {"lon": -77.03457, "bike_id": "916cc6949eeeac965b7354a0beca9896", "lat": 38.90689366666667, "fusion_lon": 0.0, "fusion_lat": 0.0, "type": "electric_scooter", "name": "916cc6949eeeac965b7354a0beca9896", "is_disabled": 0, "rental_uris": {"ios": "https://dc.lft.to/lastmile_qr_scan", "android": "https://dc.lft.to/lastmile_qr_scan"}, "is_reserved": 0}, {"lon": -76.99019916666667, "bike_id": "869cfb74d566b48c8927e95b6d4f3a45", "lat": 38.866422, "fusion_lon": 0.0, "fusion_lat": 0.0, "type": "electric_scooter", "name": "869cfb74d566b48c8927e95b6d4f3a45", "is_disabled": 0, "rental_uris": {"ios": "https://dc.lft.to/lastmile_qr_scan", "android": "https://dc.lft.to/lastmile_qr_scan"}, "is_reserved": 0}, {"lon": -77.04267716666666, "bike_id": "dedb0ad688b481e565ccc345b39e87f0", "lat": 38.914780666666665, "fusion_lon": 0.0, "fusion_lat": 0.0, "type": "electric_scooter", "name": "dedb0ad688b481e565ccc345b39e87f0", "is_disabled": 0, "rental_uris": {"ios": "https://dc.lft.to/lastmile_qr_scan", "android": "https://dc.lft.to/lastmile_qr_scan"}, "is_reserved": 0}, {"lon": -77.04390183333334, "bike_id": "440cd59c044e88e286e08a8e625a71ec", "lat": 38.92322383333333, "fusion_lon": 0.0, "fusion_lat": 0.0, "type": "electric_scooter", "name": "440cd59c044e88e286e08a8e625a71ec", "is_disabled": 0, "rental_uris": {"ios": "https://dc.lft.to/lastmile_qr_scan", "android": "https://dc.lft.to/lastmile_qr_scan"}, "is_reserved": 0}, {"lon": -77.0807095, "bike_id": "a48b6f6d3c30f15b0d6816995b393368", "lat": 39.052815, "fusion_lon": 0.0, "fusion_lat": 0.0, "type": "electric_bike", "name": "a48b6f6d3c30f15b0d6816995b393368", "is_disabled": 0, "rental_uris": {"ios": "https://dc.lft.to/lastmile_qr_scan", "android": "https://dc.lft.to/lastmile_qr_scan"}, "is_reserved": 0}, {"lon": -77.021768, "bike_id": "3010943b544d1a1499cda822fd9b6d36", "lat": 38.91909583333333, "fusion_lon": 0.0, "fusion_lat": 0.0, "type": "electric_scooter", "name": "3010943b544d1a1499cda822fd9b6d36", "is_disabled": 0, "rental_uris": {"ios": "https://dc.lft.to/lastmile_qr_scan", "android": "https://dc.lft.to/lastmile_qr_scan"}, "is_reserved": 0}, {"lon": -77.03980316666667, "bike_id": "88b083f6f12e70d39396c2c2abe4671e", "lat": 38.92018266666667, "fusion_lon": 0.0, "fusion_lat": 0.0, "type": "electric_scooter", "name": "88b083f6f12e70d39396c2c2abe4671e", "is_disabled": 0, "rental_uris": {"ios": "https://dc.lft.to/lastmile_qr_scan", "android": "https://dc.lft.to/lastmile_qr_scan"}, "is_reserved": 0}, {"lon": -77.028515, "bike_id": "a7ef54405127dcf6d4e05b622a2cea6f", "lat": 38.956321333333335, "fusion_lon": 0.0, "fusion_lat": 0.0, "type": "electric_scooter", "name": "a7ef54405127dcf6d4e05b622a2cea6f", "is_disabled": 0, "rental_uris": {"ios": "https://dc.lft.to/lastmile_qr_scan", "android": "https://dc.lft.to/lastmile_qr_scan"}, "is_reserved": 0}, {"lon": -76.9917205, "bike_id": "f859441d8a198e27e9be60a37f49b5fd", "lat": 38.909668333333336, "fusion_lon": 0.0, "fusion_lat": 0.0, "type": "electric_scooter", "name": "f859441d8a198e27e9be60a37f49b5fd", "is_disabled": 0, "rental_uris": {"ios": "https://dc.lft.to/lastmile_qr_scan", "android": "https://dc.lft.to/lastmile_qr_scan"}, "is_reserved": 0}, {"lon": -76.95652283333334, "bike_id": "9d8a95fe2ef63774934f584c858a515f", "lat": 38.895508, "fusion_lon": 0.0, "fusion_lat": 0.0, "type": "electric_scooter", "name": "9d8a95fe2ef63774934f584c858a515f", "is_disabled": 0, "rental_uris": {"ios": "https://dc.lft.to/lastmile_qr_scan", "android": "https://dc.lft.to/lastmile_qr_scan"}, "is_reserved": 0}, {"lon": -77.03282416666667, "bike_id": "cbe071c1552f404f07b557d54aefab1a", "lat": 38.936412, "fusion_lon": 0.0, "fusion_lat": 0.0, "type": "electric_scooter", "name": "cbe071c1552f404f07b557d54aefab1a", "is_disabled": 0, "rental_uris": {"ios": "https://dc.lft.to/lastmile_qr_scan", "android": "https://dc.lft.to/lastmile_qr_scan"}, "is_reserved": 0}, {"lon": -77.03292933333333, "bike_id": "946cb73ece304ae60979786a98fac54a", "lat": 38.956455166666665, "fusion_lon": 0.0, "fusion_lat": 0.0, "type": "electric_scooter", "name": "946cb73ece304ae60979786a98fac54a", "is_disabled": 0, "rental_uris": {"ios": "https://dc.lft.to/lastmile_qr_scan", "android": "https://dc.lft.to/lastmile_qr_scan"}, "is_reserved": 0}, {"lon": -77.026115, "bike_id": "66fc9f4e668c1ac1548d66635cd9e925", "lat": 38.90271, "fusion_lon": 0.0, "fusion_lat": 0.0, "type": "electric_scooter", "name": "66fc9f4e668c1ac1548d66635cd9e925", "is_disabled": 0, "rental_uris": {"ios": "https://dc.lft.to/lastmile_qr_scan", "android": "https://dc.lft.to/lastmile_qr_scan"}, "is_reserved": 0}, {"lon": -77.00208166666667, "bike_id": "86a10e99b7afe6e7748d8c0ed181550e", "lat": 38.900239666666664, "fusion_lon": 0.0, "fusion_lat": 0.0, "type": "electric_scooter", "name": "86a10e99b7afe6e7748d8c0ed181550e", "is_disabled": 0, "rental_uris": {"ios": "https://dc.lft.to/lastmile_qr_scan", "android": "https://dc.lft.to/lastmile_qr_scan"}, "is_reserved": 0}, {"lon": -77.17842166666667, "bike_id": "92fb96206b6c8c34ee8c04b15d40bde4", "lat": 39.0885595, "fusion_lon": 0.0, "fusion_lat": 0.0, "type": "electric_bike", "name": "92fb96206b6c8c34ee8c04b15d40bde4", "is_disabled": 0, "rental_uris": {"ios": "https://dc.lft.to/lastmile_qr_scan", "android": "https://dc.lft.to/lastmile_qr_scan"}, "is_reserved": 0}, {"lon": -77.05940316666667, "bike_id": "870a7754af8014bbe2e9c6034baa3d6f", "lat": 38.91182366666666, "fusion_lon": 0.0, "fusion_lat": 0.0, "type": "electric_bike", "name": "870a7754af8014bbe2e9c6034baa3d6f", "is_disabled": 0, "rental_uris": {"ios": "https://dc.lft.to/lastmile_qr_scan", "android": "https://dc.lft.to/lastmile_qr_scan"}, "is_reserved": 0}, {"lon": -77.07337383333333, "bike_id": "a4640742374100f56564d8128af05213", "lat": 38.935051, "fusion_lon": 0.0, "fusion_lat": 0.0, "type": "electric_scooter", "name": "a4640742374100f56564d8128af05213", "is_disabled": 0, "rental_uris": {"ios": "https://dc.lft.to/lastmile_qr_scan", "android": "https://dc.lft.to/lastmile_qr_scan"}, "is_reserved": 0}, {"lon": -77.0223385, "bike_id": "95a3b89d9cf535aeb12ecbb0d6737cf7", "lat": 38.87904733333333, "fusion_lon": 0.0, "fusion_lat": 0.0, "type": "electric_bike", "name": "95a3b89d9cf535aeb12ecbb0d6737cf7", "is_disabled": 0, "rental_uris": {"ios": "https://dc.lft.to/lastmile_qr_scan", "android": "https://dc.lft.to/lastmile_qr_scan"}, "is_reserved": 0}, {"lon": -76.93343733333333, "bike_id": "bff25c00fdbcede714c78f3ffbd844b7", "lat": 38.89913416666667, "fusion_lon": 0.0, "fusion_lat": 0.0, "type": "electric_scooter", "name": "bff25c00fdbcede714c78f3ffbd844b7", "is_disabled": 0, "rental_uris": {"ios": "https://dc.lft.to/lastmile_qr_scan", "android": "https://dc.lft.to/lastmile_qr_scan"}, "is_reserved": 0}, {"lon": -77.045186, "bike_id": "1f65e267d792a1e34259de74b2ce3349", "lat": 38.909691, "fusion_lon": 0.0, "fusion_lat": 0.0, "type": "electric_scooter", "name": "1f65e267d792a1e34259de74b2ce3349", "is_disabled": 0, "rental_uris": {"ios": "https://dc.lft.to/lastmile_qr_scan", "android": "https://dc.lft.to/lastmile_qr_scan"}, "is_reserved": 0}, {"lon": -76.982885, "bike_id": "da618e798e88edb1fe0e67b4c01e25b8", "lat": 38.90046233333333, "fusion_lon": 0.0, "fusion_lat": 0.0, "type": "electric_scooter", "name": "da618e798e88edb1fe0e67b4c01e25b8", "is_disabled": 0, "rental_uris": {"ios": "https://dc.lft.to/lastmile_qr_scan", "android": "https://dc.lft.to/lastmile_qr_scan"}, "is_reserved": 0}, {"lon": -77.05127783333333, "bike_id": "f171167c9443612588f0e066451b14a6", "lat": 38.923628666666666, "fusion_lon": 0.0, "fusion_lat": 0.0, "type": "electric_scooter", "name": "f171167c9443612588f0e066451b14a6", "is_disabled": 0, "rental_uris": {"ios": "https://dc.lft.to/lastmile_qr_scan", "android": "https://dc.lft.to/lastmile_qr_scan"}, "is_reserved": 0}, {"lon": -77.08340883333334, "bike_id": "6d145b1ca1f855f5155553308b56d6c7", "lat": 38.929888166666665, "fusion_lon": 0.0, "fusion_lat": 0.0, "type": "electric_scooter", "name": "6d145b1ca1f855f5155553308b56d6c7", "is_disabled": 0, "rental_uris": {"ios": "https://dc.lft.to/lastmile_qr_scan", "android": "https://dc.lft.to/lastmile_qr_scan"}, "is_reserved": 0}, {"lon": -77.0399075, "bike_id": "491c9c2925c19d6fe61257fad3b6fb86", "lat": 38.924565666666666, "fusion_lon": 0.0, "fusion_lat": 0.0, "type": "electric_scooter", "name": "491c9c2925c19d6fe61257fad3b6fb86", "is_disabled": 0, "rental_uris": {"ios": "https://dc.lft.to/lastmile_qr_scan", "android": "https://dc.lft.to/lastmile_qr_scan"}, "is_reserved": 0}, {"lon": -77.03447933333334, "bike_id": "77a9b820e1bfddbe65543481f3297ec9", "lat": 38.908996, "fusion_lon": 0.0, "fusion_lat": 0.0, "type": "electric_scooter", "name": "77a9b820e1bfddbe65543481f3297ec9", "is_disabled": 0, "rental_uris": {"ios": "https://dc.lft.to/lastmile_qr_scan", "android": "https://dc.lft.to/lastmile_qr_scan"}, "is_reserved": 0}, {"lon": -77.0447425, "bike_id": "f8d4194b4907dff56729d7889e6db9d0", "lat": 38.915639166666665, "fusion_lon": 0.0, "fusion_lat": 0.0, "type": "electric_scooter", "name": "f8d4194b4907dff56729d7889e6db9d0", "is_disabled": 0, "rental_uris": {"ios": "https://dc.lft.to/lastmile_qr_scan", "android": "https://dc.lft.to/lastmile_qr_scan"}, "is_reserved": 0}, {"lon": -77.12653833333333, "bike_id": "2837130c36d0e3f53c2e31d6c3fbbcc3", "lat": 38.81513233333333, "fusion_lon": 0.0, "fusion_lat": 0.0, "type": "electric_bike", "name": "2837130c36d0e3f53c2e31d6c3fbbcc3", "is_disabled": 0, "rental_uris": {"ios": "https://dc.lft.to/lastmile_qr_scan", "android": "https://dc.lft.to/lastmile_qr_scan"}, "is_reserved": 0}, {"lon": -77.02219316666667, "bike_id": "7c8a833d6f2a29fe363d35872cbde2e4", "lat": 38.91002, "fusion_lon": 0.0, "fusion_lat": 0.0, "type": "electric_scooter", "name": "7c8a833d6f2a29fe363d35872cbde2e4", "is_disabled": 0, "rental_uris": {"ios": "https://dc.lft.to/lastmile_qr_scan", "android": "https://dc.lft.to/lastmile_qr_scan"}, "is_reserved": 0}, {"lon": -77.05176666666667, "bike_id": "ad9e447e2ec7355b29ee49e644cfd04b", "lat": 38.92341616666667, "fusion_lon": 0.0, "fusion_lat": 0.0, "type": "electric_scooter", "name": "ad9e447e2ec7355b29ee49e644cfd04b", "is_disabled": 0, "rental_uris": {"ios": "https://dc.lft.to/lastmile_qr_scan", "android": "https://dc.lft.to/lastmile_qr_scan"}, "is_reserved": 0}, {"lon": -77.0188085, "bike_id": "64425ee9b2f7eda4619dfb3b048c13f2", "lat": 38.90495033333333, "fusion_lon": 0.0, "fusion_lat": 0.0, "type": "electric_scooter", "name": "64425ee9b2f7eda4619dfb3b048c13f2", "is_disabled": 0, "rental_uris": {"ios": "https://dc.lft.to/lastmile_qr_scan", "android": "https://dc.lft.to/lastmile_qr_scan"}, "is_reserved": 0}, {"lon": -77.01431816666667, "bike_id": "b53640b6e7a743632b6d11a903e6f771", "lat": 38.87654666666667, "fusion_lon": 0.0, "fusion_lat": 0.0, "type": "electric_scooter", "name": "b53640b6e7a743632b6d11a903e6f771", "is_disabled": 0, "rental_uris": {"ios": "https://dc.lft.to/lastmile_qr_scan", "android": "https://dc.lft.to/lastmile_qr_scan"}, "is_reserved": 0}, {"lon": -76.98549966666667, "bike_id": "bdf8203e00ed7be921fe2ed93a516e85", "lat": 38.92003166666667, "fusion_lon": 0.0, "fusion_lat": 0.0, "type": "electric_scooter", "name": "bdf8203e00ed7be921fe2ed93a516e85", "is_disabled": 0, "rental_uris": {"ios": "https://dc.lft.to/lastmile_qr_scan", "android": "https://dc.lft.to/lastmile_qr_scan"}, "is_reserved": 0}, {"lon": -77.0215335, "bike_id": "011794060545d800a6b615040957808d", "lat": 38.925980333333335, "fusion_lon": 0.0, "fusion_lat": 0.0, "type": "electric_bike", "name": "011794060545d800a6b615040957808d", "is_disabled": 0, "rental_uris": {"ios": "https://dc.lft.to/lastmile_qr_scan", "android": "https://dc.lft.to/lastmile_qr_scan"}, "is_reserved": 0}, {"lon": -76.9273635, "bike_id": "79b2390eaf46fec1e5e88f3d7afd1200", "lat": 38.8896435, "fusion_lon": 0.0, "fusion_lat": 0.0, "type": "electric_scooter", "name": "79b2390eaf46fec1e5e88f3d7afd1200", "is_disabled": 0, "rental_uris": {"ios": "https://dc.lft.to/lastmile_qr_scan", "android": "https://dc.lft.to/lastmile_qr_scan"}, "is_reserved": 0}, {"lon": -76.985341, "bike_id": "88dae461d15fd29b0121fcaf67072342", "lat": 38.90461916666667, "fusion_lon": 0.0, "fusion_lat": 0.0, "type": "electric_scooter", "name": "88dae461d15fd29b0121fcaf67072342", "is_disabled": 0, "rental_uris": {"ios": "https://dc.lft.to/lastmile_qr_scan", "android": "https://dc.lft.to/lastmile_qr_scan"}, "is_reserved": 0}, {"lon": -77.0246775, "bike_id": "a7522bf0031594627ea6502acff6f513", "lat": 38.92091833333333, "fusion_lon": 0.0, "fusion_lat": 0.0, "type": "electric_scooter", "name": "a7522bf0031594627ea6502acff6f513", "is_disabled": 0, "rental_uris": {"ios": "https://dc.lft.to/lastmile_qr_scan", "android": "https://dc.lft.to/lastmile_qr_scan"}, "is_reserved": 0}, {"lon": -77.0179865, "bike_id": "cae87ea65e886860b7b4d546c4aca312", "lat": 38.92125716666666, "fusion_lon": 0.0, "fusion_lat": 0.0, "type": "electric_scooter", "name": "cae87ea65e886860b7b4d546c4aca312", "is_disabled": 0, "rental_uris": {"ios": "https://dc.lft.to/lastmile_qr_scan", "android": "https://dc.lft.to/lastmile_qr_scan"}, "is_reserved": 0}, {"lon": -77.04818733333333, "bike_id": "bb784f05d9d529ee786c2e7481fb509f", "lat": 38.907289166666665, "fusion_lon": 0.0, "fusion_lat": 0.0, "type": "electric_scooter", "name": "bb784f05d9d529ee786c2e7481fb509f", "is_disabled": 0, "rental_uris": {"ios": "https://dc.lft.to/lastmile_qr_scan", "android": "https://dc.lft.to/lastmile_qr_scan"}, "is_reserved": 0}, {"lon": -77.11710133333334, "bike_id": "ceb8c1652284e93d7f6fb639a107ac97", "lat": 38.867449, "fusion_lon": 0.0, "fusion_lat": 0.0, "type": "electric_bike", "name": "ceb8c1652284e93d7f6fb639a107ac97", "is_disabled": 0, "rental_uris": {"ios": "https://dc.lft.to/lastmile_qr_scan", "android": "https://dc.lft.to/lastmile_qr_scan"}, "is_reserved": 0}, {"lon": -77.055277, "bike_id": "457514e2342f205b2f1f2ee7867e8546", "lat": 38.929694833333336, "fusion_lon": 0.0, "fusion_lat": 0.0, "type": "electric_scooter", "name": "457514e2342f205b2f1f2ee7867e8546", "is_disabled": 0, "rental_uris": {"ios": "https://dc.lft.to/lastmile_qr_scan", "android": "https://dc.lft.to/lastmile_qr_scan"}, "is_reserved": 0}, {"lon": -77.03861166666667, "bike_id": "4431f0a18e60855c337231860e25a558", "lat": 38.90673916666667, "fusion_lon": 0.0, "fusion_lat": 0.0, "type": "electric_scooter", "name": "4431f0a18e60855c337231860e25a558", "is_disabled": 0, "rental_uris": {"ios": "https://dc.lft.to/lastmile_qr_scan", "android": "https://dc.lft.to/lastmile_qr_scan"}, "is_reserved": 0}, {"lon": -77.01348566666667, "bike_id": "dbec8e02428c8d06178d0c98b110787a", "lat": 38.878122166666664, "fusion_lon": 0.0, "fusion_lat": 0.0, "type": "electric_scooter", "name": "dbec8e02428c8d06178d0c98b110787a", "is_disabled": 0, "rental_uris": {"ios": "https://dc.lft.to/lastmile_qr_scan", "android": "https://dc.lft.to/lastmile_qr_scan"}, "is_reserved": 0}, {"lon": -77.02707066666666, "bike_id": "2a9c66eaf63aeef9674fdb4812cfa67f", "lat": 38.90655816666667, "fusion_lon": 0.0, "fusion_lat": 0.0, "type": "electric_scooter", "name": "2a9c66eaf63aeef9674fdb4812cfa67f", "is_disabled": 0, "rental_uris": {"ios": "https://dc.lft.to/lastmile_qr_scan", "android": "https://dc.lft.to/lastmile_qr_scan"}, "is_reserved": 0}, {"lon": -77.0010075, "bike_id": "4610b2cbf55540dd9c1a15f3f5792ad8", "lat": 38.916347, "fusion_lon": 0.0, "fusion_lat": 0.0, "type": "electric_scooter", "name": "4610b2cbf55540dd9c1a15f3f5792ad8", "is_disabled": 0, "rental_uris": {"ios": "https://dc.lft.to/lastmile_qr_scan", "android": "https://dc.lft.to/lastmile_qr_scan"}, "is_reserved": 0}, {"lon": -77.03274583333334, "bike_id": "d7274d58aae821bfc4f8d28923d1367e", "lat": 38.9283545, "fusion_lon": 0.0, "fusion_lat": 0.0, "type": "electric_scooter", "name": "d7274d58aae821bfc4f8d28923d1367e", "is_disabled": 0, "rental_uris": {"ios": "https://dc.lft.to/lastmile_qr_scan", "android": "https://dc.lft.to/lastmile_qr_scan"}, "is_reserved": 0}, {"lon": -77.03200633333333, "bike_id": "1f83b2925bb77ad409c840e6d1bdb8f5", "lat": 38.91640733333333, "fusion_lon": 0.0, "fusion_lat": 0.0, "type": "electric_scooter", "name": "1f83b2925bb77ad409c840e6d1bdb8f5", "is_disabled": 0, "rental_uris": {"ios": "https://dc.lft.to/lastmile_qr_scan", "android": "https://dc.lft.to/lastmile_qr_scan"}, "is_reserved": 0}, {"lon": -77.042799, "bike_id": "621ca9b30ff718d20b5a0f3f40afb421", "lat": 38.922414833333335, "fusion_lon": 0.0, "fusion_lat": 0.0, "type": "electric_scooter", "name": "621ca9b30ff718d20b5a0f3f40afb421", "is_disabled": 0, "rental_uris": {"ios": "https://dc.lft.to/lastmile_qr_scan", "android": "https://dc.lft.to/lastmile_qr_scan"}, "is_reserved": 0}, {"lon": -77.0474395, "bike_id": "54f81ef68f1d970c5c6bf8404437e1bf", "lat": 38.91762383333333, "fusion_lon": 0.0, "fusion_lat": 0.0, "type": "electric_scooter", "name": "54f81ef68f1d970c5c6bf8404437e1bf", "is_disabled": 0, "rental_uris": {"ios": "https://dc.lft.to/lastmile_qr_scan", "android": "https://dc.lft.to/lastmile_qr_scan"}, "is_reserved": 0}, {"lon": -76.92373683333334, "bike_id": "4507179910e27d66395fc87f4c4e81dd", "lat": 38.88373166666667, "fusion_lon": 0.0, "fusion_lat": 0.0, "type": "electric_bike", "name": "4507179910e27d66395fc87f4c4e81dd", "is_disabled": 0, "rental_uris": {"ios": "https://dc.lft.to/lastmile_qr_scan", "android": "https://dc.lft.to/lastmile_qr_scan"}, "is_reserved": 0}, {"lon": -77.00337983333333, "bike_id": "b24d39bc461a7df9fcad1123e8bef032", "lat": 38.8951915, "fusion_lon": 0.0, "fusion_lat": 0.0, "type": "electric_scooter", "name": "b24d39bc461a7df9fcad1123e8bef032", "is_disabled": 0, "rental_uris": {"ios": "https://dc.lft.to/lastmile_qr_scan", "android": "https://dc.lft.to/lastmile_qr_scan"}, "is_reserved": 0}, {"lon": -76.99936783333334, "bike_id": "859af55bd015056ae3d81855c13f8b00", "lat": 38.843003333333336, "fusion_lon": 0.0, "fusion_lat": 0.0, "type": "electric_scooter", "name": "859af55bd015056ae3d81855c13f8b00", "is_disabled": 0, "rental_uris": {"ios": "https://dc.lft.to/lastmile_qr_scan", "android": "https://dc.lft.to/lastmile_qr_scan"}, "is_reserved": 0}, {"lon": -77.07011583333333, "bike_id": "87e531fd6cdb2e19c76770f245852c65", "lat": 38.9584725, "fusion_lon": 0.0, "fusion_lat": 0.0, "type": "electric_scooter", "name": "87e531fd6cdb2e19c76770f245852c65", "is_disabled": 0, "rental_uris": {"ios": "https://dc.lft.to/lastmile_qr_scan", "android": "https://dc.lft.to/lastmile_qr_scan"}, "is_reserved": 0}, {"lon": -76.94876183333334, "bike_id": "2145fd8966fd2fe587f59a6879256374", "lat": 38.89544566666667, "fusion_lon": 0.0, "fusion_lat": 0.0, "type": "electric_scooter", "name": "2145fd8966fd2fe587f59a6879256374", "is_disabled": 0, "rental_uris": {"ios": "https://dc.lft.to/lastmile_qr_scan", "android": "https://dc.lft.to/lastmile_qr_scan"}, "is_reserved": 0}, {"lon": -77.031122, "bike_id": "7e513c5b6dfd2bd64de3afcc61849c61", "lat": 38.916926, "fusion_lon": 0.0, "fusion_lat": 0.0, "type": "electric_scooter", "name": "7e513c5b6dfd2bd64de3afcc61849c61", "is_disabled": 0, "rental_uris": {"ios": "https://dc.lft.to/lastmile_qr_scan", "android": "https://dc.lft.to/lastmile_qr_scan"}, "is_reserved": 0}, {"lon": -77.080735, "bike_id": "a5dfddcd7731cacbce6d1a3bbc43799b", "lat": 38.96315333333333, "fusion_lon": 0.0, "fusion_lat": 0.0, "type": "electric_bike", "name": "a5dfddcd7731cacbce6d1a3bbc43799b", "is_disabled": 0, "rental_uris": {"ios": "https://dc.lft.to/lastmile_qr_scan", "android": "https://dc.lft.to/lastmile_qr_scan"}, "is_reserved": 0}, {"lon": -76.993787, "bike_id": "9a159b08ba9d8f1da3a33c0873f9fd2c", "lat": 38.971842, "fusion_lon": 0.0, "fusion_lat": 0.0, "type": "electric_bike", "name": "9a159b08ba9d8f1da3a33c0873f9fd2c", "is_disabled": 0, "rental_uris": {"ios": "https://dc.lft.to/lastmile_qr_scan", "android": "https://dc.lft.to/lastmile_qr_scan"}, "is_reserved": 0}, {"lon": -77.03759683333334, "bike_id": "27d88fc7486808050740955f4ffd07e3", "lat": 38.902791, "fusion_lon": 0.0, "fusion_lat": 0.0, "type": "electric_scooter", "name": "27d88fc7486808050740955f4ffd07e3", "is_disabled": 0, "rental_uris": {"ios": "https://dc.lft.to/lastmile_qr_scan", "android": "https://dc.lft.to/lastmile_qr_scan"}, "is_reserved": 0}, {"lon": -77.02093833333333, "bike_id": "7e26cb31ce95ada5a4906228ad2bda83", "lat": 38.945202333333334, "fusion_lon": 0.0, "fusion_lat": 0.0, "type": "electric_scooter", "name": "7e26cb31ce95ada5a4906228ad2bda83", "is_disabled": 0, "rental_uris": {"ios": "https://dc.lft.to/lastmile_qr_scan", "android": "https://dc.lft.to/lastmile_qr_scan"}, "is_reserved": 0}, {"lon": -77.0316435, "bike_id": "f3127be16f686dc091d6bc4a6d61581c", "lat": 38.936010333333336, "fusion_lon": 0.0, "fusion_lat": 0.0, "type": "electric_scooter", "name": "f3127be16f686dc091d6bc4a6d61581c", "is_disabled": 0, "rental_uris": {"ios": "https://dc.lft.to/lastmile_qr_scan", "android": "https://dc.lft.to/lastmile_qr_scan"}, "is_reserved": 0}, {"lon": -77.017633, "bike_id": "a993baf86046d81496f0a48a5c34c41c", "lat": 38.903844, "fusion_lon": 0.0, "fusion_lat": 0.0, "type": "electric_scooter", "name": "a993baf86046d81496f0a48a5c34c41c", "is_disabled": 0, "rental_uris": {"ios": "https://dc.lft.to/lastmile_qr_scan", "android": "https://dc.lft.to/lastmile_qr_scan"}, "is_reserved": 0}, {"lon": -77.05253983333333, "bike_id": "9ce917bac34b1f906a5fb71f41323f43", "lat": 38.92373966666667, "fusion_lon": 0.0, "fusion_lat": 0.0, "type": "electric_scooter", "name": "9ce917bac34b1f906a5fb71f41323f43", "is_disabled": 0, "rental_uris": {"ios": "https://dc.lft.to/lastmile_qr_scan", "android": "https://dc.lft.to/lastmile_qr_scan"}, "is_reserved": 0}, {"lon": -77.024378, "bike_id": "2077822b00448a858ea51d6202695011", "lat": 38.916870333333335, "fusion_lon": 0.0, "fusion_lat": 0.0, "type": "electric_scooter", "name": "2077822b00448a858ea51d6202695011", "is_disabled": 0, "rental_uris": {"ios": "https://dc.lft.to/lastmile_qr_scan", "android": "https://dc.lft.to/lastmile_qr_scan"}, "is_reserved": 0}, {"lon": -77.0433815, "bike_id": "52fd471220a91e4fd7f6c6e55f40bac4", "lat": 38.9043135, "fusion_lon": 0.0, "fusion_lat": 0.0, "type": "electric_bike", "name": "52fd471220a91e4fd7f6c6e55f40bac4", "is_disabled": 0, "rental_uris": {"ios": "https://dc.lft.to/lastmile_qr_scan", "android": "https://dc.lft.to/lastmile_qr_scan"}, "is_reserved": 0}, {"lon": -77.014166, "bike_id": "cda4a8bba54ff7ca2350b8e20b896592", "lat": 38.906472666666666, "fusion_lon": 0.0, "fusion_lat": 0.0, "type": "electric_scooter", "name": "cda4a8bba54ff7ca2350b8e20b896592", "is_disabled": 0, "rental_uris": {"ios": "https://dc.lft.to/lastmile_qr_scan", "android": "https://dc.lft.to/lastmile_qr_scan"}, "is_reserved": 0}, {"lon": -77.022859, "bike_id": "0128b1273691aa2b42097111fd8adf61", "lat": 38.916796, "fusion_lon": 0.0, "fusion_lat": 0.0, "type": "electric_scooter", "name": "0128b1273691aa2b42097111fd8adf61", "is_disabled": 0, "rental_uris": {"ios": "https://dc.lft.to/lastmile_qr_scan", "android": "https://dc.lft.to/lastmile_qr_scan"}, "is_reserved": 0}, {"lon": -77.01200783333333, "bike_id": "afd946217bce7d241adc7bf2ff55da0b", "lat": 38.89315633333333, "fusion_lon": 0.0, "fusion_lat": 0.0, "type": "electric_scooter", "name": "afd946217bce7d241adc7bf2ff55da0b", "is_disabled": 0, "rental_uris": {"ios": "https://dc.lft.to/lastmile_qr_scan", "android": "https://dc.lft.to/lastmile_qr_scan"}, "is_reserved": 0}, {"lon": -77.00928766666667, "bike_id": "e0f9358f69ecdcac933f86b919066cc7", "lat": 38.918033, "fusion_lon": 0.0, "fusion_lat": 0.0, "type": "electric_scooter", "name": "e0f9358f69ecdcac933f86b919066cc7", "is_disabled": 0, "rental_uris": {"ios": "https://dc.lft.to/lastmile_qr_scan", "android": "https://dc.lft.to/lastmile_qr_scan"}, "is_reserved": 0}, {"lon": -77.001306, "bike_id": "c5e0ea153c57eef12a903647785b8012", "lat": 38.8852375, "fusion_lon": 0.0, "fusion_lat": 0.0, "type": "electric_scooter", "name": "c5e0ea153c57eef12a903647785b8012", "is_disabled": 0, "rental_uris": {"ios": "https://dc.lft.to/lastmile_qr_scan", "android": "https://dc.lft.to/lastmile_qr_scan"}, "is_reserved": 0}, {"lon": -76.97001833333333, "bike_id": "804d4a30697599e999ca6465c35531a0", "lat": 38.87368416666666, "fusion_lon": 0.0, "fusion_lat": 0.0, "type": "electric_scooter", "name": "804d4a30697599e999ca6465c35531a0", "is_disabled": 0, "rental_uris": {"ios": "https://dc.lft.to/lastmile_qr_scan", "android": "https://dc.lft.to/lastmile_qr_scan"}, "is_reserved": 0}, {"lon": -77.02523283333333, "bike_id": "615700cf646fb7843eedaf43b64a7c6d", "lat": 38.88433666666667, "fusion_lon": 0.0, "fusion_lat": 0.0, "type": "electric_scooter", "name": "615700cf646fb7843eedaf43b64a7c6d", "is_disabled": 0, "rental_uris": {"ios": "https://dc.lft.to/lastmile_qr_scan", "android": "https://dc.lft.to/lastmile_qr_scan"}, "is_reserved": 0}, {"lon": -77.02583066666666, "bike_id": "4b765a4cf132f5d2eed38a06ed2a5351", "lat": 38.903662, "fusion_lon": 0.0, "fusion_lat": 0.0, "type": "electric_scooter", "name": "4b765a4cf132f5d2eed38a06ed2a5351", "is_disabled": 0, "rental_uris": {"ios": "https://dc.lft.to/lastmile_qr_scan", "android": "https://dc.lft.to/lastmile_qr_scan"}, "is_reserved": 0}, {"lon": -76.9888235, "bike_id": "f0186c123508aaf932f78965712855c2", "lat": 38.86652616666667, "fusion_lon": 0.0, "fusion_lat": 0.0, "type": "electric_scooter", "name": "f0186c123508aaf932f78965712855c2", "is_disabled": 0, "rental_uris": {"ios": "https://dc.lft.to/lastmile_qr_scan", "android": "https://dc.lft.to/lastmile_qr_scan"}, "is_reserved": 0}, {"lon": -77.02195066666667, "bike_id": "2f37f5ce4577878db651bcb25dfbbf6c", "lat": 38.911330166666666, "fusion_lon": 0.0, "fusion_lat": 0.0, "type": "electric_scooter", "name": "2f37f5ce4577878db651bcb25dfbbf6c", "is_disabled": 0, "rental_uris": {"ios": "https://dc.lft.to/lastmile_qr_scan", "android": "https://dc.lft.to/lastmile_qr_scan"}, "is_reserved": 0}, {"lon": -77.02492783333334, "bike_id": "bf15bb3140a0b9c00370068d0306a96a", "lat": 38.9418685, "fusion_lon": 0.0, "fusion_lat": 0.0, "type": "electric_scooter", "name": "bf15bb3140a0b9c00370068d0306a96a", "is_disabled": 0, "rental_uris": {"ios": "https://dc.lft.to/lastmile_qr_scan", "android": "https://dc.lft.to/lastmile_qr_scan"}, "is_reserved": 0}, {"lon": -77.061454, "bike_id": "23e0652617ec14d1e8481d83da7e1dde", "lat": 38.94356583333333, "fusion_lon": 0.0, "fusion_lat": 0.0, "type": "electric_scooter", "name": "23e0652617ec14d1e8481d83da7e1dde", "is_disabled": 0, "rental_uris": {"ios": "https://dc.lft.to/lastmile_qr_scan", "android": "https://dc.lft.to/lastmile_qr_scan"}, "is_reserved": 0}, {"lon": -77.02296233333334, "bike_id": "2e0fca3fe69c36a3ed2ba05b58b1b894", "lat": 38.92328916666666, "fusion_lon": 0.0, "fusion_lat": 0.0, "type": "electric_bike", "name": "2e0fca3fe69c36a3ed2ba05b58b1b894", "is_disabled": 0, "rental_uris": {"ios": "https://dc.lft.to/lastmile_qr_scan", "android": "https://dc.lft.to/lastmile_qr_scan"}, "is_reserved": 0}, {"lon": -77.05118383333334, "bike_id": "899912cb02a090919ff3c42a17133079", "lat": 38.923449, "fusion_lon": 0.0, "fusion_lat": 0.0, "type": "electric_scooter", "name": "899912cb02a090919ff3c42a17133079", "is_disabled": 0, "rental_uris": {"ios": "https://dc.lft.to/lastmile_qr_scan", "android": "https://dc.lft.to/lastmile_qr_scan"}, "is_reserved": 0}, {"lon": -77.07792783333333, "bike_id": "c79541f3ee9f1864c8b1feecf2f31141", "lat": 38.9960335, "fusion_lon": 0.0, "fusion_lat": 0.0, "type": "electric_bike", "name": "c79541f3ee9f1864c8b1feecf2f31141", "is_disabled": 0, "rental_uris": {"ios": "https://dc.lft.to/lastmile_qr_scan", "android": "https://dc.lft.to/lastmile_qr_scan"}, "is_reserved": 0}, {"lon": -76.99767566666667, "bike_id": "7a0707574d7a35df6b269f609fa659ac", "lat": 38.910653833333335, "fusion_lon": 0.0, "fusion_lat": 0.0, "type": "electric_scooter", "name": "7a0707574d7a35df6b269f609fa659ac", "is_disabled": 0, "rental_uris": {"ios": "https://dc.lft.to/lastmile_qr_scan", "android": "https://dc.lft.to/lastmile_qr_scan"}, "is_reserved": 0}, {"lon": -77.03501216666666, "bike_id": "a489344971e116028bc6f547631d1d04", "lat": 38.92479466666666, "fusion_lon": 0.0, "fusion_lat": 0.0, "type": "electric_scooter", "name": "a489344971e116028bc6f547631d1d04", "is_disabled": 0, "rental_uris": {"ios": "https://dc.lft.to/lastmile_qr_scan", "android": "https://dc.lft.to/lastmile_qr_scan"}, "is_reserved": 0}, {"lon": -77.04348983333334, "bike_id": "8fec53e3ffd5e03373457e1f0640e3e2", "lat": 38.907705666666665, "fusion_lon": 0.0, "fusion_lat": 0.0, "type": "electric_scooter", "name": "8fec53e3ffd5e03373457e1f0640e3e2", "is_disabled": 0, "rental_uris": {"ios": "https://dc.lft.to/lastmile_qr_scan", "android": "https://dc.lft.to/lastmile_qr_scan"}, "is_reserved": 0}, {"lon": -77.01631566666667, "bike_id": "817d794e8b0b7f40a5860280f07b1bf0", "lat": 38.9289635, "fusion_lon": 0.0, "fusion_lat": 0.0, "type": "electric_scooter", "name": "817d794e8b0b7f40a5860280f07b1bf0", "is_disabled": 0, "rental_uris": {"ios": "https://dc.lft.to/lastmile_qr_scan", "android": "https://dc.lft.to/lastmile_qr_scan"}, "is_reserved": 0}, {"lon": -77.04895433333333, "bike_id": "f2fc804b24910a8c9a5061f53488b099", "lat": 38.90351866666666, "fusion_lon": 0.0, "fusion_lat": 0.0, "type": "electric_scooter", "name": "f2fc804b24910a8c9a5061f53488b099", "is_disabled": 0, "rental_uris": {"ios": "https://dc.lft.to/lastmile_qr_scan", "android": "https://dc.lft.to/lastmile_qr_scan"}, "is_reserved": 0}, {"lon": -76.99542833333334, "bike_id": "5a1fe237f7376d4704c816e9afcd82fd", "lat": 38.86255716666667, "fusion_lon": 0.0, "fusion_lat": 0.0, "type": "electric_scooter", "name": "5a1fe237f7376d4704c816e9afcd82fd", "is_disabled": 0, "rental_uris": {"ios": "https://dc.lft.to/lastmile_qr_scan", "android": "https://dc.lft.to/lastmile_qr_scan"}, "is_reserved": 0}, {"lon": -76.99544383333334, "bike_id": "ec8f1ccfd7d8d46d8d067a72e4f1b0f6", "lat": 38.926702666666664, "fusion_lon": 0.0, "fusion_lat": 0.0, "type": "electric_scooter", "name": "ec8f1ccfd7d8d46d8d067a72e4f1b0f6", "is_disabled": 0, "rental_uris": {"ios": "https://dc.lft.to/lastmile_qr_scan", "android": "https://dc.lft.to/lastmile_qr_scan"}, "is_reserved": 0}, {"lon": -77.03852483333333, "bike_id": "cba3b2224fed7f8fb181fa845c40f63e", "lat": 38.9312945, "fusion_lon": 0.0, "fusion_lat": 0.0, "type": "electric_scooter", "name": "cba3b2224fed7f8fb181fa845c40f63e", "is_disabled": 0, "rental_uris": {"ios": "https://dc.lft.to/lastmile_qr_scan", "android": "https://dc.lft.to/lastmile_qr_scan"}, "is_reserved": 0}, {"lon": -77.02617483333333, "bike_id": "8345e320592926c219f56354d89d5859", "lat": 38.896244, "fusion_lon": 0.0, "fusion_lat": 0.0, "type": "electric_scooter", "name": "8345e320592926c219f56354d89d5859", "is_disabled": 0, "rental_uris": {"ios": "https://dc.lft.to/lastmile_qr_scan", "android": "https://dc.lft.to/lastmile_qr_scan"}, "is_reserved": 0}, {"lon": -76.9373835, "bike_id": "4d878900393b666782830fe88d337538", "lat": 38.89012183333333, "fusion_lon": 0.0, "fusion_lat": 0.0, "type": "electric_scooter", "name": "4d878900393b666782830fe88d337538", "is_disabled": 0, "rental_uris": {"ios": "https://dc.lft.to/lastmile_qr_scan", "android": "https://dc.lft.to/lastmile_qr_scan"}, "is_reserved": 0}, {"lon": -77.02993766666667, "bike_id": "d4dfd659b158b511ce83c30f625f4028", "lat": 38.92468783333333, "fusion_lon": 0.0, "fusion_lat": 0.0, "type": "electric_scooter", "name": "d4dfd659b158b511ce83c30f625f4028", "is_disabled": 0, "rental_uris": {"ios": "https://dc.lft.to/lastmile_qr_scan", "android": "https://dc.lft.to/lastmile_qr_scan"}, "is_reserved": 0}, {"lon": -76.93132783333333, "bike_id": "717a8719cbc4e247b8c05341cff51b9c", "lat": 38.87610133333333, "fusion_lon": 0.0, "fusion_lat": 0.0, "type": "electric_scooter", "name": "717a8719cbc4e247b8c05341cff51b9c", "is_disabled": 0, "rental_uris": {"ios": "https://dc.lft.to/lastmile_qr_scan", "android": "https://dc.lft.to/lastmile_qr_scan"}, "is_reserved": 0}, {"lon": -77.05431816666666, "bike_id": "2f6648b52698ecb4209888297c23fcc6", "lat": 38.928618, "fusion_lon": 0.0, "fusion_lat": 0.0, "type": "electric_scooter", "name": "2f6648b52698ecb4209888297c23fcc6", "is_disabled": 0, "rental_uris": {"ios": "https://dc.lft.to/lastmile_qr_scan", "android": "https://dc.lft.to/lastmile_qr_scan"}, "is_reserved": 0}, {"lon": -77.0316135, "bike_id": "5516d4f5664390649aa6bb1bf1815577", "lat": 38.89214116666667, "fusion_lon": 0.0, "fusion_lat": 0.0, "type": "electric_scooter", "name": "5516d4f5664390649aa6bb1bf1815577", "is_disabled": 0, "rental_uris": {"ios": "https://dc.lft.to/lastmile_qr_scan", "android": "https://dc.lft.to/lastmile_qr_scan"}, "is_reserved": 0}, {"lon": -77.02400416666667, "bike_id": "44372040bb8db5319aff6b884653ab7a", "lat": 38.936997166666664, "fusion_lon": 0.0, "fusion_lat": 0.0, "type": "electric_scooter", "name": "44372040bb8db5319aff6b884653ab7a", "is_disabled": 0, "rental_uris": {"ios": "https://dc.lft.to/lastmile_qr_scan", "android": "https://dc.lft.to/lastmile_qr_scan"}, "is_reserved": 0}, {"lon": -77.022092, "bike_id": "ecc84d7bb42011374fcafbd6abf2e618", "lat": 38.91415816666667, "fusion_lon": 0.0, "fusion_lat": 0.0, "type": "electric_scooter", "name": "ecc84d7bb42011374fcafbd6abf2e618", "is_disabled": 0, "rental_uris": {"ios": "https://dc.lft.to/lastmile_qr_scan", "android": "https://dc.lft.to/lastmile_qr_scan"}, "is_reserved": 0}, {"lon": -77.04685416666666, "bike_id": "7ba8ae4e3911b6983aa174dee85ed08b", "lat": 38.90612516666667, "fusion_lon": 0.0, "fusion_lat": 0.0, "type": "electric_scooter", "name": "7ba8ae4e3911b6983aa174dee85ed08b", "is_disabled": 0, "rental_uris": {"ios": "https://dc.lft.to/lastmile_qr_scan", "android": "https://dc.lft.to/lastmile_qr_scan"}, "is_reserved": 0}, {"lon": -77.022377, "bike_id": "08f30a0a1f0bf31f3ab4cc0f9fe00733", "lat": 38.92613333333333, "fusion_lon": 0.0, "fusion_lat": 0.0, "type": "electric_scooter", "name": "08f30a0a1f0bf31f3ab4cc0f9fe00733", "is_disabled": 0, "rental_uris": {"ios": "https://dc.lft.to/lastmile_qr_scan", "android": "https://dc.lft.to/lastmile_qr_scan"}, "is_reserved": 0}, {"lon": -77.04405333333334, "bike_id": "91539150cb298c79d93d7674a0d6adee", "lat": 38.92445266666667, "fusion_lon": 0.0, "fusion_lat": 0.0, "type": "electric_scooter", "name": "91539150cb298c79d93d7674a0d6adee", "is_disabled": 0, "rental_uris": {"ios": "https://dc.lft.to/lastmile_qr_scan", "android": "https://dc.lft.to/lastmile_qr_scan"}, "is_reserved": 0}, {"lon": -77.02185633333333, "bike_id": "e849d2211c02f5af9288b519a58d5928", "lat": 38.939509666666666, "fusion_lon": 0.0, "fusion_lat": 0.0, "type": "electric_scooter", "name": "e849d2211c02f5af9288b519a58d5928", "is_disabled": 0, "rental_uris": {"ios": "https://dc.lft.to/lastmile_qr_scan", "android": "https://dc.lft.to/lastmile_qr_scan"}, "is_reserved": 0}, {"lon": -77.02277333333333, "bike_id": "fbecfa61e2ee96a2533d5ac63ffaaab4", "lat": 38.90845483333333, "fusion_lon": 0.0, "fusion_lat": 0.0, "type": "electric_bike", "name": "fbecfa61e2ee96a2533d5ac63ffaaab4", "is_disabled": 0, "rental_uris": {"ios": "https://dc.lft.to/lastmile_qr_scan", "android": "https://dc.lft.to/lastmile_qr_scan"}, "is_reserved": 0}, {"lon": -77.01266216666667, "bike_id": "f9a00b8fa5ba465eca04da9059db2020", "lat": 38.915418, "fusion_lon": 0.0, "fusion_lat": 0.0, "type": "electric_scooter", "name": "f9a00b8fa5ba465eca04da9059db2020", "is_disabled": 0, "rental_uris": {"ios": "https://dc.lft.to/lastmile_qr_scan", "android": "https://dc.lft.to/lastmile_qr_scan"}, "is_reserved": 0}, {"lon": -77.02112883333334, "bike_id": "6750ffca65a6c8ff1f3c46d1d0d7acda", "lat": 38.9060105, "fusion_lon": 0.0, "fusion_lat": 0.0, "type": "electric_scooter", "name": "6750ffca65a6c8ff1f3c46d1d0d7acda", "is_disabled": 0, "rental_uris": {"ios": "https://dc.lft.to/lastmile_qr_scan", "android": "https://dc.lft.to/lastmile_qr_scan"}, "is_reserved": 0}, {"lon": -76.98924333333333, "bike_id": "d18ec3e65e757117774a721d389f3836", "lat": 38.85809883333334, "fusion_lon": 0.0, "fusion_lat": 0.0, "type": "electric_scooter", "name": "d18ec3e65e757117774a721d389f3836", "is_disabled": 0, "rental_uris": {"ios": "https://dc.lft.to/lastmile_qr_scan", "android": "https://dc.lft.to/lastmile_qr_scan"}, "is_reserved": 0}, {"lon": -77.04891, "bike_id": "bd716942c54182e15c6a0d933dd6b90b", "lat": 38.892304833333334, "fusion_lon": 0.0, "fusion_lat": 0.0, "type": "electric_scooter", "name": "bd716942c54182e15c6a0d933dd6b90b", "is_disabled": 0, "rental_uris": {"ios": "https://dc.lft.to/lastmile_qr_scan", "android": "https://dc.lft.to/lastmile_qr_scan"}, "is_reserved": 0}, {"lon": -77.04391816666667, "bike_id": "996ab5bcb7097a440fc3e61aeae7e43a", "lat": 39.04716766666667, "fusion_lon": 0.0, "fusion_lat": 0.0, "type": "electric_bike", "name": "996ab5bcb7097a440fc3e61aeae7e43a", "is_disabled": 0, "rental_uris": {"ios": "https://dc.lft.to/lastmile_qr_scan", "android": "https://dc.lft.to/lastmile_qr_scan"}, "is_reserved": 0}, {"lon": -77.03646533333334, "bike_id": "3d3ccaea68ff357b5855cbd738462aa2", "lat": 38.984911333333336, "fusion_lon": 0.0, "fusion_lat": 0.0, "type": "electric_bike", "name": "3d3ccaea68ff357b5855cbd738462aa2", "is_disabled": 0, "rental_uris": {"ios": "https://dc.lft.to/lastmile_qr_scan", "android": "https://dc.lft.to/lastmile_qr_scan"}, "is_reserved": 0}, {"lon": -77.00200133333334, "bike_id": "5615d502c058f58229b9bf2a141b193d", "lat": 38.9024335, "fusion_lon": 0.0, "fusion_lat": 0.0, "type": "electric_scooter", "name": "5615d502c058f58229b9bf2a141b193d", "is_disabled": 0, "rental_uris": {"ios": "https://dc.lft.to/lastmile_qr_scan", "android": "https://dc.lft.to/lastmile_qr_scan"}, "is_reserved": 0}, {"lon": -77.02207733333333, "bike_id": "8fdf373eff4903de00111cb528354061", "lat": 38.9054, "fusion_lon": 0.0, "fusion_lat": 0.0, "type": "electric_scooter", "name": "8fdf373eff4903de00111cb528354061", "is_disabled": 0, "rental_uris": {"ios": "https://dc.lft.to/lastmile_qr_scan", "android": "https://dc.lft.to/lastmile_qr_scan"}, "is_reserved": 0}, {"lon": -77.07692216666666, "bike_id": "1ed641eceddf26bacec9a48a04233b91", "lat": 38.840743333333336, "fusion_lon": 0.0, "fusion_lat": 0.0, "type": "electric_bike", "name": "1ed641eceddf26bacec9a48a04233b91", "is_disabled": 0, "rental_uris": {"ios": "https://dc.lft.to/lastmile_qr_scan", "android": "https://dc.lft.to/lastmile_qr_scan"}, "is_reserved": 0}, {"lon": -77.04487583333334, "bike_id": "1c3513184ac091c308013a6ab5a61e79", "lat": 38.9029345, "fusion_lon": 0.0, "fusion_lat": 0.0, "type": "electric_scooter", "name": "1c3513184ac091c308013a6ab5a61e79", "is_disabled": 0, "rental_uris": {"ios": "https://dc.lft.to/lastmile_qr_scan", "android": "https://dc.lft.to/lastmile_qr_scan"}, "is_reserved": 0}, {"lon": -77.02975933333333, "bike_id": "b0eec3bdae652772afe67617ac3f7c17", "lat": 38.9300045, "fusion_lon": 0.0, "fusion_lat": 0.0, "type": "electric_scooter", "name": "b0eec3bdae652772afe67617ac3f7c17", "is_disabled": 0, "rental_uris": {"ios": "https://dc.lft.to/lastmile_qr_scan", "android": "https://dc.lft.to/lastmile_qr_scan"}, "is_reserved": 0}, {"lon": -76.97750416666666, "bike_id": "1a7e42e608f322069beda6db266fd17d", "lat": 38.86511983333333, "fusion_lon": 0.0, "fusion_lat": 0.0, "type": "electric_scooter", "name": "1a7e42e608f322069beda6db266fd17d", "is_disabled": 0, "rental_uris": {"ios": "https://dc.lft.to/lastmile_qr_scan", "android": "https://dc.lft.to/lastmile_qr_scan"}, "is_reserved": 0}, {"lon": -77.02106133333334, "bike_id": "3db959d9e7d7ae67e44a0ce711bd3c47", "lat": 38.917695, "fusion_lon": 0.0, "fusion_lat": 0.0, "type": "electric_scooter", "name": "3db959d9e7d7ae67e44a0ce711bd3c47", "is_disabled": 0, "rental_uris": {"ios": "https://dc.lft.to/lastmile_qr_scan", "android": "https://dc.lft.to/lastmile_qr_scan"}, "is_reserved": 0}, {"lon": -77.01127166666667, "bike_id": "e75b26bfbbeb70fb751d8ca66e0c7b61", "lat": 38.89498283333333, "fusion_lon": 0.0, "fusion_lat": 0.0, "type": "electric_scooter", "name": "e75b26bfbbeb70fb751d8ca66e0c7b61", "is_disabled": 0, "rental_uris": {"ios": "https://dc.lft.to/lastmile_qr_scan", "android": "https://dc.lft.to/lastmile_qr_scan"}, "is_reserved": 0}, {"lon": -76.98844366666667, "bike_id": "325a74184b32da4bde340cfbfc5be8e8", "lat": 38.9012555, "fusion_lon": 0.0, "fusion_lat": 0.0, "type": "electric_scooter", "name": "325a74184b32da4bde340cfbfc5be8e8", "is_disabled": 0, "rental_uris": {"ios": "https://dc.lft.to/lastmile_qr_scan", "android": "https://dc.lft.to/lastmile_qr_scan"}, "is_reserved": 0}, {"lon": -77.02696483333334, "bike_id": "90d35f44dcacdce952f6ab5134c40baf", "lat": 38.906756, "fusion_lon": 0.0, "fusion_lat": 0.0, "type": "electric_scooter", "name": "90d35f44dcacdce952f6ab5134c40baf", "is_disabled": 0, "rental_uris": {"ios": "https://dc.lft.to/lastmile_qr_scan", "android": "https://dc.lft.to/lastmile_qr_scan"}, "is_reserved": 0}, {"lon": -77.12223833333333, "bike_id": "c3690ff2a839ced1f88b80ae1449fb52", "lat": 38.852991, "fusion_lon": 0.0, "fusion_lat": 0.0, "type": "electric_bike", "name": "c3690ff2a839ced1f88b80ae1449fb52", "is_disabled": 0, "rental_uris": {"ios": "https://dc.lft.to/lastmile_qr_scan", "android": "https://dc.lft.to/lastmile_qr_scan"}, "is_reserved": 0}, {"lon": -77.0115435, "bike_id": "1ec16ba423afc65d0fe14e6c90bb1748", "lat": 38.8960625, "fusion_lon": 0.0, "fusion_lat": 0.0, "type": "electric_scooter", "name": "1ec16ba423afc65d0fe14e6c90bb1748", "is_disabled": 0, "rental_uris": {"ios": "https://dc.lft.to/lastmile_qr_scan", "android": "https://dc.lft.to/lastmile_qr_scan"}, "is_reserved": 0}, {"lon": -77.026388, "bike_id": "e1ca8435ff64dd2d0222a44f929961c5", "lat": 38.90423283333333, "fusion_lon": 0.0, "fusion_lat": 0.0, "type": "electric_scooter", "name": "e1ca8435ff64dd2d0222a44f929961c5", "is_disabled": 0, "rental_uris": {"ios": "https://dc.lft.to/lastmile_qr_scan", "android": "https://dc.lft.to/lastmile_qr_scan"}, "is_reserved": 0}, {"lon": -77.0201295, "bike_id": "ea01c33f2a02c75ac0163c3b6e6d9edd", "lat": 38.924144, "fusion_lon": 0.0, "fusion_lat": 0.0, "type": "electric_scooter", "name": "ea01c33f2a02c75ac0163c3b6e6d9edd", "is_disabled": 0, "rental_uris": {"ios": "https://dc.lft.to/lastmile_qr_scan", "android": "https://dc.lft.to/lastmile_qr_scan"}, "is_reserved": 0}, {"lon": -77.01110516666667, "bike_id": "cebf27909f842e38d353f88bdf01a1dc", "lat": 38.903418, "fusion_lon": 0.0, "fusion_lat": 0.0, "type": "electric_scooter", "name": "cebf27909f842e38d353f88bdf01a1dc", "is_disabled": 0, "rental_uris": {"ios": "https://dc.lft.to/lastmile_qr_scan", "android": "https://dc.lft.to/lastmile_qr_scan"}, "is_reserved": 0}, {"lon": -77.022367, "bike_id": "48af779943a07638a2cf4e0d61db039c", "lat": 38.9155845, "fusion_lon": 0.0, "fusion_lat": 0.0, "type": "electric_scooter", "name": "48af779943a07638a2cf4e0d61db039c", "is_disabled": 0, "rental_uris": {"ios": "https://dc.lft.to/lastmile_qr_scan", "android": "https://dc.lft.to/lastmile_qr_scan"}, "is_reserved": 0}, {"lon": -77.03881733333333, "bike_id": "b0092e86b0ead91f4c0e25b42567c901", "lat": 38.92512983333334, "fusion_lon": 0.0, "fusion_lat": 0.0, "type": "electric_scooter", "name": "b0092e86b0ead91f4c0e25b42567c901", "is_disabled": 0, "rental_uris": {"ios": "https://dc.lft.to/lastmile_qr_scan", "android": "https://dc.lft.to/lastmile_qr_scan"}, "is_reserved": 0}, {"lon": -77.02495633333334, "bike_id": "745386c9f9a481281b26b82f57fa246d", "lat": 38.907242, "fusion_lon": 0.0, "fusion_lat": 0.0, "type": "electric_scooter", "name": "745386c9f9a481281b26b82f57fa246d", "is_disabled": 0, "rental_uris": {"ios": "https://dc.lft.to/lastmile_qr_scan", "android": "https://dc.lft.to/lastmile_qr_scan"}, "is_reserved": 0}, {"lon": -77.0415025, "bike_id": "a2bfa2cb0323398df7ed036788cbeabb", "lat": 38.906344, "fusion_lon": 0.0, "fusion_lat": 0.0, "type": "electric_scooter", "name": "a2bfa2cb0323398df7ed036788cbeabb", "is_disabled": 0, "rental_uris": {"ios": "https://dc.lft.to/lastmile_qr_scan", "android": "https://dc.lft.to/lastmile_qr_scan"}, "is_reserved": 0}, {"lon": -77.01820533333333, "bike_id": "2551234a242789c4f86aceef57c64cbe", "lat": 38.92367933333333, "fusion_lon": 0.0, "fusion_lat": 0.0, "type": "electric_scooter", "name": "2551234a242789c4f86aceef57c64cbe", "is_disabled": 0, "rental_uris": {"ios": "https://dc.lft.to/lastmile_qr_scan", "android": "https://dc.lft.to/lastmile_qr_scan"}, "is_reserved": 0}, {"lon": -77.03042433333333, "bike_id": "67bc4558c70e209d4651a9e24663d5fe", "lat": 38.878397166666666, "fusion_lon": 0.0, "fusion_lat": 0.0, "type": "electric_scooter", "name": "67bc4558c70e209d4651a9e24663d5fe", "is_disabled": 0, "rental_uris": {"ios": "https://dc.lft.to/lastmile_qr_scan", "android": "https://dc.lft.to/lastmile_qr_scan"}, "is_reserved": 0}, {"lon": -77.02954933333334, "bike_id": "843d96de34870b420983c50663c97a8a", "lat": 38.90479533333333, "fusion_lon": 0.0, "fusion_lat": 0.0, "type": "electric_scooter", "name": "843d96de34870b420983c50663c97a8a", "is_disabled": 0, "rental_uris": {"ios": "https://dc.lft.to/lastmile_qr_scan", "android": "https://dc.lft.to/lastmile_qr_scan"}, "is_reserved": 0}, {"lon": -77.0295595, "bike_id": "d6434e78e534c7bb1514c779ec074576", "lat": 38.904775666666666, "fusion_lon": 0.0, "fusion_lat": 0.0, "type": "electric_scooter", "name": "d6434e78e534c7bb1514c779ec074576", "is_disabled": 0, "rental_uris": {"ios": "https://dc.lft.to/lastmile_qr_scan", "android": "https://dc.lft.to/lastmile_qr_scan"}, "is_reserved": 0}, {"lon": -77.05109533333334, "bike_id": "7d749713dacbc5b03974795a684c3347", "lat": 38.922972, "fusion_lon": 0.0, "fusion_lat": 0.0, "type": "electric_scooter", "name": "7d749713dacbc5b03974795a684c3347", "is_disabled": 0, "rental_uris": {"ios": "https://dc.lft.to/lastmile_qr_scan", "android": "https://dc.lft.to/lastmile_qr_scan"}, "is_reserved": 0}, {"lon": -77.01042916666667, "bike_id": "eb4e1a96e8cf3786d48b17990bb631ee", "lat": 38.8666555, "fusion_lon": 0.0, "fusion_lat": 0.0, "type": "electric_scooter", "name": "eb4e1a96e8cf3786d48b17990bb631ee", "is_disabled": 0, "rental_uris": {"ios": "https://dc.lft.to/lastmile_qr_scan", "android": "https://dc.lft.to/lastmile_qr_scan"}, "is_reserved": 0}, {"lon": -77.01312433333334, "bike_id": "92f56470dd56ad3e2264804a41f5ead9", "lat": 38.9073555, "fusion_lon": 0.0, "fusion_lat": 0.0, "type": "electric_scooter", "name": "92f56470dd56ad3e2264804a41f5ead9", "is_disabled": 0, "rental_uris": {"ios": "https://dc.lft.to/lastmile_qr_scan", "android": "https://dc.lft.to/lastmile_qr_scan"}, "is_reserved": 0}, {"lon": -77.02582533333333, "bike_id": "91fdaffefdcdca054460cc76b9828d07", "lat": 38.91402566666667, "fusion_lon": 0.0, "fusion_lat": 0.0, "type": "electric_scooter", "name": "91fdaffefdcdca054460cc76b9828d07", "is_disabled": 0, "rental_uris": {"ios": "https://dc.lft.to/lastmile_qr_scan", "android": "https://dc.lft.to/lastmile_qr_scan"}, "is_reserved": 0}, {"lon": -77.00304333333334, "bike_id": "6df3351ca701b87e2fc082f2f5fac377", "lat": 38.89494333333333, "fusion_lon": 0.0, "fusion_lat": 0.0, "type": "electric_scooter", "name": "6df3351ca701b87e2fc082f2f5fac377", "is_disabled": 0, "rental_uris": {"ios": "https://dc.lft.to/lastmile_qr_scan", "android": "https://dc.lft.to/lastmile_qr_scan"}, "is_reserved": 0}, {"lon": -77.0316865, "bike_id": "d52e5d41e90a1b27487d2e2f78728edb", "lat": 38.921028, "fusion_lon": 0.0, "fusion_lat": 0.0, "type": "electric_bike", "name": "d52e5d41e90a1b27487d2e2f78728edb", "is_disabled": 0, "rental_uris": {"ios": "https://dc.lft.to/lastmile_qr_scan", "android": "https://dc.lft.to/lastmile_qr_scan"}, "is_reserved": 0}, {"lon": -77.02416533333333, "bike_id": "876c01a2136f1f11e8f34babcd0a6d68", "lat": 38.905615, "fusion_lon": 0.0, "fusion_lat": 0.0, "type": "electric_scooter", "name": "876c01a2136f1f11e8f34babcd0a6d68", "is_disabled": 0, "rental_uris": {"ios": "https://dc.lft.to/lastmile_qr_scan", "android": "https://dc.lft.to/lastmile_qr_scan"}, "is_reserved": 0}, {"lon": -77.01878766666667, "bike_id": "3d5b6cffcbda7a0a7f3e67c9fafd76bf", "lat": 38.914127666666666, "fusion_lon": 0.0, "fusion_lat": 0.0, "type": "electric_scooter", "name": "3d5b6cffcbda7a0a7f3e67c9fafd76bf", "is_disabled": 0, "rental_uris": {"ios": "https://dc.lft.to/lastmile_qr_scan", "android": "https://dc.lft.to/lastmile_qr_scan"}, "is_reserved": 0}, {"lon": -77.032871, "bike_id": "a5638e4e7d5589a7f1f7e87e7a38d210", "lat": 38.93438733333333, "fusion_lon": 0.0, "fusion_lat": 0.0, "type": "electric_scooter", "name": "a5638e4e7d5589a7f1f7e87e7a38d210", "is_disabled": 0, "rental_uris": {"ios": "https://dc.lft.to/lastmile_qr_scan", "android": "https://dc.lft.to/lastmile_qr_scan"}, "is_reserved": 0}, {"lon": -77.03171966666666, "bike_id": "2f83efff2d9fab58158216b8b0a815c2", "lat": 38.9360595, "fusion_lon": 0.0, "fusion_lat": 0.0, "type": "electric_scooter", "name": "2f83efff2d9fab58158216b8b0a815c2", "is_disabled": 0, "rental_uris": {"ios": "https://dc.lft.to/lastmile_qr_scan", "android": "https://dc.lft.to/lastmile_qr_scan"}, "is_reserved": 0}, {"lon": -76.97749566666667, "bike_id": "f61d98a61ea36378a05bafa6eacf3715", "lat": 38.864836, "fusion_lon": 0.0, "fusion_lat": 0.0, "type": "electric_bike", "name": "f61d98a61ea36378a05bafa6eacf3715", "is_disabled": 0, "rental_uris": {"ios": "https://dc.lft.to/lastmile_qr_scan", "android": "https://dc.lft.to/lastmile_qr_scan"}, "is_reserved": 0}, {"lon": -77.18563183333333, "bike_id": "da7d6e4291e10c589aecd66b5ed40a22", "lat": 39.099772333333334, "fusion_lon": 0.0, "fusion_lat": 0.0, "type": "electric_bike", "name": "da7d6e4291e10c589aecd66b5ed40a22", "is_disabled": 0, "rental_uris": {"ios": "https://dc.lft.to/lastmile_qr_scan", "android": "https://dc.lft.to/lastmile_qr_scan"}, "is_reserved": 0}, {"lon": -76.99598583333334, "bike_id": "c1377112011e0fc0040bcf597fcee976", "lat": 38.950651666666666, "fusion_lon": 0.0, "fusion_lat": 0.0, "type": "electric_bike", "name": "c1377112011e0fc0040bcf597fcee976", "is_disabled": 0, "rental_uris": {"ios": "https://dc.lft.to/lastmile_qr_scan", "android": "https://dc.lft.to/lastmile_qr_scan"}, "is_reserved": 0}, {"lon": -77.03709133333334, "bike_id": "445af007cf1d89f3a9d9f0192ec3d4f2", "lat": 38.92629566666667, "fusion_lon": 0.0, "fusion_lat": 0.0, "type": "electric_scooter", "name": "445af007cf1d89f3a9d9f0192ec3d4f2", "is_disabled": 0, "rental_uris": {"ios": "https://dc.lft.to/lastmile_qr_scan", "android": "https://dc.lft.to/lastmile_qr_scan"}, "is_reserved": 0}, {"lon": -77.00463616666667, "bike_id": "f5392041bd8afdaf36fb7cdbf0eb8009", "lat": 38.87777766666667, "fusion_lon": 0.0, "fusion_lat": 0.0, "type": "electric_scooter", "name": "f5392041bd8afdaf36fb7cdbf0eb8009", "is_disabled": 0, "rental_uris": {"ios": "https://dc.lft.to/lastmile_qr_scan", "android": "https://dc.lft.to/lastmile_qr_scan"}, "is_reserved": 0}, {"lon": -77.07599, "bike_id": "13ee297dcba945b27df80c0fc29d5f90", "lat": 38.9121765, "fusion_lon": 0.0, "fusion_lat": 0.0, "type": "electric_scooter", "name": "13ee297dcba945b27df80c0fc29d5f90", "is_disabled": 0, "rental_uris": {"ios": "https://dc.lft.to/lastmile_qr_scan", "android": "https://dc.lft.to/lastmile_qr_scan"}, "is_reserved": 0}, {"lon": -76.99948366666666, "bike_id": "49ad0b1e3b63c8e4e849c608e77db561", "lat": 38.907568166666664, "fusion_lon": 0.0, "fusion_lat": 0.0, "type": "electric_scooter", "name": "49ad0b1e3b63c8e4e849c608e77db561", "is_disabled": 0, "rental_uris": {"ios": "https://dc.lft.to/lastmile_qr_scan", "android": "https://dc.lft.to/lastmile_qr_scan"}, "is_reserved": 0}, {"lon": -77.02201933333333, "bike_id": "c2e21c9c5600b8942749cd95733726f3", "lat": 38.89506433333333, "fusion_lon": 0.0, "fusion_lat": 0.0, "type": "electric_scooter", "name": "c2e21c9c5600b8942749cd95733726f3", "is_disabled": 0, "rental_uris": {"ios": "https://dc.lft.to/lastmile_qr_scan", "android": "https://dc.lft.to/lastmile_qr_scan"}, "is_reserved": 0}, {"lon": -76.8839895, "bike_id": "e15b4e4c9cf8262c6b287bbd5e1f1220", "lat": 38.931672166666665, "fusion_lon": 0.0, "fusion_lat": 0.0, "type": "electric_bike", "name": "e15b4e4c9cf8262c6b287bbd5e1f1220", "is_disabled": 0, "rental_uris": {"ios": "https://dc.lft.to/lastmile_qr_scan", "android": "https://dc.lft.to/lastmile_qr_scan"}, "is_reserved": 0}, {"lon": -77.01810816666666, "bike_id": "f9424b9096c6c3de425a087b4f332462", "lat": 38.9648225, "fusion_lon": 0.0, "fusion_lat": 0.0, "type": "electric_scooter", "name": "f9424b9096c6c3de425a087b4f332462", "is_disabled": 0, "rental_uris": {"ios": "https://dc.lft.to/lastmile_qr_scan", "android": "https://dc.lft.to/lastmile_qr_scan"}, "is_reserved": 0}, {"lon": -77.03883883333333, "bike_id": "4dac891cd71c6a272954f65d9e419c96", "lat": 38.94868183333333, "fusion_lon": 0.0, "fusion_lat": 0.0, "type": "electric_scooter", "name": "4dac891cd71c6a272954f65d9e419c96", "is_disabled": 0, "rental_uris": {"ios": "https://dc.lft.to/lastmile_qr_scan", "android": "https://dc.lft.to/lastmile_qr_scan"}, "is_reserved": 0}, {"lon": -77.057407, "bike_id": "0ef3908458dea8240fa8a47e611b313f", "lat": 38.93392333333333, "fusion_lon": 0.0, "fusion_lat": 0.0, "type": "electric_scooter", "name": "0ef3908458dea8240fa8a47e611b313f", "is_disabled": 0, "rental_uris": {"ios": "https://dc.lft.to/lastmile_qr_scan", "android": "https://dc.lft.to/lastmile_qr_scan"}, "is_reserved": 0}, {"lon": -77.0559075, "bike_id": "701993ded90d8b805aacce03f2ffd99a", "lat": 38.931453833333336, "fusion_lon": 0.0, "fusion_lat": 0.0, "type": "electric_scooter", "name": "701993ded90d8b805aacce03f2ffd99a", "is_disabled": 0, "rental_uris": {"ios": "https://dc.lft.to/lastmile_qr_scan", "android": "https://dc.lft.to/lastmile_qr_scan"}, "is_reserved": 0}, {"lon": -77.02751783333333, "bike_id": "7f7de8a137eb00cb46c929e8b33da24a", "lat": 38.96567066666667, "fusion_lon": 0.0, "fusion_lat": 0.0, "type": "electric_bike", "name": "7f7de8a137eb00cb46c929e8b33da24a", "is_disabled": 0, "rental_uris": {"ios": "https://dc.lft.to/lastmile_qr_scan", "android": "https://dc.lft.to/lastmile_qr_scan"}, "is_reserved": 0}, {"lon": -76.98823533333334, "bike_id": "f0e093a93c05e536f476608074d5bcf7", "lat": 38.890775, "fusion_lon": 0.0, "fusion_lat": 0.0, "type": "electric_scooter", "name": "f0e093a93c05e536f476608074d5bcf7", "is_disabled": 0, "rental_uris": {"ios": "https://dc.lft.to/lastmile_qr_scan", "android": "https://dc.lft.to/lastmile_qr_scan"}, "is_reserved": 0}, {"lon": -76.961368, "bike_id": "d8f7ea34acf6cd15df9e68c515382eaa", "lat": 38.94209816666667, "fusion_lon": 0.0, "fusion_lat": 0.0, "type": "electric_bike", "name": "d8f7ea34acf6cd15df9e68c515382eaa", "is_disabled": 0, "rental_uris": {"ios": "https://dc.lft.to/lastmile_qr_scan", "android": "https://dc.lft.to/lastmile_qr_scan"}, "is_reserved": 0}, {"lon": -77.046514, "bike_id": "001e7724657be05742985b24262e0369", "lat": 39.05504216666667, "fusion_lon": 0.0, "fusion_lat": 0.0, "type": "electric_bike", "name": "001e7724657be05742985b24262e0369", "is_disabled": 0, "rental_uris": {"ios": "https://dc.lft.to/lastmile_qr_scan", "android": "https://dc.lft.to/lastmile_qr_scan"}, "is_reserved": 0}, {"lon": -77.033948, "bike_id": "d37e0f742d1278dd40c9c3620f11de26", "lat": 38.90961433333333, "fusion_lon": 0.0, "fusion_lat": 0.0, "type": "electric_scooter", "name": "d37e0f742d1278dd40c9c3620f11de26", "is_disabled": 0, "rental_uris": {"ios": "https://dc.lft.to/lastmile_qr_scan", "android": "https://dc.lft.to/lastmile_qr_scan"}, "is_reserved": 0}, {"lon": -77.03976466666667, "bike_id": "6585b7e24e63a6135b6d86f186f93f32", "lat": 38.903755833333335, "fusion_lon": 0.0, "fusion_lat": 0.0, "type": "electric_scooter", "name": "6585b7e24e63a6135b6d86f186f93f32", "is_disabled": 0, "rental_uris": {"ios": "https://dc.lft.to/lastmile_qr_scan", "android": "https://dc.lft.to/lastmile_qr_scan"}, "is_reserved": 0}, {"lon": -77.00478866666667, "bike_id": "9c1fdac7373af5b5877278f369d8582d", "lat": 38.89585133333333, "fusion_lon": 0.0, "fusion_lat": 0.0, "type": "electric_scooter", "name": "9c1fdac7373af5b5877278f369d8582d", "is_disabled": 0, "rental_uris": {"ios": "https://dc.lft.to/lastmile_qr_scan", "android": "https://dc.lft.to/lastmile_qr_scan"}, "is_reserved": 0}, {"lon": -77.01772716666666, "bike_id": "b0a5a7c0b3c6924be46e024fbd36fef4", "lat": 38.90123466666667, "fusion_lon": 0.0, "fusion_lat": 0.0, "type": "electric_scooter", "name": "b0a5a7c0b3c6924be46e024fbd36fef4", "is_disabled": 0, "rental_uris": {"ios": "https://dc.lft.to/lastmile_qr_scan", "android": "https://dc.lft.to/lastmile_qr_scan"}, "is_reserved": 0}, {"lon": -77.12743233333333, "bike_id": "6fa63317f0a4afbfda29436748aec267", "lat": 38.895553166666666, "fusion_lon": 0.0, "fusion_lat": 0.0, "type": "electric_bike", "name": "6fa63317f0a4afbfda29436748aec267", "is_disabled": 0, "rental_uris": {"ios": "https://dc.lft.to/lastmile_qr_scan", "android": "https://dc.lft.to/lastmile_qr_scan"}, "is_reserved": 0}, {"lon": -76.95661716666666, "bike_id": "11a6c7f97d3c3905a13154de2ee06b69", "lat": 38.896266, "fusion_lon": 0.0, "fusion_lat": 0.0, "type": "electric_scooter", "name": "11a6c7f97d3c3905a13154de2ee06b69", "is_disabled": 0, "rental_uris": {"ios": "https://dc.lft.to/lastmile_qr_scan", "android": "https://dc.lft.to/lastmile_qr_scan"}, "is_reserved": 0}, {"lon": -77.0239255, "bike_id": "e09c00768c12fde02369aa17b2e98916", "lat": 38.9348025, "fusion_lon": 0.0, "fusion_lat": 0.0, "type": "electric_scooter", "name": "e09c00768c12fde02369aa17b2e98916", "is_disabled": 0, "rental_uris": {"ios": "https://dc.lft.to/lastmile_qr_scan", "android": "https://dc.lft.to/lastmile_qr_scan"}, "is_reserved": 0}, {"lon": -77.02167733333333, "bike_id": "d079ba03197a93be1b3877034fcf6418", "lat": 38.887454, "fusion_lon": 0.0, "fusion_lat": 0.0, "type": "electric_scooter", "name": "d079ba03197a93be1b3877034fcf6418", "is_disabled": 0, "rental_uris": {"ios": "https://dc.lft.to/lastmile_qr_scan", "android": "https://dc.lft.to/lastmile_qr_scan"}, "is_reserved": 0}, {"lon": -77.02972116666666, "bike_id": "61db63b919be44f0e0eda7873bfd6462", "lat": 38.91681666666667, "fusion_lon": 0.0, "fusion_lat": 0.0, "type": "electric_scooter", "name": "61db63b919be44f0e0eda7873bfd6462", "is_disabled": 0, "rental_uris": {"ios": "https://dc.lft.to/lastmile_qr_scan", "android": "https://dc.lft.to/lastmile_qr_scan"}, "is_reserved": 0}, {"lon": -77.03183183333333, "bike_id": "55a0bcf65dd0c5414937c3d7fab78deb", "lat": 38.895718, "fusion_lon": 0.0, "fusion_lat": 0.0, "type": "electric_scooter", "name": "55a0bcf65dd0c5414937c3d7fab78deb", "is_disabled": 0, "rental_uris": {"ios": "https://dc.lft.to/lastmile_qr_scan", "android": "https://dc.lft.to/lastmile_qr_scan"}, "is_reserved": 0}, {"lon": -76.98879316666667, "bike_id": "3ac52a35342e589d6c5e6b66ba5cf1b7", "lat": 38.866626, "fusion_lon": 0.0, "fusion_lat": 0.0, "type": "electric_scooter", "name": "3ac52a35342e589d6c5e6b66ba5cf1b7", "is_disabled": 0, "rental_uris": {"ios": "https://dc.lft.to/lastmile_qr_scan", "android": "https://dc.lft.to/lastmile_qr_scan"}, "is_reserved": 0}, {"lon": -77.02302, "bike_id": "bdf929d81c72d3d11f9d150a03b3504f", "lat": 38.940913333333334, "fusion_lon": 0.0, "fusion_lat": 0.0, "type": "electric_scooter", "name": "bdf929d81c72d3d11f9d150a03b3504f", "is_disabled": 0, "rental_uris": {"ios": "https://dc.lft.to/lastmile_qr_scan", "android": "https://dc.lft.to/lastmile_qr_scan"}, "is_reserved": 0}, {"lon": -77.03987883333333, "bike_id": "e02997defc6625f93192c7db7c5d15d3", "lat": 38.92445033333333, "fusion_lon": 0.0, "fusion_lat": 0.0, "type": "electric_scooter", "name": "e02997defc6625f93192c7db7c5d15d3", "is_disabled": 0, "rental_uris": {"ios": "https://dc.lft.to/lastmile_qr_scan", "android": "https://dc.lft.to/lastmile_qr_scan"}, "is_reserved": 0}, {"lon": -77.02402816666667, "bike_id": "ef09b5465401ce3c27a0459713a3b767", "lat": 38.91992166666667, "fusion_lon": 0.0, "fusion_lat": 0.0, "type": "electric_scooter", "name": "ef09b5465401ce3c27a0459713a3b767", "is_disabled": 0, "rental_uris": {"ios": "https://dc.lft.to/lastmile_qr_scan", "android": "https://dc.lft.to/lastmile_qr_scan"}, "is_reserved": 0}, {"lon": -77.00741533333333, "bike_id": "08b27e230a6c416826188f94142d7bee", "lat": 38.898412, "fusion_lon": 0.0, "fusion_lat": 0.0, "type": "electric_bike", "name": "08b27e230a6c416826188f94142d7bee", "is_disabled": 0, "rental_uris": {"ios": "https://dc.lft.to/lastmile_qr_scan", "android": "https://dc.lft.to/lastmile_qr_scan"}, "is_reserved": 0}, {"lon": -77.0260285, "bike_id": "d9f2d6aa3c2499fea5a0705358870c8b", "lat": 38.92654733333333, "fusion_lon": 0.0, "fusion_lat": 0.0, "type": "electric_scooter", "name": "d9f2d6aa3c2499fea5a0705358870c8b", "is_disabled": 0, "rental_uris": {"ios": "https://dc.lft.to/lastmile_qr_scan", "android": "https://dc.lft.to/lastmile_qr_scan"}, "is_reserved": 0}, {"lon": -77.02157966666667, "bike_id": "abf4bb8cbc71c14882ee56efc23c6074", "lat": 38.892162166666665, "fusion_lon": 0.0, "fusion_lat": 0.0, "type": "electric_scooter", "name": "abf4bb8cbc71c14882ee56efc23c6074", "is_disabled": 0, "rental_uris": {"ios": "https://dc.lft.to/lastmile_qr_scan", "android": "https://dc.lft.to/lastmile_qr_scan"}, "is_reserved": 0}, {"lon": -77.04669533333333, "bike_id": "3e20d0332b36807a190cc08cf3b6598e", "lat": 38.903217166666664, "fusion_lon": 0.0, "fusion_lat": 0.0, "type": "electric_scooter", "name": "3e20d0332b36807a190cc08cf3b6598e", "is_disabled": 0, "rental_uris": {"ios": "https://dc.lft.to/lastmile_qr_scan", "android": "https://dc.lft.to/lastmile_qr_scan"}, "is_reserved": 0}, {"lon": -77.04927333333333, "bike_id": "16ac8f20217a9bc0a4cd13cf0e1f542e", "lat": 39.029323833333336, "fusion_lon": 0.0, "fusion_lat": 0.0, "type": "electric_bike", "name": "16ac8f20217a9bc0a4cd13cf0e1f542e", "is_disabled": 0, "rental_uris": {"ios": "https://dc.lft.to/lastmile_qr_scan", "android": "https://dc.lft.to/lastmile_qr_scan"}, "is_reserved": 0}, {"lon": -77.02428166666667, "bike_id": "1b3ceadbac6050b6edc1df71d4280536", "lat": 38.91400216666667, "fusion_lon": 0.0, "fusion_lat": 0.0, "type": "electric_scooter", "name": "1b3ceadbac6050b6edc1df71d4280536", "is_disabled": 0, "rental_uris": {"ios": "https://dc.lft.to/lastmile_qr_scan", "android": "https://dc.lft.to/lastmile_qr_scan"}, "is_reserved": 0}, {"lon": -77.00293583333334, "bike_id": "23e552ff82751e76e8a244592080ff3a", "lat": 38.906025166666666, "fusion_lon": 0.0, "fusion_lat": 0.0, "type": "electric_scooter", "name": "23e552ff82751e76e8a244592080ff3a", "is_disabled": 0, "rental_uris": {"ios": "https://dc.lft.to/lastmile_qr_scan", "android": "https://dc.lft.to/lastmile_qr_scan"}, "is_reserved": 0}, {"lon": -77.04814933333333, "bike_id": "f895f5efdbdcd99bdb075cb9993be8e9", "lat": 38.913295166666664, "fusion_lon": 0.0, "fusion_lat": 0.0, "type": "electric_scooter", "name": "f895f5efdbdcd99bdb075cb9993be8e9", "is_disabled": 0, "rental_uris": {"ios": "https://dc.lft.to/lastmile_qr_scan", "android": "https://dc.lft.to/lastmile_qr_scan"}, "is_reserved": 0}, {"lon": -76.985072, "bike_id": "12ac9c631c1db5275b277a66448496dd", "lat": 38.90346983333333, "fusion_lon": 0.0, "fusion_lat": 0.0, "type": "electric_scooter", "name": "12ac9c631c1db5275b277a66448496dd", "is_disabled": 0, "rental_uris": {"ios": "https://dc.lft.to/lastmile_qr_scan", "android": "https://dc.lft.to/lastmile_qr_scan"}, "is_reserved": 0}, {"lon": -77.02462366666667, "bike_id": "3d2d8aa9e4799bd1eb1f8c027d4e4946", "lat": 38.937011, "fusion_lon": 0.0, "fusion_lat": 0.0, "type": "electric_scooter", "name": "3d2d8aa9e4799bd1eb1f8c027d4e4946", "is_disabled": 0, "rental_uris": {"ios": "https://dc.lft.to/lastmile_qr_scan", "android": "https://dc.lft.to/lastmile_qr_scan"}, "is_reserved": 0}, {"lon": -77.03881133333333, "bike_id": "2366281552a7250c15f7b069ca792b5a", "lat": 38.90708466666667, "fusion_lon": 0.0, "fusion_lat": 0.0, "type": "electric_scooter", "name": "2366281552a7250c15f7b069ca792b5a", "is_disabled": 0, "rental_uris": {"ios": "https://dc.lft.to/lastmile_qr_scan", "android": "https://dc.lft.to/lastmile_qr_scan"}, "is_reserved": 0}, {"lon": -77.02483866666667, "bike_id": "07df6c641309db3fee447761948a1ab0", "lat": 38.880167666666665, "fusion_lon": 0.0, "fusion_lat": 0.0, "type": "electric_scooter", "name": "07df6c641309db3fee447761948a1ab0", "is_disabled": 0, "rental_uris": {"ios": "https://dc.lft.to/lastmile_qr_scan", "android": "https://dc.lft.to/lastmile_qr_scan"}, "is_reserved": 0}, {"lon": -77.02317983333333, "bike_id": "f61f036add5f8ffce0cb386cf0fe031c", "lat": 38.95518766666667, "fusion_lon": 0.0, "fusion_lat": 0.0, "type": "electric_scooter", "name": "f61f036add5f8ffce0cb386cf0fe031c", "is_disabled": 0, "rental_uris": {"ios": "https://dc.lft.to/lastmile_qr_scan", "android": "https://dc.lft.to/lastmile_qr_scan"}, "is_reserved": 0}, {"lon": -77.0403985, "bike_id": "353f18a567e3176053d85f938a8404d0", "lat": 38.912653666666664, "fusion_lon": 0.0, "fusion_lat": 0.0, "type": "electric_scooter", "name": "353f18a567e3176053d85f938a8404d0", "is_disabled": 0, "rental_uris": {"ios": "https://dc.lft.to/lastmile_qr_scan", "android": "https://dc.lft.to/lastmile_qr_scan"}, "is_reserved": 0}, {"lon": -77.03461483333334, "bike_id": "9db7e3cfb5b14109194b9f3ca69ecab4", "lat": 38.91663483333333, "fusion_lon": 0.0, "fusion_lat": 0.0, "type": "electric_scooter", "name": "9db7e3cfb5b14109194b9f3ca69ecab4", "is_disabled": 0, "rental_uris": {"ios": "https://dc.lft.to/lastmile_qr_scan", "android": "https://dc.lft.to/lastmile_qr_scan"}, "is_reserved": 0}, {"lon": -77.04323683333334, "bike_id": "c8ccb6b66dc7fa52a3208e4bc73a332d", "lat": 38.91877183333333, "fusion_lon": 0.0, "fusion_lat": 0.0, "type": "electric_scooter", "name": "c8ccb6b66dc7fa52a3208e4bc73a332d", "is_disabled": 0, "rental_uris": {"ios": "https://dc.lft.to/lastmile_qr_scan", "android": "https://dc.lft.to/lastmile_qr_scan"}, "is_reserved": 0}, {"lon": -77.0238305, "bike_id": "335d8779274b45732333dc26dc4ba071", "lat": 38.90636, "fusion_lon": 0.0, "fusion_lat": 0.0, "type": "electric_scooter", "name": "335d8779274b45732333dc26dc4ba071", "is_disabled": 0, "rental_uris": {"ios": "https://dc.lft.to/lastmile_qr_scan", "android": "https://dc.lft.to/lastmile_qr_scan"}, "is_reserved": 0}, {"lon": -76.9458895, "bike_id": "dccea62ede48d7688e76ca19c05b5a3b", "lat": 38.93740483333333, "fusion_lon": 0.0, "fusion_lat": 0.0, "type": "electric_bike", "name": "dccea62ede48d7688e76ca19c05b5a3b", "is_disabled": 0, "rental_uris": {"ios": "https://dc.lft.to/lastmile_qr_scan", "android": "https://dc.lft.to/lastmile_qr_scan"}, "is_reserved": 0}, {"lon": -77.020841, "bike_id": "3a78c5e566a97068923841116154be12", "lat": 38.88184283333333, "fusion_lon": 0.0, "fusion_lat": 0.0, "type": "electric_scooter", "name": "3a78c5e566a97068923841116154be12", "is_disabled": 0, "rental_uris": {"ios": "https://dc.lft.to/lastmile_qr_scan", "android": "https://dc.lft.to/lastmile_qr_scan"}, "is_reserved": 0}, {"lon": -77.002186, "bike_id": "bd4220ce320c6daf30a898e273a83b1a", "lat": 38.90035483333333, "fusion_lon": 0.0, "fusion_lat": 0.0, "type": "electric_scooter", "name": "bd4220ce320c6daf30a898e273a83b1a", "is_disabled": 0, "rental_uris": {"ios": "https://dc.lft.to/lastmile_qr_scan", "android": "https://dc.lft.to/lastmile_qr_scan"}, "is_reserved": 0}, {"lon": -77.03647183333334, "bike_id": "c75857bcf3879a77cc26d08f02ac2a95", "lat": 38.923303833333335, "fusion_lon": 0.0, "fusion_lat": 0.0, "type": "electric_scooter", "name": "c75857bcf3879a77cc26d08f02ac2a95", "is_disabled": 0, "rental_uris": {"ios": "https://dc.lft.to/lastmile_qr_scan", "android": "https://dc.lft.to/lastmile_qr_scan"}, "is_reserved": 0}, {"lon": -77.04372033333334, "bike_id": "431316a36f22f36666760fdd2d1c6008", "lat": 38.8984785, "fusion_lon": 0.0, "fusion_lat": 0.0, "type": "electric_scooter", "name": "431316a36f22f36666760fdd2d1c6008", "is_disabled": 0, "rental_uris": {"ios": "https://dc.lft.to/lastmile_qr_scan", "android": "https://dc.lft.to/lastmile_qr_scan"}, "is_reserved": 0}, {"lon": -76.94125583333333, "bike_id": "f7eafee6aedf719aa87abb8030e6f498", "lat": 38.88609616666667, "fusion_lon": 0.0, "fusion_lat": 0.0, "type": "electric_scooter", "name": "f7eafee6aedf719aa87abb8030e6f498", "is_disabled": 0, "rental_uris": {"ios": "https://dc.lft.to/lastmile_qr_scan", "android": "https://dc.lft.to/lastmile_qr_scan"}, "is_reserved": 0}, {"lon": -77.0521235, "bike_id": "eeb56ea07cb0dca722b7dcb1fb5419fe", "lat": 38.9155945, "fusion_lon": 0.0, "fusion_lat": 0.0, "type": "electric_scooter", "name": "eeb56ea07cb0dca722b7dcb1fb5419fe", "is_disabled": 0, "rental_uris": {"ios": "https://dc.lft.to/lastmile_qr_scan", "android": "https://dc.lft.to/lastmile_qr_scan"}, "is_reserved": 0}, {"lon": -77.02361816666667, "bike_id": "e50f73bb10929cce2433b8528d0fffcb", "lat": 38.89216416666667, "fusion_lon": 0.0, "fusion_lat": 0.0, "type": "electric_scooter", "name": "e50f73bb10929cce2433b8528d0fffcb", "is_disabled": 0, "rental_uris": {"ios": "https://dc.lft.to/lastmile_qr_scan", "android": "https://dc.lft.to/lastmile_qr_scan"}, "is_reserved": 0}, {"lon": -77.050113, "bike_id": "e6a1f24bc4284c19b09d40a0ecdcac79", "lat": 38.89814633333334, "fusion_lon": 0.0, "fusion_lat": 0.0, "type": "electric_scooter", "name": "e6a1f24bc4284c19b09d40a0ecdcac79", "is_disabled": 0, "rental_uris": {"ios": "https://dc.lft.to/lastmile_qr_scan", "android": "https://dc.lft.to/lastmile_qr_scan"}, "is_reserved": 0}, {"lon": -77.0407555, "bike_id": "aeaa43208d5759cb0b3ce7d9045e4f3a", "lat": 38.91401616666667, "fusion_lon": 0.0, "fusion_lat": 0.0, "type": "electric_scooter", "name": "aeaa43208d5759cb0b3ce7d9045e4f3a", "is_disabled": 0, "rental_uris": {"ios": "https://dc.lft.to/lastmile_qr_scan", "android": "https://dc.lft.to/lastmile_qr_scan"}, "is_reserved": 0}, {"lon": -77.0345415, "bike_id": "25d075c6e3348535de93fd32fb67d438", "lat": 38.90644416666667, "fusion_lon": 0.0, "fusion_lat": 0.0, "type": "electric_scooter", "name": "25d075c6e3348535de93fd32fb67d438", "is_disabled": 0, "rental_uris": {"ios": "https://dc.lft.to/lastmile_qr_scan", "android": "https://dc.lft.to/lastmile_qr_scan"}, "is_reserved": 0}, {"lon": -76.984943, "bike_id": "18d25e0755fe59445bb6cc4895d8b629", "lat": 38.878331, "fusion_lon": 0.0, "fusion_lat": 0.0, "type": "electric_scooter", "name": "18d25e0755fe59445bb6cc4895d8b629", "is_disabled": 0, "rental_uris": {"ios": "https://dc.lft.to/lastmile_qr_scan", "android": "https://dc.lft.to/lastmile_qr_scan"}, "is_reserved": 0}, {"lon": -77.004285, "bike_id": "6fd9775b1ae232a61f0f6d21a2519a75", "lat": 38.9132845, "fusion_lon": 0.0, "fusion_lat": 0.0, "type": "electric_scooter", "name": "6fd9775b1ae232a61f0f6d21a2519a75", "is_disabled": 0, "rental_uris": {"ios": "https://dc.lft.to/lastmile_qr_scan", "android": "https://dc.lft.to/lastmile_qr_scan"}, "is_reserved": 0}, {"lon": -77.03960833333333, "bike_id": "1372abf9ab68bafaad8f270504964185", "lat": 38.924639166666665, "fusion_lon": 0.0, "fusion_lat": 0.0, "type": "electric_scooter", "name": "1372abf9ab68bafaad8f270504964185", "is_disabled": 0, "rental_uris": {"ios": "https://dc.lft.to/lastmile_qr_scan", "android": "https://dc.lft.to/lastmile_qr_scan"}, "is_reserved": 0}, {"lon": -77.03995616666667, "bike_id": "fbe716f8c76a52d5eb5cee321f995040", "lat": 38.92457383333333, "fusion_lon": 0.0, "fusion_lat": 0.0, "type": "electric_scooter", "name": "fbe716f8c76a52d5eb5cee321f995040", "is_disabled": 0, "rental_uris": {"ios": "https://dc.lft.to/lastmile_qr_scan", "android": "https://dc.lft.to/lastmile_qr_scan"}, "is_reserved": 0}, {"lon": -77.04942516666667, "bike_id": "9739e3375f11b3066cb1fedccd98ad38", "lat": 38.90850283333333, "fusion_lon": 0.0, "fusion_lat": 0.0, "type": "electric_scooter", "name": "9739e3375f11b3066cb1fedccd98ad38", "is_disabled": 0, "rental_uris": {"ios": "https://dc.lft.to/lastmile_qr_scan", "android": "https://dc.lft.to/lastmile_qr_scan"}, "is_reserved": 0}, {"lon": -77.0396725, "bike_id": "03f53ccb6202d076adabe392177f5bb7", "lat": 38.9315255, "fusion_lon": 0.0, "fusion_lat": 0.0, "type": "electric_scooter", "name": "03f53ccb6202d076adabe392177f5bb7", "is_disabled": 0, "rental_uris": {"ios": "https://dc.lft.to/lastmile_qr_scan", "android": "https://dc.lft.to/lastmile_qr_scan"}, "is_reserved": 0}, {"lon": -76.94634416666666, "bike_id": "5ab410daad43adae13156379d85167b5", "lat": 38.8983285, "fusion_lon": 0.0, "fusion_lat": 0.0, "type": "electric_scooter", "name": "5ab410daad43adae13156379d85167b5", "is_disabled": 0, "rental_uris": {"ios": "https://dc.lft.to/lastmile_qr_scan", "android": "https://dc.lft.to/lastmile_qr_scan"}, "is_reserved": 0}, {"lon": -77.03284033333334, "bike_id": "6041ced8c802b5705eee021ac73cd2b1", "lat": 38.93639116666667, "fusion_lon": 0.0, "fusion_lat": 0.0, "type": "electric_scooter", "name": "6041ced8c802b5705eee021ac73cd2b1", "is_disabled": 0, "rental_uris": {"ios": "https://dc.lft.to/lastmile_qr_scan", "android": "https://dc.lft.to/lastmile_qr_scan"}, "is_reserved": 0}, {"lon": -77.0162875, "bike_id": "0937a80cf3bf0feadccc68b970c91656", "lat": 38.906604333333334, "fusion_lon": 0.0, "fusion_lat": 0.0, "type": "electric_scooter", "name": "0937a80cf3bf0feadccc68b970c91656", "is_disabled": 0, "rental_uris": {"ios": "https://dc.lft.to/lastmile_qr_scan", "android": "https://dc.lft.to/lastmile_qr_scan"}, "is_reserved": 0}, {"lon": -77.04042916666667, "bike_id": "a5175c0f108f04c408f542fba8a2ca96", "lat": 38.92314016666667, "fusion_lon": 0.0, "fusion_lat": 0.0, "type": "electric_scooter", "name": "a5175c0f108f04c408f542fba8a2ca96", "is_disabled": 0, "rental_uris": {"ios": "https://dc.lft.to/lastmile_qr_scan", "android": "https://dc.lft.to/lastmile_qr_scan"}, "is_reserved": 0}, {"lon": -77.02247983333334, "bike_id": "1978083d29c6dc5990063d091d50be3b", "lat": 38.922635666666665, "fusion_lon": 0.0, "fusion_lat": 0.0, "type": "electric_scooter", "name": "1978083d29c6dc5990063d091d50be3b", "is_disabled": 0, "rental_uris": {"ios": "https://dc.lft.to/lastmile_qr_scan", "android": "https://dc.lft.to/lastmile_qr_scan"}, "is_reserved": 0}, {"lon": -76.99455916666666, "bike_id": "760f67012c62c4c0ed63fbf8fde52882", "lat": 38.862149333333335, "fusion_lon": 0.0, "fusion_lat": 0.0, "type": "electric_scooter", "name": "760f67012c62c4c0ed63fbf8fde52882", "is_disabled": 0, "rental_uris": {"ios": "https://dc.lft.to/lastmile_qr_scan", "android": "https://dc.lft.to/lastmile_qr_scan"}, "is_reserved": 0}, {"lon": -77.02218183333333, "bike_id": "19f067dd3fd52aa6639b582d5210c7ef", "lat": 38.90537233333333, "fusion_lon": 0.0, "fusion_lat": 0.0, "type": "electric_scooter", "name": "19f067dd3fd52aa6639b582d5210c7ef", "is_disabled": 0, "rental_uris": {"ios": "https://dc.lft.to/lastmile_qr_scan", "android": "https://dc.lft.to/lastmile_qr_scan"}, "is_reserved": 0}, {"lon": -77.02813716666667, "bike_id": "fafb9298508a661fbb550cd8ada272f6", "lat": 38.88178766666667, "fusion_lon": 0.0, "fusion_lat": 0.0, "type": "electric_scooter", "name": "fafb9298508a661fbb550cd8ada272f6", "is_disabled": 0, "rental_uris": {"ios": "https://dc.lft.to/lastmile_qr_scan", "android": "https://dc.lft.to/lastmile_qr_scan"}, "is_reserved": 0}, {"lon": -77.05467083333333, "bike_id": "66add98bec0337da5414b000ad33e1fe", "lat": 38.904316, "fusion_lon": 0.0, "fusion_lat": 0.0, "type": "electric_scooter", "name": "66add98bec0337da5414b000ad33e1fe", "is_disabled": 0, "rental_uris": {"ios": "https://dc.lft.to/lastmile_qr_scan", "android": "https://dc.lft.to/lastmile_qr_scan"}, "is_reserved": 0}, {"lon": -77.027664, "bike_id": "d5e033bb7d186117c6340c56c8bf7389", "lat": 38.954276, "fusion_lon": 0.0, "fusion_lat": 0.0, "type": "electric_scooter", "name": "d5e033bb7d186117c6340c56c8bf7389", "is_disabled": 0, "rental_uris": {"ios": "https://dc.lft.to/lastmile_qr_scan", "android": "https://dc.lft.to/lastmile_qr_scan"}, "is_reserved": 0}, {"lon": -77.01485033333333, "bike_id": "85c8bd34d66ce586f881e54fec3e64c1", "lat": 38.92721216666666, "fusion_lon": 0.0, "fusion_lat": 0.0, "type": "electric_scooter", "name": "85c8bd34d66ce586f881e54fec3e64c1", "is_disabled": 0, "rental_uris": {"ios": "https://dc.lft.to/lastmile_qr_scan", "android": "https://dc.lft.to/lastmile_qr_scan"}, "is_reserved": 0}, {"lon": -77.048654, "bike_id": "1de719838a14d1eae60895adf26d3866", "lat": 38.892167, "fusion_lon": 0.0, "fusion_lat": 0.0, "type": "electric_scooter", "name": "1de719838a14d1eae60895adf26d3866", "is_disabled": 0, "rental_uris": {"ios": "https://dc.lft.to/lastmile_qr_scan", "android": "https://dc.lft.to/lastmile_qr_scan"}, "is_reserved": 0}, {"lon": -77.01645033333334, "bike_id": "9f33fed472d96fbbd5d1bfaab617bb32", "lat": 38.8771225, "fusion_lon": 0.0, "fusion_lat": 0.0, "type": "electric_scooter", "name": "9f33fed472d96fbbd5d1bfaab617bb32", "is_disabled": 0, "rental_uris": {"ios": "https://dc.lft.to/lastmile_qr_scan", "android": "https://dc.lft.to/lastmile_qr_scan"}, "is_reserved": 0}, {"lon": -77.01956733333333, "bike_id": "4742aca4fb2f60a0d064d596386889c2", "lat": 38.90079933333333, "fusion_lon": 0.0, "fusion_lat": 0.0, "type": "electric_scooter", "name": "4742aca4fb2f60a0d064d596386889c2", "is_disabled": 0, "rental_uris": {"ios": "https://dc.lft.to/lastmile_qr_scan", "android": "https://dc.lft.to/lastmile_qr_scan"}, "is_reserved": 0}, {"lon": -77.019983, "bike_id": "ad360b8a5354852341d8e8400eec6387", "lat": 38.9662615, "fusion_lon": 0.0, "fusion_lat": 0.0, "type": "electric_scooter", "name": "ad360b8a5354852341d8e8400eec6387", "is_disabled": 0, "rental_uris": {"ios": "https://dc.lft.to/lastmile_qr_scan", "android": "https://dc.lft.to/lastmile_qr_scan"}, "is_reserved": 0}, {"lon": -77.02715016666667, "bike_id": "e9342f8e68ae432062e3416dbd5c7c30", "lat": 38.910753666666665, "fusion_lon": 0.0, "fusion_lat": 0.0, "type": "electric_scooter", "name": "e9342f8e68ae432062e3416dbd5c7c30", "is_disabled": 0, "rental_uris": {"ios": "https://dc.lft.to/lastmile_qr_scan", "android": "https://dc.lft.to/lastmile_qr_scan"}, "is_reserved": 0}, {"lon": -76.98464983333334, "bike_id": "8d1d7c1b50835251232ec7f8bf4ebb69", "lat": 38.904001666666666, "fusion_lon": 0.0, "fusion_lat": 0.0, "type": "electric_scooter", "name": "8d1d7c1b50835251232ec7f8bf4ebb69", "is_disabled": 0, "rental_uris": {"ios": "https://dc.lft.to/lastmile_qr_scan", "android": "https://dc.lft.to/lastmile_qr_scan"}, "is_reserved": 0}, {"lon": -77.0186235, "bike_id": "b1d912ec639c7a7e6c5de393006ab076", "lat": 38.89863833333333, "fusion_lon": 0.0, "fusion_lat": 0.0, "type": "electric_scooter", "name": "b1d912ec639c7a7e6c5de393006ab076", "is_disabled": 0, "rental_uris": {"ios": "https://dc.lft.to/lastmile_qr_scan", "android": "https://dc.lft.to/lastmile_qr_scan"}, "is_reserved": 0}, {"lon": -77.03625283333334, "bike_id": "be3a37af09764b2b18591beced8412dc", "lat": 38.93676633333333, "fusion_lon": 0.0, "fusion_lat": 0.0, "type": "electric_scooter", "name": "be3a37af09764b2b18591beced8412dc", "is_disabled": 0, "rental_uris": {"ios": "https://dc.lft.to/lastmile_qr_scan", "android": "https://dc.lft.to/lastmile_qr_scan"}, "is_reserved": 0}, {"lon": -76.97398683333333, "bike_id": "5b030c34e432137f7eb888355e5f4b99", "lat": 38.902954666666666, "fusion_lon": 0.0, "fusion_lat": 0.0, "type": "electric_scooter", "name": "5b030c34e432137f7eb888355e5f4b99", "is_disabled": 0, "rental_uris": {"ios": "https://dc.lft.to/lastmile_qr_scan", "android": "https://dc.lft.to/lastmile_qr_scan"}, "is_reserved": 0}, {"lon": -77.08806833333334, "bike_id": "331d149144acc0062f277d23c31c0fd6", "lat": 38.91177033333334, "fusion_lon": 0.0, "fusion_lat": 0.0, "type": "electric_scooter", "name": "331d149144acc0062f277d23c31c0fd6", "is_disabled": 0, "rental_uris": {"ios": "https://dc.lft.to/lastmile_qr_scan", "android": "https://dc.lft.to/lastmile_qr_scan"}, "is_reserved": 0}, {"lon": -77.03035816666667, "bike_id": "0e2d4f52fa9954677e34017a91eeb6d1", "lat": 38.93709716666667, "fusion_lon": 0.0, "fusion_lat": 0.0, "type": "electric_scooter", "name": "0e2d4f52fa9954677e34017a91eeb6d1", "is_disabled": 0, "rental_uris": {"ios": "https://dc.lft.to/lastmile_qr_scan", "android": "https://dc.lft.to/lastmile_qr_scan"}, "is_reserved": 0}, {"lon": -77.02821166666666, "bike_id": "fa1f83244fc93096e1036dd3b2cbbd81", "lat": 38.902552166666666, "fusion_lon": 0.0, "fusion_lat": 0.0, "type": "electric_scooter", "name": "fa1f83244fc93096e1036dd3b2cbbd81", "is_disabled": 0, "rental_uris": {"ios": "https://dc.lft.to/lastmile_qr_scan", "android": "https://dc.lft.to/lastmile_qr_scan"}, "is_reserved": 0}, {"lon": -77.09040966666667, "bike_id": "dcb662163920e387cb6079df74e15857", "lat": 38.84972666666667, "fusion_lon": 0.0, "fusion_lat": 0.0, "type": "electric_bike", "name": "dcb662163920e387cb6079df74e15857", "is_disabled": 0, "rental_uris": {"ios": "https://dc.lft.to/lastmile_qr_scan", "android": "https://dc.lft.to/lastmile_qr_scan"}, "is_reserved": 0}, {"lon": -76.94595583333333, "bike_id": "10d5766ff0ce356550b6add9052f2d7d", "lat": 38.901439833333335, "fusion_lon": 0.0, "fusion_lat": 0.0, "type": "electric_scooter", "name": "10d5766ff0ce356550b6add9052f2d7d", "is_disabled": 0, "rental_uris": {"ios": "https://dc.lft.to/lastmile_qr_scan", "android": "https://dc.lft.to/lastmile_qr_scan"}, "is_reserved": 0}, {"lon": -76.9892205, "bike_id": "89450506d22461d929653707f7201ad5", "lat": 38.86495033333333, "fusion_lon": 0.0, "fusion_lat": 0.0, "type": "electric_scooter", "name": "89450506d22461d929653707f7201ad5", "is_disabled": 0, "rental_uris": {"ios": "https://dc.lft.to/lastmile_qr_scan", "android": "https://dc.lft.to/lastmile_qr_scan"}, "is_reserved": 0}, {"lon": -77.0393625, "bike_id": "6d74d36e8f9bfb42e6db10ca30075b69", "lat": 38.9156745, "fusion_lon": 0.0, "fusion_lat": 0.0, "type": "electric_scooter", "name": "6d74d36e8f9bfb42e6db10ca30075b69", "is_disabled": 0, "rental_uris": {"ios": "https://dc.lft.to/lastmile_qr_scan", "android": "https://dc.lft.to/lastmile_qr_scan"}, "is_reserved": 0}, {"lon": -77.01644966666667, "bike_id": "1891f9040b46ab8206c9860a4e3a969c", "lat": 38.90382283333334, "fusion_lon": 0.0, "fusion_lat": 0.0, "type": "electric_scooter", "name": "1891f9040b46ab8206c9860a4e3a969c", "is_disabled": 0, "rental_uris": {"ios": "https://dc.lft.to/lastmile_qr_scan", "android": "https://dc.lft.to/lastmile_qr_scan"}, "is_reserved": 0}, {"lon": -77.02472583333333, "bike_id": "9d22b0ae99c9babd51e2b332182a5fee", "lat": 38.937046333333335, "fusion_lon": 0.0, "fusion_lat": 0.0, "type": "electric_scooter", "name": "9d22b0ae99c9babd51e2b332182a5fee", "is_disabled": 0, "rental_uris": {"ios": "https://dc.lft.to/lastmile_qr_scan", "android": "https://dc.lft.to/lastmile_qr_scan"}, "is_reserved": 0}, {"lon": -77.040071, "bike_id": "c9d50aa2dc70658b69ad76479273dd9f", "lat": 38.93429233333333, "fusion_lon": 0.0, "fusion_lat": 0.0, "type": "electric_scooter", "name": "c9d50aa2dc70658b69ad76479273dd9f", "is_disabled": 0, "rental_uris": {"ios": "https://dc.lft.to/lastmile_qr_scan", "android": "https://dc.lft.to/lastmile_qr_scan"}, "is_reserved": 0}, {"lon": -77.0247745, "bike_id": "8d8d7e3c3beeedf0664853176b30e4a8", "lat": 38.918877333333334, "fusion_lon": 0.0, "fusion_lat": 0.0, "type": "electric_scooter", "name": "8d8d7e3c3beeedf0664853176b30e4a8", "is_disabled": 0, "rental_uris": {"ios": "https://dc.lft.to/lastmile_qr_scan", "android": "https://dc.lft.to/lastmile_qr_scan"}, "is_reserved": 0}, {"lon": -77.07417716666667, "bike_id": "fc42357db64ec52c157668e6b7647999", "lat": 38.92889516666666, "fusion_lon": 0.0, "fusion_lat": 0.0, "type": "electric_scooter", "name": "fc42357db64ec52c157668e6b7647999", "is_disabled": 0, "rental_uris": {"ios": "https://dc.lft.to/lastmile_qr_scan", "android": "https://dc.lft.to/lastmile_qr_scan"}, "is_reserved": 0}, {"lon": -77.02949866666667, "bike_id": "dea2b8fb7b54af373f8fe777b1573235", "lat": 38.907777, "fusion_lon": 0.0, "fusion_lat": 0.0, "type": "electric_scooter", "name": "dea2b8fb7b54af373f8fe777b1573235", "is_disabled": 0, "rental_uris": {"ios": "https://dc.lft.to/lastmile_qr_scan", "android": "https://dc.lft.to/lastmile_qr_scan"}, "is_reserved": 0}, {"lon": -77.00282183333333, "bike_id": "65573c2c3f155b995b3aa83c16233a20", "lat": 38.908901, "fusion_lon": 0.0, "fusion_lat": 0.0, "type": "electric_scooter", "name": "65573c2c3f155b995b3aa83c16233a20", "is_disabled": 0, "rental_uris": {"ios": "https://dc.lft.to/lastmile_qr_scan", "android": "https://dc.lft.to/lastmile_qr_scan"}, "is_reserved": 0}, {"lon": -77.02808933333333, "bike_id": "a5f3d6cb7ae3e431486a3e7e8d32f849", "lat": 38.930775, "fusion_lon": 0.0, "fusion_lat": 0.0, "type": "electric_scooter", "name": "a5f3d6cb7ae3e431486a3e7e8d32f849", "is_disabled": 0, "rental_uris": {"ios": "https://dc.lft.to/lastmile_qr_scan", "android": "https://dc.lft.to/lastmile_qr_scan"}, "is_reserved": 0}, {"lon": -77.01019983333333, "bike_id": "9a7bbcea1636707dc82917e5816bb4c8", "lat": 38.9085195, "fusion_lon": 0.0, "fusion_lat": 0.0, "type": "electric_scooter", "name": "9a7bbcea1636707dc82917e5816bb4c8", "is_disabled": 0, "rental_uris": {"ios": "https://dc.lft.to/lastmile_qr_scan", "android": "https://dc.lft.to/lastmile_qr_scan"}, "is_reserved": 0}, {"lon": -77.00199566666667, "bike_id": "1d3e3b8b557c70ba3435444c3b705a3f", "lat": 38.90020966666667, "fusion_lon": 0.0, "fusion_lat": 0.0, "type": "electric_scooter", "name": "1d3e3b8b557c70ba3435444c3b705a3f", "is_disabled": 0, "rental_uris": {"ios": "https://dc.lft.to/lastmile_qr_scan", "android": "https://dc.lft.to/lastmile_qr_scan"}, "is_reserved": 0}, {"lon": -77.02264733333334, "bike_id": "39e8d96c7e10b6c90f06e0e3d59f3838", "lat": 38.92730383333333, "fusion_lon": 0.0, "fusion_lat": 0.0, "type": "electric_scooter", "name": "39e8d96c7e10b6c90f06e0e3d59f3838", "is_disabled": 0, "rental_uris": {"ios": "https://dc.lft.to/lastmile_qr_scan", "android": "https://dc.lft.to/lastmile_qr_scan"}, "is_reserved": 0}, {"lon": -76.98063866666666, "bike_id": "36a8ae4ccfec6f9ddbf626ddcb2a9473", "lat": 38.88494083333333, "fusion_lon": 0.0, "fusion_lat": 0.0, "type": "electric_scooter", "name": "36a8ae4ccfec6f9ddbf626ddcb2a9473", "is_disabled": 0, "rental_uris": {"ios": "https://dc.lft.to/lastmile_qr_scan", "android": "https://dc.lft.to/lastmile_qr_scan"}, "is_reserved": 0}, {"lon": -76.99623783333334, "bike_id": "8f559039697f4a80d5767966b3a2fe1a", "lat": 38.90051483333333, "fusion_lon": 0.0, "fusion_lat": 0.0, "type": "electric_scooter", "name": "8f559039697f4a80d5767966b3a2fe1a", "is_disabled": 0, "rental_uris": {"ios": "https://dc.lft.to/lastmile_qr_scan", "android": "https://dc.lft.to/lastmile_qr_scan"}, "is_reserved": 0}, {"lon": -77.03296016666667, "bike_id": "c18240b9215c868bbf7ee2aa3dbef25d", "lat": 38.923633, "fusion_lon": 0.0, "fusion_lat": 0.0, "type": "electric_scooter", "name": "c18240b9215c868bbf7ee2aa3dbef25d", "is_disabled": 0, "rental_uris": {"ios": "https://dc.lft.to/lastmile_qr_scan", "android": "https://dc.lft.to/lastmile_qr_scan"}, "is_reserved": 0}, {"lon": -77.00658666666666, "bike_id": "a498d3a8ee809abad4ae9492711387cb", "lat": 38.90034966666666, "fusion_lon": 0.0, "fusion_lat": 0.0, "type": "electric_scooter", "name": "a498d3a8ee809abad4ae9492711387cb", "is_disabled": 0, "rental_uris": {"ios": "https://dc.lft.to/lastmile_qr_scan", "android": "https://dc.lft.to/lastmile_qr_scan"}, "is_reserved": 0}, {"lon": -76.9440055, "bike_id": "9f29c7fb1e9411bcafbdac13da39fd14", "lat": 38.881411666666665, "fusion_lon": 0.0, "fusion_lat": 0.0, "type": "electric_scooter", "name": "9f29c7fb1e9411bcafbdac13da39fd14", "is_disabled": 0, "rental_uris": {"ios": "https://dc.lft.to/lastmile_qr_scan", "android": "https://dc.lft.to/lastmile_qr_scan"}, "is_reserved": 0}, {"lon": -77.02974266666666, "bike_id": "8612eeb9611108893c47728aa4423192", "lat": 38.91678066666667, "fusion_lon": 0.0, "fusion_lat": 0.0, "type": "electric_scooter", "name": "8612eeb9611108893c47728aa4423192", "is_disabled": 0, "rental_uris": {"ios": "https://dc.lft.to/lastmile_qr_scan", "android": "https://dc.lft.to/lastmile_qr_scan"}, "is_reserved": 0}, {"lon": -77.02197233333334, "bike_id": "11007f46835301cd9536249cf1edf0c7", "lat": 38.899905833333335, "fusion_lon": 0.0, "fusion_lat": 0.0, "type": "electric_scooter", "name": "11007f46835301cd9536249cf1edf0c7", "is_disabled": 0, "rental_uris": {"ios": "https://dc.lft.to/lastmile_qr_scan", "android": "https://dc.lft.to/lastmile_qr_scan"}, "is_reserved": 0}, {"lon": -76.995117, "bike_id": "d3054cbc482bf2abbab836a1f9f53221", "lat": 38.883453333333335, "fusion_lon": 0.0, "fusion_lat": 0.0, "type": "electric_scooter", "name": "d3054cbc482bf2abbab836a1f9f53221", "is_disabled": 0, "rental_uris": {"ios": "https://dc.lft.to/lastmile_qr_scan", "android": "https://dc.lft.to/lastmile_qr_scan"}, "is_reserved": 0}, {"lon": -77.0227285, "bike_id": "15e92c83b68b4dfb659e63e5652ad884", "lat": 38.9272425, "fusion_lon": 0.0, "fusion_lat": 0.0, "type": "electric_scooter", "name": "15e92c83b68b4dfb659e63e5652ad884", "is_disabled": 0, "rental_uris": {"ios": "https://dc.lft.to/lastmile_qr_scan", "android": "https://dc.lft.to/lastmile_qr_scan"}, "is_reserved": 0}, {"lon": -76.993529, "bike_id": "2dbfbd491124ea65ea846bc87c6ac0e2", "lat": 38.845052833333334, "fusion_lon": 0.0, "fusion_lat": 0.0, "type": "electric_bike", "name": "2dbfbd491124ea65ea846bc87c6ac0e2", "is_disabled": 0, "rental_uris": {"ios": "https://dc.lft.to/lastmile_qr_scan", "android": "https://dc.lft.to/lastmile_qr_scan"}, "is_reserved": 0}, {"lon": -77.043406, "bike_id": "685bad26709b7dd397df166e4c131b17", "lat": 38.9081985, "fusion_lon": 0.0, "fusion_lat": 0.0, "type": "electric_scooter", "name": "685bad26709b7dd397df166e4c131b17", "is_disabled": 0, "rental_uris": {"ios": "https://dc.lft.to/lastmile_qr_scan", "android": "https://dc.lft.to/lastmile_qr_scan"}, "is_reserved": 0}, {"lon": -77.04580183333333, "bike_id": "0d9d10690e2f0cd416d1f89827d0b83d", "lat": 38.92123566666667, "fusion_lon": 0.0, "fusion_lat": 0.0, "type": "electric_scooter", "name": "0d9d10690e2f0cd416d1f89827d0b83d", "is_disabled": 0, "rental_uris": {"ios": "https://dc.lft.to/lastmile_qr_scan", "android": "https://dc.lft.to/lastmile_qr_scan"}, "is_reserved": 0}, {"lon": -77.00538466666667, "bike_id": "88e582ce120eb39e965056de819cef9c", "lat": 38.87544966666667, "fusion_lon": 0.0, "fusion_lat": 0.0, "type": "electric_scooter", "name": "88e582ce120eb39e965056de819cef9c", "is_disabled": 0, "rental_uris": {"ios": "https://dc.lft.to/lastmile_qr_scan", "android": "https://dc.lft.to/lastmile_qr_scan"}, "is_reserved": 0}, {"lon": -77.01130033333334, "bike_id": "e21da03278d98a9c4c7a2dee9ba3a3b1", "lat": 38.895983, "fusion_lon": 0.0, "fusion_lat": 0.0, "type": "electric_scooter", "name": "e21da03278d98a9c4c7a2dee9ba3a3b1", "is_disabled": 0, "rental_uris": {"ios": "https://dc.lft.to/lastmile_qr_scan", "android": "https://dc.lft.to/lastmile_qr_scan"}, "is_reserved": 0}, {"lon": -77.029667, "bike_id": "fbbaf6a0a4e964135a355e5bb9f8d95b", "lat": 38.922927333333334, "fusion_lon": 0.0, "fusion_lat": 0.0, "type": "electric_scooter", "name": "fbbaf6a0a4e964135a355e5bb9f8d95b", "is_disabled": 0, "rental_uris": {"ios": "https://dc.lft.to/lastmile_qr_scan", "android": "https://dc.lft.to/lastmile_qr_scan"}, "is_reserved": 0}, {"lon": -77.0251925, "bike_id": "76f7604ac95ded48b38dfbb78d3be56a", "lat": 38.9420325, "fusion_lon": 0.0, "fusion_lat": 0.0, "type": "electric_scooter", "name": "76f7604ac95ded48b38dfbb78d3be56a", "is_disabled": 0, "rental_uris": {"ios": "https://dc.lft.to/lastmile_qr_scan", "android": "https://dc.lft.to/lastmile_qr_scan"}, "is_reserved": 0}, {"lon": -76.97604583333333, "bike_id": "568168d14178b638a284e2308d6b0a0e", "lat": 38.897461, "fusion_lon": 0.0, "fusion_lat": 0.0, "type": "electric_scooter", "name": "568168d14178b638a284e2308d6b0a0e", "is_disabled": 0, "rental_uris": {"ios": "https://dc.lft.to/lastmile_qr_scan", "android": "https://dc.lft.to/lastmile_qr_scan"}, "is_reserved": 0}, {"lon": -76.97889983333333, "bike_id": "dbd7c15147c40d5c15ae04d53163cdb8", "lat": 38.8853765, "fusion_lon": 0.0, "fusion_lat": 0.0, "type": "electric_scooter", "name": "dbd7c15147c40d5c15ae04d53163cdb8", "is_disabled": 0, "rental_uris": {"ios": "https://dc.lft.to/lastmile_qr_scan", "android": "https://dc.lft.to/lastmile_qr_scan"}, "is_reserved": 0}, {"lon": -76.98335333333333, "bike_id": "2a76b13cde88552b9fe241fd938febb4", "lat": 38.8954605, "fusion_lon": 0.0, "fusion_lat": 0.0, "type": "electric_scooter", "name": "2a76b13cde88552b9fe241fd938febb4", "is_disabled": 0, "rental_uris": {"ios": "https://dc.lft.to/lastmile_qr_scan", "android": "https://dc.lft.to/lastmile_qr_scan"}, "is_reserved": 0}, {"lon": -77.02690916666667, "bike_id": "b641cff59deaad7a7da5f39a5e63b7d3", "lat": 38.902377, "fusion_lon": 0.0, "fusion_lat": 0.0, "type": "electric_scooter", "name": "b641cff59deaad7a7da5f39a5e63b7d3", "is_disabled": 0, "rental_uris": {"ios": "https://dc.lft.to/lastmile_qr_scan", "android": "https://dc.lft.to/lastmile_qr_scan"}, "is_reserved": 0},