{"data": {"bikes": [{"lat": 38.9001585, "is_disabled": 0, "type": "electric_scooter", "lon": -77.01200466666667, "bike_id": "91fab679662c589bb06e1bc4ff31d1e1", "fusion_lat": 0.0, "name": "91fab679662c589bb06e1bc4ff31d1e1", "is_reserved": 0, "rental_uris": {"android": "https://dc.lft.to/lastmile_qr_scan", "ios": "https://dc.lft.to/lastmile_qr_scan"}, "fusion_lon": 0.0}, {"lat": 38.884701666666665, "is_disabled": 0, "type": "electric_scooter", "lon": -77.0241915, "bike_id": "610ac2192d936786b931dd43fb2ea536", "fusion_lat": 0.0, "name": "610ac2192d936786b931dd43fb2ea536", "is_reserved": 0, "rental_uris": {"android": "https://dc.lft.to/lastmile_qr_scan", "ios": "https://dc.lft.to/lastmile_qr_scan"}, "fusion_lon": 0.0}, {"lat": 38.865103166666664, "is_disabled": 0, "type": "electric_scooter", "lon": -76.9900855, "bike_id": "eab9064374171b6fafcb96a1c91e54f0", "fusion_lat": 0.0, "name": "eab9064374171b6fafcb96a1c91e54f0", "is_reserved": 0, "rental_uris": {"android": "https://dc.lft.to/lastmile_qr_scan", "ios": "https://dc.lft.to/lastmile_qr_scan"}, "fusion_lon": 0.0}, {"lat": 38.905641333333335, "is_disabled": 0, "type": "electric_bike", "lon": -77.01311716666666, "bike_id": "08f7d9d479d51f89c43099f31fcaeeff", "fusion_lat": 0.0, "name": "08f7d9d479d51f89c43099f31fcaeeff", "is_reserved": 0, "rental_uris": {"android": "https://dc.lft.to/lastmile_qr_scan", "ios": "https://dc.lft.to/lastmile_qr_scan"}, "fusion_lon": 0.0}, {"lat": 38.86711, "is_disabled": 0, "type": "electric_scooter", "lon": -76.9872705, "bike_id": "caf90d073f895d43fe90d45cd8f62b55", "fusion_lat": 0.0, "name": "caf90d073f895d43fe90d45cd8f62b55", "is_reserved": 0, "rental_uris": {"android": "https://dc.lft.to/lastmile_qr_scan", "ios": "https://dc.lft.to/lastmile_qr_scan"}, "fusion_lon": 0.0}, {"lat": 38.88126166666667, "is_disabled": 0, "type": "electric_scooter", "lon": -77.01639166666666, "bike_id": "752867049c1f01febd4563492e9b1336", "fusion_lat": 0.0, "name": "752867049c1f01febd4563492e9b1336", "is_reserved": 0, "rental_uris": {"android": "https://dc.lft.to/lastmile_qr_scan", "ios": "https://dc.lft.to/lastmile_qr_scan"}, "fusion_lon": 0.0}, {"lat": 38.91265966666667, "is_disabled": 0, "type": "electric_scooter", "lon": -77.02252533333333, "bike_id": "a461568773af5c8a336dc298d5819861", "fusion_lat": 0.0, "name": "a461568773af5c8a336dc298d5819861", "is_reserved": 0, "rental_uris": {"android": "https://dc.lft.to/lastmile_qr_scan", "ios": "https://dc.lft.to/lastmile_qr_scan"}, "fusion_lon": 0.0}, {"lat": 38.90525366666667, "is_disabled": 0, "type": "electric_scooter", "lon": -77.04871116666666, "bike_id": "22c5de3e54bd27083b49ca639ed721f4", "fusion_lat": 0.0, "name": "22c5de3e54bd27083b49ca639ed721f4", "is_reserved": 0, "rental_uris": {"android": "https://dc.lft.to/lastmile_qr_scan", "ios": "https://dc.lft.to/lastmile_qr_scan"}, "fusion_lon": 0.0}, {"lat": 38.87144766666667, "is_disabled": 0, "type": "electric_bike", "lon": -76.9370495, "bike_id": "72c95434eb41a16ae486c1e4b453240a", "fusion_lat": 0.0, "name": "72c95434eb41a16ae486c1e4b453240a", "is_reserved": 0, "rental_uris": {"android": "https://dc.lft.to/lastmile_qr_scan", "ios": "https://dc.lft.to/lastmile_qr_scan"}, "fusion_lon": 0.0}, {"lat": 38.8456855, "is_disabled": 0, "type": "electric_bike", "lon": -77.09625233333334, "bike_id": "440cf531357d7dbd93005667ed5d1d5a", "fusion_lat": 0.0, "name": "440cf531357d7dbd93005667ed5d1d5a", "is_reserved": 0, "rental_uris": {"android": "https://dc.lft.to/lastmile_qr_scan", "ios": "https://dc.lft.to/lastmile_qr_scan"}, "fusion_lon": 0.0}, {"lat": 38.900870166666664, "is_disabled": 0, "type": "electric_scooter", "lon": -77.05058083333333, "bike_id": "7e4006b6f522698796e5f8ffac1b3e39", "fusion_lat": 0.0, "name": "7e4006b6f522698796e5f8ffac1b3e39", "is_reserved": 0, "rental_uris": {"android": "https://dc.lft.to/lastmile_qr_scan", "ios": "https://dc.lft.to/lastmile_qr_scan"}, "fusion_lon": 0.0}, {"lat": 38.836938833333335, "is_disabled": 0, "type": "electric_scooter", "lon": -77.10306166666666, "bike_id": "17c74db135660ab0f407308977ca7ae0", "fusion_lat": 0.0, "name": "17c74db135660ab0f407308977ca7ae0", "is_reserved": 0, "rental_uris": {"android": "https://dc.lft.to/lastmile_qr_scan", "ios": "https://dc.lft.to/lastmile_qr_scan"}, "fusion_lon": 0.0}, {"lat": 38.916175833333334, "is_disabled": 0, "type": "electric_scooter", "lon": -77.03271616666666, "bike_id": "e1cf135636e812fd5e8562ed06cc718d", "fusion_lat": 0.0, "name": "e1cf135636e812fd5e8562ed06cc718d", "is_reserved": 0, "rental_uris": {"android": "https://dc.lft.to/lastmile_qr_scan", "ios": "https://dc.lft.to/lastmile_qr_scan"}, "fusion_lon": 0.0}, {"lat": 38.88116766666667, "is_disabled": 0, "type": "electric_scooter", "lon": -76.98339416666667, "bike_id": "09d60573742acc1d1287c71c0c14207b", "fusion_lat": 0.0, "name": "09d60573742acc1d1287c71c0c14207b", "is_reserved": 0, "rental_uris": {"android": "https://dc.lft.to/lastmile_qr_scan", "ios": "https://dc.lft.to/lastmile_qr_scan"}, "fusion_lon": 0.0}, {"lat": 38.867092166666666, "is_disabled": 0, "type": "electric_scooter", "lon": -76.9872875, "bike_id": "12734bdfc0dac080e29f7f4d6f36b445", "fusion_lat": 0.0, "name": "12734bdfc0dac080e29f7f4d6f36b445", "is_reserved": 0, "rental_uris": {"android": "https://dc.lft.to/lastmile_qr_scan", "ios": "https://dc.lft.to/lastmile_qr_scan"}, "fusion_lon": 0.0}, {"lat": 38.93668383333333, "is_disabled": 0, "type": "electric_scooter", "lon": -77.05931933333333, "bike_id": "af3dbbb0359990dad29e4ad054d18364", "fusion_lat": 0.0, "name": "af3dbbb0359990dad29e4ad054d18364", "is_reserved": 0, "rental_uris": {"android": "https://dc.lft.to/lastmile_qr_scan", "ios": "https://dc.lft.to/lastmile_qr_scan"}, "fusion_lon": 0.0}, {"lat": 38.92710183333333, "is_disabled": 0, "type": "electric_scooter", "lon": -77.02095033333333, "bike_id": "e4e56fd91051dcf01c1d3d9bc2be6938", "fusion_lat": 0.0, "name": "e4e56fd91051dcf01c1d3d9bc2be6938", "is_reserved": 0, "rental_uris": {"android": "https://dc.lft.to/lastmile_qr_scan", "ios": "https://dc.lft.to/lastmile_qr_scan"}, "fusion_lon": 0.0}, {"lat": 38.90020766666667, "is_disabled": 0, "type": "electric_scooter", "lon": -77.033132, "bike_id": "3bd07b16ef7478f1009c952347ac7f5b", "fusion_lat": 0.0, "name": "3bd07b16ef7478f1009c952347ac7f5b", "is_reserved": 0, "rental_uris": {"android": "https://dc.lft.to/lastmile_qr_scan", "ios": "https://dc.lft.to/lastmile_qr_scan"}, "fusion_lon": 0.0}, {"lat": 38.91287716666667, "is_disabled": 0, "type": "electric_scooter", "lon": -77.03842766666666, "bike_id": "4b239592a1e5bd520c53ec09f413bb51", "fusion_lat": 0.0, "name": "4b239592a1e5bd520c53ec09f413bb51", "is_reserved": 0, "rental_uris": {"android": "https://dc.lft.to/lastmile_qr_scan", "ios": "https://dc.lft.to/lastmile_qr_scan"}, "fusion_lon": 0.0}, {"lat": 38.91046466666667, "is_disabled": 0, "type": "electric_scooter", "lon": -77.01522883333334, "bike_id": "f1704a1c0d9358669cace67265d5f95f", "fusion_lat": 0.0, "name": "f1704a1c0d9358669cace67265d5f95f", "is_reserved": 0, "rental_uris": {"android": "https://dc.lft.to/lastmile_qr_scan", "ios": "https://dc.lft.to/lastmile_qr_scan"}, "fusion_lon": 0.0}, {"lat": 38.89609983333333, "is_disabled": 0, "type": "electric_scooter", "lon": -76.9566625, "bike_id": "70e0a394fa9ced84f9d61e5b4377a52f", "fusion_lat": 0.0, "name": "70e0a394fa9ced84f9d61e5b4377a52f", "is_reserved": 0, "rental_uris": {"android": "https://dc.lft.to/lastmile_qr_scan", "ios": "https://dc.lft.to/lastmile_qr_scan"}, "fusion_lon": 0.0}, {"lat": 38.877317166666664, "is_disabled": 0, "type": "electric_scooter", "lon": -77.00302966666666, "bike_id": "8fc3013d8d85bad5d2ac3cda89ecc76a", "fusion_lat": 0.0, "name": "8fc3013d8d85bad5d2ac3cda89ecc76a", "is_reserved": 0, "rental_uris": {"android": "https://dc.lft.to/lastmile_qr_scan", "ios": "https://dc.lft.to/lastmile_qr_scan"}, "fusion_lon": 0.0}, {"lat": 38.9075395, "is_disabled": 0, "type": "electric_scooter", "lon": -76.99878566666666, "bike_id": "d11aa17aa84cd3edaf4362e648c5a63c", "fusion_lat": 0.0, "name": "d11aa17aa84cd3edaf4362e648c5a63c", "is_reserved": 0, "rental_uris": {"android": "https://dc.lft.to/lastmile_qr_scan", "ios": "https://dc.lft.to/lastmile_qr_scan"}, "fusion_lon": 0.0}, {"lat": 38.8955705, "is_disabled": 0, "type": "electric_scooter", "lon": -77.00368833333333, "bike_id": "28450446eb293f9ef71bcf15b5627928", "fusion_lat": 0.0, "name": "28450446eb293f9ef71bcf15b5627928", "is_reserved": 0, "rental_uris": {"android": "https://dc.lft.to/lastmile_qr_scan", "ios": "https://dc.lft.to/lastmile_qr_scan"}, "fusion_lon": 0.0}, {"lat": 38.907947166666666, "is_disabled": 0, "type": "electric_scooter", "lon": -77.01102033333333, "bike_id": "abdcbeb86ee51e28bcee032341a1663c", "fusion_lat": 0.0, "name": "abdcbeb86ee51e28bcee032341a1663c", "is_reserved": 0, "rental_uris": {"android": "https://dc.lft.to/lastmile_qr_scan", "ios": "https://dc.lft.to/lastmile_qr_scan"}, "fusion_lon": 0.0}, {"lat": 38.853196833333335, "is_disabled": 0, "type": "electric_scooter", "lon": -76.98019483333333, "bike_id": "7d5c1005667473e61b3125a009deb378", "fusion_lat": 0.0, "name": "7d5c1005667473e61b3125a009deb378", "is_reserved": 0, "rental_uris": {"android": "https://dc.lft.to/lastmile_qr_scan", "ios": "https://dc.lft.to/lastmile_qr_scan"}, "fusion_lon": 0.0}, {"lat": 38.938613833333335, "is_disabled": 0, "type": "electric_scooter", "lon": -77.0320215, "bike_id": "efb7ee76171d87a56bc59e0e35c1b53d", "fusion_lat": 0.0, "name": "efb7ee76171d87a56bc59e0e35c1b53d", "is_reserved": 0, "rental_uris": {"android": "https://dc.lft.to/lastmile_qr_scan", "ios": "https://dc.lft.to/lastmile_qr_scan"}, "fusion_lon": 0.0}, {"lat": 38.96204866666667, "is_disabled": 0, "type": "electric_bike", "lon": -77.03515066666667, "bike_id": "fc5b6f924304158a4e162e2432ebfb73", "fusion_lat": 0.0, "name": "fc5b6f924304158a4e162e2432ebfb73", "is_reserved": 0, "rental_uris": {"android": "https://dc.lft.to/lastmile_qr_scan", "ios": "https://dc.lft.to/lastmile_qr_scan"}, "fusion_lon": 0.0}, {"lat": 38.949153, "is_disabled": 0, "type": "electric_scooter", "lon": -77.0662425, "bike_id": "8457e048e62115f787ebd95c97a591a4", "fusion_lat": 0.0, "name": "8457e048e62115f787ebd95c97a591a4", "is_reserved": 0, "rental_uris": {"android": "https://dc.lft.to/lastmile_qr_scan", "ios": "https://dc.lft.to/lastmile_qr_scan"}, "fusion_lon": 0.0}, {"lat": 38.892239333333336, "is_disabled": 0, "type": "electric_scooter", "lon": -77.04866816666667, "bike_id": "41332c928737f5516f85c286f98d6035", "fusion_lat": 0.0, "name": "41332c928737f5516f85c286f98d6035", "is_reserved": 0, "rental_uris": {"android": "https://dc.lft.to/lastmile_qr_scan", "ios": "https://dc.lft.to/lastmile_qr_scan"}, "fusion_lon": 0.0}, {"lat": 38.81347683333333, "is_disabled": 0, "type": "electric_bike", "lon": -77.04922966666666, "bike_id": "3b39c1a631cbde51c28a70c21471507f", "fusion_lat": 0.0, "name": "3b39c1a631cbde51c28a70c21471507f", "is_reserved": 0, "rental_uris": {"android": "https://dc.lft.to/lastmile_qr_scan", "ios": "https://dc.lft.to/lastmile_qr_scan"}, "fusion_lon": 0.0}, {"lat": 38.911177333333335, "is_disabled": 0, "type": "electric_scooter", "lon": -77.03819216666666, "bike_id": "93b6eb815ebbcb8ac0a32444136ab6d7", "fusion_lat": 0.0, "name": "93b6eb815ebbcb8ac0a32444136ab6d7", "is_reserved": 0, "rental_uris": {"android": "https://dc.lft.to/lastmile_qr_scan", "ios": "https://dc.lft.to/lastmile_qr_scan"}, "fusion_lon": 0.0}, {"lat": 38.94114583333333, "is_disabled": 0, "type": "electric_scooter", "lon": -77.000535, "bike_id": "07931551ec41d1bcd924cb1646d7b8e1", "fusion_lat": 0.0, "name": "07931551ec41d1bcd924cb1646d7b8e1", "is_reserved": 0, "rental_uris": {"android": "https://dc.lft.to/lastmile_qr_scan", "ios": "https://dc.lft.to/lastmile_qr_scan"}, "fusion_lon": 0.0}, {"lat": 38.871689, "is_disabled": 0, "type": "electric_scooter", "lon": -77.01361683333333, "bike_id": "1db144d6dd098aeba5ff63dd519cd006", "fusion_lat": 0.0, "name": "1db144d6dd098aeba5ff63dd519cd006", "is_reserved": 0, "rental_uris": {"android": "https://dc.lft.to/lastmile_qr_scan", "ios": "https://dc.lft.to/lastmile_qr_scan"}, "fusion_lon": 0.0}, {"lat": 38.92513966666667, "is_disabled": 0, "type": "electric_scooter", "lon": -77.0236125, "bike_id": "48953ef0d9254b971b7ca3cff2c6a516", "fusion_lat": 0.0, "name": "48953ef0d9254b971b7ca3cff2c6a516", "is_reserved": 0, "rental_uris": {"android": "https://dc.lft.to/lastmile_qr_scan", "ios": "https://dc.lft.to/lastmile_qr_scan"}, "fusion_lon": 0.0}, {"lat": 38.925719, "is_disabled": 0, "type": "electric_scooter", "lon": -77.04014516666666, "bike_id": "3c6b240d121dacb852d248f4833e26c5", "fusion_lat": 0.0, "name": "3c6b240d121dacb852d248f4833e26c5", "is_reserved": 0, "rental_uris": {"android": "https://dc.lft.to/lastmile_qr_scan", "ios": "https://dc.lft.to/lastmile_qr_scan"}, "fusion_lon": 0.0}, {"lat": 38.91784716666667, "is_disabled": 0, "type": "electric_scooter", "lon": -77.02310133333333, "bike_id": "52c358adfbfceb1cc7a42465911b40a8", "fusion_lat": 0.0, "name": "52c358adfbfceb1cc7a42465911b40a8", "is_reserved": 0, "rental_uris": {"android": "https://dc.lft.to/lastmile_qr_scan", "ios": "https://dc.lft.to/lastmile_qr_scan"}, "fusion_lon": 0.0}, {"lat": 38.91109383333333, "is_disabled": 0, "type": "electric_scooter", "lon": -77.03834016666667, "bike_id": "b00ff211af2872de61c87abf8f005a70", "fusion_lat": 0.0, "name": "b00ff211af2872de61c87abf8f005a70", "is_reserved": 0, "rental_uris": {"android": "https://dc.lft.to/lastmile_qr_scan", "ios": "https://dc.lft.to/lastmile_qr_scan"}, "fusion_lon": 0.0}, {"lat": 38.90080716666667, "is_disabled": 0, "type": "electric_scooter", "lon": -77.00362466666667, "bike_id": "9320405513b092ee92eec82601c16249", "fusion_lat": 0.0, "name": "9320405513b092ee92eec82601c16249", "is_reserved": 0, "rental_uris": {"android": "https://dc.lft.to/lastmile_qr_scan", "ios": "https://dc.lft.to/lastmile_qr_scan"}, "fusion_lon": 0.0}, {"lat": 38.861684833333335, "is_disabled": 0, "type": "electric_bike", "lon": -77.13148366666667, "bike_id": "f4f840cd85c3970338bbfbe289b45db7", "fusion_lat": 0.0, "name": "f4f840cd85c3970338bbfbe289b45db7", "is_reserved": 0, "rental_uris": {"android": "https://dc.lft.to/lastmile_qr_scan", "ios": "https://dc.lft.to/lastmile_qr_scan"}, "fusion_lon": 0.0}, {"lat": 38.907256333333336, "is_disabled": 0, "type": "electric_scooter", "lon": -76.998189, "bike_id": "2d93dd245ac10e05e3a71f0dbe6b33cc", "fusion_lat": 0.0, "name": "2d93dd245ac10e05e3a71f0dbe6b33cc", "is_reserved": 0, "rental_uris": {"android": "https://dc.lft.to/lastmile_qr_scan", "ios": "https://dc.lft.to/lastmile_qr_scan"}, "fusion_lon": 0.0}, {"lat": 38.91712883333334, "is_disabled": 0, "type": "electric_scooter", "lon": -77.03221666666667, "bike_id": "8f9d40d40f6916940f32134288e4e6fb", "fusion_lat": 0.0, "name": "8f9d40d40f6916940f32134288e4e6fb", "is_reserved": 0, "rental_uris": {"android": "https://dc.lft.to/lastmile_qr_scan", "ios": "https://dc.lft.to/lastmile_qr_scan"}, "fusion_lon": 0.0}, {"lat": 38.867011166666664, "is_disabled": 0, "type": "electric_scooter", "lon": -76.98711483333334, "bike_id": "52f74fe2f787d7bc153e918656e9b04c", "fusion_lat": 0.0, "name": "52f74fe2f787d7bc153e918656e9b04c", "is_reserved": 0, "rental_uris": {"android": "https://dc.lft.to/lastmile_qr_scan", "ios": "https://dc.lft.to/lastmile_qr_scan"}, "fusion_lon": 0.0}, {"lat": 38.921516833333335, "is_disabled": 0, "type": "electric_scooter", "lon": -77.03383033333333, "bike_id": "0d30fa76a5de3e355d97028df4cba212", "fusion_lat": 0.0, "name": "0d30fa76a5de3e355d97028df4cba212", "is_reserved": 0, "rental_uris": {"android": "https://dc.lft.to/lastmile_qr_scan", "ios": "https://dc.lft.to/lastmile_qr_scan"}, "fusion_lon": 0.0}, {"lat": 38.91790233333333, "is_disabled": 0, "type": "electric_bike", "lon": -76.97190133333334, "bike_id": "7e4dbf4276df7ba3371b1c93747b812d", "fusion_lat": 0.0, "name": "7e4dbf4276df7ba3371b1c93747b812d", "is_reserved": 0, "rental_uris": {"android": "https://dc.lft.to/lastmile_qr_scan", "ios": "https://dc.lft.to/lastmile_qr_scan"}, "fusion_lon": 0.0}, {"lat": 38.90570483333333, "is_disabled": 0, "type": "electric_scooter", "lon": -77.04876466666667, "bike_id": "fd8ff4fd449dfd676fe6dad68037f2bb", "fusion_lat": 0.0, "name": "fd8ff4fd449dfd676fe6dad68037f2bb", "is_reserved": 0, "rental_uris": {"android": "https://dc.lft.to/lastmile_qr_scan", "ios": "https://dc.lft.to/lastmile_qr_scan"}, "fusion_lon": 0.0}, {"lat": 38.9241535, "is_disabled": 0, "type": "electric_bike", "lon": -77.05044833333334, "bike_id": "0ed09302f90ebc4454813f854ae0d03f", "fusion_lat": 0.0, "name": "0ed09302f90ebc4454813f854ae0d03f", "is_reserved": 0, "rental_uris": {"android": "https://dc.lft.to/lastmile_qr_scan", "ios": "https://dc.lft.to/lastmile_qr_scan"}, "fusion_lon": 0.0}, {"lat": 38.903819, "is_disabled": 0, "type": "electric_scooter", "lon": -77.03863966666667, "bike_id": "7ae3ae08b8aa53b25c72d4f12420ffb6", "fusion_lat": 0.0, "name": "7ae3ae08b8aa53b25c72d4f12420ffb6", "is_reserved": 0, "rental_uris": {"android": "https://dc.lft.to/lastmile_qr_scan", "ios": "https://dc.lft.to/lastmile_qr_scan"}, "fusion_lon": 0.0}, {"lat": 38.909879, "is_disabled": 0, "type": "electric_scooter", "lon": -77.03184083333333, "bike_id": "b97eba38caaae934d04d7a304d611db1", "fusion_lat": 0.0, "name": "b97eba38caaae934d04d7a304d611db1", "is_reserved": 0, "rental_uris": {"android": "https://dc.lft.to/lastmile_qr_scan", "ios": "https://dc.lft.to/lastmile_qr_scan"}, "fusion_lon": 0.0}, {"lat": 38.86257666666667, "is_disabled": 0, "type": "electric_scooter", "lon": -76.995182, "bike_id": "da4a3666daa8b21a1cf6bd93d9d8ec53", "fusion_lat": 0.0, "name": "da4a3666daa8b21a1cf6bd93d9d8ec53", "is_reserved": 0, "rental_uris": {"android": "https://dc.lft.to/lastmile_qr_scan", "ios": "https://dc.lft.to/lastmile_qr_scan"}, "fusion_lon": 0.0}, {"lat": 38.85189533333333, "is_disabled": 0, "type": "electric_scooter", "lon": -76.97618666666666, "bike_id": "ef51860a30e6e3202c395d29352d0b9e", "fusion_lat": 0.0, "name": "ef51860a30e6e3202c395d29352d0b9e", "is_reserved": 0, "rental_uris": {"android": "https://dc.lft.to/lastmile_qr_scan", "ios": "https://dc.lft.to/lastmile_qr_scan"}, "fusion_lon": 0.0}, {"lat": 38.9373565, "is_disabled": 0, "type": "electric_scooter", "lon": -77.03621133333333, "bike_id": "ef72121a4e63a03913080d0eaed63192", "fusion_lat": 0.0, "name": "ef72121a4e63a03913080d0eaed63192", "is_reserved": 0, "rental_uris": {"android": "https://dc.lft.to/lastmile_qr_scan", "ios": "https://dc.lft.to/lastmile_qr_scan"}, "fusion_lon": 0.0}, {"lat": 38.89852583333333, "is_disabled": 0, "type": "electric_scooter", "lon": -76.99032266666667, "bike_id": "908195fa13fb41f7db4ec1de52426277", "fusion_lat": 0.0, "name": "908195fa13fb41f7db4ec1de52426277", "is_reserved": 0, "rental_uris": {"android": "https://dc.lft.to/lastmile_qr_scan", "ios": "https://dc.lft.to/lastmile_qr_scan"}, "fusion_lon": 0.0}, {"lat": 38.925888666666665, "is_disabled": 0, "type": "electric_scooter", "lon": -77.04406483333334, "bike_id": "23b0335dc99b3bd31e345c31873f4e59", "fusion_lat": 0.0, "name": "23b0335dc99b3bd31e345c31873f4e59", "is_reserved": 0, "rental_uris": {"android": "https://dc.lft.to/lastmile_qr_scan", "ios": "https://dc.lft.to/lastmile_qr_scan"}, "fusion_lon": 0.0}, {"lat": 38.844344166666666, "is_disabled": 0, "type": "electric_scooter", "lon": -76.99659333333334, "bike_id": "8e369df29a25a61afd159dfbe9793929", "fusion_lat": 0.0, "name": "8e369df29a25a61afd159dfbe9793929", "is_reserved": 0, "rental_uris": {"android": "https://dc.lft.to/lastmile_qr_scan", "ios": "https://dc.lft.to/lastmile_qr_scan"}, "fusion_lon": 0.0}, {"lat": 38.90528283333333, "is_disabled": 0, "type": "electric_scooter", "lon": -77.05000116666666, "bike_id": "babf2469e9a90a406ff6ac4a1322f213", "fusion_lat": 0.0, "name": "babf2469e9a90a406ff6ac4a1322f213", "is_reserved": 0, "rental_uris": {"android": "https://dc.lft.to/lastmile_qr_scan", "ios": "https://dc.lft.to/lastmile_qr_scan"}, "fusion_lon": 0.0}, {"lat": 38.909633666666664, "is_disabled": 0, "type": "electric_scooter", "lon": -77.0479255, "bike_id": "8044c3ed35105f62c20d212c6857eb2e", "fusion_lat": 0.0, "name": "8044c3ed35105f62c20d212c6857eb2e", "is_reserved": 0, "rental_uris": {"android": "https://dc.lft.to/lastmile_qr_scan", "ios": "https://dc.lft.to/lastmile_qr_scan"}, "fusion_lon": 0.0}, {"lat": 38.89732466666667, "is_disabled": 0, "type": "electric_scooter", "lon": -77.04983966666667, "bike_id": "e78cee4dfc5a57ae42db6cee0f6ab242", "fusion_lat": 0.0, "name": "e78cee4dfc5a57ae42db6cee0f6ab242", "is_reserved": 0, "rental_uris": {"android": "https://dc.lft.to/lastmile_qr_scan", "ios": "https://dc.lft.to/lastmile_qr_scan"}, "fusion_lon": 0.0}, {"lat": 38.90070383333333, "is_disabled": 0, "type": "electric_scooter", "lon": -77.04903466666667, "bike_id": "2328ca823955bb5992d753eed60d9fb8", "fusion_lat": 0.0, "name": "2328ca823955bb5992d753eed60d9fb8", "is_reserved": 0, "rental_uris": {"android": "https://dc.lft.to/lastmile_qr_scan", "ios": "https://dc.lft.to/lastmile_qr_scan"}, "fusion_lon": 0.0}, {"lat": 38.905520333333335, "is_disabled": 0, "type": "electric_scooter", "lon": -77.005656, "bike_id": "40011bcb9137d7aeab4181f506b11266", "fusion_lat": 0.0, "name": "40011bcb9137d7aeab4181f506b11266", "is_reserved": 0, "rental_uris": {"android": "https://dc.lft.to/lastmile_qr_scan", "ios": "https://dc.lft.to/lastmile_qr_scan"}, "fusion_lon": 0.0}, {"lat": 38.90524666666666, "is_disabled": 0, "type": "electric_scooter", "lon": -77.06310366666666, "bike_id": "10fc0fc8c2871c53a6701482c4c0f36d", "fusion_lat": 0.0, "name": "10fc0fc8c2871c53a6701482c4c0f36d", "is_reserved": 0, "rental_uris": {"android": "https://dc.lft.to/lastmile_qr_scan", "ios": "https://dc.lft.to/lastmile_qr_scan"}, "fusion_lon": 0.0}, {"lat": 38.992591, "is_disabled": 0, "type": "electric_scooter", "lon": -77.03655, "bike_id": "3f0f07142c962987f86220b0c9db56d3", "fusion_lat": 0.0, "name": "3f0f07142c962987f86220b0c9db56d3", "is_reserved": 0, "rental_uris": {"android": "https://dc.lft.to/lastmile_qr_scan", "ios": "https://dc.lft.to/lastmile_qr_scan"}, "fusion_lon": 0.0}, {"lat": 38.910519666666666, "is_disabled": 0, "type": "electric_scooter", "lon": -77.04373983333333, "bike_id": "c657972770375dd481f12b43c4cab652", "fusion_lat": 0.0, "name": "c657972770375dd481f12b43c4cab652", "is_reserved": 0, "rental_uris": {"android": "https://dc.lft.to/lastmile_qr_scan", "ios": "https://dc.lft.to/lastmile_qr_scan"}, "fusion_lon": 0.0}, {"lat": 38.94552433333333, "is_disabled": 0, "type": "electric_bike", "lon": -76.89534633333334, "bike_id": "442e75aee8d04c2bbfe9862d5bf2fc2a", "fusion_lat": 0.0, "name": "442e75aee8d04c2bbfe9862d5bf2fc2a", "is_reserved": 0, "rental_uris": {"android": "https://dc.lft.to/lastmile_qr_scan", "ios": "https://dc.lft.to/lastmile_qr_scan"}, "fusion_lon": 0.0}, {"lat": 38.9365635, "is_disabled": 0, "type": "electric_bike", "lon": -76.9522135, "bike_id": "acf828877194c7b4bf31c47eb42bb68e", "fusion_lat": 0.0, "name": "acf828877194c7b4bf31c47eb42bb68e", "is_reserved": 0, "rental_uris": {"android": "https://dc.lft.to/lastmile_qr_scan", "ios": "https://dc.lft.to/lastmile_qr_scan"}, "fusion_lon": 0.0}, {"lat": 39.034290666666664, "is_disabled": 0, "type": "electric_bike", "lon": -77.0431685, "bike_id": "ffface08ff4d6c233dc28e0176db6c61", "fusion_lat": 0.0, "name": "ffface08ff4d6c233dc28e0176db6c61", "is_reserved": 0, "rental_uris": {"android": "https://dc.lft.to/lastmile_qr_scan", "ios": "https://dc.lft.to/lastmile_qr_scan"}, "fusion_lon": 0.0}, {"lat": 39.00473933333333, "is_disabled": 0, "type": "electric_bike", "lon": -76.9013395, "bike_id": "5600556682985dcbf97af7e50841bed8", "fusion_lat": 0.0, "name": "5600556682985dcbf97af7e50841bed8", "is_reserved": 0, "rental_uris": {"android": "https://dc.lft.to/lastmile_qr_scan", "ios": "https://dc.lft.to/lastmile_qr_scan"}, "fusion_lon": 0.0}, {"lat": 38.918194666666665, "is_disabled": 0, "type": "electric_scooter", "lon": -77.03567416666667, "bike_id": "1b8ed142dd6f1f27e64f9fed578c9055", "fusion_lat": 0.0, "name": "1b8ed142dd6f1f27e64f9fed578c9055", "is_reserved": 0, "rental_uris": {"android": "https://dc.lft.to/lastmile_qr_scan", "ios": "https://dc.lft.to/lastmile_qr_scan"}, "fusion_lon": 0.0}, {"lat": 38.90988316666667, "is_disabled": 0, "type": "electric_scooter", "lon": -76.997385, "bike_id": "5b0287a8ff5f30e6cdb28159f67c9784", "fusion_lat": 0.0, "name": "5b0287a8ff5f30e6cdb28159f67c9784", "is_reserved": 0, "rental_uris": {"android": "https://dc.lft.to/lastmile_qr_scan", "ios": "https://dc.lft.to/lastmile_qr_scan"}, "fusion_lon": 0.0}, {"lat": 38.928735, "is_disabled": 0, "type": "electric_scooter", "lon": -77.019422, "bike_id": "0adf4efe47b25fb550f34fead19b250d", "fusion_lat": 0.0, "name": "0adf4efe47b25fb550f34fead19b250d", "is_reserved": 0, "rental_uris": {"android": "https://dc.lft.to/lastmile_qr_scan", "ios": "https://dc.lft.to/lastmile_qr_scan"}, "fusion_lon": 0.0}, {"lat": 38.883044166666664, "is_disabled": 0, "type": "electric_scooter", "lon": -77.0173505, "bike_id": "a02cda9670233510421970373955acc7", "fusion_lat": 0.0, "name": "a02cda9670233510421970373955acc7", "is_reserved": 0, "rental_uris": {"android": "https://dc.lft.to/lastmile_qr_scan", "ios": "https://dc.lft.to/lastmile_qr_scan"}, "fusion_lon": 0.0}, {"lat": 38.9232085, "is_disabled": 0, "type": "electric_scooter", "lon": -77.027967, "bike_id": "b1884fd30b48e80265b3f40a4c0565b6", "fusion_lat": 0.0, "name": "b1884fd30b48e80265b3f40a4c0565b6", "is_reserved": 0, "rental_uris": {"android": "https://dc.lft.to/lastmile_qr_scan", "ios": "https://dc.lft.to/lastmile_qr_scan"}, "fusion_lon": 0.0}, {"lat": 38.92791666666667, "is_disabled": 0, "type": "electric_scooter", "lon": -77.03817983333333, "bike_id": "314a1cc1ab086bf2912086d29a729d3d", "fusion_lat": 0.0, "name": "314a1cc1ab086bf2912086d29a729d3d", "is_reserved": 0, "rental_uris": {"android": "https://dc.lft.to/lastmile_qr_scan", "ios": "https://dc.lft.to/lastmile_qr_scan"}, "fusion_lon": 0.0}, {"lat": 38.89397916666667, "is_disabled": 0, "type": "electric_scooter", "lon": -77.04999016666666, "bike_id": "13f78a8baaae4081c5af347a16b8a591", "fusion_lat": 0.0, "name": "13f78a8baaae4081c5af347a16b8a591", "is_reserved": 0, "rental_uris": {"android": "https://dc.lft.to/lastmile_qr_scan", "ios": "https://dc.lft.to/lastmile_qr_scan"}, "fusion_lon": 0.0}, {"lat": 38.9104255, "is_disabled": 0, "type": "electric_scooter", "lon": -77.04347783333333, "bike_id": "4ac71fba6e44f2522c75ad350f19aba0", "fusion_lat": 0.0, "name": "4ac71fba6e44f2522c75ad350f19aba0", "is_reserved": 0, "rental_uris": {"android": "https://dc.lft.to/lastmile_qr_scan", "ios": "https://dc.lft.to/lastmile_qr_scan"}, "fusion_lon": 0.0}, {"lat": 38.91837266666667, "is_disabled": 0, "type": "electric_scooter", "lon": -77.02371216666667, "bike_id": "7a3a7506200208ecd20ecb9400016954", "fusion_lat": 0.0, "name": "7a3a7506200208ecd20ecb9400016954", "is_reserved": 0, "rental_uris": {"android": "https://dc.lft.to/lastmile_qr_scan", "ios": "https://dc.lft.to/lastmile_qr_scan"}, "fusion_lon": 0.0}, {"lat": 38.9007505, "is_disabled": 0, "type": "electric_scooter", "lon": -77.002168, "bike_id": "0edab6fbfe02e1c637ac8902ece6ead0", "fusion_lat": 0.0, "name": "0edab6fbfe02e1c637ac8902ece6ead0", "is_reserved": 0, "rental_uris": {"android": "https://dc.lft.to/lastmile_qr_scan", "ios": "https://dc.lft.to/lastmile_qr_scan"}, "fusion_lon": 0.0}, {"lat": 38.828769666666666, "is_disabled": 0, "type": "electric_bike", "lon": -77.1121805, "bike_id": "392172a87a0e8e766bce9fb7d4fe9cbe", "fusion_lat": 0.0, "name": "392172a87a0e8e766bce9fb7d4fe9cbe", "is_reserved": 0, "rental_uris": {"android": "https://dc.lft.to/lastmile_qr_scan", "ios": "https://dc.lft.to/lastmile_qr_scan"}, "fusion_lon": 0.0}, {"lat": 38.90502033333333, "is_disabled": 0, "type": "electric_scooter", "lon": -77.0069885, "bike_id": "4c195dfe2729a1c0699c06ca70583d64", "fusion_lat": 0.0, "name": "4c195dfe2729a1c0699c06ca70583d64", "is_reserved": 0, "rental_uris": {"android": "https://dc.lft.to/lastmile_qr_scan", "ios": "https://dc.lft.to/lastmile_qr_scan"}, "fusion_lon": 0.0}, {"lat": 38.90039066666667, "is_disabled": 0, "type": "electric_scooter", "lon": -77.02970233333333, "bike_id": "6427b6540d8a40eb53956962ce0d7273", "fusion_lat": 0.0, "name": "6427b6540d8a40eb53956962ce0d7273", "is_reserved": 0, "rental_uris": {"android": "https://dc.lft.to/lastmile_qr_scan", "ios": "https://dc.lft.to/lastmile_qr_scan"}, "fusion_lon": 0.0}, {"lat": 38.92953833333333, "is_disabled": 0, "type": "electric_scooter", "lon": -76.9908965, "bike_id": "4cfb6a34059eab419cfacdeb0d6a38f7", "fusion_lat": 0.0, "name": "4cfb6a34059eab419cfacdeb0d6a38f7", "is_reserved": 0, "rental_uris": {"android": "https://dc.lft.to/lastmile_qr_scan", "ios": "https://dc.lft.to/lastmile_qr_scan"}, "fusion_lon": 0.0}, {"lat": 38.917792, "is_disabled": 0, "type": "electric_scooter", "lon": -77.02313283333334, "bike_id": "d824b96f8324b562d6ba23c0f085a920", "fusion_lat": 0.0, "name": "d824b96f8324b562d6ba23c0f085a920", "is_reserved": 0, "rental_uris": {"android": "https://dc.lft.to/lastmile_qr_scan", "ios": "https://dc.lft.to/lastmile_qr_scan"}, "fusion_lon": 0.0}, {"lat": 38.915179333333334, "is_disabled": 0, "type": "electric_scooter", "lon": -77.03841366666667, "bike_id": "66d7067af0c199f0181d450a3dfb30c3", "fusion_lat": 0.0, "name": "66d7067af0c199f0181d450a3dfb30c3", "is_reserved": 0, "rental_uris": {"android": "https://dc.lft.to/lastmile_qr_scan", "ios": "https://dc.lft.to/lastmile_qr_scan"}, "fusion_lon": 0.0}, {"lat": 38.892838166666664, "is_disabled": 0, "type": "electric_scooter", "lon": -76.95852766666667, "bike_id": "326dc77713893a05ce2297a726036527", "fusion_lat": 0.0, "name": "326dc77713893a05ce2297a726036527", "is_reserved": 0, "rental_uris": {"android": "https://dc.lft.to/lastmile_qr_scan", "ios": "https://dc.lft.to/lastmile_qr_scan"}, "fusion_lon": 0.0}, {"lat": 38.89999733333333, "is_disabled": 0, "type": "electric_scooter", "lon": -76.99955316666667, "bike_id": "21b63477233368510d96b70b172ca1dd", "fusion_lat": 0.0, "name": "21b63477233368510d96b70b172ca1dd", "is_reserved": 0, "rental_uris": {"android": "https://dc.lft.to/lastmile_qr_scan", "ios": "https://dc.lft.to/lastmile_qr_scan"}, "fusion_lon": 0.0}, {"lat": 38.88099166666667, "is_disabled": 0, "type": "electric_scooter", "lon": -76.99503333333334, "bike_id": "e87cb126f49d00e34083f6d791540af2", "fusion_lat": 0.0, "name": "e87cb126f49d00e34083f6d791540af2", "is_reserved": 0, "rental_uris": {"android": "https://dc.lft.to/lastmile_qr_scan", "ios": "https://dc.lft.to/lastmile_qr_scan"}, "fusion_lon": 0.0}, {"lat": 38.916773166666665, "is_disabled": 0, "type": "electric_scooter", "lon": -77.02975516666666, "bike_id": "b335f1d6ce040ab0366b8efe29bbccaf", "fusion_lat": 0.0, "name": "b335f1d6ce040ab0366b8efe29bbccaf", "is_reserved": 0, "rental_uris": {"android": "https://dc.lft.to/lastmile_qr_scan", "ios": "https://dc.lft.to/lastmile_qr_scan"}, "fusion_lon": 0.0}, {"lat": 38.89269816666667, "is_disabled": 0, "type": "electric_scooter", "lon": -77.0202485, "bike_id": "50866747f146d9ad26dafa8bdae79ff9", "fusion_lat": 0.0, "name": "50866747f146d9ad26dafa8bdae79ff9", "is_reserved": 0, "rental_uris": {"android": "https://dc.lft.to/lastmile_qr_scan", "ios": "https://dc.lft.to/lastmile_qr_scan"}, "fusion_lon": 0.0}, {"lat": 38.91547166666667, "is_disabled": 0, "type": "electric_scooter", "lon": -77.07420616666667, "bike_id": "123559d315e719362e6f031602d08e74", "fusion_lat": 0.0, "name": "123559d315e719362e6f031602d08e74", "is_reserved": 0, "rental_uris": {"android": "https://dc.lft.to/lastmile_qr_scan", "ios": "https://dc.lft.to/lastmile_qr_scan"}, "fusion_lon": 0.0}, {"lat": 38.902611, "is_disabled": 0, "type": "electric_scooter", "lon": -77.03955883333333, "bike_id": "5661265ca5e27dc1824c5b498e274ef7", "fusion_lat": 0.0, "name": "5661265ca5e27dc1824c5b498e274ef7", "is_reserved": 0, "rental_uris": {"android": "https://dc.lft.to/lastmile_qr_scan", "ios": "https://dc.lft.to/lastmile_qr_scan"}, "fusion_lon": 0.0}, {"lat": 38.988193833333334, "is_disabled": 0, "type": "electric_bike", "lon": -77.02655233333333, "bike_id": "cdbc0337ff1c2b19f1bf65e6ec6c1044", "fusion_lat": 0.0, "name": "cdbc0337ff1c2b19f1bf65e6ec6c1044", "is_reserved": 0, "rental_uris": {"android": "https://dc.lft.to/lastmile_qr_scan", "ios": "https://dc.lft.to/lastmile_qr_scan"}, "fusion_lon": 0.0}, {"lat": 38.924494333333335, "is_disabled": 0, "type": "electric_scooter", "lon": -77.04205583333334, "bike_id": "feed8107ea75bab9e786b35993942efb", "fusion_lat": 0.0, "name": "feed8107ea75bab9e786b35993942efb", "is_reserved": 0, "rental_uris": {"android": "https://dc.lft.to/lastmile_qr_scan", "ios": "https://dc.lft.to/lastmile_qr_scan"}, "fusion_lon": 0.0}, {"lat": 38.8968375, "is_disabled": 0, "type": "electric_scooter", "lon": -76.93609566666666, "bike_id": "c855e68ef81dd68ea0b36a3574fe4d5b", "fusion_lat": 0.0, "name": "c855e68ef81dd68ea0b36a3574fe4d5b", "is_reserved": 0, "rental_uris": {"android": "https://dc.lft.to/lastmile_qr_scan", "ios": "https://dc.lft.to/lastmile_qr_scan"}, "fusion_lon": 0.0}, {"lat": 38.9012765, "is_disabled": 0, "type": "electric_scooter", "lon": -77.01783483333334, "bike_id": "72c577c995d06f30aad901f9e0ab7ed9", "fusion_lat": 0.0, "name": "72c577c995d06f30aad901f9e0ab7ed9", "is_reserved": 0, "rental_uris": {"android": "https://dc.lft.to/lastmile_qr_scan", "ios": "https://dc.lft.to/lastmile_qr_scan"}, "fusion_lon": 0.0}, {"lat": 38.9309795, "is_disabled": 0, "type": "electric_scooter", "lon": -77.033994, "bike_id": "1ba51f9e7d690c45126135fda7de18b5", "fusion_lat": 0.0, "name": "1ba51f9e7d690c45126135fda7de18b5", "is_reserved": 0, "rental_uris": {"android": "https://dc.lft.to/lastmile_qr_scan", "ios": "https://dc.lft.to/lastmile_qr_scan"}, "fusion_lon": 0.0}, {"lat": 38.8845075, "is_disabled": 0, "type": "electric_scooter", "lon": -76.950951, "bike_id": "20d9864c3490cfdf951483f2badb03cc", "fusion_lat": 0.0, "name": "20d9864c3490cfdf951483f2badb03cc", "is_reserved": 0, "rental_uris": {"android": "https://dc.lft.to/lastmile_qr_scan", "ios": "https://dc.lft.to/lastmile_qr_scan"}, "fusion_lon": 0.0}, {"lat": 38.92118133333334, "is_disabled": 0, "type": "electric_scooter", "lon": -77.0417475, "bike_id": "e4537f0df6028bc5d8dc833916aab7c2", "fusion_lat": 0.0, "name": "e4537f0df6028bc5d8dc833916aab7c2", "is_reserved": 0, "rental_uris": {"android": "https://dc.lft.to/lastmile_qr_scan", "ios": "https://dc.lft.to/lastmile_qr_scan"}, "fusion_lon": 0.0}, {"lat": 38.948257166666664, "is_disabled": 0, "type": "electric_scooter", "lon": -76.999044, "bike_id": "e81703f4537043b5423e68d7e0ad619e", "fusion_lat": 0.0, "name": "e81703f4537043b5423e68d7e0ad619e", "is_reserved": 0, "rental_uris": {"android": "https://dc.lft.to/lastmile_qr_scan", "ios": "https://dc.lft.to/lastmile_qr_scan"}, "fusion_lon": 0.0}, {"lat": 38.9174925, "is_disabled": 0, "type": "electric_scooter", "lon": -77.03196183333333, "bike_id": "8cccbcbfda8aea4524ac24822ddcbcf1", "fusion_lat": 0.0, "name": "8cccbcbfda8aea4524ac24822ddcbcf1", "is_reserved": 0, "rental_uris": {"android": "https://dc.lft.to/lastmile_qr_scan", "ios": "https://dc.lft.to/lastmile_qr_scan"}, "fusion_lon": 0.0}, {"lat": 38.9446625, "is_disabled": 0, "type": "electric_scooter", "lon": -77.06032666666667, "bike_id": "e7542065078fa3946390dd33f7fe8540", "fusion_lat": 0.0, "name": "e7542065078fa3946390dd33f7fe8540", "is_reserved": 0, "rental_uris": {"android": "https://dc.lft.to/lastmile_qr_scan", "ios": "https://dc.lft.to/lastmile_qr_scan"}, "fusion_lon": 0.0}, {"lat": 38.9260675, "is_disabled": 0, "type": "electric_scooter", "lon": -77.0569235, "bike_id": "058ece84de2562a526c9d6e2dfb120bf", "fusion_lat": 0.0, "name": "058ece84de2562a526c9d6e2dfb120bf", "is_reserved": 0, "rental_uris": {"android": "https://dc.lft.to/lastmile_qr_scan", "ios": "https://dc.lft.to/lastmile_qr_scan"}, "fusion_lon": 0.0}, {"lat": 38.95401366666667, "is_disabled": 0, "type": "electric_scooter", "lon": -77.02746933333333, "bike_id": "fe863a33e7ef65032f79e889bad07851", "fusion_lat": 0.0, "name": "fe863a33e7ef65032f79e889bad07851", "is_reserved": 0, "rental_uris": {"android": "https://dc.lft.to/lastmile_qr_scan", "ios": "https://dc.lft.to/lastmile_qr_scan"}, "fusion_lon": 0.0}, {"lat": 38.88573433333333, "is_disabled": 0, "type": "electric_scooter", "lon": -76.91912133333334, "bike_id": "b93d60c983115940485b8203589f2a42", "fusion_lat": 0.0, "name": "b93d60c983115940485b8203589f2a42", "is_reserved": 0, "rental_uris": {"android": "https://dc.lft.to/lastmile_qr_scan", "ios": "https://dc.lft.to/lastmile_qr_scan"}, "fusion_lon": 0.0}, {"lat": 38.921796, "is_disabled": 0, "type": "electric_scooter", "lon": -77.04711916666666, "bike_id": "b142b99c68a6249a8691db8bd9680457", "fusion_lat": 0.0, "name": "b142b99c68a6249a8691db8bd9680457", "is_reserved": 0, "rental_uris": {"android": "https://dc.lft.to/lastmile_qr_scan", "ios": "https://dc.lft.to/lastmile_qr_scan"}, "fusion_lon": 0.0}, {"lat": 38.937483666666665, "is_disabled": 0, "type": "electric_scooter", "lon": -77.034664, "bike_id": "75bf02cf04c8f0a0fde9594d859eec00", "fusion_lat": 0.0, "name": "75bf02cf04c8f0a0fde9594d859eec00", "is_reserved": 0, "rental_uris": {"android": "https://dc.lft.to/lastmile_qr_scan", "ios": "https://dc.lft.to/lastmile_qr_scan"}, "fusion_lon": 0.0}, {"lat": 38.9274215, "is_disabled": 0, "type": "electric_scooter", "lon": -77.02591766666667, "bike_id": "575b4cc7ebcf3af1f486d8bd52650892", "fusion_lat": 0.0, "name": "575b4cc7ebcf3af1f486d8bd52650892", "is_reserved": 0, "rental_uris": {"android": "https://dc.lft.to/lastmile_qr_scan", "ios": "https://dc.lft.to/lastmile_qr_scan"}, "fusion_lon": 0.0}, {"lat": 38.92092816666667, "is_disabled": 0, "type": "electric_scooter", "lon": -77.042018, "bike_id": "c0062d70c72645daafb796d4625b75b1", "fusion_lat": 0.0, "name": "c0062d70c72645daafb796d4625b75b1", "is_reserved": 0, "rental_uris": {"android": "https://dc.lft.to/lastmile_qr_scan", "ios": "https://dc.lft.to/lastmile_qr_scan"}, "fusion_lon": 0.0}, {"lat": 38.917459, "is_disabled": 0, "type": "electric_scooter", "lon": -77.03602566666666, "bike_id": "ab4e2b79ce450553604e706749714c61", "fusion_lat": 0.0, "name": "ab4e2b79ce450553604e706749714c61", "is_reserved": 0, "rental_uris": {"android": "https://dc.lft.to/lastmile_qr_scan", "ios": "https://dc.lft.to/lastmile_qr_scan"}, "fusion_lon": 0.0}, {"lat": 38.898572, "is_disabled": 0, "type": "electric_scooter", "lon": -76.98186216666667, "bike_id": "b3bb17bcb7d473425cb72684791d6eb5", "fusion_lat": 0.0, "name": "b3bb17bcb7d473425cb72684791d6eb5", "is_reserved": 0, "rental_uris": {"android": "https://dc.lft.to/lastmile_qr_scan", "ios": "https://dc.lft.to/lastmile_qr_scan"}, "fusion_lon": 0.0}, {"lat": 38.922476333333336, "is_disabled": 0, "type": "electric_scooter", "lon": -77.030843, "bike_id": "060a605f73ce3ef7a8dbe9b06544d57e", "fusion_lat": 0.0, "name": "060a605f73ce3ef7a8dbe9b06544d57e", "is_reserved": 0, "rental_uris": {"android": "https://dc.lft.to/lastmile_qr_scan", "ios": "https://dc.lft.to/lastmile_qr_scan"}, "fusion_lon": 0.0}, {"lat": 38.902558666666664, "is_disabled": 0, "type": "electric_scooter", "lon": -77.02828783333334, "bike_id": "809f31e11e175b7c20a8f1015707e3e2", "fusion_lat": 0.0, "name": "809f31e11e175b7c20a8f1015707e3e2", "is_reserved": 0, "rental_uris": {"android": "https://dc.lft.to/lastmile_qr_scan", "ios": "https://dc.lft.to/lastmile_qr_scan"}, "fusion_lon": 0.0}, {"lat": 38.89719566666667, "is_disabled": 0, "type": "electric_scooter", "lon": -77.00802683333333, "bike_id": "6504b9d48b0cd65cf499664e1951ebb1", "fusion_lat": 0.0, "name": "6504b9d48b0cd65cf499664e1951ebb1", "is_reserved": 0, "rental_uris": {"android": "https://dc.lft.to/lastmile_qr_scan", "ios": "https://dc.lft.to/lastmile_qr_scan"}, "fusion_lon": 0.0}, {"lat": 38.93093783333333, "is_disabled": 0, "type": "electric_bike", "lon": -77.03117133333333, "bike_id": "ee6f222dc10d5e163cf55c4cfa886eda", "fusion_lat": 0.0, "name": "ee6f222dc10d5e163cf55c4cfa886eda", "is_reserved": 0, "rental_uris": {"android": "https://dc.lft.to/lastmile_qr_scan", "ios": "https://dc.lft.to/lastmile_qr_scan"}, "fusion_lon": 0.0}, {"lat": 38.945882, "is_disabled": 0, "type": "electric_scooter", "lon": -77.06457666666667, "bike_id": "bb91c106697ca4cc242608c95d20dc0f", "fusion_lat": 0.0, "name": "bb91c106697ca4cc242608c95d20dc0f", "is_reserved": 0, "rental_uris": {"android": "https://dc.lft.to/lastmile_qr_scan", "ios": "https://dc.lft.to/lastmile_qr_scan"}, "fusion_lon": 0.0}, {"lat": 38.9057945, "is_disabled": 0, "type": "electric_scooter", "lon": -77.02945516666666, "bike_id": "a85e5a78ded0052cb23e44726f6cb838", "fusion_lat": 0.0, "name": "a85e5a78ded0052cb23e44726f6cb838", "is_reserved": 0, "rental_uris": {"android": "https://dc.lft.to/lastmile_qr_scan", "ios": "https://dc.lft.to/lastmile_qr_scan"}, "fusion_lon": 0.0}, {"lat": 38.910494666666665, "is_disabled": 0, "type": "electric_scooter", "lon": -77.015117, "bike_id": "711bc9affd18d1a54e13990ddc304c64", "fusion_lat": 0.0, "name": "711bc9affd18d1a54e13990ddc304c64", "is_reserved": 0, "rental_uris": {"android": "https://dc.lft.to/lastmile_qr_scan", "ios": "https://dc.lft.to/lastmile_qr_scan"}, "fusion_lon": 0.0}, {"lat": 38.954021833333336, "is_disabled": 0, "type": "electric_scooter", "lon": -77.0362905, "bike_id": "90198605a541db8b59b63bfba2cfab11", "fusion_lat": 0.0, "name": "90198605a541db8b59b63bfba2cfab11", "is_reserved": 0, "rental_uris": {"android": "https://dc.lft.to/lastmile_qr_scan", "ios": "https://dc.lft.to/lastmile_qr_scan"}, "fusion_lon": 0.0}, {"lat": 38.90556316666667, "is_disabled": 0, "type": "electric_scooter", "lon": -77.034082, "bike_id": "800266cd4410ac55ea44b86723095176", "fusion_lat": 0.0, "name": "800266cd4410ac55ea44b86723095176", "is_reserved": 0, "rental_uris": {"android": "https://dc.lft.to/lastmile_qr_scan", "ios": "https://dc.lft.to/lastmile_qr_scan"}, "fusion_lon": 0.0}, {"lat": 38.922034833333335, "is_disabled": 0, "type": "electric_scooter", "lon": -77.0401375, "bike_id": "1e13a655aab97358c0f42989be8cb868", "fusion_lat": 0.0, "name": "1e13a655aab97358c0f42989be8cb868", "is_reserved": 0, "rental_uris": {"android": "https://dc.lft.to/lastmile_qr_scan", "ios": "https://dc.lft.to/lastmile_qr_scan"}, "fusion_lon": 0.0}, {"lat": 38.903711333333334, "is_disabled": 0, "type": "electric_scooter", "lon": -77.04344483333334, "bike_id": "52d46d5d5c8ae2d2353fd31823dc5a1c", "fusion_lat": 0.0, "name": "52d46d5d5c8ae2d2353fd31823dc5a1c", "is_reserved": 0, "rental_uris": {"android": "https://dc.lft.to/lastmile_qr_scan", "ios": "https://dc.lft.to/lastmile_qr_scan"}, "fusion_lon": 0.0}, {"lat": 38.8690995, "is_disabled": 0, "type": "electric_bike", "lon": -77.13182616666667, "bike_id": "98da707e1394a18e3b6938b3bc88d961", "fusion_lat": 0.0, "name": "98da707e1394a18e3b6938b3bc88d961", "is_reserved": 0, "rental_uris": {"android": "https://dc.lft.to/lastmile_qr_scan", "ios": "https://dc.lft.to/lastmile_qr_scan"}, "fusion_lon": 0.0}, {"lat": 38.91477583333333, "is_disabled": 0, "type": "electric_scooter", "lon": -77.032455, "bike_id": "e72b3824a9722a5e899c76233f6658f4", "fusion_lat": 0.0, "name": "e72b3824a9722a5e899c76233f6658f4", "is_reserved": 0, "rental_uris": {"android": "https://dc.lft.to/lastmile_qr_scan", "ios": "https://dc.lft.to/lastmile_qr_scan"}, "fusion_lon": 0.0}, {"lat": 38.88599416666667, "is_disabled": 0, "type": "electric_scooter", "lon": -77.02206916666667, "bike_id": "a1db26857ae1f7d2c31731dea2cece3c", "fusion_lat": 0.0, "name": "a1db26857ae1f7d2c31731dea2cece3c", "is_reserved": 0, "rental_uris": {"android": "https://dc.lft.to/lastmile_qr_scan", "ios": "https://dc.lft.to/lastmile_qr_scan"}, "fusion_lon": 0.0}, {"lat": 38.931733333333334, "is_disabled": 0, "type": "electric_scooter", "lon": -77.02817216666666, "bike_id": "48cf88b0ac9703a48443ae3e3242ae1a", "fusion_lat": 0.0, "name": "48cf88b0ac9703a48443ae3e3242ae1a", "is_reserved": 0, "rental_uris": {"android": "https://dc.lft.to/lastmile_qr_scan", "ios": "https://dc.lft.to/lastmile_qr_scan"}, "fusion_lon": 0.0}, {"lat": 38.890451, "is_disabled": 0, "type": "electric_scooter", "lon": -76.9514055, "bike_id": "3aa205b417cba069b023fc7b36aa758c", "fusion_lat": 0.0, "name": "3aa205b417cba069b023fc7b36aa758c", "is_reserved": 0, "rental_uris": {"android": "https://dc.lft.to/lastmile_qr_scan", "ios": "https://dc.lft.to/lastmile_qr_scan"}, "fusion_lon": 0.0}, {"lat": 38.906509, "is_disabled": 0, "type": "electric_scooter", "lon": -77.0259355, "bike_id": "d2fdde45c617e60704ac0e3563aef8b8", "fusion_lat": 0.0, "name": "d2fdde45c617e60704ac0e3563aef8b8", "is_reserved": 0, "rental_uris": {"android": "https://dc.lft.to/lastmile_qr_scan", "ios": "https://dc.lft.to/lastmile_qr_scan"}, "fusion_lon": 0.0}, {"lat": 38.91780083333333, "is_disabled": 0, "type": "electric_scooter", "lon": -77.02311733333333, "bike_id": "09654830571a55b3924fdf58bad4da61", "fusion_lat": 0.0, "name": "09654830571a55b3924fdf58bad4da61", "is_reserved": 0, "rental_uris": {"android": "https://dc.lft.to/lastmile_qr_scan", "ios": "https://dc.lft.to/lastmile_qr_scan"}, "fusion_lon": 0.0}, {"lat": 38.916113833333334, "is_disabled": 0, "type": "electric_scooter", "lon": -77.021341, "bike_id": "886cbd576f6cc32e40b01e645ff71240", "fusion_lat": 0.0, "name": "886cbd576f6cc32e40b01e645ff71240", "is_reserved": 0, "rental_uris": {"android": "https://dc.lft.to/lastmile_qr_scan", "ios": "https://dc.lft.to/lastmile_qr_scan"}, "fusion_lon": 0.0}, {"lat": 38.907734, "is_disabled": 0, "type": "electric_scooter", "lon": -77.04251733333334, "bike_id": "5e5629f34dc068babba72344295eea39", "fusion_lat": 0.0, "name": "5e5629f34dc068babba72344295eea39", "is_reserved": 0, "rental_uris": {"android": "https://dc.lft.to/lastmile_qr_scan", "ios": "https://dc.lft.to/lastmile_qr_scan"}, "fusion_lon": 0.0}, {"lat": 38.8403525, "is_disabled": 0, "type": "electric_bike", "lon": -76.976197, "bike_id": "ee8f2a5f83bbdb3300f9e2a02a5904f6", "fusion_lat": 0.0, "name": "ee8f2a5f83bbdb3300f9e2a02a5904f6", "is_reserved": 0, "rental_uris": {"android": "https://dc.lft.to/lastmile_qr_scan", "ios": "https://dc.lft.to/lastmile_qr_scan"}, "fusion_lon": 0.0}, {"lat": 38.920052166666665, "is_disabled": 0, "type": "electric_scooter", "lon": -77.02056566666667, "bike_id": "2c70b6219ce38050c329853115584147", "fusion_lat": 0.0, "name": "2c70b6219ce38050c329853115584147", "is_reserved": 0, "rental_uris": {"android": "https://dc.lft.to/lastmile_qr_scan", "ios": "https://dc.lft.to/lastmile_qr_scan"}, "fusion_lon": 0.0}, {"lat": 39.02934966666667, "is_disabled": 0, "type": "electric_bike", "lon": -77.04928716666667, "bike_id": "0c92ac4fa2bf435bdaecc52dfa68b3ea", "fusion_lat": 0.0, "name": "0c92ac4fa2bf435bdaecc52dfa68b3ea", "is_reserved": 0, "rental_uris": {"android": "https://dc.lft.to/lastmile_qr_scan", "ios": "https://dc.lft.to/lastmile_qr_scan"}, "fusion_lon": 0.0}, {"lat": 38.905660833333336, "is_disabled": 0, "type": "electric_scooter", "lon": -77.0297845, "bike_id": "4b6fa516df0bb1a39dbee618ace1b08d", "fusion_lat": 0.0, "name": "4b6fa516df0bb1a39dbee618ace1b08d", "is_reserved": 0, "rental_uris": {"android": "https://dc.lft.to/lastmile_qr_scan", "ios": "https://dc.lft.to/lastmile_qr_scan"}, "fusion_lon": 0.0}, {"lat": 38.934365166666666, "is_disabled": 0, "type": "electric_scooter", "lon": -77.03441033333333, "bike_id": "55f93c3af5b5a31b8a80ebd1c57afca6", "fusion_lat": 0.0, "name": "55f93c3af5b5a31b8a80ebd1c57afca6", "is_reserved": 0, "rental_uris": {"android": "https://dc.lft.to/lastmile_qr_scan", "ios": "https://dc.lft.to/lastmile_qr_scan"}, "fusion_lon": 0.0}, {"lat": 38.95327416666667, "is_disabled": 0, "type": "electric_scooter", "lon": -77.02752166666667, "bike_id": "e0ca5106d15598e6727d1b6aaad8682e", "fusion_lat": 0.0, "name": "e0ca5106d15598e6727d1b6aaad8682e", "is_reserved": 0, "rental_uris": {"android": "https://dc.lft.to/lastmile_qr_scan", "ios": "https://dc.lft.to/lastmile_qr_scan"}, "fusion_lon": 0.0}, {"lat": 38.94088633333333, "is_disabled": 0, "type": "electric_bike", "lon": -77.04658183333333, "bike_id": "4474fec85511090dff5f0f657ba65889", "fusion_lat": 0.0, "name": "4474fec85511090dff5f0f657ba65889", "is_reserved": 0, "rental_uris": {"android": "https://dc.lft.to/lastmile_qr_scan", "ios": "https://dc.lft.to/lastmile_qr_scan"}, "fusion_lon": 0.0}, {"lat": 38.8846865, "is_disabled": 0, "type": "electric_scooter", "lon": -76.99261083333333, "bike_id": "8615e87f90a18da59a7265c6f0b2f4b3", "fusion_lat": 0.0, "name": "8615e87f90a18da59a7265c6f0b2f4b3", "is_reserved": 0, "rental_uris": {"android": "https://dc.lft.to/lastmile_qr_scan", "ios": "https://dc.lft.to/lastmile_qr_scan"}, "fusion_lon": 0.0}, {"lat": 38.92155566666667, "is_disabled": 0, "type": "electric_scooter", "lon": -77.0351005, "bike_id": "84eca452c1e668ee10dd00ae64ac8bce", "fusion_lat": 0.0, "name": "84eca452c1e668ee10dd00ae64ac8bce", "is_reserved": 0, "rental_uris": {"android": "https://dc.lft.to/lastmile_qr_scan", "ios": "https://dc.lft.to/lastmile_qr_scan"}, "fusion_lon": 0.0}, {"lat": 38.88987816666667, "is_disabled": 0, "type": "electric_scooter", "lon": -77.00336616666667, "bike_id": "6e0b6ef2fc55a5091b80f80b679474a0", "fusion_lat": 0.0, "name": "6e0b6ef2fc55a5091b80f80b679474a0", "is_reserved": 0, "rental_uris": {"android": "https://dc.lft.to/lastmile_qr_scan", "ios": "https://dc.lft.to/lastmile_qr_scan"}, "fusion_lon": 0.0}, {"lat": 38.9602115, "is_disabled": 0, "type": "electric_bike", "lon": -77.01726883333333, "bike_id": "0b2bbf5c1c3cf8daed63b5af76afe61d", "fusion_lat": 0.0, "name": "0b2bbf5c1c3cf8daed63b5af76afe61d", "is_reserved": 0, "rental_uris": {"android": "https://dc.lft.to/lastmile_qr_scan", "ios": "https://dc.lft.to/lastmile_qr_scan"}, "fusion_lon": 0.0}, {"lat": 38.87292716666666, "is_disabled": 0, "type": "electric_scooter", "lon": -77.0093185, "bike_id": "471186d17465fda0d45d97df2d669c4a", "fusion_lat": 0.0, "name": "471186d17465fda0d45d97df2d669c4a", "is_reserved": 0, "rental_uris": {"android": "https://dc.lft.to/lastmile_qr_scan", "ios": "https://dc.lft.to/lastmile_qr_scan"}, "fusion_lon": 0.0}, {"lat": 38.80755716666667, "is_disabled": 0, "type": "electric_bike", "lon": -77.09452866666666, "bike_id": "51d0a4ca44e8e12ab4af68db7d38d3a7", "fusion_lat": 0.0, "name": "51d0a4ca44e8e12ab4af68db7d38d3a7", "is_reserved": 0, "rental_uris": {"android": "https://dc.lft.to/lastmile_qr_scan", "ios": "https://dc.lft.to/lastmile_qr_scan"}, "fusion_lon": 0.0}, {"lat": 38.88491633333334, "is_disabled": 0, "type": "electric_scooter", "lon": -77.00711766666667, "bike_id": "68ef2aa5c3e63728b60187934ca10b8c", "fusion_lat": 0.0, "name": "68ef2aa5c3e63728b60187934ca10b8c", "is_reserved": 0, "rental_uris": {"android": "https://dc.lft.to/lastmile_qr_scan", "ios": "https://dc.lft.to/lastmile_qr_scan"}, "fusion_lon": 0.0}, {"lat": 39.030457166666665, "is_disabled": 0, "type": "electric_bike", "lon": -77.094763, "bike_id": "6d288be69fe4f61a934e8e5b0fe16162", "fusion_lat": 0.0, "name": "6d288be69fe4f61a934e8e5b0fe16162", "is_reserved": 0, "rental_uris": {"android": "https://dc.lft.to/lastmile_qr_scan", "ios": "https://dc.lft.to/lastmile_qr_scan"}, "fusion_lon": 0.0}, {"lat": 38.91605, "is_disabled": 0, "type": "electric_scooter", "lon": -77.038609, "bike_id": "20f2ffc575527cb726a6ef547d036079", "fusion_lat": 0.0, "name": "20f2ffc575527cb726a6ef547d036079", "is_reserved": 0, "rental_uris": {"android": "https://dc.lft.to/lastmile_qr_scan", "ios": "https://dc.lft.to/lastmile_qr_scan"}, "fusion_lon": 0.0}, {"lat": 38.90779216666667, "is_disabled": 0, "type": "electric_scooter", "lon": -77.03545483333333, "bike_id": "723eec897ad51e565ec588d7bd7f7c82", "fusion_lat": 0.0, "name": "723eec897ad51e565ec588d7bd7f7c82", "is_reserved": 0, "rental_uris": {"android": "https://dc.lft.to/lastmile_qr_scan", "ios": "https://dc.lft.to/lastmile_qr_scan"}, "fusion_lon": 0.0}, {"lat": 38.87563983333333, "is_disabled": 0, "type": "electric_scooter", "lon": -77.02077533333333, "bike_id": "333ff5cada2dcd9ceeae6d9782551cba", "fusion_lat": 0.0, "name": "333ff5cada2dcd9ceeae6d9782551cba", "is_reserved": 0, "rental_uris": {"android": "https://dc.lft.to/lastmile_qr_scan", "ios": "https://dc.lft.to/lastmile_qr_scan"}, "fusion_lon": 0.0}, {"lat": 38.903657833333334, "is_disabled": 0, "type": "electric_scooter", "lon": -77.0385065, "bike_id": "7146f486daa6a3bef04e1076b0be8f9c", "fusion_lat": 0.0, "name": "7146f486daa6a3bef04e1076b0be8f9c", "is_reserved": 0, "rental_uris": {"android": "https://dc.lft.to/lastmile_qr_scan", "ios": "https://dc.lft.to/lastmile_qr_scan"}, "fusion_lon": 0.0}, {"lat": 38.9171045, "is_disabled": 0, "type": "electric_scooter", "lon": -77.03863183333333, "bike_id": "6af94c0008157b8b744946c0a4d6b3d4", "fusion_lat": 0.0, "name": "6af94c0008157b8b744946c0a4d6b3d4", "is_reserved": 0, "rental_uris": {"android": "https://dc.lft.to/lastmile_qr_scan", "ios": "https://dc.lft.to/lastmile_qr_scan"}, "fusion_lon": 0.0}, {"lat": 38.907749833333334, "is_disabled": 0, "type": "electric_scooter", "lon": -77.038597, "bike_id": "7730926b760be42b768b8cf4ca80fe71", "fusion_lat": 0.0, "name": "7730926b760be42b768b8cf4ca80fe71", "is_reserved": 0, "rental_uris": {"android": "https://dc.lft.to/lastmile_qr_scan", "ios": "https://dc.lft.to/lastmile_qr_scan"}, "fusion_lon": 0.0}, {"lat": 38.91711433333333, "is_disabled": 0, "type": "electric_scooter", "lon": -77.03731916666666, "bike_id": "c531fb4ca6e79a199f06401c9428c15c", "fusion_lat": 0.0, "name": "c531fb4ca6e79a199f06401c9428c15c", "is_reserved": 0, "rental_uris": {"android": "https://dc.lft.to/lastmile_qr_scan", "ios": "https://dc.lft.to/lastmile_qr_scan"}, "fusion_lon": 0.0}, {"lat": 38.93839783333333, "is_disabled": 0, "type": "electric_bike", "lon": -76.98860683333334, "bike_id": "f6e98fa1a1a8e1a4fcadb5dadc6e0b55", "fusion_lat": 0.0, "name": "f6e98fa1a1a8e1a4fcadb5dadc6e0b55", "is_reserved": 0, "rental_uris": {"android": "https://dc.lft.to/lastmile_qr_scan", "ios": "https://dc.lft.to/lastmile_qr_scan"}, "fusion_lon": 0.0}, {"lat": 38.8851305, "is_disabled": 0, "type": "electric_scooter", "lon": -77.00680833333334, "bike_id": "0f05ccc6f484cd8beae00fb7b8f2ed2c", "fusion_lat": 0.0, "name": "0f05ccc6f484cd8beae00fb7b8f2ed2c", "is_reserved": 0, "rental_uris": {"android": "https://dc.lft.to/lastmile_qr_scan", "ios": "https://dc.lft.to/lastmile_qr_scan"}, "fusion_lon": 0.0}, {"lat": 38.92748816666667, "is_disabled": 0, "type": "electric_scooter", "lon": -76.99727283333333, "bike_id": "9454ca41cd063d81e35785dacb4ad3b5", "fusion_lat": 0.0, "name": "9454ca41cd063d81e35785dacb4ad3b5", "is_reserved": 0, "rental_uris": {"android": "https://dc.lft.to/lastmile_qr_scan", "ios": "https://dc.lft.to/lastmile_qr_scan"}, "fusion_lon": 0.0}, {"lat": 38.863654333333336, "is_disabled": 0, "type": "electric_scooter", "lon": -76.9903425, "bike_id": "4a8f47c3663c2da28e8e1f2e93d63508", "fusion_lat": 0.0, "name": "4a8f47c3663c2da28e8e1f2e93d63508", "is_reserved": 0, "rental_uris": {"android": "https://dc.lft.to/lastmile_qr_scan", "ios": "https://dc.lft.to/lastmile_qr_scan"}, "fusion_lon": 0.0}, {"lat": 38.91120266666667, "is_disabled": 0, "type": "electric_scooter", "lon": -77.04256216666667, "bike_id": "d884dd4ed47a49e37a59f77fb0231190", "fusion_lat": 0.0, "name": "d884dd4ed47a49e37a59f77fb0231190", "is_reserved": 0, "rental_uris": {"android": "https://dc.lft.to/lastmile_qr_scan", "ios": "https://dc.lft.to/lastmile_qr_scan"}, "fusion_lon": 0.0}, {"lat": 38.93204216666667, "is_disabled": 0, "type": "electric_scooter", "lon": -77.04427483333333, "bike_id": "a18d5d7c72bfeab296dd22ee1031f8cc", "fusion_lat": 0.0, "name": "a18d5d7c72bfeab296dd22ee1031f8cc", "is_reserved": 0, "rental_uris": {"android": "https://dc.lft.to/lastmile_qr_scan", "ios": "https://dc.lft.to/lastmile_qr_scan"}, "fusion_lon": 0.0}, {"lat": 38.899027833333335, "is_disabled": 0, "type": "electric_scooter", "lon": -77.00740766666667, "bike_id": "0f87265a06718adf2efc45f87d326462", "fusion_lat": 0.0, "name": "0f87265a06718adf2efc45f87d326462", "is_reserved": 0, "rental_uris": {"android": "https://dc.lft.to/lastmile_qr_scan", "ios": "https://dc.lft.to/lastmile_qr_scan"}, "fusion_lon": 0.0}, {"lat": 38.90215633333333, "is_disabled": 0, "type": "electric_scooter", "lon": -77.05330866666667, "bike_id": "c4f566022afb7a163f75da41fe3f1441", "fusion_lat": 0.0, "name": "c4f566022afb7a163f75da41fe3f1441", "is_reserved": 0, "rental_uris": {"android": "https://dc.lft.to/lastmile_qr_scan", "ios": "https://dc.lft.to/lastmile_qr_scan"}, "fusion_lon": 0.0}, {"lat": 38.901956166666665, "is_disabled": 0, "type": "electric_scooter", "lon": -77.02172566666667, "bike_id": "8f5597b64192d6a32d3fc26b007d97a4", "fusion_lat": 0.0, "name": "8f5597b64192d6a32d3fc26b007d97a4", "is_reserved": 0, "rental_uris": {"android": "https://dc.lft.to/lastmile_qr_scan", "ios": "https://dc.lft.to/lastmile_qr_scan"}, "fusion_lon": 0.0}, {"lat": 38.876281666666664, "is_disabled": 0, "type": "electric_scooter", "lon": -76.96525833333334, "bike_id": "0e2d3d1b185c5e790f092f8a3771713a", "fusion_lat": 0.0, "name": "0e2d3d1b185c5e790f092f8a3771713a", "is_reserved": 0, "rental_uris": {"android": "https://dc.lft.to/lastmile_qr_scan", "ios": "https://dc.lft.to/lastmile_qr_scan"}, "fusion_lon": 0.0}, {"lat": 38.94074833333333, "is_disabled": 0, "type": "electric_scooter", "lon": -77.06137666666666, "bike_id": "df2acb0a49f2f0c1fec335425b1e843a", "fusion_lat": 0.0, "name": "df2acb0a49f2f0c1fec335425b1e843a", "is_reserved": 0, "rental_uris": {"android": "https://dc.lft.to/lastmile_qr_scan", "ios": "https://dc.lft.to/lastmile_qr_scan"}, "fusion_lon": 0.0}, {"lat": 38.931103666666665, "is_disabled": 0, "type": "electric_scooter", "lon": -77.03511733333333, "bike_id": "1e895651362f3261cea404535761efb2", "fusion_lat": 0.0, "name": "1e895651362f3261cea404535761efb2", "is_reserved": 0, "rental_uris": {"android": "https://dc.lft.to/lastmile_qr_scan", "ios": "https://dc.lft.to/lastmile_qr_scan"}, "fusion_lon": 0.0}, {"lat": 38.936274, "is_disabled": 0, "type": "electric_scooter", "lon": -77.02455216666667, "bike_id": "852c946d5bfdc70f9e2b4f8ec4ea45ec", "fusion_lat": 0.0, "name": "852c946d5bfdc70f9e2b4f8ec4ea45ec", "is_reserved": 0, "rental_uris": {"android": "https://dc.lft.to/lastmile_qr_scan", "ios": "https://dc.lft.to/lastmile_qr_scan"}, "fusion_lon": 0.0}, {"lat": 38.91481533333334, "is_disabled": 0, "type": "electric_scooter", "lon": -76.9836255, "bike_id": "61b243a438984ae84a274e83c1024628", "fusion_lat": 0.0, "name": "61b243a438984ae84a274e83c1024628", "is_reserved": 0, "rental_uris": {"android": "https://dc.lft.to/lastmile_qr_scan", "ios": "https://dc.lft.to/lastmile_qr_scan"}, "fusion_lon": 0.0}, {"lat": 38.92479316666667, "is_disabled": 0, "type": "electric_scooter", "lon": -77.02834833333333, "bike_id": "0869503601050812dc87bc459f8d039f", "fusion_lat": 0.0, "name": "0869503601050812dc87bc459f8d039f", "is_reserved": 0, "rental_uris": {"android": "https://dc.lft.to/lastmile_qr_scan", "ios": "https://dc.lft.to/lastmile_qr_scan"}, "fusion_lon": 0.0}, {"lat": 38.906767, "is_disabled": 0, "type": "electric_scooter", "lon": -77.06271466666666, "bike_id": "97f401962caf3afbe8de2ed4eacda501", "fusion_lat": 0.0, "name": "97f401962caf3afbe8de2ed4eacda501", "is_reserved": 0, "rental_uris": {"android": "https://dc.lft.to/lastmile_qr_scan", "ios": "https://dc.lft.to/lastmile_qr_scan"}, "fusion_lon": 0.0}, {"lat": 38.844258833333335, "is_disabled": 0, "type": "electric_scooter", "lon": -76.99778516666666, "bike_id": "30e381f23a65a1da384fcc31047d0fec", "fusion_lat": 0.0, "name": "30e381f23a65a1da384fcc31047d0fec", "is_reserved": 0, "rental_uris": {"android": "https://dc.lft.to/lastmile_qr_scan", "ios": "https://dc.lft.to/lastmile_qr_scan"}, "fusion_lon": 0.0}, {"lat": 38.986582, "is_disabled": 0, "type": "electric_bike", "lon": -77.0563765, "bike_id": "8d8a762141055aca4116960e92276146", "fusion_lat": 0.0, "name": "8d8a762141055aca4116960e92276146", "is_reserved": 0, "rental_uris": {"android": "https://dc.lft.to/lastmile_qr_scan", "ios": "https://dc.lft.to/lastmile_qr_scan"}, "fusion_lon": 0.0}, {"lat": 38.874677166666665, "is_disabled": 0, "type": "electric_scooter", "lon": -77.00519666666666, "bike_id": "c891570afda5e99acfcdb45f63a194f0", "fusion_lat": 0.0, "name": "c891570afda5e99acfcdb45f63a194f0", "is_reserved": 0, "rental_uris": {"android": "https://dc.lft.to/lastmile_qr_scan", "ios": "https://dc.lft.to/lastmile_qr_scan"}, "fusion_lon": 0.0}, {"lat": 38.90773433333333, "is_disabled": 0, "type": "electric_scooter", "lon": -77.0386145, "bike_id": "f58ba3e30a9c363b0493ffbdb37a611a", "fusion_lat": 0.0, "name": "f58ba3e30a9c363b0493ffbdb37a611a", "is_reserved": 0, "rental_uris": {"android": "https://dc.lft.to/lastmile_qr_scan", "ios": "https://dc.lft.to/lastmile_qr_scan"}, "fusion_lon": 0.0}, {"lat": 38.9147545, "is_disabled": 0, "type": "electric_scooter", "lon": -77.0036485, "bike_id": "4ac075d261c8eba189414c8efc190caf", "fusion_lat": 0.0, "name": "4ac075d261c8eba189414c8efc190caf", "is_reserved": 0, "rental_uris": {"android": "https://dc.lft.to/lastmile_qr_scan", "ios": "https://dc.lft.to/lastmile_qr_scan"}, "fusion_lon": 0.0}, {"lat": 38.92193616666667, "is_disabled": 0, "type": "electric_scooter", "lon": -77.03980883333334, "bike_id": "fdc91e4440dc309c36c6e84dedfe1794", "fusion_lat": 0.0, "name": "fdc91e4440dc309c36c6e84dedfe1794", "is_reserved": 0, "rental_uris": {"android": "https://dc.lft.to/lastmile_qr_scan", "ios": "https://dc.lft.to/lastmile_qr_scan"}, "fusion_lon": 0.0}, {"lat": 38.914535666666666, "is_disabled": 0, "type": "electric_scooter", "lon": -77.03210566666667, "bike_id": "c836c16f460f9c8254358e0b1b83be32", "fusion_lat": 0.0, "name": "c836c16f460f9c8254358e0b1b83be32", "is_reserved": 0, "rental_uris": {"android": "https://dc.lft.to/lastmile_qr_scan", "ios": "https://dc.lft.to/lastmile_qr_scan"}, "fusion_lon": 0.0}, {"lat": 38.894998666666666, "is_disabled": 0, "type": "electric_scooter", "lon": -77.02209216666667, "bike_id": "16d376a30e01e65e167d0bdeb5654e75", "fusion_lat": 0.0, "name": "16d376a30e01e65e167d0bdeb5654e75", "is_reserved": 0, "rental_uris": {"android": "https://dc.lft.to/lastmile_qr_scan", "ios": "https://dc.lft.to/lastmile_qr_scan"}, "fusion_lon": 0.0}, {"lat": 38.91928016666667, "is_disabled": 0, "type": "electric_scooter", "lon": -77.0337405, "bike_id": "464ff2aa36f50b056e7b8c235cb27a99", "fusion_lat": 0.0, "name": "464ff2aa36f50b056e7b8c235cb27a99", "is_reserved": 0, "rental_uris": {"android": "https://dc.lft.to/lastmile_qr_scan", "ios": "https://dc.lft.to/lastmile_qr_scan"}, "fusion_lon": 0.0}, {"lat": 38.9540685, "is_disabled": 0, "type": "electric_scooter", "lon": -77.0274795, "bike_id": "751f8673b8521c3558ded3f78e284086", "fusion_lat": 0.0, "name": "751f8673b8521c3558ded3f78e284086", "is_reserved": 0, "rental_uris": {"android": "https://dc.lft.to/lastmile_qr_scan", "ios": "https://dc.lft.to/lastmile_qr_scan"}, "fusion_lon": 0.0}, {"lat": 38.93358833333333, "is_disabled": 0, "type": "electric_scooter", "lon": -77.02496716666667, "bike_id": "57859e9aae1fb237546453178c97907a", "fusion_lat": 0.0, "name": "57859e9aae1fb237546453178c97907a", "is_reserved": 0, "rental_uris": {"android": "https://dc.lft.to/lastmile_qr_scan", "ios": "https://dc.lft.to/lastmile_qr_scan"}, "fusion_lon": 0.0}, {"lat": 38.80269766666667, "is_disabled": 0, "type": "electric_bike", "lon": -77.0811195, "bike_id": "057d053c128b1dc5903b97f7e41b63a1", "fusion_lat": 0.0, "name": "057d053c128b1dc5903b97f7e41b63a1", "is_reserved": 0, "rental_uris": {"android": "https://dc.lft.to/lastmile_qr_scan", "ios": "https://dc.lft.to/lastmile_qr_scan"}, "fusion_lon": 0.0}, {"lat": 38.93861783333333, "is_disabled": 0, "type": "electric_scooter", "lon": -77.02323683333333, "bike_id": "76333cde7935537f1a2210317aa33bb9", "fusion_lat": 0.0, "name": "76333cde7935537f1a2210317aa33bb9", "is_reserved": 0, "rental_uris": {"android": "https://dc.lft.to/lastmile_qr_scan", "ios": "https://dc.lft.to/lastmile_qr_scan"}, "fusion_lon": 0.0}, {"lat": 38.9206105, "is_disabled": 0, "type": "electric_scooter", "lon": -77.02373283333333, "bike_id": "3373a5aee8526a3d03de605cf8829ad0", "fusion_lat": 0.0, "name": "3373a5aee8526a3d03de605cf8829ad0", "is_reserved": 0, "rental_uris": {"android": "https://dc.lft.to/lastmile_qr_scan", "ios": "https://dc.lft.to/lastmile_qr_scan"}, "fusion_lon": 0.0}, {"lat": 38.8625615, "is_disabled": 0, "type": "electric_scooter", "lon": -76.9951595, "bike_id": "8e7286dd3d21c8375ad745e4525c5218", "fusion_lat": 0.0, "name": "8e7286dd3d21c8375ad745e4525c5218", "is_reserved": 0, "rental_uris": {"android": "https://dc.lft.to/lastmile_qr_scan", "ios": "https://dc.lft.to/lastmile_qr_scan"}, "fusion_lon": 0.0}, {"lat": 38.90210483333333, "is_disabled": 0, "type": "electric_scooter", "lon": -77.02320233333333, "bike_id": "d25b4d895c14c5b338477a480c86b86c", "fusion_lat": 0.0, "name": "d25b4d895c14c5b338477a480c86b86c", "is_reserved": 0, "rental_uris": {"android": "https://dc.lft.to/lastmile_qr_scan", "ios": "https://dc.lft.to/lastmile_qr_scan"}, "fusion_lon": 0.0}, {"lat": 38.9623125, "is_disabled": 0, "type": "electric_bike", "lon": -77.02630366666666, "bike_id": "524647b95ac07e971995a33e7f4bd90b", "fusion_lat": 0.0, "name": "524647b95ac07e971995a33e7f4bd90b", "is_reserved": 0, "rental_uris": {"android": "https://dc.lft.to/lastmile_qr_scan", "ios": "https://dc.lft.to/lastmile_qr_scan"}, "fusion_lon": 0.0}, {"lat": 38.922463666666665, "is_disabled": 0, "type": "electric_scooter", "lon": -77.04344633333334, "bike_id": "d1def4e6d92dcf619935de797024bb2c", "fusion_lat": 0.0, "name": "d1def4e6d92dcf619935de797024bb2c", "is_reserved": 0, "rental_uris": {"android": "https://dc.lft.to/lastmile_qr_scan", "ios": "https://dc.lft.to/lastmile_qr_scan"}, "fusion_lon": 0.0}, {"lat": 38.90397433333333, "is_disabled": 0, "type": "electric_scooter", "lon": -76.98467116666667, "bike_id": "2a5c9ed457a6a6690372d4ece39ff977", "fusion_lat": 0.0, "name": "2a5c9ed457a6a6690372d4ece39ff977", "is_reserved": 0, "rental_uris": {"android": "https://dc.lft.to/lastmile_qr_scan", "ios": "https://dc.lft.to/lastmile_qr_scan"}, "fusion_lon": 0.0}, {"lat": 38.90852616666667, "is_disabled": 0, "type": "electric_scooter", "lon": -77.003718, "bike_id": "69fa846abf20d2ec11d5486b7a5129c5", "fusion_lat": 0.0, "name": "69fa846abf20d2ec11d5486b7a5129c5", "is_reserved": 0, "rental_uris": {"android": "https://dc.lft.to/lastmile_qr_scan", "ios": "https://dc.lft.to/lastmile_qr_scan"}, "fusion_lon": 0.0}, {"lat": 38.9068425, "is_disabled": 0, "type": "electric_scooter", "lon": -77.0269395, "bike_id": "606efad17f5200c1b3742c6e25635805", "fusion_lat": 0.0, "name": "606efad17f5200c1b3742c6e25635805", "is_reserved": 0, "rental_uris": {"android": "https://dc.lft.to/lastmile_qr_scan", "ios": "https://dc.lft.to/lastmile_qr_scan"}, "fusion_lon": 0.0}, {"lat": 38.893512333333334, "is_disabled": 0, "type": "electric_scooter", "lon": -77.039896, "bike_id": "f70e69afd4813b72a0338fbcc1ad5b18", "fusion_lat": 0.0, "name": "f70e69afd4813b72a0338fbcc1ad5b18", "is_reserved": 0, "rental_uris": {"android": "https://dc.lft.to/lastmile_qr_scan", "ios": "https://dc.lft.to/lastmile_qr_scan"}, "fusion_lon": 0.0}, {"lat": 38.902246, "is_disabled": 0, "type": "electric_scooter", "lon": -77.02829133333333, "bike_id": "c70576c6d408ddbf1fe09b56f80025d0", "fusion_lat": 0.0, "name": "c70576c6d408ddbf1fe09b56f80025d0", "is_reserved": 0, "rental_uris": {"android": "https://dc.lft.to/lastmile_qr_scan", "ios": "https://dc.lft.to/lastmile_qr_scan"}, "fusion_lon": 0.0}, {"lat": 38.931980833333334, "is_disabled": 0, "type": "electric_scooter", "lon": -77.0235565, "bike_id": "a988eec72b7c9e0178731adbceba9e8f", "fusion_lat": 0.0, "name": "a988eec72b7c9e0178731adbceba9e8f", "is_reserved": 0, "rental_uris": {"android": "https://dc.lft.to/lastmile_qr_scan", "ios": "https://dc.lft.to/lastmile_qr_scan"}, "fusion_lon": 0.0}, {"lat": 38.88692183333333, "is_disabled": 0, "type": "electric_scooter", "lon": -77.01764333333334, "bike_id": "24eed7c7665c0d8ff7c56b1903cdaf8e", "fusion_lat": 0.0, "name": "24eed7c7665c0d8ff7c56b1903cdaf8e", "is_reserved": 0, "rental_uris": {"android": "https://dc.lft.to/lastmile_qr_scan", "ios": "https://dc.lft.to/lastmile_qr_scan"}, "fusion_lon": 0.0}, {"lat": 38.89223716666667, "is_disabled": 0, "type": "electric_bike", "lon": -77.10778, "bike_id": "944a0aa19a4179cd835e2f133924493a", "fusion_lat": 0.0, "name": "944a0aa19a4179cd835e2f133924493a", "is_reserved": 0, "rental_uris": {"android": "https://dc.lft.to/lastmile_qr_scan", "ios": "https://dc.lft.to/lastmile_qr_scan"}, "fusion_lon": 0.0}, {"lat": 38.89496416666667, "is_disabled": 0, "type": "electric_scooter", "lon": -77.00210766666666, "bike_id": "bbc2a838dbacaa9c85ac4720b6702397", "fusion_lat": 0.0, "name": "bbc2a838dbacaa9c85ac4720b6702397", "is_reserved": 0, "rental_uris": {"android": "https://dc.lft.to/lastmile_qr_scan", "ios": "https://dc.lft.to/lastmile_qr_scan"}, "fusion_lon": 0.0}, {"lat": 38.8984305, "is_disabled": 0, "type": "electric_scooter", "lon": -76.99501766666667, "bike_id": "db75c5ccd73c48b73b366b5041df2f09", "fusion_lat": 0.0, "name": "db75c5ccd73c48b73b366b5041df2f09", "is_reserved": 0, "rental_uris": {"android": "https://dc.lft.to/lastmile_qr_scan", "ios": "https://dc.lft.to/lastmile_qr_scan"}, "fusion_lon": 0.0}, {"lat": 38.892391833333335, "is_disabled": 0, "type": "electric_bike", "lon": -76.9961055, "bike_id": "f52013660f1fe813656eef9d7f127ec2", "fusion_lat": 0.0, "name": "f52013660f1fe813656eef9d7f127ec2", "is_reserved": 0, "rental_uris": {"android": "https://dc.lft.to/lastmile_qr_scan", "ios": "https://dc.lft.to/lastmile_qr_scan"}, "fusion_lon": 0.0}, {"lat": 38.83422, "is_disabled": 0, "type": "electric_bike", "lon": -77.10372916666667, "bike_id": "a307c181264e97b8bae45f56a934c8ea", "fusion_lat": 0.0, "name": "a307c181264e97b8bae45f56a934c8ea", "is_reserved": 0, "rental_uris": {"android": "https://dc.lft.to/lastmile_qr_scan", "ios": "https://dc.lft.to/lastmile_qr_scan"}, "fusion_lon": 0.0}, {"lat": 38.844697833333335, "is_disabled": 0, "type": "electric_bike", "lon": -76.98750083333333, "bike_id": "45c4d95f4c7dc26585f71a751d3a244a", "fusion_lat": 0.0, "name": "45c4d95f4c7dc26585f71a751d3a244a", "is_reserved": 0, "rental_uris": {"android": "https://dc.lft.to/lastmile_qr_scan", "ios": "https://dc.lft.to/lastmile_qr_scan"}, "fusion_lon": 0.0}, {"lat": 38.90609533333333, "is_disabled": 0, "type": "electric_scooter", "lon": -76.98983133333333, "bike_id": "c00a9de1f47fb1ed395610249ff5b396", "fusion_lat": 0.0, "name": "c00a9de1f47fb1ed395610249ff5b396", "is_reserved": 0, "rental_uris": {"android": "https://dc.lft.to/lastmile_qr_scan", "ios": "https://dc.lft.to/lastmile_qr_scan"}, "fusion_lon": 0.0}, {"lat": 38.90496516666666, "is_disabled": 0, "type": "electric_scooter", "lon": -77.0294875, "bike_id": "89494054b1545b6bf7202d36331849c3", "fusion_lat": 0.0, "name": "89494054b1545b6bf7202d36331849c3", "is_reserved": 0, "rental_uris": {"android": "https://dc.lft.to/lastmile_qr_scan", "ios": "https://dc.lft.to/lastmile_qr_scan"}, "fusion_lon": 0.0}, {"lat": 38.9003815, "is_disabled": 0, "type": "electric_scooter", "lon": -76.983757, "bike_id": "7d53987652413c6e252975aad1dcbced", "fusion_lat": 0.0, "name": "7d53987652413c6e252975aad1dcbced", "is_reserved": 0, "rental_uris": {"android": "https://dc.lft.to/lastmile_qr_scan", "ios": "https://dc.lft.to/lastmile_qr_scan"}, "fusion_lon": 0.0}, {"lat": 38.90362916666667, "is_disabled": 0, "type": "electric_scooter", "lon": -77.04243833333334, "bike_id": "b3f072b845a121c25b09af491e1bec5b", "fusion_lat": 0.0, "name": "b3f072b845a121c25b09af491e1bec5b", "is_reserved": 0, "rental_uris": {"android": "https://dc.lft.to/lastmile_qr_scan", "ios": "https://dc.lft.to/lastmile_qr_scan"}, "fusion_lon": 0.0}, {"lat": 38.898615166666666, "is_disabled": 0, "type": "electric_scooter", "lon": -77.028785, "bike_id": "0a848aa1f99f16cddaae9476855de25a", "fusion_lat": 0.0, "name": "0a848aa1f99f16cddaae9476855de25a", "is_reserved": 0, "rental_uris": {"android": "https://dc.lft.to/lastmile_qr_scan", "ios": "https://dc.lft.to/lastmile_qr_scan"}, "fusion_lon": 0.0}, {"lat": 38.865224166666664, "is_disabled": 0, "type": "electric_scooter", "lon": -76.9902875, "bike_id": "d2a4ec4e379ffb8c064c30a06f4ef46a", "fusion_lat": 0.0, "name": "d2a4ec4e379ffb8c064c30a06f4ef46a", "is_reserved": 0, "rental_uris": {"android": "https://dc.lft.to/lastmile_qr_scan", "ios": "https://dc.lft.to/lastmile_qr_scan"}, "fusion_lon": 0.0}, {"lat": 38.870000833333336, "is_disabled": 0, "type": "electric_bike", "lon": -77.06569766666667, "bike_id": "f0700f14419bdf02641555cb618fd3da", "fusion_lat": 0.0, "name": "f0700f14419bdf02641555cb618fd3da", "is_reserved": 0, "rental_uris": {"android": "https://dc.lft.to/lastmile_qr_scan", "ios": "https://dc.lft.to/lastmile_qr_scan"}, "fusion_lon": 0.0}, {"lat": 38.876267166666665, "is_disabled": 0, "type": "electric_scooter", "lon": -76.9652445, "bike_id": "bc316e687d3579b4fb2e590bc01aa42f", "fusion_lat": 0.0, "name": "bc316e687d3579b4fb2e590bc01aa42f", "is_reserved": 0, "rental_uris": {"android": "https://dc.lft.to/lastmile_qr_scan", "ios": "https://dc.lft.to/lastmile_qr_scan"}, "fusion_lon": 0.0}, {"lat": 38.92406283333333, "is_disabled": 0, "type": "electric_scooter", "lon": -77.027453, "bike_id": "1af50829f5ab74938c5a54c488869632", "fusion_lat": 0.0, "name": "1af50829f5ab74938c5a54c488869632", "is_reserved": 0, "rental_uris": {"android": "https://dc.lft.to/lastmile_qr_scan", "ios": "https://dc.lft.to/lastmile_qr_scan"}, "fusion_lon": 0.0}, {"lat": 38.93448, "is_disabled": 0, "type": "electric_scooter", "lon": -77.03080016666667, "bike_id": "91a3b5109c80e4006bffd5ee67715cd1", "fusion_lat": 0.0, "name": "91a3b5109c80e4006bffd5ee67715cd1", "is_reserved": 0, "rental_uris": {"android": "https://dc.lft.to/lastmile_qr_scan", "ios": "https://dc.lft.to/lastmile_qr_scan"}, "fusion_lon": 0.0}, {"lat": 38.859307666666666, "is_disabled": 0, "type": "electric_scooter", "lon": -76.99718, "bike_id": "57f768145fbdf43d8f933f51487a6b39", "fusion_lat": 0.0, "name": "57f768145fbdf43d8f933f51487a6b39", "is_reserved": 0, "rental_uris": {"android": "https://dc.lft.to/lastmile_qr_scan", "ios": "https://dc.lft.to/lastmile_qr_scan"}, "fusion_lon": 0.0}, {"lat": 38.912633, "is_disabled": 0, "type": "electric_scooter", "lon": -77.030301, "bike_id": "e5f7f02e40311d8e4eb2922f25c94bb6", "fusion_lat": 0.0, "name": "e5f7f02e40311d8e4eb2922f25c94bb6", "is_reserved": 0, "rental_uris": {"android": "https://dc.lft.to/lastmile_qr_scan", "ios": "https://dc.lft.to/lastmile_qr_scan"}, "fusion_lon": 0.0}, {"lat": 38.92113833333333, "is_disabled": 0, "type": "electric_scooter", "lon": -77.04212466666667, "bike_id": "83fc2c31ae8516c26cd568da4a58afaa", "fusion_lat": 0.0, "name": "83fc2c31ae8516c26cd568da4a58afaa", "is_reserved": 0, "rental_uris": {"android": "https://dc.lft.to/lastmile_qr_scan", "ios": "https://dc.lft.to/lastmile_qr_scan"}, "fusion_lon": 0.0}, {"lat": 38.90266416666667, "is_disabled": 0, "type": "electric_scooter", "lon": -77.03937533333334, "bike_id": "148de0a1927f5553099e2f4cc91ded7c", "fusion_lat": 0.0, "name": "148de0a1927f5553099e2f4cc91ded7c", "is_reserved": 0, "rental_uris": {"android": "https://dc.lft.to/lastmile_qr_scan", "ios": "https://dc.lft.to/lastmile_qr_scan"}, "fusion_lon": 0.0}, {"lat": 38.934270833333336, "is_disabled": 0, "type": "electric_scooter", "lon": -77.0284685, "bike_id": "c0530aef32cfa176f62b944174b1f404", "fusion_lat": 0.0, "name": "c0530aef32cfa176f62b944174b1f404", "is_reserved": 0, "rental_uris": {"android": "https://dc.lft.to/lastmile_qr_scan", "ios": "https://dc.lft.to/lastmile_qr_scan"}, "fusion_lon": 0.0}, {"lat": 38.81048833333333, "is_disabled": 0, "type": "electric_bike", "lon": -77.0850835, "bike_id": "fffd8f37e9b82608e7c2893eabdd27a0", "fusion_lat": 0.0, "name": "fffd8f37e9b82608e7c2893eabdd27a0", "is_reserved": 0, "rental_uris": {"android": "https://dc.lft.to/lastmile_qr_scan", "ios": "https://dc.lft.to/lastmile_qr_scan"}, "fusion_lon": 0.0}, {"lat": 38.9459945, "is_disabled": 0, "type": "electric_scooter", "lon": -77.0703485, "bike_id": "7ac30703122e77646b13ed90c4a67170", "fusion_lat": 0.0, "name": "7ac30703122e77646b13ed90c4a67170", "is_reserved": 0, "rental_uris": {"android": "https://dc.lft.to/lastmile_qr_scan", "ios": "https://dc.lft.to/lastmile_qr_scan"}, "fusion_lon": 0.0}, {"lat": 38.93418666666667, "is_disabled": 0, "type": "electric_scooter", "lon": -77.0283955, "bike_id": "598f838fa877df9582f594a04da959d2", "fusion_lat": 0.0, "name": "598f838fa877df9582f594a04da959d2", "is_reserved": 0, "rental_uris": {"android": "https://dc.lft.to/lastmile_qr_scan", "ios": "https://dc.lft.to/lastmile_qr_scan"}, "fusion_lon": 0.0}, {"lat": 38.923801166666664, "is_disabled": 0, "type": "electric_scooter", "lon": -77.027618, "bike_id": "1227b1e1c8a86270a1df18e35e0afc6c", "fusion_lat": 0.0, "name": "1227b1e1c8a86270a1df18e35e0afc6c", "is_reserved": 0, "rental_uris": {"android": "https://dc.lft.to/lastmile_qr_scan", "ios": "https://dc.lft.to/lastmile_qr_scan"}, "fusion_lon": 0.0}, {"lat": 38.84434233333333, "is_disabled": 0, "type": "electric_scooter", "lon": -76.99813183333333, "bike_id": "5402041256d1c3e3121a310d18e419f4", "fusion_lat": 0.0, "name": "5402041256d1c3e3121a310d18e419f4", "is_reserved": 0, "rental_uris": {"android": "https://dc.lft.to/lastmile_qr_scan", "ios": "https://dc.lft.to/lastmile_qr_scan"}, "fusion_lon": 0.0}, {"lat": 38.854333833333335, "is_disabled": 0, "type": "electric_bike", "lon": -76.909732, "bike_id": "21ddc716a2353a5f8d57658122ba760e", "fusion_lat": 0.0, "name": "21ddc716a2353a5f8d57658122ba760e", "is_reserved": 0, "rental_uris": {"android": "https://dc.lft.to/lastmile_qr_scan", "ios": "https://dc.lft.to/lastmile_qr_scan"}, "fusion_lon": 0.0}, {"lat": 38.9224085, "is_disabled": 0, "type": "electric_scooter", "lon": -77.02988583333334, "bike_id": "22a7a802e143c7e3d2d2f67335bd02b5", "fusion_lat": 0.0, "name": "22a7a802e143c7e3d2d2f67335bd02b5", "is_reserved": 0, "rental_uris": {"android": "https://dc.lft.to/lastmile_qr_scan", "ios": "https://dc.lft.to/lastmile_qr_scan"}, "fusion_lon": 0.0}, {"lat": 38.903879333333336, "is_disabled": 0, "type": "electric_scooter", "lon": -76.98486083333333, "bike_id": "387f96d2a0bd9d8cd0a3bedd909a9b6c", "fusion_lat": 0.0, "name": "387f96d2a0bd9d8cd0a3bedd909a9b6c", "is_reserved": 0, "rental_uris": {"android": "https://dc.lft.to/lastmile_qr_scan", "ios": "https://dc.lft.to/lastmile_qr_scan"}, "fusion_lon": 0.0}, {"lat": 38.93867766666666, "is_disabled": 0, "type": "electric_scooter", "lon": -77.02595833333334, "bike_id": "6a72cfe4474d54933b875ee7230a11f0", "fusion_lat": 0.0, "name": "6a72cfe4474d54933b875ee7230a11f0", "is_reserved": 0, "rental_uris": {"android": "https://dc.lft.to/lastmile_qr_scan", "ios": "https://dc.lft.to/lastmile_qr_scan"}, "fusion_lon": 0.0}, {"lat": 38.89709583333333, "is_disabled": 0, "type": "electric_scooter", "lon": -77.00838533333334, "bike_id": "9a543fb3d61248437dfb7aa44e8da2cc", "fusion_lat": 0.0, "name": "9a543fb3d61248437dfb7aa44e8da2cc", "is_reserved": 0, "rental_uris": {"android": "https://dc.lft.to/lastmile_qr_scan", "ios": "https://dc.lft.to/lastmile_qr_scan"}, "fusion_lon": 0.0}, {"lat": 38.911118333333334, "is_disabled": 0, "type": "electric_scooter", "lon": -77.03720516666667, "bike_id": "8399d7c7e2d81ff9ce582a6386c5830b", "fusion_lat": 0.0, "name": "8399d7c7e2d81ff9ce582a6386c5830b", "is_reserved": 0, "rental_uris": {"android": "https://dc.lft.to/lastmile_qr_scan", "ios": "https://dc.lft.to/lastmile_qr_scan"}, "fusion_lon": 0.0}, {"lat": 38.927824333333334, "is_disabled": 0, "type": "electric_scooter", "lon": -77.0525405, "bike_id": "09c94cb60c38fe4cfa708ebd290ef068", "fusion_lat": 0.0, "name": "09c94cb60c38fe4cfa708ebd290ef068", "is_reserved": 0, "rental_uris": {"android": "https://dc.lft.to/lastmile_qr_scan", "ios": "https://dc.lft.to/lastmile_qr_scan"}, "fusion_lon": 0.0}, {"lat": 38.91927483333333, "is_disabled": 0, "type": "electric_scooter", "lon": -77.02405816666666, "bike_id": "0ae6c56042cc05c3d1a938c93078207c", "fusion_lat": 0.0, "name": "0ae6c56042cc05c3d1a938c93078207c", "is_reserved": 0, "rental_uris": {"android": "https://dc.lft.to/lastmile_qr_scan", "ios": "https://dc.lft.to/lastmile_qr_scan"}, "fusion_lon": 0.0}, {"lat": 38.9370395, "is_disabled": 0, "type": "electric_scooter", "lon": -77.06105016666666, "bike_id": "79d57e4efb1a3f0137af66a21e22d9d9", "fusion_lat": 0.0, "name": "79d57e4efb1a3f0137af66a21e22d9d9", "is_reserved": 0, "rental_uris": {"android": "https://dc.lft.to/lastmile_qr_scan", "ios": "https://dc.lft.to/lastmile_qr_scan"}, "fusion_lon": 0.0}, {"lat": 38.8960945, "is_disabled": 0, "type": "electric_scooter", "lon": -77.0092195, "bike_id": "6ed54932651a231ca1380c75040fdab1", "fusion_lat": 0.0, "name": "6ed54932651a231ca1380c75040fdab1", "is_reserved": 0, "rental_uris": {"android": "https://dc.lft.to/lastmile_qr_scan", "ios": "https://dc.lft.to/lastmile_qr_scan"}, "fusion_lon": 0.0}, {"lat": 38.933841, "is_disabled": 0, "type": "electric_scooter", "lon": -76.9951405, "bike_id": "0e3d1109ee920a0d94f521cb8c46ef00", "fusion_lat": 0.0, "name": "0e3d1109ee920a0d94f521cb8c46ef00", "is_reserved": 0, "rental_uris": {"android": "https://dc.lft.to/lastmile_qr_scan", "ios": "https://dc.lft.to/lastmile_qr_scan"}, "fusion_lon": 0.0}, {"lat": 38.935719, "is_disabled": 0, "type": "electric_scooter", "lon": -77.032619, "bike_id": "414309e613436cb4c4f08334a1fbdee3", "fusion_lat": 0.0, "name": "414309e613436cb4c4f08334a1fbdee3", "is_reserved": 0, "rental_uris": {"android": "https://dc.lft.to/lastmile_qr_scan", "ios": "https://dc.lft.to/lastmile_qr_scan"}, "fusion_lon": 0.0}, {"lat": 38.910439, "is_disabled": 0, "type": "electric_scooter", "lon": -77.0435365, "bike_id": "0f63a6d8aabe0acd429e83220ef29da6", "fusion_lat": 0.0, "name": "0f63a6d8aabe0acd429e83220ef29da6", "is_reserved": 0, "rental_uris": {"android": "https://dc.lft.to/lastmile_qr_scan", "ios": "https://dc.lft.to/lastmile_qr_scan"}, "fusion_lon": 0.0}, {"lat": 38.905660833333336, "is_disabled": 0, "type": "electric_scooter", "lon": -77.03623483333334, "bike_id": "1cc972f814d84a00c36e1d56bc775ba9", "fusion_lat": 0.0, "name": "1cc972f814d84a00c36e1d56bc775ba9", "is_reserved": 0, "rental_uris": {"android": "https://dc.lft.to/lastmile_qr_scan", "ios": "https://dc.lft.to/lastmile_qr_scan"}, "fusion_lon": 0.0}, {"lat": 38.89855466666667, "is_disabled": 0, "type": "electric_bike", "lon": -76.93190883333334, "bike_id": "7d5aadd76306b7229d37ccbdb93c7024", "fusion_lat": 0.0, "name": "7d5aadd76306b7229d37ccbdb93c7024", "is_reserved": 0, "rental_uris": {"android": "https://dc.lft.to/lastmile_qr_scan", "ios": "https://dc.lft.to/lastmile_qr_scan"}, "fusion_lon": 0.0}, {"lat": 38.9281525, "is_disabled": 0, "type": "electric_scooter", "lon": -77.02619916666667, "bike_id": "c1313f8dfbabddb01adbcf478839d835", "fusion_lat": 0.0, "name": "c1313f8dfbabddb01adbcf478839d835", "is_reserved": 0, "rental_uris": {"android": "https://dc.lft.to/lastmile_qr_scan", "ios": "https://dc.lft.to/lastmile_qr_scan"}, "fusion_lon": 0.0}, {"lat": 38.921489333333334, "is_disabled": 0, "type": "electric_scooter", "lon": -77.0386535, "bike_id": "252b01081fde57d0280c58292c9d8d68", "fusion_lat": 0.0, "name": "252b01081fde57d0280c58292c9d8d68", "is_reserved": 0, "rental_uris": {"android": "https://dc.lft.to/lastmile_qr_scan", "ios": "https://dc.lft.to/lastmile_qr_scan"}, "fusion_lon": 0.0}, {"lat": 38.9034245, "is_disabled": 0, "type": "electric_scooter", "lon": -77.044789, "bike_id": "fe02a16ee57e00e5db1f8cea24c9502f", "fusion_lat": 0.0, "name": "fe02a16ee57e00e5db1f8cea24c9502f", "is_reserved": 0, "rental_uris": {"android": "https://dc.lft.to/lastmile_qr_scan", "ios": "https://dc.lft.to/lastmile_qr_scan"}, "fusion_lon": 0.0}, {"lat": 38.91533033333333, "is_disabled": 0, "type": "electric_scooter", "lon": -77.031899, "bike_id": "c5d84febbd801ebea068616f24038e3f", "fusion_lat": 0.0, "name": "c5d84febbd801ebea068616f24038e3f", "is_reserved": 0, "rental_uris": {"android": "https://dc.lft.to/lastmile_qr_scan", "ios": "https://dc.lft.to/lastmile_qr_scan"}, "fusion_lon": 0.0}, {"lat": 38.90662533333333, "is_disabled": 0, "type": "electric_scooter", "lon": -77.00817566666667, "bike_id": "5725637133d9e9928a6255a4226f1d7e", "fusion_lat": 0.0, "name": "5725637133d9e9928a6255a4226f1d7e", "is_reserved": 0, "rental_uris": {"android": "https://dc.lft.to/lastmile_qr_scan", "ios": "https://dc.lft.to/lastmile_qr_scan"}, "fusion_lon": 0.0}, {"lat": 38.92898483333333, "is_disabled": 0, "type": "electric_scooter", "lon": -77.01665133333333, "bike_id": "d48e4e248e07bab6d51a12645d970d4f", "fusion_lat": 0.0, "name": "d48e4e248e07bab6d51a12645d970d4f", "is_reserved": 0, "rental_uris": {"android": "https://dc.lft.to/lastmile_qr_scan", "ios": "https://dc.lft.to/lastmile_qr_scan"}, "fusion_lon": 0.0}, {"lat": 38.91604066666667, "is_disabled": 0, "type": "electric_scooter", "lon": -77.03854333333334, "bike_id": "04abd9b595fc0d4c4080dfbca759f469", "fusion_lat": 0.0, "name": "04abd9b595fc0d4c4080dfbca759f469", "is_reserved": 0, "rental_uris": {"android": "https://dc.lft.to/lastmile_qr_scan", "ios": "https://dc.lft.to/lastmile_qr_scan"}, "fusion_lon": 0.0}, {"lat": 38.885496833333335, "is_disabled": 0, "type": "electric_bike", "lon": -77.1178785, "bike_id": "f8f5d27883b2c31943cc87b1aa06f222", "fusion_lat": 0.0, "name": "f8f5d27883b2c31943cc87b1aa06f222", "is_reserved": 0, "rental_uris": {"android": "https://dc.lft.to/lastmile_qr_scan", "ios": "https://dc.lft.to/lastmile_qr_scan"}, "fusion_lon": 0.0}, {"lat": 38.93381383333333, "is_disabled": 0, "type": "electric_scooter", "lon": -77.035584, "bike_id": "660bd8d5070b737b042c7a00a51bb57d", "fusion_lat": 0.0, "name": "660bd8d5070b737b042c7a00a51bb57d", "is_reserved": 0, "rental_uris": {"android": "https://dc.lft.to/lastmile_qr_scan", "ios": "https://dc.lft.to/lastmile_qr_scan"}, "fusion_lon": 0.0}, {"lat": 38.886038666666664, "is_disabled": 0, "type": "electric_scooter", "lon": -77.018949, "bike_id": "38f78b5177f9b6ecc129c55db3b68a57", "fusion_lat": 0.0, "name": "38f78b5177f9b6ecc129c55db3b68a57", "is_reserved": 0, "rental_uris": {"android": "https://dc.lft.to/lastmile_qr_scan", "ios": "https://dc.lft.to/lastmile_qr_scan"}, "fusion_lon": 0.0}, {"lat": 38.95705016666667, "is_disabled": 0, "type": "electric_scooter", "lon": -77.02400483333334, "bike_id": "ed9eeabdbe445b5fa331f56826e13434", "fusion_lat": 0.0, "name": "ed9eeabdbe445b5fa331f56826e13434", "is_reserved": 0, "rental_uris": {"android": "https://dc.lft.to/lastmile_qr_scan", "ios": "https://dc.lft.to/lastmile_qr_scan"}, "fusion_lon": 0.0}, {"lat": 38.9039945, "is_disabled": 0, "type": "electric_scooter", "lon": -76.99009066666666, "bike_id": "02a1f344ab4aad3ac518df9e0a311b24", "fusion_lat": 0.0, "name": "02a1f344ab4aad3ac518df9e0a311b24", "is_reserved": 0, "rental_uris": {"android": "https://dc.lft.to/lastmile_qr_scan", "ios": "https://dc.lft.to/lastmile_qr_scan"}, "fusion_lon": 0.0}, {"lat": 38.88679066666667, "is_disabled": 0, "type": "electric_bike", "lon": -77.16241766666667, "bike_id": "6c95ec0af4cb101f1d52eb94ca253021", "fusion_lat": 0.0, "name": "6c95ec0af4cb101f1d52eb94ca253021", "is_reserved": 0, "rental_uris": {"android": "https://dc.lft.to/lastmile_qr_scan", "ios": "https://dc.lft.to/lastmile_qr_scan"}, "fusion_lon": 0.0}, {"lat": 38.899952, "is_disabled": 0, "type": "electric_scooter", "lon": -77.04228933333333, "bike_id": "4d5db8fd47b9659b4e480b0359201e83", "fusion_lat": 0.0, "name": "4d5db8fd47b9659b4e480b0359201e83", "is_reserved": 0, "rental_uris": {"android": "https://dc.lft.to/lastmile_qr_scan", "ios": "https://dc.lft.to/lastmile_qr_scan"}, "fusion_lon": 0.0}, {"lat": 38.94824766666667, "is_disabled": 0, "type": "electric_scooter", "lon": -76.99905616666666, "bike_id": "5e454382ad46518e47eff9d0248e96fe", "fusion_lat": 0.0, "name": "5e454382ad46518e47eff9d0248e96fe", "is_reserved": 0, "rental_uris": {"android": "https://dc.lft.to/lastmile_qr_scan", "ios": "https://dc.lft.to/lastmile_qr_scan"}, "fusion_lon": 0.0}, {"lat": 38.908258333333336, "is_disabled": 0, "type": "electric_scooter", "lon": -77.02007833333333, "bike_id": "1dce570fbff8866da5705b1cd7595f7a", "fusion_lat": 0.0, "name": "1dce570fbff8866da5705b1cd7595f7a", "is_reserved": 0, "rental_uris": {"android": "https://dc.lft.to/lastmile_qr_scan", "ios": "https://dc.lft.to/lastmile_qr_scan"}, "fusion_lon": 0.0}, {"lat": 38.90289833333333, "is_disabled": 0, "type": "electric_scooter", "lon": -77.063507, "bike_id": "c00fbf6886072770d2b09e8d6b301a43", "fusion_lat": 0.0, "name": "c00fbf6886072770d2b09e8d6b301a43", "is_reserved": 0, "rental_uris": {"android": "https://dc.lft.to/lastmile_qr_scan", "ios": "https://dc.lft.to/lastmile_qr_scan"}, "fusion_lon": 0.0}, {"lat": 38.94043116666667, "is_disabled": 0, "type": "electric_bike", "lon": -77.0516425, "bike_id": "39754a56534a5eb024a16e793ac4e95d", "fusion_lat": 0.0, "name": "39754a56534a5eb024a16e793ac4e95d", "is_reserved": 0, "rental_uris": {"android": "https://dc.lft.to/lastmile_qr_scan", "ios": "https://dc.lft.to/lastmile_qr_scan"}, "fusion_lon": 0.0}, {"lat": 38.931000166666664, "is_disabled": 0, "type": "electric_scooter", "lon": -77.0249745, "bike_id": "559cf978f0511403e836ed57ebaf822f", "fusion_lat": 0.0, "name": "559cf978f0511403e836ed57ebaf822f", "is_reserved": 0, "rental_uris": {"android": "https://dc.lft.to/lastmile_qr_scan", "ios": "https://dc.lft.to/lastmile_qr_scan"}, "fusion_lon": 0.0}, {"lat": 38.89049883333333, "is_disabled": 0, "type": "electric_scooter", "lon": -76.94078683333333, "bike_id": "e9398ce7812b17ce6187de0fe86f9a93", "fusion_lat": 0.0, "name": "e9398ce7812b17ce6187de0fe86f9a93", "is_reserved": 0, "rental_uris": {"android": "https://dc.lft.to/lastmile_qr_scan", "ios": "https://dc.lft.to/lastmile_qr_scan"}, "fusion_lon": 0.0}, {"lat": 38.90380616666667, "is_disabled": 0, "type": "electric_scooter", "lon": -77.03836833333334, "bike_id": "40bf2c8107f383fdcaf6d4f628ca1de1", "fusion_lat": 0.0, "name": "40bf2c8107f383fdcaf6d4f628ca1de1", "is_reserved": 0, "rental_uris": {"android": "https://dc.lft.to/lastmile_qr_scan", "ios": "https://dc.lft.to/lastmile_qr_scan"}, "fusion_lon": 0.0}, {"lat": 38.90741666666667, "is_disabled": 0, "type": "electric_scooter", "lon": -77.04206066666667, "bike_id": "43d89769448cf21c5c6e93ac683ea2e7", "fusion_lat": 0.0, "name": "43d89769448cf21c5c6e93ac683ea2e7", "is_reserved": 0, "rental_uris": {"android": "https://dc.lft.to/lastmile_qr_scan", "ios": "https://dc.lft.to/lastmile_qr_scan"}, "fusion_lon": 0.0}, {"lat": 38.911754333333334, "is_disabled": 0, "type": "electric_scooter", "lon": -77.03820933333333, "bike_id": "74c0d3c057d5db107ef7cd1e3389723f", "fusion_lat": 0.0, "name": "74c0d3c057d5db107ef7cd1e3389723f", "is_reserved": 0, "rental_uris": {"android": "https://dc.lft.to/lastmile_qr_scan", "ios": "https://dc.lft.to/lastmile_qr_scan"}, "fusion_lon": 0.0}, {"lat": 38.91706283333333, "is_disabled": 0, "type": "electric_scooter", "lon": -77.03472266666667, "bike_id": "423c72697d4bed6215f7c5520f16d531", "fusion_lat": 0.0, "name": "423c72697d4bed6215f7c5520f16d531", "is_reserved": 0, "rental_uris": {"android": "https://dc.lft.to/lastmile_qr_scan", "ios": "https://dc.lft.to/lastmile_qr_scan"}, "fusion_lon": 0.0}, {"lat": 38.920760666666666, "is_disabled": 0, "type": "electric_scooter", "lon": -77.014299, "bike_id": "05f3cfadb02d14af2d2c4d6163eb2794", "fusion_lat": 0.0, "name": "05f3cfadb02d14af2d2c4d6163eb2794", "is_reserved": 0, "rental_uris": {"android": "https://dc.lft.to/lastmile_qr_scan", "ios": "https://dc.lft.to/lastmile_qr_scan"}, "fusion_lon": 0.0}, {"lat": 38.90499033333333, "is_disabled": 0, "type": "electric_scooter", "lon": -77.04836766666666, "bike_id": "f5ceee7d3ea62ae62c935f3a2778c9e4", "fusion_lat": 0.0, "name": "f5ceee7d3ea62ae62c935f3a2778c9e4", "is_reserved": 0, "rental_uris": {"android": "https://dc.lft.to/lastmile_qr_scan", "ios": "https://dc.lft.to/lastmile_qr_scan"}, "fusion_lon": 0.0}, {"lat": 38.95886766666667, "is_disabled": 0, "type": "electric_bike", "lon": -76.92480983333333, "bike_id": "80d5d72efd65ca2ebe23ed9e87eeb63d", "fusion_lat": 0.0, "name": "80d5d72efd65ca2ebe23ed9e87eeb63d", "is_reserved": 0, "rental_uris": {"android": "https://dc.lft.to/lastmile_qr_scan", "ios": "https://dc.lft.to/lastmile_qr_scan"}, "fusion_lon": 0.0}, {"lat": 38.9295825, "is_disabled": 0, "type": "electric_scooter", "lon": -77.03074633333334, "bike_id": "fc72572bb2de216e53410b2e75392c65", "fusion_lat": 0.0, "name": "fc72572bb2de216e53410b2e75392c65", "is_reserved": 0, "rental_uris": {"android": "https://dc.lft.to/lastmile_qr_scan", "ios": "https://dc.lft.to/lastmile_qr_scan"}, "fusion_lon": 0.0}, {"lat": 38.91926266666667, "is_disabled": 0, "type": "electric_scooter", "lon": -77.02487616666667, "bike_id": "0f420f6c733fcc68a8f22996e6b19c87", "fusion_lat": 0.0, "name": "0f420f6c733fcc68a8f22996e6b19c87", "is_reserved": 0, "rental_uris": {"android": "https://dc.lft.to/lastmile_qr_scan", "ios": "https://dc.lft.to/lastmile_qr_scan"}, "fusion_lon": 0.0}, {"lat": 38.8585015, "is_disabled": 0, "type": "electric_bike", "lon": -77.09755066666666, "bike_id": "2673b4749c90766d3e8410e1fc0bff9f", "fusion_lat": 0.0, "name": "2673b4749c90766d3e8410e1fc0bff9f", "is_reserved": 0, "rental_uris": {"android": "https://dc.lft.to/lastmile_qr_scan", "ios": "https://dc.lft.to/lastmile_qr_scan"}, "fusion_lon": 0.0}, {"lat": 38.93109783333333, "is_disabled": 0, "type": "electric_scooter", "lon": -77.03396516666666, "bike_id": "5c703f25097acb3d15f2695e5508486b", "fusion_lat": 0.0, "name": "5c703f25097acb3d15f2695e5508486b", "is_reserved": 0, "rental_uris": {"android": "https://dc.lft.to/lastmile_qr_scan", "ios": "https://dc.lft.to/lastmile_qr_scan"}, "fusion_lon": 0.0}, {"lat": 38.90540383333333, "is_disabled": 0, "type": "electric_scooter", "lon": -77.02216083333333, "bike_id": "e7e3ae31a5a7ab17a9c50a272a5fe195", "fusion_lat": 0.0, "name": "e7e3ae31a5a7ab17a9c50a272a5fe195", "is_reserved": 0, "rental_uris": {"android": "https://dc.lft.to/lastmile_qr_scan", "ios": "https://dc.lft.to/lastmile_qr_scan"}, "fusion_lon": 0.0}, {"lat": 38.92116716666666, "is_disabled": 0, "type": "electric_bike", "lon": -76.9857765, "bike_id": "98b666459cb4e2eaff95e653ee45bd2a", "fusion_lat": 0.0, "name": "98b666459cb4e2eaff95e653ee45bd2a", "is_reserved": 0, "rental_uris": {"android": "https://dc.lft.to/lastmile_qr_scan", "ios": "https://dc.lft.to/lastmile_qr_scan"}, "fusion_lon": 0.0}, {"lat": 38.913877166666666, "is_disabled": 0, "type": "electric_scooter", "lon": -77.01897, "bike_id": "e694da9e46853643f9a03c33f577d4a7", "fusion_lat": 0.0, "name": "e694da9e46853643f9a03c33f577d4a7", "is_reserved": 0, "rental_uris": {"android": "https://dc.lft.to/lastmile_qr_scan", "ios": "https://dc.lft.to/lastmile_qr_scan"}, "fusion_lon": 0.0}, {"lat": 38.901464, "is_disabled": 0, "type": "electric_scooter", "lon": -77.00065733333334, "bike_id": "a754f899c249fa98e26c0abb48c697e2", "fusion_lat": 0.0, "name": "a754f899c249fa98e26c0abb48c697e2", "is_reserved": 0, "rental_uris": {"android": "https://dc.lft.to/lastmile_qr_scan", "ios": "https://dc.lft.to/lastmile_qr_scan"}, "fusion_lon": 0.0}, {"lat": 38.946346166666665, "is_disabled": 0, "type": "electric_scooter", "lon": -77.02520716666666, "bike_id": "86b1f877e7f5d06365a6d3010f203dc6", "fusion_lat": 0.0, "name": "86b1f877e7f5d06365a6d3010f203dc6", "is_reserved": 0, "rental_uris": {"android": "https://dc.lft.to/lastmile_qr_scan", "ios": "https://dc.lft.to/lastmile_qr_scan"}, "fusion_lon": 0.0}, {"lat": 38.95734566666667, "is_disabled": 0, "type": "electric_scooter", "lon": -77.02404033333333, "bike_id": "d2037ed2f8c3d99d398bad3614c3182a", "fusion_lat": 0.0, "name": "d2037ed2f8c3d99d398bad3614c3182a", "is_reserved": 0, "rental_uris": {"android": "https://dc.lft.to/lastmile_qr_scan", "ios": "https://dc.lft.to/lastmile_qr_scan"}, "fusion_lon": 0.0}, {"lat": 38.902614, "is_disabled": 0, "type": "electric_scooter", "lon": -77.039498, "bike_id": "7f8c4ead6993d6acc74b67f88b128856", "fusion_lat": 0.0, "name": "7f8c4ead6993d6acc74b67f88b128856", "is_reserved": 0, "rental_uris": {"android": "https://dc.lft.to/lastmile_qr_scan", "ios": "https://dc.lft.to/lastmile_qr_scan"}, "fusion_lon": 0.0}, {"lat": 38.90530716666667, "is_disabled": 0, "type": "electric_scooter", "lon": -77.04997266666666, "bike_id": "8ec26afee0f64731929076a38bdc01b3", "fusion_lat": 0.0, "name": "8ec26afee0f64731929076a38bdc01b3", "is_reserved": 0, "rental_uris": {"android": "https://dc.lft.to/lastmile_qr_scan", "ios": "https://dc.lft.to/lastmile_qr_scan"}, "fusion_lon": 0.0}, {"lat": 38.902182833333335, "is_disabled": 0, "type": "electric_scooter", "lon": -77.02319366666667, "bike_id": "ed63cc24024e9cf7964551a48e6b93b1", "fusion_lat": 0.0, "name": "ed63cc24024e9cf7964551a48e6b93b1", "is_reserved": 0, "rental_uris": {"android": "https://dc.lft.to/lastmile_qr_scan", "ios": "https://dc.lft.to/lastmile_qr_scan"}, "fusion_lon": 0.0}, {"lat": 38.92746566666667, "is_disabled": 0, "type": "electric_scooter", "lon": -77.02422116666666, "bike_id": "9f7534e6b024b6d279470474bdd36883", "fusion_lat": 0.0, "name": "9f7534e6b024b6d279470474bdd36883", "is_reserved": 0, "rental_uris": {"android": "https://dc.lft.to/lastmile_qr_scan", "ios": "https://dc.lft.to/lastmile_qr_scan"}, "fusion_lon": 0.0}, {"lat": 38.90777166666667, "is_disabled": 0, "type": "electric_scooter", "lon": -77.03857366666666, "bike_id": "fc46bddee4a7dbf6ae182431994e1e1b", "fusion_lat": 0.0, "name": "fc46bddee4a7dbf6ae182431994e1e1b", "is_reserved": 0, "rental_uris": {"android": "https://dc.lft.to/lastmile_qr_scan", "ios": "https://dc.lft.to/lastmile_qr_scan"}, "fusion_lon": 0.0}, {"lat": 38.917485, "is_disabled": 0, "type": "electric_scooter", "lon": -77.0360205, "bike_id": "1181ddfe01bdd52f8e4f3105689bf0b9", "fusion_lat": 0.0, "name": "1181ddfe01bdd52f8e4f3105689bf0b9", "is_reserved": 0, "rental_uris": {"android": "https://dc.lft.to/lastmile_qr_scan", "ios": "https://dc.lft.to/lastmile_qr_scan"}, "fusion_lon": 0.0}, {"lat": 38.8922535, "is_disabled": 0, "type": "electric_scooter", "lon": -77.02412466666667, "bike_id": "f79857c8b3125afcb7ae9411c7284bac", "fusion_lat": 0.0, "name": "f79857c8b3125afcb7ae9411c7284bac", "is_reserved": 0, "rental_uris": {"android": "https://dc.lft.to/lastmile_qr_scan", "ios": "https://dc.lft.to/lastmile_qr_scan"}, "fusion_lon": 0.0}, {"lat": 38.8976255, "is_disabled": 0, "type": "electric_scooter", "lon": -77.046618, "bike_id": "3c4605ae60f4b85460e5941f27e156e8", "fusion_lat": 0.0, "name": "3c4605ae60f4b85460e5941f27e156e8", "is_reserved": 0, "rental_uris": {"android": "https://dc.lft.to/lastmile_qr_scan", "ios": "https://dc.lft.to/lastmile_qr_scan"}, "fusion_lon": 0.0}, {"lat": 38.9259235, "is_disabled": 0, "type": "electric_scooter", "lon": -77.02272733333334, "bike_id": "faea2fe36099ea8e115e0c2cbb730c4a", "fusion_lat": 0.0, "name": "faea2fe36099ea8e115e0c2cbb730c4a", "is_reserved": 0, "rental_uris": {"android": "https://dc.lft.to/lastmile_qr_scan", "ios": "https://dc.lft.to/lastmile_qr_scan"}, "fusion_lon": 0.0}, {"lat": 38.9565135, "is_disabled": 0, "type": "electric_scooter", "lon": -77.02400683333333, "bike_id": "362e5b4a1f86332ada89f6a0d0dff0a6", "fusion_lat": 0.0, "name": "362e5b4a1f86332ada89f6a0d0dff0a6", "is_reserved": 0, "rental_uris": {"android": "https://dc.lft.to/lastmile_qr_scan", "ios": "https://dc.lft.to/lastmile_qr_scan"}, "fusion_lon": 0.0}, {"lat": 38.900897, "is_disabled": 0, "type": "electric_scooter", "lon": -77.04930466666667, "bike_id": "f2c374721e9cba7d8876d0b5f894cfa8", "fusion_lat": 0.0, "name": "f2c374721e9cba7d8876d0b5f894cfa8", "is_reserved": 0, "rental_uris": {"android": "https://dc.lft.to/lastmile_qr_scan", "ios": "https://dc.lft.to/lastmile_qr_scan"}, "fusion_lon": 0.0}, {"lat": 38.932849833333336, "is_disabled": 0, "type": "electric_scooter", "lon": -77.03551816666666, "bike_id": "c0548458a04a7bd4ea7c1d3ffb19644c", "fusion_lat": 0.0, "name": "c0548458a04a7bd4ea7c1d3ffb19644c", "is_reserved": 0, "rental_uris": {"android": "https://dc.lft.to/lastmile_qr_scan", "ios": "https://dc.lft.to/lastmile_qr_scan"}, "fusion_lon": 0.0},