{"data": {"bikes": [{"lat": 38.930793333333334, "lon": -76.99610683333333, "is_disabled": 0, "fusion_lon": 0.0, "is_reserved": 0, "name": "c523832508c2738539032aa468043155", "type": "electric_scooter", "bike_id": "c523832508c2738539032aa468043155", "rental_uris": {"ios": "https://dc.lft.to/lastmile_qr_scan", "android": "https://dc.lft.to/lastmile_qr_scan"}, "fusion_lat": 0.0}, {"lat": 38.927625166666665, "lon": -77.05270316666666, "is_disabled": 0, "fusion_lon": 0.0, "is_reserved": 0, "name": "735af9ba5689275231087cb80161fab0", "type": "electric_scooter", "bike_id": "735af9ba5689275231087cb80161fab0", "rental_uris": {"ios": "https://dc.lft.to/lastmile_qr_scan", "android": "https://dc.lft.to/lastmile_qr_scan"}, "fusion_lat": 0.0}, {"lat": 38.90860033333333, "lon": -77.04527266666666, "is_disabled": 0, "fusion_lon": 0.0, "is_reserved": 0, "name": "3e9b5c492e62437eb7e1fb072b49c836", "type": "electric_scooter", "bike_id": "3e9b5c492e62437eb7e1fb072b49c836", "rental_uris": {"ios": "https://dc.lft.to/lastmile_qr_scan", "android": "https://dc.lft.to/lastmile_qr_scan"}, "fusion_lat": 0.0}, {"lat": 38.90016583333333, "lon": -77.03940233333333, "is_disabled": 0, "fusion_lon": 0.0, "is_reserved": 0, "name": "7d9d09d6639680e503048bc8360c24e6", "type": "electric_scooter", "bike_id": "7d9d09d6639680e503048bc8360c24e6", "rental_uris": {"ios": "https://dc.lft.to/lastmile_qr_scan", "android": "https://dc.lft.to/lastmile_qr_scan"}, "fusion_lat": 0.0}, {"lat": 38.919904333333335, "lon": -77.02388483333333, "is_disabled": 0, "fusion_lon": 0.0, "is_reserved": 0, "name": "0609b056dd7b7b8b58b21648c623be52", "type": "electric_scooter", "bike_id": "0609b056dd7b7b8b58b21648c623be52", "rental_uris": {"ios": "https://dc.lft.to/lastmile_qr_scan", "android": "https://dc.lft.to/lastmile_qr_scan"}, "fusion_lat": 0.0}, {"lat": 38.92138083333333, "lon": -77.01835716666666, "is_disabled": 0, "fusion_lon": 0.0, "is_reserved": 0, "name": "3a2cd831052649ed2df94481dd2c6306", "type": "electric_scooter", "bike_id": "3a2cd831052649ed2df94481dd2c6306", "rental_uris": {"ios": "https://dc.lft.to/lastmile_qr_scan", "android": "https://dc.lft.to/lastmile_qr_scan"}, "fusion_lat": 0.0}, {"lat": 38.90138266666666, "lon": -77.013485, "is_disabled": 0, "fusion_lon": 0.0, "is_reserved": 0, "name": "3d7d9661e15fe96e103b1230e37ab9f3", "type": "electric_scooter", "bike_id": "3d7d9661e15fe96e103b1230e37ab9f3", "rental_uris": {"ios": "https://dc.lft.to/lastmile_qr_scan", "android": "https://dc.lft.to/lastmile_qr_scan"}, "fusion_lat": 0.0}, {"lat": 38.8988655, "lon": -76.93178116666667, "is_disabled": 0, "fusion_lon": 0.0, "is_reserved": 0, "name": "4fbc50ad55a790820aebb0d5d5240bbe", "type": "electric_scooter", "bike_id": "4fbc50ad55a790820aebb0d5d5240bbe", "rental_uris": {"ios": "https://dc.lft.to/lastmile_qr_scan", "android": "https://dc.lft.to/lastmile_qr_scan"}, "fusion_lat": 0.0}, {"lat": 38.914017, "lon": -77.028361, "is_disabled": 0, "fusion_lon": 0.0, "is_reserved": 0, "name": "6ecaee1876cf62be13b33482dd13f96d", "type": "electric_scooter", "bike_id": "6ecaee1876cf62be13b33482dd13f96d", "rental_uris": {"ios": "https://dc.lft.to/lastmile_qr_scan", "android": "https://dc.lft.to/lastmile_qr_scan"}, "fusion_lat": 0.0}, {"lat": 38.915544, "lon": -77.01020616666666, "is_disabled": 0, "fusion_lon": 0.0, "is_reserved": 0, "name": "21913207074d5416811e9205b7469ccd", "type": "electric_scooter", "bike_id": "21913207074d5416811e9205b7469ccd", "rental_uris": {"ios": "https://dc.lft.to/lastmile_qr_scan", "android": "https://dc.lft.to/lastmile_qr_scan"}, "fusion_lat": 0.0}, {"lat": 38.910544333333334, "lon": -77.05291166666666, "is_disabled": 0, "fusion_lon": 0.0, "is_reserved": 0, "name": "2e683f039525db9c2eb558b3fc7eb722", "type": "electric_scooter", "bike_id": "2e683f039525db9c2eb558b3fc7eb722", "rental_uris": {"ios": "https://dc.lft.to/lastmile_qr_scan", "android": "https://dc.lft.to/lastmile_qr_scan"}, "fusion_lat": 0.0}, {"lat": 38.94451933333333, "lon": -77.02799916666666, "is_disabled": 0, "fusion_lon": 0.0, "is_reserved": 0, "name": "c4ebedbfc6725f02447f9fb2ee368137", "type": "electric_scooter", "bike_id": "c4ebedbfc6725f02447f9fb2ee368137", "rental_uris": {"ios": "https://dc.lft.to/lastmile_qr_scan", "android": "https://dc.lft.to/lastmile_qr_scan"}, "fusion_lat": 0.0}, {"lat": 38.932766666666666, "lon": -76.98435516666666, "is_disabled": 0, "fusion_lon": 0.0, "is_reserved": 0, "name": "86179b08b05246d05bfc61bb12568b28", "type": "electric_scooter", "bike_id": "86179b08b05246d05bfc61bb12568b28", "rental_uris": {"ios": "https://dc.lft.to/lastmile_qr_scan", "android": "https://dc.lft.to/lastmile_qr_scan"}, "fusion_lat": 0.0}, {"lat": 38.89803033333333, "lon": -77.02230316666666, "is_disabled": 0, "fusion_lon": 0.0, "is_reserved": 0, "name": "c3365c88cf616cbdae5f79baaf20fff0", "type": "electric_scooter", "bike_id": "c3365c88cf616cbdae5f79baaf20fff0", "rental_uris": {"ios": "https://dc.lft.to/lastmile_qr_scan", "android": "https://dc.lft.to/lastmile_qr_scan"}, "fusion_lat": 0.0}, {"lat": 38.91635316666667, "lon": -77.03193233333333, "is_disabled": 0, "fusion_lon": 0.0, "is_reserved": 0, "name": "2d3ee73363f9c4116a13455dda983534", "type": "electric_scooter", "bike_id": "2d3ee73363f9c4116a13455dda983534", "rental_uris": {"ios": "https://dc.lft.to/lastmile_qr_scan", "android": "https://dc.lft.to/lastmile_qr_scan"}, "fusion_lat": 0.0}, {"lat": 38.90276166666666, "lon": -77.03469816666667, "is_disabled": 0, "fusion_lon": 0.0, "is_reserved": 0, "name": "6444d2d9a3e64aae4aac40d67335c39b", "type": "electric_scooter", "bike_id": "6444d2d9a3e64aae4aac40d67335c39b", "rental_uris": {"ios": "https://dc.lft.to/lastmile_qr_scan", "android": "https://dc.lft.to/lastmile_qr_scan"}, "fusion_lat": 0.0}, {"lat": 38.89923116666667, "lon": -76.98522583333333, "is_disabled": 0, "fusion_lon": 0.0, "is_reserved": 0, "name": "727687671a0a7df6d67d328b13903591", "type": "electric_scooter", "bike_id": "727687671a0a7df6d67d328b13903591", "rental_uris": {"ios": "https://dc.lft.to/lastmile_qr_scan", "android": "https://dc.lft.to/lastmile_qr_scan"}, "fusion_lat": 0.0}, {"lat": 38.90294733333333, "lon": -77.03429783333333, "is_disabled": 0, "fusion_lon": 0.0, "is_reserved": 0, "name": "17e3fe3f6d0733d2b67aa91614d9c627", "type": "electric_scooter", "bike_id": "17e3fe3f6d0733d2b67aa91614d9c627", "rental_uris": {"ios": "https://dc.lft.to/lastmile_qr_scan", "android": "https://dc.lft.to/lastmile_qr_scan"}, "fusion_lat": 0.0}, {"lat": 38.92254833333333, "lon": -77.03521366666666, "is_disabled": 0, "fusion_lon": 0.0, "is_reserved": 0, "name": "8a02e1d9bca6b8d5f3a3b9b070454cf2", "type": "electric_scooter", "bike_id": "8a02e1d9bca6b8d5f3a3b9b070454cf2", "rental_uris": {"ios": "https://dc.lft.to/lastmile_qr_scan", "android": "https://dc.lft.to/lastmile_qr_scan"}, "fusion_lat": 0.0}, {"lat": 38.923110333333334, "lon": -77.02120983333333, "is_disabled": 0, "fusion_lon": 0.0, "is_reserved": 0, "name": "73369f6fd174e6c10010d1ba5a21b9f9", "type": "electric_scooter", "bike_id": "73369f6fd174e6c10010d1ba5a21b9f9", "rental_uris": {"ios": "https://dc.lft.to/lastmile_qr_scan", "android": "https://dc.lft.to/lastmile_qr_scan"}, "fusion_lat": 0.0}, {"lat": 38.90381816666667, "lon": -77.0600675, "is_disabled": 0, "fusion_lon": 0.0, "is_reserved": 0, "name": "91d5aa113d297920d7f2b76947776152", "type": "electric_scooter", "bike_id": "91d5aa113d297920d7f2b76947776152", "rental_uris": {"ios": "https://dc.lft.to/lastmile_qr_scan", "android": "https://dc.lft.to/lastmile_qr_scan"}, "fusion_lat": 0.0}, {"lat": 38.8773145, "lon": -77.11851366666667, "is_disabled": 0, "fusion_lon": 0.0, "is_reserved": 0, "name": "9a4f9a0bc46e1a9f787eadc43617a9f9", "type": "electric_bike", "bike_id": "9a4f9a0bc46e1a9f787eadc43617a9f9", "rental_uris": {"ios": "https://dc.lft.to/lastmile_qr_scan", "android": "https://dc.lft.to/lastmile_qr_scan"}, "fusion_lat": 0.0}, {"lat": 38.918771166666666, "lon": -77.04314283333333, "is_disabled": 0, "fusion_lon": 0.0, "is_reserved": 0, "name": "c35bd2e482bde2677a4487bd77075b62", "type": "electric_scooter", "bike_id": "c35bd2e482bde2677a4487bd77075b62", "rental_uris": {"ios": "https://dc.lft.to/lastmile_qr_scan", "android": "https://dc.lft.to/lastmile_qr_scan"}, "fusion_lat": 0.0}, {"lat": 38.903784333333334, "lon": -77.038886, "is_disabled": 0, "fusion_lon": 0.0, "is_reserved": 0, "name": "c2011baba1e88301308869e2adfef8e4", "type": "electric_scooter", "bike_id": "c2011baba1e88301308869e2adfef8e4", "rental_uris": {"ios": "https://dc.lft.to/lastmile_qr_scan", "android": "https://dc.lft.to/lastmile_qr_scan"}, "fusion_lat": 0.0}, {"lat": 38.91821816666667, "lon": -77.02418566666667, "is_disabled": 0, "fusion_lon": 0.0, "is_reserved": 0, "name": "ac40ae54b005d2a7786c96b2b6a362cf", "type": "electric_scooter", "bike_id": "ac40ae54b005d2a7786c96b2b6a362cf", "rental_uris": {"ios": "https://dc.lft.to/lastmile_qr_scan", "android": "https://dc.lft.to/lastmile_qr_scan"}, "fusion_lat": 0.0}, {"lat": 38.919128666666666, "lon": -77.02463366666667, "is_disabled": 0, "fusion_lon": 0.0, "is_reserved": 0, "name": "8bab5d7195c9e96fde5c8c684a3c6f2f", "type": "electric_scooter", "bike_id": "8bab5d7195c9e96fde5c8c684a3c6f2f", "rental_uris": {"ios": "https://dc.lft.to/lastmile_qr_scan", "android": "https://dc.lft.to/lastmile_qr_scan"}, "fusion_lat": 0.0}, {"lat": 38.9055275, "lon": -77.04180383333333, "is_disabled": 0, "fusion_lon": 0.0, "is_reserved": 0, "name": "0724ab88b5095f7d1a80dfc148536e78", "type": "electric_scooter", "bike_id": "0724ab88b5095f7d1a80dfc148536e78", "rental_uris": {"ios": "https://dc.lft.to/lastmile_qr_scan", "android": "https://dc.lft.to/lastmile_qr_scan"}, "fusion_lat": 0.0}, {"lat": 38.90036216666667, "lon": -77.00196983333333, "is_disabled": 0, "fusion_lon": 0.0, "is_reserved": 0, "name": "9bec0f4258adab2cdcad100026178a73", "type": "electric_scooter", "bike_id": "9bec0f4258adab2cdcad100026178a73", "rental_uris": {"ios": "https://dc.lft.to/lastmile_qr_scan", "android": "https://dc.lft.to/lastmile_qr_scan"}, "fusion_lat": 0.0}, {"lat": 38.910232666666666, "lon": -77.06477066666666, "is_disabled": 0, "fusion_lon": 0.0, "is_reserved": 0, "name": "597a158e8310f11f5bcf58072608f97e", "type": "electric_scooter", "bike_id": "597a158e8310f11f5bcf58072608f97e", "rental_uris": {"ios": "https://dc.lft.to/lastmile_qr_scan", "android": "https://dc.lft.to/lastmile_qr_scan"}, "fusion_lat": 0.0}, {"lat": 38.894871333333334, "lon": -77.01077333333333, "is_disabled": 0, "fusion_lon": 0.0, "is_reserved": 0, "name": "300d95b023bfc5b3c16dfbda0dd491d6", "type": "electric_scooter", "bike_id": "300d95b023bfc5b3c16dfbda0dd491d6", "rental_uris": {"ios": "https://dc.lft.to/lastmile_qr_scan", "android": "https://dc.lft.to/lastmile_qr_scan"}, "fusion_lat": 0.0}, {"lat": 38.902012166666665, "lon": -77.023464, "is_disabled": 0, "fusion_lon": 0.0, "is_reserved": 0, "name": "1a51cfff22244cbc5141d7352f536784", "type": "electric_scooter", "bike_id": "1a51cfff22244cbc5141d7352f536784", "rental_uris": {"ios": "https://dc.lft.to/lastmile_qr_scan", "android": "https://dc.lft.to/lastmile_qr_scan"}, "fusion_lat": 0.0}, {"lat": 38.887224333333336, "lon": -77.02829, "is_disabled": 0, "fusion_lon": 0.0, "is_reserved": 0, "name": "a028e9b80ea2101830ffda9773403730", "type": "electric_scooter", "bike_id": "a028e9b80ea2101830ffda9773403730", "rental_uris": {"ios": "https://dc.lft.to/lastmile_qr_scan", "android": "https://dc.lft.to/lastmile_qr_scan"}, "fusion_lat": 0.0}, {"lat": 38.899456666666666, "lon": -77.0450125, "is_disabled": 0, "fusion_lon": 0.0, "is_reserved": 0, "name": "47779d32d6cee1ce49b58034a7e78d6e", "type": "electric_scooter", "bike_id": "47779d32d6cee1ce49b58034a7e78d6e", "rental_uris": {"ios": "https://dc.lft.to/lastmile_qr_scan", "android": "https://dc.lft.to/lastmile_qr_scan"}, "fusion_lat": 0.0}, {"lat": 38.917102166666666, "lon": -76.97648583333333, "is_disabled": 0, "fusion_lon": 0.0, "is_reserved": 0, "name": "4ff33028e7d747e733d62a563272d575", "type": "electric_scooter", "bike_id": "4ff33028e7d747e733d62a563272d575", "rental_uris": {"ios": "https://dc.lft.to/lastmile_qr_scan", "android": "https://dc.lft.to/lastmile_qr_scan"}, "fusion_lat": 0.0}, {"lat": 38.877080666666664, "lon": -77.018232, "is_disabled": 0, "fusion_lon": 0.0, "is_reserved": 0, "name": "580b623c427ce60caf33f20e812df1b1", "type": "electric_scooter", "bike_id": "580b623c427ce60caf33f20e812df1b1", "rental_uris": {"ios": "https://dc.lft.to/lastmile_qr_scan", "android": "https://dc.lft.to/lastmile_qr_scan"}, "fusion_lat": 0.0}, {"lat": 38.902598166666664, "lon": -77.03338383333333, "is_disabled": 0, "fusion_lon": 0.0, "is_reserved": 0, "name": "8dd9fe118ff1c522167ae1ebaf03580a", "type": "electric_scooter", "bike_id": "8dd9fe118ff1c522167ae1ebaf03580a", "rental_uris": {"ios": "https://dc.lft.to/lastmile_qr_scan", "android": "https://dc.lft.to/lastmile_qr_scan"}, "fusion_lat": 0.0}, {"lat": 38.87100866666667, "lon": -76.96581283333333, "is_disabled": 0, "fusion_lon": 0.0, "is_reserved": 0, "name": "5daa6e57d89e9f977155c1adfbf261b0", "type": "electric_scooter", "bike_id": "5daa6e57d89e9f977155c1adfbf261b0", "rental_uris": {"ios": "https://dc.lft.to/lastmile_qr_scan", "android": "https://dc.lft.to/lastmile_qr_scan"}, "fusion_lat": 0.0}, {"lat": 38.886757333333335, "lon": -77.0019835, "is_disabled": 0, "fusion_lon": 0.0, "is_reserved": 0, "name": "9aa86f7ffb53feb2b07b0a68ba88283e", "type": "electric_scooter", "bike_id": "9aa86f7ffb53feb2b07b0a68ba88283e", "rental_uris": {"ios": "https://dc.lft.to/lastmile_qr_scan", "android": "https://dc.lft.to/lastmile_qr_scan"}, "fusion_lat": 0.0}, {"lat": 38.942740666666666, "lon": -77.03258433333333, "is_disabled": 0, "fusion_lon": 0.0, "is_reserved": 0, "name": "cd0df4d5b7c280f2963a090b853d77e8", "type": "electric_scooter", "bike_id": "cd0df4d5b7c280f2963a090b853d77e8", "rental_uris": {"ios": "https://dc.lft.to/lastmile_qr_scan", "android": "https://dc.lft.to/lastmile_qr_scan"}, "fusion_lat": 0.0}, {"lat": 38.928363, "lon": -77.0339735, "is_disabled": 0, "fusion_lon": 0.0, "is_reserved": 0, "name": "385afb8df77718cc6bc457f85ac9be6e", "type": "electric_scooter", "bike_id": "385afb8df77718cc6bc457f85ac9be6e", "rental_uris": {"ios": "https://dc.lft.to/lastmile_qr_scan", "android": "https://dc.lft.to/lastmile_qr_scan"}, "fusion_lat": 0.0}, {"lat": 38.8978865, "lon": -77.0315885, "is_disabled": 0, "fusion_lon": 0.0, "is_reserved": 0, "name": "01270aac5b37905c0d2b366e620b9bfa", "type": "electric_scooter", "bike_id": "01270aac5b37905c0d2b366e620b9bfa", "rental_uris": {"ios": "https://dc.lft.to/lastmile_qr_scan", "android": "https://dc.lft.to/lastmile_qr_scan"}, "fusion_lat": 0.0}, {"lat": 38.9013765, "lon": -77.03268116666666, "is_disabled": 0, "fusion_lon": 0.0, "is_reserved": 0, "name": "221b6f668308bdf08736b3bf1b8ef693", "type": "electric_bike", "bike_id": "221b6f668308bdf08736b3bf1b8ef693", "rental_uris": {"ios": "https://dc.lft.to/lastmile_qr_scan", "android": "https://dc.lft.to/lastmile_qr_scan"}, "fusion_lat": 0.0}, {"lat": 38.9236235, "lon": -77.021165, "is_disabled": 0, "fusion_lon": 0.0, "is_reserved": 0, "name": "efbc7820c7ec40046452630056bfbab0", "type": "electric_scooter", "bike_id": "efbc7820c7ec40046452630056bfbab0", "rental_uris": {"ios": "https://dc.lft.to/lastmile_qr_scan", "android": "https://dc.lft.to/lastmile_qr_scan"}, "fusion_lat": 0.0}, {"lat": 38.9028285, "lon": -77.04609683333334, "is_disabled": 0, "fusion_lon": 0.0, "is_reserved": 0, "name": "a1383be5d8722844208f68f95e669ce4", "type": "electric_scooter", "bike_id": "a1383be5d8722844208f68f95e669ce4", "rental_uris": {"ios": "https://dc.lft.to/lastmile_qr_scan", "android": "https://dc.lft.to/lastmile_qr_scan"}, "fusion_lat": 0.0}, {"lat": 38.870394833333336, "lon": -77.22910483333334, "is_disabled": 0, "fusion_lon": 0.0, "is_reserved": 0, "name": "4863f5cfeaf3ba6d45f27dd115fdafdb", "type": "electric_bike", "bike_id": "4863f5cfeaf3ba6d45f27dd115fdafdb", "rental_uris": {"ios": "https://dc.lft.to/lastmile_qr_scan", "android": "https://dc.lft.to/lastmile_qr_scan"}, "fusion_lat": 0.0}, {"lat": 38.89731833333333, "lon": -77.049657, "is_disabled": 0, "fusion_lon": 0.0, "is_reserved": 0, "name": "9047aa5945cb55a59dbda6fe78c3f972", "type": "electric_scooter", "bike_id": "9047aa5945cb55a59dbda6fe78c3f972", "rental_uris": {"ios": "https://dc.lft.to/lastmile_qr_scan", "android": "https://dc.lft.to/lastmile_qr_scan"}, "fusion_lat": 0.0}, {"lat": 38.905627, "lon": -77.03458916666666, "is_disabled": 0, "fusion_lon": 0.0, "is_reserved": 0, "name": "8f213acbd32701f7bd4607beb527ebca", "type": "electric_scooter", "bike_id": "8f213acbd32701f7bd4607beb527ebca", "rental_uris": {"ios": "https://dc.lft.to/lastmile_qr_scan", "android": "https://dc.lft.to/lastmile_qr_scan"}, "fusion_lat": 0.0}, {"lat": 38.881134333333335, "lon": -77.0165405, "is_disabled": 0, "fusion_lon": 0.0, "is_reserved": 0, "name": "42726a0195376825e64214b1817d4990", "type": "electric_scooter", "bike_id": "42726a0195376825e64214b1817d4990", "rental_uris": {"ios": "https://dc.lft.to/lastmile_qr_scan", "android": "https://dc.lft.to/lastmile_qr_scan"}, "fusion_lat": 0.0}, {"lat": 38.87456733333333, "lon": -77.00545016666666, "is_disabled": 0, "fusion_lon": 0.0, "is_reserved": 0, "name": "3a35d42ef94f051b1c5456a49d2820f2", "type": "electric_scooter", "bike_id": "3a35d42ef94f051b1c5456a49d2820f2", "rental_uris": {"ios": "https://dc.lft.to/lastmile_qr_scan", "android": "https://dc.lft.to/lastmile_qr_scan"}, "fusion_lat": 0.0}, {"lat": 38.92499433333333, "lon": -77.039162, "is_disabled": 0, "fusion_lon": 0.0, "is_reserved": 0, "name": "02ea05fdc5a8cd90ea335f0d023c9c7f", "type": "electric_scooter", "bike_id": "02ea05fdc5a8cd90ea335f0d023c9c7f", "rental_uris": {"ios": "https://dc.lft.to/lastmile_qr_scan", "android": "https://dc.lft.to/lastmile_qr_scan"}, "fusion_lat": 0.0}, {"lat": 38.91626516666667, "lon": -77.0269205, "is_disabled": 0, "fusion_lon": 0.0, "is_reserved": 0, "name": "c2a97437d04532fb0520fd13a8e1449c", "type": "electric_scooter", "bike_id": "c2a97437d04532fb0520fd13a8e1449c", "rental_uris": {"ios": "https://dc.lft.to/lastmile_qr_scan", "android": "https://dc.lft.to/lastmile_qr_scan"}, "fusion_lat": 0.0}, {"lat": 38.92080933333333, "lon": -77.022967, "is_disabled": 0, "fusion_lon": 0.0, "is_reserved": 0, "name": "345a0926d17ae98d88aec02de9481ad8", "type": "electric_scooter", "bike_id": "345a0926d17ae98d88aec02de9481ad8", "rental_uris": {"ios": "https://dc.lft.to/lastmile_qr_scan", "android": "https://dc.lft.to/lastmile_qr_scan"}, "fusion_lat": 0.0}, {"lat": 38.91413516666667, "lon": -77.03214366666667, "is_disabled": 0, "fusion_lon": 0.0, "is_reserved": 0, "name": "1f7fd8f0c71a9a264aa2de73a40d1e67", "type": "electric_scooter", "bike_id": "1f7fd8f0c71a9a264aa2de73a40d1e67", "rental_uris": {"ios": "https://dc.lft.to/lastmile_qr_scan", "android": "https://dc.lft.to/lastmile_qr_scan"}, "fusion_lat": 0.0}, {"lat": 38.90472, "lon": -77.05124016666667, "is_disabled": 0, "fusion_lon": 0.0, "is_reserved": 0, "name": "9005b035214586c2c40934771da87ada", "type": "electric_scooter", "bike_id": "9005b035214586c2c40934771da87ada", "rental_uris": {"ios": "https://dc.lft.to/lastmile_qr_scan", "android": "https://dc.lft.to/lastmile_qr_scan"}, "fusion_lat": 0.0}, {"lat": 38.91106966666667, "lon": -77.0446585, "is_disabled": 0, "fusion_lon": 0.0, "is_reserved": 0, "name": "0c8738cfc62f5339fd99fa86eeda4a0d", "type": "electric_scooter", "bike_id": "0c8738cfc62f5339fd99fa86eeda4a0d", "rental_uris": {"ios": "https://dc.lft.to/lastmile_qr_scan", "android": "https://dc.lft.to/lastmile_qr_scan"}, "fusion_lat": 0.0}, {"lat": 38.922885666666666, "lon": -76.9977645, "is_disabled": 0, "fusion_lon": 0.0, "is_reserved": 0, "name": "7bc5c633e052f323c7941fa180339e70", "type": "electric_scooter", "bike_id": "7bc5c633e052f323c7941fa180339e70", "rental_uris": {"ios": "https://dc.lft.to/lastmile_qr_scan", "android": "https://dc.lft.to/lastmile_qr_scan"}, "fusion_lat": 0.0}, {"lat": 38.9429305, "lon": -76.97393983333333, "is_disabled": 0, "fusion_lon": 0.0, "is_reserved": 0, "name": "5042be7e67282043b51885c55f636567", "type": "electric_bike", "bike_id": "5042be7e67282043b51885c55f636567", "rental_uris": {"ios": "https://dc.lft.to/lastmile_qr_scan", "android": "https://dc.lft.to/lastmile_qr_scan"}, "fusion_lat": 0.0}, {"lat": 38.9389275, "lon": -76.98606966666667, "is_disabled": 0, "fusion_lon": 0.0, "is_reserved": 0, "name": "3d6472f6844dc04b887b33b8124ec24d", "type": "electric_scooter", "bike_id": "3d6472f6844dc04b887b33b8124ec24d", "rental_uris": {"ios": "https://dc.lft.to/lastmile_qr_scan", "android": "https://dc.lft.to/lastmile_qr_scan"}, "fusion_lat": 0.0}, {"lat": 38.8984435, "lon": -76.94253516666667, "is_disabled": 0, "fusion_lon": 0.0, "is_reserved": 0, "name": "a595f3415b567aa5afb0806788101854", "type": "electric_scooter", "bike_id": "a595f3415b567aa5afb0806788101854", "rental_uris": {"ios": "https://dc.lft.to/lastmile_qr_scan", "android": "https://dc.lft.to/lastmile_qr_scan"}, "fusion_lat": 0.0}, {"lat": 38.918196333333334, "lon": -77.01208283333334, "is_disabled": 0, "fusion_lon": 0.0, "is_reserved": 0, "name": "723e5fcbaecc644c82859dc7258e3714", "type": "electric_scooter", "bike_id": "723e5fcbaecc644c82859dc7258e3714", "rental_uris": {"ios": "https://dc.lft.to/lastmile_qr_scan", "android": "https://dc.lft.to/lastmile_qr_scan"}, "fusion_lat": 0.0}, {"lat": 38.904885, "lon": -77.02812216666666, "is_disabled": 0, "fusion_lon": 0.0, "is_reserved": 0, "name": "94902eb4113439da738bdd9b18d39827", "type": "electric_scooter", "bike_id": "94902eb4113439da738bdd9b18d39827", "rental_uris": {"ios": "https://dc.lft.to/lastmile_qr_scan", "android": "https://dc.lft.to/lastmile_qr_scan"}, "fusion_lat": 0.0}, {"lat": 38.90143666666667, "lon": -76.97423283333333, "is_disabled": 0, "fusion_lon": 0.0, "is_reserved": 0, "name": "5fd61c1e9a94a7b8b3d74c168bbcb7c2", "type": "electric_scooter", "bike_id": "5fd61c1e9a94a7b8b3d74c168bbcb7c2", "rental_uris": {"ios": "https://dc.lft.to/lastmile_qr_scan", "android": "https://dc.lft.to/lastmile_qr_scan"}, "fusion_lat": 0.0}, {"lat": 38.90752833333333, "lon": -77.03578083333333, "is_disabled": 0, "fusion_lon": 0.0, "is_reserved": 0, "name": "0f314bab1c70760d891993a8d882ec67", "type": "electric_scooter", "bike_id": "0f314bab1c70760d891993a8d882ec67", "rental_uris": {"ios": "https://dc.lft.to/lastmile_qr_scan", "android": "https://dc.lft.to/lastmile_qr_scan"}, "fusion_lat": 0.0}, {"lat": 38.89742233333333, "lon": -77.01281583333333, "is_disabled": 0, "fusion_lon": 0.0, "is_reserved": 0, "name": "499cd7adfa77c4144024b2b91b0fa0cb", "type": "electric_scooter", "bike_id": "499cd7adfa77c4144024b2b91b0fa0cb", "rental_uris": {"ios": "https://dc.lft.to/lastmile_qr_scan", "android": "https://dc.lft.to/lastmile_qr_scan"}, "fusion_lat": 0.0}, {"lat": 38.898027166666665, "lon": -77.041681, "is_disabled": 0, "fusion_lon": 0.0, "is_reserved": 0, "name": "328155fa8c9b1ee3540f234ac1ed9c68", "type": "electric_scooter", "bike_id": "328155fa8c9b1ee3540f234ac1ed9c68", "rental_uris": {"ios": "https://dc.lft.to/lastmile_qr_scan", "android": "https://dc.lft.to/lastmile_qr_scan"}, "fusion_lat": 0.0}, {"lat": 38.919878833333335, "lon": -76.9730385, "is_disabled": 0, "fusion_lon": 0.0, "is_reserved": 0, "name": "307d67d8eb0ff4a1b1f193a05063bf75", "type": "electric_scooter", "bike_id": "307d67d8eb0ff4a1b1f193a05063bf75", "rental_uris": {"ios": "https://dc.lft.to/lastmile_qr_scan", "android": "https://dc.lft.to/lastmile_qr_scan"}, "fusion_lat": 0.0}, {"lat": 38.9141945, "lon": -77.0209965, "is_disabled": 0, "fusion_lon": 0.0, "is_reserved": 0, "name": "4be47362f4eadd12990c38c65576e636", "type": "electric_scooter", "bike_id": "4be47362f4eadd12990c38c65576e636", "rental_uris": {"ios": "https://dc.lft.to/lastmile_qr_scan", "android": "https://dc.lft.to/lastmile_qr_scan"}, "fusion_lat": 0.0}, {"lat": 38.9220835, "lon": -77.03773833333334, "is_disabled": 0, "fusion_lon": 0.0, "is_reserved": 0, "name": "a24a4341310d2b974b2144ee3e1c07cb", "type": "electric_scooter", "bike_id": "a24a4341310d2b974b2144ee3e1c07cb", "rental_uris": {"ios": "https://dc.lft.to/lastmile_qr_scan", "android": "https://dc.lft.to/lastmile_qr_scan"}, "fusion_lat": 0.0}, {"lat": 38.887652833333334, "lon": -76.98299083333333, "is_disabled": 0, "fusion_lon": 0.0, "is_reserved": 0, "name": "3a7e439caa98920cdc49e2a32eb33ea7", "type": "electric_scooter", "bike_id": "3a7e439caa98920cdc49e2a32eb33ea7", "rental_uris": {"ios": "https://dc.lft.to/lastmile_qr_scan", "android": "https://dc.lft.to/lastmile_qr_scan"}, "fusion_lat": 0.0}, {"lat": 38.906117, "lon": -77.031722, "is_disabled": 0, "fusion_lon": 0.0, "is_reserved": 0, "name": "163b47e8b572a607972aaded08d4642d", "type": "electric_scooter", "bike_id": "163b47e8b572a607972aaded08d4642d", "rental_uris": {"ios": "https://dc.lft.to/lastmile_qr_scan", "android": "https://dc.lft.to/lastmile_qr_scan"}, "fusion_lat": 0.0}, {"lat": 38.91596833333333, "lon": -77.01478016666667, "is_disabled": 0, "fusion_lon": 0.0, "is_reserved": 0, "name": "267cde6a09d91702ebf02deabcc13041", "type": "electric_scooter", "bike_id": "267cde6a09d91702ebf02deabcc13041", "rental_uris": {"ios": "https://dc.lft.to/lastmile_qr_scan", "android": "https://dc.lft.to/lastmile_qr_scan"}, "fusion_lat": 0.0}, {"lat": 38.90781466666667, "lon": -77.04202033333334, "is_disabled": 0, "fusion_lon": 0.0, "is_reserved": 0, "name": "2c873ca1fd295e23cd7381d0343c36d7", "type": "electric_scooter", "bike_id": "2c873ca1fd295e23cd7381d0343c36d7", "rental_uris": {"ios": "https://dc.lft.to/lastmile_qr_scan", "android": "https://dc.lft.to/lastmile_qr_scan"}, "fusion_lat": 0.0}, {"lat": 38.932112000000004, "lon": -77.035162, "is_disabled": 0, "fusion_lon": 0.0, "is_reserved": 0, "name": "50c05cdb807a1dfd1ce47fa34e3549b2", "type": "electric_scooter", "bike_id": "50c05cdb807a1dfd1ce47fa34e3549b2", "rental_uris": {"ios": "https://dc.lft.to/lastmile_qr_scan", "android": "https://dc.lft.to/lastmile_qr_scan"}, "fusion_lat": 0.0}, {"lat": 38.89893716666667, "lon": -77.04860616666667, "is_disabled": 0, "fusion_lon": 0.0, "is_reserved": 0, "name": "c9b7753809614d449f5b1fd1760d63d8", "type": "electric_bike", "bike_id": "c9b7753809614d449f5b1fd1760d63d8", "rental_uris": {"ios": "https://dc.lft.to/lastmile_qr_scan", "android": "https://dc.lft.to/lastmile_qr_scan"}, "fusion_lat": 0.0}, {"lat": 38.927693, "lon": -77.02065083333333, "is_disabled": 0, "fusion_lon": 0.0, "is_reserved": 0, "name": "881fd9ef89a9cd60109c650f1af6ba4f", "type": "electric_scooter", "bike_id": "881fd9ef89a9cd60109c650f1af6ba4f", "rental_uris": {"ios": "https://dc.lft.to/lastmile_qr_scan", "android": "https://dc.lft.to/lastmile_qr_scan"}, "fusion_lat": 0.0}, {"lat": 38.921481166666666, "lon": -77.03509483333333, "is_disabled": 0, "fusion_lon": 0.0, "is_reserved": 0, "name": "6f6e3c6b6386e1103c62a3c09b7fdf70", "type": "electric_scooter", "bike_id": "6f6e3c6b6386e1103c62a3c09b7fdf70", "rental_uris": {"ios": "https://dc.lft.to/lastmile_qr_scan", "android": "https://dc.lft.to/lastmile_qr_scan"}, "fusion_lat": 0.0}, {"lat": 38.92602766666667, "lon": -77.0215485, "is_disabled": 0, "fusion_lon": 0.0, "is_reserved": 0, "name": "16996451b2640729f1887ae5c84bf30d", "type": "electric_scooter", "bike_id": "16996451b2640729f1887ae5c84bf30d", "rental_uris": {"ios": "https://dc.lft.to/lastmile_qr_scan", "android": "https://dc.lft.to/lastmile_qr_scan"}, "fusion_lat": 0.0}, {"lat": 39.03607616666667, "lon": -77.05544233333333, "is_disabled": 0, "fusion_lon": 0.0, "is_reserved": 0, "name": "e71399f77393637daaa38a393b151474", "type": "electric_bike", "bike_id": "e71399f77393637daaa38a393b151474", "rental_uris": {"ios": "https://dc.lft.to/lastmile_qr_scan", "android": "https://dc.lft.to/lastmile_qr_scan"}, "fusion_lat": 0.0}, {"lat": 38.91705416666667, "lon": -77.00709066666667, "is_disabled": 0, "fusion_lon": 0.0, "is_reserved": 0, "name": "e862c521072cbef9f922d9d03e4af871", "type": "electric_scooter", "bike_id": "e862c521072cbef9f922d9d03e4af871", "rental_uris": {"ios": "https://dc.lft.to/lastmile_qr_scan", "android": "https://dc.lft.to/lastmile_qr_scan"}, "fusion_lat": 0.0}, {"lat": 38.93402783333333, "lon": -77.03988816666667, "is_disabled": 0, "fusion_lon": 0.0, "is_reserved": 0, "name": "42ea07398bc18eff6e9080cd62fd93e2", "type": "electric_scooter", "bike_id": "42ea07398bc18eff6e9080cd62fd93e2", "rental_uris": {"ios": "https://dc.lft.to/lastmile_qr_scan", "android": "https://dc.lft.to/lastmile_qr_scan"}, "fusion_lat": 0.0}, {"lat": 38.903888, "lon": -77.03817783333334, "is_disabled": 0, "fusion_lon": 0.0, "is_reserved": 0, "name": "57b5ca316787da021d9b2ef368865b45", "type": "electric_scooter", "bike_id": "57b5ca316787da021d9b2ef368865b45", "rental_uris": {"ios": "https://dc.lft.to/lastmile_qr_scan", "android": "https://dc.lft.to/lastmile_qr_scan"}, "fusion_lat": 0.0}, {"lat": 38.898255166666665, "lon": -77.04680133333333, "is_disabled": 0, "fusion_lon": 0.0, "is_reserved": 0, "name": "038132b8991ecae9931d2373947cefcb", "type": "electric_bike", "bike_id": "038132b8991ecae9931d2373947cefcb", "rental_uris": {"ios": "https://dc.lft.to/lastmile_qr_scan", "android": "https://dc.lft.to/lastmile_qr_scan"}, "fusion_lat": 0.0}, {"lat": 38.93046066666667, "lon": -77.03264016666667, "is_disabled": 0, "fusion_lon": 0.0, "is_reserved": 0, "name": "c0bf664fa80e3744f13e9fc70c4dd2ec", "type": "electric_scooter", "bike_id": "c0bf664fa80e3744f13e9fc70c4dd2ec", "rental_uris": {"ios": "https://dc.lft.to/lastmile_qr_scan", "android": "https://dc.lft.to/lastmile_qr_scan"}, "fusion_lat": 0.0}, {"lat": 38.9111835, "lon": -77.04536183333333, "is_disabled": 0, "fusion_lon": 0.0, "is_reserved": 0, "name": "f34a42175312302ff1cbbda7b2ec27b1", "type": "electric_scooter", "bike_id": "f34a42175312302ff1cbbda7b2ec27b1", "rental_uris": {"ios": "https://dc.lft.to/lastmile_qr_scan", "android": "https://dc.lft.to/lastmile_qr_scan"}, "fusion_lat": 0.0}, {"lat": 38.8430655, "lon": -76.995373, "is_disabled": 0, "fusion_lon": 0.0, "is_reserved": 0, "name": "70e7749ecc1f197ff051d5058340d27d", "type": "electric_scooter", "bike_id": "70e7749ecc1f197ff051d5058340d27d", "rental_uris": {"ios": "https://dc.lft.to/lastmile_qr_scan", "android": "https://dc.lft.to/lastmile_qr_scan"}, "fusion_lat": 0.0}, {"lat": 38.92437783333333, "lon": -77.02032, "is_disabled": 0, "fusion_lon": 0.0, "is_reserved": 0, "name": "81797c2fa2e64d727dd20db0a70198c9", "type": "electric_scooter", "bike_id": "81797c2fa2e64d727dd20db0a70198c9", "rental_uris": {"ios": "https://dc.lft.to/lastmile_qr_scan", "android": "https://dc.lft.to/lastmile_qr_scan"}, "fusion_lat": 0.0}, {"lat": 38.892209, "lon": -77.0419285, "is_disabled": 0, "fusion_lon": 0.0, "is_reserved": 0, "name": "627e8c6cecc6b660d8212746c5161a7f", "type": "electric_scooter", "bike_id": "627e8c6cecc6b660d8212746c5161a7f", "rental_uris": {"ios": "https://dc.lft.to/lastmile_qr_scan", "android": "https://dc.lft.to/lastmile_qr_scan"}, "fusion_lat": 0.0}, {"lat": 38.923299166666666, "lon": -77.05682033333333, "is_disabled": 0, "fusion_lon": 0.0, "is_reserved": 0, "name": "ce20d7488b0fec85096f0f3bd37580ac", "type": "electric_scooter", "bike_id": "ce20d7488b0fec85096f0f3bd37580ac", "rental_uris": {"ios": "https://dc.lft.to/lastmile_qr_scan", "android": "https://dc.lft.to/lastmile_qr_scan"}, "fusion_lat": 0.0}, {"lat": 38.90609033333333, "lon": -77.06376616666667, "is_disabled": 0, "fusion_lon": 0.0, "is_reserved": 0, "name": "27872a8ec2a86c90d61e586a578674fa", "type": "electric_scooter", "bike_id": "27872a8ec2a86c90d61e586a578674fa", "rental_uris": {"ios": "https://dc.lft.to/lastmile_qr_scan", "android": "https://dc.lft.to/lastmile_qr_scan"}, "fusion_lat": 0.0}, {"lat": 38.906338833333336, "lon": -77.02503333333334, "is_disabled": 0, "fusion_lon": 0.0, "is_reserved": 0, "name": "6da8c3d2c06f416f1e33b7888901e68d", "type": "electric_scooter", "bike_id": "6da8c3d2c06f416f1e33b7888901e68d", "rental_uris": {"ios": "https://dc.lft.to/lastmile_qr_scan", "android": "https://dc.lft.to/lastmile_qr_scan"}, "fusion_lat": 0.0}, {"lat": 38.926505, "lon": -77.03728933333333, "is_disabled": 0, "fusion_lon": 0.0, "is_reserved": 0, "name": "d93bc94050984936f1659944a4909e72", "type": "electric_scooter", "bike_id": "d93bc94050984936f1659944a4909e72", "rental_uris": {"ios": "https://dc.lft.to/lastmile_qr_scan", "android": "https://dc.lft.to/lastmile_qr_scan"}, "fusion_lat": 0.0}, {"lat": 38.92318566666667, "lon": -77.04112966666666, "is_disabled": 0, "fusion_lon": 0.0, "is_reserved": 0, "name": "6b9ce76fa8e325625e4a13d9a1637ca9", "type": "electric_scooter", "bike_id": "6b9ce76fa8e325625e4a13d9a1637ca9", "rental_uris": {"ios": "https://dc.lft.to/lastmile_qr_scan", "android": "https://dc.lft.to/lastmile_qr_scan"}, "fusion_lat": 0.0}, {"lat": 38.8761585, "lon": -76.96546516666666, "is_disabled": 0, "fusion_lon": 0.0, "is_reserved": 0, "name": "0f26e6e9e6a5812aa3ad59636533f341", "type": "electric_scooter", "bike_id": "0f26e6e9e6a5812aa3ad59636533f341", "rental_uris": {"ios": "https://dc.lft.to/lastmile_qr_scan", "android": "https://dc.lft.to/lastmile_qr_scan"}, "fusion_lat": 0.0}, {"lat": 38.9008555, "lon": -77.02097383333333, "is_disabled": 0, "fusion_lon": 0.0, "is_reserved": 0, "name": "091dd90745505ce26f0dd41d41bedecb", "type": "electric_scooter", "bike_id": "091dd90745505ce26f0dd41d41bedecb", "rental_uris": {"ios": "https://dc.lft.to/lastmile_qr_scan", "android": "https://dc.lft.to/lastmile_qr_scan"}, "fusion_lat": 0.0}, {"lat": 38.92590033333333, "lon": -77.21010383333333, "is_disabled": 0, "fusion_lon": 0.0, "is_reserved": 0, "name": "2d6cd8edf494567f43297eb390c01dfc", "type": "electric_bike", "bike_id": "2d6cd8edf494567f43297eb390c01dfc", "rental_uris": {"ios": "https://dc.lft.to/lastmile_qr_scan", "android": "https://dc.lft.to/lastmile_qr_scan"}, "fusion_lat": 0.0}, {"lat": 38.91503, "lon": -77.01559783333333, "is_disabled": 0, "fusion_lon": 0.0, "is_reserved": 0, "name": "471180c10755b37b0449b4aacdcda145", "type": "electric_scooter", "bike_id": "471180c10755b37b0449b4aacdcda145", "rental_uris": {"ios": "https://dc.lft.to/lastmile_qr_scan", "android": "https://dc.lft.to/lastmile_qr_scan"}, "fusion_lat": 0.0}, {"lat": 38.902364666666664, "lon": -77.03632983333334, "is_disabled": 0, "fusion_lon": 0.0, "is_reserved": 0, "name": "d66345a8b446eade7a52d45410d3fd2c", "type": "electric_scooter", "bike_id": "d66345a8b446eade7a52d45410d3fd2c", "rental_uris": {"ios": "https://dc.lft.to/lastmile_qr_scan", "android": "https://dc.lft.to/lastmile_qr_scan"}, "fusion_lat": 0.0}, {"lat": 38.92464416666667, "lon": -77.052352, "is_disabled": 0, "fusion_lon": 0.0, "is_reserved": 0, "name": "b833330415fef09c2806f69470f92e70", "type": "electric_scooter", "bike_id": "b833330415fef09c2806f69470f92e70", "rental_uris": {"ios": "https://dc.lft.to/lastmile_qr_scan", "android": "https://dc.lft.to/lastmile_qr_scan"}, "fusion_lat": 0.0}, {"lat": 38.88765933333333, "lon": -77.01302466666667, "is_disabled": 0, "fusion_lon": 0.0, "is_reserved": 0, "name": "d91516f3251b3c37d624424404d04e3e", "type": "electric_scooter", "bike_id": "d91516f3251b3c37d624424404d04e3e", "rental_uris": {"ios": "https://dc.lft.to/lastmile_qr_scan", "android": "https://dc.lft.to/lastmile_qr_scan"}, "fusion_lat": 0.0}, {"lat": 38.82778066666667, "lon": -77.12491133333333, "is_disabled": 0, "fusion_lon": 0.0, "is_reserved": 0, "name": "b258ae8cd7c7b0ec5ca57358b3b832b6", "type": "electric_bike", "bike_id": "b258ae8cd7c7b0ec5ca57358b3b832b6", "rental_uris": {"ios": "https://dc.lft.to/lastmile_qr_scan", "android": "https://dc.lft.to/lastmile_qr_scan"}, "fusion_lat": 0.0}, {"lat": 38.91585033333333, "lon": -77.0172275, "is_disabled": 0, "fusion_lon": 0.0, "is_reserved": 0, "name": "5e1940e027c96772bb1a7169aaf4f26c", "type": "electric_scooter", "bike_id": "5e1940e027c96772bb1a7169aaf4f26c", "rental_uris": {"ios": "https://dc.lft.to/lastmile_qr_scan", "android": "https://dc.lft.to/lastmile_qr_scan"}, "fusion_lat": 0.0}, {"lat": 38.908146, "lon": -77.0383875, "is_disabled": 0, "fusion_lon": 0.0, "is_reserved": 0, "name": "d803a61c926f7d9d7b7eea432044f2a9", "type": "electric_scooter", "bike_id": "d803a61c926f7d9d7b7eea432044f2a9", "rental_uris": {"ios": "https://dc.lft.to/lastmile_qr_scan", "android": "https://dc.lft.to/lastmile_qr_scan"}, "fusion_lat": 0.0}, {"lat": 38.899285, "lon": -77.02016116666667, "is_disabled": 0, "fusion_lon": 0.0, "is_reserved": 0, "name": "fe29d96b965a3bba4a68f3a7610ebde6", "type": "electric_scooter", "bike_id": "fe29d96b965a3bba4a68f3a7610ebde6", "rental_uris": {"ios": "https://dc.lft.to/lastmile_qr_scan", "android": "https://dc.lft.to/lastmile_qr_scan"}, "fusion_lat": 0.0}, {"lat": 38.874588333333335, "lon": -77.01453583333333, "is_disabled": 0, "fusion_lon": 0.0, "is_reserved": 0, "name": "468b061d74c8ea920bc35a82c2a45ef8", "type": "electric_scooter", "bike_id": "468b061d74c8ea920bc35a82c2a45ef8", "rental_uris": {"ios": "https://dc.lft.to/lastmile_qr_scan", "android": "https://dc.lft.to/lastmile_qr_scan"}, "fusion_lat": 0.0}, {"lat": 38.89218066666667, "lon": -77.02655133333333, "is_disabled": 0, "fusion_lon": 0.0, "is_reserved": 0, "name": "868b12979248d365e87a4492053007a8", "type": "electric_scooter", "bike_id": "868b12979248d365e87a4492053007a8", "rental_uris": {"ios": "https://dc.lft.to/lastmile_qr_scan", "android": "https://dc.lft.to/lastmile_qr_scan"}, "fusion_lat": 0.0}, {"lat": 38.92681733333333, "lon": -77.02791883333333, "is_disabled": 0, "fusion_lon": 0.0, "is_reserved": 0, "name": "3de19dcec5d65d4eb86c9cfff945ea12", "type": "electric_scooter", "bike_id": "3de19dcec5d65d4eb86c9cfff945ea12", "rental_uris": {"ios": "https://dc.lft.to/lastmile_qr_scan", "android": "https://dc.lft.to/lastmile_qr_scan"}, "fusion_lat": 0.0}, {"lat": 38.87576983333334, "lon": -77.23410183333333, "is_disabled": 0, "fusion_lon": 0.0, "is_reserved": 0, "name": "001c778bf371e4b580bd2eaba245c25e", "type": "electric_bike", "bike_id": "001c778bf371e4b580bd2eaba245c25e", "rental_uris": {"ios": "https://dc.lft.to/lastmile_qr_scan", "android": "https://dc.lft.to/lastmile_qr_scan"}, "fusion_lat": 0.0}, {"lat": 38.9118235, "lon": -77.03502366666666, "is_disabled": 0, "fusion_lon": 0.0, "is_reserved": 0, "name": "dc7762a768c56db4ea195ea96b641c85", "type": "electric_scooter", "bike_id": "dc7762a768c56db4ea195ea96b641c85", "rental_uris": {"ios": "https://dc.lft.to/lastmile_qr_scan", "android": "https://dc.lft.to/lastmile_qr_scan"}, "fusion_lat": 0.0}, {"lat": 38.892227166666665, "lon": -77.02775633333333, "is_disabled": 0, "fusion_lon": 0.0, "is_reserved": 0, "name": "e6d47b60af92ef695653e21a2d70ccdc", "type": "electric_scooter", "bike_id": "e6d47b60af92ef695653e21a2d70ccdc", "rental_uris": {"ios": "https://dc.lft.to/lastmile_qr_scan", "android": "https://dc.lft.to/lastmile_qr_scan"}, "fusion_lat": 0.0}, {"lat": 38.9105905, "lon": -77.03434483333334, "is_disabled": 0, "fusion_lon": 0.0, "is_reserved": 0, "name": "34cf1a5dcda236744aadf27c240d10f7", "type": "electric_scooter", "bike_id": "34cf1a5dcda236744aadf27c240d10f7", "rental_uris": {"ios": "https://dc.lft.to/lastmile_qr_scan", "android": "https://dc.lft.to/lastmile_qr_scan"}, "fusion_lat": 0.0}, {"lat": 38.899387, "lon": -77.04149583333333, "is_disabled": 0, "fusion_lon": 0.0, "is_reserved": 0, "name": "4c255d7be2eade14142584431db1f39f", "type": "electric_scooter", "bike_id": "4c255d7be2eade14142584431db1f39f", "rental_uris": {"ios": "https://dc.lft.to/lastmile_qr_scan", "android": "https://dc.lft.to/lastmile_qr_scan"}, "fusion_lat": 0.0}, {"lat": 38.91724283333333, "lon": -77.0258305, "is_disabled": 0, "fusion_lon": 0.0, "is_reserved": 0, "name": "ad0651b9b8727918b0ac2c392c458147", "type": "electric_scooter", "bike_id": "ad0651b9b8727918b0ac2c392c458147", "rental_uris": {"ios": "https://dc.lft.to/lastmile_qr_scan", "android": "https://dc.lft.to/lastmile_qr_scan"}, "fusion_lat": 0.0}, {"lat": 38.896834, "lon": -76.9371345, "is_disabled": 0, "fusion_lon": 0.0, "is_reserved": 0, "name": "67851ad5f560eb42b78cedc88f10cf5a", "type": "electric_scooter", "bike_id": "67851ad5f560eb42b78cedc88f10cf5a", "rental_uris": {"ios": "https://dc.lft.to/lastmile_qr_scan", "android": "https://dc.lft.to/lastmile_qr_scan"}, "fusion_lat": 0.0}, {"lat": 38.893201, "lon": -77.02220133333333, "is_disabled": 0, "fusion_lon": 0.0, "is_reserved": 0, "name": "0206dbeb1116d8af33e728c011204b4c", "type": "electric_scooter", "bike_id": "0206dbeb1116d8af33e728c011204b4c", "rental_uris": {"ios": "https://dc.lft.to/lastmile_qr_scan", "android": "https://dc.lft.to/lastmile_qr_scan"}, "fusion_lat": 0.0}, {"lat": 38.950579166666664, "lon": -77.080275, "is_disabled": 0, "fusion_lon": 0.0, "is_reserved": 0, "name": "4f3b819826e0e3adcdb03d403ab9f78c", "type": "electric_scooter", "bike_id": "4f3b819826e0e3adcdb03d403ab9f78c", "rental_uris": {"ios": "https://dc.lft.to/lastmile_qr_scan", "android": "https://dc.lft.to/lastmile_qr_scan"}, "fusion_lat": 0.0}, {"lat": 38.899019, "lon": -76.99959266666667, "is_disabled": 0, "fusion_lon": 0.0, "is_reserved": 0, "name": "1c4e1a22e684924319a5e0f118ed93d5", "type": "electric_scooter", "bike_id": "1c4e1a22e684924319a5e0f118ed93d5", "rental_uris": {"ios": "https://dc.lft.to/lastmile_qr_scan", "android": "https://dc.lft.to/lastmile_qr_scan"}, "fusion_lat": 0.0}, {"lat": 38.915292, "lon": -77.04863583333334, "is_disabled": 0, "fusion_lon": 0.0, "is_reserved": 0, "name": "3d61eb7f6fada437a7dd60649bbc6555", "type": "electric_scooter", "bike_id": "3d61eb7f6fada437a7dd60649bbc6555", "rental_uris": {"ios": "https://dc.lft.to/lastmile_qr_scan", "android": "https://dc.lft.to/lastmile_qr_scan"}, "fusion_lat": 0.0}, {"lat": 38.914161666666665, "lon": -77.00875666666667, "is_disabled": 0, "fusion_lon": 0.0, "is_reserved": 0, "name": "a521a514c2858ddd3f55755e268d676f", "type": "electric_scooter", "bike_id": "a521a514c2858ddd3f55755e268d676f", "rental_uris": {"ios": "https://dc.lft.to/lastmile_qr_scan", "android": "https://dc.lft.to/lastmile_qr_scan"}, "fusion_lat": 0.0}, {"lat": 38.91802033333333, "lon": -77.0248785, "is_disabled": 0, "fusion_lon": 0.0, "is_reserved": 0, "name": "b52c31ed851c146fe8b5f7ae1408eafb", "type": "electric_scooter", "bike_id": "b52c31ed851c146fe8b5f7ae1408eafb", "rental_uris": {"ios": "https://dc.lft.to/lastmile_qr_scan", "android": "https://dc.lft.to/lastmile_qr_scan"}, "fusion_lat": 0.0}, {"lat": 38.917534, "lon": -77.03643366666667, "is_disabled": 0, "fusion_lon": 0.0, "is_reserved": 0, "name": "414318728d147d0ff029c8c0e1cc87d8", "type": "electric_scooter", "bike_id": "414318728d147d0ff029c8c0e1cc87d8", "rental_uris": {"ios": "https://dc.lft.to/lastmile_qr_scan", "android": "https://dc.lft.to/lastmile_qr_scan"}, "fusion_lat": 0.0}, {"lat": 38.901395, "lon": -77.0321865, "is_disabled": 0, "fusion_lon": 0.0, "is_reserved": 0, "name": "8bb9fc9659e736c4b40bbdb07d4878ae", "type": "electric_scooter", "bike_id": "8bb9fc9659e736c4b40bbdb07d4878ae", "rental_uris": {"ios": "https://dc.lft.to/lastmile_qr_scan", "android": "https://dc.lft.to/lastmile_qr_scan"}, "fusion_lat": 0.0}, {"lat": 38.934453500000004, "lon": -77.09058516666667, "is_disabled": 0, "fusion_lon": 0.0, "is_reserved": 0, "name": "ca86ccbd68dcdd3415ef4f39b3c21bdc", "type": "electric_scooter", "bike_id": "ca86ccbd68dcdd3415ef4f39b3c21bdc", "rental_uris": {"ios": "https://dc.lft.to/lastmile_qr_scan", "android": "https://dc.lft.to/lastmile_qr_scan"}, "fusion_lat": 0.0}, {"lat": 38.919544, "lon": -77.0178525, "is_disabled": 0, "fusion_lon": 0.0, "is_reserved": 0, "name": "91efef069a212baf33a69b210365fc57", "type": "electric_scooter", "bike_id": "91efef069a212baf33a69b210365fc57", "rental_uris": {"ios": "https://dc.lft.to/lastmile_qr_scan", "android": "https://dc.lft.to/lastmile_qr_scan"}, "fusion_lat": 0.0}, {"lat": 38.904762833333336, "lon": -77.03463366666666, "is_disabled": 0, "fusion_lon": 0.0, "is_reserved": 0, "name": "5191f2ef7bd2fd94a9132e94ec25ccd1", "type": "electric_scooter", "bike_id": "5191f2ef7bd2fd94a9132e94ec25ccd1", "rental_uris": {"ios": "https://dc.lft.to/lastmile_qr_scan", "android": "https://dc.lft.to/lastmile_qr_scan"}, "fusion_lat": 0.0}, {"lat": 38.85509966666667, "lon": -76.98938016666666, "is_disabled": 0, "fusion_lon": 0.0, "is_reserved": 0, "name": "60dcb0b5b25f29621074351cd02a9585", "type": "electric_scooter", "bike_id": "60dcb0b5b25f29621074351cd02a9585", "rental_uris": {"ios": "https://dc.lft.to/lastmile_qr_scan", "android": "https://dc.lft.to/lastmile_qr_scan"}, "fusion_lat": 0.0}, {"lat": 38.966113666666665, "lon": -77.02747433333333, "is_disabled": 0, "fusion_lon": 0.0, "is_reserved": 0, "name": "f41303f9a14f58e955512e226854cca2", "type": "electric_scooter", "bike_id": "f41303f9a14f58e955512e226854cca2", "rental_uris": {"ios": "https://dc.lft.to/lastmile_qr_scan", "android": "https://dc.lft.to/lastmile_qr_scan"}, "fusion_lat": 0.0}, {"lat": 38.97372933333333, "lon": -77.012702, "is_disabled": 0, "fusion_lon": 0.0, "is_reserved": 0, "name": "362fa87c5681497258fb433b7e4321e9", "type": "electric_scooter", "bike_id": "362fa87c5681497258fb433b7e4321e9", "rental_uris": {"ios": "https://dc.lft.to/lastmile_qr_scan", "android": "https://dc.lft.to/lastmile_qr_scan"}, "fusion_lat": 0.0}, {"lat": 38.99210183333334, "lon": -77.03207216666667, "is_disabled": 0, "fusion_lon": 0.0, "is_reserved": 0, "name": "ccec63f203f3ef22a3830ab2bf30b02a", "type": "electric_bike", "bike_id": "ccec63f203f3ef22a3830ab2bf30b02a", "rental_uris": {"ios": "https://dc.lft.to/lastmile_qr_scan", "android": "https://dc.lft.to/lastmile_qr_scan"}, "fusion_lat": 0.0}, {"lat": 38.906668, "lon": -76.9894375, "is_disabled": 0, "fusion_lon": 0.0, "is_reserved": 0, "name": "a204fd1c7a795250690e4a338173871d", "type": "electric_scooter", "bike_id": "a204fd1c7a795250690e4a338173871d", "rental_uris": {"ios": "https://dc.lft.to/lastmile_qr_scan", "android": "https://dc.lft.to/lastmile_qr_scan"}, "fusion_lat": 0.0}, {"lat": 38.914220666666665, "lon": -77.04474833333333, "is_disabled": 0, "fusion_lon": 0.0, "is_reserved": 0, "name": "c8b0c1bda858b2cb00160e7cf77ff404", "type": "electric_scooter", "bike_id": "c8b0c1bda858b2cb00160e7cf77ff404", "rental_uris": {"ios": "https://dc.lft.to/lastmile_qr_scan", "android": "https://dc.lft.to/lastmile_qr_scan"}, "fusion_lat": 0.0}, {"lat": 38.935374, "lon": -77.05743533333333, "is_disabled": 0, "fusion_lon": 0.0, "is_reserved": 0, "name": "9b0114e57f2cf4ee366a2cc2acb96230", "type": "electric_scooter", "bike_id": "9b0114e57f2cf4ee366a2cc2acb96230", "rental_uris": {"ios": "https://dc.lft.to/lastmile_qr_scan", "android": "https://dc.lft.to/lastmile_qr_scan"}, "fusion_lat": 0.0}, {"lat": 38.91815733333333, "lon": -77.03562466666666, "is_disabled": 0, "fusion_lon": 0.0, "is_reserved": 0, "name": "618bd1b4bd25c40627af8a7adf679a6c", "type": "electric_scooter", "bike_id": "618bd1b4bd25c40627af8a7adf679a6c", "rental_uris": {"ios": "https://dc.lft.to/lastmile_qr_scan", "android": "https://dc.lft.to/lastmile_qr_scan"}, "fusion_lat": 0.0}, {"lat": 38.91987916666667, "lon": -77.02391366666667, "is_disabled": 0, "fusion_lon": 0.0, "is_reserved": 0, "name": "007f36a63d5348078e13f1f29773ff9c", "type": "electric_scooter", "bike_id": "007f36a63d5348078e13f1f29773ff9c", "rental_uris": {"ios": "https://dc.lft.to/lastmile_qr_scan", "android": "https://dc.lft.to/lastmile_qr_scan"}, "fusion_lat": 0.0}, {"lat": 38.9384455, "lon": -77.0723225, "is_disabled": 0, "fusion_lon": 0.0, "is_reserved": 0, "name": "eda0ffa10156cbeffa80b80a1dd4420d", "type": "electric_scooter", "bike_id": "eda0ffa10156cbeffa80b80a1dd4420d", "rental_uris": {"ios": "https://dc.lft.to/lastmile_qr_scan", "android": "https://dc.lft.to/lastmile_qr_scan"}, "fusion_lat": 0.0}, {"lat": 38.8929955, "lon": -77.01234216666667, "is_disabled": 0, "fusion_lon": 0.0, "is_reserved": 0, "name": "fe330dbea409434546a9d04f6ae0ce35", "type": "electric_scooter", "bike_id": "fe330dbea409434546a9d04f6ae0ce35", "rental_uris": {"ios": "https://dc.lft.to/lastmile_qr_scan", "android": "https://dc.lft.to/lastmile_qr_scan"}, "fusion_lat": 0.0}, {"lat": 38.901494, "lon": -77.02975483333333, "is_disabled": 0, "fusion_lon": 0.0, "is_reserved": 0, "name": "3567cc994a9a759fe35206b45287d8f4", "type": "electric_bike", "bike_id": "3567cc994a9a759fe35206b45287d8f4", "rental_uris": {"ios": "https://dc.lft.to/lastmile_qr_scan", "android": "https://dc.lft.to/lastmile_qr_scan"}, "fusion_lat": 0.0}, {"lat": 38.89832416666667, "lon": -77.03176883333333, "is_disabled": 0, "fusion_lon": 0.0, "is_reserved": 0, "name": "6399d502d6e5298153612363aea2b901", "type": "electric_scooter", "bike_id": "6399d502d6e5298153612363aea2b901", "rental_uris": {"ios": "https://dc.lft.to/lastmile_qr_scan", "android": "https://dc.lft.to/lastmile_qr_scan"}, "fusion_lat": 0.0}, {"lat": 38.862677833333336, "lon": -76.99530783333333, "is_disabled": 0, "fusion_lon": 0.0, "is_reserved": 0, "name": "c4695b39f1ff96e83debe1d314d3a6dd", "type": "electric_scooter", "bike_id": "c4695b39f1ff96e83debe1d314d3a6dd", "rental_uris": {"ios": "https://dc.lft.to/lastmile_qr_scan", "android": "https://dc.lft.to/lastmile_qr_scan"}, "fusion_lat": 0.0}, {"lat": 38.936093, "lon": -77.03188766666666, "is_disabled": 0, "fusion_lon": 0.0, "is_reserved": 0, "name": "0d8c5906f6809db1620ee2c6376c1ca4", "type": "electric_scooter", "bike_id": "0d8c5906f6809db1620ee2c6376c1ca4", "rental_uris": {"ios": "https://dc.lft.to/lastmile_qr_scan", "android": "https://dc.lft.to/lastmile_qr_scan"}, "fusion_lat": 0.0}, {"lat": 38.93904083333334, "lon": -77.0246155, "is_disabled": 0, "fusion_lon": 0.0, "is_reserved": 0, "name": "76c031d6abeccc7c970a3205bfb796f1", "type": "electric_scooter", "bike_id": "76c031d6abeccc7c970a3205bfb796f1", "rental_uris": {"ios": "https://dc.lft.to/lastmile_qr_scan", "android": "https://dc.lft.to/lastmile_qr_scan"}, "fusion_lat": 0.0}, {"lat": 38.95732816666667, "lon": -77.02402916666666, "is_disabled": 0, "fusion_lon": 0.0, "is_reserved": 0, "name": "fdcaeea4cf3b6b6f2443881062629708", "type": "electric_scooter", "bike_id": "fdcaeea4cf3b6b6f2443881062629708", "rental_uris": {"ios": "https://dc.lft.to/lastmile_qr_scan", "android": "https://dc.lft.to/lastmile_qr_scan"}, "fusion_lat": 0.0}, {"lat": 38.9171025, "lon": -77.02876683333334, "is_disabled": 0, "fusion_lon": 0.0, "is_reserved": 0, "name": "30cd33bc30b7dc4798461793aabe1c74", "type": "electric_scooter", "bike_id": "30cd33bc30b7dc4798461793aabe1c74", "rental_uris": {"ios": "https://dc.lft.to/lastmile_qr_scan", "android": "https://dc.lft.to/lastmile_qr_scan"}, "fusion_lat": 0.0}, {"lat": 38.921494833333334, "lon": -77.03872583333333, "is_disabled": 0, "fusion_lon": 0.0, "is_reserved": 0, "name": "ba4f7c50ac8925cbd7da8f69db009f38", "type": "electric_scooter", "bike_id": "ba4f7c50ac8925cbd7da8f69db009f38", "rental_uris": {"ios": "https://dc.lft.to/lastmile_qr_scan", "android": "https://dc.lft.to/lastmile_qr_scan"}, "fusion_lat": 0.0}, {"lat": 38.89221583333333, "lon": -77.04465316666666, "is_disabled": 0, "fusion_lon": 0.0, "is_reserved": 0, "name": "94dc743d6a6b1b04fbebd7a275eb36e5", "type": "electric_scooter", "bike_id": "94dc743d6a6b1b04fbebd7a275eb36e5", "rental_uris": {"ios": "https://dc.lft.to/lastmile_qr_scan", "android": "https://dc.lft.to/lastmile_qr_scan"}, "fusion_lat": 0.0}, {"lat": 38.931859333333335, "lon": -77.03459183333334, "is_disabled": 0, "fusion_lon": 0.0, "is_reserved": 0, "name": "541f326307d1670ce22052091fc2e5ef", "type": "electric_scooter", "bike_id": "541f326307d1670ce22052091fc2e5ef", "rental_uris": {"ios": "https://dc.lft.to/lastmile_qr_scan", "android": "https://dc.lft.to/lastmile_qr_scan"}, "fusion_lat": 0.0}, {"lat": 38.956373, "lon": -77.03305583333334, "is_disabled": 0, "fusion_lon": 0.0, "is_reserved": 0, "name": "4aa05b7e88ae0d13a2ae1b6c6aecee22", "type": "electric_scooter", "bike_id": "4aa05b7e88ae0d13a2ae1b6c6aecee22", "rental_uris": {"ios": "https://dc.lft.to/lastmile_qr_scan", "android": "https://dc.lft.to/lastmile_qr_scan"}, "fusion_lat": 0.0}, {"lat": 38.905803, "lon": -77.04319866666667, "is_disabled": 0, "fusion_lon": 0.0, "is_reserved": 0, "name": "a9d5aa7b19c042d90922ec7844cdc814", "type": "electric_scooter", "bike_id": "a9d5aa7b19c042d90922ec7844cdc814", "rental_uris": {"ios": "https://dc.lft.to/lastmile_qr_scan", "android": "https://dc.lft.to/lastmile_qr_scan"}, "fusion_lat": 0.0}, {"lat": 38.919213166666665, "lon": -77.0336925, "is_disabled": 0, "fusion_lon": 0.0, "is_reserved": 0, "name": "ca1abadbdf6d4147d538b7ac7d5bda20", "type": "electric_scooter", "bike_id": "ca1abadbdf6d4147d538b7ac7d5bda20", "rental_uris": {"ios": "https://dc.lft.to/lastmile_qr_scan", "android": "https://dc.lft.to/lastmile_qr_scan"}, "fusion_lat": 0.0}, {"lat": 38.88459966666667, "lon": -76.9523545, "is_disabled": 0, "fusion_lon": 0.0, "is_reserved": 0, "name": "c06bfa93f7e29fdece6d29782db8b580", "type": "electric_bike", "bike_id": "c06bfa93f7e29fdece6d29782db8b580", "rental_uris": {"ios": "https://dc.lft.to/lastmile_qr_scan", "android": "https://dc.lft.to/lastmile_qr_scan"}, "fusion_lat": 0.0}, {"lat": 38.918948666666665, "lon": -77.0295055, "is_disabled": 0, "fusion_lon": 0.0, "is_reserved": 0, "name": "5e1e553d8458fb8000e7e6cfa2e024fd", "type": "electric_scooter", "bike_id": "5e1e553d8458fb8000e7e6cfa2e024fd", "rental_uris": {"ios": "https://dc.lft.to/lastmile_qr_scan", "android": "https://dc.lft.to/lastmile_qr_scan"}, "fusion_lat": 0.0}, {"lat": 38.9217695, "lon": -77.03833466666667, "is_disabled": 0, "fusion_lon": 0.0, "is_reserved": 0, "name": "e548cdbb15b389dd19b396d9770baa3c", "type": "electric_scooter", "bike_id": "e548cdbb15b389dd19b396d9770baa3c", "rental_uris": {"ios": "https://dc.lft.to/lastmile_qr_scan", "android": "https://dc.lft.to/lastmile_qr_scan"}, "fusion_lat": 0.0}, {"lat": 38.89627316666667, "lon": -77.02138383333333, "is_disabled": 0, "fusion_lon": 0.0, "is_reserved": 0, "name": "3878ee53eab3da0b0c18142ce78cefb8", "type": "electric_scooter", "bike_id": "3878ee53eab3da0b0c18142ce78cefb8", "rental_uris": {"ios": "https://dc.lft.to/lastmile_qr_scan", "android": "https://dc.lft.to/lastmile_qr_scan"}, "fusion_lat": 0.0}, {"lat": 38.92392666666667, "lon": -77.05187733333334, "is_disabled": 0, "fusion_lon": 0.0, "is_reserved": 0, "name": "ea87df72f9b5090cc3765760cb279dad", "type": "electric_scooter", "bike_id": "ea87df72f9b5090cc3765760cb279dad", "rental_uris": {"ios": "https://dc.lft.to/lastmile_qr_scan", "android": "https://dc.lft.to/lastmile_qr_scan"}, "fusion_lat": 0.0}, {"lat": 38.926689833333334, "lon": -77.01518116666666, "is_disabled": 0, "fusion_lon": 0.0, "is_reserved": 0, "name": "46ade8e1f481c098a62dd10c194929f3", "type": "electric_scooter", "bike_id": "46ade8e1f481c098a62dd10c194929f3", "rental_uris": {"ios": "https://dc.lft.to/lastmile_qr_scan", "android": "https://dc.lft.to/lastmile_qr_scan"}, "fusion_lat": 0.0}, {"lat": 38.916801166666666, "lon": -77.02956833333333, "is_disabled": 0, "fusion_lon": 0.0, "is_reserved": 0, "name": "fd3da9792f0ac4aaa5793fdbbe7ed3fa", "type": "electric_scooter", "bike_id": "fd3da9792f0ac4aaa5793fdbbe7ed3fa", "rental_uris": {"ios": "https://dc.lft.to/lastmile_qr_scan", "android": "https://dc.lft.to/lastmile_qr_scan"}, "fusion_lat": 0.0}, {"lat": 38.91708083333333, "lon": -77.00117466666667, "is_disabled": 0, "fusion_lon": 0.0, "is_reserved": 0, "name": "04c7ef213512e56e2422ef4877609c6a", "type": "electric_scooter", "bike_id": "04c7ef213512e56e2422ef4877609c6a", "rental_uris": {"ios": "https://dc.lft.to/lastmile_qr_scan", "android": "https://dc.lft.to/lastmile_qr_scan"}, "fusion_lat": 0.0}, {"lat": 38.89803933333334, "lon": -76.9906975, "is_disabled": 0, "fusion_lon": 0.0, "is_reserved": 0, "name": "13fbf425d7afb90aba3a032be575f6a4", "type": "electric_bike", "bike_id": "13fbf425d7afb90aba3a032be575f6a4", "rental_uris": {"ios": "https://dc.lft.to/lastmile_qr_scan", "android": "https://dc.lft.to/lastmile_qr_scan"}, "fusion_lat": 0.0}, {"lat": 38.899174333333335, "lon": -76.933819, "is_disabled": 0, "fusion_lon": 0.0, "is_reserved": 0, "name": "013accb30f4718658f1bc3f256433519", "type": "electric_scooter", "bike_id": "013accb30f4718658f1bc3f256433519", "rental_uris": {"ios": "https://dc.lft.to/lastmile_qr_scan", "android": "https://dc.lft.to/lastmile_qr_scan"}, "fusion_lat": 0.0}, {"lat": 38.916806333333334, "lon": -77.0262825, "is_disabled": 0, "fusion_lon": 0.0, "is_reserved": 0, "name": "f1bf04d6ec2560ddd635ab714248cce2", "type": "electric_scooter", "bike_id": "f1bf04d6ec2560ddd635ab714248cce2", "rental_uris": {"ios": "https://dc.lft.to/lastmile_qr_scan", "android": "https://dc.lft.to/lastmile_qr_scan"}, "fusion_lat": 0.0}, {"lat": 38.91906066666667, "lon": -77.0249045, "is_disabled": 0, "fusion_lon": 0.0, "is_reserved": 0, "name": "97f6018564c72b775a1510adf301b7e2", "type": "electric_scooter", "bike_id": "97f6018564c72b775a1510adf301b7e2", "rental_uris": {"ios": "https://dc.lft.to/lastmile_qr_scan", "android": "https://dc.lft.to/lastmile_qr_scan"}, "fusion_lat": 0.0}, {"lat": 38.993849833333336, "lon": -76.92882583333333, "is_disabled": 0, "fusion_lon": 0.0, "is_reserved": 0, "name": "e6ba4acefd4bf26375771db0fdf426a8", "type": "electric_bike", "bike_id": "e6ba4acefd4bf26375771db0fdf426a8", "rental_uris": {"ios": "https://dc.lft.to/lastmile_qr_scan", "android": "https://dc.lft.to/lastmile_qr_scan"}, "fusion_lat": 0.0}, {"lat": 38.90419283333333, "lon": -77.01993016666667, "is_disabled": 0, "fusion_lon": 0.0, "is_reserved": 0, "name": "d7270e81524328a5e1363b28adf2445d", "type": "electric_scooter", "bike_id": "d7270e81524328a5e1363b28adf2445d", "rental_uris": {"ios": "https://dc.lft.to/lastmile_qr_scan", "android": "https://dc.lft.to/lastmile_qr_scan"}, "fusion_lat": 0.0}, {"lat": 38.928679333333335, "lon": -77.034548, "is_disabled": 0, "fusion_lon": 0.0, "is_reserved": 0, "name": "5ec67362726be3761b5a704a383f6d4b", "type": "electric_scooter", "bike_id": "5ec67362726be3761b5a704a383f6d4b", "rental_uris": {"ios": "https://dc.lft.to/lastmile_qr_scan", "android": "https://dc.lft.to/lastmile_qr_scan"}, "fusion_lat": 0.0}, {"lat": 38.9111525, "lon": -77.0454635, "is_disabled": 0, "fusion_lon": 0.0, "is_reserved": 0, "name": "08a0a1f9d3853156a26c5b653240728d", "type": "electric_scooter", "bike_id": "08a0a1f9d3853156a26c5b653240728d", "rental_uris": {"ios": "https://dc.lft.to/lastmile_qr_scan", "android": "https://dc.lft.to/lastmile_qr_scan"}, "fusion_lat": 0.0}, {"lat": 38.9025075, "lon": -77.04683866666667, "is_disabled": 0, "fusion_lon": 0.0, "is_reserved": 0, "name": "d82157708a46758ba9b0452839221059", "type": "electric_scooter", "bike_id": "d82157708a46758ba9b0452839221059", "rental_uris": {"ios": "https://dc.lft.to/lastmile_qr_scan", "android": "https://dc.lft.to/lastmile_qr_scan"}, "fusion_lat": 0.0}, {"lat": 38.901449666666664, "lon": -77.01908283333333, "is_disabled": 0, "fusion_lon": 0.0, "is_reserved": 0, "name": "95665d31eae6790181d7b7c9459fbca3", "type": "electric_scooter", "bike_id": "95665d31eae6790181d7b7c9459fbca3", "rental_uris": {"ios": "https://dc.lft.to/lastmile_qr_scan", "android": "https://dc.lft.to/lastmile_qr_scan"}, "fusion_lat": 0.0}, {"lat": 38.910964, "lon": -77.03177483333333, "is_disabled": 0, "fusion_lon": 0.0, "is_reserved": 0, "name": "6bdb7fed87c275f23847c45637ad3c6a", "type": "electric_scooter", "bike_id": "6bdb7fed87c275f23847c45637ad3c6a", "rental_uris": {"ios": "https://dc.lft.to/lastmile_qr_scan", "android": "https://dc.lft.to/lastmile_qr_scan"}, "fusion_lat": 0.0}, {"lat": 38.9104705, "lon": -77.04338466666667, "is_disabled": 0, "fusion_lon": 0.0, "is_reserved": 0, "name": "13479f96ca3fda748d084b2875495e71", "type": "electric_scooter", "bike_id": "13479f96ca3fda748d084b2875495e71", "rental_uris": {"ios": "https://dc.lft.to/lastmile_qr_scan", "android": "https://dc.lft.to/lastmile_qr_scan"}, "fusion_lat": 0.0}, {"lat": 38.80758983333333, "lon": -77.129838, "is_disabled": 0, "fusion_lon": 0.0, "is_reserved": 0, "name": "b79b3321e5ea93fbf195e5b825c504ca", "type": "electric_bike", "bike_id": "b79b3321e5ea93fbf195e5b825c504ca", "rental_uris": {"ios": "https://dc.lft.to/lastmile_qr_scan", "android": "https://dc.lft.to/lastmile_qr_scan"}, "fusion_lat": 0.0}, {"lat": 38.924648, "lon": -77.052395, "is_disabled": 0, "fusion_lon": 0.0, "is_reserved": 0, "name": "903834e980b0059deaff499dd0172324", "type": "electric_scooter", "bike_id": "903834e980b0059deaff499dd0172324", "rental_uris": {"ios": "https://dc.lft.to/lastmile_qr_scan", "android": "https://dc.lft.to/lastmile_qr_scan"}, "fusion_lat": 0.0}, {"lat": 38.89547666666667, "lon": -76.94946916666666, "is_disabled": 0, "fusion_lon": 0.0, "is_reserved": 0, "name": "ffb73b3a80e614c11fc556b1bcba1939", "type": "electric_scooter", "bike_id": "ffb73b3a80e614c11fc556b1bcba1939", "rental_uris": {"ios": "https://dc.lft.to/lastmile_qr_scan", "android": "https://dc.lft.to/lastmile_qr_scan"}, "fusion_lat": 0.0}, {"lat": 38.895564666666665, "lon": -76.94874433333334, "is_disabled": 0, "fusion_lon": 0.0, "is_reserved": 0, "name": "db257d19f10c065d819d4553ee218e1b", "type": "electric_scooter", "bike_id": "db257d19f10c065d819d4553ee218e1b", "rental_uris": {"ios": "https://dc.lft.to/lastmile_qr_scan", "android": "https://dc.lft.to/lastmile_qr_scan"}, "fusion_lat": 0.0}, {"lat": 38.893711333333336, "lon": -77.04619883333334, "is_disabled": 0, "fusion_lon": 0.0, "is_reserved": 0, "name": "60c10500e1a0d908fbc933e425d17cc7", "type": "electric_scooter", "bike_id": "60c10500e1a0d908fbc933e425d17cc7", "rental_uris": {"ios": "https://dc.lft.to/lastmile_qr_scan", "android": "https://dc.lft.to/lastmile_qr_scan"}, "fusion_lat": 0.0}, {"lat": 38.8961535, "lon": -77.021644, "is_disabled": 0, "fusion_lon": 0.0, "is_reserved": 0, "name": "4b36a64773fb3c5c223142bb75c408e1", "type": "electric_scooter", "bike_id": "4b36a64773fb3c5c223142bb75c408e1", "rental_uris": {"ios": "https://dc.lft.to/lastmile_qr_scan", "android": "https://dc.lft.to/lastmile_qr_scan"}, "fusion_lat": 0.0}, {"lat": 38.89823283333333, "lon": -76.946512, "is_disabled": 0, "fusion_lon": 0.0, "is_reserved": 0, "name": "41ad87edc57b8f7c3dbedfbe0f479045", "type": "electric_scooter", "bike_id": "41ad87edc57b8f7c3dbedfbe0f479045", "rental_uris": {"ios": "https://dc.lft.to/lastmile_qr_scan", "android": "https://dc.lft.to/lastmile_qr_scan"}, "fusion_lat": 0.0}, {"lat": 38.900648333333336, "lon": -76.92743666666667, "is_disabled": 0, "fusion_lon": 0.0, "is_reserved": 0, "name": "efeac502e7d061256aec99b83066f03b", "type": "electric_scooter", "bike_id": "efeac502e7d061256aec99b83066f03b", "rental_uris": {"ios": "https://dc.lft.to/lastmile_qr_scan", "android": "https://dc.lft.to/lastmile_qr_scan"}, "fusion_lat": 0.0}, {"lat": 38.9083415, "lon": -77.043461, "is_disabled": 0, "fusion_lon": 0.0, "is_reserved": 0, "name": "3f0068c72c1349ed8553bd72bbaeeb37", "type": "electric_scooter", "bike_id": "3f0068c72c1349ed8553bd72bbaeeb37", "rental_uris": {"ios": "https://dc.lft.to/lastmile_qr_scan", "android": "https://dc.lft.to/lastmile_qr_scan"}, "fusion_lat": 0.0}, {"lat": 38.87532316666667, "lon": -77.005061, "is_disabled": 0, "fusion_lon": 0.0, "is_reserved": 0, "name": "208347a8dd30c6d1050e50fbe2aa9f5c", "type": "electric_scooter", "bike_id": "208347a8dd30c6d1050e50fbe2aa9f5c", "rental_uris": {"ios": "https://dc.lft.to/lastmile_qr_scan", "android": "https://dc.lft.to/lastmile_qr_scan"}, "fusion_lat": 0.0}, {"lat": 38.89222983333333, "lon": -77.04195266666666, "is_disabled": 0, "fusion_lon": 0.0, "is_reserved": 0, "name": "46959a178839f8600c6171aeb04530db", "type": "electric_scooter", "bike_id": "46959a178839f8600c6171aeb04530db", "rental_uris": {"ios": "https://dc.lft.to/lastmile_qr_scan", "android": "https://dc.lft.to/lastmile_qr_scan"}, "fusion_lat": 0.0}, {"lat": 38.88179, "lon": -76.99257383333334, "is_disabled": 0, "fusion_lon": 0.0, "is_reserved": 0, "name": "ea9455e3a49f301dd7b474b4ab8afd3b", "type": "electric_scooter", "bike_id": "ea9455e3a49f301dd7b474b4ab8afd3b", "rental_uris": {"ios": "https://dc.lft.to/lastmile_qr_scan", "android": "https://dc.lft.to/lastmile_qr_scan"}, "fusion_lat": 0.0}, {"lat": 38.90408933333333, "lon": -77.0293555, "is_disabled": 0, "fusion_lon": 0.0, "is_reserved": 0, "name": "822acd7e2fc0648b2be28865874aad77", "type": "electric_scooter", "bike_id": "822acd7e2fc0648b2be28865874aad77", "rental_uris": {"ios": "https://dc.lft.to/lastmile_qr_scan", "android": "https://dc.lft.to/lastmile_qr_scan"}, "fusion_lat": 0.0}, {"lat": 38.8781965, "lon": -77.022309, "is_disabled": 0, "fusion_lon": 0.0, "is_reserved": 0, "name": "fc1e56587d23414e41ea5d2fbb412079", "type": "electric_scooter", "bike_id": "fc1e56587d23414e41ea5d2fbb412079", "rental_uris": {"ios": "https://dc.lft.to/lastmile_qr_scan", "android": "https://dc.lft.to/lastmile_qr_scan"}, "fusion_lat": 0.0}, {"lat": 38.89227966666667, "lon": -77.02580533333334, "is_disabled": 0, "fusion_lon": 0.0, "is_reserved": 0, "name": "c2ebb079c35263b6079f3a2ed8df16b0", "type": "electric_scooter", "bike_id": "c2ebb079c35263b6079f3a2ed8df16b0", "rental_uris": {"ios": "https://dc.lft.to/lastmile_qr_scan", "android": "https://dc.lft.to/lastmile_qr_scan"}, "fusion_lat": 0.0}, {"lat": 38.90414416666667, "lon": -77.04473233333333, "is_disabled": 0, "fusion_lon": 0.0, "is_reserved": 0, "name": "0119ebdcadf0bf399202f7e32419c64a", "type": "electric_scooter", "bike_id": "0119ebdcadf0bf399202f7e32419c64a", "rental_uris": {"ios": "https://dc.lft.to/lastmile_qr_scan", "android": "https://dc.lft.to/lastmile_qr_scan"}, "fusion_lat": 0.0}, {"lat": 38.893540333333334, "lon": -77.00331283333334, "is_disabled": 0, "fusion_lon": 0.0, "is_reserved": 0, "name": "defc2c4898ad53daa176897758597b39", "type": "electric_scooter", "bike_id": "defc2c4898ad53daa176897758597b39", "rental_uris": {"ios": "https://dc.lft.to/lastmile_qr_scan", "android": "https://dc.lft.to/lastmile_qr_scan"}, "fusion_lat": 0.0}, {"lat": 38.921144166666664, "lon": -77.0324705, "is_disabled": 0, "fusion_lon": 0.0, "is_reserved": 0, "name": "72c5bb0c2fd8b58f5cd0a6ec1c74b075", "type": "electric_scooter", "bike_id": "72c5bb0c2fd8b58f5cd0a6ec1c74b075", "rental_uris": {"ios": "https://dc.lft.to/lastmile_qr_scan", "android": "https://dc.lft.to/lastmile_qr_scan"}, "fusion_lat": 0.0}, {"lat": 38.9092775, "lon": -76.99972166666667, "is_disabled": 0, "fusion_lon": 0.0, "is_reserved": 0, "name": "d85ddb44b676af196cf82a76e4b42e4c", "type": "electric_scooter", "bike_id": "d85ddb44b676af196cf82a76e4b42e4c", "rental_uris": {"ios": "https://dc.lft.to/lastmile_qr_scan", "android": "https://dc.lft.to/lastmile_qr_scan"}, "fusion_lat": 0.0}, {"lat": 38.89942716666667, "lon": -77.031457, "is_disabled": 0, "fusion_lon": 0.0, "is_reserved": 0, "name": "476e7210141372582ad52065f3c66c12", "type": "electric_scooter", "bike_id": "476e7210141372582ad52065f3c66c12", "rental_uris": {"ios": "https://dc.lft.to/lastmile_qr_scan", "android": "https://dc.lft.to/lastmile_qr_scan"}, "fusion_lat": 0.0}, {"lat": 38.91739, "lon": -77.03641866666666, "is_disabled": 0, "fusion_lon": 0.0, "is_reserved": 0, "name": "aa7dafbda3c3513d7c26aa9e5cca1931", "type": "electric_scooter", "bike_id": "aa7dafbda3c3513d7c26aa9e5cca1931", "rental_uris": {"ios": "https://dc.lft.to/lastmile_qr_scan", "android": "https://dc.lft.to/lastmile_qr_scan"}, "fusion_lat": 0.0}, {"lat": 38.89610533333333, "lon": -77.01336866666666, "is_disabled": 0, "fusion_lon": 0.0, "is_reserved": 0, "name": "06089940031445066e83a0a52abc9a16", "type": "electric_scooter", "bike_id": "06089940031445066e83a0a52abc9a16", "rental_uris": {"ios": "https://dc.lft.to/lastmile_qr_scan", "android": "https://dc.lft.to/lastmile_qr_scan"}, "fusion_lat": 0.0}, {"lat": 38.871836, "lon": -77.006402, "is_disabled": 0, "fusion_lon": 0.0, "is_reserved": 0, "name": "ddc3342a1952663250126010604da444", "type": "electric_scooter", "bike_id": "ddc3342a1952663250126010604da444", "rental_uris": {"ios": "https://dc.lft.to/lastmile_qr_scan", "android": "https://dc.lft.to/lastmile_qr_scan"}, "fusion_lat": 0.0}, {"lat": 38.917016333333336, "lon": -77.0289345, "is_disabled": 0, "fusion_lon": 0.0, "is_reserved": 0, "name": "a2fbf2ae11148f2f1e7cfabde79d3fa4", "type": "electric_scooter", "bike_id": "a2fbf2ae11148f2f1e7cfabde79d3fa4", "rental_uris": {"ios": "https://dc.lft.to/lastmile_qr_scan", "android": "https://dc.lft.to/lastmile_qr_scan"}, "fusion_lat": 0.0}, {"lat": 38.9027005, "lon": -77.03351416666666, "is_disabled": 0, "fusion_lon": 0.0, "is_reserved": 0, "name": "1bc79c05073743cde1983e05623a558a", "type": "electric_scooter", "bike_id": "1bc79c05073743cde1983e05623a558a", "rental_uris": {"ios": "https://dc.lft.to/lastmile_qr_scan", "android": "https://dc.lft.to/lastmile_qr_scan"}, "fusion_lat": 0.0}, {"lat": 38.8934595, "lon": -76.95228116666667, "is_disabled": 0, "fusion_lon": 0.0, "is_reserved": 0, "name": "63038e5678e6d26c2dd94d531a339ad0", "type": "electric_scooter", "bike_id": "63038e5678e6d26c2dd94d531a339ad0", "rental_uris": {"ios": "https://dc.lft.to/lastmile_qr_scan", "android": "https://dc.lft.to/lastmile_qr_scan"}, "fusion_lat": 0.0}, {"lat": 38.972153, "lon": -77.033382, "is_disabled": 0, "fusion_lon": 0.0, "is_reserved": 0, "name": "120423b5119783df56dfb634afbc8179", "type": "electric_scooter", "bike_id": "120423b5119783df56dfb634afbc8179", "rental_uris": {"ios": "https://dc.lft.to/lastmile_qr_scan", "android": "https://dc.lft.to/lastmile_qr_scan"}, "fusion_lat": 0.0}, {"lat": 38.90046666666667, "lon": -76.98829066666667, "is_disabled": 0, "fusion_lon": 0.0, "is_reserved": 0, "name": "ca03783cbece4c1e86b81bc81205cfb7", "type": "electric_scooter", "bike_id": "ca03783cbece4c1e86b81bc81205cfb7", "rental_uris": {"ios": "https://dc.lft.to/lastmile_qr_scan", "android": "https://dc.lft.to/lastmile_qr_scan"}, "fusion_lat": 0.0}, {"lat": 38.90061683333333, "lon": -77.04537483333333, "is_disabled": 0, "fusion_lon": 0.0, "is_reserved": 0, "name": "e474b34f257fe57bd6c80cf5dbef698e", "type": "electric_scooter", "bike_id": "e474b34f257fe57bd6c80cf5dbef698e", "rental_uris": {"ios": "https://dc.lft.to/lastmile_qr_scan", "android": "https://dc.lft.to/lastmile_qr_scan"}, "fusion_lat": 0.0}, {"lat": 38.92547883333334, "lon": -77.00070583333333, "is_disabled": 0, "fusion_lon": 0.0, "is_reserved": 0, "name": "f773e4b3e9df722da8b6fc1d7b76a795", "type": "electric_scooter", "bike_id": "f773e4b3e9df722da8b6fc1d7b76a795", "rental_uris": {"ios": "https://dc.lft.to/lastmile_qr_scan", "android": "https://dc.lft.to/lastmile_qr_scan"}, "fusion_lat": 0.0}, {"lat": 38.91460283333333, "lon": -77.02182233333333, "is_disabled": 0, "fusion_lon": 0.0, "is_reserved": 0, "name": "b4779f596dcce4d0807883628f2f8bef", "type": "electric_scooter", "bike_id": "b4779f596dcce4d0807883628f2f8bef", "rental_uris": {"ios": "https://dc.lft.to/lastmile_qr_scan", "android": "https://dc.lft.to/lastmile_qr_scan"}, "fusion_lat": 0.0}, {"lat": 38.92579083333333, "lon": -77.03197266666666, "is_disabled": 0, "fusion_lon": 0.0, "is_reserved": 0, "name": "5cfbdc2d15644518a20c242b9acf3adf", "type": "electric_scooter", "bike_id": "5cfbdc2d15644518a20c242b9acf3adf", "rental_uris": {"ios": "https://dc.lft.to/lastmile_qr_scan", "android": "https://dc.lft.to/lastmile_qr_scan"}, "fusion_lat": 0.0}, {"lat": 38.89840783333333, "lon": -77.03945066666667, "is_disabled": 0, "fusion_lon": 0.0, "is_reserved": 0, "name": "7331e847d3bc95e4ddb356c31bb98b6d", "type": "electric_scooter", "bike_id": "7331e847d3bc95e4ddb356c31bb98b6d", "rental_uris": {"ios": "https://dc.lft.to/lastmile_qr_scan", "android": "https://dc.lft.to/lastmile_qr_scan"}, "fusion_lat": 0.0}, {"lat": 38.84765933333333, "lon": -76.9663065, "is_disabled": 0, "fusion_lon": 0.0, "is_reserved": 0, "name": "c2cdbdb3b8882a48ddb231a004b08eb3", "type": "electric_bike", "bike_id": "c2cdbdb3b8882a48ddb231a004b08eb3", "rental_uris": {"ios": "https://dc.lft.to/lastmile_qr_scan", "android": "https://dc.lft.to/lastmile_qr_scan"}, "fusion_lat": 0.0}, {"lat": 38.884869333333334, "lon": -77.03474733333333, "is_disabled": 0, "fusion_lon": 0.0, "is_reserved": 0, "name": "60e20e26a2ea89a084490a6cab4b58a2", "type": "electric_scooter", "bike_id": "60e20e26a2ea89a084490a6cab4b58a2", "rental_uris": {"ios": "https://dc.lft.to/lastmile_qr_scan", "android": "https://dc.lft.to/lastmile_qr_scan"}, "fusion_lat": 0.0}, {"lat": 38.88487883333333, "lon": -77.00709483333333, "is_disabled": 0, "fusion_lon": 0.0, "is_reserved": 0, "name": "71db61e0b436081a36c4866f1099c9ee", "type": "electric_scooter", "bike_id": "71db61e0b436081a36c4866f1099c9ee", "rental_uris": {"ios": "https://dc.lft.to/lastmile_qr_scan", "android": "https://dc.lft.to/lastmile_qr_scan"}, "fusion_lat": 0.0}, {"lat": 38.9026955, "lon": -77.03436633333334, "is_disabled": 0, "fusion_lon": 0.0, "is_reserved": 0, "name": "75f633445893d7e77e568dff3af01dbb", "type": "electric_scooter", "bike_id": "75f633445893d7e77e568dff3af01dbb", "rental_uris": {"ios": "https://dc.lft.to/lastmile_qr_scan", "android": "https://dc.lft.to/lastmile_qr_scan"}, "fusion_lat": 0.0}, {"lat": 38.85204933333333, "lon": -76.96295533333333, "is_disabled": 0, "fusion_lon": 0.0, "is_reserved": 0, "name": "539010e37a5d971af44638da82310d5e", "type": "electric_bike", "bike_id": "539010e37a5d971af44638da82310d5e", "rental_uris": {"ios": "https://dc.lft.to/lastmile_qr_scan", "android": "https://dc.lft.to/lastmile_qr_scan"}, "fusion_lat": 0.0}, {"lat": 38.928625, "lon": -77.054325, "is_disabled": 0, "fusion_lon": 0.0, "is_reserved": 0, "name": "8aaaab2978eaf12f628e11f75065f3ea", "type": "electric_scooter", "bike_id": "8aaaab2978eaf12f628e11f75065f3ea", "rental_uris": {"ios": "https://dc.lft.to/lastmile_qr_scan", "android": "https://dc.lft.to/lastmile_qr_scan"}, "fusion_lat": 0.0}, {"lat": 38.892267333333336, "lon": -77.02207766666666, "is_disabled": 0, "fusion_lon": 0.0, "is_reserved": 0, "name": "631c21020988a930451c85db962a2557", "type": "electric_scooter", "bike_id": "631c21020988a930451c85db962a2557", "rental_uris": {"ios": "https://dc.lft.to/lastmile_qr_scan", "android": "https://dc.lft.to/lastmile_qr_scan"}, "fusion_lat": 0.0}, {"lat": 38.89963933333333, "lon": -77.05113883333334, "is_disabled": 0, "fusion_lon": 0.0, "is_reserved": 0, "name": "c7978668cc8631df8e6f59a905ebf614", "type": "electric_scooter", "bike_id": "c7978668cc8631df8e6f59a905ebf614", "rental_uris": {"ios": "https://dc.lft.to/lastmile_qr_scan", "android": "https://dc.lft.to/lastmile_qr_scan"}, "fusion_lat": 0.0}, {"lat": 38.916791833333335, "lon": -77.02899983333333, "is_disabled": 0, "fusion_lon": 0.0, "is_reserved": 0, "name": "3c186517fd56e7fcafc641b38465d33b", "type": "electric_scooter", "bike_id": "3c186517fd56e7fcafc641b38465d33b", "rental_uris": {"ios": "https://dc.lft.to/lastmile_qr_scan", "android": "https://dc.lft.to/lastmile_qr_scan"}, "fusion_lat": 0.0}, {"lat": 38.84422716666667, "lon": -76.99777216666666, "is_disabled": 0, "fusion_lon": 0.0, "is_reserved": 0, "name": "8263978d26adaa949024ef827ab14de5", "type": "electric_scooter", "bike_id": "8263978d26adaa949024ef827ab14de5", "rental_uris": {"ios": "https://dc.lft.to/lastmile_qr_scan", "android": "https://dc.lft.to/lastmile_qr_scan"}, "fusion_lat": 0.0}, {"lat": 38.9093365, "lon": -76.99973516666667, "is_disabled": 0, "fusion_lon": 0.0, "is_reserved": 0, "name": "1bb3b18684e2cd79ea3c45c95bb798c3", "type": "electric_scooter", "bike_id": "1bb3b18684e2cd79ea3c45c95bb798c3", "rental_uris": {"ios": "https://dc.lft.to/lastmile_qr_scan", "android": "https://dc.lft.to/lastmile_qr_scan"}, "fusion_lat": 0.0}, {"lat": 38.905202333333335, "lon": -77.06582966666667, "is_disabled": 0, "fusion_lon": 0.0, "is_reserved": 0, "name": "eb506233dc77fdb98ec269773e868a5d", "type": "electric_scooter", "bike_id": "eb506233dc77fdb98ec269773e868a5d", "rental_uris": {"ios": "https://dc.lft.to/lastmile_qr_scan", "android": "https://dc.lft.to/lastmile_qr_scan"}, "fusion_lat": 0.0}, {"lat": 38.900428833333336, "lon": -77.0432685, "is_disabled": 0, "fusion_lon": 0.0, "is_reserved": 0, "name": "dcf305af4f02ec3510f2a0fc6a799f33", "type": "electric_scooter", "bike_id": "dcf305af4f02ec3510f2a0fc6a799f33", "rental_uris": {"ios": "https://dc.lft.to/lastmile_qr_scan", "android": "https://dc.lft.to/lastmile_qr_scan"}, "fusion_lat": 0.0}, {"lat": 38.89905016666667, "lon": -77.023646, "is_disabled": 0, "fusion_lon": 0.0, "is_reserved": 0, "name": "2c850e74cfdf241f7792f345109b4db1", "type": "electric_scooter", "bike_id": "2c850e74cfdf241f7792f345109b4db1", "rental_uris": {"ios": "https://dc.lft.to/lastmile_qr_scan", "android": "https://dc.lft.to/lastmile_qr_scan"}, "fusion_lat": 0.0}, {"lat": 38.928690333333336, "lon": -77.03312566666666, "is_disabled": 0, "fusion_lon": 0.0, "is_reserved": 0, "name": "e6c80e66ed3628e4fa8366e5c4fb925a", "type": "electric_scooter", "bike_id": "e6c80e66ed3628e4fa8366e5c4fb925a", "rental_uris": {"ios": "https://dc.lft.to/lastmile_qr_scan", "android": "https://dc.lft.to/lastmile_qr_scan"}, "fusion_lat": 0.0}, {"lat": 38.90967583333333, "lon": -77.0339115, "is_disabled": 0, "fusion_lon": 0.0, "is_reserved": 0, "name": "aebcd6cb91c08bd285ab59d6729a7b30", "type": "electric_scooter", "bike_id": "aebcd6cb91c08bd285ab59d6729a7b30", "rental_uris": {"ios": "https://dc.lft.to/lastmile_qr_scan", "android": "https://dc.lft.to/lastmile_qr_scan"}, "fusion_lat": 0.0}, {"lat": 38.89844166666666, "lon": -77.02792016666666, "is_disabled": 0, "fusion_lon": 0.0, "is_reserved": 0, "name": "b8da78e8d0dedbdfb6aedebbe1144a20", "type": "electric_scooter", "bike_id": "b8da78e8d0dedbdfb6aedebbe1144a20", "rental_uris": {"ios": "https://dc.lft.to/lastmile_qr_scan", "android": "https://dc.lft.to/lastmile_qr_scan"}, "fusion_lat": 0.0}, {"lat": 38.92449383333334, "lon": -76.98989566666667, "is_disabled": 0, "fusion_lon": 0.0, "is_reserved": 0, "name": "f148531c2e089c90525dee723b2a8757", "type": "electric_scooter", "bike_id": "f148531c2e089c90525dee723b2a8757", "rental_uris": {"ios": "https://dc.lft.to/lastmile_qr_scan", "android": "https://dc.lft.to/lastmile_qr_scan"}, "fusion_lat": 0.0}, {"lat": 38.88430983333333, "lon": -77.0174935, "is_disabled": 0, "fusion_lon": 0.0, "is_reserved": 0, "name": "116fbfb8ceceb9eb06b331b27b85640d", "type": "electric_scooter", "bike_id": "116fbfb8ceceb9eb06b331b27b85640d", "rental_uris": {"ios": "https://dc.lft.to/lastmile_qr_scan", "android": "https://dc.lft.to/lastmile_qr_scan"}, "fusion_lat": 0.0}, {"lat": 38.891732166666664, "lon": -76.9264775, "is_disabled": 0, "fusion_lon": 0.0, "is_reserved": 0, "name": "8cbbfaf436bb96e4760066461d9b0e25", "type": "electric_scooter", "bike_id": "8cbbfaf436bb96e4760066461d9b0e25", "rental_uris": {"ios": "https://dc.lft.to/lastmile_qr_scan", "android": "https://dc.lft.to/lastmile_qr_scan"}, "fusion_lat": 0.0}, {"lat": 38.911181, "lon": -76.9976875, "is_disabled": 0, "fusion_lon": 0.0, "is_reserved": 0, "name": "a70ff20125a466f751683abf6a079127", "type": "electric_scooter", "bike_id": "a70ff20125a466f751683abf6a079127", "rental_uris": {"ios": "https://dc.lft.to/lastmile_qr_scan", "android": "https://dc.lft.to/lastmile_qr_scan"}, "fusion_lat": 0.0}, {"lat": 38.902626166666664, "lon": -77.02688516666667, "is_disabled": 0, "fusion_lon": 0.0, "is_reserved": 0, "name": "dff85fd7bb2b2c12dc943027040e6633", "type": "electric_scooter", "bike_id": "dff85fd7bb2b2c12dc943027040e6633", "rental_uris": {"ios": "https://dc.lft.to/lastmile_qr_scan", "android": "https://dc.lft.to/lastmile_qr_scan"}, "fusion_lat": 0.0}, {"lat": 38.915933, "lon": -77.03205316666667, "is_disabled": 0, "fusion_lon": 0.0, "is_reserved": 0, "name": "7bc1b0982f6744e0584eb32429e10a14", "type": "electric_scooter", "bike_id": "7bc1b0982f6744e0584eb32429e10a14", "rental_uris": {"ios": "https://dc.lft.to/lastmile_qr_scan", "android": "https://dc.lft.to/lastmile_qr_scan"}, "fusion_lat": 0.0}, {"lat": 38.90943083333333, "lon": -77.03449916666666, "is_disabled": 0, "fusion_lon": 0.0, "is_reserved": 0, "name": "e9cef8b0be20de722fd010e89833b15d", "type": "electric_scooter", "bike_id": "e9cef8b0be20de722fd010e89833b15d", "rental_uris": {"ios": "https://dc.lft.to/lastmile_qr_scan", "android": "https://dc.lft.to/lastmile_qr_scan"}, "fusion_lat": 0.0}, {"lat": 38.895048, "lon": -77.04657216666666, "is_disabled": 0, "fusion_lon": 0.0, "is_reserved": 0, "name": "68577786323a770046c3fc2dd355ff6f", "type": "electric_scooter", "bike_id": "68577786323a770046c3fc2dd355ff6f", "rental_uris": {"ios": "https://dc.lft.to/lastmile_qr_scan", "android": "https://dc.lft.to/lastmile_qr_scan"}, "fusion_lat": 0.0}, {"lat": 38.923692833333334, "lon": -77.02122916666667, "is_disabled": 0, "fusion_lon": 0.0, "is_reserved": 0, "name": "dc4abc53a0212c7d437f32605409d54d", "type": "electric_scooter", "bike_id": "dc4abc53a0212c7d437f32605409d54d", "rental_uris": {"ios": "https://dc.lft.to/lastmile_qr_scan", "android": "https://dc.lft.to/lastmile_qr_scan"}, "fusion_lat": 0.0}, {"lat": 38.92517816666667, "lon": -77.05037933333334, "is_disabled": 0, "fusion_lon": 0.0, "is_reserved": 0, "name": "f1b3a8d57110e65178aa48d332fbc077", "type": "electric_scooter", "bike_id": "f1b3a8d57110e65178aa48d332fbc077", "rental_uris": {"ios": "https://dc.lft.to/lastmile_qr_scan", "android": "https://dc.lft.to/lastmile_qr_scan"}, "fusion_lat": 0.0}, {"lat": 38.892221, "lon": -77.043274, "is_disabled": 0, "fusion_lon": 0.0, "is_reserved": 0, "name": "46206dc2dbd1f770c50b91997d41634f", "type": "electric_scooter", "bike_id": "46206dc2dbd1f770c50b91997d41634f", "rental_uris": {"ios": "https://dc.lft.to/lastmile_qr_scan", "android": "https://dc.lft.to/lastmile_qr_scan"}, "fusion_lat": 0.0}, {"lat": 38.819863166666664, "lon": -76.99808683333333, "is_disabled": 0, "fusion_lon": 0.0, "is_reserved": 0, "name": "7cf4b6cde06ec45a2304ed49390c4224", "type": "electric_bike", "bike_id": "7cf4b6cde06ec45a2304ed49390c4224", "rental_uris": {"ios": "https://dc.lft.to/lastmile_qr_scan", "android": "https://dc.lft.to/lastmile_qr_scan"}, "fusion_lat": 0.0}, {"lat": 38.917097166666665, "lon": -77.03675016666666, "is_disabled": 0, "fusion_lon": 0.0, "is_reserved": 0, "name": "2901630e293c3cf0dac7dc64027d5d04", "type": "electric_scooter", "bike_id": "2901630e293c3cf0dac7dc64027d5d04", "rental_uris": {"ios": "https://dc.lft.to/lastmile_qr_scan", "android": "https://dc.lft.to/lastmile_qr_scan"}, "fusion_lat": 0.0}, {"lat": 38.91736683333333, "lon": -77.0364305, "is_disabled": 0, "fusion_lon": 0.0, "is_reserved": 0, "name": "51fcaffe2c51235cb34b5cb1098b2425", "type": "electric_scooter", "bike_id": "51fcaffe2c51235cb34b5cb1098b2425", "rental_uris": {"ios": "https://dc.lft.to/lastmile_qr_scan", "android": "https://dc.lft.to/lastmile_qr_scan"}, "fusion_lat": 0.0}, {"lat": 38.90195, "lon": -77.005711, "is_disabled": 0, "fusion_lon": 0.0, "is_reserved": 0, "name": "0e3c9d4668a26d3e45f420ed3d4926cb", "type": "electric_scooter", "bike_id": "0e3c9d4668a26d3e45f420ed3d4926cb", "rental_uris": {"ios": "https://dc.lft.to/lastmile_qr_scan", "android": "https://dc.lft.to/lastmile_qr_scan"}, "fusion_lat": 0.0}, {"lat": 38.939302166666664, "lon": -77.01584983333333, "is_disabled": 0, "fusion_lon": 0.0, "is_reserved": 0, "name": "a2bda20c45059879f64195b54c160736", "type": "electric_scooter", "bike_id": "a2bda20c45059879f64195b54c160736", "rental_uris": {"ios": "https://dc.lft.to/lastmile_qr_scan", "android": "https://dc.lft.to/lastmile_qr_scan"}, "fusion_lat": 0.0}, {"lat": 38.927609833333335, "lon": -77.05266983333334, "is_disabled": 0, "fusion_lon": 0.0, "is_reserved": 0, "name": "810e214eab78716c18456ee826a1f0c3", "type": "electric_scooter", "bike_id": "810e214eab78716c18456ee826a1f0c3", "rental_uris": {"ios": "https://dc.lft.to/lastmile_qr_scan", "android": "https://dc.lft.to/lastmile_qr_scan"}, "fusion_lat": 0.0}, {"lat": 38.9206495, "lon": -77.04565483333333, "is_disabled": 0, "fusion_lon": 0.0, "is_reserved": 0, "name": "e887c231a6bd2d39886d77ceef0e7076", "type": "electric_scooter", "bike_id": "e887c231a6bd2d39886d77ceef0e7076", "rental_uris": {"ios": "https://dc.lft.to/lastmile_qr_scan", "android": "https://dc.lft.to/lastmile_qr_scan"}, "fusion_lat": 0.0}, {"lat": 38.907254333333334, "lon": -77.0347585, "is_disabled": 0, "fusion_lon": 0.0, "is_reserved": 0, "name": "390b31c0ba8cd7db6b07f70a2e3eb496", "type": "electric_scooter", "bike_id": "390b31c0ba8cd7db6b07f70a2e3eb496", "rental_uris": {"ios": "https://dc.lft.to/lastmile_qr_scan", "android": "https://dc.lft.to/lastmile_qr_scan"}, "fusion_lat": 0.0}, {"lat": 38.9108905, "lon": -77.04477483333334, "is_disabled": 0, "fusion_lon": 0.0, "is_reserved": 0, "name": "54f692c958e6c2a364b353d4f66bbd1f", "type": "electric_scooter", "bike_id": "54f692c958e6c2a364b353d4f66bbd1f", "rental_uris": {"ios": "https://dc.lft.to/lastmile_qr_scan", "android": "https://dc.lft.to/lastmile_qr_scan"}, "fusion_lat": 0.0}, {"lat": 38.905281, "lon": -77.04850366666666, "is_disabled": 0, "fusion_lon": 0.0, "is_reserved": 0, "name": "2d9735fe9401ad945e88efe7746b75c6", "type": "electric_scooter", "bike_id": "2d9735fe9401ad945e88efe7746b75c6", "rental_uris": {"ios": "https://dc.lft.to/lastmile_qr_scan", "android": "https://dc.lft.to/lastmile_qr_scan"}, "fusion_lat": 0.0}, {"lat": 38.903693, "lon": -77.03899, "is_disabled": 0, "fusion_lon": 0.0, "is_reserved": 0, "name": "0f87761f7e9cfabb9e39b26f0550a9ae", "type": "electric_scooter", "bike_id": "0f87761f7e9cfabb9e39b26f0550a9ae", "rental_uris": {"ios": "https://dc.lft.to/lastmile_qr_scan", "android": "https://dc.lft.to/lastmile_qr_scan"}, "fusion_lat": 0.0}, {"lat": 38.87098366666667, "lon": -76.9420095, "is_disabled": 0, "fusion_lon": 0.0, "is_reserved": 0, "name": "7ba57684507940262052ee59c2a025bf", "type": "electric_scooter", "bike_id": "7ba57684507940262052ee59c2a025bf", "rental_uris": {"ios": "https://dc.lft.to/lastmile_qr_scan", "android": "https://dc.lft.to/lastmile_qr_scan"}, "fusion_lat": 0.0}, {"lat": 38.923392666666665, "lon": -77.01905116666667, "is_disabled": 0, "fusion_lon": 0.0, "is_reserved": 0, "name": "bfe516d7bf39bfb01add0a805509c4b5", "type": "electric_scooter", "bike_id": "bfe516d7bf39bfb01add0a805509c4b5", "rental_uris": {"ios": "https://dc.lft.to/lastmile_qr_scan", "android": "https://dc.lft.to/lastmile_qr_scan"}, "fusion_lat": 0.0}, {"lat": 38.906772333333336, "lon": -77.03807083333334, "is_disabled": 0, "fusion_lon": 0.0, "is_reserved": 0, "name": "a6f0ac11f721795e388382eaeba2d2d7", "type": "electric_scooter", "bike_id": "a6f0ac11f721795e388382eaeba2d2d7", "rental_uris": {"ios": "https://dc.lft.to/lastmile_qr_scan", "android": "https://dc.lft.to/lastmile_qr_scan"}, "fusion_lat": 0.0}, {"lat": 38.89245, "lon": -76.98838766666667, "is_disabled": 0, "fusion_lon": 0.0, "is_reserved": 0, "name": "57a1480cccb68466324faee7b2dff186", "type": "electric_scooter", "bike_id": "57a1480cccb68466324faee7b2dff186", "rental_uris": {"ios": "https://dc.lft.to/lastmile_qr_scan", "android": "https://dc.lft.to/lastmile_qr_scan"}, "fusion_lat": 0.0}, {"lat": 38.839663333333334, "lon": -76.9773685, "is_disabled": 0, "fusion_lon": 0.0, "is_reserved": 0, "name": "82e6378457f079c8243cd845c4597efe", "type": "electric_bike", "bike_id": "82e6378457f079c8243cd845c4597efe", "rental_uris": {"ios": "https://dc.lft.to/lastmile_qr_scan", "android": "https://dc.lft.to/lastmile_qr_scan"}, "fusion_lat": 0.0}, {"lat": 39.00479716666667, "lon": -77.02184016666666, "is_disabled": 0, "fusion_lon": 0.0, "is_reserved": 0, "name": "a06b9570e5e2506ac8e1a5dd3cc6cdfa", "type": "electric_bike", "bike_id": "a06b9570e5e2506ac8e1a5dd3cc6cdfa", "rental_uris": {"ios": "https://dc.lft.to/lastmile_qr_scan", "android": "https://dc.lft.to/lastmile_qr_scan"}, "fusion_lat": 0.0}, {"lat": 38.9179765, "lon": -77.040131, "is_disabled": 0, "fusion_lon": 0.0, "is_reserved": 0, "name": "acf546694ab145f2fc292532d2fec12a", "type": "electric_scooter", "bike_id": "acf546694ab145f2fc292532d2fec12a", "rental_uris": {"ios": "https://dc.lft.to/lastmile_qr_scan", "android": "https://dc.lft.to/lastmile_qr_scan"}, "fusion_lat": 0.0}, {"lat": 38.89530416666667, "lon": -77.04650533333333, "is_disabled": 0, "fusion_lon": 0.0, "is_reserved": 0, "name": "1b72dd761655219a359c7445cae090b0", "type": "electric_scooter", "bike_id": "1b72dd761655219a359c7445cae090b0", "rental_uris": {"ios": "https://dc.lft.to/lastmile_qr_scan", "android": "https://dc.lft.to/lastmile_qr_scan"}, "fusion_lat": 0.0}, {"lat": 38.9273975, "lon": -76.99561933333334, "is_disabled": 0, "fusion_lon": 0.0, "is_reserved": 0, "name": "6477a9767dd5315bf32ada6a35ab46bf", "type": "electric_scooter", "bike_id": "6477a9767dd5315bf32ada6a35ab46bf", "rental_uris": {"ios": "https://dc.lft.to/lastmile_qr_scan", "android": "https://dc.lft.to/lastmile_qr_scan"}, "fusion_lat": 0.0}, {"lat": 38.910224, "lon": -77.02935933333333, "is_disabled": 0, "fusion_lon": 0.0, "is_reserved": 0, "name": "383067f5bcae4cd0aa74a7eaa3823744", "type": "electric_scooter", "bike_id": "383067f5bcae4cd0aa74a7eaa3823744", "rental_uris": {"ios": "https://dc.lft.to/lastmile_qr_scan", "android": "https://dc.lft.to/lastmile_qr_scan"}, "fusion_lat": 0.0}, {"lat": 38.901826166666666, "lon": -77.01611933333334, "is_disabled": 0, "fusion_lon": 0.0, "is_reserved": 0, "name": "a24488a9527fc910ece30613fa290ae6", "type": "electric_scooter", "bike_id": "a24488a9527fc910ece30613fa290ae6", "rental_uris": {"ios": "https://dc.lft.to/lastmile_qr_scan", "android": "https://dc.lft.to/lastmile_qr_scan"}, "fusion_lat": 0.0}, {"lat": 38.899132, "lon": -77.0137645, "is_disabled": 0, "fusion_lon": 0.0, "is_reserved": 0, "name": "453556265973da15f4891c1838a1f966", "type": "electric_scooter", "bike_id": "453556265973da15f4891c1838a1f966", "rental_uris": {"ios": "https://dc.lft.to/lastmile_qr_scan", "android": "https://dc.lft.to/lastmile_qr_scan"}, "fusion_lat": 0.0}, {"lat": 38.898246666666665, "lon": -77.03038116666667, "is_disabled": 0, "fusion_lon": 0.0, "is_reserved": 0, "name": "d3bd1a2e2cbe55193c780e765ea953c1", "type": "electric_scooter", "bike_id": "d3bd1a2e2cbe55193c780e765ea953c1", "rental_uris": {"ios": "https://dc.lft.to/lastmile_qr_scan", "android": "https://dc.lft.to/lastmile_qr_scan"}, "fusion_lat": 0.0}, {"lat": 38.866550333333336, "lon": -76.988938, "is_disabled": 0, "fusion_lon": 0.0, "is_reserved": 0, "name": "9a490a0da57a65b28024245dbc0d7803", "type": "electric_scooter", "bike_id": "9a490a0da57a65b28024245dbc0d7803", "rental_uris": {"ios": "https://dc.lft.to/lastmile_qr_scan", "android": "https://dc.lft.to/lastmile_qr_scan"}, "fusion_lat": 0.0}, {"lat": 38.873302, "lon": -77.00044366666667, "is_disabled": 0, "fusion_lon": 0.0, "is_reserved": 0, "name": "6f7b9106a1b939bfe5e550f391a800e6", "type": "electric_scooter", "bike_id": "6f7b9106a1b939bfe5e550f391a800e6", "rental_uris": {"ios": "https://dc.lft.to/lastmile_qr_scan", "android": "https://dc.lft.to/lastmile_qr_scan"}, "fusion_lat": 0.0}, {"lat": 38.926525, "lon": -77.03723116666667, "is_disabled": 0, "fusion_lon": 0.0, "is_reserved": 0, "name": "c9a7105ef838a0a4dbbfb4b0a512619d", "type": "electric_scooter", "bike_id": "c9a7105ef838a0a4dbbfb4b0a512619d", "rental_uris": {"ios": "https://dc.lft.to/lastmile_qr_scan", "android": "https://dc.lft.to/lastmile_qr_scan"}, "fusion_lat": 0.0}, {"lat": 38.899360333333334, "lon": -77.04017283333333, "is_disabled": 0, "fusion_lon": 0.0, "is_reserved": 0, "name": "1fab4caaa5a40e5bed8eb92d253a6882", "type": "electric_scooter", "bike_id": "1fab4caaa5a40e5bed8eb92d253a6882", "rental_uris": {"ios": "https://dc.lft.to/lastmile_qr_scan", "android": "https://dc.lft.to/lastmile_qr_scan"}, "fusion_lat": 0.0}, {"lat": 38.90398533333333, "lon": -77.04033533333333, "is_disabled": 0, "fusion_lon": 0.0, "is_reserved": 0, "name": "e9c2f0125653733890fb966318c79804", "type": "electric_scooter", "bike_id": "e9c2f0125653733890fb966318c79804", "rental_uris": {"ios": "https://dc.lft.to/lastmile_qr_scan", "android": "https://dc.lft.to/lastmile_qr_scan"}, "fusion_lat": 0.0}, {"lat": 38.9251885, "lon": -76.996319, "is_disabled": 0, "fusion_lon": 0.0, "is_reserved": 0, "name": "b3a2b245b2f247a874c7fc1db867b51d", "type": "electric_scooter", "bike_id": "b3a2b245b2f247a874c7fc1db867b51d", "rental_uris": {"ios": "https://dc.lft.to/lastmile_qr_scan", "android": "https://dc.lft.to/lastmile_qr_scan"}, "fusion_lat": 0.0}, {"lat": 38.87611066666667, "lon": -76.96547133333334, "is_disabled": 0, "fusion_lon": 0.0, "is_reserved": 0, "name": "92b1e84699aeda6616f17a39303e96a6", "type": "electric_scooter", "bike_id": "92b1e84699aeda6616f17a39303e96a6", "rental_uris": {"ios": "https://dc.lft.to/lastmile_qr_scan", "android": "https://dc.lft.to/lastmile_qr_scan"}, "fusion_lat": 0.0}, {"lat": 38.92899083333333, "lon": -77.01642733333334, "is_disabled": 0, "fusion_lon": 0.0, "is_reserved": 0, "name": "e78582262e2c7066b1fac2942113a17b", "type": "electric_scooter", "bike_id": "e78582262e2c7066b1fac2942113a17b", "rental_uris": {"ios": "https://dc.lft.to/lastmile_qr_scan", "android": "https://dc.lft.to/lastmile_qr_scan"}, "fusion_lat": 0.0}, {"lat": 38.89546633333333, "lon": -77.00916133333334, "is_disabled": 0, "fusion_lon": 0.0, "is_reserved": 0, "name": "85589a20aa2c2c6e0e9f59dc55482480", "type": "electric_scooter", "bike_id": "85589a20aa2c2c6e0e9f59dc55482480", "rental_uris": {"ios": "https://dc.lft.to/lastmile_qr_scan", "android": "https://dc.lft.to/lastmile_qr_scan"}, "fusion_lat": 0.0}, {"lat": 38.860021833333334, "lon": -77.0575355, "is_disabled": 0, "fusion_lon": 0.0, "is_reserved": 0, "name": "e9ae2e8ce16e3e21bd05842366b3a664", "type": "electric_bike", "bike_id": "e9ae2e8ce16e3e21bd05842366b3a664", "rental_uris": {"ios": "https://dc.lft.to/lastmile_qr_scan", "android": "https://dc.lft.to/lastmile_qr_scan"}, "fusion_lat": 0.0}, {"lat": 38.91960733333333, "lon": -77.01486166666666, "is_disabled": 0, "fusion_lon": 0.0, "is_reserved": 0, "name": "44d9da340249b66fa52840aa2e94cbba", "type": "electric_scooter", "bike_id": "44d9da340249b66fa52840aa2e94cbba", "rental_uris": {"ios": "https://dc.lft.to/lastmile_qr_scan", "android": "https://dc.lft.to/lastmile_qr_scan"}, "fusion_lat": 0.0}, {"lat": 38.909945666666665, "lon": -77.07351366666667, "is_disabled": 0, "fusion_lon": 0.0, "is_reserved": 0, "name": "7a98f249c93cbbd79ac1b408c1a63f1d", "type": "electric_scooter", "bike_id": "7a98f249c93cbbd79ac1b408c1a63f1d", "rental_uris": {"ios": "https://dc.lft.to/lastmile_qr_scan", "android": "https://dc.lft.to/lastmile_qr_scan"}, "fusion_lat": 0.0}, {"lat": 38.91815866666666, "lon": -77.03637516666667, "is_disabled": 0, "fusion_lon": 0.0, "is_reserved": 0, "name": "de544ed1886b3415ed5b525267007f40", "type": "electric_scooter", "bike_id": "de544ed1886b3415ed5b525267007f40", "rental_uris": {"ios": "https://dc.lft.to/lastmile_qr_scan", "android": "https://dc.lft.to/lastmile_qr_scan"}, "fusion_lat": 0.0}, {"lat": 38.894476166666664, "lon": -77.02412766666667, "is_disabled": 0, "fusion_lon": 0.0, "is_reserved": 0, "name": "0dd081295728396e9e4cd3d91ea09346", "type": "electric_scooter", "bike_id": "0dd081295728396e9e4cd3d91ea09346", "rental_uris": {"ios": "https://dc.lft.to/lastmile_qr_scan", "android": "https://dc.lft.to/lastmile_qr_scan"}, "fusion_lat": 0.0}, {"lat": 38.997774166666666, "lon": -77.04719983333334, "is_disabled": 0, "fusion_lon": 0.0, "is_reserved": 0, "name": "e1a360ecd48f35f9016f4c555eed0e3a", "type": "electric_bike", "bike_id": "e1a360ecd48f35f9016f4c555eed0e3a", "rental_uris": {"ios": "https://dc.lft.to/lastmile_qr_scan", "android": "https://dc.lft.to/lastmile_qr_scan"}, "fusion_lat": 0.0}, {"lat": 38.91025366666667, "lon": -77.0318445, "is_disabled": 0, "fusion_lon": 0.0, "is_reserved": 0, "name": "ffbad2d7adff94dfbbaa755c0251e4de", "type": "electric_scooter", "bike_id": "ffbad2d7adff94dfbbaa755c0251e4de", "rental_uris": {"ios": "https://dc.lft.to/lastmile_qr_scan", "android": "https://dc.lft.to/lastmile_qr_scan"}, "fusion_lat": 0.0}, {"lat": 38.9170905, "lon": -77.0324615, "is_disabled": 0, "fusion_lon": 0.0, "is_reserved": 0, "name": "fc2c1ebf7328b9548024eca72bc8e1f0", "type": "electric_scooter", "bike_id": "fc2c1ebf7328b9548024eca72bc8e1f0", "rental_uris": {"ios": "https://dc.lft.to/lastmile_qr_scan", "android": "https://dc.lft.to/lastmile_qr_scan"}, "fusion_lat": 0.0}, {"lat": 38.87938066666667, "lon": -76.98490733333334, "is_disabled": 0, "fusion_lon": 0.0, "is_reserved": 0, "name": "9f722ccb5e7687f406137f93d20eb078", "type": "electric_bike", "bike_id": "9f722ccb5e7687f406137f93d20eb078", "rental_uris": {"ios": "https://dc.lft.to/lastmile_qr_scan", "android": "https://dc.lft.to/lastmile_qr_scan"}, "fusion_lat": 0.0}, {"lat": 38.901608833333334, "lon": -77.04869183333334, "is_disabled": 0, "fusion_lon": 0.0, "is_reserved": 0, "name": "e7103a4197ecaf2810ade2d9348f815b", "type": "electric_scooter", "bike_id": "e7103a4197ecaf2810ade2d9348f815b", "rental_uris": {"ios": "https://dc.lft.to/lastmile_qr_scan", "android": "https://dc.lft.to/lastmile_qr_scan"}, "fusion_lat": 0.0}, {"lat": 38.944077666666665, "lon": -77.05514433333333, "is_disabled": 0, "fusion_lon": 0.0, "is_reserved": 0, "name": "eb550709588b6da7c719c34edac9f9fa", "type": "electric_bike", "bike_id": "eb550709588b6da7c719c34edac9f9fa", "rental_uris": {"ios": "https://dc.lft.to/lastmile_qr_scan", "android": "https://dc.lft.to/lastmile_qr_scan"}, "fusion_lat": 0.0}, {"lat": 38.89241533333333, "lon": -77.03184366666666, "is_disabled": 0, "fusion_lon": 0.0, "is_reserved": 0, "name": "f0646ce8495490f3825d1f3c67934313", "type": "electric_scooter", "bike_id": "f0646ce8495490f3825d1f3c67934313", "rental_uris": {"ios": "https://dc.lft.to/lastmile_qr_scan", "android": "https://dc.lft.to/lastmile_qr_scan"}, "fusion_lat": 0.0}, {"lat": 38.94280333333333, "lon": -77.02933266666666, "is_disabled": 0, "fusion_lon": 0.0, "is_reserved": 0, "name": "aa056a168a6d6033a25913ea3b6c95c5", "type": "electric_scooter", "bike_id": "aa056a168a6d6033a25913ea3b6c95c5", "rental_uris": {"ios": "https://dc.lft.to/lastmile_qr_scan", "android": "https://dc.lft.to/lastmile_qr_scan"}, "fusion_lat": 0.0}, {"lat": 38.92023416666667, "lon": -77.0716435, "is_disabled": 0, "fusion_lon": 0.0, "is_reserved": 0, "name": "4b23296e4a961917c3b2c2c1d2397078", "type": "electric_scooter", "bike_id": "4b23296e4a961917c3b2c2c1d2397078", "rental_uris": {"ios": "https://dc.lft.to/lastmile_qr_scan", "android": "https://dc.lft.to/lastmile_qr_scan"}, "fusion_lat": 0.0}, {"lat": 38.9396875, "lon": -77.0325905, "is_disabled": 0, "fusion_lon": 0.0, "is_reserved": 0, "name": "7f704f8861bd71f6e5f82503f96d0706", "type": "electric_scooter", "bike_id": "7f704f8861bd71f6e5f82503f96d0706", "rental_uris": {"ios": "https://dc.lft.to/lastmile_qr_scan", "android": "https://dc.lft.to/lastmile_qr_scan"}, "fusion_lat": 0.0}, {"lat": 38.89238133333333, "lon": -77.02622033333333, "is_disabled": 0, "fusion_lon": 0.0, "is_reserved": 0, "name": "0208141e0766f97004e72a92b26badee", "type": "electric_scooter", "bike_id": "0208141e0766f97004e72a92b26badee", "rental_uris": {"ios": "https://dc.lft.to/lastmile_qr_scan", "android": "https://dc.lft.to/lastmile_qr_scan"}, "fusion_lat": 0.0}, {"lat": 38.8972875, "lon": -77.01763233333334, "is_disabled": 0, "fusion_lon": 0.0, "is_reserved": 0, "name": "c8bc042055ddac7dbd087b7760b18f83", "type": "electric_scooter", "bike_id": "c8bc042055ddac7dbd087b7760b18f83", "rental_uris": {"ios": "https://dc.lft.to/lastmile_qr_scan", "android": "https://dc.lft.to/lastmile_qr_scan"}, "fusion_lat": 0.0}, {"lat": 38.8863205, "lon": -77.0282305, "is_disabled": 0, "fusion_lon": 0.0, "is_reserved": 0, "name": "112eb0b73d90ccfcf6838e32bb2d1afe", "type": "electric_scooter", "bike_id": "112eb0b73d90ccfcf6838e32bb2d1afe", "rental_uris": {"ios": "https://dc.lft.to/lastmile_qr_scan", "android": "https://dc.lft.to/lastmile_qr_scan"}, "fusion_lat": 0.0}, {"lat": 38.90541416666667, "lon": -77.022023, "is_disabled": 0, "fusion_lon": 0.0, "is_reserved": 0, "name": "899a2c3c440dea25b36fc6f1a08555a8", "type": "electric_scooter", "bike_id": "899a2c3c440dea25b36fc6f1a08555a8", "rental_uris": {"ios": "https://dc.lft.to/lastmile_qr_scan", "android": "https://dc.lft.to/lastmile_qr_scan"}, "fusion_lat": 0.0}, {"lat": 38.890426166666664, "lon": -76.93756933333333, "is_disabled": 0, "fusion_lon": 0.0, "is_reserved": 0, "name": "b66535a5a8c0957d3c1c0eb6840cb6ed", "type": "electric_scooter", "bike_id": "b66535a5a8c0957d3c1c0eb6840cb6ed", "rental_uris": {"ios": "https://dc.lft.to/lastmile_qr_scan", "android": "https://dc.lft.to/lastmile_qr_scan"}, "fusion_lat": 0.0},