{"data": {"bikes": [{"is_disabled": 0, "fusion_lon": 0.0, "fusion_lat": 0.0, "lat": 38.852064, "type": "electric_bike", "lon": -77.10129816666667, "bike_id": "9d27666db73312ebaeb9f38a1a0460ca", "rental_uris": {"android": "https://dc.lft.to/lastmile_qr_scan", "ios": "https://dc.lft.to/lastmile_qr_scan"}, "name": "9d27666db73312ebaeb9f38a1a0460ca", "is_reserved": 0}, {"is_disabled": 0, "fusion_lon": 0.0, "fusion_lat": 0.0, "lat": 38.92009266666667, "type": "electric_scooter", "lon": -76.984943, "bike_id": "dd905f9dc4d0162fb2c3db5d8c78d6f9", "rental_uris": {"android": "https://dc.lft.to/lastmile_qr_scan", "ios": "https://dc.lft.to/lastmile_qr_scan"}, "name": "dd905f9dc4d0162fb2c3db5d8c78d6f9", "is_reserved": 0}, {"is_disabled": 0, "fusion_lon": 0.0, "fusion_lat": 0.0, "lat": 38.916982, "type": "electric_scooter", "lon": -77.02996916666666, "bike_id": "fcf738c40ccd043539614e7d10e29409", "rental_uris": {"android": "https://dc.lft.to/lastmile_qr_scan", "ios": "https://dc.lft.to/lastmile_qr_scan"}, "name": "fcf738c40ccd043539614e7d10e29409", "is_reserved": 0}, {"is_disabled": 0, "fusion_lon": 0.0, "fusion_lat": 0.0, "lat": 38.919129833333336, "type": "electric_scooter", "lon": -77.04815583333334, "bike_id": "3f0d551934ed970961a06529c7ff5616", "rental_uris": {"android": "https://dc.lft.to/lastmile_qr_scan", "ios": "https://dc.lft.to/lastmile_qr_scan"}, "name": "3f0d551934ed970961a06529c7ff5616", "is_reserved": 0}, {"is_disabled": 0, "fusion_lon": 0.0, "fusion_lat": 0.0, "lat": 38.90869083333333, "type": "electric_scooter", "lon": -77.03560616666667, "bike_id": "c42c86b6094d414c238ff271a2239acf", "rental_uris": {"android": "https://dc.lft.to/lastmile_qr_scan", "ios": "https://dc.lft.to/lastmile_qr_scan"}, "name": "c42c86b6094d414c238ff271a2239acf", "is_reserved": 0}, {"is_disabled": 0, "fusion_lon": 0.0, "fusion_lat": 0.0, "lat": 38.876158333333336, "type": "electric_scooter", "lon": -76.96538266666667, "bike_id": "5901c0e55cb460a394ca0dc20d7f4e1a", "rental_uris": {"android": "https://dc.lft.to/lastmile_qr_scan", "ios": "https://dc.lft.to/lastmile_qr_scan"}, "name": "5901c0e55cb460a394ca0dc20d7f4e1a", "is_reserved": 0}, {"is_disabled": 0, "fusion_lon": 0.0, "fusion_lat": 0.0, "lat": 38.905022333333335, "type": "electric_scooter", "lon": -76.988576, "bike_id": "ae8817c479580aba1f4d133eb47faf92", "rental_uris": {"android": "https://dc.lft.to/lastmile_qr_scan", "ios": "https://dc.lft.to/lastmile_qr_scan"}, "name": "ae8817c479580aba1f4d133eb47faf92", "is_reserved": 0}, {"is_disabled": 0, "fusion_lon": 0.0, "fusion_lat": 0.0, "lat": 38.893715, "type": "electric_scooter", "lon": -76.94998533333333, "bike_id": "570eaa70463386a2c8647354dd9effb2", "rental_uris": {"android": "https://dc.lft.to/lastmile_qr_scan", "ios": "https://dc.lft.to/lastmile_qr_scan"}, "name": "570eaa70463386a2c8647354dd9effb2", "is_reserved": 0}, {"is_disabled": 0, "fusion_lon": 0.0, "fusion_lat": 0.0, "lat": 38.903703, "type": "electric_scooter", "lon": -77.01785916666667, "bike_id": "7dba5bedcf4a60d6d72865f9c10c3a68", "rental_uris": {"android": "https://dc.lft.to/lastmile_qr_scan", "ios": "https://dc.lft.to/lastmile_qr_scan"}, "name": "7dba5bedcf4a60d6d72865f9c10c3a68", "is_reserved": 0}, {"is_disabled": 0, "fusion_lon": 0.0, "fusion_lat": 0.0, "lat": 38.905772, "type": "electric_scooter", "lon": -76.987543, "bike_id": "ee8841be11195ec50a1caaf5c596d503", "rental_uris": {"android": "https://dc.lft.to/lastmile_qr_scan", "ios": "https://dc.lft.to/lastmile_qr_scan"}, "name": "ee8841be11195ec50a1caaf5c596d503", "is_reserved": 0}, {"is_disabled": 0, "fusion_lon": 0.0, "fusion_lat": 0.0, "lat": 38.93091916666667, "type": "electric_scooter", "lon": -77.03442116666666, "bike_id": "5a9140b75ee86de907e51a65e8e43b3b", "rental_uris": {"android": "https://dc.lft.to/lastmile_qr_scan", "ios": "https://dc.lft.to/lastmile_qr_scan"}, "name": "5a9140b75ee86de907e51a65e8e43b3b", "is_reserved": 0}, {"is_disabled": 0, "fusion_lon": 0.0, "fusion_lat": 0.0, "lat": 38.95277933333333, "type": "electric_scooter", "lon": -77.06873366666666, "bike_id": "4a761e5afa5fa9142c0a47bcc27c6aa9", "rental_uris": {"android": "https://dc.lft.to/lastmile_qr_scan", "ios": "https://dc.lft.to/lastmile_qr_scan"}, "name": "4a761e5afa5fa9142c0a47bcc27c6aa9", "is_reserved": 0}, {"is_disabled": 0, "fusion_lon": 0.0, "fusion_lat": 0.0, "lat": 38.89230533333333, "type": "electric_scooter", "lon": -77.04363216666667, "bike_id": "e367bb23f4ceb2e23b347e249252c5f8", "rental_uris": {"android": "https://dc.lft.to/lastmile_qr_scan", "ios": "https://dc.lft.to/lastmile_qr_scan"}, "name": "e367bb23f4ceb2e23b347e249252c5f8", "is_reserved": 0}, {"is_disabled": 0, "fusion_lon": 0.0, "fusion_lat": 0.0, "lat": 38.89311816666667, "type": "electric_scooter", "lon": -77.022088, "bike_id": "a749f14812dbd21558da14d7fc97342b", "rental_uris": {"android": "https://dc.lft.to/lastmile_qr_scan", "ios": "https://dc.lft.to/lastmile_qr_scan"}, "name": "a749f14812dbd21558da14d7fc97342b", "is_reserved": 0}, {"is_disabled": 0, "fusion_lon": 0.0, "fusion_lat": 0.0, "lat": 38.90425233333333, "type": "electric_bike", "lon": -77.0277455, "bike_id": "8422921864054ebbb376f84c76e27e4a", "rental_uris": {"android": "https://dc.lft.to/lastmile_qr_scan", "ios": "https://dc.lft.to/lastmile_qr_scan"}, "name": "8422921864054ebbb376f84c76e27e4a", "is_reserved": 0}, {"is_disabled": 0, "fusion_lon": 0.0, "fusion_lat": 0.0, "lat": 38.923322666666664, "type": "electric_scooter", "lon": -77.04749516666666, "bike_id": "be3dd5d8a2f89f7e8b46619b94f0ec68", "rental_uris": {"android": "https://dc.lft.to/lastmile_qr_scan", "ios": "https://dc.lft.to/lastmile_qr_scan"}, "name": "be3dd5d8a2f89f7e8b46619b94f0ec68", "is_reserved": 0}, {"is_disabled": 0, "fusion_lon": 0.0, "fusion_lat": 0.0, "lat": 38.910395666666666, "type": "electric_scooter", "lon": -77.04056666666666, "bike_id": "980368d423d3ec1b806e241264f85c16", "rental_uris": {"android": "https://dc.lft.to/lastmile_qr_scan", "ios": "https://dc.lft.to/lastmile_qr_scan"}, "name": "980368d423d3ec1b806e241264f85c16", "is_reserved": 0}, {"is_disabled": 0, "fusion_lon": 0.0, "fusion_lat": 0.0, "lat": 38.88878533333333, "type": "electric_scooter", "lon": -77.028592, "bike_id": "e1d5ff1bd6c16cd9cbb9df21248f1f7d", "rental_uris": {"android": "https://dc.lft.to/lastmile_qr_scan", "ios": "https://dc.lft.to/lastmile_qr_scan"}, "name": "e1d5ff1bd6c16cd9cbb9df21248f1f7d", "is_reserved": 0}, {"is_disabled": 0, "fusion_lon": 0.0, "fusion_lat": 0.0, "lat": 38.83608733333333, "type": "electric_bike", "lon": -77.00385033333333, "bike_id": "c51b9ace1c35b27d6e3bb2d24279fd91", "rental_uris": {"android": "https://dc.lft.to/lastmile_qr_scan", "ios": "https://dc.lft.to/lastmile_qr_scan"}, "name": "c51b9ace1c35b27d6e3bb2d24279fd91", "is_reserved": 0}, {"is_disabled": 0, "fusion_lon": 0.0, "fusion_lat": 0.0, "lat": 38.90591966666667, "type": "electric_scooter", "lon": -77.0071535, "bike_id": "18e96ba7511970e34711cfc342d326ef", "rental_uris": {"android": "https://dc.lft.to/lastmile_qr_scan", "ios": "https://dc.lft.to/lastmile_qr_scan"}, "name": "18e96ba7511970e34711cfc342d326ef", "is_reserved": 0}, {"is_disabled": 0, "fusion_lon": 0.0, "fusion_lat": 0.0, "lat": 38.916533, "type": "electric_scooter", "lon": -77.03446383333333, "bike_id": "a42e2e3c536a579a8613fc9d4e649e95", "rental_uris": {"android": "https://dc.lft.to/lastmile_qr_scan", "ios": "https://dc.lft.to/lastmile_qr_scan"}, "name": "a42e2e3c536a579a8613fc9d4e649e95", "is_reserved": 0}, {"is_disabled": 0, "fusion_lon": 0.0, "fusion_lat": 0.0, "lat": 38.90550483333333, "type": "electric_scooter", "lon": -77.0199785, "bike_id": "6401d3bfffb84cf9e4f18e378ee95b51", "rental_uris": {"android": "https://dc.lft.to/lastmile_qr_scan", "ios": "https://dc.lft.to/lastmile_qr_scan"}, "name": "6401d3bfffb84cf9e4f18e378ee95b51", "is_reserved": 0}, {"is_disabled": 0, "fusion_lon": 0.0, "fusion_lat": 0.0, "lat": 38.912878666666664, "type": "electric_scooter", "lon": -76.98694683333333, "bike_id": "1054051097df2b0bda294d3a9f2a1fef", "rental_uris": {"android": "https://dc.lft.to/lastmile_qr_scan", "ios": "https://dc.lft.to/lastmile_qr_scan"}, "name": "1054051097df2b0bda294d3a9f2a1fef", "is_reserved": 0}, {"is_disabled": 0, "fusion_lon": 0.0, "fusion_lat": 0.0, "lat": 38.905401, "type": "electric_scooter", "lon": -77.0569725, "bike_id": "6d2e49ef02847f16ab21a0823810f91e", "rental_uris": {"android": "https://dc.lft.to/lastmile_qr_scan", "ios": "https://dc.lft.to/lastmile_qr_scan"}, "name": "6d2e49ef02847f16ab21a0823810f91e", "is_reserved": 0}, {"is_disabled": 0, "fusion_lon": 0.0, "fusion_lat": 0.0, "lat": 38.91182333333333, "type": "electric_scooter", "lon": -77.03928016666667, "bike_id": "50ca1117ad5fb06e65c6c941032619dc", "rental_uris": {"android": "https://dc.lft.to/lastmile_qr_scan", "ios": "https://dc.lft.to/lastmile_qr_scan"}, "name": "50ca1117ad5fb06e65c6c941032619dc", "is_reserved": 0}, {"is_disabled": 0, "fusion_lon": 0.0, "fusion_lat": 0.0, "lat": 38.89910733333333, "type": "electric_scooter", "lon": -76.933881, "bike_id": "be932de82efbda65501c06068175adfb", "rental_uris": {"android": "https://dc.lft.to/lastmile_qr_scan", "ios": "https://dc.lft.to/lastmile_qr_scan"}, "name": "be932de82efbda65501c06068175adfb", "is_reserved": 0}, {"is_disabled": 0, "fusion_lon": 0.0, "fusion_lat": 0.0, "lat": 38.892104333333336, "type": "electric_scooter", "lon": -76.98803533333333, "bike_id": "c20b424fdf8e1a187b6e76604a394d3d", "rental_uris": {"android": "https://dc.lft.to/lastmile_qr_scan", "ios": "https://dc.lft.to/lastmile_qr_scan"}, "name": "c20b424fdf8e1a187b6e76604a394d3d", "is_reserved": 0}, {"is_disabled": 0, "fusion_lon": 0.0, "fusion_lat": 0.0, "lat": 38.898248333333335, "type": "electric_scooter", "lon": -77.03163566666667, "bike_id": "e9504309b73d290f3a0e0034e3069235", "rental_uris": {"android": "https://dc.lft.to/lastmile_qr_scan", "ios": "https://dc.lft.to/lastmile_qr_scan"}, "name": "e9504309b73d290f3a0e0034e3069235", "is_reserved": 0}, {"is_disabled": 0, "fusion_lon": 0.0, "fusion_lat": 0.0, "lat": 38.924187833333335, "type": "electric_scooter", "lon": -77.05631283333334, "bike_id": "fafacd4c3070cf745a99505f6d9def4a", "rental_uris": {"android": "https://dc.lft.to/lastmile_qr_scan", "ios": "https://dc.lft.to/lastmile_qr_scan"}, "name": "fafacd4c3070cf745a99505f6d9def4a", "is_reserved": 0}, {"is_disabled": 0, "fusion_lon": 0.0, "fusion_lat": 0.0, "lat": 38.918539, "type": "electric_scooter", "lon": -77.02955966666667, "bike_id": "8693c5b6121ab4bb501b265ba19cce08", "rental_uris": {"android": "https://dc.lft.to/lastmile_qr_scan", "ios": "https://dc.lft.to/lastmile_qr_scan"}, "name": "8693c5b6121ab4bb501b265ba19cce08", "is_reserved": 0}, {"is_disabled": 0, "fusion_lon": 0.0, "fusion_lat": 0.0, "lat": 38.91476933333333, "type": "electric_scooter", "lon": -77.04388033333333, "bike_id": "01df6afe5a3fc31ed24e7c551ce93a37", "rental_uris": {"android": "https://dc.lft.to/lastmile_qr_scan", "ios": "https://dc.lft.to/lastmile_qr_scan"}, "name": "01df6afe5a3fc31ed24e7c551ce93a37", "is_reserved": 0}, {"is_disabled": 0, "fusion_lon": 0.0, "fusion_lat": 0.0, "lat": 38.9692755, "type": "electric_bike", "lon": -77.02631166666667, "bike_id": "b9d65529ee11991d6aeb38bcd99d05ee", "rental_uris": {"android": "https://dc.lft.to/lastmile_qr_scan", "ios": "https://dc.lft.to/lastmile_qr_scan"}, "name": "b9d65529ee11991d6aeb38bcd99d05ee", "is_reserved": 0}, {"is_disabled": 0, "fusion_lon": 0.0, "fusion_lat": 0.0, "lat": 38.98660483333333, "type": "electric_scooter", "lon": -77.02654283333334, "bike_id": "29dce8583810b43e3dec83604e00a9a5", "rental_uris": {"android": "https://dc.lft.to/lastmile_qr_scan", "ios": "https://dc.lft.to/lastmile_qr_scan"}, "name": "29dce8583810b43e3dec83604e00a9a5", "is_reserved": 0}, {"is_disabled": 0, "fusion_lon": 0.0, "fusion_lat": 0.0, "lat": 38.8420045, "type": "electric_bike", "lon": -77.10683366666666, "bike_id": "59a5a45e8667b0a82e79a2ada2d404e1", "rental_uris": {"android": "https://dc.lft.to/lastmile_qr_scan", "ios": "https://dc.lft.to/lastmile_qr_scan"}, "name": "59a5a45e8667b0a82e79a2ada2d404e1", "is_reserved": 0}, {"is_disabled": 0, "fusion_lon": 0.0, "fusion_lat": 0.0, "lat": 38.91581816666667, "type": "electric_scooter", "lon": -76.98111683333333, "bike_id": "df781a041a86a39887c0218259ed78c8", "rental_uris": {"android": "https://dc.lft.to/lastmile_qr_scan", "ios": "https://dc.lft.to/lastmile_qr_scan"}, "name": "df781a041a86a39887c0218259ed78c8", "is_reserved": 0}, {"is_disabled": 0, "fusion_lon": 0.0, "fusion_lat": 0.0, "lat": 38.85808516666667, "type": "electric_scooter", "lon": -76.98655583333333, "bike_id": "c71ecdcdeae04a60ff3a34c3980a72b1", "rental_uris": {"android": "https://dc.lft.to/lastmile_qr_scan", "ios": "https://dc.lft.to/lastmile_qr_scan"}, "name": "c71ecdcdeae04a60ff3a34c3980a72b1", "is_reserved": 0}, {"is_disabled": 0, "fusion_lon": 0.0, "fusion_lat": 0.0, "lat": 38.999165166666664, "type": "electric_bike", "lon": -77.02862033333334, "bike_id": "ef54e1ade8f2af44d77739b1c348a94b", "rental_uris": {"android": "https://dc.lft.to/lastmile_qr_scan", "ios": "https://dc.lft.to/lastmile_qr_scan"}, "name": "ef54e1ade8f2af44d77739b1c348a94b", "is_reserved": 0}, {"is_disabled": 0, "fusion_lon": 0.0, "fusion_lat": 0.0, "lat": 38.92867, "type": "electric_scooter", "lon": -77.014208, "bike_id": "628486d077d6692b4dca27bb778b0829", "rental_uris": {"android": "https://dc.lft.to/lastmile_qr_scan", "ios": "https://dc.lft.to/lastmile_qr_scan"}, "name": "628486d077d6692b4dca27bb778b0829", "is_reserved": 0}, {"is_disabled": 0, "fusion_lon": 0.0, "fusion_lat": 0.0, "lat": 38.86312183333333, "type": "electric_scooter", "lon": -76.9906655, "bike_id": "4fa71f659ff816829f51921b8e356ca8", "rental_uris": {"android": "https://dc.lft.to/lastmile_qr_scan", "ios": "https://dc.lft.to/lastmile_qr_scan"}, "name": "4fa71f659ff816829f51921b8e356ca8", "is_reserved": 0}, {"is_disabled": 0, "fusion_lon": 0.0, "fusion_lat": 0.0, "lat": 38.92478783333333, "type": "electric_scooter", "lon": -77.03494983333333, "bike_id": "846d77d781ad9bba750b95fa93c04476", "rental_uris": {"android": "https://dc.lft.to/lastmile_qr_scan", "ios": "https://dc.lft.to/lastmile_qr_scan"}, "name": "846d77d781ad9bba750b95fa93c04476", "is_reserved": 0}, {"is_disabled": 0, "fusion_lon": 0.0, "fusion_lat": 0.0, "lat": 38.84595316666667, "type": "electric_bike", "lon": -76.9688745, "bike_id": "34bf8c8764eee40c38b9f37dea63b7d4", "rental_uris": {"android": "https://dc.lft.to/lastmile_qr_scan", "ios": "https://dc.lft.to/lastmile_qr_scan"}, "name": "34bf8c8764eee40c38b9f37dea63b7d4", "is_reserved": 0}, {"is_disabled": 0, "fusion_lon": 0.0, "fusion_lat": 0.0, "lat": 38.893685166666664, "type": "electric_scooter", "lon": -77.02263283333333, "bike_id": "65b8b9150eb6233c24660bc212182c44", "rental_uris": {"android": "https://dc.lft.to/lastmile_qr_scan", "ios": "https://dc.lft.to/lastmile_qr_scan"}, "name": "65b8b9150eb6233c24660bc212182c44", "is_reserved": 0}, {"is_disabled": 0, "fusion_lon": 0.0, "fusion_lat": 0.0, "lat": 38.917174833333334, "type": "electric_scooter", "lon": -77.03475933333333, "bike_id": "238a7b2e05f60e1e9711b6939f05c705", "rental_uris": {"android": "https://dc.lft.to/lastmile_qr_scan", "ios": "https://dc.lft.to/lastmile_qr_scan"}, "name": "238a7b2e05f60e1e9711b6939f05c705", "is_reserved": 0}, {"is_disabled": 0, "fusion_lon": 0.0, "fusion_lat": 0.0, "lat": 38.919569333333335, "type": "electric_scooter", "lon": -77.0239265, "bike_id": "32fca5d7d8bf6cd94ec1b263905db5d1", "rental_uris": {"android": "https://dc.lft.to/lastmile_qr_scan", "ios": "https://dc.lft.to/lastmile_qr_scan"}, "name": "32fca5d7d8bf6cd94ec1b263905db5d1", "is_reserved": 0}, {"is_disabled": 0, "fusion_lon": 0.0, "fusion_lat": 0.0, "lat": 38.967604666666666, "type": "electric_bike", "lon": -77.091605, "bike_id": "74963b04909fe190fa2cd612e594c020", "rental_uris": {"android": "https://dc.lft.to/lastmile_qr_scan", "ios": "https://dc.lft.to/lastmile_qr_scan"}, "name": "74963b04909fe190fa2cd612e594c020", "is_reserved": 0}, {"is_disabled": 0, "fusion_lon": 0.0, "fusion_lat": 0.0, "lat": 38.92479566666667, "type": "electric_scooter", "lon": -77.027195, "bike_id": "524f3f280a904fabd51c10833680767e", "rental_uris": {"android": "https://dc.lft.to/lastmile_qr_scan", "ios": "https://dc.lft.to/lastmile_qr_scan"}, "name": "524f3f280a904fabd51c10833680767e", "is_reserved": 0}, {"is_disabled": 0, "fusion_lon": 0.0, "fusion_lat": 0.0, "lat": 38.90579366666667, "type": "electric_scooter", "lon": -77.04662783333333, "bike_id": "0ec9c85c6c7c8ed0f8d3f241268ade20", "rental_uris": {"android": "https://dc.lft.to/lastmile_qr_scan", "ios": "https://dc.lft.to/lastmile_qr_scan"}, "name": "0ec9c85c6c7c8ed0f8d3f241268ade20", "is_reserved": 0}, {"is_disabled": 0, "fusion_lon": 0.0, "fusion_lat": 0.0, "lat": 38.90668266666667, "type": "electric_scooter", "lon": -77.027144, "bike_id": "037ed9759c2fceeb6f140f120cca991e", "rental_uris": {"android": "https://dc.lft.to/lastmile_qr_scan", "ios": "https://dc.lft.to/lastmile_qr_scan"}, "name": "037ed9759c2fceeb6f140f120cca991e", "is_reserved": 0}, {"is_disabled": 0, "fusion_lon": 0.0, "fusion_lat": 0.0, "lat": 38.88050033333333, "type": "electric_scooter", "lon": -77.0037265, "bike_id": "cfaca7e0ae9204100a8ccee966c0b69f", "rental_uris": {"android": "https://dc.lft.to/lastmile_qr_scan", "ios": "https://dc.lft.to/lastmile_qr_scan"}, "name": "cfaca7e0ae9204100a8ccee966c0b69f", "is_reserved": 0}, {"is_disabled": 0, "fusion_lon": 0.0, "fusion_lat": 0.0, "lat": 38.94918833333333, "type": "electric_scooter", "lon": -77.0230085, "bike_id": "24f6129882ba37178efe9777558c7220", "rental_uris": {"android": "https://dc.lft.to/lastmile_qr_scan", "ios": "https://dc.lft.to/lastmile_qr_scan"}, "name": "24f6129882ba37178efe9777558c7220", "is_reserved": 0}, {"is_disabled": 0, "fusion_lon": 0.0, "fusion_lat": 0.0, "lat": 38.9307855, "type": "electric_scooter", "lon": -77.05817083333334, "bike_id": "cb9cc489969865450bece9c4ade00f58", "rental_uris": {"android": "https://dc.lft.to/lastmile_qr_scan", "ios": "https://dc.lft.to/lastmile_qr_scan"}, "name": "cb9cc489969865450bece9c4ade00f58", "is_reserved": 0}, {"is_disabled": 0, "fusion_lon": 0.0, "fusion_lat": 0.0, "lat": 38.900168, "type": "electric_scooter", "lon": -77.03993683333333, "bike_id": "9242b8f070dc1e56a1293c54f47182ee", "rental_uris": {"android": "https://dc.lft.to/lastmile_qr_scan", "ios": "https://dc.lft.to/lastmile_qr_scan"}, "name": "9242b8f070dc1e56a1293c54f47182ee", "is_reserved": 0}, {"is_disabled": 0, "fusion_lon": 0.0, "fusion_lat": 0.0, "lat": 38.92442883333333, "type": "electric_scooter", "lon": -77.04029516666667, "bike_id": "fa92076b9c107f9cc22bb8c68a9636ab", "rental_uris": {"android": "https://dc.lft.to/lastmile_qr_scan", "ios": "https://dc.lft.to/lastmile_qr_scan"}, "name": "fa92076b9c107f9cc22bb8c68a9636ab", "is_reserved": 0}, {"is_disabled": 0, "fusion_lon": 0.0, "fusion_lat": 0.0, "lat": 38.9159735, "type": "electric_scooter", "lon": -77.023473, "bike_id": "fc2e109e5a1ba0c9075db56ac1699253", "rental_uris": {"android": "https://dc.lft.to/lastmile_qr_scan", "ios": "https://dc.lft.to/lastmile_qr_scan"}, "name": "fc2e109e5a1ba0c9075db56ac1699253", "is_reserved": 0}, {"is_disabled": 0, "fusion_lon": 0.0, "fusion_lat": 0.0, "lat": 38.916347333333334, "type": "electric_scooter", "lon": -77.04628016666666, "bike_id": "1195f2dd940894dc84a42bc655de17b8", "rental_uris": {"android": "https://dc.lft.to/lastmile_qr_scan", "ios": "https://dc.lft.to/lastmile_qr_scan"}, "name": "1195f2dd940894dc84a42bc655de17b8", "is_reserved": 0}, {"is_disabled": 0, "fusion_lon": 0.0, "fusion_lat": 0.0, "lat": 38.918067666666666, "type": "electric_scooter", "lon": -77.02442883333333, "bike_id": "38440dc6e16d7d3d3264a8ea571dab06", "rental_uris": {"android": "https://dc.lft.to/lastmile_qr_scan", "ios": "https://dc.lft.to/lastmile_qr_scan"}, "name": "38440dc6e16d7d3d3264a8ea571dab06", "is_reserved": 0}, {"is_disabled": 0, "fusion_lon": 0.0, "fusion_lat": 0.0, "lat": 38.908962833333334, "type": "electric_scooter", "lon": -77.00281783333334, "bike_id": "8ccc0787b1a358510a60ec88f43e7a25", "rental_uris": {"android": "https://dc.lft.to/lastmile_qr_scan", "ios": "https://dc.lft.to/lastmile_qr_scan"}, "name": "8ccc0787b1a358510a60ec88f43e7a25", "is_reserved": 0}, {"is_disabled": 0, "fusion_lon": 0.0, "fusion_lat": 0.0, "lat": 38.8634635, "type": "electric_scooter", "lon": -76.98259933333334, "bike_id": "66b26f71cacb77912f8967fcb5c80844", "rental_uris": {"android": "https://dc.lft.to/lastmile_qr_scan", "ios": "https://dc.lft.to/lastmile_qr_scan"}, "name": "66b26f71cacb77912f8967fcb5c80844", "is_reserved": 0}, {"is_disabled": 0, "fusion_lon": 0.0, "fusion_lat": 0.0, "lat": 38.88722, "type": "electric_scooter", "lon": -77.0220145, "bike_id": "a6c6287bfbb11b9214a7f015730fdadb", "rental_uris": {"android": "https://dc.lft.to/lastmile_qr_scan", "ios": "https://dc.lft.to/lastmile_qr_scan"}, "name": "a6c6287bfbb11b9214a7f015730fdadb", "is_reserved": 0}, {"is_disabled": 0, "fusion_lon": 0.0, "fusion_lat": 0.0, "lat": 38.9203355, "type": "electric_scooter", "lon": -77.02585966666666, "bike_id": "0aba641a8f2ee18862f3436c57252927", "rental_uris": {"android": "https://dc.lft.to/lastmile_qr_scan", "ios": "https://dc.lft.to/lastmile_qr_scan"}, "name": "0aba641a8f2ee18862f3436c57252927", "is_reserved": 0}, {"is_disabled": 0, "fusion_lon": 0.0, "fusion_lat": 0.0, "lat": 38.95627916666667, "type": "electric_scooter", "lon": -77.02462033333333, "bike_id": "9dd5b94f7ee41abb8707e73c1401dd50", "rental_uris": {"android": "https://dc.lft.to/lastmile_qr_scan", "ios": "https://dc.lft.to/lastmile_qr_scan"}, "name": "9dd5b94f7ee41abb8707e73c1401dd50", "is_reserved": 0}, {"is_disabled": 0, "fusion_lon": 0.0, "fusion_lat": 0.0, "lat": 38.91806866666667, "type": "electric_scooter", "lon": -77.02695216666666, "bike_id": "a82194195bc316b3f8db103e606a8cc1", "rental_uris": {"android": "https://dc.lft.to/lastmile_qr_scan", "ios": "https://dc.lft.to/lastmile_qr_scan"}, "name": "a82194195bc316b3f8db103e606a8cc1", "is_reserved": 0}, {"is_disabled": 0, "fusion_lon": 0.0, "fusion_lat": 0.0, "lat": 38.90711266666667, "type": "electric_scooter", "lon": -77.023948, "bike_id": "d05669cd9ff03906220692314501743e", "rental_uris": {"android": "https://dc.lft.to/lastmile_qr_scan", "ios": "https://dc.lft.to/lastmile_qr_scan"}, "name": "d05669cd9ff03906220692314501743e", "is_reserved": 0}, {"is_disabled": 0, "fusion_lon": 0.0, "fusion_lat": 0.0, "lat": 38.918071, "type": "electric_scooter", "lon": -77.02446783333333, "bike_id": "37fe9b8aa077a835447a6d35b6800856", "rental_uris": {"android": "https://dc.lft.to/lastmile_qr_scan", "ios": "https://dc.lft.to/lastmile_qr_scan"}, "name": "37fe9b8aa077a835447a6d35b6800856", "is_reserved": 0}, {"is_disabled": 0, "fusion_lon": 0.0, "fusion_lat": 0.0, "lat": 38.900915833333336, "type": "electric_scooter", "lon": -77.01772316666667, "bike_id": "9ca663d25a2f187ae0a990aa3322b28c", "rental_uris": {"android": "https://dc.lft.to/lastmile_qr_scan", "ios": "https://dc.lft.to/lastmile_qr_scan"}, "name": "9ca663d25a2f187ae0a990aa3322b28c", "is_reserved": 0}, {"is_disabled": 0, "fusion_lon": 0.0, "fusion_lat": 0.0, "lat": 38.934635166666666, "type": "electric_scooter", "lon": -77.02742, "bike_id": "4f9b9b06946fb8e1ddee439277377b1b", "rental_uris": {"android": "https://dc.lft.to/lastmile_qr_scan", "ios": "https://dc.lft.to/lastmile_qr_scan"}, "name": "4f9b9b06946fb8e1ddee439277377b1b", "is_reserved": 0}, {"is_disabled": 0, "fusion_lon": 0.0, "fusion_lat": 0.0, "lat": 38.918107166666665, "type": "electric_scooter", "lon": -77.03180133333333, "bike_id": "aff8e81584f0f7c14faa75aaf277b1ad", "rental_uris": {"android": "https://dc.lft.to/lastmile_qr_scan", "ios": "https://dc.lft.to/lastmile_qr_scan"}, "name": "aff8e81584f0f7c14faa75aaf277b1ad", "is_reserved": 0}, {"is_disabled": 0, "fusion_lon": 0.0, "fusion_lat": 0.0, "lat": 38.907147, "type": "electric_scooter", "lon": -77.02714166666667, "bike_id": "7eedf41ac8191468e4e458060f8c6a44", "rental_uris": {"android": "https://dc.lft.to/lastmile_qr_scan", "ios": "https://dc.lft.to/lastmile_qr_scan"}, "name": "7eedf41ac8191468e4e458060f8c6a44", "is_reserved": 0}, {"is_disabled": 0, "fusion_lon": 0.0, "fusion_lat": 0.0, "lat": 39.003826333333336, "type": "electric_bike", "lon": -77.01294566666667, "bike_id": "7ab6ff9379a3861ad222ee59450bcf9e", "rental_uris": {"android": "https://dc.lft.to/lastmile_qr_scan", "ios": "https://dc.lft.to/lastmile_qr_scan"}, "name": "7ab6ff9379a3861ad222ee59450bcf9e", "is_reserved": 0}, {"is_disabled": 0, "fusion_lon": 0.0, "fusion_lat": 0.0, "lat": 38.9348655, "type": "electric_scooter", "lon": -77.03289433333333, "bike_id": "f18c1efaf2c23d49e364185a3f8a5cca", "rental_uris": {"android": "https://dc.lft.to/lastmile_qr_scan", "ios": "https://dc.lft.to/lastmile_qr_scan"}, "name": "f18c1efaf2c23d49e364185a3f8a5cca", "is_reserved": 0}, {"is_disabled": 0, "fusion_lon": 0.0, "fusion_lat": 0.0, "lat": 38.9656455, "type": "electric_bike", "lon": -77.02303833333333, "bike_id": "7fe7f628091fd083ff251214f4047387", "rental_uris": {"android": "https://dc.lft.to/lastmile_qr_scan", "ios": "https://dc.lft.to/lastmile_qr_scan"}, "name": "7fe7f628091fd083ff251214f4047387", "is_reserved": 0}, {"is_disabled": 0, "fusion_lon": 0.0, "fusion_lat": 0.0, "lat": 38.924311333333335, "type": "electric_scooter", "lon": -77.04244666666666, "bike_id": "079311e8a6d15c6fda061c1ede1fe228", "rental_uris": {"android": "https://dc.lft.to/lastmile_qr_scan", "ios": "https://dc.lft.to/lastmile_qr_scan"}, "name": "079311e8a6d15c6fda061c1ede1fe228", "is_reserved": 0}, {"is_disabled": 0, "fusion_lon": 0.0, "fusion_lat": 0.0, "lat": 38.950890666666666, "type": "electric_bike", "lon": -76.96562133333333, "bike_id": "b6f67d97f2db987fb4afe94c198f221a", "rental_uris": {"android": "https://dc.lft.to/lastmile_qr_scan", "ios": "https://dc.lft.to/lastmile_qr_scan"}, "name": "b6f67d97f2db987fb4afe94c198f221a", "is_reserved": 0}, {"is_disabled": 0, "fusion_lon": 0.0, "fusion_lat": 0.0, "lat": 38.90788633333333, "type": "electric_scooter", "lon": -77.0409815, "bike_id": "b2d08aac27023ae9f5538c2a28ab290a", "rental_uris": {"android": "https://dc.lft.to/lastmile_qr_scan", "ios": "https://dc.lft.to/lastmile_qr_scan"}, "name": "b2d08aac27023ae9f5538c2a28ab290a", "is_reserved": 0}, {"is_disabled": 0, "fusion_lon": 0.0, "fusion_lat": 0.0, "lat": 38.912524166666664, "type": "electric_scooter", "lon": -77.00936166666666, "bike_id": "4638610f2570dd2981e7bd92a78d5291", "rental_uris": {"android": "https://dc.lft.to/lastmile_qr_scan", "ios": "https://dc.lft.to/lastmile_qr_scan"}, "name": "4638610f2570dd2981e7bd92a78d5291", "is_reserved": 0}, {"is_disabled": 0, "fusion_lon": 0.0, "fusion_lat": 0.0, "lat": 38.911253, "type": "electric_scooter", "lon": -77.042094, "bike_id": "bdb820137ffd7b4f2a87f65b7ab9cc9c", "rental_uris": {"android": "https://dc.lft.to/lastmile_qr_scan", "ios": "https://dc.lft.to/lastmile_qr_scan"}, "name": "bdb820137ffd7b4f2a87f65b7ab9cc9c", "is_reserved": 0}, {"is_disabled": 0, "fusion_lon": 0.0, "fusion_lat": 0.0, "lat": 38.9031295, "type": "electric_scooter", "lon": -76.9824325, "bike_id": "3af1c8e283091abec2f1f19f6525e451", "rental_uris": {"android": "https://dc.lft.to/lastmile_qr_scan", "ios": "https://dc.lft.to/lastmile_qr_scan"}, "name": "3af1c8e283091abec2f1f19f6525e451", "is_reserved": 0}, {"is_disabled": 0, "fusion_lon": 0.0, "fusion_lat": 0.0, "lat": 38.898422833333335, "type": "electric_scooter", "lon": -76.9463155, "bike_id": "bdd7b8cadc1d9a8f359c23749ba0a21c", "rental_uris": {"android": "https://dc.lft.to/lastmile_qr_scan", "ios": "https://dc.lft.to/lastmile_qr_scan"}, "name": "bdd7b8cadc1d9a8f359c23749ba0a21c", "is_reserved": 0}, {"is_disabled": 0, "fusion_lon": 0.0, "fusion_lat": 0.0, "lat": 38.873396, "type": "electric_bike", "lon": -77.01854, "bike_id": "d4de6f81bfcfaf3f9e5779db642550c0", "rental_uris": {"android": "https://dc.lft.to/lastmile_qr_scan", "ios": "https://dc.lft.to/lastmile_qr_scan"}, "name": "d4de6f81bfcfaf3f9e5779db642550c0", "is_reserved": 0}, {"is_disabled": 0, "fusion_lon": 0.0, "fusion_lat": 0.0, "lat": 38.92785, "type": "electric_scooter", "lon": -77.03149533333334, "bike_id": "d93e73b21dd9648ca36a0613ec82554e", "rental_uris": {"android": "https://dc.lft.to/lastmile_qr_scan", "ios": "https://dc.lft.to/lastmile_qr_scan"}, "name": "d93e73b21dd9648ca36a0613ec82554e", "is_reserved": 0}, {"is_disabled": 0, "fusion_lon": 0.0, "fusion_lat": 0.0, "lat": 38.87791983333334, "type": "electric_scooter", "lon": -77.01353516666667, "bike_id": "3faf86cc0c6c8e9aef38812041df8306", "rental_uris": {"android": "https://dc.lft.to/lastmile_qr_scan", "ios": "https://dc.lft.to/lastmile_qr_scan"}, "name": "3faf86cc0c6c8e9aef38812041df8306", "is_reserved": 0}, {"is_disabled": 0, "fusion_lon": 0.0, "fusion_lat": 0.0, "lat": 38.957434666666664, "type": "electric_scooter", "lon": -77.02430333333334, "bike_id": "333124c8094546354e59b0a6f9910b07", "rental_uris": {"android": "https://dc.lft.to/lastmile_qr_scan", "ios": "https://dc.lft.to/lastmile_qr_scan"}, "name": "333124c8094546354e59b0a6f9910b07", "is_reserved": 0}, {"is_disabled": 0, "fusion_lon": 0.0, "fusion_lat": 0.0, "lat": 38.93337283333334, "type": "electric_scooter", "lon": -77.04136816666667, "bike_id": "68f6f29fbad95a5e215b262a2ff67e79", "rental_uris": {"android": "https://dc.lft.to/lastmile_qr_scan", "ios": "https://dc.lft.to/lastmile_qr_scan"}, "name": "68f6f29fbad95a5e215b262a2ff67e79", "is_reserved": 0}, {"is_disabled": 0, "fusion_lon": 0.0, "fusion_lat": 0.0, "lat": 38.9287105, "type": "electric_scooter", "lon": -76.990296, "bike_id": "a768d7b14391f4335ec4081d04b4de7e", "rental_uris": {"android": "https://dc.lft.to/lastmile_qr_scan", "ios": "https://dc.lft.to/lastmile_qr_scan"}, "name": "a768d7b14391f4335ec4081d04b4de7e", "is_reserved": 0}, {"is_disabled": 0, "fusion_lon": 0.0, "fusion_lat": 0.0, "lat": 38.92824816666667, "type": "electric_scooter", "lon": -77.022614, "bike_id": "5e7120f33b4b6c5c11aec61a7c8e1947", "rental_uris": {"android": "https://dc.lft.to/lastmile_qr_scan", "ios": "https://dc.lft.to/lastmile_qr_scan"}, "name": "5e7120f33b4b6c5c11aec61a7c8e1947", "is_reserved": 0}, {"is_disabled": 0, "fusion_lon": 0.0, "fusion_lat": 0.0, "lat": 38.92734383333333, "type": "electric_bike", "lon": -76.9936735, "bike_id": "b41d7c9b4464bdc02909b5e002b98dfc", "rental_uris": {"android": "https://dc.lft.to/lastmile_qr_scan", "ios": "https://dc.lft.to/lastmile_qr_scan"}, "name": "b41d7c9b4464bdc02909b5e002b98dfc", "is_reserved": 0}, {"is_disabled": 0, "fusion_lon": 0.0, "fusion_lat": 0.0, "lat": 38.9134105, "type": "electric_scooter", "lon": -77.05218316666667, "bike_id": "da877f40d6af3beae649bd871716383b", "rental_uris": {"android": "https://dc.lft.to/lastmile_qr_scan", "ios": "https://dc.lft.to/lastmile_qr_scan"}, "name": "da877f40d6af3beae649bd871716383b", "is_reserved": 0}, {"is_disabled": 0, "fusion_lon": 0.0, "fusion_lat": 0.0, "lat": 38.98478733333334, "type": "electric_scooter", "lon": -77.02648616666667, "bike_id": "88712336022cca51830a39478e57b4b1", "rental_uris": {"android": "https://dc.lft.to/lastmile_qr_scan", "ios": "https://dc.lft.to/lastmile_qr_scan"}, "name": "88712336022cca51830a39478e57b4b1", "is_reserved": 0}, {"is_disabled": 0, "fusion_lon": 0.0, "fusion_lat": 0.0, "lat": 38.89357783333333, "type": "electric_scooter", "lon": -76.93990683333334, "bike_id": "b705be9e19eca31687cbabed3eb125b4", "rental_uris": {"android": "https://dc.lft.to/lastmile_qr_scan", "ios": "https://dc.lft.to/lastmile_qr_scan"}, "name": "b705be9e19eca31687cbabed3eb125b4", "is_reserved": 0}, {"is_disabled": 0, "fusion_lon": 0.0, "fusion_lat": 0.0, "lat": 38.93418616666666, "type": "electric_scooter", "lon": -77.02451666666667, "bike_id": "7e5d35158249488a13f9d2cad302166e", "rental_uris": {"android": "https://dc.lft.to/lastmile_qr_scan", "ios": "https://dc.lft.to/lastmile_qr_scan"}, "name": "7e5d35158249488a13f9d2cad302166e", "is_reserved": 0}, {"is_disabled": 0, "fusion_lon": 0.0, "fusion_lat": 0.0, "lat": 38.909735833333336, "type": "electric_scooter", "lon": -77.03871833333334, "bike_id": "473b63fd5d20580f8b40647eeca00a0b", "rental_uris": {"android": "https://dc.lft.to/lastmile_qr_scan", "ios": "https://dc.lft.to/lastmile_qr_scan"}, "name": "473b63fd5d20580f8b40647eeca00a0b", "is_reserved": 0}, {"is_disabled": 0, "fusion_lon": 0.0, "fusion_lat": 0.0, "lat": 38.938354833333335, "type": "electric_scooter", "lon": -77.0601845, "bike_id": "e9ba6ea1f8df33b5efb1499a5aa839bb", "rental_uris": {"android": "https://dc.lft.to/lastmile_qr_scan", "ios": "https://dc.lft.to/lastmile_qr_scan"}, "name": "e9ba6ea1f8df33b5efb1499a5aa839bb", "is_reserved": 0}, {"is_disabled": 0, "fusion_lon": 0.0, "fusion_lat": 0.0, "lat": 38.86721383333333, "type": "electric_scooter", "lon": -76.97919933333333, "bike_id": "cf43da068ac736de3be568ec343b9581", "rental_uris": {"android": "https://dc.lft.to/lastmile_qr_scan", "ios": "https://dc.lft.to/lastmile_qr_scan"}, "name": "cf43da068ac736de3be568ec343b9581", "is_reserved": 0}, {"is_disabled": 0, "fusion_lon": 0.0, "fusion_lat": 0.0, "lat": 38.91278, "type": "electric_scooter", "lon": -77.038579, "bike_id": "656e69998669370471ada5ba2d82df5c", "rental_uris": {"android": "https://dc.lft.to/lastmile_qr_scan", "ios": "https://dc.lft.to/lastmile_qr_scan"}, "name": "656e69998669370471ada5ba2d82df5c", "is_reserved": 0}, {"is_disabled": 0, "fusion_lon": 0.0, "fusion_lat": 0.0, "lat": 38.99254366666667, "type": "electric_bike", "lon": -77.0499995, "bike_id": "ab0ce1ba77544a5ab548b93497e73331", "rental_uris": {"android": "https://dc.lft.to/lastmile_qr_scan", "ios": "https://dc.lft.to/lastmile_qr_scan"}, "name": "ab0ce1ba77544a5ab548b93497e73331", "is_reserved": 0}, {"is_disabled": 0, "fusion_lon": 0.0, "fusion_lat": 0.0, "lat": 38.89736966666667, "type": "electric_scooter", "lon": -77.02703333333334, "bike_id": "ca595cf1e9e8959a4f1c5333a1cb7167", "rental_uris": {"android": "https://dc.lft.to/lastmile_qr_scan", "ios": "https://dc.lft.to/lastmile_qr_scan"}, "name": "ca595cf1e9e8959a4f1c5333a1cb7167", "is_reserved": 0}, {"is_disabled": 0, "fusion_lon": 0.0, "fusion_lat": 0.0, "lat": 38.91474616666667, "type": "electric_bike", "lon": -77.009229, "bike_id": "d554c4a2c79cc9234ccf0efaa14363de", "rental_uris": {"android": "https://dc.lft.to/lastmile_qr_scan", "ios": "https://dc.lft.to/lastmile_qr_scan"}, "name": "d554c4a2c79cc9234ccf0efaa14363de", "is_reserved": 0}, {"is_disabled": 0, "fusion_lon": 0.0, "fusion_lat": 0.0, "lat": 38.917646, "type": "electric_scooter", "lon": -77.0359205, "bike_id": "36861ec09127e9211302faf621a2699e", "rental_uris": {"android": "https://dc.lft.to/lastmile_qr_scan", "ios": "https://dc.lft.to/lastmile_qr_scan"}, "name": "36861ec09127e9211302faf621a2699e", "is_reserved": 0}, {"is_disabled": 0, "fusion_lon": 0.0, "fusion_lat": 0.0, "lat": 38.91880716666667, "type": "electric_scooter", "lon": -77.0159365, "bike_id": "22d6d41a62485cc778a8fc2de6b67305", "rental_uris": {"android": "https://dc.lft.to/lastmile_qr_scan", "ios": "https://dc.lft.to/lastmile_qr_scan"}, "name": "22d6d41a62485cc778a8fc2de6b67305", "is_reserved": 0}, {"is_disabled": 0, "fusion_lon": 0.0, "fusion_lat": 0.0, "lat": 38.95078016666667, "type": "electric_scooter", "lon": -77.02871916666666, "bike_id": "c8f21f71dacb13d966f6f65854fe1ead", "rental_uris": {"android": "https://dc.lft.to/lastmile_qr_scan", "ios": "https://dc.lft.to/lastmile_qr_scan"}, "name": "c8f21f71dacb13d966f6f65854fe1ead", "is_reserved": 0}, {"is_disabled": 0, "fusion_lon": 0.0, "fusion_lat": 0.0, "lat": 38.92054366666667, "type": "electric_scooter", "lon": -76.99873283333334, "bike_id": "809dc6199784c16c722e2de0e1c43ec7", "rental_uris": {"android": "https://dc.lft.to/lastmile_qr_scan", "ios": "https://dc.lft.to/lastmile_qr_scan"}, "name": "809dc6199784c16c722e2de0e1c43ec7", "is_reserved": 0}, {"is_disabled": 0, "fusion_lon": 0.0, "fusion_lat": 0.0, "lat": 38.88376133333333, "type": "electric_scooter", "lon": -76.92644533333333, "bike_id": "3d8cbaa4624b4660caca657633401fc6", "rental_uris": {"android": "https://dc.lft.to/lastmile_qr_scan", "ios": "https://dc.lft.to/lastmile_qr_scan"}, "name": "3d8cbaa4624b4660caca657633401fc6", "is_reserved": 0}, {"is_disabled": 0, "fusion_lon": 0.0, "fusion_lat": 0.0, "lat": 38.93187433333333, "type": "electric_bike", "lon": -77.2294005, "bike_id": "b394c13a124c57630d9a6fccb91a4664", "rental_uris": {"android": "https://dc.lft.to/lastmile_qr_scan", "ios": "https://dc.lft.to/lastmile_qr_scan"}, "name": "b394c13a124c57630d9a6fccb91a4664", "is_reserved": 0}, {"is_disabled": 0, "fusion_lon": 0.0, "fusion_lat": 0.0, "lat": 38.99076183333333, "type": "electric_bike", "lon": -77.02383166666667, "bike_id": "a527bf8036f1268b65cb5cd435c8c787", "rental_uris": {"android": "https://dc.lft.to/lastmile_qr_scan", "ios": "https://dc.lft.to/lastmile_qr_scan"}, "name": "a527bf8036f1268b65cb5cd435c8c787", "is_reserved": 0}, {"is_disabled": 0, "fusion_lon": 0.0, "fusion_lat": 0.0, "lat": 38.911088166666666, "type": "electric_scooter", "lon": -77.04509083333333, "bike_id": "9c469373faa19d41c337f3ffd31e26d3", "rental_uris": {"android": "https://dc.lft.to/lastmile_qr_scan", "ios": "https://dc.lft.to/lastmile_qr_scan"}, "name": "9c469373faa19d41c337f3ffd31e26d3", "is_reserved": 0}, {"is_disabled": 0, "fusion_lon": 0.0, "fusion_lat": 0.0, "lat": 38.91787583333333, "type": "electric_scooter", "lon": -77.04362116666667, "bike_id": "3ac0156fa869a78236702b52f43ce33d", "rental_uris": {"android": "https://dc.lft.to/lastmile_qr_scan", "ios": "https://dc.lft.to/lastmile_qr_scan"}, "name": "3ac0156fa869a78236702b52f43ce33d", "is_reserved": 0}, {"is_disabled": 0, "fusion_lon": 0.0, "fusion_lat": 0.0, "lat": 38.90852, "type": "electric_scooter", "lon": -77.06350966666666, "bike_id": "0825f107ce7980012fc0d00040fcf29c", "rental_uris": {"android": "https://dc.lft.to/lastmile_qr_scan", "ios": "https://dc.lft.to/lastmile_qr_scan"}, "name": "0825f107ce7980012fc0d00040fcf29c", "is_reserved": 0}, {"is_disabled": 0, "fusion_lon": 0.0, "fusion_lat": 0.0, "lat": 38.90946366666667, "type": "electric_scooter", "lon": -77.03446116666667, "bike_id": "1482ad30958895e45d73b9c106e72b3d", "rental_uris": {"android": "https://dc.lft.to/lastmile_qr_scan", "ios": "https://dc.lft.to/lastmile_qr_scan"}, "name": "1482ad30958895e45d73b9c106e72b3d", "is_reserved": 0}, {"is_disabled": 0, "fusion_lon": 0.0, "fusion_lat": 0.0, "lat": 38.896744, "type": "electric_scooter", "lon": -77.01163516666666, "bike_id": "9974caec3c06f4a0a532a151749614f0", "rental_uris": {"android": "https://dc.lft.to/lastmile_qr_scan", "ios": "https://dc.lft.to/lastmile_qr_scan"}, "name": "9974caec3c06f4a0a532a151749614f0", "is_reserved": 0}, {"is_disabled": 0, "fusion_lon": 0.0, "fusion_lat": 0.0, "lat": 38.88130683333333, "type": "electric_scooter", "lon": -77.020781, "bike_id": "5768401a6a03fee205db6459a0e2b0dc", "rental_uris": {"android": "https://dc.lft.to/lastmile_qr_scan", "ios": "https://dc.lft.to/lastmile_qr_scan"}, "name": "5768401a6a03fee205db6459a0e2b0dc", "is_reserved": 0}, {"is_disabled": 0, "fusion_lon": 0.0, "fusion_lat": 0.0, "lat": 38.90158133333333, "type": "electric_scooter", "lon": -77.03982866666666, "bike_id": "eb270900a7bcb19b99d49d88143bedbd", "rental_uris": {"android": "https://dc.lft.to/lastmile_qr_scan", "ios": "https://dc.lft.to/lastmile_qr_scan"}, "name": "eb270900a7bcb19b99d49d88143bedbd", "is_reserved": 0}, {"is_disabled": 0, "fusion_lon": 0.0, "fusion_lat": 0.0, "lat": 38.907273833333335, "type": "electric_scooter", "lon": -77.02252866666667, "bike_id": "5013f61358a6aaf6aae965d4a038c055", "rental_uris": {"android": "https://dc.lft.to/lastmile_qr_scan", "ios": "https://dc.lft.to/lastmile_qr_scan"}, "name": "5013f61358a6aaf6aae965d4a038c055", "is_reserved": 0}, {"is_disabled": 0, "fusion_lon": 0.0, "fusion_lat": 0.0, "lat": 38.923498333333335, "type": "electric_bike", "lon": -76.99253, "bike_id": "dcc3d005376b20a1c33ccfa07a5f2f8f", "rental_uris": {"android": "https://dc.lft.to/lastmile_qr_scan", "ios": "https://dc.lft.to/lastmile_qr_scan"}, "name": "dcc3d005376b20a1c33ccfa07a5f2f8f", "is_reserved": 0}, {"is_disabled": 0, "fusion_lon": 0.0, "fusion_lat": 0.0, "lat": 38.86957116666667, "type": "electric_scooter", "lon": -76.96034266666666, "bike_id": "b45b9946da3c0e6ca20093a74499fafc", "rental_uris": {"android": "https://dc.lft.to/lastmile_qr_scan", "ios": "https://dc.lft.to/lastmile_qr_scan"}, "name": "b45b9946da3c0e6ca20093a74499fafc", "is_reserved": 0}, {"is_disabled": 0, "fusion_lon": 0.0, "fusion_lat": 0.0, "lat": 38.90010316666667, "type": "electric_scooter", "lon": -77.0334145, "bike_id": "1dab27b018de70e38f75b8eb4ee009a4", "rental_uris": {"android": "https://dc.lft.to/lastmile_qr_scan", "ios": "https://dc.lft.to/lastmile_qr_scan"}, "name": "1dab27b018de70e38f75b8eb4ee009a4", "is_reserved": 0}, {"is_disabled": 0, "fusion_lon": 0.0, "fusion_lat": 0.0, "lat": 38.90969166666667, "type": "electric_scooter", "lon": -77.023867, "bike_id": "d0121021f54d965b228a07b6ffb4ff32", "rental_uris": {"android": "https://dc.lft.to/lastmile_qr_scan", "ios": "https://dc.lft.to/lastmile_qr_scan"}, "name": "d0121021f54d965b228a07b6ffb4ff32", "is_reserved": 0}, {"is_disabled": 0, "fusion_lon": 0.0, "fusion_lat": 0.0, "lat": 38.9189495, "type": "electric_scooter", "lon": -77.07110533333334, "bike_id": "1764e9b17d86e6b9f5f6587bf5cf2568", "rental_uris": {"android": "https://dc.lft.to/lastmile_qr_scan", "ios": "https://dc.lft.to/lastmile_qr_scan"}, "name": "1764e9b17d86e6b9f5f6587bf5cf2568", "is_reserved": 0}, {"is_disabled": 0, "fusion_lon": 0.0, "fusion_lat": 0.0, "lat": 38.810285666666665, "type": "electric_bike", "lon": -77.084387, "bike_id": "dddf0a93fb01cd351619f60edbcb8699", "rental_uris": {"android": "https://dc.lft.to/lastmile_qr_scan", "ios": "https://dc.lft.to/lastmile_qr_scan"}, "name": "dddf0a93fb01cd351619f60edbcb8699", "is_reserved": 0}, {"is_disabled": 0, "fusion_lon": 0.0, "fusion_lat": 0.0, "lat": 38.94304616666667, "type": "electric_scooter", "lon": -77.02763933333334, "bike_id": "e4815bbee6d90ace8a21bc5b32345371", "rental_uris": {"android": "https://dc.lft.to/lastmile_qr_scan", "ios": "https://dc.lft.to/lastmile_qr_scan"}, "name": "e4815bbee6d90ace8a21bc5b32345371", "is_reserved": 0}, {"is_disabled": 0, "fusion_lon": 0.0, "fusion_lat": 0.0, "lat": 38.925828833333334, "type": "electric_scooter", "lon": -77.03211283333333, "bike_id": "a5eabbbd767abb28ecc7c1e5989a9b65", "rental_uris": {"android": "https://dc.lft.to/lastmile_qr_scan", "ios": "https://dc.lft.to/lastmile_qr_scan"}, "name": "a5eabbbd767abb28ecc7c1e5989a9b65", "is_reserved": 0}, {"is_disabled": 0, "fusion_lon": 0.0, "fusion_lat": 0.0, "lat": 38.894134333333334, "type": "electric_scooter", "lon": -77.01085083333334, "bike_id": "48daeec077ff8ec2888a778c52f2a6d5", "rental_uris": {"android": "https://dc.lft.to/lastmile_qr_scan", "ios": "https://dc.lft.to/lastmile_qr_scan"}, "name": "48daeec077ff8ec2888a778c52f2a6d5", "is_reserved": 0}, {"is_disabled": 0, "fusion_lon": 0.0, "fusion_lat": 0.0, "lat": 38.90516216666666, "type": "electric_scooter", "lon": -77.05315716666667, "bike_id": "e780b5b89194eac6f3658699b4be9ea5", "rental_uris": {"android": "https://dc.lft.to/lastmile_qr_scan", "ios": "https://dc.lft.to/lastmile_qr_scan"}, "name": "e780b5b89194eac6f3658699b4be9ea5", "is_reserved": 0}, {"is_disabled": 0, "fusion_lon": 0.0, "fusion_lat": 0.0, "lat": 38.91933383333333, "type": "electric_bike", "lon": -76.97502633333333, "bike_id": "45ed2620e0fbf3661ce5b632f866bc05", "rental_uris": {"android": "https://dc.lft.to/lastmile_qr_scan", "ios": "https://dc.lft.to/lastmile_qr_scan"}, "name": "45ed2620e0fbf3661ce5b632f866bc05", "is_reserved": 0}, {"is_disabled": 0, "fusion_lon": 0.0, "fusion_lat": 0.0, "lat": 38.920700833333335, "type": "electric_scooter", "lon": -77.04378266666667, "bike_id": "56ccfaa167256ff12083d6dcf4f34462", "rental_uris": {"android": "https://dc.lft.to/lastmile_qr_scan", "ios": "https://dc.lft.to/lastmile_qr_scan"}, "name": "56ccfaa167256ff12083d6dcf4f34462", "is_reserved": 0}, {"is_disabled": 0, "fusion_lon": 0.0, "fusion_lat": 0.0, "lat": 38.923308666666664, "type": "electric_scooter", "lon": -77.04183033333334, "bike_id": "420b6c46cc4b682715fe28c19ea7c51b", "rental_uris": {"android": "https://dc.lft.to/lastmile_qr_scan", "ios": "https://dc.lft.to/lastmile_qr_scan"}, "name": "420b6c46cc4b682715fe28c19ea7c51b", "is_reserved": 0}, {"is_disabled": 0, "fusion_lon": 0.0, "fusion_lat": 0.0, "lat": 38.93622833333333, "type": "electric_scooter", "lon": -77.0245655, "bike_id": "0d7c8cc9ca91e1d44046e18a4d7b3af4", "rental_uris": {"android": "https://dc.lft.to/lastmile_qr_scan", "ios": "https://dc.lft.to/lastmile_qr_scan"}, "name": "0d7c8cc9ca91e1d44046e18a4d7b3af4", "is_reserved": 0}, {"is_disabled": 0, "fusion_lon": 0.0, "fusion_lat": 0.0, "lat": 38.91658783333333, "type": "electric_scooter", "lon": -77.02789883333334, "bike_id": "25382874e4dacb6a4e6f5d04ebe7313c", "rental_uris": {"android": "https://dc.lft.to/lastmile_qr_scan", "ios": "https://dc.lft.to/lastmile_qr_scan"}, "name": "25382874e4dacb6a4e6f5d04ebe7313c", "is_reserved": 0}, {"is_disabled": 0, "fusion_lon": 0.0, "fusion_lat": 0.0, "lat": 38.84509083333333, "type": "electric_bike", "lon": -76.972102, "bike_id": "dee178f7e7c048059f59a78ca38bc195", "rental_uris": {"android": "https://dc.lft.to/lastmile_qr_scan", "ios": "https://dc.lft.to/lastmile_qr_scan"}, "name": "dee178f7e7c048059f59a78ca38bc195", "is_reserved": 0}, {"is_disabled": 0, "fusion_lon": 0.0, "fusion_lat": 0.0, "lat": 38.907162, "type": "electric_scooter", "lon": -77.02719583333334, "bike_id": "7840f8d3c91a205e7de477d1388887d2", "rental_uris": {"android": "https://dc.lft.to/lastmile_qr_scan", "ios": "https://dc.lft.to/lastmile_qr_scan"}, "name": "7840f8d3c91a205e7de477d1388887d2", "is_reserved": 0}, {"is_disabled": 0, "fusion_lon": 0.0, "fusion_lat": 0.0, "lat": 38.90877483333333, "type": "electric_scooter", "lon": -77.0026535, "bike_id": "a50e02744ec18e6642e4fd04e7647162", "rental_uris": {"android": "https://dc.lft.to/lastmile_qr_scan", "ios": "https://dc.lft.to/lastmile_qr_scan"}, "name": "a50e02744ec18e6642e4fd04e7647162", "is_reserved": 0}, {"is_disabled": 0, "fusion_lon": 0.0, "fusion_lat": 0.0, "lat": 38.95324266666667, "type": "electric_scooter", "lon": -77.06856883333333, "bike_id": "1a43c6ef2250c113eaa2d83725df3d6f", "rental_uris": {"android": "https://dc.lft.to/lastmile_qr_scan", "ios": "https://dc.lft.to/lastmile_qr_scan"}, "name": "1a43c6ef2250c113eaa2d83725df3d6f", "is_reserved": 0}, {"is_disabled": 0, "fusion_lon": 0.0, "fusion_lat": 0.0, "lat": 39.03881833333333, "type": "electric_bike", "lon": -77.109104, "bike_id": "b988860275be507336b1cbce79cfe32f", "rental_uris": {"android": "https://dc.lft.to/lastmile_qr_scan", "ios": "https://dc.lft.to/lastmile_qr_scan"}, "name": "b988860275be507336b1cbce79cfe32f", "is_reserved": 0}, {"is_disabled": 0, "fusion_lon": 0.0, "fusion_lat": 0.0, "lat": 38.904786333333334, "type": "electric_scooter", "lon": -77.02702, "bike_id": "fa697d098e1a1ef11a152e1fef3e7b8c", "rental_uris": {"android": "https://dc.lft.to/lastmile_qr_scan", "ios": "https://dc.lft.to/lastmile_qr_scan"}, "name": "fa697d098e1a1ef11a152e1fef3e7b8c", "is_reserved": 0}, {"is_disabled": 0, "fusion_lon": 0.0, "fusion_lat": 0.0, "lat": 38.8928875, "type": "electric_bike", "lon": -77.00143383333334, "bike_id": "a3df552aa293db8d51021f811121756d", "rental_uris": {"android": "https://dc.lft.to/lastmile_qr_scan", "ios": "https://dc.lft.to/lastmile_qr_scan"}, "name": "a3df552aa293db8d51021f811121756d", "is_reserved": 0}, {"is_disabled": 0, "fusion_lon": 0.0, "fusion_lat": 0.0, "lat": 38.9113495, "type": "electric_scooter", "lon": -77.04410833333333, "bike_id": "2ff716c3acf0eafb05be9a2d824b7670", "rental_uris": {"android": "https://dc.lft.to/lastmile_qr_scan", "ios": "https://dc.lft.to/lastmile_qr_scan"}, "name": "2ff716c3acf0eafb05be9a2d824b7670", "is_reserved": 0}, {"is_disabled": 0, "fusion_lon": 0.0, "fusion_lat": 0.0, "lat": 38.956125, "type": "electric_scooter", "lon": -77.02783916666667, "bike_id": "8d0302424debd0909259e9d0e4650fd0", "rental_uris": {"android": "https://dc.lft.to/lastmile_qr_scan", "ios": "https://dc.lft.to/lastmile_qr_scan"}, "name": "8d0302424debd0909259e9d0e4650fd0", "is_reserved": 0}, {"is_disabled": 0, "fusion_lon": 0.0, "fusion_lat": 0.0, "lat": 38.88577133333333, "type": "electric_scooter", "lon": -76.91909, "bike_id": "3403462596230846f4fd51da8c828c3c", "rental_uris": {"android": "https://dc.lft.to/lastmile_qr_scan", "ios": "https://dc.lft.to/lastmile_qr_scan"}, "name": "3403462596230846f4fd51da8c828c3c", "is_reserved": 0}, {"is_disabled": 0, "fusion_lon": 0.0, "fusion_lat": 0.0, "lat": 38.862026666666665, "type": "electric_bike", "lon": -77.05651266666666, "bike_id": "9ad6bed1716e65e4e6b23e547c4863aa", "rental_uris": {"android": "https://dc.lft.to/lastmile_qr_scan", "ios": "https://dc.lft.to/lastmile_qr_scan"}, "name": "9ad6bed1716e65e4e6b23e547c4863aa", "is_reserved": 0}, {"is_disabled": 0, "fusion_lon": 0.0, "fusion_lat": 0.0, "lat": 38.87076, "type": "electric_bike", "lon": -77.1105435, "bike_id": "5a738c0d35c20c74da5ad7e643b6a0a6", "rental_uris": {"android": "https://dc.lft.to/lastmile_qr_scan", "ios": "https://dc.lft.to/lastmile_qr_scan"}, "name": "5a738c0d35c20c74da5ad7e643b6a0a6", "is_reserved": 0}, {"is_disabled": 0, "fusion_lon": 0.0, "fusion_lat": 0.0, "lat": 38.9366705, "type": "electric_bike", "lon": -76.95207716666667, "bike_id": "4a728918c35795e4a0e723e728f74e64", "rental_uris": {"android": "https://dc.lft.to/lastmile_qr_scan", "ios": "https://dc.lft.to/lastmile_qr_scan"}, "name": "4a728918c35795e4a0e723e728f74e64", "is_reserved": 0}, {"is_disabled": 0, "fusion_lon": 0.0, "fusion_lat": 0.0, "lat": 38.9111485, "type": "electric_scooter", "lon": -77.0661795, "bike_id": "4c80e06c83c7afc60725406e054c7470", "rental_uris": {"android": "https://dc.lft.to/lastmile_qr_scan", "ios": "https://dc.lft.to/lastmile_qr_scan"}, "name": "4c80e06c83c7afc60725406e054c7470", "is_reserved": 0}, {"is_disabled": 0, "fusion_lon": 0.0, "fusion_lat": 0.0, "lat": 39.08841966666667, "type": "electric_bike", "lon": -77.17798983333333, "bike_id": "6dae4f4cd784dfde88d2fb9dfa20144b", "rental_uris": {"android": "https://dc.lft.to/lastmile_qr_scan", "ios": "https://dc.lft.to/lastmile_qr_scan"}, "name": "6dae4f4cd784dfde88d2fb9dfa20144b", "is_reserved": 0}, {"is_disabled": 0, "fusion_lon": 0.0, "fusion_lat": 0.0, "lat": 38.9236685, "type": "electric_scooter", "lon": -77.0280045, "bike_id": "a80cca1f78e01c81e19bbb17f37745e9", "rental_uris": {"android": "https://dc.lft.to/lastmile_qr_scan", "ios": "https://dc.lft.to/lastmile_qr_scan"}, "name": "a80cca1f78e01c81e19bbb17f37745e9", "is_reserved": 0}, {"is_disabled": 0, "fusion_lon": 0.0, "fusion_lat": 0.0, "lat": 38.923727, "type": "electric_scooter", "lon": -77.0313395, "bike_id": "c9fe51d4c2f8700b316130333ddff58b", "rental_uris": {"android": "https://dc.lft.to/lastmile_qr_scan", "ios": "https://dc.lft.to/lastmile_qr_scan"}, "name": "c9fe51d4c2f8700b316130333ddff58b", "is_reserved": 0}, {"is_disabled": 0, "fusion_lon": 0.0, "fusion_lat": 0.0, "lat": 38.917154333333336, "type": "electric_scooter", "lon": -77.03120666666666, "bike_id": "056a4ab5e885b7f5bcb456708bffbf01", "rental_uris": {"android": "https://dc.lft.to/lastmile_qr_scan", "ios": "https://dc.lft.to/lastmile_qr_scan"}, "name": "056a4ab5e885b7f5bcb456708bffbf01", "is_reserved": 0}, {"is_disabled": 0, "fusion_lon": 0.0, "fusion_lat": 0.0, "lat": 38.88414066666667, "type": "electric_scooter", "lon": -76.9542595, "bike_id": "d5cc6da27e2f00b0d31ebfeebcee185a", "rental_uris": {"android": "https://dc.lft.to/lastmile_qr_scan", "ios": "https://dc.lft.to/lastmile_qr_scan"}, "name": "d5cc6da27e2f00b0d31ebfeebcee185a", "is_reserved": 0}, {"is_disabled": 0, "fusion_lon": 0.0, "fusion_lat": 0.0, "lat": 38.89206383333333, "type": "electric_scooter", "lon": -76.9880945, "bike_id": "f68937c0088340147a8ea88270b54527", "rental_uris": {"android": "https://dc.lft.to/lastmile_qr_scan", "ios": "https://dc.lft.to/lastmile_qr_scan"}, "name": "f68937c0088340147a8ea88270b54527", "is_reserved": 0}, {"is_disabled": 0, "fusion_lon": 0.0, "fusion_lat": 0.0, "lat": 38.914805333333334, "type": "electric_scooter", "lon": -77.034753, "bike_id": "a7d9a985e6e8588ce5645798e86531c8", "rental_uris": {"android": "https://dc.lft.to/lastmile_qr_scan", "ios": "https://dc.lft.to/lastmile_qr_scan"}, "name": "a7d9a985e6e8588ce5645798e86531c8", "is_reserved": 0}, {"is_disabled": 0, "fusion_lon": 0.0, "fusion_lat": 0.0, "lat": 38.8938935, "type": "electric_scooter", "lon": -76.94997366666666, "bike_id": "1cfd3a412f1a2c5f20462d16d501a921", "rental_uris": {"android": "https://dc.lft.to/lastmile_qr_scan", "ios": "https://dc.lft.to/lastmile_qr_scan"}, "name": "1cfd3a412f1a2c5f20462d16d501a921", "is_reserved": 0}, {"is_disabled": 0, "fusion_lon": 0.0, "fusion_lat": 0.0, "lat": 38.905553, "type": "electric_scooter", "lon": -76.98146066666666, "bike_id": "536be58fdf43fcabba55a32d10ae9efd", "rental_uris": {"android": "https://dc.lft.to/lastmile_qr_scan", "ios": "https://dc.lft.to/lastmile_qr_scan"}, "name": "536be58fdf43fcabba55a32d10ae9efd", "is_reserved": 0}, {"is_disabled": 0, "fusion_lon": 0.0, "fusion_lat": 0.0, "lat": 38.9001935, "type": "electric_scooter", "lon": -77.04672566666666, "bike_id": "c78d7199eac99087714224bc32047ef5", "rental_uris": {"android": "https://dc.lft.to/lastmile_qr_scan", "ios": "https://dc.lft.to/lastmile_qr_scan"}, "name": "c78d7199eac99087714224bc32047ef5", "is_reserved": 0}, {"is_disabled": 0, "fusion_lon": 0.0, "fusion_lat": 0.0, "lat": 38.924821333333334, "type": "electric_scooter", "lon": -77.037812, "bike_id": "e7a86d98253558ecc62c20a494b8ff09", "rental_uris": {"android": "https://dc.lft.to/lastmile_qr_scan", "ios": "https://dc.lft.to/lastmile_qr_scan"}, "name": "e7a86d98253558ecc62c20a494b8ff09", "is_reserved": 0}, {"is_disabled": 0, "fusion_lon": 0.0, "fusion_lat": 0.0, "lat": 38.94592566666667, "type": "electric_bike", "lon": -77.34409016666666, "bike_id": "0b90842b68e55f6a0218baf1e5264aa8", "rental_uris": {"android": "https://dc.lft.to/lastmile_qr_scan", "ios": "https://dc.lft.to/lastmile_qr_scan"}, "name": "0b90842b68e55f6a0218baf1e5264aa8", "is_reserved": 0}, {"is_disabled": 0, "fusion_lon": 0.0, "fusion_lat": 0.0, "lat": 38.88850566666667, "type": "electric_bike", "lon": -76.97702883333334, "bike_id": "9df3d3596f1852826b5fbdc1f5ec3e88", "rental_uris": {"android": "https://dc.lft.to/lastmile_qr_scan", "ios": "https://dc.lft.to/lastmile_qr_scan"}, "name": "9df3d3596f1852826b5fbdc1f5ec3e88", "is_reserved": 0}, {"is_disabled": 0, "fusion_lon": 0.0, "fusion_lat": 0.0, "lat": 39.054582, "type": "electric_bike", "lon": -77.1432355, "bike_id": "c0ace80b0616021997c26ed0720e86a3", "rental_uris": {"android": "https://dc.lft.to/lastmile_qr_scan", "ios": "https://dc.lft.to/lastmile_qr_scan"}, "name": "c0ace80b0616021997c26ed0720e86a3", "is_reserved": 0}, {"is_disabled": 0, "fusion_lon": 0.0, "fusion_lat": 0.0, "lat": 38.9156925, "type": "electric_scooter", "lon": -77.03873283333333, "bike_id": "b2ecf8d79c98d4442faff4bb8f876d23", "rental_uris": {"android": "https://dc.lft.to/lastmile_qr_scan", "ios": "https://dc.lft.to/lastmile_qr_scan"}, "name": "b2ecf8d79c98d4442faff4bb8f876d23", "is_reserved": 0}, {"is_disabled": 0, "fusion_lon": 0.0, "fusion_lat": 0.0, "lat": 38.90847383333333, "type": "electric_scooter", "lon": -77.05508066666667, "bike_id": "6f68c6d1162dee88c2a7960b1b1bfd04", "rental_uris": {"android": "https://dc.lft.to/lastmile_qr_scan", "ios": "https://dc.lft.to/lastmile_qr_scan"}, "name": "6f68c6d1162dee88c2a7960b1b1bfd04", "is_reserved": 0}, {"is_disabled": 0, "fusion_lon": 0.0, "fusion_lat": 0.0, "lat": 38.896100833333335, "type": "electric_scooter", "lon": -77.00930333333334, "bike_id": "b769546fd6ae76a15458e61e6217024e", "rental_uris": {"android": "https://dc.lft.to/lastmile_qr_scan", "ios": "https://dc.lft.to/lastmile_qr_scan"}, "name": "b769546fd6ae76a15458e61e6217024e", "is_reserved": 0}, {"is_disabled": 0, "fusion_lon": 0.0, "fusion_lat": 0.0, "lat": 38.90258016666667, "type": "electric_scooter", "lon": -77.00328566666667, "bike_id": "3d7a45734c56615940adc0a6f23f1f24", "rental_uris": {"android": "https://dc.lft.to/lastmile_qr_scan", "ios": "https://dc.lft.to/lastmile_qr_scan"}, "name": "3d7a45734c56615940adc0a6f23f1f24", "is_reserved": 0}, {"is_disabled": 0, "fusion_lon": 0.0, "fusion_lat": 0.0, "lat": 38.887462166666666, "type": "electric_scooter", "lon": -77.01429983333334, "bike_id": "9f6ad0c13ef343403d8dfe1df6e64d11", "rental_uris": {"android": "https://dc.lft.to/lastmile_qr_scan", "ios": "https://dc.lft.to/lastmile_qr_scan"}, "name": "9f6ad0c13ef343403d8dfe1df6e64d11", "is_reserved": 0}, {"is_disabled": 0, "fusion_lon": 0.0, "fusion_lat": 0.0, "lat": 38.8844235, "type": "electric_scooter", "lon": -77.02963616666666, "bike_id": "ef4d1c1b7b89a5f9f81eeb647a51de73", "rental_uris": {"android": "https://dc.lft.to/lastmile_qr_scan", "ios": "https://dc.lft.to/lastmile_qr_scan"}, "name": "ef4d1c1b7b89a5f9f81eeb647a51de73", "is_reserved": 0}, {"is_disabled": 0, "fusion_lon": 0.0, "fusion_lat": 0.0, "lat": 38.91279183333333, "type": "electric_scooter", "lon": -77.0140305, "bike_id": "a5ac3c53e13df07ee3b1e9ce6694a054", "rental_uris": {"android": "https://dc.lft.to/lastmile_qr_scan", "ios": "https://dc.lft.to/lastmile_qr_scan"}, "name": "a5ac3c53e13df07ee3b1e9ce6694a054", "is_reserved": 0}, {"is_disabled": 0, "fusion_lon": 0.0, "fusion_lat": 0.0, "lat": 38.91870683333333, "type": "electric_scooter", "lon": -77.04430766666667, "bike_id": "ad79b90f2cd37309ec6616538a6f9a91", "rental_uris": {"android": "https://dc.lft.to/lastmile_qr_scan", "ios": "https://dc.lft.to/lastmile_qr_scan"}, "name": "ad79b90f2cd37309ec6616538a6f9a91", "is_reserved": 0}, {"is_disabled": 0, "fusion_lon": 0.0, "fusion_lat": 0.0, "lat": 38.908131166666664, "type": "electric_scooter", "lon": -77.03392916666667, "bike_id": "47e8743f180bbc84619a6d414bf83d97", "rental_uris": {"android": "https://dc.lft.to/lastmile_qr_scan", "ios": "https://dc.lft.to/lastmile_qr_scan"}, "name": "47e8743f180bbc84619a6d414bf83d97", "is_reserved": 0}, {"is_disabled": 0, "fusion_lon": 0.0, "fusion_lat": 0.0, "lat": 38.9478465, "type": "electric_scooter", "lon": -77.09272283333334, "bike_id": "62f3c9e5d0f6132ac149ce469d946972", "rental_uris": {"android": "https://dc.lft.to/lastmile_qr_scan", "ios": "https://dc.lft.to/lastmile_qr_scan"}, "name": "62f3c9e5d0f6132ac149ce469d946972", "is_reserved": 0}, {"is_disabled": 0, "fusion_lon": 0.0, "fusion_lat": 0.0, "lat": 38.91923716666667, "type": "electric_scooter", "lon": -77.03423066666667, "bike_id": "601571cca3d6dc21b0c92c437f61a3dd", "rental_uris": {"android": "https://dc.lft.to/lastmile_qr_scan", "ios": "https://dc.lft.to/lastmile_qr_scan"}, "name": "601571cca3d6dc21b0c92c437f61a3dd", "is_reserved": 0}, {"is_disabled": 0, "fusion_lon": 0.0, "fusion_lat": 0.0, "lat": 38.920736833333336, "type": "electric_scooter", "lon": -77.01799816666667, "bike_id": "4186a3920cbbee429359a16c02f7481c", "rental_uris": {"android": "https://dc.lft.to/lastmile_qr_scan", "ios": "https://dc.lft.to/lastmile_qr_scan"}, "name": "4186a3920cbbee429359a16c02f7481c", "is_reserved": 0}, {"is_disabled": 0, "fusion_lon": 0.0, "fusion_lat": 0.0, "lat": 38.865872333333336, "type": "electric_scooter", "lon": -76.990297, "bike_id": "6b147e1bfd24f7a5128143b50b8ae6af", "rental_uris": {"android": "https://dc.lft.to/lastmile_qr_scan", "ios": "https://dc.lft.to/lastmile_qr_scan"}, "name": "6b147e1bfd24f7a5128143b50b8ae6af", "is_reserved": 0}, {"is_disabled": 0, "fusion_lon": 0.0, "fusion_lat": 0.0, "lat": 38.9052385, "type": "electric_scooter", "lon": -77.04653933333333, "bike_id": "aadfb7e36a41feefe9846615668eeda7", "rental_uris": {"android": "https://dc.lft.to/lastmile_qr_scan", "ios": "https://dc.lft.to/lastmile_qr_scan"}, "name": "aadfb7e36a41feefe9846615668eeda7", "is_reserved": 0}, {"is_disabled": 0, "fusion_lon": 0.0, "fusion_lat": 0.0, "lat": 38.9192295, "type": "electric_scooter", "lon": -77.03421216666666, "bike_id": "c307d32d63891c7fa854690d7e7d11c3", "rental_uris": {"android": "https://dc.lft.to/lastmile_qr_scan", "ios": "https://dc.lft.to/lastmile_qr_scan"}, "name": "c307d32d63891c7fa854690d7e7d11c3", "is_reserved": 0}, {"is_disabled": 0, "fusion_lon": 0.0, "fusion_lat": 0.0, "lat": 38.901791833333334, "type": "electric_scooter", "lon": -76.92831266666667, "bike_id": "f10df815e9eecbdb102c895ce24668a5", "rental_uris": {"android": "https://dc.lft.to/lastmile_qr_scan", "ios": "https://dc.lft.to/lastmile_qr_scan"}, "name": "f10df815e9eecbdb102c895ce24668a5", "is_reserved": 0}, {"is_disabled": 0, "fusion_lon": 0.0, "fusion_lat": 0.0, "lat": 38.931071, "type": "electric_scooter", "lon": -77.03485283333333, "bike_id": "63380062c9b7a5ad4df21eeb0bc5f94d", "rental_uris": {"android": "https://dc.lft.to/lastmile_qr_scan", "ios": "https://dc.lft.to/lastmile_qr_scan"}, "name": "63380062c9b7a5ad4df21eeb0bc5f94d", "is_reserved": 0}, {"is_disabled": 0, "fusion_lon": 0.0, "fusion_lat": 0.0, "lat": 38.88715883333333, "type": "electric_scooter", "lon": -77.02826416666667, "bike_id": "e340b3a7f6b239dee0a9d4a08840395d", "rental_uris": {"android": "https://dc.lft.to/lastmile_qr_scan", "ios": "https://dc.lft.to/lastmile_qr_scan"}, "name": "e340b3a7f6b239dee0a9d4a08840395d", "is_reserved": 0}, {"is_disabled": 0, "fusion_lon": 0.0, "fusion_lat": 0.0, "lat": 38.93203366666667, "type": "electric_scooter", "lon": -77.03666733333333, "bike_id": "5b37ab21efc9c724be2a35e056331ffc", "rental_uris": {"android": "https://dc.lft.to/lastmile_qr_scan", "ios": "https://dc.lft.to/lastmile_qr_scan"}, "name": "5b37ab21efc9c724be2a35e056331ffc", "is_reserved": 0}, {"is_disabled": 0, "fusion_lon": 0.0, "fusion_lat": 0.0, "lat": 38.91873416666667, "type": "electric_bike", "lon": -76.96126366666667, "bike_id": "d3e6210d5c7b19d1761101179e65e7cc", "rental_uris": {"android": "https://dc.lft.to/lastmile_qr_scan", "ios": "https://dc.lft.to/lastmile_qr_scan"}, "name": "d3e6210d5c7b19d1761101179e65e7cc", "is_reserved": 0}, {"is_disabled": 0, "fusion_lon": 0.0, "fusion_lat": 0.0, "lat": 38.8961795, "type": "electric_scooter", "lon": -76.99637733333333, "bike_id": "4079562eba485b5c1262883792833266", "rental_uris": {"android": "https://dc.lft.to/lastmile_qr_scan", "ios": "https://dc.lft.to/lastmile_qr_scan"}, "name": "4079562eba485b5c1262883792833266", "is_reserved": 0}, {"is_disabled": 0, "fusion_lon": 0.0, "fusion_lat": 0.0, "lat": 39.05204116666667, "type": "electric_bike", "lon": -77.044149, "bike_id": "1b42383f31ea0eb9fcbf05c341579cf2", "rental_uris": {"android": "https://dc.lft.to/lastmile_qr_scan", "ios": "https://dc.lft.to/lastmile_qr_scan"}, "name": "1b42383f31ea0eb9fcbf05c341579cf2", "is_reserved": 0}, {"is_disabled": 0, "fusion_lon": 0.0, "fusion_lat": 0.0, "lat": 38.91657083333333, "type": "electric_scooter", "lon": -77.046509, "bike_id": "53cca5347d68f5d0cf1284587499ce98", "rental_uris": {"android": "https://dc.lft.to/lastmile_qr_scan", "ios": "https://dc.lft.to/lastmile_qr_scan"}, "name": "53cca5347d68f5d0cf1284587499ce98", "is_reserved": 0}, {"is_disabled": 0, "fusion_lon": 0.0, "fusion_lat": 0.0, "lat": 38.904445833333334, "type": "electric_scooter", "lon": -77.0317385, "bike_id": "e00a92436fa5ae7c93476ee300a9b441", "rental_uris": {"android": "https://dc.lft.to/lastmile_qr_scan", "ios": "https://dc.lft.to/lastmile_qr_scan"}, "name": "e00a92436fa5ae7c93476ee300a9b441", "is_reserved": 0}, {"is_disabled": 0, "fusion_lon": 0.0, "fusion_lat": 0.0, "lat": 38.91193633333334, "type": "electric_scooter", "lon": -77.0416455, "bike_id": "5d1a128af41f5cf0bb8510e039874078", "rental_uris": {"android": "https://dc.lft.to/lastmile_qr_scan", "ios": "https://dc.lft.to/lastmile_qr_scan"}, "name": "5d1a128af41f5cf0bb8510e039874078", "is_reserved": 0}, {"is_disabled": 0, "fusion_lon": 0.0, "fusion_lat": 0.0, "lat": 38.9391185, "type": "electric_scooter", "lon": -77.0780345, "bike_id": "e07b6d95da031cdad1c84a7dbe74f007", "rental_uris": {"android": "https://dc.lft.to/lastmile_qr_scan", "ios": "https://dc.lft.to/lastmile_qr_scan"}, "name": "e07b6d95da031cdad1c84a7dbe74f007", "is_reserved": 0}, {"is_disabled": 0, "fusion_lon": 0.0, "fusion_lat": 0.0, "lat": 38.88682166666667, "type": "electric_scooter", "lon": -77.01367583333334, "bike_id": "f630f55b4bf1309b740aaa7e665e188e", "rental_uris": {"android": "https://dc.lft.to/lastmile_qr_scan", "ios": "https://dc.lft.to/lastmile_qr_scan"}, "name": "f630f55b4bf1309b740aaa7e665e188e", "is_reserved": 0}, {"is_disabled": 0, "fusion_lon": 0.0, "fusion_lat": 0.0, "lat": 38.90181333333334, "type": "electric_scooter", "lon": -77.05011616666667, "bike_id": "be98f7c3f918afc2f051d1cbf6f51090", "rental_uris": {"android": "https://dc.lft.to/lastmile_qr_scan", "ios": "https://dc.lft.to/lastmile_qr_scan"}, "name": "be98f7c3f918afc2f051d1cbf6f51090", "is_reserved": 0}, {"is_disabled": 0, "fusion_lon": 0.0, "fusion_lat": 0.0, "lat": 38.9273365, "type": "electric_scooter", "lon": -77.027015, "bike_id": "f8f774d2b0fa68aae46864462542fd28", "rental_uris": {"android": "https://dc.lft.to/lastmile_qr_scan", "ios": "https://dc.lft.to/lastmile_qr_scan"}, "name": "f8f774d2b0fa68aae46864462542fd28", "is_reserved": 0}, {"is_disabled": 0, "fusion_lon": 0.0, "fusion_lat": 0.0, "lat": 38.886677166666665, "type": "electric_scooter", "lon": -77.00356466666666, "bike_id": "11ba9a38757f5f0bf54b7cbcba0be219", "rental_uris": {"android": "https://dc.lft.to/lastmile_qr_scan", "ios": "https://dc.lft.to/lastmile_qr_scan"}, "name": "11ba9a38757f5f0bf54b7cbcba0be219", "is_reserved": 0}, {"is_disabled": 0, "fusion_lon": 0.0, "fusion_lat": 0.0, "lat": 38.9285845, "type": "electric_bike", "lon": -76.98937583333333, "bike_id": "6b78f8d4f7e4a82046a890e862710b07", "rental_uris": {"android": "https://dc.lft.to/lastmile_qr_scan", "ios": "https://dc.lft.to/lastmile_qr_scan"}, "name": "6b78f8d4f7e4a82046a890e862710b07", "is_reserved": 0}, {"is_disabled": 0, "fusion_lon": 0.0, "fusion_lat": 0.0, "lat": 38.96816716666667, "type": "electric_scooter", "lon": -77.008882, "bike_id": "d99799317f7de1c6c142a5d5a132d84a", "rental_uris": {"android": "https://dc.lft.to/lastmile_qr_scan", "ios": "https://dc.lft.to/lastmile_qr_scan"}, "name": "d99799317f7de1c6c142a5d5a132d84a", "is_reserved": 0}, {"is_disabled": 0, "fusion_lon": 0.0, "fusion_lat": 0.0, "lat": 38.89732216666667, "type": "electric_bike", "lon": -76.905396, "bike_id": "b38c65ef6f17d54d5d88549fec776082", "rental_uris": {"android": "https://dc.lft.to/lastmile_qr_scan", "ios": "https://dc.lft.to/lastmile_qr_scan"}, "name": "b38c65ef6f17d54d5d88549fec776082", "is_reserved": 0}, {"is_disabled": 0, "fusion_lon": 0.0, "fusion_lat": 0.0, "lat": 38.904809166666666, "type": "electric_scooter", "lon": -76.973306, "bike_id": "6128f0a1ac44d216db8ac885a25f0d19", "rental_uris": {"android": "https://dc.lft.to/lastmile_qr_scan", "ios": "https://dc.lft.to/lastmile_qr_scan"}, "name": "6128f0a1ac44d216db8ac885a25f0d19", "is_reserved": 0}, {"is_disabled": 0, "fusion_lon": 0.0, "fusion_lat": 0.0, "lat": 38.905098333333335, "type": "electric_scooter", "lon": -77.02514366666666, "bike_id": "56146db0fa8a7243b5f4ab5fc7d8b673", "rental_uris": {"android": "https://dc.lft.to/lastmile_qr_scan", "ios": "https://dc.lft.to/lastmile_qr_scan"}, "name": "56146db0fa8a7243b5f4ab5fc7d8b673", "is_reserved": 0}, {"is_disabled": 0, "fusion_lon": 0.0, "fusion_lat": 0.0, "lat": 38.915604333333334, "type": "electric_scooter", "lon": -77.0102835, "bike_id": "01baa55acb5ae9ed5581bec38360f052", "rental_uris": {"android": "https://dc.lft.to/lastmile_qr_scan", "ios": "https://dc.lft.to/lastmile_qr_scan"}, "name": "01baa55acb5ae9ed5581bec38360f052", "is_reserved": 0}, {"is_disabled": 0, "fusion_lon": 0.0, "fusion_lat": 0.0, "lat": 38.91806483333333, "type": "electric_scooter", "lon": -77.03221766666667, "bike_id": "b8b361a8a2be7aacd7a3ed2858aca91b", "rental_uris": {"android": "https://dc.lft.to/lastmile_qr_scan", "ios": "https://dc.lft.to/lastmile_qr_scan"}, "name": "b8b361a8a2be7aacd7a3ed2858aca91b", "is_reserved": 0}, {"is_disabled": 0, "fusion_lon": 0.0, "fusion_lat": 0.0, "lat": 38.91707483333333, "type": "electric_scooter", "lon": -77.00116933333334, "bike_id": "fc93d36d3a6ca68d50598e6f2b6d4bc4", "rental_uris": {"android": "https://dc.lft.to/lastmile_qr_scan", "ios": "https://dc.lft.to/lastmile_qr_scan"}, "name": "fc93d36d3a6ca68d50598e6f2b6d4bc4", "is_reserved": 0}, {"is_disabled": 0, "fusion_lon": 0.0, "fusion_lat": 0.0, "lat": 38.9180165, "type": "electric_scooter", "lon": -77.02397766666667, "bike_id": "0a2625df5143070e887878ee5ae55e9b", "rental_uris": {"android": "https://dc.lft.to/lastmile_qr_scan", "ios": "https://dc.lft.to/lastmile_qr_scan"}, "name": "0a2625df5143070e887878ee5ae55e9b", "is_reserved": 0}, {"is_disabled": 0, "fusion_lon": 0.0, "fusion_lat": 0.0, "lat": 38.908996, "type": "electric_scooter", "lon": -77.02276333333333, "bike_id": "1c5ee551621d1b6633247855c5f8f7d8", "rental_uris": {"android": "https://dc.lft.to/lastmile_qr_scan", "ios": "https://dc.lft.to/lastmile_qr_scan"}, "name": "1c5ee551621d1b6633247855c5f8f7d8", "is_reserved": 0}, {"is_disabled": 0, "fusion_lon": 0.0, "fusion_lat": 0.0, "lat": 38.985050333333334, "type": "electric_bike", "lon": -76.982058, "bike_id": "aedade22bafe25190821a780ffd2155d", "rental_uris": {"android": "https://dc.lft.to/lastmile_qr_scan", "ios": "https://dc.lft.to/lastmile_qr_scan"}, "name": "aedade22bafe25190821a780ffd2155d", "is_reserved": 0}, {"is_disabled": 0, "fusion_lon": 0.0, "fusion_lat": 0.0, "lat": 38.9038315, "type": "electric_scooter", "lon": -77.03227416666667, "bike_id": "4a6c5ebee4d096ebac265c695c810fea", "rental_uris": {"android": "https://dc.lft.to/lastmile_qr_scan", "ios": "https://dc.lft.to/lastmile_qr_scan"}, "name": "4a6c5ebee4d096ebac265c695c810fea", "is_reserved": 0}, {"is_disabled": 0, "fusion_lon": 0.0, "fusion_lat": 0.0, "lat": 38.93547016666667, "type": "electric_scooter", "lon": -77.05809483333333, "bike_id": "047e4652a6b47a232e97454ebdc5c86a", "rental_uris": {"android": "https://dc.lft.to/lastmile_qr_scan", "ios": "https://dc.lft.to/lastmile_qr_scan"}, "name": "047e4652a6b47a232e97454ebdc5c86a", "is_reserved": 0}, {"is_disabled": 0, "fusion_lon": 0.0, "fusion_lat": 0.0, "lat": 38.885736666666666, "type": "electric_scooter", "lon": -76.91909433333333, "bike_id": "9866275ab95c15928f081d5a55fd731f", "rental_uris": {"android": "https://dc.lft.to/lastmile_qr_scan", "ios": "https://dc.lft.to/lastmile_qr_scan"}, "name": "9866275ab95c15928f081d5a55fd731f", "is_reserved": 0}, {"is_disabled": 0, "fusion_lon": 0.0, "fusion_lat": 0.0, "lat": 38.91783366666667, "type": "electric_scooter", "lon": -77.04302966666667, "bike_id": "caebe12fc9f680866b5c1259b28d548a", "rental_uris": {"android": "https://dc.lft.to/lastmile_qr_scan", "ios": "https://dc.lft.to/lastmile_qr_scan"}, "name": "caebe12fc9f680866b5c1259b28d548a", "is_reserved": 0}, {"is_disabled": 0, "fusion_lon": 0.0, "fusion_lat": 0.0, "lat": 38.9139935, "type": "electric_scooter", "lon": -77.00335283333334, "bike_id": "9a9eefab5c4cf0d59a18dff835c01da7", "rental_uris": {"android": "https://dc.lft.to/lastmile_qr_scan", "ios": "https://dc.lft.to/lastmile_qr_scan"}, "name": "9a9eefab5c4cf0d59a18dff835c01da7", "is_reserved": 0}, {"is_disabled": 0, "fusion_lon": 0.0, "fusion_lat": 0.0, "lat": 38.9084065, "type": "electric_scooter", "lon": -77.026966, "bike_id": "1047232b1bcce29138bab43d197f87e8", "rental_uris": {"android": "https://dc.lft.to/lastmile_qr_scan", "ios": "https://dc.lft.to/lastmile_qr_scan"}, "name": "1047232b1bcce29138bab43d197f87e8", "is_reserved": 0}, {"is_disabled": 0, "fusion_lon": 0.0, "fusion_lat": 0.0, "lat": 38.930558833333336, "type": "electric_scooter", "lon": -77.02810516666666, "bike_id": "ef02b8ae306426a2d0f75a12cbd71416", "rental_uris": {"android": "https://dc.lft.to/lastmile_qr_scan", "ios": "https://dc.lft.to/lastmile_qr_scan"}, "name": "ef02b8ae306426a2d0f75a12cbd71416", "is_reserved": 0}, {"is_disabled": 0, "fusion_lon": 0.0, "fusion_lat": 0.0, "lat": 38.9449295, "type": "electric_bike", "lon": -76.98661333333334, "bike_id": "be48ca097ac5e6bdbeafb0b4493518b9", "rental_uris": {"android": "https://dc.lft.to/lastmile_qr_scan", "ios": "https://dc.lft.to/lastmile_qr_scan"}, "name": "be48ca097ac5e6bdbeafb0b4493518b9", "is_reserved": 0}, {"is_disabled": 0, "fusion_lon": 0.0, "fusion_lat": 0.0, "lat": 38.92125516666667, "type": "electric_scooter", "lon": -77.01778216666666, "bike_id": "b8f9e4fc816fa199a44888afd7d5f4f8", "rental_uris": {"android": "https://dc.lft.to/lastmile_qr_scan", "ios": "https://dc.lft.to/lastmile_qr_scan"}, "name": "b8f9e4fc816fa199a44888afd7d5f4f8", "is_reserved": 0}, {"is_disabled": 0, "fusion_lon": 0.0, "fusion_lat": 0.0, "lat": 38.877572666666666, "type": "electric_bike", "lon": -76.97993483333333, "bike_id": "4827aa56b750e8c67f916818ee8ccca9", "rental_uris": {"android": "https://dc.lft.to/lastmile_qr_scan", "ios": "https://dc.lft.to/lastmile_qr_scan"}, "name": "4827aa56b750e8c67f916818ee8ccca9", "is_reserved": 0}, {"is_disabled": 0, "fusion_lon": 0.0, "fusion_lat": 0.0, "lat": 38.925749, "type": "electric_scooter", "lon": -77.08055766666666, "bike_id": "01f0d3daffdece38f390b4c9e7a161cf", "rental_uris": {"android": "https://dc.lft.to/lastmile_qr_scan", "ios": "https://dc.lft.to/lastmile_qr_scan"}, "name": "01f0d3daffdece38f390b4c9e7a161cf", "is_reserved": 0}, {"is_disabled": 0, "fusion_lon": 0.0, "fusion_lat": 0.0, "lat": 38.92284566666667, "type": "electric_scooter", "lon": -77.0447135, "bike_id": "f905de391c95dae665842d5c83e3081e", "rental_uris": {"android": "https://dc.lft.to/lastmile_qr_scan", "ios": "https://dc.lft.to/lastmile_qr_scan"}, "name": "f905de391c95dae665842d5c83e3081e", "is_reserved": 0}, {"is_disabled": 0, "fusion_lon": 0.0, "fusion_lat": 0.0, "lat": 38.924653, "type": "electric_scooter", "lon": -77.07865, "bike_id": "02e3eca267c5d1834161ca3627da20a9", "rental_uris": {"android": "https://dc.lft.to/lastmile_qr_scan", "ios": "https://dc.lft.to/lastmile_qr_scan"}, "name": "02e3eca267c5d1834161ca3627da20a9", "is_reserved": 0}, {"is_disabled": 0, "fusion_lon": 0.0, "fusion_lat": 0.0, "lat": 38.90568, "type": "electric_scooter", "lon": -77.05590833333333, "bike_id": "31fecffe8a365a694d03adc1b2f88687", "rental_uris": {"android": "https://dc.lft.to/lastmile_qr_scan", "ios": "https://dc.lft.to/lastmile_qr_scan"}, "name": "31fecffe8a365a694d03adc1b2f88687", "is_reserved": 0}, {"is_disabled": 0, "fusion_lon": 0.0, "fusion_lat": 0.0, "lat": 38.90278766666667, "type": "electric_scooter", "lon": -77.048694, "bike_id": "d0bd35a76d6ff102bdb12cac3a878086", "rental_uris": {"android": "https://dc.lft.to/lastmile_qr_scan", "ios": "https://dc.lft.to/lastmile_qr_scan"}, "name": "d0bd35a76d6ff102bdb12cac3a878086", "is_reserved": 0}, {"is_disabled": 0, "fusion_lon": 0.0, "fusion_lat": 0.0, "lat": 38.85318483333333, "type": "electric_bike", "lon": -77.05333233333333, "bike_id": "2f42fe89c9be4cdb096e07fd43fbc331", "rental_uris": {"android": "https://dc.lft.to/lastmile_qr_scan", "ios": "https://dc.lft.to/lastmile_qr_scan"}, "name": "2f42fe89c9be4cdb096e07fd43fbc331", "is_reserved": 0}, {"is_disabled": 0, "fusion_lon": 0.0, "fusion_lat": 0.0, "lat": 38.914679, "type": "electric_scooter", "lon": -76.98448166666667, "bike_id": "6f0035a243cb3bc083dedc88f4d5f3dd", "rental_uris": {"android": "https://dc.lft.to/lastmile_qr_scan", "ios": "https://dc.lft.to/lastmile_qr_scan"}, "name": "6f0035a243cb3bc083dedc88f4d5f3dd", "is_reserved": 0}, {"is_disabled": 0, "fusion_lon": 0.0, "fusion_lat": 0.0, "lat": 38.94066516666667, "type": "electric_scooter", "lon": -77.02879066666667, "bike_id": "54e026d7e95fd5ca26c03f613baa10b3", "rental_uris": {"android": "https://dc.lft.to/lastmile_qr_scan", "ios": "https://dc.lft.to/lastmile_qr_scan"}, "name": "54e026d7e95fd5ca26c03f613baa10b3", "is_reserved": 0}, {"is_disabled": 0, "fusion_lon": 0.0, "fusion_lat": 0.0, "lat": 38.89528766666667, "type": "electric_scooter", "lon": -77.048653, "bike_id": "d6fa820f77a22968e04cbbfc7b1f1d31", "rental_uris": {"android": "https://dc.lft.to/lastmile_qr_scan", "ios": "https://dc.lft.to/lastmile_qr_scan"}, "name": "d6fa820f77a22968e04cbbfc7b1f1d31", "is_reserved": 0}, {"is_disabled": 0, "fusion_lon": 0.0, "fusion_lat": 0.0, "lat": 38.939591166666666, "type": "electric_bike", "lon": -77.36089333333334, "bike_id": "020776cd74eb6a3fd32af125976a8fff", "rental_uris": {"android": "https://dc.lft.to/lastmile_qr_scan", "ios": "https://dc.lft.to/lastmile_qr_scan"}, "name": "020776cd74eb6a3fd32af125976a8fff", "is_reserved": 0}, {"is_disabled": 0, "fusion_lon": 0.0, "fusion_lat": 0.0, "lat": 38.918516, "type": "electric_scooter", "lon": -77.03192716666666, "bike_id": "10596edfb0f6a150cadcfec5c63e239d", "rental_uris": {"android": "https://dc.lft.to/lastmile_qr_scan", "ios": "https://dc.lft.to/lastmile_qr_scan"}, "name": "10596edfb0f6a150cadcfec5c63e239d", "is_reserved": 0}, {"is_disabled": 0, "fusion_lon": 0.0, "fusion_lat": 0.0, "lat": 38.911998833333335, "type": "electric_scooter", "lon": -76.98479016666667, "bike_id": "fa49ca7708f817e6d6172cbd1a561a87", "rental_uris": {"android": "https://dc.lft.to/lastmile_qr_scan", "ios": "https://dc.lft.to/lastmile_qr_scan"}, "name": "fa49ca7708f817e6d6172cbd1a561a87", "is_reserved": 0}, {"is_disabled": 0, "fusion_lon": 0.0, "fusion_lat": 0.0, "lat": 38.88753233333333, "type": "electric_scooter", "lon": -77.00229216666666, "bike_id": "edfb14ecbdd4a34b02ed3929c7e7fbda", "rental_uris": {"android": "https://dc.lft.to/lastmile_qr_scan", "ios": "https://dc.lft.to/lastmile_qr_scan"}, "name": "edfb14ecbdd4a34b02ed3929c7e7fbda", "is_reserved": 0}, {"is_disabled": 0, "fusion_lon": 0.0, "fusion_lat": 0.0, "lat": 38.87636, "type": "electric_scooter", "lon": -76.9976355, "bike_id": "dcf01308eeb1ccc25b4c6eb3913c040f", "rental_uris": {"android": "https://dc.lft.to/lastmile_qr_scan", "ios": "https://dc.lft.to/lastmile_qr_scan"}, "name": "dcf01308eeb1ccc25b4c6eb3913c040f", "is_reserved": 0}, {"is_disabled": 0, "fusion_lon": 0.0, "fusion_lat": 0.0, "lat": 38.9017, "type": "electric_scooter", "lon": -77.05001733333333, "bike_id": "1c8f5400bcf39da03d8429de8198f069", "rental_uris": {"android": "https://dc.lft.to/lastmile_qr_scan", "ios": "https://dc.lft.to/lastmile_qr_scan"}, "name": "1c8f5400bcf39da03d8429de8198f069", "is_reserved": 0}, {"is_disabled": 0, "fusion_lon": 0.0, "fusion_lat": 0.0, "lat": 38.8999575, "type": "electric_scooter", "lon": -76.9916525, "bike_id": "4ca005b02aa32b4ad5665e6e6b0a6fb6", "rental_uris": {"android": "https://dc.lft.to/lastmile_qr_scan", "ios": "https://dc.lft.to/lastmile_qr_scan"}, "name": "4ca005b02aa32b4ad5665e6e6b0a6fb6", "is_reserved": 0}, {"is_disabled": 0, "fusion_lon": 0.0, "fusion_lat": 0.0, "lat": 38.90201616666667, "type": "electric_scooter", "lon": -77.03961883333334, "bike_id": "9010396b4b46fe6df39689e17f0b1849", "rental_uris": {"android": "https://dc.lft.to/lastmile_qr_scan", "ios": "https://dc.lft.to/lastmile_qr_scan"}, "name": "9010396b4b46fe6df39689e17f0b1849", "is_reserved": 0}, {"is_disabled": 0, "fusion_lon": 0.0, "fusion_lat": 0.0, "lat": 38.90179366666667, "type": "electric_scooter", "lon": -76.9939015, "bike_id": "08ce99e921ccd7b9e2b13672249342a2", "rental_uris": {"android": "https://dc.lft.to/lastmile_qr_scan", "ios": "https://dc.lft.to/lastmile_qr_scan"}, "name": "08ce99e921ccd7b9e2b13672249342a2", "is_reserved": 0}, {"is_disabled": 0, "fusion_lon": 0.0, "fusion_lat": 0.0, "lat": 38.902659166666666, "type": "electric_scooter", "lon": -77.0032855, "bike_id": "8afb5eb6acfd91f92bc639aeb3fa780c", "rental_uris": {"android": "https://dc.lft.to/lastmile_qr_scan", "ios": "https://dc.lft.to/lastmile_qr_scan"}, "name": "8afb5eb6acfd91f92bc639aeb3fa780c", "is_reserved": 0}, {"is_disabled": 0, "fusion_lon": 0.0, "fusion_lat": 0.0, "lat": 38.91733266666667, "type": "electric_scooter", "lon": -76.99181316666666, "bike_id": "2bb4364d2722a7363ee136e30a4f9e80", "rental_uris": {"android": "https://dc.lft.to/lastmile_qr_scan", "ios": "https://dc.lft.to/lastmile_qr_scan"}, "name": "2bb4364d2722a7363ee136e30a4f9e80", "is_reserved": 0}, {"is_disabled": 0, "fusion_lon": 0.0, "fusion_lat": 0.0, "lat": 38.948449, "type": "electric_bike", "lon": -76.97228466666667, "bike_id": "f4559891ae1072caf9405924103c1b6f", "rental_uris": {"android": "https://dc.lft.to/lastmile_qr_scan", "ios": "https://dc.lft.to/lastmile_qr_scan"}, "name": "f4559891ae1072caf9405924103c1b6f", "is_reserved": 0}, {"is_disabled": 0, "fusion_lon": 0.0, "fusion_lat": 0.0, "lat": 38.9706485, "type": "electric_bike", "lon": -76.9604845, "bike_id": "8994a64645b08cca3b434598b9902f95", "rental_uris": {"android": "https://dc.lft.to/lastmile_qr_scan", "ios": "https://dc.lft.to/lastmile_qr_scan"}, "name": "8994a64645b08cca3b434598b9902f95", "is_reserved": 0}, {"is_disabled": 0, "fusion_lon": 0.0, "fusion_lat": 0.0, "lat": 38.943312166666665, "type": "electric_bike", "lon": -77.01481366666667, "bike_id": "5ff548f4deacdaef319b8290e99e82f8", "rental_uris": {"android": "https://dc.lft.to/lastmile_qr_scan", "ios": "https://dc.lft.to/lastmile_qr_scan"}, "name": "5ff548f4deacdaef319b8290e99e82f8", "is_reserved": 0}, {"is_disabled": 0, "fusion_lon": 0.0, "fusion_lat": 0.0, "lat": 38.914190833333336, "type": "electric_scooter", "lon": -77.02973216666666, "bike_id": "adb8e809029cf1508fdeef6412484ab6", "rental_uris": {"android": "https://dc.lft.to/lastmile_qr_scan", "ios": "https://dc.lft.to/lastmile_qr_scan"}, "name": "adb8e809029cf1508fdeef6412484ab6", "is_reserved": 0}, {"is_disabled": 0, "fusion_lon": 0.0, "fusion_lat": 0.0, "lat": 38.91122416666666, "type": "electric_scooter", "lon": -77.04212683333333, "bike_id": "7237469ab373d432cc6a061e1c4d00ce", "rental_uris": {"android": "https://dc.lft.to/lastmile_qr_scan", "ios": "https://dc.lft.to/lastmile_qr_scan"}, "name": "7237469ab373d432cc6a061e1c4d00ce", "is_reserved": 0}, {"is_disabled": 0, "fusion_lon": 0.0, "fusion_lat": 0.0, "lat": 38.9178005, "type": "electric_scooter", "lon": -77.04152116666667, "bike_id": "3fc79a0ab6b79554b19bc1c249213060", "rental_uris": {"android": "https://dc.lft.to/lastmile_qr_scan", "ios": "https://dc.lft.to/lastmile_qr_scan"}, "name": "3fc79a0ab6b79554b19bc1c249213060", "is_reserved": 0}, {"is_disabled": 0, "fusion_lon": 0.0, "fusion_lat": 0.0, "lat": 38.899974, "type": "electric_scooter", "lon": -77.03352816666667, "bike_id": "610a345e6bdd23415b35f1ff8115a464", "rental_uris": {"android": "https://dc.lft.to/lastmile_qr_scan", "ios": "https://dc.lft.to/lastmile_qr_scan"}, "name": "610a345e6bdd23415b35f1ff8115a464", "is_reserved": 0}, {"is_disabled": 0, "fusion_lon": 0.0, "fusion_lat": 0.0, "lat": 38.921190333333335, "type": "electric_scooter", "lon": -77.04458216666667, "bike_id": "013c0a8320672dc23e0673c3d492d564", "rental_uris": {"android": "https://dc.lft.to/lastmile_qr_scan", "ios": "https://dc.lft.to/lastmile_qr_scan"}, "name": "013c0a8320672dc23e0673c3d492d564", "is_reserved": 0}, {"is_disabled": 0, "fusion_lon": 0.0, "fusion_lat": 0.0, "lat": 38.92127333333333, "type": "electric_scooter", "lon": -77.04388716666666, "bike_id": "ff8abdbe3c2139b5c078c441e3bf0833", "rental_uris": {"android": "https://dc.lft.to/lastmile_qr_scan", "ios": "https://dc.lft.to/lastmile_qr_scan"}, "name": "ff8abdbe3c2139b5c078c441e3bf0833", "is_reserved": 0}, {"is_disabled": 0, "fusion_lon": 0.0, "fusion_lat": 0.0, "lat": 38.89229566666667, "type": "electric_scooter", "lon": -77.04364083333333, "bike_id": "ec712015b9d2b5c89adfb65384eeb74c", "rental_uris": {"android": "https://dc.lft.to/lastmile_qr_scan", "ios": "https://dc.lft.to/lastmile_qr_scan"}, "name": "ec712015b9d2b5c89adfb65384eeb74c", "is_reserved": 0}, {"is_disabled": 0, "fusion_lon": 0.0, "fusion_lat": 0.0, "lat": 38.8528135, "type": "electric_bike", "lon": -76.98153866666667, "bike_id": "05c45ba7106b2a5697bafbc200ddb4e8", "rental_uris": {"android": "https://dc.lft.to/lastmile_qr_scan", "ios": "https://dc.lft.to/lastmile_qr_scan"}, "name": "05c45ba7106b2a5697bafbc200ddb4e8", "is_reserved": 0}, {"is_disabled": 0, "fusion_lon": 0.0, "fusion_lat": 0.0, "lat": 38.8578065, "type": "electric_bike", "lon": -76.98766966666666, "bike_id": "451ae7da0d48db3a044fe0d55f4029b5", "rental_uris": {"android": "https://dc.lft.to/lastmile_qr_scan", "ios": "https://dc.lft.to/lastmile_qr_scan"}, "name": "451ae7da0d48db3a044fe0d55f4029b5", "is_reserved": 0}, {"is_disabled": 0, "fusion_lon": 0.0, "fusion_lat": 0.0, "lat": 38.90471383333333, "type": "electric_bike", "lon": -76.9294855, "bike_id": "79677fd6f5f69c1670adffe0d0632461", "rental_uris": {"android": "https://dc.lft.to/lastmile_qr_scan", "ios": "https://dc.lft.to/lastmile_qr_scan"}, "name": "79677fd6f5f69c1670adffe0d0632461", "is_reserved": 0}, {"is_disabled": 0, "fusion_lon": 0.0, "fusion_lat": 0.0, "lat": 38.90579316666667, "type": "electric_scooter", "lon": -77.05590633333334, "bike_id": "8894755d713b6837c26a8f9f029be50b", "rental_uris": {"android": "https://dc.lft.to/lastmile_qr_scan", "ios": "https://dc.lft.to/lastmile_qr_scan"}, "name": "8894755d713b6837c26a8f9f029be50b", "is_reserved": 0}, {"is_disabled": 0, "fusion_lon": 0.0, "fusion_lat": 0.0, "lat": 38.90439166666667, "type": "electric_scooter", "lon": -77.024185, "bike_id": "d546c9b0645f40a158cd70e922cd4094", "rental_uris": {"android": "https://dc.lft.to/lastmile_qr_scan", "ios": "https://dc.lft.to/lastmile_qr_scan"}, "name": "d546c9b0645f40a158cd70e922cd4094", "is_reserved": 0}, {"is_disabled": 0, "fusion_lon": 0.0, "fusion_lat": 0.0, "lat": 38.90607816666667, "type": "electric_scooter", "lon": -77.0572375, "bike_id": "ae458abfd2a355be98c38abcdf516c90", "rental_uris": {"android": "https://dc.lft.to/lastmile_qr_scan", "ios": "https://dc.lft.to/lastmile_qr_scan"}, "name": "ae458abfd2a355be98c38abcdf516c90", "is_reserved": 0}, {"is_disabled": 0, "fusion_lon": 0.0, "fusion_lat": 0.0, "lat": 38.921735, "type": "electric_scooter", "lon": -77.0553265, "bike_id": "3cfe086f5cb8324e682759993010a380", "rental_uris": {"android": "https://dc.lft.to/lastmile_qr_scan", "ios": "https://dc.lft.to/lastmile_qr_scan"}, "name": "3cfe086f5cb8324e682759993010a380", "is_reserved": 0}, {"is_disabled": 0, "fusion_lon": 0.0, "fusion_lat": 0.0, "lat": 38.919653833333335, "type": "electric_scooter", "lon": -77.02711383333333, "bike_id": "705a8e9a36c7efabc677dfb3c620d3b6", "rental_uris": {"android": "https://dc.lft.to/lastmile_qr_scan", "ios": "https://dc.lft.to/lastmile_qr_scan"}, "name": "705a8e9a36c7efabc677dfb3c620d3b6", "is_reserved": 0}, {"is_disabled": 0, "fusion_lon": 0.0, "fusion_lat": 0.0, "lat": 38.9239235, "type": "electric_scooter", "lon": -77.0296515, "bike_id": "48a5d55420d38b3b53fc25864c1e98ec", "rental_uris": {"android": "https://dc.lft.to/lastmile_qr_scan", "ios": "https://dc.lft.to/lastmile_qr_scan"}, "name": "48a5d55420d38b3b53fc25864c1e98ec", "is_reserved": 0}, {"is_disabled": 0, "fusion_lon": 0.0, "fusion_lat": 0.0, "lat": 38.90070016666667, "type": "electric_scooter", "lon": -77.04929516666667, "bike_id": "1c4e8eb742ebe566e2d3d54b8df9aec1", "rental_uris": {"android": "https://dc.lft.to/lastmile_qr_scan", "ios": "https://dc.lft.to/lastmile_qr_scan"}, "name": "1c4e8eb742ebe566e2d3d54b8df9aec1", "is_reserved": 0}, {"is_disabled": 0, "fusion_lon": 0.0, "fusion_lat": 0.0, "lat": 38.92227183333333, "type": "electric_scooter", "lon": -76.97530716666667, "bike_id": "985e6a6aaf161915e2fc5ddfbb3532ed", "rental_uris": {"android": "https://dc.lft.to/lastmile_qr_scan", "ios": "https://dc.lft.to/lastmile_qr_scan"}, "name": "985e6a6aaf161915e2fc5ddfbb3532ed", "is_reserved": 0}, {"is_disabled": 0, "fusion_lon": 0.0, "fusion_lat": 0.0, "lat": 38.91080766666666, "type": "electric_scooter", "lon": -77.015078, "bike_id": "c1a66c3e0dc0eb965a2be31dac4010e6", "rental_uris": {"android": "https://dc.lft.to/lastmile_qr_scan", "ios": "https://dc.lft.to/lastmile_qr_scan"}, "name": "c1a66c3e0dc0eb965a2be31dac4010e6", "is_reserved": 0}, {"is_disabled": 0, "fusion_lon": 0.0, "fusion_lat": 0.0, "lat": 38.924596333333334, "type": "electric_scooter", "lon": -77.02160966666666, "bike_id": "40e5b15cffe9facfbc7305f1b25bdcea", "rental_uris": {"android": "https://dc.lft.to/lastmile_qr_scan", "ios": "https://dc.lft.to/lastmile_qr_scan"}, "name": "40e5b15cffe9facfbc7305f1b25bdcea", "is_reserved": 0}, {"is_disabled": 0, "fusion_lon": 0.0, "fusion_lat": 0.0, "lat": 38.91220916666666, "type": "electric_scooter", "lon": -76.98464799999999, "bike_id": "c93f2d7e55697536f7983565412ca945", "rental_uris": {"android": "https://dc.lft.to/lastmile_qr_scan", "ios": "https://dc.lft.to/lastmile_qr_scan"}, "name": "c93f2d7e55697536f7983565412ca945", "is_reserved": 0}, {"is_disabled": 0, "fusion_lon": 0.0, "fusion_lat": 0.0, "lat": 38.90513966666666, "type": "electric_scooter", "lon": -77.029725, "bike_id": "aae3d6be204871cb1f62674faed1b8db", "rental_uris": {"android": "https://dc.lft.to/lastmile_qr_scan", "ios": "https://dc.lft.to/lastmile_qr_scan"}, "name": "aae3d6be204871cb1f62674faed1b8db", "is_reserved": 0}, {"is_disabled": 0, "fusion_lon": 0.0, "fusion_lat": 0.0, "lat": 38.903842166666664, "type": "electric_scooter", "lon": -77.03227616666666, "bike_id": "045af21c77af696860f0e931de80e7c2", "rental_uris": {"android": "https://dc.lft.to/lastmile_qr_scan", "ios": "https://dc.lft.to/lastmile_qr_scan"}, "name": "045af21c77af696860f0e931de80e7c2", "is_reserved": 0}, {"is_disabled": 0, "fusion_lon": 0.0, "fusion_lat": 0.0, "lat": 38.947044166666664, "type": "electric_scooter", "lon": -77.01948133333333, "bike_id": "d91c8ef2344109dc3a32053694c21540", "rental_uris": {"android": "https://dc.lft.to/lastmile_qr_scan", "ios": "https://dc.lft.to/lastmile_qr_scan"}, "name": "d91c8ef2344109dc3a32053694c21540", "is_reserved": 0}, {"is_disabled": 0, "fusion_lon": 0.0, "fusion_lat": 0.0, "lat": 38.8847025, "type": "electric_scooter", "lon": -76.95224116666667, "bike_id": "f0fdb4ea9eec50b48d9bef725fa07be5", "rental_uris": {"android": "https://dc.lft.to/lastmile_qr_scan", "ios": "https://dc.lft.to/lastmile_qr_scan"}, "name": "f0fdb4ea9eec50b48d9bef725fa07be5", "is_reserved": 0}, {"is_disabled": 0, "fusion_lon": 0.0, "fusion_lat": 0.0, "lat": 38.926701, "type": "electric_scooter", "lon": -77.10310116666666, "bike_id": "c9d483108188a4db2ca65eaafc8bc7f7", "rental_uris": {"android": "https://dc.lft.to/lastmile_qr_scan", "ios": "https://dc.lft.to/lastmile_qr_scan"}, "name": "c9d483108188a4db2ca65eaafc8bc7f7", "is_reserved": 0}, {"is_disabled": 0, "fusion_lon": 0.0, "fusion_lat": 0.0, "lat": 38.89848816666667, "type": "electric_scooter", "lon": -77.00742683333333, "bike_id": "0b7aede99be66dc442777438a08ab724", "rental_uris": {"android": "https://dc.lft.to/lastmile_qr_scan", "ios": "https://dc.lft.to/lastmile_qr_scan"}, "name": "0b7aede99be66dc442777438a08ab724", "is_reserved": 0}, {"is_disabled": 0, "fusion_lon": 0.0, "fusion_lat": 0.0, "lat": 38.914153, "type": "electric_scooter", "lon": -77.035809, "bike_id": "ee18763f48a7a9b31de9cfbc0bcbea2f", "rental_uris": {"android": "https://dc.lft.to/lastmile_qr_scan", "ios": "https://dc.lft.to/lastmile_qr_scan"}, "name": "ee18763f48a7a9b31de9cfbc0bcbea2f", "is_reserved": 0}, {"is_disabled": 0, "fusion_lon": 0.0, "fusion_lat": 0.0, "lat": 38.863625, "type": "electric_scooter", "lon": -76.99065416666667, "bike_id": "435221692cc7972e53cfdb833c70f7cb", "rental_uris": {"android": "https://dc.lft.to/lastmile_qr_scan", "ios": "https://dc.lft.to/lastmile_qr_scan"}, "name": "435221692cc7972e53cfdb833c70f7cb", "is_reserved": 0}, {"is_disabled": 0, "fusion_lon": 0.0, "fusion_lat": 0.0, "lat": 38.89924516666667, "type": "electric_scooter", "lon": -77.03907733333334, "bike_id": "31ed6c5555e7677ab4a34e64e36f360c", "rental_uris": {"android": "https://dc.lft.to/lastmile_qr_scan", "ios": "https://dc.lft.to/lastmile_qr_scan"}, "name": "31ed6c5555e7677ab4a34e64e36f360c", "is_reserved": 0}, {"is_disabled": 0, "fusion_lon": 0.0, "fusion_lat": 0.0, "lat": 38.9058135, "type": "electric_scooter", "lon": -77.05121516666667, "bike_id": "8570c0027a9dc724c6139a8734d3948c", "rental_uris": {"android": "https://dc.lft.to/lastmile_qr_scan", "ios": "https://dc.lft.to/lastmile_qr_scan"}, "name": "8570c0027a9dc724c6139a8734d3948c", "is_reserved": 0}, {"is_disabled": 0, "fusion_lon": 0.0, "fusion_lat": 0.0, "lat": 38.981426666666664, "type": "electric_bike", "lon": -77.00771516666667, "bike_id": "357192585fea6f911b76680bd7237715", "rental_uris": {"android": "https://dc.lft.to/lastmile_qr_scan", "ios": "https://dc.lft.to/lastmile_qr_scan"}, "name": "357192585fea6f911b76680bd7237715", "is_reserved": 0}, {"is_disabled": 0, "fusion_lon": 0.0, "fusion_lat": 0.0, "lat": 38.926364166666666, "type": "electric_bike", "lon": -77.03336683333333, "bike_id": "82306fcd19b870cd01779b77e5967a3b", "rental_uris": {"android": "https://dc.lft.to/lastmile_qr_scan", "ios": "https://dc.lft.to/lastmile_qr_scan"}, "name": "82306fcd19b870cd01779b77e5967a3b", "is_reserved": 0}, {"is_disabled": 0, "fusion_lon": 0.0, "fusion_lat": 0.0, "lat": 38.935441833333336, "type": "electric_scooter", "lon": -77.058107, "bike_id": "abd3f29501e302fde9bb19bfdb224e7b", "rental_uris": {"android": "https://dc.lft.to/lastmile_qr_scan", "ios": "https://dc.lft.to/lastmile_qr_scan"}, "name": "abd3f29501e302fde9bb19bfdb224e7b", "is_reserved": 0}, {"is_disabled": 0, "fusion_lon": 0.0, "fusion_lat": 0.0, "lat": 38.877747166666666, "type": "electric_scooter", "lon": -77.01435116666667, "bike_id": "54c8ed2ec7bb38f31c07f5ae6c7fc52c", "rental_uris": {"android": "https://dc.lft.to/lastmile_qr_scan", "ios": "https://dc.lft.to/lastmile_qr_scan"}, "name": "54c8ed2ec7bb38f31c07f5ae6c7fc52c", "is_reserved": 0}, {"is_disabled": 0, "fusion_lon": 0.0, "fusion_lat": 0.0, "lat": 38.8489025, "type": "electric_scooter", "lon": -77.00529516666667, "bike_id": "35d7e38b6cf645a98cd537aaf99725f1", "rental_uris": {"android": "https://dc.lft.to/lastmile_qr_scan", "ios": "https://dc.lft.to/lastmile_qr_scan"}, "name": "35d7e38b6cf645a98cd537aaf99725f1", "is_reserved": 0}, {"is_disabled": 0, "fusion_lon": 0.0, "fusion_lat": 0.0, "lat": 38.9134275, "type": "electric_scooter", "lon": -77.0419155, "bike_id": "fd75fceb4dbd29acb4231101763f4909", "rental_uris": {"android": "https://dc.lft.to/lastmile_qr_scan", "ios": "https://dc.lft.to/lastmile_qr_scan"}, "name": "fd75fceb4dbd29acb4231101763f4909", "is_reserved": 0}, {"is_disabled": 0, "fusion_lon": 0.0, "fusion_lat": 0.0, "lat": 38.94194066666667, "type": "electric_scooter", "lon": -77.04255883333333, "bike_id": "5e461cfa58321843500055327b717da3", "rental_uris": {"android": "https://dc.lft.to/lastmile_qr_scan", "ios": "https://dc.lft.to/lastmile_qr_scan"}, "name": "5e461cfa58321843500055327b717da3", "is_reserved": 0}, {"is_disabled": 0, "fusion_lon": 0.0, "fusion_lat": 0.0, "lat": 38.89554233333333, "type": "electric_scooter", "lon": -76.94877933333333, "bike_id": "662dbf5ceb76f0ffa204559217276146", "rental_uris": {"android": "https://dc.lft.to/lastmile_qr_scan", "ios": "https://dc.lft.to/lastmile_qr_scan"}, "name": "662dbf5ceb76f0ffa204559217276146", "is_reserved": 0}, {"is_disabled": 0, "fusion_lon": 0.0, "fusion_lat": 0.0, "lat": 38.90170833333333, "type": "electric_scooter", "lon": -77.05007433333333, "bike_id": "7db42777e259ad39dcf50d8241c04ad3", "rental_uris": {"android": "https://dc.lft.to/lastmile_qr_scan", "ios": "https://dc.lft.to/lastmile_qr_scan"}, "name": "7db42777e259ad39dcf50d8241c04ad3", "is_reserved": 0}, {"is_disabled": 0, "fusion_lon": 0.0, "fusion_lat": 0.0, "lat": 38.904288, "type": "electric_scooter", "lon": -77.05152833333334, "bike_id": "f81cd16d5a73c5020dd6d0ab080d4f56", "rental_uris": {"android": "https://dc.lft.to/lastmile_qr_scan", "ios": "https://dc.lft.to/lastmile_qr_scan"}, "name": "f81cd16d5a73c5020dd6d0ab080d4f56", "is_reserved": 0}, {"is_disabled": 0, "fusion_lon": 0.0, "fusion_lat": 0.0, "lat": 38.89338766666667, "type": "electric_scooter", "lon": -77.02118683333333, "bike_id": "19d2ae4f2d5a0809615af2a8683ee075", "rental_uris": {"android": "https://dc.lft.to/lastmile_qr_scan", "ios": "https://dc.lft.to/lastmile_qr_scan"}, "name": "19d2ae4f2d5a0809615af2a8683ee075", "is_reserved": 0}, {"is_disabled": 0, "fusion_lon": 0.0, "fusion_lat": 0.0, "lat": 38.93179383333333, "type": "electric_scooter", "lon": -77.04153383333333, "bike_id": "c5fcd0514212e683f8a85e2372b97aa2", "rental_uris": {"android": "https://dc.lft.to/lastmile_qr_scan", "ios": "https://dc.lft.to/lastmile_qr_scan"}, "name": "c5fcd0514212e683f8a85e2372b97aa2", "is_reserved": 0}, {"is_disabled": 0, "fusion_lon": 0.0, "fusion_lat": 0.0, "lat": 38.90868483333333, "type": "electric_scooter", "lon": -77.03011133333334, "bike_id": "9b9c5ce601cf7d600a5744cb6ee31ccf", "rental_uris": {"android": "https://dc.lft.to/lastmile_qr_scan", "ios": "https://dc.lft.to/lastmile_qr_scan"}, "name": "9b9c5ce601cf7d600a5744cb6ee31ccf", "is_reserved": 0}, {"is_disabled": 0, "fusion_lon": 0.0, "fusion_lat": 0.0, "lat": 38.8996475, "type": "electric_scooter", "lon": -77.01612916666667, "bike_id": "5954b072bfec9a3beaf9fc64c2f12105", "rental_uris": {"android": "https://dc.lft.to/lastmile_qr_scan", "ios": "https://dc.lft.to/lastmile_qr_scan"}, "name": "5954b072bfec9a3beaf9fc64c2f12105", "is_reserved": 0}, {"is_disabled": 0, "fusion_lon": 0.0, "fusion_lat": 0.0, "lat": 38.898451, "type": "electric_scooter", "lon": -76.9449665, "bike_id": "bb07825168269a14d1eb09b58e2ee2e4", "rental_uris": {"android": "https://dc.lft.to/lastmile_qr_scan", "ios": "https://dc.lft.to/lastmile_qr_scan"}, "name": "bb07825168269a14d1eb09b58e2ee2e4", "is_reserved": 0}, {"is_disabled": 0, "fusion_lon": 0.0, "fusion_lat": 0.0, "lat": 38.88878116666667, "type": "electric_bike", "lon": -77.028584, "bike_id": "14b44eea642314d992395b3345d3cb82", "rental_uris": {"android": "https://dc.lft.to/lastmile_qr_scan", "ios": "https://dc.lft.to/lastmile_qr_scan"}, "name": "14b44eea642314d992395b3345d3cb82", "is_reserved": 0}, {"is_disabled": 0, "fusion_lon": 0.0, "fusion_lat": 0.0, "lat": 39.02298166666667, "type": "electric_bike", "lon": -77.021046, "bike_id": "2d9d30835968350963777497bf003dbc", "rental_uris": {"android": "https://dc.lft.to/lastmile_qr_scan", "ios": "https://dc.lft.to/lastmile_qr_scan"}, "name": "2d9d30835968350963777497bf003dbc", "is_reserved": 0}, {"is_disabled": 0, "fusion_lon": 0.0, "fusion_lat": 0.0, "lat": 38.865230833333335, "type": "electric_scooter", "lon": -76.98972583333334, "bike_id": "8f70c350a8a981b86a702da1f66d0374", "rental_uris": {"android": "https://dc.lft.to/lastmile_qr_scan", "ios": "https://dc.lft.to/lastmile_qr_scan"}, "name": "8f70c350a8a981b86a702da1f66d0374", "is_reserved": 0}, {"is_disabled": 0, "fusion_lon": 0.0, "fusion_lat": 0.0, "lat": 38.89222316666667, "type": "electric_scooter", "lon": -77.03338616666667, "bike_id": "e181b26b0b92d0ab0b84f373697cb3eb", "rental_uris": {"android": "https://dc.lft.to/lastmile_qr_scan", "ios": "https://dc.lft.to/lastmile_qr_scan"}, "name": "e181b26b0b92d0ab0b84f373697cb3eb", "is_reserved": 0}, {"is_disabled": 0, "fusion_lon": 0.0, "fusion_lat": 0.0, "lat": 38.858374833333336, "type": "electric_bike", "lon": -76.9928335, "bike_id": "3d40f85250542ba2a4cf000ebddbdd08", "rental_uris": {"android": "https://dc.lft.to/lastmile_qr_scan", "ios": "https://dc.lft.to/lastmile_qr_scan"}, "name": "3d40f85250542ba2a4cf000ebddbdd08", "is_reserved": 0}, {"is_disabled": 0, "fusion_lon": 0.0, "fusion_lat": 0.0, "lat": 38.9375835, "type": "electric_scooter", "lon": -77.030814, "bike_id": "9e68c19d8960e4efb420c13f3bb035cc", "rental_uris": {"android": "https://dc.lft.to/lastmile_qr_scan", "ios": "https://dc.lft.to/lastmile_qr_scan"}, "name": "9e68c19d8960e4efb420c13f3bb035cc", "is_reserved": 0}, {"is_disabled": 0, "fusion_lon": 0.0, "fusion_lat": 0.0, "lat": 38.92997166666667, "type": "electric_scooter", "lon": -77.07812583333333, "bike_id": "458e1757363a111bebf571452e8ddefd", "rental_uris": {"android": "https://dc.lft.to/lastmile_qr_scan", "ios": "https://dc.lft.to/lastmile_qr_scan"}, "name": "458e1757363a111bebf571452e8ddefd", "is_reserved": 0},