{"data": {"bikes": [{"name": "b517d19e36834313aadf89ad5af162b1", "lon": -77.01615116666666, "lat": 38.895097166666666, "type": "electric_scooter", "fusion_lon": 0.0, "is_reserved": 0, "bike_id": "b517d19e36834313aadf89ad5af162b1", "fusion_lat": 0.0, "is_disabled": 0, "rental_uris": {"ios": "https://dc.lft.to/lastmile_qr_scan", "android": "https://dc.lft.to/lastmile_qr_scan"}}, {"name": "7e93dfa65ec25d87047534011f895c67", "lon": -77.03187283333334, "lat": 38.908152666666666, "type": "electric_scooter", "fusion_lon": 0.0, "is_reserved": 0, "bike_id": "7e93dfa65ec25d87047534011f895c67", "fusion_lat": 0.0, "is_disabled": 0, "rental_uris": {"ios": "https://dc.lft.to/lastmile_qr_scan", "android": "https://dc.lft.to/lastmile_qr_scan"}}, {"name": "89f362e9ea8261d27dcd2ae546182b40", "lon": -77.03079283333334, "lat": 38.9175375, "type": "electric_scooter", "fusion_lon": 0.0, "is_reserved": 0, "bike_id": "89f362e9ea8261d27dcd2ae546182b40", "fusion_lat": 0.0, "is_disabled": 0, "rental_uris": {"ios": "https://dc.lft.to/lastmile_qr_scan", "android": "https://dc.lft.to/lastmile_qr_scan"}}, {"name": "c985857d276cf409adb44ed114ddd92d", "lon": -77.025975, "lat": 38.901193166666665, "type": "electric_scooter", "fusion_lon": 0.0, "is_reserved": 0, "bike_id": "c985857d276cf409adb44ed114ddd92d", "fusion_lat": 0.0, "is_disabled": 0, "rental_uris": {"ios": "https://dc.lft.to/lastmile_qr_scan", "android": "https://dc.lft.to/lastmile_qr_scan"}}, {"name": "0ad55c8cae13202379b89b5c6fdadcbc", "lon": -77.02184283333334, "lat": 38.90161966666667, "type": "electric_scooter", "fusion_lon": 0.0, "is_reserved": 0, "bike_id": "0ad55c8cae13202379b89b5c6fdadcbc", "fusion_lat": 0.0, "is_disabled": 0, "rental_uris": {"ios": "https://dc.lft.to/lastmile_qr_scan", "android": "https://dc.lft.to/lastmile_qr_scan"}}, {"name": "772581ff27105b08de4ae5ca108d5c96", "lon": -77.0424885, "lat": 38.920638, "type": "electric_scooter", "fusion_lon": 0.0, "is_reserved": 0, "bike_id": "772581ff27105b08de4ae5ca108d5c96", "fusion_lat": 0.0, "is_disabled": 0, "rental_uris": {"ios": "https://dc.lft.to/lastmile_qr_scan", "android": "https://dc.lft.to/lastmile_qr_scan"}}, {"name": "8deb079b361cfa3aa7091912d5541282", "lon": -76.9766385, "lat": 38.8985625, "type": "electric_scooter", "fusion_lon": 0.0, "is_reserved": 0, "bike_id": "8deb079b361cfa3aa7091912d5541282", "fusion_lat": 0.0, "is_disabled": 0, "rental_uris": {"ios": "https://dc.lft.to/lastmile_qr_scan", "android": "https://dc.lft.to/lastmile_qr_scan"}}, {"name": "a63df68556ac30fc409673826952fa2e", "lon": -77.03944266666667, "lat": 38.915632333333335, "type": "electric_scooter", "fusion_lon": 0.0, "is_reserved": 0, "bike_id": "a63df68556ac30fc409673826952fa2e", "fusion_lat": 0.0, "is_disabled": 0, "rental_uris": {"ios": "https://dc.lft.to/lastmile_qr_scan", "android": "https://dc.lft.to/lastmile_qr_scan"}}, {"name": "9d036e1592d833ee60aed155cd183745", "lon": -77.02674383333333, "lat": 38.927823833333335, "type": "electric_scooter", "fusion_lon": 0.0, "is_reserved": 0, "bike_id": "9d036e1592d833ee60aed155cd183745", "fusion_lat": 0.0, "is_disabled": 0, "rental_uris": {"ios": "https://dc.lft.to/lastmile_qr_scan", "android": "https://dc.lft.to/lastmile_qr_scan"}}, {"name": "86e2a92163811b043f36593db8e5c5f3", "lon": -77.03413466666667, "lat": 38.92312583333333, "type": "electric_scooter", "fusion_lon": 0.0, "is_reserved": 0, "bike_id": "86e2a92163811b043f36593db8e5c5f3", "fusion_lat": 0.0, "is_disabled": 0, "rental_uris": {"ios": "https://dc.lft.to/lastmile_qr_scan", "android": "https://dc.lft.to/lastmile_qr_scan"}}, {"name": "f19f485b37451561aad8218f86ce4884", "lon": -77.02960766666666, "lat": 38.9233285, "type": "electric_scooter", "fusion_lon": 0.0, "is_reserved": 0, "bike_id": "f19f485b37451561aad8218f86ce4884", "fusion_lat": 0.0, "is_disabled": 0, "rental_uris": {"ios": "https://dc.lft.to/lastmile_qr_scan", "android": "https://dc.lft.to/lastmile_qr_scan"}}, {"name": "f987f08e30c0b82297135535d6027a91", "lon": -76.9938995, "lat": 38.8973315, "type": "electric_scooter", "fusion_lon": 0.0, "is_reserved": 0, "bike_id": "f987f08e30c0b82297135535d6027a91", "fusion_lat": 0.0, "is_disabled": 0, "rental_uris": {"ios": "https://dc.lft.to/lastmile_qr_scan", "android": "https://dc.lft.to/lastmile_qr_scan"}}, {"name": "32b4f63f57301055c7114da808bc4fa0", "lon": -76.96260233333334, "lat": 38.88246483333333, "type": "electric_bike", "fusion_lon": 0.0, "is_reserved": 0, "bike_id": "32b4f63f57301055c7114da808bc4fa0", "fusion_lat": 0.0, "is_disabled": 0, "rental_uris": {"ios": "https://dc.lft.to/lastmile_qr_scan", "android": "https://dc.lft.to/lastmile_qr_scan"}}, {"name": "9fc7d348e0186f81cbb260a748282efe", "lon": -77.10328983333333, "lat": 38.87418383333333, "type": "electric_bike", "fusion_lon": 0.0, "is_reserved": 0, "bike_id": "9fc7d348e0186f81cbb260a748282efe", "fusion_lat": 0.0, "is_disabled": 0, "rental_uris": {"ios": "https://dc.lft.to/lastmile_qr_scan", "android": "https://dc.lft.to/lastmile_qr_scan"}}, {"name": "d1c703bdb652c5361f642ec77eeef4f7", "lon": -76.99946383333334, "lat": 38.842937666666664, "type": "electric_scooter", "fusion_lon": 0.0, "is_reserved": 0, "bike_id": "d1c703bdb652c5361f642ec77eeef4f7", "fusion_lat": 0.0, "is_disabled": 0, "rental_uris": {"ios": "https://dc.lft.to/lastmile_qr_scan", "android": "https://dc.lft.to/lastmile_qr_scan"}}, {"name": "1fe37c8400b044833031ad67bcb48283", "lon": -76.90708583333333, "lat": 38.895974, "type": "electric_bike", "fusion_lon": 0.0, "is_reserved": 0, "bike_id": "1fe37c8400b044833031ad67bcb48283", "fusion_lat": 0.0, "is_disabled": 0, "rental_uris": {"ios": "https://dc.lft.to/lastmile_qr_scan", "android": "https://dc.lft.to/lastmile_qr_scan"}}, {"name": "67fa458ce1403af55a570efcc37612ad", "lon": -77.0381105, "lat": 38.90685, "type": "electric_scooter", "fusion_lon": 0.0, "is_reserved": 0, "bike_id": "67fa458ce1403af55a570efcc37612ad", "fusion_lat": 0.0, "is_disabled": 0, "rental_uris": {"ios": "https://dc.lft.to/lastmile_qr_scan", "android": "https://dc.lft.to/lastmile_qr_scan"}}, {"name": "190ab1a9699436ac826579041f7b0f6e", "lon": -77.03442416666667, "lat": 38.91722516666667, "type": "electric_scooter", "fusion_lon": 0.0, "is_reserved": 0, "bike_id": "190ab1a9699436ac826579041f7b0f6e", "fusion_lat": 0.0, "is_disabled": 0, "rental_uris": {"ios": "https://dc.lft.to/lastmile_qr_scan", "android": "https://dc.lft.to/lastmile_qr_scan"}}, {"name": "0419115ec93e0df1c5a396210a33d856", "lon": -77.00197716666666, "lat": 38.90238183333334, "type": "electric_scooter", "fusion_lon": 0.0, "is_reserved": 0, "bike_id": "0419115ec93e0df1c5a396210a33d856", "fusion_lat": 0.0, "is_disabled": 0, "rental_uris": {"ios": "https://dc.lft.to/lastmile_qr_scan", "android": "https://dc.lft.to/lastmile_qr_scan"}}, {"name": "880f0d494b22a1f8a16f5fa2f37a095d", "lon": -76.9981425, "lat": 38.844343333333335, "type": "electric_scooter", "fusion_lon": 0.0, "is_reserved": 0, "bike_id": "880f0d494b22a1f8a16f5fa2f37a095d", "fusion_lat": 0.0, "is_disabled": 0, "rental_uris": {"ios": "https://dc.lft.to/lastmile_qr_scan", "android": "https://dc.lft.to/lastmile_qr_scan"}}, {"name": "4c4bb78efc04a6f78b5fa5b1454c68c5", "lon": -77.043371, "lat": 38.907686166666664, "type": "electric_scooter", "fusion_lon": 0.0, "is_reserved": 0, "bike_id": "4c4bb78efc04a6f78b5fa5b1454c68c5", "fusion_lat": 0.0, "is_disabled": 0, "rental_uris": {"ios": "https://dc.lft.to/lastmile_qr_scan", "android": "https://dc.lft.to/lastmile_qr_scan"}}, {"name": "a3309fff5a7dfe4210967ae39c147e37", "lon": -76.99755616666667, "lat": 38.900194166666665, "type": "electric_scooter", "fusion_lon": 0.0, "is_reserved": 0, "bike_id": "a3309fff5a7dfe4210967ae39c147e37", "fusion_lat": 0.0, "is_disabled": 0, "rental_uris": {"ios": "https://dc.lft.to/lastmile_qr_scan", "android": "https://dc.lft.to/lastmile_qr_scan"}}, {"name": "a28dce498d85e54e040c7b6bf3e9ae1e", "lon": -77.01988266666666, "lat": 38.92278866666667, "type": "electric_bike", "fusion_lon": 0.0, "is_reserved": 0, "bike_id": "a28dce498d85e54e040c7b6bf3e9ae1e", "fusion_lat": 0.0, "is_disabled": 0, "rental_uris": {"ios": "https://dc.lft.to/lastmile_qr_scan", "android": "https://dc.lft.to/lastmile_qr_scan"}}, {"name": "72bad76db85cff3a0efd059f5a2ea17e", "lon": -76.99032933333334, "lat": 38.898545, "type": "electric_scooter", "fusion_lon": 0.0, "is_reserved": 0, "bike_id": "72bad76db85cff3a0efd059f5a2ea17e", "fusion_lat": 0.0, "is_disabled": 0, "rental_uris": {"ios": "https://dc.lft.to/lastmile_qr_scan", "android": "https://dc.lft.to/lastmile_qr_scan"}}, {"name": "ad7c98e89c89662a05d3b83d1fe23b7b", "lon": -76.9892285, "lat": 38.858094, "type": "electric_scooter", "fusion_lon": 0.0, "is_reserved": 0, "bike_id": "ad7c98e89c89662a05d3b83d1fe23b7b", "fusion_lat": 0.0, "is_disabled": 0, "rental_uris": {"ios": "https://dc.lft.to/lastmile_qr_scan", "android": "https://dc.lft.to/lastmile_qr_scan"}}, {"name": "bcbd07d904f3d22019d44b40456bf5e1", "lon": -77.03442483333333, "lat": 38.91802083333333, "type": "electric_scooter", "fusion_lon": 0.0, "is_reserved": 0, "bike_id": "bcbd07d904f3d22019d44b40456bf5e1", "fusion_lat": 0.0, "is_disabled": 0, "rental_uris": {"ios": "https://dc.lft.to/lastmile_qr_scan", "android": "https://dc.lft.to/lastmile_qr_scan"}}, {"name": "fee38e58c997ee8bc6a019d0c502eedf", "lon": -76.9847685, "lat": 38.910952333333334, "type": "electric_bike", "fusion_lon": 0.0, "is_reserved": 0, "bike_id": "fee38e58c997ee8bc6a019d0c502eedf", "fusion_lat": 0.0, "is_disabled": 0, "rental_uris": {"ios": "https://dc.lft.to/lastmile_qr_scan", "android": "https://dc.lft.to/lastmile_qr_scan"}}, {"name": "473d943f72258b392006b5db13233f36", "lon": -76.98844683333333, "lat": 38.90193433333334, "type": "electric_scooter", "fusion_lon": 0.0, "is_reserved": 0, "bike_id": "473d943f72258b392006b5db13233f36", "fusion_lat": 0.0, "is_disabled": 0, "rental_uris": {"ios": "https://dc.lft.to/lastmile_qr_scan", "android": "https://dc.lft.to/lastmile_qr_scan"}}, {"name": "6eb3b65af7b13aecf28847c100350c42", "lon": -77.02597266666666, "lat": 38.916924, "type": "electric_scooter", "fusion_lon": 0.0, "is_reserved": 0, "bike_id": "6eb3b65af7b13aecf28847c100350c42", "fusion_lat": 0.0, "is_disabled": 0, "rental_uris": {"ios": "https://dc.lft.to/lastmile_qr_scan", "android": "https://dc.lft.to/lastmile_qr_scan"}}, {"name": "a1e4b71792d22ed207d4832370e0489d", "lon": -77.03330783333334, "lat": 38.89835183333334, "type": "electric_scooter", "fusion_lon": 0.0, "is_reserved": 0, "bike_id": "a1e4b71792d22ed207d4832370e0489d", "fusion_lat": 0.0, "is_disabled": 0, "rental_uris": {"ios": "https://dc.lft.to/lastmile_qr_scan", "android": "https://dc.lft.to/lastmile_qr_scan"}}, {"name": "4730ff2dece48665ac2dd06b7e62afee", "lon": -77.032857, "lat": 38.920753, "type": "electric_scooter", "fusion_lon": 0.0, "is_reserved": 0, "bike_id": "4730ff2dece48665ac2dd06b7e62afee", "fusion_lat": 0.0, "is_disabled": 0, "rental_uris": {"ios": "https://dc.lft.to/lastmile_qr_scan", "android": "https://dc.lft.to/lastmile_qr_scan"}}, {"name": "d8713476391cbb83c1786c63602b2a4b", "lon": -77.02424033333334, "lat": 38.9095655, "type": "electric_scooter", "fusion_lon": 0.0, "is_reserved": 0, "bike_id": "d8713476391cbb83c1786c63602b2a4b", "fusion_lat": 0.0, "is_disabled": 0, "rental_uris": {"ios": "https://dc.lft.to/lastmile_qr_scan", "android": "https://dc.lft.to/lastmile_qr_scan"}}, {"name": "a39334a2746bdffeff77fbed405e89ad", "lon": -77.0305075, "lat": 38.913356, "type": "electric_scooter", "fusion_lon": 0.0, "is_reserved": 0, "bike_id": "a39334a2746bdffeff77fbed405e89ad", "fusion_lat": 0.0, "is_disabled": 0, "rental_uris": {"ios": "https://dc.lft.to/lastmile_qr_scan", "android": "https://dc.lft.to/lastmile_qr_scan"}}, {"name": "287899569d9f7f4ad869c8cba0295532", "lon": -76.98601233333333, "lat": 38.9062635, "type": "electric_bike", "fusion_lon": 0.0, "is_reserved": 0, "bike_id": "287899569d9f7f4ad869c8cba0295532", "fusion_lat": 0.0, "is_disabled": 0, "rental_uris": {"ios": "https://dc.lft.to/lastmile_qr_scan", "android": "https://dc.lft.to/lastmile_qr_scan"}}, {"name": "881dc00438625f24c776e0040d1a7f51", "lon": -77.03388833333334, "lat": 38.903858166666666, "type": "electric_scooter", "fusion_lon": 0.0, "is_reserved": 0, "bike_id": "881dc00438625f24c776e0040d1a7f51", "fusion_lat": 0.0, "is_disabled": 0, "rental_uris": {"ios": "https://dc.lft.to/lastmile_qr_scan", "android": "https://dc.lft.to/lastmile_qr_scan"}}, {"name": "724ad1dd376d5038e2155d79f0778555", "lon": -77.02771183333333, "lat": 38.93958766666667, "type": "electric_scooter", "fusion_lon": 0.0, "is_reserved": 0, "bike_id": "724ad1dd376d5038e2155d79f0778555", "fusion_lat": 0.0, "is_disabled": 0, "rental_uris": {"ios": "https://dc.lft.to/lastmile_qr_scan", "android": "https://dc.lft.to/lastmile_qr_scan"}}, {"name": "87a553c379545cbe4952cb94674fcf01", "lon": -76.98268933333334, "lat": 38.88530083333333, "type": "electric_scooter", "fusion_lon": 0.0, "is_reserved": 0, "bike_id": "87a553c379545cbe4952cb94674fcf01", "fusion_lat": 0.0, "is_disabled": 0, "rental_uris": {"ios": "https://dc.lft.to/lastmile_qr_scan", "android": "https://dc.lft.to/lastmile_qr_scan"}}, {"name": "b971eb981a7eaf62568983abe36c5823", "lon": -76.9983925, "lat": 38.8908615, "type": "electric_scooter", "fusion_lon": 0.0, "is_reserved": 0, "bike_id": "b971eb981a7eaf62568983abe36c5823", "fusion_lat": 0.0, "is_disabled": 0, "rental_uris": {"ios": "https://dc.lft.to/lastmile_qr_scan", "android": "https://dc.lft.to/lastmile_qr_scan"}}, {"name": "e63e5dcbe7c88bba0d2a36e1b989b606", "lon": -77.04559316666666, "lat": 38.94106766666667, "type": "electric_scooter", "fusion_lon": 0.0, "is_reserved": 0, "bike_id": "e63e5dcbe7c88bba0d2a36e1b989b606", "fusion_lat": 0.0, "is_disabled": 0, "rental_uris": {"ios": "https://dc.lft.to/lastmile_qr_scan", "android": "https://dc.lft.to/lastmile_qr_scan"}}, {"name": "e9cd6b39b212c1af628168fa70e1a5ea", "lon": -77.04623016666666, "lat": 38.919334166666665, "type": "electric_scooter", "fusion_lon": 0.0, "is_reserved": 0, "bike_id": "e9cd6b39b212c1af628168fa70e1a5ea", "fusion_lat": 0.0, "is_disabled": 0, "rental_uris": {"ios": "https://dc.lft.to/lastmile_qr_scan", "android": "https://dc.lft.to/lastmile_qr_scan"}}, {"name": "73bf760cba3a92ec0b80232b876ef22b", "lon": -77.0344625, "lat": 38.907353666666666, "type": "electric_scooter", "fusion_lon": 0.0, "is_reserved": 0, "bike_id": "73bf760cba3a92ec0b80232b876ef22b", "fusion_lat": 0.0, "is_disabled": 0, "rental_uris": {"ios": "https://dc.lft.to/lastmile_qr_scan", "android": "https://dc.lft.to/lastmile_qr_scan"}}, {"name": "57fc329c7f62b9949b54cf3443c2d215", "lon": -77.03835833333333, "lat": 38.907175333333335, "type": "electric_scooter", "fusion_lon": 0.0, "is_reserved": 0, "bike_id": "57fc329c7f62b9949b54cf3443c2d215", "fusion_lat": 0.0, "is_disabled": 0, "rental_uris": {"ios": "https://dc.lft.to/lastmile_qr_scan", "android": "https://dc.lft.to/lastmile_qr_scan"}}, {"name": "f4e359b8995db4515c38b9c6b6123bf9", "lon": -77.02332516666667, "lat": 38.92616566666667, "type": "electric_scooter", "fusion_lon": 0.0, "is_reserved": 0, "bike_id": "f4e359b8995db4515c38b9c6b6123bf9", "fusion_lat": 0.0, "is_disabled": 0, "rental_uris": {"ios": "https://dc.lft.to/lastmile_qr_scan", "android": "https://dc.lft.to/lastmile_qr_scan"}}, {"name": "04068bceebf6311ac04e391fe56240b2", "lon": -77.061017, "lat": 38.9370525, "type": "electric_scooter", "fusion_lon": 0.0, "is_reserved": 0, "bike_id": "04068bceebf6311ac04e391fe56240b2", "fusion_lat": 0.0, "is_disabled": 0, "rental_uris": {"ios": "https://dc.lft.to/lastmile_qr_scan", "android": "https://dc.lft.to/lastmile_qr_scan"}}, {"name": "48095655cf7b98bed796c75d16e3d413", "lon": -77.0244745, "lat": 38.924039, "type": "electric_scooter", "fusion_lon": 0.0, "is_reserved": 0, "bike_id": "48095655cf7b98bed796c75d16e3d413", "fusion_lat": 0.0, "is_disabled": 0, "rental_uris": {"ios": "https://dc.lft.to/lastmile_qr_scan", "android": "https://dc.lft.to/lastmile_qr_scan"}}, {"name": "736049a8c650d5cdae67ed03db55d9e9", "lon": -77.01747833333333, "lat": 38.8827205, "type": "electric_scooter", "fusion_lon": 0.0, "is_reserved": 0, "bike_id": "736049a8c650d5cdae67ed03db55d9e9", "fusion_lat": 0.0, "is_disabled": 0, "rental_uris": {"ios": "https://dc.lft.to/lastmile_qr_scan", "android": "https://dc.lft.to/lastmile_qr_scan"}}, {"name": "38a563d05dcfe5a6cb7005e9b145152c", "lon": -77.0281345, "lat": 38.96077616666667, "type": "electric_scooter", "fusion_lon": 0.0, "is_reserved": 0, "bike_id": "38a563d05dcfe5a6cb7005e9b145152c", "fusion_lat": 0.0, "is_disabled": 0, "rental_uris": {"ios": "https://dc.lft.to/lastmile_qr_scan", "android": "https://dc.lft.to/lastmile_qr_scan"}}, {"name": "85dc539ca5a67067f62cc48db7506e8e", "lon": -77.046923, "lat": 38.92157866666667, "type": "electric_scooter", "fusion_lon": 0.0, "is_reserved": 0, "bike_id": "85dc539ca5a67067f62cc48db7506e8e", "fusion_lat": 0.0, "is_disabled": 0, "rental_uris": {"ios": "https://dc.lft.to/lastmile_qr_scan", "android": "https://dc.lft.to/lastmile_qr_scan"}}, {"name": "2a31173fe6fe8dbf27e972673c7c0bfc", "lon": -77.03643366666667, "lat": 38.903919333333334, "type": "electric_scooter", "fusion_lon": 0.0, "is_reserved": 0, "bike_id": "2a31173fe6fe8dbf27e972673c7c0bfc", "fusion_lat": 0.0, "is_disabled": 0, "rental_uris": {"ios": "https://dc.lft.to/lastmile_qr_scan", "android": "https://dc.lft.to/lastmile_qr_scan"}}, {"name": "d14225234deca49ce873d9e99c05b37d", "lon": -77.053428, "lat": 38.90002166666667, "type": "electric_scooter", "fusion_lon": 0.0, "is_reserved": 0, "bike_id": "d14225234deca49ce873d9e99c05b37d", "fusion_lat": 0.0, "is_disabled": 0, "rental_uris": {"ios": "https://dc.lft.to/lastmile_qr_scan", "android": "https://dc.lft.to/lastmile_qr_scan"}}, {"name": "f83ef442c6c31fe8198dd17d6a36b621", "lon": -77.00596366666667, "lat": 38.90589033333333, "type": "electric_scooter", "fusion_lon": 0.0, "is_reserved": 0, "bike_id": "f83ef442c6c31fe8198dd17d6a36b621", "fusion_lat": 0.0, "is_disabled": 0, "rental_uris": {"ios": "https://dc.lft.to/lastmile_qr_scan", "android": "https://dc.lft.to/lastmile_qr_scan"}}, {"name": "14c8a4f3dc9148e73ab4182b434592fc", "lon": -77.01743333333333, "lat": 38.88332833333333, "type": "electric_scooter", "fusion_lon": 0.0, "is_reserved": 0, "bike_id": "14c8a4f3dc9148e73ab4182b434592fc", "fusion_lat": 0.0, "is_disabled": 0, "rental_uris": {"ios": "https://dc.lft.to/lastmile_qr_scan", "android": "https://dc.lft.to/lastmile_qr_scan"}}, {"name": "3f3d16b9a8a42b658af8244250435186", "lon": -77.0390695, "lat": 38.91830433333333, "type": "electric_scooter", "fusion_lon": 0.0, "is_reserved": 0, "bike_id": "3f3d16b9a8a42b658af8244250435186", "fusion_lat": 0.0, "is_disabled": 0, "rental_uris": {"ios": "https://dc.lft.to/lastmile_qr_scan", "android": "https://dc.lft.to/lastmile_qr_scan"}}, {"name": "5ace238dc6f47ea68af8cf1331849424", "lon": -77.03847133333333, "lat": 38.91182333333333, "type": "electric_scooter", "fusion_lon": 0.0, "is_reserved": 0, "bike_id": "5ace238dc6f47ea68af8cf1331849424", "fusion_lat": 0.0, "is_disabled": 0, "rental_uris": {"ios": "https://dc.lft.to/lastmile_qr_scan", "android": "https://dc.lft.to/lastmile_qr_scan"}}, {"name": "0ce1d35b9ce7d78ff71124e3d089117a", "lon": -76.9977815, "lat": 38.8443025, "type": "electric_scooter", "fusion_lon": 0.0, "is_reserved": 0, "bike_id": "0ce1d35b9ce7d78ff71124e3d089117a", "fusion_lat": 0.0, "is_disabled": 0, "rental_uris": {"ios": "https://dc.lft.to/lastmile_qr_scan", "android": "https://dc.lft.to/lastmile_qr_scan"}}, {"name": "a7d7b5b435eac976f3a8f5bf1b8311b2", "lon": -77.01170866666666, "lat": 38.916971333333336, "type": "electric_scooter", "fusion_lon": 0.0, "is_reserved": 0, "bike_id": "a7d7b5b435eac976f3a8f5bf1b8311b2", "fusion_lat": 0.0, "is_disabled": 0, "rental_uris": {"ios": "https://dc.lft.to/lastmile_qr_scan", "android": "https://dc.lft.to/lastmile_qr_scan"}}, {"name": "72553be2f1bf955882fc785cbdd12edf", "lon": -76.98313016666667, "lat": 38.868926, "type": "electric_scooter", "fusion_lon": 0.0, "is_reserved": 0, "bike_id": "72553be2f1bf955882fc785cbdd12edf", "fusion_lat": 0.0, "is_disabled": 0, "rental_uris": {"ios": "https://dc.lft.to/lastmile_qr_scan", "android": "https://dc.lft.to/lastmile_qr_scan"}}, {"name": "af78302774520f711812b47bf62d9590", "lon": -77.0225715, "lat": 38.923050833333335, "type": "electric_scooter", "fusion_lon": 0.0, "is_reserved": 0, "bike_id": "af78302774520f711812b47bf62d9590", "fusion_lat": 0.0, "is_disabled": 0, "rental_uris": {"ios": "https://dc.lft.to/lastmile_qr_scan", "android": "https://dc.lft.to/lastmile_qr_scan"}}, {"name": "e56d27bfdb4d4b0ad6bca6e4e634ab5b", "lon": -77.02898266666666, "lat": 38.91730166666667, "type": "electric_scooter", "fusion_lon": 0.0, "is_reserved": 0, "bike_id": "e56d27bfdb4d4b0ad6bca6e4e634ab5b", "fusion_lat": 0.0, "is_disabled": 0, "rental_uris": {"ios": "https://dc.lft.to/lastmile_qr_scan", "android": "https://dc.lft.to/lastmile_qr_scan"}}, {"name": "dc8bddef9ead9cf6274e682c6c4b60c8", "lon": -77.00914833333333, "lat": 38.91450566666666, "type": "electric_scooter", "fusion_lon": 0.0, "is_reserved": 0, "bike_id": "dc8bddef9ead9cf6274e682c6c4b60c8", "fusion_lat": 0.0, "is_disabled": 0, "rental_uris": {"ios": "https://dc.lft.to/lastmile_qr_scan", "android": "https://dc.lft.to/lastmile_qr_scan"}}, {"name": "de98bf9db31d2678b1af3edb5d083288", "lon": -77.01167516666666, "lat": 38.91565333333333, "type": "electric_scooter", "fusion_lon": 0.0, "is_reserved": 0, "bike_id": "de98bf9db31d2678b1af3edb5d083288", "fusion_lat": 0.0, "is_disabled": 0, "rental_uris": {"ios": "https://dc.lft.to/lastmile_qr_scan", "android": "https://dc.lft.to/lastmile_qr_scan"}}, {"name": "792c635c059849cc0985f11b0910a440", "lon": -77.030504, "lat": 38.884078333333335, "type": "electric_scooter", "fusion_lon": 0.0, "is_reserved": 0, "bike_id": "792c635c059849cc0985f11b0910a440", "fusion_lat": 0.0, "is_disabled": 0, "rental_uris": {"ios": "https://dc.lft.to/lastmile_qr_scan", "android": "https://dc.lft.to/lastmile_qr_scan"}}, {"name": "ca967f0f1a928de434c4ec5d3a4b3d5a", "lon": -77.03474266666667, "lat": 38.90575533333333, "type": "electric_scooter", "fusion_lon": 0.0, "is_reserved": 0, "bike_id": "ca967f0f1a928de434c4ec5d3a4b3d5a", "fusion_lat": 0.0, "is_disabled": 0, "rental_uris": {"ios": "https://dc.lft.to/lastmile_qr_scan", "android": "https://dc.lft.to/lastmile_qr_scan"}}, {"name": "3f2ccfbde727f73e9289f551eec9bad9", "lon": -77.05014983333334, "lat": 38.906310166666664, "type": "electric_scooter", "fusion_lon": 0.0, "is_reserved": 0, "bike_id": "3f2ccfbde727f73e9289f551eec9bad9", "fusion_lat": 0.0, "is_disabled": 0, "rental_uris": {"ios": "https://dc.lft.to/lastmile_qr_scan", "android": "https://dc.lft.to/lastmile_qr_scan"}}, {"name": "68777a9b50df73fecbde4e554ae48759", "lon": -77.02950366666667, "lat": 38.905317, "type": "electric_scooter", "fusion_lon": 0.0, "is_reserved": 0, "bike_id": "68777a9b50df73fecbde4e554ae48759", "fusion_lat": 0.0, "is_disabled": 0, "rental_uris": {"ios": "https://dc.lft.to/lastmile_qr_scan", "android": "https://dc.lft.to/lastmile_qr_scan"}}, {"name": "719dc0d5f537c9c6cb8dad948c0dba74", "lon": -77.03648366666667, "lat": 38.923479666666665, "type": "electric_scooter", "fusion_lon": 0.0, "is_reserved": 0, "bike_id": "719dc0d5f537c9c6cb8dad948c0dba74", "fusion_lat": 0.0, "is_disabled": 0, "rental_uris": {"ios": "https://dc.lft.to/lastmile_qr_scan", "android": "https://dc.lft.to/lastmile_qr_scan"}}, {"name": "c793d837093983ccef8e4cd35f9a8b5e", "lon": -77.01224533333334, "lat": 38.87087066666667, "type": "electric_scooter", "fusion_lon": 0.0, "is_reserved": 0, "bike_id": "c793d837093983ccef8e4cd35f9a8b5e", "fusion_lat": 0.0, "is_disabled": 0, "rental_uris": {"ios": "https://dc.lft.to/lastmile_qr_scan", "android": "https://dc.lft.to/lastmile_qr_scan"}}, {"name": "c0b94af59e048a8cd59f244a95dada8c", "lon": -77.03264816666666, "lat": 38.91997666666666, "type": "electric_scooter", "fusion_lon": 0.0, "is_reserved": 0, "bike_id": "c0b94af59e048a8cd59f244a95dada8c", "fusion_lat": 0.0, "is_disabled": 0, "rental_uris": {"ios": "https://dc.lft.to/lastmile_qr_scan", "android": "https://dc.lft.to/lastmile_qr_scan"}}, {"name": "5e6688e94e23d3285cb5c81378fcba35", "lon": -77.00197383333334, "lat": 38.9003715, "type": "electric_scooter", "fusion_lon": 0.0, "is_reserved": 0, "bike_id": "5e6688e94e23d3285cb5c81378fcba35", "fusion_lat": 0.0, "is_disabled": 0, "rental_uris": {"ios": "https://dc.lft.to/lastmile_qr_scan", "android": "https://dc.lft.to/lastmile_qr_scan"}}, {"name": "b65e6808371e7e69719f8c085abd5d0b", "lon": -77.0219705, "lat": 38.9083705, "type": "electric_scooter", "fusion_lon": 0.0, "is_reserved": 0, "bike_id": "b65e6808371e7e69719f8c085abd5d0b", "fusion_lat": 0.0, "is_disabled": 0, "rental_uris": {"ios": "https://dc.lft.to/lastmile_qr_scan", "android": "https://dc.lft.to/lastmile_qr_scan"}}, {"name": "80caa352e1a70c19bda85ba830573540", "lon": -77.03869133333333, "lat": 38.921511, "type": "electric_scooter", "fusion_lon": 0.0, "is_reserved": 0, "bike_id": "80caa352e1a70c19bda85ba830573540", "fusion_lat": 0.0, "is_disabled": 0, "rental_uris": {"ios": "https://dc.lft.to/lastmile_qr_scan", "android": "https://dc.lft.to/lastmile_qr_scan"}}, {"name": "58916f0dce81401ede3adbb8c5c5cb21", "lon": -77.067043, "lat": 38.950653333333335, "type": "electric_scooter", "fusion_lon": 0.0, "is_reserved": 0, "bike_id": "58916f0dce81401ede3adbb8c5c5cb21", "fusion_lat": 0.0, "is_disabled": 0, "rental_uris": {"ios": "https://dc.lft.to/lastmile_qr_scan", "android": "https://dc.lft.to/lastmile_qr_scan"}}, {"name": "675ce5ff5f81a687f24f9f1596de47be", "lon": -77.04450916666667, "lat": 38.903658, "type": "electric_scooter", "fusion_lon": 0.0, "is_reserved": 0, "bike_id": "675ce5ff5f81a687f24f9f1596de47be", "fusion_lat": 0.0, "is_disabled": 0, "rental_uris": {"ios": "https://dc.lft.to/lastmile_qr_scan", "android": "https://dc.lft.to/lastmile_qr_scan"}}, {"name": "0643ede496df67a19cd4d798acc97576", "lon": -77.00201216666666, "lat": 38.902444833333334, "type": "electric_scooter", "fusion_lon": 0.0, "is_reserved": 0, "bike_id": "0643ede496df67a19cd4d798acc97576", "fusion_lat": 0.0, "is_disabled": 0, "rental_uris": {"ios": "https://dc.lft.to/lastmile_qr_scan", "android": "https://dc.lft.to/lastmile_qr_scan"}}, {"name": "9fa354de5f204227e1e067010af950f9", "lon": -77.0242155, "lat": 38.920891166666664, "type": "electric_scooter", "fusion_lon": 0.0, "is_reserved": 0, "bike_id": "9fa354de5f204227e1e067010af950f9", "fusion_lat": 0.0, "is_disabled": 0, "rental_uris": {"ios": "https://dc.lft.to/lastmile_qr_scan", "android": "https://dc.lft.to/lastmile_qr_scan"}}, {"name": "67fc7206bd3c60bbf59099a4fbc035dc", "lon": -77.0350275, "lat": 38.9171205, "type": "electric_scooter", "fusion_lon": 0.0, "is_reserved": 0, "bike_id": "67fc7206bd3c60bbf59099a4fbc035dc", "fusion_lat": 0.0, "is_disabled": 0, "rental_uris": {"ios": "https://dc.lft.to/lastmile_qr_scan", "android": "https://dc.lft.to/lastmile_qr_scan"}}, {"name": "48257b9dc4902685d9b6b882c276fd81", "lon": -77.04366166666667, "lat": 38.892259833333334, "type": "electric_scooter", "fusion_lon": 0.0, "is_reserved": 0, "bike_id": "48257b9dc4902685d9b6b882c276fd81", "fusion_lat": 0.0, "is_disabled": 0, "rental_uris": {"ios": "https://dc.lft.to/lastmile_qr_scan", "android": "https://dc.lft.to/lastmile_qr_scan"}}, {"name": "bfa91210a23b30e60fa0884e99127109", "lon": -77.04830866666667, "lat": 38.900478, "type": "electric_scooter", "fusion_lon": 0.0, "is_reserved": 0, "bike_id": "bfa91210a23b30e60fa0884e99127109", "fusion_lat": 0.0, "is_disabled": 0, "rental_uris": {"ios": "https://dc.lft.to/lastmile_qr_scan", "android": "https://dc.lft.to/lastmile_qr_scan"}}, {"name": "052c080ec87ee19e8a51f896559e2a6e", "lon": -77.0079765, "lat": 38.949205166666665, "type": "electric_bike", "fusion_lon": 0.0, "is_reserved": 0, "bike_id": "052c080ec87ee19e8a51f896559e2a6e", "fusion_lat": 0.0, "is_disabled": 0, "rental_uris": {"ios": "https://dc.lft.to/lastmile_qr_scan", "android": "https://dc.lft.to/lastmile_qr_scan"}}, {"name": "7b8819d1afbffa08ea6a0662441ca866", "lon": -77.03827016666666, "lat": 38.924800166666664, "type": "electric_scooter", "fusion_lon": 0.0, "is_reserved": 0, "bike_id": "7b8819d1afbffa08ea6a0662441ca866", "fusion_lat": 0.0, "is_disabled": 0, "rental_uris": {"ios": "https://dc.lft.to/lastmile_qr_scan", "android": "https://dc.lft.to/lastmile_qr_scan"}}, {"name": "264c047d92dca6c71338cba1123019ba", "lon": -76.974197, "lat": 38.86529983333333, "type": "electric_scooter", "fusion_lon": 0.0, "is_reserved": 0, "bike_id": "264c047d92dca6c71338cba1123019ba", "fusion_lat": 0.0, "is_disabled": 0, "rental_uris": {"ios": "https://dc.lft.to/lastmile_qr_scan", "android": "https://dc.lft.to/lastmile_qr_scan"}}, {"name": "2683be19b9bf51829b00390f83dbd043", "lon": -77.03491533333333, "lat": 38.92481316666667, "type": "electric_scooter", "fusion_lon": 0.0, "is_reserved": 0, "bike_id": "2683be19b9bf51829b00390f83dbd043", "fusion_lat": 0.0, "is_disabled": 0, "rental_uris": {"ios": "https://dc.lft.to/lastmile_qr_scan", "android": "https://dc.lft.to/lastmile_qr_scan"}}, {"name": "7a1bf89a5f8fb89f72c84258d88e0620", "lon": -77.0296625, "lat": 38.927750333333336, "type": "electric_bike", "fusion_lon": 0.0, "is_reserved": 0, "bike_id": "7a1bf89a5f8fb89f72c84258d88e0620", "fusion_lat": 0.0, "is_disabled": 0, "rental_uris": {"ios": "https://dc.lft.to/lastmile_qr_scan", "android": "https://dc.lft.to/lastmile_qr_scan"}}, {"name": "c3b90f43d249945d0172112ca0c0fd0d", "lon": -77.03362666666666, "lat": 38.93588666666667, "type": "electric_scooter", "fusion_lon": 0.0, "is_reserved": 0, "bike_id": "c3b90f43d249945d0172112ca0c0fd0d", "fusion_lat": 0.0, "is_disabled": 0, "rental_uris": {"ios": "https://dc.lft.to/lastmile_qr_scan", "android": "https://dc.lft.to/lastmile_qr_scan"}}, {"name": "a2e59a14dc538ceca7e9b960bf803c41", "lon": -77.046886, "lat": 39.02396066666667, "type": "electric_bike", "fusion_lon": 0.0, "is_reserved": 0, "bike_id": "a2e59a14dc538ceca7e9b960bf803c41", "fusion_lat": 0.0, "is_disabled": 0, "rental_uris": {"ios": "https://dc.lft.to/lastmile_qr_scan", "android": "https://dc.lft.to/lastmile_qr_scan"}}, {"name": "08c5a074da746be0d51fe2af3d02aaff", "lon": -77.02963733333333, "lat": 38.923289, "type": "electric_scooter", "fusion_lon": 0.0, "is_reserved": 0, "bike_id": "08c5a074da746be0d51fe2af3d02aaff", "fusion_lat": 0.0, "is_disabled": 0, "rental_uris": {"ios": "https://dc.lft.to/lastmile_qr_scan", "android": "https://dc.lft.to/lastmile_qr_scan"}}, {"name": "18a2f5593d3a5432ae8769c48587adbf", "lon": -77.03258733333334, "lat": 38.911883, "type": "electric_scooter", "fusion_lon": 0.0, "is_reserved": 0, "bike_id": "18a2f5593d3a5432ae8769c48587adbf", "fusion_lat": 0.0, "is_disabled": 0, "rental_uris": {"ios": "https://dc.lft.to/lastmile_qr_scan", "android": "https://dc.lft.to/lastmile_qr_scan"}}, {"name": "e847135d2131fbb59453851f2492f9d9", "lon": -77.02402583333334, "lat": 38.91956066666667, "type": "electric_scooter", "fusion_lon": 0.0, "is_reserved": 0, "bike_id": "e847135d2131fbb59453851f2492f9d9", "fusion_lat": 0.0, "is_disabled": 0, "rental_uris": {"ios": "https://dc.lft.to/lastmile_qr_scan", "android": "https://dc.lft.to/lastmile_qr_scan"}}, {"name": "6f8a19251198b31cddbfee6909b5311a", "lon": -77.00755883333333, "lat": 38.910281166666664, "type": "electric_scooter", "fusion_lon": 0.0, "is_reserved": 0, "bike_id": "6f8a19251198b31cddbfee6909b5311a", "fusion_lat": 0.0, "is_disabled": 0, "rental_uris": {"ios": "https://dc.lft.to/lastmile_qr_scan", "android": "https://dc.lft.to/lastmile_qr_scan"}}, {"name": "6b983a332d0e792aac54834183698224", "lon": -77.03658483333334, "lat": 38.91725483333333, "type": "electric_scooter", "fusion_lon": 0.0, "is_reserved": 0, "bike_id": "6b983a332d0e792aac54834183698224", "fusion_lat": 0.0, "is_disabled": 0, "rental_uris": {"ios": "https://dc.lft.to/lastmile_qr_scan", "android": "https://dc.lft.to/lastmile_qr_scan"}}, {"name": "2ff7909836fbb3986555a7ba069e4600", "lon": -77.0369925, "lat": 38.9356375, "type": "electric_bike", "fusion_lon": 0.0, "is_reserved": 0, "bike_id": "2ff7909836fbb3986555a7ba069e4600", "fusion_lat": 0.0, "is_disabled": 0, "rental_uris": {"ios": "https://dc.lft.to/lastmile_qr_scan", "android": "https://dc.lft.to/lastmile_qr_scan"}}, {"name": "ba5c1a0f00fd08c93003a433aa08a709", "lon": -77.01612583333333, "lat": 38.89967216666667, "type": "electric_scooter", "fusion_lon": 0.0, "is_reserved": 0, "bike_id": "ba5c1a0f00fd08c93003a433aa08a709", "fusion_lat": 0.0, "is_disabled": 0, "rental_uris": {"ios": "https://dc.lft.to/lastmile_qr_scan", "android": "https://dc.lft.to/lastmile_qr_scan"}}, {"name": "a529c1075f7c6d11426cc361f8a3854c", "lon": -77.06286016666667, "lat": 38.96502183333333, "type": "electric_scooter", "fusion_lon": 0.0, "is_reserved": 0, "bike_id": "a529c1075f7c6d11426cc361f8a3854c", "fusion_lat": 0.0, "is_disabled": 0, "rental_uris": {"ios": "https://dc.lft.to/lastmile_qr_scan", "android": "https://dc.lft.to/lastmile_qr_scan"}}, {"name": "b109209d27077b114cdbf56647bd6c32", "lon": -77.18740916666667, "lat": 38.89354616666667, "type": "electric_bike", "fusion_lon": 0.0, "is_reserved": 0, "bike_id": "b109209d27077b114cdbf56647bd6c32", "fusion_lat": 0.0, "is_disabled": 0, "rental_uris": {"ios": "https://dc.lft.to/lastmile_qr_scan", "android": "https://dc.lft.to/lastmile_qr_scan"}}, {"name": "0559fb70947fbc85020b9b0916bc1a5a", "lon": -76.92997066666666, "lat": 38.90188233333333, "type": "electric_scooter", "fusion_lon": 0.0, "is_reserved": 0, "bike_id": "0559fb70947fbc85020b9b0916bc1a5a", "fusion_lat": 0.0, "is_disabled": 0, "rental_uris": {"ios": "https://dc.lft.to/lastmile_qr_scan", "android": "https://dc.lft.to/lastmile_qr_scan"}}, {"name": "8fd588365d2dd6f754810be10592c487", "lon": -77.04635916666666, "lat": 38.90666816666667, "type": "electric_scooter", "fusion_lon": 0.0, "is_reserved": 0, "bike_id": "8fd588365d2dd6f754810be10592c487", "fusion_lat": 0.0, "is_disabled": 0, "rental_uris": {"ios": "https://dc.lft.to/lastmile_qr_scan", "android": "https://dc.lft.to/lastmile_qr_scan"}}, {"name": "bfdc8c44a764ae1ddc2136be2ccc2660", "lon": -77.0320995, "lat": 38.914271166666666, "type": "electric_scooter", "fusion_lon": 0.0, "is_reserved": 0, "bike_id": "bfdc8c44a764ae1ddc2136be2ccc2660", "fusion_lat": 0.0, "is_disabled": 0, "rental_uris": {"ios": "https://dc.lft.to/lastmile_qr_scan", "android": "https://dc.lft.to/lastmile_qr_scan"}}, {"name": "5d9f809f573ce734010520979fc7ad52", "lon": -77.03540366666667, "lat": 38.92320266666667, "type": "electric_scooter", "fusion_lon": 0.0, "is_reserved": 0, "bike_id": "5d9f809f573ce734010520979fc7ad52", "fusion_lat": 0.0, "is_disabled": 0, "rental_uris": {"ios": "https://dc.lft.to/lastmile_qr_scan", "android": "https://dc.lft.to/lastmile_qr_scan"}}, {"name": "28fb91746fe586c5d9218ef6946759fa", "lon": -77.10911483333334, "lat": 39.052077, "type": "electric_bike", "fusion_lon": 0.0, "is_reserved": 0, "bike_id": "28fb91746fe586c5d9218ef6946759fa", "fusion_lat": 0.0, "is_disabled": 0, "rental_uris": {"ios": "https://dc.lft.to/lastmile_qr_scan", "android": "https://dc.lft.to/lastmile_qr_scan"}}, {"name": "034fb6b2956ce72a8e7f7093d6871e23", "lon": -76.97298416666666, "lat": 38.90321216666667, "type": "electric_scooter", "fusion_lon": 0.0, "is_reserved": 0, "bike_id": "034fb6b2956ce72a8e7f7093d6871e23", "fusion_lat": 0.0, "is_disabled": 0, "rental_uris": {"ios": "https://dc.lft.to/lastmile_qr_scan", "android": "https://dc.lft.to/lastmile_qr_scan"}}, {"name": "1a5874252fa16eed2eec8407693821ba", "lon": -77.02489766666666, "lat": 38.91930166666667, "type": "electric_bike", "fusion_lon": 0.0, "is_reserved": 0, "bike_id": "1a5874252fa16eed2eec8407693821ba", "fusion_lat": 0.0, "is_disabled": 0, "rental_uris": {"ios": "https://dc.lft.to/lastmile_qr_scan", "android": "https://dc.lft.to/lastmile_qr_scan"}}, {"name": "624be1cba8a4fd6c9cd387d8150f1f08", "lon": -77.04281533333334, "lat": 38.914162, "type": "electric_scooter", "fusion_lon": 0.0, "is_reserved": 0, "bike_id": "624be1cba8a4fd6c9cd387d8150f1f08", "fusion_lat": 0.0, "is_disabled": 0, "rental_uris": {"ios": "https://dc.lft.to/lastmile_qr_scan", "android": "https://dc.lft.to/lastmile_qr_scan"}}, {"name": "14c66e2e64272c98b4e8b15512eec573", "lon": -77.00598266666667, "lat": 38.898096, "type": "electric_bike", "fusion_lon": 0.0, "is_reserved": 0, "bike_id": "14c66e2e64272c98b4e8b15512eec573", "fusion_lat": 0.0, "is_disabled": 0, "rental_uris": {"ios": "https://dc.lft.to/lastmile_qr_scan", "android": "https://dc.lft.to/lastmile_qr_scan"}}, {"name": "758da2b3a3e2ab2a254d993fe0614628", "lon": -77.04863133333333, "lat": 38.909589833333335, "type": "electric_scooter", "fusion_lon": 0.0, "is_reserved": 0, "bike_id": "758da2b3a3e2ab2a254d993fe0614628", "fusion_lat": 0.0, "is_disabled": 0, "rental_uris": {"ios": "https://dc.lft.to/lastmile_qr_scan", "android": "https://dc.lft.to/lastmile_qr_scan"}}, {"name": "73f820991f8e2be109a4c0fa364a202c", "lon": -77.024885, "lat": 38.91897266666667, "type": "electric_bike", "fusion_lon": 0.0, "is_reserved": 0, "bike_id": "73f820991f8e2be109a4c0fa364a202c", "fusion_lat": 0.0, "is_disabled": 0, "rental_uris": {"ios": "https://dc.lft.to/lastmile_qr_scan", "android": "https://dc.lft.to/lastmile_qr_scan"}}, {"name": "7b06a8bf4b8eb52be185bd61c394c139", "lon": -77.017898, "lat": 38.9199445, "type": "electric_scooter", "fusion_lon": 0.0, "is_reserved": 0, "bike_id": "7b06a8bf4b8eb52be185bd61c394c139", "fusion_lat": 0.0, "is_disabled": 0, "rental_uris": {"ios": "https://dc.lft.to/lastmile_qr_scan", "android": "https://dc.lft.to/lastmile_qr_scan"}}, {"name": "402569670fc2d923fb2999f63ee2312c", "lon": -77.0239975, "lat": 38.909649, "type": "electric_scooter", "fusion_lon": 0.0, "is_reserved": 0, "bike_id": "402569670fc2d923fb2999f63ee2312c", "fusion_lat": 0.0, "is_disabled": 0, "rental_uris": {"ios": "https://dc.lft.to/lastmile_qr_scan", "android": "https://dc.lft.to/lastmile_qr_scan"}}, {"name": "2c5ab463eb045e48723adfd66927595c", "lon": -77.034787, "lat": 38.90600033333333, "type": "electric_scooter", "fusion_lon": 0.0, "is_reserved": 0, "bike_id": "2c5ab463eb045e48723adfd66927595c", "fusion_lat": 0.0, "is_disabled": 0, "rental_uris": {"ios": "https://dc.lft.to/lastmile_qr_scan", "android": "https://dc.lft.to/lastmile_qr_scan"}}, {"name": "75dc8738ac076fb263fd966d0fc0f242", "lon": -77.03288816666667, "lat": 38.956456, "type": "electric_scooter", "fusion_lon": 0.0, "is_reserved": 0, "bike_id": "75dc8738ac076fb263fd966d0fc0f242", "fusion_lat": 0.0, "is_disabled": 0, "rental_uris": {"ios": "https://dc.lft.to/lastmile_qr_scan", "android": "https://dc.lft.to/lastmile_qr_scan"}}, {"name": "eeb698bf4d4e7de0de3a175b7a9fd1ad", "lon": -77.02692, "lat": 38.908718, "type": "electric_scooter", "fusion_lon": 0.0, "is_reserved": 0, "bike_id": "eeb698bf4d4e7de0de3a175b7a9fd1ad", "fusion_lat": 0.0, "is_disabled": 0, "rental_uris": {"ios": "https://dc.lft.to/lastmile_qr_scan", "android": "https://dc.lft.to/lastmile_qr_scan"}}, {"name": "e3369cbe53df12add5b70d992242b472", "lon": -77.0053755, "lat": 38.9155285, "type": "electric_scooter", "fusion_lon": 0.0, "is_reserved": 0, "bike_id": "e3369cbe53df12add5b70d992242b472", "fusion_lat": 0.0, "is_disabled": 0, "rental_uris": {"ios": "https://dc.lft.to/lastmile_qr_scan", "android": "https://dc.lft.to/lastmile_qr_scan"}}, {"name": "7cb32f039a0f51c53feaedb376bee948", "lon": -77.02728383333333, "lat": 38.918295666666666, "type": "electric_scooter", "fusion_lon": 0.0, "is_reserved": 0, "bike_id": "7cb32f039a0f51c53feaedb376bee948", "fusion_lat": 0.0, "is_disabled": 0, "rental_uris": {"ios": "https://dc.lft.to/lastmile_qr_scan", "android": "https://dc.lft.to/lastmile_qr_scan"}}, {"name": "e3fa444d2f1403a3a857f0c596634523", "lon": -77.01098316666666, "lat": 38.87315433333333, "type": "electric_bike", "fusion_lon": 0.0, "is_reserved": 0, "bike_id": "e3fa444d2f1403a3a857f0c596634523", "fusion_lat": 0.0, "is_disabled": 0, "rental_uris": {"ios": "https://dc.lft.to/lastmile_qr_scan", "android": "https://dc.lft.to/lastmile_qr_scan"}}, {"name": "c6cab00663d612a7af20b906297ba35e", "lon": -77.03718233333333, "lat": 38.91696733333333, "type": "electric_scooter", "fusion_lon": 0.0, "is_reserved": 0, "bike_id": "c6cab00663d612a7af20b906297ba35e", "fusion_lat": 0.0, "is_disabled": 0, "rental_uris": {"ios": "https://dc.lft.to/lastmile_qr_scan", "android": "https://dc.lft.to/lastmile_qr_scan"}}, {"name": "7ddf6386c37a638d0df5bc25bb801897", "lon": -76.97481083333334, "lat": 38.903529166666665, "type": "electric_scooter", "fusion_lon": 0.0, "is_reserved": 0, "bike_id": "7ddf6386c37a638d0df5bc25bb801897", "fusion_lat": 0.0, "is_disabled": 0, "rental_uris": {"ios": "https://dc.lft.to/lastmile_qr_scan", "android": "https://dc.lft.to/lastmile_qr_scan"}}, {"name": "6dd3e7a9e613edd818287acffb7473fc", "lon": -77.02873833333334, "lat": 39.037464, "type": "electric_scooter", "fusion_lon": 0.0, "is_reserved": 0, "bike_id": "6dd3e7a9e613edd818287acffb7473fc", "fusion_lat": 0.0, "is_disabled": 0, "rental_uris": {"ios": "https://dc.lft.to/lastmile_qr_scan", "android": "https://dc.lft.to/lastmile_qr_scan"}}, {"name": "c59e637a94dd9da3092f7a37c98b33bd", "lon": -77.02079533333334, "lat": 38.87580833333333, "type": "electric_scooter", "fusion_lon": 0.0, "is_reserved": 0, "bike_id": "c59e637a94dd9da3092f7a37c98b33bd", "fusion_lat": 0.0, "is_disabled": 0, "rental_uris": {"ios": "https://dc.lft.to/lastmile_qr_scan", "android": "https://dc.lft.to/lastmile_qr_scan"}}, {"name": "c98a0131a25598d73cae2208df48dd5f", "lon": -77.0580965, "lat": 38.93511483333333, "type": "electric_scooter", "fusion_lon": 0.0, "is_reserved": 0, "bike_id": "c98a0131a25598d73cae2208df48dd5f", "fusion_lat": 0.0, "is_disabled": 0, "rental_uris": {"ios": "https://dc.lft.to/lastmile_qr_scan", "android": "https://dc.lft.to/lastmile_qr_scan"}}, {"name": "78329464c263f30a67cd62fd748106c9", "lon": -77.0118455, "lat": 38.900396, "type": "electric_scooter", "fusion_lon": 0.0, "is_reserved": 0, "bike_id": "78329464c263f30a67cd62fd748106c9", "fusion_lat": 0.0, "is_disabled": 0, "rental_uris": {"ios": "https://dc.lft.to/lastmile_qr_scan", "android": "https://dc.lft.to/lastmile_qr_scan"}}, {"name": "08b355b21dc29a7b425e35b066ad9d1f", "lon": -77.0947835, "lat": 39.030469, "type": "electric_bike", "fusion_lon": 0.0, "is_reserved": 0, "bike_id": "08b355b21dc29a7b425e35b066ad9d1f", "fusion_lat": 0.0, "is_disabled": 0, "rental_uris": {"ios": "https://dc.lft.to/lastmile_qr_scan", "android": "https://dc.lft.to/lastmile_qr_scan"}}, {"name": "e78c3502205183113fd3fd086b974419", "lon": -77.04880116666666, "lat": 38.915600166666664, "type": "electric_scooter", "fusion_lon": 0.0, "is_reserved": 0, "bike_id": "e78c3502205183113fd3fd086b974419", "fusion_lat": 0.0, "is_disabled": 0, "rental_uris": {"ios": "https://dc.lft.to/lastmile_qr_scan", "android": "https://dc.lft.to/lastmile_qr_scan"}}, {"name": "fa6818b4da8d47e0767701001f3ede0f", "lon": -77.02332566666666, "lat": 38.924776333333334, "type": "electric_scooter", "fusion_lon": 0.0, "is_reserved": 0, "bike_id": "fa6818b4da8d47e0767701001f3ede0f", "fusion_lat": 0.0, "is_disabled": 0, "rental_uris": {"ios": "https://dc.lft.to/lastmile_qr_scan", "android": "https://dc.lft.to/lastmile_qr_scan"}}, {"name": "e9f7c88e71843a7c748ef1b519021418", "lon": -76.98832416666667, "lat": 38.90044833333333, "type": "electric_scooter", "fusion_lon": 0.0, "is_reserved": 0, "bike_id": "e9f7c88e71843a7c748ef1b519021418", "fusion_lat": 0.0, "is_disabled": 0, "rental_uris": {"ios": "https://dc.lft.to/lastmile_qr_scan", "android": "https://dc.lft.to/lastmile_qr_scan"}}, {"name": "73ce983caefa006c5f5831e761e8f1a5", "lon": -76.97422033333334, "lat": 38.90447316666667, "type": "electric_scooter", "fusion_lon": 0.0, "is_reserved": 0, "bike_id": "73ce983caefa006c5f5831e761e8f1a5", "fusion_lat": 0.0, "is_disabled": 0, "rental_uris": {"ios": "https://dc.lft.to/lastmile_qr_scan", "android": "https://dc.lft.to/lastmile_qr_scan"}}, {"name": "b4bd3b50143ebcf0859df1c46e0d7619", "lon": -76.99871833333333, "lat": 38.90030216666667, "type": "electric_scooter", "fusion_lon": 0.0, "is_reserved": 0, "bike_id": "b4bd3b50143ebcf0859df1c46e0d7619", "fusion_lat": 0.0, "is_disabled": 0, "rental_uris": {"ios": "https://dc.lft.to/lastmile_qr_scan", "android": "https://dc.lft.to/lastmile_qr_scan"}}, {"name": "779d0ea0134f53328e97b994ac601fe7", "lon": -77.029742, "lat": 38.916825833333334, "type": "electric_scooter", "fusion_lon": 0.0, "is_reserved": 0, "bike_id": "779d0ea0134f53328e97b994ac601fe7", "fusion_lat": 0.0, "is_disabled": 0, "rental_uris": {"ios": "https://dc.lft.to/lastmile_qr_scan", "android": "https://dc.lft.to/lastmile_qr_scan"}}, {"name": "657b005d74ae1c0c1f91dd32be5add1b", "lon": -76.9908485, "lat": 38.86235466666667, "type": "electric_bike", "fusion_lon": 0.0, "is_reserved": 0, "bike_id": "657b005d74ae1c0c1f91dd32be5add1b", "fusion_lat": 0.0, "is_disabled": 0, "rental_uris": {"ios": "https://dc.lft.to/lastmile_qr_scan", "android": "https://dc.lft.to/lastmile_qr_scan"}}, {"name": "ac0b85af216033322b9d2942b3b1bc02", "lon": -77.02765066666667, "lat": 38.95429566666667, "type": "electric_scooter", "fusion_lon": 0.0, "is_reserved": 0, "bike_id": "ac0b85af216033322b9d2942b3b1bc02", "fusion_lat": 0.0, "is_disabled": 0, "rental_uris": {"ios": "https://dc.lft.to/lastmile_qr_scan", "android": "https://dc.lft.to/lastmile_qr_scan"}}, {"name": "ff247e952ac4671852fbedfd5dd3ccc7", "lon": -77.02824416666667, "lat": 38.887365, "type": "electric_scooter", "fusion_lon": 0.0, "is_reserved": 0, "bike_id": "ff247e952ac4671852fbedfd5dd3ccc7", "fusion_lat": 0.0, "is_disabled": 0, "rental_uris": {"ios": "https://dc.lft.to/lastmile_qr_scan", "android": "https://dc.lft.to/lastmile_qr_scan"}}, {"name": "02a237d8dfc82b7ef01741c91242dbce", "lon": -77.058631, "lat": 38.936083333333336, "type": "electric_scooter", "fusion_lon": 0.0, "is_reserved": 0, "bike_id": "02a237d8dfc82b7ef01741c91242dbce", "fusion_lat": 0.0, "is_disabled": 0, "rental_uris": {"ios": "https://dc.lft.to/lastmile_qr_scan", "android": "https://dc.lft.to/lastmile_qr_scan"}}, {"name": "b0addb2f116572b448255833c047704e", "lon": -77.04616783333333, "lat": 38.9026925, "type": "electric_scooter", "fusion_lon": 0.0, "is_reserved": 0, "bike_id": "b0addb2f116572b448255833c047704e", "fusion_lat": 0.0, "is_disabled": 0, "rental_uris": {"ios": "https://dc.lft.to/lastmile_qr_scan", "android": "https://dc.lft.to/lastmile_qr_scan"}}, {"name": "e4865548bec110b1287cfb4042728fb6", "lon": -77.04763183333333, "lat": 38.9176635, "type": "electric_scooter", "fusion_lon": 0.0, "is_reserved": 0, "bike_id": "e4865548bec110b1287cfb4042728fb6", "fusion_lat": 0.0, "is_disabled": 0, "rental_uris": {"ios": "https://dc.lft.to/lastmile_qr_scan", "android": "https://dc.lft.to/lastmile_qr_scan"}}, {"name": "dfdd52140d7fd29c33514d48d062c2b1", "lon": -77.02945783333334, "lat": 38.905375166666666, "type": "electric_scooter", "fusion_lon": 0.0, "is_reserved": 0, "bike_id": "dfdd52140d7fd29c33514d48d062c2b1", "fusion_lat": 0.0, "is_disabled": 0, "rental_uris": {"ios": "https://dc.lft.to/lastmile_qr_scan", "android": "https://dc.lft.to/lastmile_qr_scan"}}, {"name": "e929c1df16174af904d58cfa477f5809", "lon": -77.03301883333333, "lat": 38.9563975, "type": "electric_scooter", "fusion_lon": 0.0, "is_reserved": 0, "bike_id": "e929c1df16174af904d58cfa477f5809", "fusion_lat": 0.0, "is_disabled": 0, "rental_uris": {"ios": "https://dc.lft.to/lastmile_qr_scan", "android": "https://dc.lft.to/lastmile_qr_scan"}}, {"name": "7aeed9f1f70f003c2751328f402ef189", "lon": -76.92534166666667, "lat": 38.959268, "type": "electric_bike", "fusion_lon": 0.0, "is_reserved": 0, "bike_id": "7aeed9f1f70f003c2751328f402ef189", "fusion_lat": 0.0, "is_disabled": 0, "rental_uris": {"ios": "https://dc.lft.to/lastmile_qr_scan", "android": "https://dc.lft.to/lastmile_qr_scan"}}, {"name": "fc837f416de3b286120d57d4b46066df", "lon": -76.98991016666666, "lat": 38.863874833333334, "type": "electric_bike", "fusion_lon": 0.0, "is_reserved": 0, "bike_id": "fc837f416de3b286120d57d4b46066df", "fusion_lat": 0.0, "is_disabled": 0, "rental_uris": {"ios": "https://dc.lft.to/lastmile_qr_scan", "android": "https://dc.lft.to/lastmile_qr_scan"}}, {"name": "266d68b889fe02a921837bb20083ae13", "lon": -77.02338733333333, "lat": 38.878838333333334, "type": "electric_scooter", "fusion_lon": 0.0, "is_reserved": 0, "bike_id": "266d68b889fe02a921837bb20083ae13", "fusion_lat": 0.0, "is_disabled": 0, "rental_uris": {"ios": "https://dc.lft.to/lastmile_qr_scan", "android": "https://dc.lft.to/lastmile_qr_scan"}}, {"name": "41999ee7be56838c12f1b670a66de62c", "lon": -76.9823985, "lat": 38.864688, "type": "electric_scooter", "fusion_lon": 0.0, "is_reserved": 0, "bike_id": "41999ee7be56838c12f1b670a66de62c", "fusion_lat": 0.0, "is_disabled": 0, "rental_uris": {"ios": "https://dc.lft.to/lastmile_qr_scan", "android": "https://dc.lft.to/lastmile_qr_scan"}}, {"name": "2a50cdde61bb3611e79af0fc33c7d2de", "lon": -77.04956766666666, "lat": 38.9051785, "type": "electric_scooter", "fusion_lon": 0.0, "is_reserved": 0, "bike_id": "2a50cdde61bb3611e79af0fc33c7d2de", "fusion_lat": 0.0, "is_disabled": 0, "rental_uris": {"ios": "https://dc.lft.to/lastmile_qr_scan", "android": "https://dc.lft.to/lastmile_qr_scan"}}, {"name": "ef96bede8cd1fed922ffcc67f17d5d83", "lon": -77.021808, "lat": 38.91296466666667, "type": "electric_scooter", "fusion_lon": 0.0, "is_reserved": 0, "bike_id": "ef96bede8cd1fed922ffcc67f17d5d83", "fusion_lat": 0.0, "is_disabled": 0, "rental_uris": {"ios": "https://dc.lft.to/lastmile_qr_scan", "android": "https://dc.lft.to/lastmile_qr_scan"}}, {"name": "012f1c3a98f5065e3761015e0f17676a", "lon": -77.0297795, "lat": 38.91676833333333, "type": "electric_scooter", "fusion_lon": 0.0, "is_reserved": 0, "bike_id": "012f1c3a98f5065e3761015e0f17676a", "fusion_lat": 0.0, "is_disabled": 0, "rental_uris": {"ios": "https://dc.lft.to/lastmile_qr_scan", "android": "https://dc.lft.to/lastmile_qr_scan"}}, {"name": "9266a82eb38daf9cf1f3131ec5aaa700", "lon": -77.06114766666667, "lat": 38.939909166666666, "type": "electric_scooter", "fusion_lon": 0.0, "is_reserved": 0, "bike_id": "9266a82eb38daf9cf1f3131ec5aaa700", "fusion_lat": 0.0, "is_disabled": 0, "rental_uris": {"ios": "https://dc.lft.to/lastmile_qr_scan", "android": "https://dc.lft.to/lastmile_qr_scan"}}, {"name": "730e439f0d85614c07ec7de28bb8b6cb", "lon": -77.02598733333333, "lat": 38.920937, "type": "electric_scooter", "fusion_lon": 0.0, "is_reserved": 0, "bike_id": "730e439f0d85614c07ec7de28bb8b6cb", "fusion_lat": 0.0, "is_disabled": 0, "rental_uris": {"ios": "https://dc.lft.to/lastmile_qr_scan", "android": "https://dc.lft.to/lastmile_qr_scan"}}, {"name": "153bc52a0422c397b370ab3d3f052ffb", "lon": -77.02531183333333, "lat": 38.94258933333333, "type": "electric_scooter", "fusion_lon": 0.0, "is_reserved": 0, "bike_id": "153bc52a0422c397b370ab3d3f052ffb", "fusion_lat": 0.0, "is_disabled": 0, "rental_uris": {"ios": "https://dc.lft.to/lastmile_qr_scan", "android": "https://dc.lft.to/lastmile_qr_scan"}}, {"name": "7db922bcccbd5e3091625583580e2f1c", "lon": -77.03270816666667, "lat": 38.92744783333333, "type": "electric_scooter", "fusion_lon": 0.0, "is_reserved": 0, "bike_id": "7db922bcccbd5e3091625583580e2f1c", "fusion_lat": 0.0, "is_disabled": 0, "rental_uris": {"ios": "https://dc.lft.to/lastmile_qr_scan", "android": "https://dc.lft.to/lastmile_qr_scan"}}, {"name": "6f6b9c659abde11bf84a7d29495b9612", "lon": -77.01463, "lat": 38.917890666666665, "type": "electric_scooter", "fusion_lon": 0.0, "is_reserved": 0, "bike_id": "6f6b9c659abde11bf84a7d29495b9612", "fusion_lat": 0.0, "is_disabled": 0, "rental_uris": {"ios": "https://dc.lft.to/lastmile_qr_scan", "android": "https://dc.lft.to/lastmile_qr_scan"}}, {"name": "5bf8d47159215f6e6e2628c6df346863", "lon": -77.0149875, "lat": 38.886641833333336, "type": "electric_scooter", "fusion_lon": 0.0, "is_reserved": 0, "bike_id": "5bf8d47159215f6e6e2628c6df346863", "fusion_lat": 0.0, "is_disabled": 0, "rental_uris": {"ios": "https://dc.lft.to/lastmile_qr_scan", "android": "https://dc.lft.to/lastmile_qr_scan"}}, {"name": "bd68c2c5e22af126c458e14d751ee76d", "lon": -77.032037, "lat": 38.91575266666667, "type": "electric_scooter", "fusion_lon": 0.0, "is_reserved": 0, "bike_id": "bd68c2c5e22af126c458e14d751ee76d", "fusion_lat": 0.0, "is_disabled": 0, "rental_uris": {"ios": "https://dc.lft.to/lastmile_qr_scan", "android": "https://dc.lft.to/lastmile_qr_scan"}}, {"name": "7b9d35c154fa73a422d109b582be37b5", "lon": -77.03438816666667, "lat": 38.908098, "type": "electric_scooter", "fusion_lon": 0.0, "is_reserved": 0, "bike_id": "7b9d35c154fa73a422d109b582be37b5", "fusion_lat": 0.0, "is_disabled": 0, "rental_uris": {"ios": "https://dc.lft.to/lastmile_qr_scan", "android": "https://dc.lft.to/lastmile_qr_scan"}}, {"name": "e8722194005e61853544d3dc6a86686e", "lon": -77.04401183333333, "lat": 38.91417216666667, "type": "electric_scooter", "fusion_lon": 0.0, "is_reserved": 0, "bike_id": "e8722194005e61853544d3dc6a86686e", "fusion_lat": 0.0, "is_disabled": 0, "rental_uris": {"ios": "https://dc.lft.to/lastmile_qr_scan", "android": "https://dc.lft.to/lastmile_qr_scan"}}, {"name": "10d21d57e16359d8fbd1f3c3c9ade3b9", "lon": -77.03415883333334, "lat": 38.91926466666666, "type": "electric_scooter", "fusion_lon": 0.0, "is_reserved": 0, "bike_id": "10d21d57e16359d8fbd1f3c3c9ade3b9", "fusion_lat": 0.0, "is_disabled": 0, "rental_uris": {"ios": "https://dc.lft.to/lastmile_qr_scan", "android": "https://dc.lft.to/lastmile_qr_scan"}}, {"name": "3eda2ae53f19b9565bc9e29c6f5dbc5d", "lon": -76.991557, "lat": 38.9099495, "type": "electric_scooter", "fusion_lon": 0.0, "is_reserved": 0, "bike_id": "3eda2ae53f19b9565bc9e29c6f5dbc5d", "fusion_lat": 0.0, "is_disabled": 0, "rental_uris": {"ios": "https://dc.lft.to/lastmile_qr_scan", "android": "https://dc.lft.to/lastmile_qr_scan"}}, {"name": "6872c743d267308b813c805cd0c79e90", "lon": -77.02199816666666, "lat": 38.905813333333334, "type": "electric_scooter", "fusion_lon": 0.0, "is_reserved": 0, "bike_id": "6872c743d267308b813c805cd0c79e90", "fusion_lat": 0.0, "is_disabled": 0, "rental_uris": {"ios": "https://dc.lft.to/lastmile_qr_scan", "android": "https://dc.lft.to/lastmile_qr_scan"}}, {"name": "10ab73c8fedbcc75f45ce2fb8e0792e7", "lon": -77.0230015, "lat": 38.92083566666667, "type": "electric_scooter", "fusion_lon": 0.0, "is_reserved": 0, "bike_id": "10ab73c8fedbcc75f45ce2fb8e0792e7", "fusion_lat": 0.0, "is_disabled": 0, "rental_uris": {"ios": "https://dc.lft.to/lastmile_qr_scan", "android": "https://dc.lft.to/lastmile_qr_scan"}}, {"name": "16eac631970bd16417a1a71a96b5d091", "lon": -76.9938005, "lat": 38.877606166666666, "type": "electric_scooter", "fusion_lon": 0.0, "is_reserved": 0, "bike_id": "16eac631970bd16417a1a71a96b5d091", "fusion_lat": 0.0, "is_disabled": 0, "rental_uris": {"ios": "https://dc.lft.to/lastmile_qr_scan", "android": "https://dc.lft.to/lastmile_qr_scan"}}, {"name": "79fee459bd62fb0109489bab07a17d6c", "lon": -77.030842, "lat": 38.91117666666667, "type": "electric_scooter", "fusion_lon": 0.0, "is_reserved": 0, "bike_id": "79fee459bd62fb0109489bab07a17d6c", "fusion_lat": 0.0, "is_disabled": 0, "rental_uris": {"ios": "https://dc.lft.to/lastmile_qr_scan", "android": "https://dc.lft.to/lastmile_qr_scan"}}, {"name": "83b5947487ce53ef7e7c34e731384c8d", "lon": -77.0560235, "lat": 38.93611666666666, "type": "electric_scooter", "fusion_lon": 0.0, "is_reserved": 0, "bike_id": "83b5947487ce53ef7e7c34e731384c8d", "fusion_lat": 0.0, "is_disabled": 0, "rental_uris": {"ios": "https://dc.lft.to/lastmile_qr_scan", "android": "https://dc.lft.to/lastmile_qr_scan"}}, {"name": "25b889bb83883e59d87cdf8fb71260da", "lon": -77.04482566666667, "lat": 38.92408783333333, "type": "electric_scooter", "fusion_lon": 0.0, "is_reserved": 0, "bike_id": "25b889bb83883e59d87cdf8fb71260da", "fusion_lat": 0.0, "is_disabled": 0, "rental_uris": {"ios": "https://dc.lft.to/lastmile_qr_scan", "android": "https://dc.lft.to/lastmile_qr_scan"}}, {"name": "9b9ca5f60f07787ad3d310a652c72f66", "lon": -77.0158075, "lat": 38.916829166666666, "type": "electric_scooter", "fusion_lon": 0.0, "is_reserved": 0, "bike_id": "9b9ca5f60f07787ad3d310a652c72f66", "fusion_lat": 0.0, "is_disabled": 0, "rental_uris": {"ios": "https://dc.lft.to/lastmile_qr_scan", "android": "https://dc.lft.to/lastmile_qr_scan"}}, {"name": "56aff84dcef3cc08a77a516cc452b1c2", "lon": -77.05218066666667, "lat": 38.92487233333333, "type": "electric_scooter", "fusion_lon": 0.0, "is_reserved": 0, "bike_id": "56aff84dcef3cc08a77a516cc452b1c2", "fusion_lat": 0.0, "is_disabled": 0, "rental_uris": {"ios": "https://dc.lft.to/lastmile_qr_scan", "android": "https://dc.lft.to/lastmile_qr_scan"}}, {"name": "37f9d9a5925f9c5231840a03e2d7f190", "lon": -77.009178, "lat": 38.827816166666665, "type": "electric_scooter", "fusion_lon": 0.0, "is_reserved": 0, "bike_id": "37f9d9a5925f9c5231840a03e2d7f190", "fusion_lat": 0.0, "is_disabled": 0, "rental_uris": {"ios": "https://dc.lft.to/lastmile_qr_scan", "android": "https://dc.lft.to/lastmile_qr_scan"}}, {"name": "a7b0c6c6e2c3f992c8d51337ddc1a9a8", "lon": -77.00601, "lat": 38.906401, "type": "electric_scooter", "fusion_lon": 0.0, "is_reserved": 0, "bike_id": "a7b0c6c6e2c3f992c8d51337ddc1a9a8", "fusion_lat": 0.0, "is_disabled": 0, "rental_uris": {"ios": "https://dc.lft.to/lastmile_qr_scan", "android": "https://dc.lft.to/lastmile_qr_scan"}}, {"name": "90e00d7ba331e3d635d132032bcf307a", "lon": -77.0374105, "lat": 38.9270585, "type": "electric_bike", "fusion_lon": 0.0, "is_reserved": 0, "bike_id": "90e00d7ba331e3d635d132032bcf307a", "fusion_lat": 0.0, "is_disabled": 0, "rental_uris": {"ios": "https://dc.lft.to/lastmile_qr_scan", "android": "https://dc.lft.to/lastmile_qr_scan"}}, {"name": "e4a892a1fd90511abbba2bda6acf3e76", "lon": -76.9511695, "lat": 38.8878605, "type": "electric_scooter", "fusion_lon": 0.0, "is_reserved": 0, "bike_id": "e4a892a1fd90511abbba2bda6acf3e76", "fusion_lat": 0.0, "is_disabled": 0, "rental_uris": {"ios": "https://dc.lft.to/lastmile_qr_scan", "android": "https://dc.lft.to/lastmile_qr_scan"}}, {"name": "1eafb4bb81f8bc2ea68b97e3d4f8cb75", "lon": -76.975972, "lat": 38.903326166666666, "type": "electric_bike", "fusion_lon": 0.0, "is_reserved": 0, "bike_id": "1eafb4bb81f8bc2ea68b97e3d4f8cb75", "fusion_lat": 0.0, "is_disabled": 0, "rental_uris": {"ios": "https://dc.lft.to/lastmile_qr_scan", "android": "https://dc.lft.to/lastmile_qr_scan"}}, {"name": "eee9737b88b3f9f7c6344d34fcadeee9", "lon": -77.03825683333334, "lat": 38.91819866666667, "type": "electric_scooter", "fusion_lon": 0.0, "is_reserved": 0, "bike_id": "eee9737b88b3f9f7c6344d34fcadeee9", "fusion_lat": 0.0, "is_disabled": 0, "rental_uris": {"ios": "https://dc.lft.to/lastmile_qr_scan", "android": "https://dc.lft.to/lastmile_qr_scan"}}, {"name": "1ec3e6e17b52f90f918d7ab983c79d81", "lon": -77.03124516666666, "lat": 38.914922833333335, "type": "electric_scooter", "fusion_lon": 0.0, "is_reserved": 0, "bike_id": "1ec3e6e17b52f90f918d7ab983c79d81", "fusion_lat": 0.0, "is_disabled": 0, "rental_uris": {"ios": "https://dc.lft.to/lastmile_qr_scan", "android": "https://dc.lft.to/lastmile_qr_scan"}}, {"name": "d2de83476236c3dfa0dc98e77e777f9f", "lon": -77.0380285, "lat": 38.93056683333333, "type": "electric_scooter", "fusion_lon": 0.0, "is_reserved": 0, "bike_id": "d2de83476236c3dfa0dc98e77e777f9f", "fusion_lat": 0.0, "is_disabled": 0, "rental_uris": {"ios": "https://dc.lft.to/lastmile_qr_scan", "android": "https://dc.lft.to/lastmile_qr_scan"}}, {"name": "35d69aeb1b6db17f74112b96df9b7fa4", "lon": -76.9496105, "lat": 38.90497533333333, "type": "electric_scooter", "fusion_lon": 0.0, "is_reserved": 0, "bike_id": "35d69aeb1b6db17f74112b96df9b7fa4", "fusion_lat": 0.0, "is_disabled": 0, "rental_uris": {"ios": "https://dc.lft.to/lastmile_qr_scan", "android": "https://dc.lft.to/lastmile_qr_scan"}}, {"name": "4b17dcf00740e926881a2b3c03695332", "lon": -77.05059533333333, "lat": 38.92426616666667, "type": "electric_scooter", "fusion_lon": 0.0, "is_reserved": 0, "bike_id": "4b17dcf00740e926881a2b3c03695332", "fusion_lat": 0.0, "is_disabled": 0, "rental_uris": {"ios": "https://dc.lft.to/lastmile_qr_scan", "android": "https://dc.lft.to/lastmile_qr_scan"}}, {"name": "3d2dd8497d4dcd3aad1ad9af6ef50d84", "lon": -77.04427633333333, "lat": 38.92125766666667, "type": "electric_scooter", "fusion_lon": 0.0, "is_reserved": 0, "bike_id": "3d2dd8497d4dcd3aad1ad9af6ef50d84", "fusion_lat": 0.0, "is_disabled": 0, "rental_uris": {"ios": "https://dc.lft.to/lastmile_qr_scan", "android": "https://dc.lft.to/lastmile_qr_scan"}}, {"name": "e75e0690b07e12721bf65ec1cd72da60", "lon": -77.03838983333333, "lat": 38.907218, "type": "electric_scooter", "fusion_lon": 0.0, "is_reserved": 0, "bike_id": "e75e0690b07e12721bf65ec1cd72da60", "fusion_lat": 0.0, "is_disabled": 0, "rental_uris": {"ios": "https://dc.lft.to/lastmile_qr_scan", "android": "https://dc.lft.to/lastmile_qr_scan"}}, {"name": "3ed9a58c717a81ef99230354aea0186c", "lon": -77.01642383333333, "lat": 38.87921583333333, "type": "electric_scooter", "fusion_lon": 0.0, "is_reserved": 0, "bike_id": "3ed9a58c717a81ef99230354aea0186c", "fusion_lat": 0.0, "is_disabled": 0, "rental_uris": {"ios": "https://dc.lft.to/lastmile_qr_scan", "android": "https://dc.lft.to/lastmile_qr_scan"}}, {"name": "dfca0d9b8847df11de09ce8a38f1cd99", "lon": -76.997758, "lat": 38.86212283333333, "type": "electric_bike", "fusion_lon": 0.0, "is_reserved": 0, "bike_id": "dfca0d9b8847df11de09ce8a38f1cd99", "fusion_lat": 0.0, "is_disabled": 0, "rental_uris": {"ios": "https://dc.lft.to/lastmile_qr_scan", "android": "https://dc.lft.to/lastmile_qr_scan"}}, {"name": "5fd3b294615cf1d6d977427f70ac834a", "lon": -77.03103083333333, "lat": 38.950757, "type": "electric_scooter", "fusion_lon": 0.0, "is_reserved": 0, "bike_id": "5fd3b294615cf1d6d977427f70ac834a", "fusion_lat": 0.0, "is_disabled": 0, "rental_uris": {"ios": "https://dc.lft.to/lastmile_qr_scan", "android": "https://dc.lft.to/lastmile_qr_scan"}}, {"name": "e536d7312834756e0403d88ff80b8077", "lon": -77.07261916666667, "lat": 38.9334465, "type": "electric_bike", "fusion_lon": 0.0, "is_reserved": 0, "bike_id": "e536d7312834756e0403d88ff80b8077", "fusion_lat": 0.0, "is_disabled": 0, "rental_uris": {"ios": "https://dc.lft.to/lastmile_qr_scan", "android": "https://dc.lft.to/lastmile_qr_scan"}}, {"name": "65beddd223637ccb29820f6b140b56b3", "lon": -77.08403516666667, "lat": 38.908051666666665, "type": "electric_scooter", "fusion_lon": 0.0, "is_reserved": 0, "bike_id": "65beddd223637ccb29820f6b140b56b3", "fusion_lat": 0.0, "is_disabled": 0, "rental_uris": {"ios": "https://dc.lft.to/lastmile_qr_scan", "android": "https://dc.lft.to/lastmile_qr_scan"}}, {"name": "c13c6230600313aa38a9f2fe2a5f3331", "lon": -76.96912583333334, "lat": 38.84611966666667, "type": "electric_bike", "fusion_lon": 0.0, "is_reserved": 0, "bike_id": "c13c6230600313aa38a9f2fe2a5f3331", "fusion_lat": 0.0, "is_disabled": 0, "rental_uris": {"ios": "https://dc.lft.to/lastmile_qr_scan", "android": "https://dc.lft.to/lastmile_qr_scan"}}, {"name": "2978011210a5117334095164562f4db5", "lon": -77.04492016666667, "lat": 38.8428865, "type": "electric_bike", "fusion_lon": 0.0, "is_reserved": 0, "bike_id": "2978011210a5117334095164562f4db5", "fusion_lat": 0.0, "is_disabled": 0, "rental_uris": {"ios": "https://dc.lft.to/lastmile_qr_scan", "android": "https://dc.lft.to/lastmile_qr_scan"}}, {"name": "f5c0b53bc0170951dae0b25fe6e0bdba", "lon": -77.0385755, "lat": 38.91023883333333, "type": "electric_scooter", "fusion_lon": 0.0, "is_reserved": 0, "bike_id": "f5c0b53bc0170951dae0b25fe6e0bdba", "fusion_lat": 0.0, "is_disabled": 0, "rental_uris": {"ios": "https://dc.lft.to/lastmile_qr_scan", "android": "https://dc.lft.to/lastmile_qr_scan"}}, {"name": "51fc24bf18158d93412b4c5164041df8", "lon": -77.00573766666666, "lat": 38.878883333333334, "type": "electric_scooter", "fusion_lon": 0.0, "is_reserved": 0, "bike_id": "51fc24bf18158d93412b4c5164041df8", "fusion_lat": 0.0, "is_disabled": 0, "rental_uris": {"ios": "https://dc.lft.to/lastmile_qr_scan", "android": "https://dc.lft.to/lastmile_qr_scan"}}, {"name": "dd5c8757c3f6961ecb6fb2fc6e216372", "lon": -77.03453633333334, "lat": 38.905952666666664, "type": "electric_scooter", "fusion_lon": 0.0, "is_reserved": 0, "bike_id": "dd5c8757c3f6961ecb6fb2fc6e216372", "fusion_lat": 0.0, "is_disabled": 0, "rental_uris": {"ios": "https://dc.lft.to/lastmile_qr_scan", "android": "https://dc.lft.to/lastmile_qr_scan"}}, {"name": "b11a4409afc107cf4d584935922e98b7", "lon": -77.01836716666666, "lat": 38.90961083333333, "type": "electric_scooter", "fusion_lon": 0.0, "is_reserved": 0, "bike_id": "b11a4409afc107cf4d584935922e98b7", "fusion_lat": 0.0, "is_disabled": 0, "rental_uris": {"ios": "https://dc.lft.to/lastmile_qr_scan", "android": "https://dc.lft.to/lastmile_qr_scan"}}, {"name": "f0c56df08b4893ec169082b647ffccbe", "lon": -77.04492833333333, "lat": 38.91195066666667, "type": "electric_scooter", "fusion_lon": 0.0, "is_reserved": 0, "bike_id": "f0c56df08b4893ec169082b647ffccbe", "fusion_lat": 0.0, "is_disabled": 0, "rental_uris": {"ios": "https://dc.lft.to/lastmile_qr_scan", "android": "https://dc.lft.to/lastmile_qr_scan"}}, {"name": "e13f380c60881191a62a2123bc726280", "lon": -76.9493585, "lat": 38.893474, "type": "electric_scooter", "fusion_lon": 0.0, "is_reserved": 0, "bike_id": "e13f380c60881191a62a2123bc726280", "fusion_lat": 0.0, "is_disabled": 0, "rental_uris": {"ios": "https://dc.lft.to/lastmile_qr_scan", "android": "https://dc.lft.to/lastmile_qr_scan"}}, {"name": "e2ebac9496fe94240b4e325ca5a942e8", "lon": -76.99833866666667, "lat": 38.88476033333333, "type": "electric_scooter", "fusion_lon": 0.0, "is_reserved": 0, "bike_id": "e2ebac9496fe94240b4e325ca5a942e8", "fusion_lat": 0.0, "is_disabled": 0, "rental_uris": {"ios": "https://dc.lft.to/lastmile_qr_scan", "android": "https://dc.lft.to/lastmile_qr_scan"}}, {"name": "8fbd8988fca5a8878d64d4298d8f4b65", "lon": -77.02091433333334, "lat": 38.9371635, "type": "electric_bike", "fusion_lon": 0.0, "is_reserved": 0, "bike_id": "8fbd8988fca5a8878d64d4298d8f4b65", "fusion_lat": 0.0, "is_disabled": 0, "rental_uris": {"ios": "https://dc.lft.to/lastmile_qr_scan", "android": "https://dc.lft.to/lastmile_qr_scan"}}, {"name": "6a4af1c1ecb341203f6a80085d78188f", "lon": -77.0278145, "lat": 38.89701616666667, "type": "electric_scooter", "fusion_lon": 0.0, "is_reserved": 0, "bike_id": "6a4af1c1ecb341203f6a80085d78188f", "fusion_lat": 0.0, "is_disabled": 0, "rental_uris": {"ios": "https://dc.lft.to/lastmile_qr_scan", "android": "https://dc.lft.to/lastmile_qr_scan"}}, {"name": "3ff4b9e5d56f6e3e386b73facfb17895", "lon": -77.042705, "lat": 38.908589, "type": "electric_scooter", "fusion_lon": 0.0, "is_reserved": 0, "bike_id": "3ff4b9e5d56f6e3e386b73facfb17895", "fusion_lat": 0.0, "is_disabled": 0, "rental_uris": {"ios": "https://dc.lft.to/lastmile_qr_scan", "android": "https://dc.lft.to/lastmile_qr_scan"}}, {"name": "db8aabf063c1f682768152b80c538325", "lon": -77.002124, "lat": 38.91449766666667, "type": "electric_scooter", "fusion_lon": 0.0, "is_reserved": 0, "bike_id": "db8aabf063c1f682768152b80c538325", "fusion_lat": 0.0, "is_disabled": 0, "rental_uris": {"ios": "https://dc.lft.to/lastmile_qr_scan", "android": "https://dc.lft.to/lastmile_qr_scan"}}, {"name": "932613b0c6a989f32c790e7f54cd69d3", "lon": -77.04536333333333, "lat": 38.93458183333333, "type": "electric_bike", "fusion_lon": 0.0, "is_reserved": 0, "bike_id": "932613b0c6a989f32c790e7f54cd69d3", "fusion_lat": 0.0, "is_disabled": 0, "rental_uris": {"ios": "https://dc.lft.to/lastmile_qr_scan", "android": "https://dc.lft.to/lastmile_qr_scan"}}, {"name": "9da16f892fa12e444c92f2e748b7e7da", "lon": -77.12062683333333, "lat": 38.85513383333333, "type": "electric_bike", "fusion_lon": 0.0, "is_reserved": 0, "bike_id": "9da16f892fa12e444c92f2e748b7e7da", "fusion_lat": 0.0, "is_disabled": 0, "rental_uris": {"ios": "https://dc.lft.to/lastmile_qr_scan", "android": "https://dc.lft.to/lastmile_qr_scan"}}, {"name": "be14cb15c1fece510f041f40f964765d", "lon": -77.00200933333333, "lat": 38.89349466666667, "type": "electric_scooter", "fusion_lon": 0.0, "is_reserved": 0, "bike_id": "be14cb15c1fece510f041f40f964765d", "fusion_lat": 0.0, "is_disabled": 0, "rental_uris": {"ios": "https://dc.lft.to/lastmile_qr_scan", "android": "https://dc.lft.to/lastmile_qr_scan"}}, {"name": "0bd394ca3d4f8ef881d1787f2693cc66", "lon": -77.00495183333334, "lat": 38.89687583333333, "type": "electric_scooter", "fusion_lon": 0.0, "is_reserved": 0, "bike_id": "0bd394ca3d4f8ef881d1787f2693cc66", "fusion_lat": 0.0, "is_disabled": 0, "rental_uris": {"ios": "https://dc.lft.to/lastmile_qr_scan", "android": "https://dc.lft.to/lastmile_qr_scan"}}, {"name": "e6b59795d53870346ac69da827116c89", "lon": -77.04188766666667, "lat": 38.893578166666664, "type": "electric_scooter", "fusion_lon": 0.0, "is_reserved": 0, "bike_id": "e6b59795d53870346ac69da827116c89", "fusion_lat": 0.0, "is_disabled": 0, "rental_uris": {"ios": "https://dc.lft.to/lastmile_qr_scan", "android": "https://dc.lft.to/lastmile_qr_scan"}}, {"name": "fd9c7e590952f0857886a48e1203d555", "lon": -77.0385725, "lat": 38.910187666666666, "type": "electric_scooter", "fusion_lon": 0.0, "is_reserved": 0, "bike_id": "fd9c7e590952f0857886a48e1203d555", "fusion_lat": 0.0, "is_disabled": 0, "rental_uris": {"ios": "https://dc.lft.to/lastmile_qr_scan", "android": "https://dc.lft.to/lastmile_qr_scan"}}, {"name": "036597923b02be002421935cbb90e9c6", "lon": -77.04516433333333, "lat": 38.89222566666667, "type": "electric_scooter", "fusion_lon": 0.0, "is_reserved": 0, "bike_id": "036597923b02be002421935cbb90e9c6", "fusion_lat": 0.0, "is_disabled": 0, "rental_uris": {"ios": "https://dc.lft.to/lastmile_qr_scan", "android": "https://dc.lft.to/lastmile_qr_scan"}}, {"name": "0e72a8b55a4a76396d92b92264cdc9bf", "lon": -77.039074, "lat": 38.9176395, "type": "electric_scooter", "fusion_lon": 0.0, "is_reserved": 0, "bike_id": "0e72a8b55a4a76396d92b92264cdc9bf", "fusion_lat": 0.0, "is_disabled": 0, "rental_uris": {"ios": "https://dc.lft.to/lastmile_qr_scan", "android": "https://dc.lft.to/lastmile_qr_scan"}}, {"name": "3a174d1d308aebcc7f2ac6a9c3967102", "lon": -77.03662466666667, "lat": 38.91246116666667, "type": "electric_scooter", "fusion_lon": 0.0, "is_reserved": 0, "bike_id": "3a174d1d308aebcc7f2ac6a9c3967102", "fusion_lat": 0.0, "is_disabled": 0, "rental_uris": {"ios": "https://dc.lft.to/lastmile_qr_scan", "android": "https://dc.lft.to/lastmile_qr_scan"}}, {"name": "50c76e3ad82cb580346fae57f5d53b0a", "lon": -77.04477583333333, "lat": 38.91873533333333, "type": "electric_scooter", "fusion_lon": 0.0, "is_reserved": 0, "bike_id": "50c76e3ad82cb580346fae57f5d53b0a", "fusion_lat": 0.0, "is_disabled": 0, "rental_uris": {"ios": "https://dc.lft.to/lastmile_qr_scan", "android": "https://dc.lft.to/lastmile_qr_scan"}}, {"name": "5289273310f7b8bc8d6388a58e6eca8d", "lon": -76.94188533333333, "lat": 38.897526, "type": "electric_scooter", "fusion_lon": 0.0, "is_reserved": 0, "bike_id": "5289273310f7b8bc8d6388a58e6eca8d", "fusion_lat": 0.0, "is_disabled": 0, "rental_uris": {"ios": "https://dc.lft.to/lastmile_qr_scan", "android": "https://dc.lft.to/lastmile_qr_scan"}}, {"name": "738081192a19349eedebdb5a1b6a0a1d", "lon": -77.06408416666666, "lat": 38.905163, "type": "electric_scooter", "fusion_lon": 0.0, "is_reserved": 0, "bike_id": "738081192a19349eedebdb5a1b6a0a1d", "fusion_lat": 0.0, "is_disabled": 0, "rental_uris": {"ios": "https://dc.lft.to/lastmile_qr_scan", "android": "https://dc.lft.to/lastmile_qr_scan"}}, {"name": "cb29b334012b2582b96c1a3822c7a11b", "lon": -77.01759783333334, "lat": 38.8769335, "type": "electric_scooter", "fusion_lon": 0.0, "is_reserved": 0, "bike_id": "cb29b334012b2582b96c1a3822c7a11b", "fusion_lat": 0.0, "is_disabled": 0, "rental_uris": {"ios": "https://dc.lft.to/lastmile_qr_scan", "android": "https://dc.lft.to/lastmile_qr_scan"}}, {"name": "f2cee633d79efe0f23eec8304db6b086", "lon": -77.02829916666667, "lat": 38.96084483333333, "type": "electric_scooter", "fusion_lon": 0.0, "is_reserved": 0, "bike_id": "f2cee633d79efe0f23eec8304db6b086", "fusion_lat": 0.0, "is_disabled": 0, "rental_uris": {"ios": "https://dc.lft.to/lastmile_qr_scan", "android": "https://dc.lft.to/lastmile_qr_scan"}}, {"name": "148edcb21e14e8ecba22ea417d893d60", "lon": -77.07231616666667, "lat": 38.940083, "type": "electric_scooter", "fusion_lon": 0.0, "is_reserved": 0, "bike_id": "148edcb21e14e8ecba22ea417d893d60", "fusion_lat": 0.0, "is_disabled": 0, "rental_uris": {"ios": "https://dc.lft.to/lastmile_qr_scan", "android": "https://dc.lft.to/lastmile_qr_scan"}}, {"name": "2a0646e9cc2b191471a87f5fa3186c02", "lon": -76.99631683333334, "lat": 38.885588, "type": "electric_scooter", "fusion_lon": 0.0, "is_reserved": 0, "bike_id": "2a0646e9cc2b191471a87f5fa3186c02", "fusion_lat": 0.0, "is_disabled": 0, "rental_uris": {"ios": "https://dc.lft.to/lastmile_qr_scan", "android": "https://dc.lft.to/lastmile_qr_scan"}}, {"name": "d9325051481967ff3335bfe3a91b8e1c", "lon": -76.9838175, "lat": 38.86123833333333, "type": "electric_scooter", "fusion_lon": 0.0, "is_reserved": 0, "bike_id": "d9325051481967ff3335bfe3a91b8e1c", "fusion_lat": 0.0, "is_disabled": 0, "rental_uris": {"ios": "https://dc.lft.to/lastmile_qr_scan", "android": "https://dc.lft.to/lastmile_qr_scan"}}, {"name": "c317771dd53be5c28e4656c97ce5597f", "lon": -76.98116116666667, "lat": 38.914673666666665, "type": "electric_scooter", "fusion_lon": 0.0, "is_reserved": 0, "bike_id": "c317771dd53be5c28e4656c97ce5597f", "fusion_lat": 0.0, "is_disabled": 0, "rental_uris": {"ios": "https://dc.lft.to/lastmile_qr_scan", "android": "https://dc.lft.to/lastmile_qr_scan"}}, {"name": "9b25794d55fea6aeecfec72256fa0fd4", "lon": -77.029641, "lat": 38.92393383333334, "type": "electric_scooter", "fusion_lon": 0.0, "is_reserved": 0, "bike_id": "9b25794d55fea6aeecfec72256fa0fd4", "fusion_lat": 0.0, "is_disabled": 0, "rental_uris": {"ios": "https://dc.lft.to/lastmile_qr_scan", "android": "https://dc.lft.to/lastmile_qr_scan"}}, {"name": "20fc53ba5118803942a1c540d8acfa4b", "lon": -77.0230015, "lat": 38.917933, "type": "electric_scooter", "fusion_lon": 0.0, "is_reserved": 0, "bike_id": "20fc53ba5118803942a1c540d8acfa4b", "fusion_lat": 0.0, "is_disabled": 0, "rental_uris": {"ios": "https://dc.lft.to/lastmile_qr_scan", "android": "https://dc.lft.to/lastmile_qr_scan"}}, {"name": "86b67d04202f183bd482efcb218fad6f", "lon": -77.017984, "lat": 38.87674116666667, "type": "electric_scooter", "fusion_lon": 0.0, "is_reserved": 0, "bike_id": "86b67d04202f183bd482efcb218fad6f", "fusion_lat": 0.0, "is_disabled": 0, "rental_uris": {"ios": "https://dc.lft.to/lastmile_qr_scan", "android": "https://dc.lft.to/lastmile_qr_scan"}}, {"name": "8858d1304aaafd15ceb795d35941ba2e", "lon": -77.01855216666667, "lat": 38.9040775, "type": "electric_scooter", "fusion_lon": 0.0, "is_reserved": 0, "bike_id": "8858d1304aaafd15ceb795d35941ba2e", "fusion_lat": 0.0, "is_disabled": 0, "rental_uris": {"ios": "https://dc.lft.to/lastmile_qr_scan", "android": "https://dc.lft.to/lastmile_qr_scan"}}, {"name": "d3fd9124055c2156ed04e8c1554e0819", "lon": -77.0174685, "lat": 38.9025335, "type": "electric_scooter", "fusion_lon": 0.0, "is_reserved": 0, "bike_id": "d3fd9124055c2156ed04e8c1554e0819", "fusion_lat": 0.0, "is_disabled": 0, "rental_uris": {"ios": "https://dc.lft.to/lastmile_qr_scan", "android": "https://dc.lft.to/lastmile_qr_scan"}}, {"name": "e062335bff7dcf68e750e8f4b6598966", "lon": -77.00189016666667, "lat": 38.900149666666664, "type": "electric_scooter", "fusion_lon": 0.0, "is_reserved": 0, "bike_id": "e062335bff7dcf68e750e8f4b6598966", "fusion_lat": 0.0, "is_disabled": 0, "rental_uris": {"ios": "https://dc.lft.to/lastmile_qr_scan", "android": "https://dc.lft.to/lastmile_qr_scan"}}, {"name": "e1efd71b85656e2d676cf5f3e31dc1ab", "lon": -77.0316045, "lat": 38.91256766666667, "type": "electric_scooter", "fusion_lon": 0.0, "is_reserved": 0, "bike_id": "e1efd71b85656e2d676cf5f3e31dc1ab", "fusion_lat": 0.0, "is_disabled": 0, "rental_uris": {"ios": "https://dc.lft.to/lastmile_qr_scan", "android": "https://dc.lft.to/lastmile_qr_scan"}}, {"name": "1d304abd988dfabd49f7a07fd209a7b8", "lon": -77.06408633333334, "lat": 38.840626666666665, "type": "electric_bike", "fusion_lon": 0.0, "is_reserved": 0, "bike_id": "1d304abd988dfabd49f7a07fd209a7b8", "fusion_lat": 0.0, "is_disabled": 0, "rental_uris": {"ios": "https://dc.lft.to/lastmile_qr_scan", "android": "https://dc.lft.to/lastmile_qr_scan"}}, {"name": "6965080891a2c79ee6506929b597406c", "lon": -76.98830583333333, "lat": 38.90038783333333, "type": "electric_scooter", "fusion_lon": 0.0, "is_reserved": 0, "bike_id": "6965080891a2c79ee6506929b597406c", "fusion_lat": 0.0, "is_disabled": 0, "rental_uris": {"ios": "https://dc.lft.to/lastmile_qr_scan", "android": "https://dc.lft.to/lastmile_qr_scan"}}, {"name": "0de7b046486403d2528ae0d28b07c040", "lon": -76.96056966666667, "lat": 38.88402966666666, "type": "electric_bike", "fusion_lon": 0.0, "is_reserved": 0, "bike_id": "0de7b046486403d2528ae0d28b07c040", "fusion_lat": 0.0, "is_disabled": 0, "rental_uris": {"ios": "https://dc.lft.to/lastmile_qr_scan", "android": "https://dc.lft.to/lastmile_qr_scan"}}, {"name": "8fddc7d701886340eeae312e821f5903", "lon": -76.9566645, "lat": 38.894146666666664, "type": "electric_scooter", "fusion_lon": 0.0, "is_reserved": 0, "bike_id": "8fddc7d701886340eeae312e821f5903", "fusion_lat": 0.0, "is_disabled": 0, "rental_uris": {"ios": "https://dc.lft.to/lastmile_qr_scan", "android": "https://dc.lft.to/lastmile_qr_scan"}}, {"name": "1a48fc2a6e1c441fcbb115626bb89ba9", "lon": -77.02300333333334, "lat": 38.8949885, "type": "electric_scooter", "fusion_lon": 0.0, "is_reserved": 0, "bike_id": "1a48fc2a6e1c441fcbb115626bb89ba9", "fusion_lat": 0.0, "is_disabled": 0, "rental_uris": {"ios": "https://dc.lft.to/lastmile_qr_scan", "android": "https://dc.lft.to/lastmile_qr_scan"}}, {"name": "7cbab27e48b399883851c13126d95b8f", "lon": -77.00589083333334, "lat": 38.9056275, "type": "electric_scooter", "fusion_lon": 0.0, "is_reserved": 0, "bike_id": "7cbab27e48b399883851c13126d95b8f", "fusion_lat": 0.0, "is_disabled": 0, "rental_uris": {"ios": "https://dc.lft.to/lastmile_qr_scan", "android": "https://dc.lft.to/lastmile_qr_scan"}}, {"name": "2d47a750e6c9c249f014a6925ff6f0fd", "lon": -76.9677415, "lat": 38.8592675, "type": "electric_scooter", "fusion_lon": 0.0, "is_reserved": 0, "bike_id": "2d47a750e6c9c249f014a6925ff6f0fd", "fusion_lat": 0.0, "is_disabled": 0, "rental_uris": {"ios": "https://dc.lft.to/lastmile_qr_scan", "android": "https://dc.lft.to/lastmile_qr_scan"}}, {"name": "a412333ecc684b2ec48d19258a4e3213", "lon": -77.0232775, "lat": 38.93602516666667, "type": "electric_scooter", "fusion_lon": 0.0, "is_reserved": 0, "bike_id": "a412333ecc684b2ec48d19258a4e3213", "fusion_lat": 0.0, "is_disabled": 0, "rental_uris": {"ios": "https://dc.lft.to/lastmile_qr_scan", "android": "https://dc.lft.to/lastmile_qr_scan"}}, {"name": "0db05dfbada83c2ce714113d18d3150a", "lon": -77.02943783333333, "lat": 38.905119666666664, "type": "electric_scooter", "fusion_lon": 0.0, "is_reserved": 0, "bike_id": "0db05dfbada83c2ce714113d18d3150a", "fusion_lat": 0.0, "is_disabled": 0, "rental_uris": {"ios": "https://dc.lft.to/lastmile_qr_scan", "android": "https://dc.lft.to/lastmile_qr_scan"}}, {"name": "3d48c7ba34eb739dfa2d9955413964a8", "lon": -77.022806, "lat": 38.916476333333335, "type": "electric_scooter", "fusion_lon": 0.0, "is_reserved": 0, "bike_id": "3d48c7ba34eb739dfa2d9955413964a8", "fusion_lat": 0.0, "is_disabled": 0, "rental_uris": {"ios": "https://dc.lft.to/lastmile_qr_scan", "android": "https://dc.lft.to/lastmile_qr_scan"}}, {"name": "4ceb1c6145fbe0ad8b86b01c31d4f60d", "lon": -77.02466633333333, "lat": 38.932993333333336, "type": "electric_scooter", "fusion_lon": 0.0, "is_reserved": 0, "bike_id": "4ceb1c6145fbe0ad8b86b01c31d4f60d", "fusion_lat": 0.0, "is_disabled": 0, "rental_uris": {"ios": "https://dc.lft.to/lastmile_qr_scan", "android": "https://dc.lft.to/lastmile_qr_scan"}}, {"name": "2d510111eed5729e19d9036917b412de", "lon": -77.0453825, "lat": 38.917734333333335, "type": "electric_scooter", "fusion_lon": 0.0, "is_reserved": 0, "bike_id": "2d510111eed5729e19d9036917b412de", "fusion_lat": 0.0, "is_disabled": 0, "rental_uris": {"ios": "https://dc.lft.to/lastmile_qr_scan", "android": "https://dc.lft.to/lastmile_qr_scan"}}, {"name": "9b9993ebe388cca27243b0375617a751", "lon": -77.04843283333334, "lat": 38.916238666666665, "type": "electric_scooter", "fusion_lon": 0.0, "is_reserved": 0, "bike_id": "9b9993ebe388cca27243b0375617a751", "fusion_lat": 0.0, "is_disabled": 0, "rental_uris": {"ios": "https://dc.lft.to/lastmile_qr_scan", "android": "https://dc.lft.to/lastmile_qr_scan"}}, {"name": "2be1bacd3840aa4c3ee8e75d0fde03cb", "lon": -77.02376083333333, "lat": 38.9199905, "type": "electric_scooter", "fusion_lon": 0.0, "is_reserved": 0, "bike_id": "2be1bacd3840aa4c3ee8e75d0fde03cb", "fusion_lat": 0.0, "is_disabled": 0, "rental_uris": {"ios": "https://dc.lft.to/lastmile_qr_scan", "android": "https://dc.lft.to/lastmile_qr_scan"}}, {"name": "e3650359790bf328b0a08a95f978d70b", "lon": -77.02906816666666, "lat": 38.89851766666666, "type": "electric_scooter", "fusion_lon": 0.0, "is_reserved": 0, "bike_id": "e3650359790bf328b0a08a95f978d70b", "fusion_lat": 0.0, "is_disabled": 0, "rental_uris": {"ios": "https://dc.lft.to/lastmile_qr_scan", "android": "https://dc.lft.to/lastmile_qr_scan"}}, {"name": "6282f73e664f0905c6ec3e8395555aa1", "lon": -77.02692533333334, "lat": 38.9135005, "type": "electric_scooter", "fusion_lon": 0.0, "is_reserved": 0, "bike_id": "6282f73e664f0905c6ec3e8395555aa1", "fusion_lat": 0.0, "is_disabled": 0, "rental_uris": {"ios": "https://dc.lft.to/lastmile_qr_scan", "android": "https://dc.lft.to/lastmile_qr_scan"}}, {"name": "b46f48b09f6fd531c65317f90cf4ed3c", "lon": -77.0091725, "lat": 38.895543333333336, "type": "electric_scooter", "fusion_lon": 0.0, "is_reserved": 0, "bike_id": "b46f48b09f6fd531c65317f90cf4ed3c", "fusion_lat": 0.0, "is_disabled": 0, "rental_uris": {"ios": "https://dc.lft.to/lastmile_qr_scan", "android": "https://dc.lft.to/lastmile_qr_scan"}}, {"name": "8062abb2b69438b137629c73034da4f2", "lon": -77.04149116666666, "lat": 38.91959583333333, "type": "electric_scooter", "fusion_lon": 0.0, "is_reserved": 0, "bike_id": "8062abb2b69438b137629c73034da4f2", "fusion_lat": 0.0, "is_disabled": 0, "rental_uris": {"ios": "https://dc.lft.to/lastmile_qr_scan", "android": "https://dc.lft.to/lastmile_qr_scan"}}, {"name": "77a27532e0bd6d41a18dd251ac230448", "lon": -77.041088, "lat": 38.92799633333333, "type": "electric_scooter", "fusion_lon": 0.0, "is_reserved": 0, "bike_id": "77a27532e0bd6d41a18dd251ac230448", "fusion_lat": 0.0, "is_disabled": 0, "rental_uris": {"ios": "https://dc.lft.to/lastmile_qr_scan", "android": "https://dc.lft.to/lastmile_qr_scan"}}, {"name": "25abfa7acc379d67c83fa4135adf9b51", "lon": -77.01347883333334, "lat": 38.89912316666667, "type": "electric_scooter", "fusion_lon": 0.0, "is_reserved": 0, "bike_id": "25abfa7acc379d67c83fa4135adf9b51", "fusion_lat": 0.0, "is_disabled": 0, "rental_uris": {"ios": "https://dc.lft.to/lastmile_qr_scan", "android": "https://dc.lft.to/lastmile_qr_scan"}}, {"name": "ad95e1fd6aafb3c97671b47af5d064ce", "lon": -77.02402, "lat": 38.8924495, "type": "electric_scooter", "fusion_lon": 0.0, "is_reserved": 0, "bike_id": "ad95e1fd6aafb3c97671b47af5d064ce", "fusion_lat": 0.0, "is_disabled": 0, "rental_uris": {"ios": "https://dc.lft.to/lastmile_qr_scan", "android": "https://dc.lft.to/lastmile_qr_scan"}}, {"name": "bb5a83a83a239e9fcb237c6f85c492a6", "lon": -77.02390516666667, "lat": 38.91960366666667, "type": "electric_scooter", "fusion_lon": 0.0, "is_reserved": 0, "bike_id": "bb5a83a83a239e9fcb237c6f85c492a6", "fusion_lat": 0.0, "is_disabled": 0, "rental_uris": {"ios": "https://dc.lft.to/lastmile_qr_scan", "android": "https://dc.lft.to/lastmile_qr_scan"}}, {"name": "7eaf3fe2a70f281233c768420a378c4d", "lon": -77.06077533333334, "lat": 38.885862, "type": "electric_bike", "fusion_lon": 0.0, "is_reserved": 0, "bike_id": "7eaf3fe2a70f281233c768420a378c4d", "fusion_lat": 0.0, "is_disabled": 0, "rental_uris": {"ios": "https://dc.lft.to/lastmile_qr_scan", "android": "https://dc.lft.to/lastmile_qr_scan"}}, {"name": "8070d626ac8b1ec72bb9bc4aa6f826c5", "lon": -77.1310555, "lat": 39.024344, "type": "electric_bike", "fusion_lon": 0.0, "is_reserved": 0, "bike_id": "8070d626ac8b1ec72bb9bc4aa6f826c5", "fusion_lat": 0.0, "is_disabled": 0, "rental_uris": {"ios": "https://dc.lft.to/lastmile_qr_scan", "android": "https://dc.lft.to/lastmile_qr_scan"}}, {"name": "c1b284e1a2e7dc387621c8cfbd0f3c17", "lon": -77.0947735, "lat": 39.030466833333335, "type": "electric_bike", "fusion_lon": 0.0, "is_reserved": 0, "bike_id": "c1b284e1a2e7dc387621c8cfbd0f3c17", "fusion_lat": 0.0, "is_disabled": 0, "rental_uris": {"ios": "https://dc.lft.to/lastmile_qr_scan", "android": "https://dc.lft.to/lastmile_qr_scan"}}, {"name": "189dfc7328f963c2c5a6b73063e9ae75", "lon": -77.01190683333333, "lat": 38.900233166666666, "type": "electric_scooter", "fusion_lon": 0.0, "is_reserved": 0, "bike_id": "189dfc7328f963c2c5a6b73063e9ae75", "fusion_lat": 0.0, "is_disabled": 0, "rental_uris": {"ios": "https://dc.lft.to/lastmile_qr_scan", "android": "https://dc.lft.to/lastmile_qr_scan"}}, {"name": "4e41eb3d449a1b8cade5734f7b3781a4", "lon": -77.02752216666667, "lat": 38.95167383333333, "type": "electric_scooter", "fusion_lon": 0.0, "is_reserved": 0, "bike_id": "4e41eb3d449a1b8cade5734f7b3781a4", "fusion_lat": 0.0, "is_disabled": 0, "rental_uris": {"ios": "https://dc.lft.to/lastmile_qr_scan", "android": "https://dc.lft.to/lastmile_qr_scan"}}, {"name": "7021542ebbc23896d6c32956b8e3e041", "lon": -77.034365, "lat": 38.910134, "type": "electric_scooter", "fusion_lon": 0.0, "is_reserved": 0, "bike_id": "7021542ebbc23896d6c32956b8e3e041", "fusion_lat": 0.0, "is_disabled": 0, "rental_uris": {"ios": "https://dc.lft.to/lastmile_qr_scan", "android": "https://dc.lft.to/lastmile_qr_scan"}}, {"name": "c1cedc4f64bb611dc7e9e8e34de057b4", "lon": -77.0238985, "lat": 38.9165375, "type": "electric_scooter", "fusion_lon": 0.0, "is_reserved": 0, "bike_id": "c1cedc4f64bb611dc7e9e8e34de057b4", "fusion_lat": 0.0, "is_disabled": 0, "rental_uris": {"ios": "https://dc.lft.to/lastmile_qr_scan", "android": "https://dc.lft.to/lastmile_qr_scan"}}, {"name": "2fce042a1b8659d43e12fc048219ae0f", "lon": -77.03706966666667, "lat": 38.9204165, "type": "electric_bike", "fusion_lon": 0.0, "is_reserved": 0, "bike_id": "2fce042a1b8659d43e12fc048219ae0f", "fusion_lat": 0.0, "is_disabled": 0, "rental_uris": {"ios": "https://dc.lft.to/lastmile_qr_scan", "android": "https://dc.lft.to/lastmile_qr_scan"}}, {"name": "0422c018f3e170d1b507030cc3a9988c", "lon": -77.00071433333333, "lat": 38.90144266666667, "type": "electric_scooter", "fusion_lon": 0.0, "is_reserved": 0, "bike_id": "0422c018f3e170d1b507030cc3a9988c", "fusion_lat": 0.0, "is_disabled": 0, "rental_uris": {"ios": "https://dc.lft.to/lastmile_qr_scan", "android": "https://dc.lft.to/lastmile_qr_scan"}}, {"name": "e9c274eb410299a8e235d77a05c3ed4d", "lon": -77.02964316666667, "lat": 38.9398355, "type": "electric_scooter", "fusion_lon": 0.0, "is_reserved": 0, "bike_id": "e9c274eb410299a8e235d77a05c3ed4d", "fusion_lat": 0.0, "is_disabled": 0, "rental_uris": {"ios": "https://dc.lft.to/lastmile_qr_scan", "android": "https://dc.lft.to/lastmile_qr_scan"}}, {"name": "5775a572a6a2ef2ee14cc044137982ce", "lon": -77.025929, "lat": 38.963969166666665, "type": "electric_scooter", "fusion_lon": 0.0, "is_reserved": 0, "bike_id": "5775a572a6a2ef2ee14cc044137982ce", "fusion_lat": 0.0, "is_disabled": 0, "rental_uris": {"ios": "https://dc.lft.to/lastmile_qr_scan", "android": "https://dc.lft.to/lastmile_qr_scan"}}, {"name": "76bbd0d3376ae217dff8c9bd7b255a95", "lon": -77.0160745, "lat": 38.899671166666664, "type": "electric_scooter", "fusion_lon": 0.0, "is_reserved": 0, "bike_id": "76bbd0d3376ae217dff8c9bd7b255a95", "fusion_lat": 0.0, "is_disabled": 0, "rental_uris": {"ios": "https://dc.lft.to/lastmile_qr_scan", "android": "https://dc.lft.to/lastmile_qr_scan"}}, {"name": "48b5dd7fc4fa06dd9886fe008a794d3a", "lon": -77.03321916666667, "lat": 38.913283666666665, "type": "electric_scooter", "fusion_lon": 0.0, "is_reserved": 0, "bike_id": "48b5dd7fc4fa06dd9886fe008a794d3a", "fusion_lat": 0.0, "is_disabled": 0, "rental_uris": {"ios": "https://dc.lft.to/lastmile_qr_scan", "android": "https://dc.lft.to/lastmile_qr_scan"}}, {"name": "8e089e9a867caa9e3762d8e1cc73ec04", "lon": -77.02315016666667, "lat": 38.91788283333333, "type": "electric_scooter", "fusion_lon": 0.0, "is_reserved": 0, "bike_id": "8e089e9a867caa9e3762d8e1cc73ec04", "fusion_lat": 0.0, "is_disabled": 0, "rental_uris": {"ios": "https://dc.lft.to/lastmile_qr_scan", "android": "https://dc.lft.to/lastmile_qr_scan"}}, {"name": "ef87ea0e92e8a8d89cc58b7da10a60ce", "lon": -76.9990315, "lat": 38.94688683333333, "type": "electric_scooter", "fusion_lon": 0.0, "is_reserved": 0, "bike_id": "ef87ea0e92e8a8d89cc58b7da10a60ce", "fusion_lat": 0.0, "is_disabled": 0, "rental_uris": {"ios": "https://dc.lft.to/lastmile_qr_scan", "android": "https://dc.lft.to/lastmile_qr_scan"}}, {"name": "e65bfa890a2008fa6a180ddd1a71bd21", "lon": -76.99511216666667, "lat": 38.879178833333334, "type": "electric_scooter", "fusion_lon": 0.0, "is_reserved": 0, "bike_id": "e65bfa890a2008fa6a180ddd1a71bd21", "fusion_lat": 0.0, "is_disabled": 0, "rental_uris": {"ios": "https://dc.lft.to/lastmile_qr_scan", "android": "https://dc.lft.to/lastmile_qr_scan"}}, {"name": "d805d34f7963a902af5c0029b3bc282b", "lon": -77.04440916666667, "lat": 38.9218515, "type": "electric_scooter", "fusion_lon": 0.0, "is_reserved": 0, "bike_id": "d805d34f7963a902af5c0029b3bc282b", "fusion_lat": 0.0, "is_disabled": 0, "rental_uris": {"ios": "https://dc.lft.to/lastmile_qr_scan", "android": "https://dc.lft.to/lastmile_qr_scan"}}, {"name": "4077fccfd7ac236cf4d00589cc7e90a4", "lon": -77.02090433333333, "lat": 38.921535, "type": "electric_scooter", "fusion_lon": 0.0, "is_reserved": 0, "bike_id": "4077fccfd7ac236cf4d00589cc7e90a4", "fusion_lat": 0.0, "is_disabled": 0, "rental_uris": {"ios": "https://dc.lft.to/lastmile_qr_scan", "android": "https://dc.lft.to/lastmile_qr_scan"}}, {"name": "3f4d857c54f462802aa889893d29de38", "lon": -77.0234995, "lat": 38.9461655, "type": "electric_scooter", "fusion_lon": 0.0, "is_reserved": 0, "bike_id": "3f4d857c54f462802aa889893d29de38", "fusion_lat": 0.0, "is_disabled": 0, "rental_uris": {"ios": "https://dc.lft.to/lastmile_qr_scan", "android": "https://dc.lft.to/lastmile_qr_scan"}}, {"name": "b57fc59cec133477dcfd18d42e4977ce", "lon": -77.01731516666666, "lat": 38.903712666666664, "type": "electric_scooter", "fusion_lon": 0.0, "is_reserved": 0, "bike_id": "b57fc59cec133477dcfd18d42e4977ce", "fusion_lat": 0.0, "is_disabled": 0, "rental_uris": {"ios": "https://dc.lft.to/lastmile_qr_scan", "android": "https://dc.lft.to/lastmile_qr_scan"}}, {"name": "5a78a7bb7a76488d0f03f325eaed3dee", "lon": -77.04730933333333, "lat": 38.91336183333333, "type": "electric_scooter", "fusion_lon": 0.0, "is_reserved": 0, "bike_id": "5a78a7bb7a76488d0f03f325eaed3dee", "fusion_lat": 0.0, "is_disabled": 0, "rental_uris": {"ios": "https://dc.lft.to/lastmile_qr_scan", "android": "https://dc.lft.to/lastmile_qr_scan"}}, {"name": "908c34fb335194c40d79d044158557c2", "lon": -77.00990666666667, "lat": 38.87289083333334, "type": "electric_scooter", "fusion_lon": 0.0, "is_reserved": 0, "bike_id": "908c34fb335194c40d79d044158557c2", "fusion_lat": 0.0, "is_disabled": 0, "rental_uris": {"ios": "https://dc.lft.to/lastmile_qr_scan", "android": "https://dc.lft.to/lastmile_qr_scan"}}, {"name": "d229c3959ea526e24eaf0980cf149b4c", "lon": -77.03424383333333, "lat": 38.91256633333333, "type": "electric_scooter", "fusion_lon": 0.0, "is_reserved": 0, "bike_id": "d229c3959ea526e24eaf0980cf149b4c", "fusion_lat": 0.0, "is_disabled": 0, "rental_uris": {"ios": "https://dc.lft.to/lastmile_qr_scan", "android": "https://dc.lft.to/lastmile_qr_scan"}}, {"name": "d0975d8b5380f7a68463fc62fdf2e972", "lon": -77.07329816666666, "lat": 38.92729116666667, "type": "electric_bike", "fusion_lon": 0.0, "is_reserved": 0, "bike_id": "d0975d8b5380f7a68463fc62fdf2e972", "fusion_lat": 0.0, "is_disabled": 0, "rental_uris": {"ios": "https://dc.lft.to/lastmile_qr_scan", "android": "https://dc.lft.to/lastmile_qr_scan"}}, {"name": "215e7d6f7714dd114e70978896d7117d", "lon": -76.97348783333334, "lat": 38.84964816666667, "type": "electric_scooter", "fusion_lon": 0.0, "is_reserved": 0, "bike_id": "215e7d6f7714dd114e70978896d7117d", "fusion_lat": 0.0, "is_disabled": 0, "rental_uris": {"ios": "https://dc.lft.to/lastmile_qr_scan", "android": "https://dc.lft.to/lastmile_qr_scan"}}, {"name": "8fb0ef9b8ba15682bae3f054dc0667a4", "lon": -77.03862716666667, "lat": 38.91548066666667, "type": "electric_scooter", "fusion_lon": 0.0, "is_reserved": 0, "bike_id": "8fb0ef9b8ba15682bae3f054dc0667a4", "fusion_lat": 0.0, "is_disabled": 0, "rental_uris": {"ios": "https://dc.lft.to/lastmile_qr_scan", "android": "https://dc.lft.to/lastmile_qr_scan"}}, {"name": "52d9759e9423192e6b272a11c1aa3e00", "lon": -77.01761133333333, "lat": 38.87688833333333, "type": "electric_scooter", "fusion_lon": 0.0, "is_reserved": 0, "bike_id": "52d9759e9423192e6b272a11c1aa3e00", "fusion_lat": 0.0, "is_disabled": 0, "rental_uris": {"ios": "https://dc.lft.to/lastmile_qr_scan", "android": "https://dc.lft.to/lastmile_qr_scan"}}, {"name": "1225b67ac9d119d99064179b188ab395", "lon": -77.023917, "lat": 38.91955766666667, "type": "electric_scooter", "fusion_lon": 0.0, "is_reserved": 0, "bike_id": "1225b67ac9d119d99064179b188ab395", "fusion_lat": 0.0, "is_disabled": 0, "rental_uris": {"ios": "https://dc.lft.to/lastmile_qr_scan", "android": "https://dc.lft.to/lastmile_qr_scan"}}, {"name": "0ba4541278b47d004056069c839ae8ba", "lon": -77.02864566666666, "lat": 38.99899, "type": "electric_bike", "fusion_lon": 0.0, "is_reserved": 0, "bike_id": "0ba4541278b47d004056069c839ae8ba", "fusion_lat": 0.0, "is_disabled": 0, "rental_uris": {"ios": "https://dc.lft.to/lastmile_qr_scan", "android": "https://dc.lft.to/lastmile_qr_scan"}}, {"name": "642c9ee1a98f17b0960f8f35268915bb", "lon": -76.9565365, "lat": 38.89614366666667, "type": "electric_scooter", "fusion_lon": 0.0, "is_reserved": 0, "bike_id": "642c9ee1a98f17b0960f8f35268915bb", "fusion_lat": 0.0, "is_disabled": 0, "rental_uris": {"ios": "https://dc.lft.to/lastmile_qr_scan", "android": "https://dc.lft.to/lastmile_qr_scan"}}, {"name": "925b43526fbb5a3023860cf088a30b0f", "lon": -77.0465325, "lat": 39.05502366666666, "type": "electric_bike", "fusion_lon": 0.0, "is_reserved": 0, "bike_id": "925b43526fbb5a3023860cf088a30b0f", "fusion_lat": 0.0, "is_disabled": 0, "rental_uris": {"ios": "https://dc.lft.to/lastmile_qr_scan", "android": "https://dc.lft.to/lastmile_qr_scan"}}, {"name": "6843e2c764fd0f5a108413dbc5c3fa93", "lon": -76.9770645, "lat": 38.902539, "type": "electric_scooter", "fusion_lon": 0.0, "is_reserved": 0, "bike_id": "6843e2c764fd0f5a108413dbc5c3fa93", "fusion_lat": 0.0, "is_disabled": 0, "rental_uris": {"ios": "https://dc.lft.to/lastmile_qr_scan", "android": "https://dc.lft.to/lastmile_qr_scan"}}, {"name": "0af67eebc9d83a0f96c9a0e4fd4aa5dc", "lon": -77.042653, "lat": 38.908653, "type": "electric_scooter", "fusion_lon": 0.0, "is_reserved": 0, "bike_id": "0af67eebc9d83a0f96c9a0e4fd4aa5dc", "fusion_lat": 0.0, "is_disabled": 0, "rental_uris": {"ios": "https://dc.lft.to/lastmile_qr_scan", "android": "https://dc.lft.to/lastmile_qr_scan"}}, {"name": "8aa23a875522a978f6169338a1d097d5", "lon": -77.004308, "lat": 38.87667833333333, "type": "electric_scooter", "fusion_lon": 0.0, "is_reserved": 0, "bike_id": "8aa23a875522a978f6169338a1d097d5", "fusion_lat": 0.0, "is_disabled": 0, "rental_uris": {"ios": "https://dc.lft.to/lastmile_qr_scan", "android": "https://dc.lft.to/lastmile_qr_scan"}}, {"name": "0e35ab140ced3ada7e8579d026a3d6ad", "lon": -77.05000433333333, "lat": 38.892307833333334, "type": "electric_scooter", "fusion_lon": 0.0, "is_reserved": 0, "bike_id": "0e35ab140ced3ada7e8579d026a3d6ad", "fusion_lat": 0.0, "is_disabled": 0, "rental_uris": {"ios": "https://dc.lft.to/lastmile_qr_scan", "android": "https://dc.lft.to/lastmile_qr_scan"}}, {"name": "d1c2e5df192be114a1efe3c1ab56b36b", "lon": -77.029782, "lat": 38.924411166666665, "type": "electric_scooter", "fusion_lon": 0.0, "is_reserved": 0, "bike_id": "d1c2e5df192be114a1efe3c1ab56b36b", "fusion_lat": 0.0, "is_disabled": 0, "rental_uris": {"ios": "https://dc.lft.to/lastmile_qr_scan", "android": "https://dc.lft.to/lastmile_qr_scan"}}, {"name": "b1392e56f811e81b33f813e69d23b97e", "lon": -77.0366845, "lat": 38.927255333333335, "type": "electric_scooter", "fusion_lon": 0.0, "is_reserved": 0, "bike_id": "b1392e56f811e81b33f813e69d23b97e", "fusion_lat": 0.0, "is_disabled": 0, "rental_uris": {"ios": "https://dc.lft.to/lastmile_qr_scan", "android": "https://dc.lft.to/lastmile_qr_scan"}}, {"name": "0238e74e6a87bfab02e08250b2c0f794", "lon": -77.07739416666666, "lat": 38.92373283333333, "type": "electric_scooter", "fusion_lon": 0.0, "is_reserved": 0, "bike_id": "0238e74e6a87bfab02e08250b2c0f794", "fusion_lat": 0.0, "is_disabled": 0, "rental_uris": {"ios": "https://dc.lft.to/lastmile_qr_scan", "android": "https://dc.lft.to/lastmile_qr_scan"}}, {"name": "df46cdd4fc25b11c98d57513681b1ee3", "lon": -77.02342016666667, "lat": 38.945087, "type": "electric_scooter", "fusion_lon": 0.0, "is_reserved": 0, "bike_id": "df46cdd4fc25b11c98d57513681b1ee3", "fusion_lat": 0.0, "is_disabled": 0, "rental_uris": {"ios": "https://dc.lft.to/lastmile_qr_scan", "android": "https://dc.lft.to/lastmile_qr_scan"}}, {"name": "05ba3e0cde7947135253fa28b5bc8a3e", "lon": -76.927334, "lat": 38.889682666666666, "type": "electric_scooter", "fusion_lon": 0.0, "is_reserved": 0, "bike_id": "05ba3e0cde7947135253fa28b5bc8a3e", "fusion_lat": 0.0, "is_disabled": 0, "rental_uris": {"ios": "https://dc.lft.to/lastmile_qr_scan", "android": "https://dc.lft.to/lastmile_qr_scan"}}, {"name": "5c6a1bcefbededa91d2359412c243c6c", "lon": -77.00243633333334, "lat": 38.90275416666667, "type": "electric_scooter", "fusion_lon": 0.0, "is_reserved": 0, "bike_id": "5c6a1bcefbededa91d2359412c243c6c", "fusion_lat": 0.0, "is_disabled": 0, "rental_uris": {"ios": "https://dc.lft.to/lastmile_qr_scan", "android": "https://dc.lft.to/lastmile_qr_scan"}}, {"name": "de51d38455b11dcef2d01401b0309a31", "lon": -76.987995, "lat": 38.9221205, "type": "electric_bike", "fusion_lon": 0.0, "is_reserved": 0, "bike_id": "de51d38455b11dcef2d01401b0309a31", "fusion_lat": 0.0, "is_disabled": 0, "rental_uris": {"ios": "https://dc.lft.to/lastmile_qr_scan", "android": "https://dc.lft.to/lastmile_qr_scan"}}, {"name": "ad00a4149dbd89e3d7f04a65dee37852", "lon": -77.0371585, "lat": 38.910598, "type": "electric_scooter", "fusion_lon": 0.0, "is_reserved": 0, "bike_id": "ad00a4149dbd89e3d7f04a65dee37852", "fusion_lat": 0.0, "is_disabled": 0, "rental_uris": {"ios": "https://dc.lft.to/lastmile_qr_scan", "android": "https://dc.lft.to/lastmile_qr_scan"}}, {"name": "7ed14b8f5410d166b449c11b31d59373", "lon": -76.93156883333333, "lat": 38.8988215, "type": "electric_scooter", "fusion_lon": 0.0, "is_reserved": 0, "bike_id": "7ed14b8f5410d166b449c11b31d59373", "fusion_lat": 0.0, "is_disabled": 0, "rental_uris": {"ios": "https://dc.lft.to/lastmile_qr_scan", "android": "https://dc.lft.to/lastmile_qr_scan"}}, {"name": "f8349b98765acb7bdaa6084d8aee0035", "lon": -77.00871866666667, "lat": 38.9066295, "type": "electric_scooter", "fusion_lon": 0.0, "is_reserved": 0, "bike_id": "f8349b98765acb7bdaa6084d8aee0035", "fusion_lat": 0.0, "is_disabled": 0, "rental_uris": {"ios": "https://dc.lft.to/lastmile_qr_scan", "android": "https://dc.lft.to/lastmile_qr_scan"}},