{"data": {"bikes": [{"lat": 38.8853775, "lon": -76.97889116666667, "is_disabled": 0, "fusion_lon": 0.0, "is_reserved": 0, "name": "bbe62a2c4befdda6956d50d26760d73c", "type": "electric_scooter", "bike_id": "bbe62a2c4befdda6956d50d26760d73c", "rental_uris": {"ios": "https://dc.lft.to/lastmile_qr_scan", "android": "https://dc.lft.to/lastmile_qr_scan"}, "fusion_lat": 0.0}, {"lat": 38.90246483333333, "lon": -76.9848405, "is_disabled": 0, "fusion_lon": 0.0, "is_reserved": 0, "name": "0b8e1f19f2f0f009d6eefc689e3ca805", "type": "electric_scooter", "bike_id": "0b8e1f19f2f0f009d6eefc689e3ca805", "rental_uris": {"ios": "https://dc.lft.to/lastmile_qr_scan", "android": "https://dc.lft.to/lastmile_qr_scan"}, "fusion_lat": 0.0}, {"lat": 38.99510316666667, "lon": -76.99965716666667, "is_disabled": 0, "fusion_lon": 0.0, "is_reserved": 0, "name": "8787e3468f813f28319e98e24e88411f", "type": "electric_bike", "bike_id": "8787e3468f813f28319e98e24e88411f", "rental_uris": {"ios": "https://dc.lft.to/lastmile_qr_scan", "android": "https://dc.lft.to/lastmile_qr_scan"}, "fusion_lat": 0.0}, {"lat": 38.887363666666666, "lon": -77.00318416666667, "is_disabled": 0, "fusion_lon": 0.0, "is_reserved": 0, "name": "da3d93450377fa32df744f34ab67fc05", "type": "electric_scooter", "bike_id": "da3d93450377fa32df744f34ab67fc05", "rental_uris": {"ios": "https://dc.lft.to/lastmile_qr_scan", "android": "https://dc.lft.to/lastmile_qr_scan"}, "fusion_lat": 0.0}, {"lat": 38.909696333333336, "lon": -77.017191, "is_disabled": 0, "fusion_lon": 0.0, "is_reserved": 0, "name": "f25b7c589d9ea6a22d57687d2b8330ef", "type": "electric_scooter", "bike_id": "f25b7c589d9ea6a22d57687d2b8330ef", "rental_uris": {"ios": "https://dc.lft.to/lastmile_qr_scan", "android": "https://dc.lft.to/lastmile_qr_scan"}, "fusion_lat": 0.0}, {"lat": 38.920244333333336, "lon": -77.0316955, "is_disabled": 0, "fusion_lon": 0.0, "is_reserved": 0, "name": "7c825de157b0538b665a4a8b5adb3a85", "type": "electric_scooter", "bike_id": "7c825de157b0538b665a4a8b5adb3a85", "rental_uris": {"ios": "https://dc.lft.to/lastmile_qr_scan", "android": "https://dc.lft.to/lastmile_qr_scan"}, "fusion_lat": 0.0}, {"lat": 38.860415833333334, "lon": -77.00347966666666, "is_disabled": 0, "fusion_lon": 0.0, "is_reserved": 0, "name": "ddb6de38db13b1d47d152888f112dbe2", "type": "electric_scooter", "bike_id": "ddb6de38db13b1d47d152888f112dbe2", "rental_uris": {"ios": "https://dc.lft.to/lastmile_qr_scan", "android": "https://dc.lft.to/lastmile_qr_scan"}, "fusion_lat": 0.0}, {"lat": 38.89966866666666, "lon": -77.02201216666667, "is_disabled": 0, "fusion_lon": 0.0, "is_reserved": 0, "name": "5791199d5d87495f9029d4ced0e98e57", "type": "electric_scooter", "bike_id": "5791199d5d87495f9029d4ced0e98e57", "rental_uris": {"ios": "https://dc.lft.to/lastmile_qr_scan", "android": "https://dc.lft.to/lastmile_qr_scan"}, "fusion_lat": 0.0}, {"lat": 38.904978666666665, "lon": -77.04837066666667, "is_disabled": 0, "fusion_lon": 0.0, "is_reserved": 0, "name": "98506e7773c46fb115d46e6a36af7a9f", "type": "electric_scooter", "bike_id": "98506e7773c46fb115d46e6a36af7a9f", "rental_uris": {"ios": "https://dc.lft.to/lastmile_qr_scan", "android": "https://dc.lft.to/lastmile_qr_scan"}, "fusion_lat": 0.0}, {"lat": 38.97494483333333, "lon": -77.01664783333334, "is_disabled": 0, "fusion_lon": 0.0, "is_reserved": 0, "name": "f11599b08d43af293c4af63eacf6c4e0", "type": "electric_scooter", "bike_id": "f11599b08d43af293c4af63eacf6c4e0", "rental_uris": {"ios": "https://dc.lft.to/lastmile_qr_scan", "android": "https://dc.lft.to/lastmile_qr_scan"}, "fusion_lat": 0.0}, {"lat": 38.998503, "lon": -77.02634583333334, "is_disabled": 0, "fusion_lon": 0.0, "is_reserved": 0, "name": "efc308a7d75e62635e2a313e494c6f15", "type": "electric_bike", "bike_id": "efc308a7d75e62635e2a313e494c6f15", "rental_uris": {"ios": "https://dc.lft.to/lastmile_qr_scan", "android": "https://dc.lft.to/lastmile_qr_scan"}, "fusion_lat": 0.0}, {"lat": 38.896280833333336, "lon": -77.04017066666667, "is_disabled": 0, "fusion_lon": 0.0, "is_reserved": 0, "name": "2fe8355386d62781facc2d280f584823", "type": "electric_scooter", "bike_id": "2fe8355386d62781facc2d280f584823", "rental_uris": {"ios": "https://dc.lft.to/lastmile_qr_scan", "android": "https://dc.lft.to/lastmile_qr_scan"}, "fusion_lat": 0.0}, {"lat": 38.921698, "lon": -77.01802933333333, "is_disabled": 0, "fusion_lon": 0.0, "is_reserved": 0, "name": "2a340066ebd73b058039cbeb820c0a60", "type": "electric_scooter", "bike_id": "2a340066ebd73b058039cbeb820c0a60", "rental_uris": {"ios": "https://dc.lft.to/lastmile_qr_scan", "android": "https://dc.lft.to/lastmile_qr_scan"}, "fusion_lat": 0.0}, {"lat": 38.91794516666667, "lon": -77.0345915, "is_disabled": 0, "fusion_lon": 0.0, "is_reserved": 0, "name": "eb2c20390eea6efa89626f02bcf4d062", "type": "electric_scooter", "bike_id": "eb2c20390eea6efa89626f02bcf4d062", "rental_uris": {"ios": "https://dc.lft.to/lastmile_qr_scan", "android": "https://dc.lft.to/lastmile_qr_scan"}, "fusion_lat": 0.0}, {"lat": 38.908879166666665, "lon": -77.039705, "is_disabled": 0, "fusion_lon": 0.0, "is_reserved": 0, "name": "39839ba04fb541119805687f3e48e927", "type": "electric_scooter", "bike_id": "39839ba04fb541119805687f3e48e927", "rental_uris": {"ios": "https://dc.lft.to/lastmile_qr_scan", "android": "https://dc.lft.to/lastmile_qr_scan"}, "fusion_lat": 0.0}, {"lat": 38.899736833333336, "lon": -77.02457016666666, "is_disabled": 0, "fusion_lon": 0.0, "is_reserved": 0, "name": "e98d26d1c3f4dc1fa8e411209e87a001", "type": "electric_scooter", "bike_id": "e98d26d1c3f4dc1fa8e411209e87a001", "rental_uris": {"ios": "https://dc.lft.to/lastmile_qr_scan", "android": "https://dc.lft.to/lastmile_qr_scan"}, "fusion_lat": 0.0}, {"lat": 38.936770833333334, "lon": -77.0362725, "is_disabled": 0, "fusion_lon": 0.0, "is_reserved": 0, "name": "235fe8cc7e17430494952ac2aceecd8f", "type": "electric_scooter", "bike_id": "235fe8cc7e17430494952ac2aceecd8f", "rental_uris": {"ios": "https://dc.lft.to/lastmile_qr_scan", "android": "https://dc.lft.to/lastmile_qr_scan"}, "fusion_lat": 0.0}, {"lat": 38.91629116666667, "lon": -77.05069066666667, "is_disabled": 0, "fusion_lon": 0.0, "is_reserved": 0, "name": "d1ae598fde31abadf957f172d0c2f733", "type": "electric_scooter", "bike_id": "d1ae598fde31abadf957f172d0c2f733", "rental_uris": {"ios": "https://dc.lft.to/lastmile_qr_scan", "android": "https://dc.lft.to/lastmile_qr_scan"}, "fusion_lat": 0.0}, {"lat": 38.920125166666665, "lon": -77.044027, "is_disabled": 0, "fusion_lon": 0.0, "is_reserved": 0, "name": "3843f02992eeb4e59c2cb8e73544970c", "type": "electric_scooter", "bike_id": "3843f02992eeb4e59c2cb8e73544970c", "rental_uris": {"ios": "https://dc.lft.to/lastmile_qr_scan", "android": "https://dc.lft.to/lastmile_qr_scan"}, "fusion_lat": 0.0}, {"lat": 38.936722, "lon": -77.0362765, "is_disabled": 0, "fusion_lon": 0.0, "is_reserved": 0, "name": "a750f513596d810616d5d00b560cc38d", "type": "electric_scooter", "bike_id": "a750f513596d810616d5d00b560cc38d", "rental_uris": {"ios": "https://dc.lft.to/lastmile_qr_scan", "android": "https://dc.lft.to/lastmile_qr_scan"}, "fusion_lat": 0.0}, {"lat": 38.923987, "lon": -77.02553633333333, "is_disabled": 0, "fusion_lon": 0.0, "is_reserved": 0, "name": "073dbf93834e1778fcd3e0c1b1b7f0d1", "type": "electric_scooter", "bike_id": "073dbf93834e1778fcd3e0c1b1b7f0d1", "rental_uris": {"ios": "https://dc.lft.to/lastmile_qr_scan", "android": "https://dc.lft.to/lastmile_qr_scan"}, "fusion_lat": 0.0}, {"lat": 38.91271066666667, "lon": -77.031435, "is_disabled": 0, "fusion_lon": 0.0, "is_reserved": 0, "name": "88a9ff5d189b518492de83d19a272007", "type": "electric_scooter", "bike_id": "88a9ff5d189b518492de83d19a272007", "rental_uris": {"ios": "https://dc.lft.to/lastmile_qr_scan", "android": "https://dc.lft.to/lastmile_qr_scan"}, "fusion_lat": 0.0}, {"lat": 38.8576615, "lon": -76.9876795, "is_disabled": 0, "fusion_lon": 0.0, "is_reserved": 0, "name": "0a8c2535fc8c46d88aac3542e438b639", "type": "electric_bike", "bike_id": "0a8c2535fc8c46d88aac3542e438b639", "rental_uris": {"ios": "https://dc.lft.to/lastmile_qr_scan", "android": "https://dc.lft.to/lastmile_qr_scan"}, "fusion_lat": 0.0}, {"lat": 38.88744966666667, "lon": -77.02775066666666, "is_disabled": 0, "fusion_lon": 0.0, "is_reserved": 0, "name": "ffe14c24b4a0a13fc47b9621ddcc14da", "type": "electric_scooter", "bike_id": "ffe14c24b4a0a13fc47b9621ddcc14da", "rental_uris": {"ios": "https://dc.lft.to/lastmile_qr_scan", "android": "https://dc.lft.to/lastmile_qr_scan"}, "fusion_lat": 0.0}, {"lat": 38.93098633333334, "lon": -77.01233566666667, "is_disabled": 0, "fusion_lon": 0.0, "is_reserved": 0, "name": "90f6f5aaaa4fa71ffd13a1f3b809c0f5", "type": "electric_scooter", "bike_id": "90f6f5aaaa4fa71ffd13a1f3b809c0f5", "rental_uris": {"ios": "https://dc.lft.to/lastmile_qr_scan", "android": "https://dc.lft.to/lastmile_qr_scan"}, "fusion_lat": 0.0}, {"lat": 38.93601066666667, "lon": -77.03787716666666, "is_disabled": 0, "fusion_lon": 0.0, "is_reserved": 0, "name": "aa0c046bcc2fc380e75d547cb310bb34", "type": "electric_scooter", "bike_id": "aa0c046bcc2fc380e75d547cb310bb34", "rental_uris": {"ios": "https://dc.lft.to/lastmile_qr_scan", "android": "https://dc.lft.to/lastmile_qr_scan"}, "fusion_lat": 0.0}, {"lat": 38.905113, "lon": -77.05045016666666, "is_disabled": 0, "fusion_lon": 0.0, "is_reserved": 0, "name": "29090ce7ea1bb8860b3766038d35e9c0", "type": "electric_scooter", "bike_id": "29090ce7ea1bb8860b3766038d35e9c0", "rental_uris": {"ios": "https://dc.lft.to/lastmile_qr_scan", "android": "https://dc.lft.to/lastmile_qr_scan"}, "fusion_lat": 0.0}, {"lat": 38.90736533333333, "lon": -77.007718, "is_disabled": 0, "fusion_lon": 0.0, "is_reserved": 0, "name": "25ceacd94baaa77a9fe51157ff385026", "type": "electric_scooter", "bike_id": "25ceacd94baaa77a9fe51157ff385026", "rental_uris": {"ios": "https://dc.lft.to/lastmile_qr_scan", "android": "https://dc.lft.to/lastmile_qr_scan"}, "fusion_lat": 0.0}, {"lat": 38.92878966666667, "lon": -77.03740733333333, "is_disabled": 0, "fusion_lon": 0.0, "is_reserved": 0, "name": "10ec5482af432d064f604fd2243c8633", "type": "electric_scooter", "bike_id": "10ec5482af432d064f604fd2243c8633", "rental_uris": {"ios": "https://dc.lft.to/lastmile_qr_scan", "android": "https://dc.lft.to/lastmile_qr_scan"}, "fusion_lat": 0.0}, {"lat": 38.8922505, "lon": -77.0450215, "is_disabled": 0, "fusion_lon": 0.0, "is_reserved": 0, "name": "02961a6d7b8b895fcc73444c9f56d585", "type": "electric_scooter", "bike_id": "02961a6d7b8b895fcc73444c9f56d585", "rental_uris": {"ios": "https://dc.lft.to/lastmile_qr_scan", "android": "https://dc.lft.to/lastmile_qr_scan"}, "fusion_lat": 0.0}, {"lat": 38.928744, "lon": -77.013736, "is_disabled": 0, "fusion_lon": 0.0, "is_reserved": 0, "name": "c78ee133497bfd8c2eaf75184385ae11", "type": "electric_scooter", "bike_id": "c78ee133497bfd8c2eaf75184385ae11", "rental_uris": {"ios": "https://dc.lft.to/lastmile_qr_scan", "android": "https://dc.lft.to/lastmile_qr_scan"}, "fusion_lat": 0.0}, {"lat": 38.9027405, "lon": -77.04242616666667, "is_disabled": 0, "fusion_lon": 0.0, "is_reserved": 0, "name": "22818f2c7a7c5583b897d676fd8d8546", "type": "electric_scooter", "bike_id": "22818f2c7a7c5583b897d676fd8d8546", "rental_uris": {"ios": "https://dc.lft.to/lastmile_qr_scan", "android": "https://dc.lft.to/lastmile_qr_scan"}, "fusion_lat": 0.0}, {"lat": 38.90327533333333, "lon": -77.0162845, "is_disabled": 0, "fusion_lon": 0.0, "is_reserved": 0, "name": "b2ecd20b9101e1827e3b7c8dd0254171", "type": "electric_scooter", "bike_id": "b2ecd20b9101e1827e3b7c8dd0254171", "rental_uris": {"ios": "https://dc.lft.to/lastmile_qr_scan", "android": "https://dc.lft.to/lastmile_qr_scan"}, "fusion_lat": 0.0}, {"lat": 38.875580166666666, "lon": -77.005595, "is_disabled": 0, "fusion_lon": 0.0, "is_reserved": 0, "name": "5ae0d408a3e7f39460126a8acc240776", "type": "electric_scooter", "bike_id": "5ae0d408a3e7f39460126a8acc240776", "rental_uris": {"ios": "https://dc.lft.to/lastmile_qr_scan", "android": "https://dc.lft.to/lastmile_qr_scan"}, "fusion_lat": 0.0}, {"lat": 38.904084833333336, "lon": -76.973367, "is_disabled": 0, "fusion_lon": 0.0, "is_reserved": 0, "name": "50218b0aba92287dabf06439886adff6", "type": "electric_scooter", "bike_id": "50218b0aba92287dabf06439886adff6", "rental_uris": {"ios": "https://dc.lft.to/lastmile_qr_scan", "android": "https://dc.lft.to/lastmile_qr_scan"}, "fusion_lat": 0.0}, {"lat": 38.92628216666667, "lon": -77.03709283333333, "is_disabled": 0, "fusion_lon": 0.0, "is_reserved": 0, "name": "2dd7d6db4e1824e0b2cb36ea7763a5d0", "type": "electric_scooter", "bike_id": "2dd7d6db4e1824e0b2cb36ea7763a5d0", "rental_uris": {"ios": "https://dc.lft.to/lastmile_qr_scan", "android": "https://dc.lft.to/lastmile_qr_scan"}, "fusion_lat": 0.0}, {"lat": 38.950410833333336, "lon": -77.0272355, "is_disabled": 0, "fusion_lon": 0.0, "is_reserved": 0, "name": "10a32dd8aeb4116fea5f25bcd9323fe4", "type": "electric_scooter", "bike_id": "10a32dd8aeb4116fea5f25bcd9323fe4", "rental_uris": {"ios": "https://dc.lft.to/lastmile_qr_scan", "android": "https://dc.lft.to/lastmile_qr_scan"}, "fusion_lat": 0.0}, {"lat": 38.9110915, "lon": -77.04546833333333, "is_disabled": 0, "fusion_lon": 0.0, "is_reserved": 0, "name": "4c59bd4258f26baacdf623358039ad21", "type": "electric_scooter", "bike_id": "4c59bd4258f26baacdf623358039ad21", "rental_uris": {"ios": "https://dc.lft.to/lastmile_qr_scan", "android": "https://dc.lft.to/lastmile_qr_scan"}, "fusion_lat": 0.0}, {"lat": 38.9184205, "lon": -77.024587, "is_disabled": 0, "fusion_lon": 0.0, "is_reserved": 0, "name": "a9688b71c2eb31eece5f6fc97ecc06f0", "type": "electric_scooter", "bike_id": "a9688b71c2eb31eece5f6fc97ecc06f0", "rental_uris": {"ios": "https://dc.lft.to/lastmile_qr_scan", "android": "https://dc.lft.to/lastmile_qr_scan"}, "fusion_lat": 0.0}, {"lat": 38.9103575, "lon": -77.03409983333333, "is_disabled": 0, "fusion_lon": 0.0, "is_reserved": 0, "name": "2ebaab5ca8fe833ec6c2a9a2468ba7d8", "type": "electric_scooter", "bike_id": "2ebaab5ca8fe833ec6c2a9a2468ba7d8", "rental_uris": {"ios": "https://dc.lft.to/lastmile_qr_scan", "android": "https://dc.lft.to/lastmile_qr_scan"}, "fusion_lat": 0.0}, {"lat": 38.92164966666667, "lon": -77.03829166666667, "is_disabled": 0, "fusion_lon": 0.0, "is_reserved": 0, "name": "4d5e278d6548fa05c8cf52392c6b2876", "type": "electric_scooter", "bike_id": "4d5e278d6548fa05c8cf52392c6b2876", "rental_uris": {"ios": "https://dc.lft.to/lastmile_qr_scan", "android": "https://dc.lft.to/lastmile_qr_scan"}, "fusion_lat": 0.0}, {"lat": 38.90710166666667, "lon": -77.04354816666667, "is_disabled": 0, "fusion_lon": 0.0, "is_reserved": 0, "name": "4646faf23e9bdf918138977e0f0138f1", "type": "electric_scooter", "bike_id": "4646faf23e9bdf918138977e0f0138f1", "rental_uris": {"ios": "https://dc.lft.to/lastmile_qr_scan", "android": "https://dc.lft.to/lastmile_qr_scan"}, "fusion_lat": 0.0}, {"lat": 38.877155, "lon": -77.01755583333333, "is_disabled": 0, "fusion_lon": 0.0, "is_reserved": 0, "name": "a2d70a869cd1af84c240334ad57e0c0b", "type": "electric_scooter", "bike_id": "a2d70a869cd1af84c240334ad57e0c0b", "rental_uris": {"ios": "https://dc.lft.to/lastmile_qr_scan", "android": "https://dc.lft.to/lastmile_qr_scan"}, "fusion_lat": 0.0}, {"lat": 38.923852, "lon": -77.02162916666667, "is_disabled": 0, "fusion_lon": 0.0, "is_reserved": 0, "name": "4c68e1bfd40b20413f761efb78ab1606", "type": "electric_scooter", "bike_id": "4c68e1bfd40b20413f761efb78ab1606", "rental_uris": {"ios": "https://dc.lft.to/lastmile_qr_scan", "android": "https://dc.lft.to/lastmile_qr_scan"}, "fusion_lat": 0.0}, {"lat": 38.90167983333333, "lon": -77.0161295, "is_disabled": 0, "fusion_lon": 0.0, "is_reserved": 0, "name": "147ea5cc30b0fd14cb34a7165eaa13bf", "type": "electric_scooter", "bike_id": "147ea5cc30b0fd14cb34a7165eaa13bf", "rental_uris": {"ios": "https://dc.lft.to/lastmile_qr_scan", "android": "https://dc.lft.to/lastmile_qr_scan"}, "fusion_lat": 0.0}, {"lat": 38.900360666666664, "lon": -77.00213716666667, "is_disabled": 0, "fusion_lon": 0.0, "is_reserved": 0, "name": "fef691984b4a0e16fbd0d0c59fd2545f", "type": "electric_scooter", "bike_id": "fef691984b4a0e16fbd0d0c59fd2545f", "rental_uris": {"ios": "https://dc.lft.to/lastmile_qr_scan", "android": "https://dc.lft.to/lastmile_qr_scan"}, "fusion_lat": 0.0}, {"lat": 38.901924666666666, "lon": -77.02352466666666, "is_disabled": 0, "fusion_lon": 0.0, "is_reserved": 0, "name": "f02aa85685134c20a395d67fc0de2fa0", "type": "electric_scooter", "bike_id": "f02aa85685134c20a395d67fc0de2fa0", "rental_uris": {"ios": "https://dc.lft.to/lastmile_qr_scan", "android": "https://dc.lft.to/lastmile_qr_scan"}, "fusion_lat": 0.0}, {"lat": 38.924748666666666, "lon": -77.03503966666666, "is_disabled": 0, "fusion_lon": 0.0, "is_reserved": 0, "name": "36a1817c1919706b2c5f519d0921df15", "type": "electric_scooter", "bike_id": "36a1817c1919706b2c5f519d0921df15", "rental_uris": {"ios": "https://dc.lft.to/lastmile_qr_scan", "android": "https://dc.lft.to/lastmile_qr_scan"}, "fusion_lat": 0.0}, {"lat": 38.90506666666667, "lon": -77.02958483333333, "is_disabled": 0, "fusion_lon": 0.0, "is_reserved": 0, "name": "6392bd8ebf91be8629082f4c90dbc918", "type": "electric_scooter", "bike_id": "6392bd8ebf91be8629082f4c90dbc918", "rental_uris": {"ios": "https://dc.lft.to/lastmile_qr_scan", "android": "https://dc.lft.to/lastmile_qr_scan"}, "fusion_lat": 0.0}, {"lat": 38.934217333333336, "lon": -77.032933, "is_disabled": 0, "fusion_lon": 0.0, "is_reserved": 0, "name": "e87af2070607f07c46142584ef850e39", "type": "electric_scooter", "bike_id": "e87af2070607f07c46142584ef850e39", "rental_uris": {"ios": "https://dc.lft.to/lastmile_qr_scan", "android": "https://dc.lft.to/lastmile_qr_scan"}, "fusion_lat": 0.0}, {"lat": 38.8710265, "lon": -76.96575933333334, "is_disabled": 0, "fusion_lon": 0.0, "is_reserved": 0, "name": "6c3b26924fb2abb100ccdc37a5a2620e", "type": "electric_scooter", "bike_id": "6c3b26924fb2abb100ccdc37a5a2620e", "rental_uris": {"ios": "https://dc.lft.to/lastmile_qr_scan", "android": "https://dc.lft.to/lastmile_qr_scan"}, "fusion_lat": 0.0}, {"lat": 38.91711733333333, "lon": -76.97649516666667, "is_disabled": 0, "fusion_lon": 0.0, "is_reserved": 0, "name": "1f92fd40548ccf4c84edf9915832446b", "type": "electric_scooter", "bike_id": "1f92fd40548ccf4c84edf9915832446b", "rental_uris": {"ios": "https://dc.lft.to/lastmile_qr_scan", "android": "https://dc.lft.to/lastmile_qr_scan"}, "fusion_lat": 0.0}, {"lat": 38.91907716666667, "lon": -77.024793, "is_disabled": 0, "fusion_lon": 0.0, "is_reserved": 0, "name": "4752f0e2c236d3a90cf86bf9dbf969fc", "type": "electric_scooter", "bike_id": "4752f0e2c236d3a90cf86bf9dbf969fc", "rental_uris": {"ios": "https://dc.lft.to/lastmile_qr_scan", "android": "https://dc.lft.to/lastmile_qr_scan"}, "fusion_lat": 0.0}, {"lat": 38.8872065, "lon": -77.02830433333334, "is_disabled": 0, "fusion_lon": 0.0, "is_reserved": 0, "name": "90d5735b7a3352e75b064edd127429b8", "type": "electric_scooter", "bike_id": "90d5735b7a3352e75b064edd127429b8", "rental_uris": {"ios": "https://dc.lft.to/lastmile_qr_scan", "android": "https://dc.lft.to/lastmile_qr_scan"}, "fusion_lat": 0.0}, {"lat": 38.877333, "lon": -77.1185215, "is_disabled": 0, "fusion_lon": 0.0, "is_reserved": 0, "name": "6939aff72839669b184a1dbba871cdb9", "type": "electric_bike", "bike_id": "6939aff72839669b184a1dbba871cdb9", "rental_uris": {"ios": "https://dc.lft.to/lastmile_qr_scan", "android": "https://dc.lft.to/lastmile_qr_scan"}, "fusion_lat": 0.0}, {"lat": 38.91875533333334, "lon": -77.04315783333334, "is_disabled": 0, "fusion_lon": 0.0, "is_reserved": 0, "name": "4ae6d2f9c74bff9ca4f9e05ef581fa19", "type": "electric_scooter", "bike_id": "4ae6d2f9c74bff9ca4f9e05ef581fa19", "rental_uris": {"ios": "https://dc.lft.to/lastmile_qr_scan", "android": "https://dc.lft.to/lastmile_qr_scan"}, "fusion_lat": 0.0}, {"lat": 38.928328, "lon": -76.99590433333333, "is_disabled": 0, "fusion_lon": 0.0, "is_reserved": 0, "name": "f3905aacc555cd1630cd433b916cec0c", "type": "electric_scooter", "bike_id": "f3905aacc555cd1630cd433b916cec0c", "rental_uris": {"ios": "https://dc.lft.to/lastmile_qr_scan", "android": "https://dc.lft.to/lastmile_qr_scan"}, "fusion_lat": 0.0}, {"lat": 38.88003716666667, "lon": -77.00575116666667, "is_disabled": 0, "fusion_lon": 0.0, "is_reserved": 0, "name": "ede6bde6b4d135676786fdef2163a750", "type": "electric_scooter", "bike_id": "ede6bde6b4d135676786fdef2163a750", "rental_uris": {"ios": "https://dc.lft.to/lastmile_qr_scan", "android": "https://dc.lft.to/lastmile_qr_scan"}, "fusion_lat": 0.0}, {"lat": 38.90392883333333, "lon": -77.06007783333334, "is_disabled": 0, "fusion_lon": 0.0, "is_reserved": 0, "name": "369f3d712ee748998bb09858b87a0fed", "type": "electric_scooter", "bike_id": "369f3d712ee748998bb09858b87a0fed", "rental_uris": {"ios": "https://dc.lft.to/lastmile_qr_scan", "android": "https://dc.lft.to/lastmile_qr_scan"}, "fusion_lat": 0.0}, {"lat": 38.9095875, "lon": -77.048277, "is_disabled": 0, "fusion_lon": 0.0, "is_reserved": 0, "name": "d90e784247aba8ba1eea072e659d09fb", "type": "electric_scooter", "bike_id": "d90e784247aba8ba1eea072e659d09fb", "rental_uris": {"ios": "https://dc.lft.to/lastmile_qr_scan", "android": "https://dc.lft.to/lastmile_qr_scan"}, "fusion_lat": 0.0}, {"lat": 38.918226, "lon": -77.02422916666667, "is_disabled": 0, "fusion_lon": 0.0, "is_reserved": 0, "name": "2ab94d665fb9a9d549cb68a66c31f6d3", "type": "electric_scooter", "bike_id": "2ab94d665fb9a9d549cb68a66c31f6d3", "rental_uris": {"ios": "https://dc.lft.to/lastmile_qr_scan", "android": "https://dc.lft.to/lastmile_qr_scan"}, "fusion_lat": 0.0}, {"lat": 38.902736833333336, "lon": -76.928912, "is_disabled": 0, "fusion_lon": 0.0, "is_reserved": 0, "name": "2c096cac459878683adf6c08a6f4848c", "type": "electric_scooter", "bike_id": "2c096cac459878683adf6c08a6f4848c", "rental_uris": {"ios": "https://dc.lft.to/lastmile_qr_scan", "android": "https://dc.lft.to/lastmile_qr_scan"}, "fusion_lat": 0.0}, {"lat": 38.90511466666667, "lon": -77.04778016666667, "is_disabled": 0, "fusion_lon": 0.0, "is_reserved": 0, "name": "21e0c3a48587eb9c34289c4001034876", "type": "electric_scooter", "bike_id": "21e0c3a48587eb9c34289c4001034876", "rental_uris": {"ios": "https://dc.lft.to/lastmile_qr_scan", "android": "https://dc.lft.to/lastmile_qr_scan"}, "fusion_lat": 0.0}, {"lat": 38.91596116666667, "lon": -77.04175583333334, "is_disabled": 0, "fusion_lon": 0.0, "is_reserved": 0, "name": "bcca629fc0eac370a973b48f688c24ac", "type": "electric_scooter", "bike_id": "bcca629fc0eac370a973b48f688c24ac", "rental_uris": {"ios": "https://dc.lft.to/lastmile_qr_scan", "android": "https://dc.lft.to/lastmile_qr_scan"}, "fusion_lat": 0.0}, {"lat": 38.846071, "lon": -76.96915633333333, "is_disabled": 0, "fusion_lon": 0.0, "is_reserved": 0, "name": "15e65621a03cd5f7c17d210950ee3cc9", "type": "electric_bike", "bike_id": "15e65621a03cd5f7c17d210950ee3cc9", "rental_uris": {"ios": "https://dc.lft.to/lastmile_qr_scan", "android": "https://dc.lft.to/lastmile_qr_scan"}, "fusion_lat": 0.0}, {"lat": 38.89470716666666, "lon": -76.98596116666667, "is_disabled": 0, "fusion_lon": 0.0, "is_reserved": 0, "name": "466262c915f1b6bc56f96a155ec0e86f", "type": "electric_scooter", "bike_id": "466262c915f1b6bc56f96a155ec0e86f", "rental_uris": {"ios": "https://dc.lft.to/lastmile_qr_scan", "android": "https://dc.lft.to/lastmile_qr_scan"}, "fusion_lat": 0.0}, {"lat": 38.92306683333334, "lon": -77.03660916666666, "is_disabled": 0, "fusion_lon": 0.0, "is_reserved": 0, "name": "2d74687faccd418b07a1dbeff3b47e60", "type": "electric_scooter", "bike_id": "2d74687faccd418b07a1dbeff3b47e60", "rental_uris": {"ios": "https://dc.lft.to/lastmile_qr_scan", "android": "https://dc.lft.to/lastmile_qr_scan"}, "fusion_lat": 0.0}, {"lat": 38.95428666666667, "lon": -77.01852183333334, "is_disabled": 0, "fusion_lon": 0.0, "is_reserved": 0, "name": "137a357084717966ca1695df0975fcb4", "type": "electric_scooter", "bike_id": "137a357084717966ca1695df0975fcb4", "rental_uris": {"ios": "https://dc.lft.to/lastmile_qr_scan", "android": "https://dc.lft.to/lastmile_qr_scan"}, "fusion_lat": 0.0}, {"lat": 38.876804, "lon": -77.00345166666666, "is_disabled": 0, "fusion_lon": 0.0, "is_reserved": 0, "name": "2b526ffad2814bde55e52a11f889215b", "type": "electric_scooter", "bike_id": "2b526ffad2814bde55e52a11f889215b", "rental_uris": {"ios": "https://dc.lft.to/lastmile_qr_scan", "android": "https://dc.lft.to/lastmile_qr_scan"}, "fusion_lat": 0.0}, {"lat": 38.99493066666667, "lon": -77.07794766666666, "is_disabled": 0, "fusion_lon": 0.0, "is_reserved": 0, "name": "78580e84adad705f4663f86a2a5597b4", "type": "electric_bike", "bike_id": "78580e84adad705f4663f86a2a5597b4", "rental_uris": {"ios": "https://dc.lft.to/lastmile_qr_scan", "android": "https://dc.lft.to/lastmile_qr_scan"}, "fusion_lat": 0.0}, {"lat": 38.91937316666667, "lon": -77.03149166666667, "is_disabled": 0, "fusion_lon": 0.0, "is_reserved": 0, "name": "fdce8571153ea822689a096ff32efc62", "type": "electric_scooter", "bike_id": "fdce8571153ea822689a096ff32efc62", "rental_uris": {"ios": "https://dc.lft.to/lastmile_qr_scan", "android": "https://dc.lft.to/lastmile_qr_scan"}, "fusion_lat": 0.0}, {"lat": 38.920480166666664, "lon": -77.041884, "is_disabled": 0, "fusion_lon": 0.0, "is_reserved": 0, "name": "a50692394618a56bcef5dac5b9d6f6b9", "type": "electric_scooter", "bike_id": "a50692394618a56bcef5dac5b9d6f6b9", "rental_uris": {"ios": "https://dc.lft.to/lastmile_qr_scan", "android": "https://dc.lft.to/lastmile_qr_scan"}, "fusion_lat": 0.0}, {"lat": 38.897506166666666, "lon": -77.0331045, "is_disabled": 0, "fusion_lon": 0.0, "is_reserved": 0, "name": "f1c87a95ac3f249764842a89ebb5d385", "type": "electric_scooter", "bike_id": "f1c87a95ac3f249764842a89ebb5d385", "rental_uris": {"ios": "https://dc.lft.to/lastmile_qr_scan", "android": "https://dc.lft.to/lastmile_qr_scan"}, "fusion_lat": 0.0}, {"lat": 38.919901833333334, "lon": -77.01799583333333, "is_disabled": 0, "fusion_lon": 0.0, "is_reserved": 0, "name": "b325c8bc526c9fbbd9e28714c93431e6", "type": "electric_scooter", "bike_id": "b325c8bc526c9fbbd9e28714c93431e6", "rental_uris": {"ios": "https://dc.lft.to/lastmile_qr_scan", "android": "https://dc.lft.to/lastmile_qr_scan"}, "fusion_lat": 0.0}, {"lat": 38.907231833333334, "lon": -77.07604633333334, "is_disabled": 0, "fusion_lon": 0.0, "is_reserved": 0, "name": "f7cb66fbbdf55b2070125863521a69c1", "type": "electric_scooter", "bike_id": "f7cb66fbbdf55b2070125863521a69c1", "rental_uris": {"ios": "https://dc.lft.to/lastmile_qr_scan", "android": "https://dc.lft.to/lastmile_qr_scan"}, "fusion_lat": 0.0}, {"lat": 38.916784666666665, "lon": -77.0368675, "is_disabled": 0, "fusion_lon": 0.0, "is_reserved": 0, "name": "76cd16f29a4e018d7e123a8696557cc0", "type": "electric_scooter", "bike_id": "76cd16f29a4e018d7e123a8696557cc0", "rental_uris": {"ios": "https://dc.lft.to/lastmile_qr_scan", "android": "https://dc.lft.to/lastmile_qr_scan"}, "fusion_lat": 0.0}, {"lat": 38.911249166666664, "lon": -77.021987, "is_disabled": 0, "fusion_lon": 0.0, "is_reserved": 0, "name": "8d1200e036116f55921ee9af7c2600dd", "type": "electric_scooter", "bike_id": "8d1200e036116f55921ee9af7c2600dd", "rental_uris": {"ios": "https://dc.lft.to/lastmile_qr_scan", "android": "https://dc.lft.to/lastmile_qr_scan"}, "fusion_lat": 0.0}, {"lat": 38.8922225, "lon": -77.04327766666667, "is_disabled": 0, "fusion_lon": 0.0, "is_reserved": 0, "name": "8a362f80a8a0dddb83a07a69294851b0", "type": "electric_scooter", "bike_id": "8a362f80a8a0dddb83a07a69294851b0", "rental_uris": {"ios": "https://dc.lft.to/lastmile_qr_scan", "android": "https://dc.lft.to/lastmile_qr_scan"}, "fusion_lat": 0.0}, {"lat": 38.91416316666667, "lon": -77.02177583333334, "is_disabled": 0, "fusion_lon": 0.0, "is_reserved": 0, "name": "2e49b5e5596407b6109d74683f21d810", "type": "electric_scooter", "bike_id": "2e49b5e5596407b6109d74683f21d810", "rental_uris": {"ios": "https://dc.lft.to/lastmile_qr_scan", "android": "https://dc.lft.to/lastmile_qr_scan"}, "fusion_lat": 0.0}, {"lat": 38.92941916666667, "lon": -77.02759933333333, "is_disabled": 0, "fusion_lon": 0.0, "is_reserved": 0, "name": "c06e265dada2c6d5d2607c303a913778", "type": "electric_scooter", "bike_id": "c06e265dada2c6d5d2607c303a913778", "rental_uris": {"ios": "https://dc.lft.to/lastmile_qr_scan", "android": "https://dc.lft.to/lastmile_qr_scan"}, "fusion_lat": 0.0}, {"lat": 38.9087895, "lon": -77.0325755, "is_disabled": 0, "fusion_lon": 0.0, "is_reserved": 0, "name": "7250ec1064b4f4fd171b262934f8b643", "type": "electric_scooter", "bike_id": "7250ec1064b4f4fd171b262934f8b643", "rental_uris": {"ios": "https://dc.lft.to/lastmile_qr_scan", "android": "https://dc.lft.to/lastmile_qr_scan"}, "fusion_lat": 0.0}, {"lat": 38.905163, "lon": -77.06594933333334, "is_disabled": 0, "fusion_lon": 0.0, "is_reserved": 0, "name": "e96b9e7287d147408e5d4de1439dea72", "type": "electric_scooter", "bike_id": "e96b9e7287d147408e5d4de1439dea72", "rental_uris": {"ios": "https://dc.lft.to/lastmile_qr_scan", "android": "https://dc.lft.to/lastmile_qr_scan"}, "fusion_lat": 0.0}, {"lat": 38.912683, "lon": -77.03539166666667, "is_disabled": 0, "fusion_lon": 0.0, "is_reserved": 0, "name": "b617232122787e9bee84c31799a76aa2", "type": "electric_scooter", "bike_id": "b617232122787e9bee84c31799a76aa2", "rental_uris": {"ios": "https://dc.lft.to/lastmile_qr_scan", "android": "https://dc.lft.to/lastmile_qr_scan"}, "fusion_lat": 0.0}, {"lat": 38.895104, "lon": -77.04655016666666, "is_disabled": 0, "fusion_lon": 0.0, "is_reserved": 0, "name": "b0ab64207bf695dd4f72f73e0997d28d", "type": "electric_scooter", "bike_id": "b0ab64207bf695dd4f72f73e0997d28d", "rental_uris": {"ios": "https://dc.lft.to/lastmile_qr_scan", "android": "https://dc.lft.to/lastmile_qr_scan"}, "fusion_lat": 0.0}, {"lat": 38.900606833333335, "lon": -77.01325966666667, "is_disabled": 0, "fusion_lon": 0.0, "is_reserved": 0, "name": "b521cd4b272d54c03424611f27d54421", "type": "electric_scooter", "bike_id": "b521cd4b272d54c03424611f27d54421", "rental_uris": {"ios": "https://dc.lft.to/lastmile_qr_scan", "android": "https://dc.lft.to/lastmile_qr_scan"}, "fusion_lat": 0.0}, {"lat": 38.9026645, "lon": -77.0176785, "is_disabled": 0, "fusion_lon": 0.0, "is_reserved": 0, "name": "9cda27bcd85d5330ff487346d054ebbc", "type": "electric_scooter", "bike_id": "9cda27bcd85d5330ff487346d054ebbc", "rental_uris": {"ios": "https://dc.lft.to/lastmile_qr_scan", "android": "https://dc.lft.to/lastmile_qr_scan"}, "fusion_lat": 0.0}, {"lat": 38.87219666666667, "lon": -77.0056525, "is_disabled": 0, "fusion_lon": 0.0, "is_reserved": 0, "name": "bfa5a031fec7da3fb74c39b35762b3d4", "type": "electric_scooter", "bike_id": "bfa5a031fec7da3fb74c39b35762b3d4", "rental_uris": {"ios": "https://dc.lft.to/lastmile_qr_scan", "android": "https://dc.lft.to/lastmile_qr_scan"}, "fusion_lat": 0.0}, {"lat": 38.88733533333333, "lon": -77.02381566666666, "is_disabled": 0, "fusion_lon": 0.0, "is_reserved": 0, "name": "2cbf021728067975f1312fa175a02ee6", "type": "electric_scooter", "bike_id": "2cbf021728067975f1312fa175a02ee6", "rental_uris": {"ios": "https://dc.lft.to/lastmile_qr_scan", "android": "https://dc.lft.to/lastmile_qr_scan"}, "fusion_lat": 0.0}, {"lat": 38.88519383333333, "lon": -77.01129816666666, "is_disabled": 0, "fusion_lon": 0.0, "is_reserved": 0, "name": "b44ed4e3c5c889ca51651948fae92732", "type": "electric_scooter", "bike_id": "b44ed4e3c5c889ca51651948fae92732", "rental_uris": {"ios": "https://dc.lft.to/lastmile_qr_scan", "android": "https://dc.lft.to/lastmile_qr_scan"}, "fusion_lat": 0.0}, {"lat": 38.85768916666667, "lon": -76.97300883333334, "is_disabled": 0, "fusion_lon": 0.0, "is_reserved": 0, "name": "e1dcf0fc3c96876646d725c1e9fe4860", "type": "electric_bike", "bike_id": "e1dcf0fc3c96876646d725c1e9fe4860", "rental_uris": {"ios": "https://dc.lft.to/lastmile_qr_scan", "android": "https://dc.lft.to/lastmile_qr_scan"}, "fusion_lat": 0.0}, {"lat": 38.9357225, "lon": -77.03363416666667, "is_disabled": 0, "fusion_lon": 0.0, "is_reserved": 0, "name": "5698f0fc82fb05a0e15762437d8933bc", "type": "electric_scooter", "bike_id": "5698f0fc82fb05a0e15762437d8933bc", "rental_uris": {"ios": "https://dc.lft.to/lastmile_qr_scan", "android": "https://dc.lft.to/lastmile_qr_scan"}, "fusion_lat": 0.0}, {"lat": 38.94404016666667, "lon": -77.0390555, "is_disabled": 0, "fusion_lon": 0.0, "is_reserved": 0, "name": "2b3a31ddc94adf07c725ffbb07ac5e5a", "type": "electric_scooter", "bike_id": "2b3a31ddc94adf07c725ffbb07ac5e5a", "rental_uris": {"ios": "https://dc.lft.to/lastmile_qr_scan", "android": "https://dc.lft.to/lastmile_qr_scan"}, "fusion_lat": 0.0}, {"lat": 38.89241333333333, "lon": -77.02792916666667, "is_disabled": 0, "fusion_lon": 0.0, "is_reserved": 0, "name": "918528f14d67f6cabd38678c30cf2e6e", "type": "electric_scooter", "bike_id": "918528f14d67f6cabd38678c30cf2e6e", "rental_uris": {"ios": "https://dc.lft.to/lastmile_qr_scan", "android": "https://dc.lft.to/lastmile_qr_scan"}, "fusion_lat": 0.0}, {"lat": 38.90260933333333, "lon": -77.02012283333333, "is_disabled": 0, "fusion_lon": 0.0, "is_reserved": 0, "name": "13e94f5deb66f6639ad39004849d04b9", "type": "electric_scooter", "bike_id": "13e94f5deb66f6639ad39004849d04b9", "rental_uris": {"ios": "https://dc.lft.to/lastmile_qr_scan", "android": "https://dc.lft.to/lastmile_qr_scan"}, "fusion_lat": 0.0}, {"lat": 38.90964733333333, "lon": -77.03946133333334, "is_disabled": 0, "fusion_lon": 0.0, "is_reserved": 0, "name": "e2dcbbade726fce8cad121d08166c99c", "type": "electric_scooter", "bike_id": "e2dcbbade726fce8cad121d08166c99c", "rental_uris": {"ios": "https://dc.lft.to/lastmile_qr_scan", "android": "https://dc.lft.to/lastmile_qr_scan"}, "fusion_lat": 0.0}, {"lat": 38.950443, "lon": -77.02708016666666, "is_disabled": 0, "fusion_lon": 0.0, "is_reserved": 0, "name": "745ec349c55853969e415d8c83bd9dcb", "type": "electric_scooter", "bike_id": "745ec349c55853969e415d8c83bd9dcb", "rental_uris": {"ios": "https://dc.lft.to/lastmile_qr_scan", "android": "https://dc.lft.to/lastmile_qr_scan"}, "fusion_lat": 0.0}, {"lat": 38.96191, "lon": -77.0736335, "is_disabled": 0, "fusion_lon": 0.0, "is_reserved": 0, "name": "94106eb4bd85b950f040a80299caa24b", "type": "electric_bike", "bike_id": "94106eb4bd85b950f040a80299caa24b", "rental_uris": {"ios": "https://dc.lft.to/lastmile_qr_scan", "android": "https://dc.lft.to/lastmile_qr_scan"}, "fusion_lat": 0.0}, {"lat": 38.90846, "lon": -77.0125865, "is_disabled": 0, "fusion_lon": 0.0, "is_reserved": 0, "name": "5393afba8f03bb2d1a51dc8cee212bb5", "type": "electric_scooter", "bike_id": "5393afba8f03bb2d1a51dc8cee212bb5", "rental_uris": {"ios": "https://dc.lft.to/lastmile_qr_scan", "android": "https://dc.lft.to/lastmile_qr_scan"}, "fusion_lat": 0.0}, {"lat": 38.91764916666666, "lon": -77.01491316666667, "is_disabled": 0, "fusion_lon": 0.0, "is_reserved": 0, "name": "ef285bbddc0b28b9e2e2539912a8a860", "type": "electric_scooter", "bike_id": "ef285bbddc0b28b9e2e2539912a8a860", "rental_uris": {"ios": "https://dc.lft.to/lastmile_qr_scan", "android": "https://dc.lft.to/lastmile_qr_scan"}, "fusion_lat": 0.0}, {"lat": 38.90139966666667, "lon": -77.01900116666667, "is_disabled": 0, "fusion_lon": 0.0, "is_reserved": 0, "name": "417eefa60206917ab95cf46629f9dd84", "type": "electric_scooter", "bike_id": "417eefa60206917ab95cf46629f9dd84", "rental_uris": {"ios": "https://dc.lft.to/lastmile_qr_scan", "android": "https://dc.lft.to/lastmile_qr_scan"}, "fusion_lat": 0.0}, {"lat": 38.91255983333333, "lon": -77.02812033333333, "is_disabled": 0, "fusion_lon": 0.0, "is_reserved": 0, "name": "8b9c53f05a57172d2b791e24622df402", "type": "electric_scooter", "bike_id": "8b9c53f05a57172d2b791e24622df402", "rental_uris": {"ios": "https://dc.lft.to/lastmile_qr_scan", "android": "https://dc.lft.to/lastmile_qr_scan"}, "fusion_lat": 0.0}, {"lat": 38.91031066666667, "lon": -77.02399466666667, "is_disabled": 0, "fusion_lon": 0.0, "is_reserved": 0, "name": "d14962d3bf24a4079f40dcc4862a359b", "type": "electric_scooter", "bike_id": "d14962d3bf24a4079f40dcc4862a359b", "rental_uris": {"ios": "https://dc.lft.to/lastmile_qr_scan", "android": "https://dc.lft.to/lastmile_qr_scan"}, "fusion_lat": 0.0}, {"lat": 38.914133666666665, "lon": -77.01077, "is_disabled": 0, "fusion_lon": 0.0, "is_reserved": 0, "name": "4ddfd7cf5c31ec00d86c692cd686232f", "type": "electric_scooter", "bike_id": "4ddfd7cf5c31ec00d86c692cd686232f", "rental_uris": {"ios": "https://dc.lft.to/lastmile_qr_scan", "android": "https://dc.lft.to/lastmile_qr_scan"}, "fusion_lat": 0.0}, {"lat": 38.90831516666667, "lon": -77.03558133333334, "is_disabled": 0, "fusion_lon": 0.0, "is_reserved": 0, "name": "5fe6a82e0e5e62c77e3f8f97fa1fc73a", "type": "electric_scooter", "bike_id": "5fe6a82e0e5e62c77e3f8f97fa1fc73a", "rental_uris": {"ios": "https://dc.lft.to/lastmile_qr_scan", "android": "https://dc.lft.to/lastmile_qr_scan"}, "fusion_lat": 0.0}, {"lat": 38.91708833333333, "lon": -77.03865816666666, "is_disabled": 0, "fusion_lon": 0.0, "is_reserved": 0, "name": "f3b7dcb81207bf7a354d37a6d3f3bb7f", "type": "electric_scooter", "bike_id": "f3b7dcb81207bf7a354d37a6d3f3bb7f", "rental_uris": {"ios": "https://dc.lft.to/lastmile_qr_scan", "android": "https://dc.lft.to/lastmile_qr_scan"}, "fusion_lat": 0.0}, {"lat": 38.8951865, "lon": -77.02841866666667, "is_disabled": 0, "fusion_lon": 0.0, "is_reserved": 0, "name": "d7c01ed9fef10a9b2832caac7cfdd98b", "type": "electric_scooter", "bike_id": "d7c01ed9fef10a9b2832caac7cfdd98b", "rental_uris": {"ios": "https://dc.lft.to/lastmile_qr_scan", "android": "https://dc.lft.to/lastmile_qr_scan"}, "fusion_lat": 0.0}, {"lat": 38.87399, "lon": -77.01449666666667, "is_disabled": 0, "fusion_lon": 0.0, "is_reserved": 0, "name": "2d812e236b14f94961dbbda1570332aa", "type": "electric_scooter", "bike_id": "2d812e236b14f94961dbbda1570332aa", "rental_uris": {"ios": "https://dc.lft.to/lastmile_qr_scan", "android": "https://dc.lft.to/lastmile_qr_scan"}, "fusion_lat": 0.0}, {"lat": 38.917761666666664, "lon": -77.04419266666666, "is_disabled": 0, "fusion_lon": 0.0, "is_reserved": 0, "name": "8db0318ec180651893f76edfbef345b7", "type": "electric_scooter", "bike_id": "8db0318ec180651893f76edfbef345b7", "rental_uris": {"ios": "https://dc.lft.to/lastmile_qr_scan", "android": "https://dc.lft.to/lastmile_qr_scan"}, "fusion_lat": 0.0}, {"lat": 38.8746745, "lon": -77.00464233333334, "is_disabled": 0, "fusion_lon": 0.0, "is_reserved": 0, "name": "c01337f5bceddeb416219cbe23274b36", "type": "electric_scooter", "bike_id": "c01337f5bceddeb416219cbe23274b36", "rental_uris": {"ios": "https://dc.lft.to/lastmile_qr_scan", "android": "https://dc.lft.to/lastmile_qr_scan"}, "fusion_lat": 0.0}, {"lat": 38.90343416666666, "lon": -77.035425, "is_disabled": 0, "fusion_lon": 0.0, "is_reserved": 0, "name": "dbb5539746067a17d8dacde5b3d39739", "type": "electric_scooter", "bike_id": "dbb5539746067a17d8dacde5b3d39739", "rental_uris": {"ios": "https://dc.lft.to/lastmile_qr_scan", "android": "https://dc.lft.to/lastmile_qr_scan"}, "fusion_lat": 0.0}, {"lat": 38.902836, "lon": -77.034639, "is_disabled": 0, "fusion_lon": 0.0, "is_reserved": 0, "name": "3936b20b8deb662137b43efd7a1cafa9", "type": "electric_scooter", "bike_id": "3936b20b8deb662137b43efd7a1cafa9", "rental_uris": {"ios": "https://dc.lft.to/lastmile_qr_scan", "android": "https://dc.lft.to/lastmile_qr_scan"}, "fusion_lat": 0.0}, {"lat": 38.89, "lon": -76.9837925, "is_disabled": 0, "fusion_lon": 0.0, "is_reserved": 0, "name": "218a89db5296563cb1ce7dacefbb6396", "type": "electric_scooter", "bike_id": "218a89db5296563cb1ce7dacefbb6396", "rental_uris": {"ios": "https://dc.lft.to/lastmile_qr_scan", "android": "https://dc.lft.to/lastmile_qr_scan"}, "fusion_lat": 0.0}, {"lat": 38.926391333333335, "lon": -77.0384835, "is_disabled": 0, "fusion_lon": 0.0, "is_reserved": 0, "name": "11be3d6ed163970ad070fbacc87ff12e", "type": "electric_scooter", "bike_id": "11be3d6ed163970ad070fbacc87ff12e", "rental_uris": {"ios": "https://dc.lft.to/lastmile_qr_scan", "android": "https://dc.lft.to/lastmile_qr_scan"}, "fusion_lat": 0.0}, {"lat": 38.8762575, "lon": -77.01479083333334, "is_disabled": 0, "fusion_lon": 0.0, "is_reserved": 0, "name": "0df0f76911d50bac5b87e4f36eaadf08", "type": "electric_scooter", "bike_id": "0df0f76911d50bac5b87e4f36eaadf08", "rental_uris": {"ios": "https://dc.lft.to/lastmile_qr_scan", "android": "https://dc.lft.to/lastmile_qr_scan"}, "fusion_lat": 0.0}, {"lat": 38.932107333333335, "lon": -77.03268233333333, "is_disabled": 0, "fusion_lon": 0.0, "is_reserved": 0, "name": "b886f83fa169ec346232200e31c908d5", "type": "electric_scooter", "bike_id": "b886f83fa169ec346232200e31c908d5", "rental_uris": {"ios": "https://dc.lft.to/lastmile_qr_scan", "android": "https://dc.lft.to/lastmile_qr_scan"}, "fusion_lat": 0.0}, {"lat": 38.900286666666666, "lon": -77.01188966666666, "is_disabled": 0, "fusion_lon": 0.0, "is_reserved": 0, "name": "8b032ce77975444a1ed3454640588c1f", "type": "electric_scooter", "bike_id": "8b032ce77975444a1ed3454640588c1f", "rental_uris": {"ios": "https://dc.lft.to/lastmile_qr_scan", "android": "https://dc.lft.to/lastmile_qr_scan"}, "fusion_lat": 0.0}, {"lat": 38.909605666666664, "lon": -77.03424966666667, "is_disabled": 0, "fusion_lon": 0.0, "is_reserved": 0, "name": "c2ec32940595b08c511b079139ccfa14", "type": "electric_scooter", "bike_id": "c2ec32940595b08c511b079139ccfa14", "rental_uris": {"ios": "https://dc.lft.to/lastmile_qr_scan", "android": "https://dc.lft.to/lastmile_qr_scan"}, "fusion_lat": 0.0}, {"lat": 38.92452133333333, "lon": -77.0216835, "is_disabled": 0, "fusion_lon": 0.0, "is_reserved": 0, "name": "4b963e07004e84808cff642629df7cb5", "type": "electric_scooter", "bike_id": "4b963e07004e84808cff642629df7cb5", "rental_uris": {"ios": "https://dc.lft.to/lastmile_qr_scan", "android": "https://dc.lft.to/lastmile_qr_scan"}, "fusion_lat": 0.0}, {"lat": 38.907916166666666, "lon": -77.06360816666667, "is_disabled": 0, "fusion_lon": 0.0, "is_reserved": 0, "name": "716589a5ed5c534a3c103097e599335e", "type": "electric_scooter", "bike_id": "716589a5ed5c534a3c103097e599335e", "rental_uris": {"ios": "https://dc.lft.to/lastmile_qr_scan", "android": "https://dc.lft.to/lastmile_qr_scan"}, "fusion_lat": 0.0}, {"lat": 38.90398866666666, "lon": -77.06810933333334, "is_disabled": 0, "fusion_lon": 0.0, "is_reserved": 0, "name": "2f9e9ca3d97454011ede67e37a81e7fe", "type": "electric_scooter", "bike_id": "2f9e9ca3d97454011ede67e37a81e7fe", "rental_uris": {"ios": "https://dc.lft.to/lastmile_qr_scan", "android": "https://dc.lft.to/lastmile_qr_scan"}, "fusion_lat": 0.0}, {"lat": 38.877134833333336, "lon": -76.99691966666667, "is_disabled": 0, "fusion_lon": 0.0, "is_reserved": 0, "name": "7571e0ac346b14fae8c9d098c188b712", "type": "electric_scooter", "bike_id": "7571e0ac346b14fae8c9d098c188b712", "rental_uris": {"ios": "https://dc.lft.to/lastmile_qr_scan", "android": "https://dc.lft.to/lastmile_qr_scan"}, "fusion_lat": 0.0}, {"lat": 38.89598733333333, "lon": -76.9923135, "is_disabled": 0, "fusion_lon": 0.0, "is_reserved": 0, "name": "142a6b1b76dd23b68f48a00177445c0c", "type": "electric_bike", "bike_id": "142a6b1b76dd23b68f48a00177445c0c", "rental_uris": {"ios": "https://dc.lft.to/lastmile_qr_scan", "android": "https://dc.lft.to/lastmile_qr_scan"}, "fusion_lat": 0.0}, {"lat": 38.908952, "lon": -77.03205433333333, "is_disabled": 0, "fusion_lon": 0.0, "is_reserved": 0, "name": "9c3bdf847103641c360f5d60d4445973", "type": "electric_scooter", "bike_id": "9c3bdf847103641c360f5d60d4445973", "rental_uris": {"ios": "https://dc.lft.to/lastmile_qr_scan", "android": "https://dc.lft.to/lastmile_qr_scan"}, "fusion_lat": 0.0}, {"lat": 38.8851095, "lon": -77.002662, "is_disabled": 0, "fusion_lon": 0.0, "is_reserved": 0, "name": "21e7145a6d9fe9bc409ee1c7aae0eee7", "type": "electric_scooter", "bike_id": "21e7145a6d9fe9bc409ee1c7aae0eee7", "rental_uris": {"ios": "https://dc.lft.to/lastmile_qr_scan", "android": "https://dc.lft.to/lastmile_qr_scan"}, "fusion_lat": 0.0}, {"lat": 38.90857833333333, "lon": -77.063965, "is_disabled": 0, "fusion_lon": 0.0, "is_reserved": 0, "name": "8a1678c3ec2ae635fb9c6edac644c716", "type": "electric_scooter", "bike_id": "8a1678c3ec2ae635fb9c6edac644c716", "rental_uris": {"ios": "https://dc.lft.to/lastmile_qr_scan", "android": "https://dc.lft.to/lastmile_qr_scan"}, "fusion_lat": 0.0}, {"lat": 38.872209, "lon": -77.01222083333333, "is_disabled": 0, "fusion_lon": 0.0, "is_reserved": 0, "name": "3a6cb2e7c6b78047e24ca8299cefb049", "type": "electric_scooter", "bike_id": "3a6cb2e7c6b78047e24ca8299cefb049", "rental_uris": {"ios": "https://dc.lft.to/lastmile_qr_scan", "android": "https://dc.lft.to/lastmile_qr_scan"}, "fusion_lat": 0.0}, {"lat": 38.90959866666667, "lon": -77.046449, "is_disabled": 0, "fusion_lon": 0.0, "is_reserved": 0, "name": "46ff1f6ff8505dc369083f5634d3c3f7", "type": "electric_scooter", "bike_id": "46ff1f6ff8505dc369083f5634d3c3f7", "rental_uris": {"ios": "https://dc.lft.to/lastmile_qr_scan", "android": "https://dc.lft.to/lastmile_qr_scan"}, "fusion_lat": 0.0}, {"lat": 38.95086216666667, "lon": -77.03155966666667, "is_disabled": 0, "fusion_lon": 0.0, "is_reserved": 0, "name": "22117e6f368c6c828c4c096a9eb42729", "type": "electric_scooter", "bike_id": "22117e6f368c6c828c4c096a9eb42729", "rental_uris": {"ios": "https://dc.lft.to/lastmile_qr_scan", "android": "https://dc.lft.to/lastmile_qr_scan"}, "fusion_lat": 0.0}, {"lat": 38.924861166666666, "lon": -77.021386, "is_disabled": 0, "fusion_lon": 0.0, "is_reserved": 0, "name": "835f5edcaf434e9762e6324b83b50527", "type": "electric_scooter", "bike_id": "835f5edcaf434e9762e6324b83b50527", "rental_uris": {"ios": "https://dc.lft.to/lastmile_qr_scan", "android": "https://dc.lft.to/lastmile_qr_scan"}, "fusion_lat": 0.0}, {"lat": 38.91123533333333, "lon": -77.022011, "is_disabled": 0, "fusion_lon": 0.0, "is_reserved": 0, "name": "da23f252063a5d65d888faf0205c7b0c", "type": "electric_scooter", "bike_id": "da23f252063a5d65d888faf0205c7b0c", "rental_uris": {"ios": "https://dc.lft.to/lastmile_qr_scan", "android": "https://dc.lft.to/lastmile_qr_scan"}, "fusion_lat": 0.0}, {"lat": 38.92499766666667, "lon": -77.0240535, "is_disabled": 0, "fusion_lon": 0.0, "is_reserved": 0, "name": "a496beaa1281866e7a31820ff6d4337c", "type": "electric_scooter", "bike_id": "a496beaa1281866e7a31820ff6d4337c", "rental_uris": {"ios": "https://dc.lft.to/lastmile_qr_scan", "android": "https://dc.lft.to/lastmile_qr_scan"}, "fusion_lat": 0.0}, {"lat": 38.892166, "lon": -77.02630066666667, "is_disabled": 0, "fusion_lon": 0.0, "is_reserved": 0, "name": "2eab69a51faba6f012dfc2555662ccef", "type": "electric_scooter", "bike_id": "2eab69a51faba6f012dfc2555662ccef", "rental_uris": {"ios": "https://dc.lft.to/lastmile_qr_scan", "android": "https://dc.lft.to/lastmile_qr_scan"}, "fusion_lat": 0.0}, {"lat": 38.8861135, "lon": -77.00323433333334, "is_disabled": 0, "fusion_lon": 0.0, "is_reserved": 0, "name": "290ea14e8608d53aaf70aacc810393c5", "type": "electric_scooter", "bike_id": "290ea14e8608d53aaf70aacc810393c5", "rental_uris": {"ios": "https://dc.lft.to/lastmile_qr_scan", "android": "https://dc.lft.to/lastmile_qr_scan"}, "fusion_lat": 0.0}, {"lat": 38.90973316666667, "lon": -77.032179, "is_disabled": 0, "fusion_lon": 0.0, "is_reserved": 0, "name": "4343d12f9ec9b1218a98bf17feaaeb57", "type": "electric_scooter", "bike_id": "4343d12f9ec9b1218a98bf17feaaeb57", "rental_uris": {"ios": "https://dc.lft.to/lastmile_qr_scan", "android": "https://dc.lft.to/lastmile_qr_scan"}, "fusion_lat": 0.0}, {"lat": 38.917876666666665, "lon": -77.02298266666666, "is_disabled": 0, "fusion_lon": 0.0, "is_reserved": 0, "name": "ded8cbc86c4dcfe25f90c2e5801b051e", "type": "electric_scooter", "bike_id": "ded8cbc86c4dcfe25f90c2e5801b051e", "rental_uris": {"ios": "https://dc.lft.to/lastmile_qr_scan", "android": "https://dc.lft.to/lastmile_qr_scan"}, "fusion_lat": 0.0}, {"lat": 38.9003625, "lon": -77.00211283333333, "is_disabled": 0, "fusion_lon": 0.0, "is_reserved": 0, "name": "a0d3bbf01c68c457af84e04f4ff9b2f2", "type": "electric_scooter", "bike_id": "a0d3bbf01c68c457af84e04f4ff9b2f2", "rental_uris": {"ios": "https://dc.lft.to/lastmile_qr_scan", "android": "https://dc.lft.to/lastmile_qr_scan"}, "fusion_lat": 0.0}, {"lat": 38.91911666666667, "lon": -77.024055, "is_disabled": 0, "fusion_lon": 0.0, "is_reserved": 0, "name": "bc87d6786f1312943c5136e1de381cc8", "type": "electric_scooter", "bike_id": "bc87d6786f1312943c5136e1de381cc8", "rental_uris": {"ios": "https://dc.lft.to/lastmile_qr_scan", "android": "https://dc.lft.to/lastmile_qr_scan"}, "fusion_lat": 0.0}, {"lat": 38.924395, "lon": -77.02977583333333, "is_disabled": 0, "fusion_lon": 0.0, "is_reserved": 0, "name": "75532979535bfe416b1e5dcd2966d073", "type": "electric_scooter", "bike_id": "75532979535bfe416b1e5dcd2966d073", "rental_uris": {"ios": "https://dc.lft.to/lastmile_qr_scan", "android": "https://dc.lft.to/lastmile_qr_scan"}, "fusion_lat": 0.0}, {"lat": 38.887639666666665, "lon": -77.000371, "is_disabled": 0, "fusion_lon": 0.0, "is_reserved": 0, "name": "7fa3c5f1a201768817a6b48a32b75e34", "type": "electric_scooter", "bike_id": "7fa3c5f1a201768817a6b48a32b75e34", "rental_uris": {"ios": "https://dc.lft.to/lastmile_qr_scan", "android": "https://dc.lft.to/lastmile_qr_scan"}, "fusion_lat": 0.0}, {"lat": 38.901159166666666, "lon": -77.04995683333334, "is_disabled": 0, "fusion_lon": 0.0, "is_reserved": 0, "name": "0d119c4b6bcbfaa1a3b24db645e3eb30", "type": "electric_scooter", "bike_id": "0d119c4b6bcbfaa1a3b24db645e3eb30", "rental_uris": {"ios": "https://dc.lft.to/lastmile_qr_scan", "android": "https://dc.lft.to/lastmile_qr_scan"}, "fusion_lat": 0.0}, {"lat": 38.9079275, "lon": -77.04980933333333, "is_disabled": 0, "fusion_lon": 0.0, "is_reserved": 0, "name": "a2f12e3f9e04d1b0aa900e96763013ae", "type": "electric_scooter", "bike_id": "a2f12e3f9e04d1b0aa900e96763013ae", "rental_uris": {"ios": "https://dc.lft.to/lastmile_qr_scan", "android": "https://dc.lft.to/lastmile_qr_scan"}, "fusion_lat": 0.0}, {"lat": 38.90309716666667, "lon": -76.97811616666667, "is_disabled": 0, "fusion_lon": 0.0, "is_reserved": 0, "name": "d004f94b9f7eb201bdeb5b0a14974320", "type": "electric_scooter", "bike_id": "d004f94b9f7eb201bdeb5b0a14974320", "rental_uris": {"ios": "https://dc.lft.to/lastmile_qr_scan", "android": "https://dc.lft.to/lastmile_qr_scan"}, "fusion_lat": 0.0}, {"lat": 38.93116116666667, "lon": -77.0209855, "is_disabled": 0, "fusion_lon": 0.0, "is_reserved": 0, "name": "0293c28259f8e9d678d37341fa8a245b", "type": "electric_scooter", "bike_id": "0293c28259f8e9d678d37341fa8a245b", "rental_uris": {"ios": "https://dc.lft.to/lastmile_qr_scan", "android": "https://dc.lft.to/lastmile_qr_scan"}, "fusion_lat": 0.0}, {"lat": 38.916157, "lon": -77.02299116666667, "is_disabled": 0, "fusion_lon": 0.0, "is_reserved": 0, "name": "fb977a38d0997b79e2fcb95852f99939", "type": "electric_scooter", "bike_id": "fb977a38d0997b79e2fcb95852f99939", "rental_uris": {"ios": "https://dc.lft.to/lastmile_qr_scan", "android": "https://dc.lft.to/lastmile_qr_scan"}, "fusion_lat": 0.0}, {"lat": 38.88715416666667, "lon": -77.02581833333333, "is_disabled": 0, "fusion_lon": 0.0, "is_reserved": 0, "name": "1d969abdf1cf554b06e3aa1c90fec807", "type": "electric_scooter", "bike_id": "1d969abdf1cf554b06e3aa1c90fec807", "rental_uris": {"ios": "https://dc.lft.to/lastmile_qr_scan", "android": "https://dc.lft.to/lastmile_qr_scan"}, "fusion_lat": 0.0}, {"lat": 38.91615983333333, "lon": -77.0486695, "is_disabled": 0, "fusion_lon": 0.0, "is_reserved": 0, "name": "afafa9f1822fa3f9023b9c0d3f506d32", "type": "electric_scooter", "bike_id": "afafa9f1822fa3f9023b9c0d3f506d32", "rental_uris": {"ios": "https://dc.lft.to/lastmile_qr_scan", "android": "https://dc.lft.to/lastmile_qr_scan"}, "fusion_lat": 0.0}, {"lat": 38.915911333333334, "lon": -77.04658466666666, "is_disabled": 0, "fusion_lon": 0.0, "is_reserved": 0, "name": "197e38afa3fef843101fe248d2439548", "type": "electric_scooter", "bike_id": "197e38afa3fef843101fe248d2439548", "rental_uris": {"ios": "https://dc.lft.to/lastmile_qr_scan", "android": "https://dc.lft.to/lastmile_qr_scan"}, "fusion_lat": 0.0}, {"lat": 38.904721, "lon": -77.04866716666666, "is_disabled": 0, "fusion_lon": 0.0, "is_reserved": 0, "name": "084c55227c7e2f28963059b328c0a146", "type": "electric_scooter", "bike_id": "084c55227c7e2f28963059b328c0a146", "rental_uris": {"ios": "https://dc.lft.to/lastmile_qr_scan", "android": "https://dc.lft.to/lastmile_qr_scan"}, "fusion_lat": 0.0}, {"lat": 38.923343333333335, "lon": -77.05213733333333, "is_disabled": 0, "fusion_lon": 0.0, "is_reserved": 0, "name": "abe5efa5210c37fab897bdb11c700b0e", "type": "electric_scooter", "bike_id": "abe5efa5210c37fab897bdb11c700b0e", "rental_uris": {"ios": "https://dc.lft.to/lastmile_qr_scan", "android": "https://dc.lft.to/lastmile_qr_scan"}, "fusion_lat": 0.0}, {"lat": 38.91709083333333, "lon": -77.03553816666667, "is_disabled": 0, "fusion_lon": 0.0, "is_reserved": 0, "name": "a14bccabe3b32352022087f04fe1ecfb", "type": "electric_scooter", "bike_id": "a14bccabe3b32352022087f04fe1ecfb", "rental_uris": {"ios": "https://dc.lft.to/lastmile_qr_scan", "android": "https://dc.lft.to/lastmile_qr_scan"}, "fusion_lat": 0.0}, {"lat": 38.9007905, "lon": -77.05151366666666, "is_disabled": 0, "fusion_lon": 0.0, "is_reserved": 0, "name": "fd9310ae38dab3b9df02d782b42ae1b9", "type": "electric_scooter", "bike_id": "fd9310ae38dab3b9df02d782b42ae1b9", "rental_uris": {"ios": "https://dc.lft.to/lastmile_qr_scan", "android": "https://dc.lft.to/lastmile_qr_scan"}, "fusion_lat": 0.0}, {"lat": 38.897391166666665, "lon": -77.04809416666667, "is_disabled": 0, "fusion_lon": 0.0, "is_reserved": 0, "name": "6d3c8d202343fc72b5559736cba6ad5d", "type": "electric_scooter", "bike_id": "6d3c8d202343fc72b5559736cba6ad5d", "rental_uris": {"ios": "https://dc.lft.to/lastmile_qr_scan", "android": "https://dc.lft.to/lastmile_qr_scan"}, "fusion_lat": 0.0}, {"lat": 38.902571333333334, "lon": -77.01877716666667, "is_disabled": 0, "fusion_lon": 0.0, "is_reserved": 0, "name": "2f8c7b5bcef64c6ad8064a1a49f62832", "type": "electric_scooter", "bike_id": "2f8c7b5bcef64c6ad8064a1a49f62832", "rental_uris": {"ios": "https://dc.lft.to/lastmile_qr_scan", "android": "https://dc.lft.to/lastmile_qr_scan"}, "fusion_lat": 0.0}, {"lat": 38.900886666666665, "lon": -77.050506, "is_disabled": 0, "fusion_lon": 0.0, "is_reserved": 0, "name": "f1d40af60174097f320dbf1b1ea8e30d", "type": "electric_scooter", "bike_id": "f1d40af60174097f320dbf1b1ea8e30d", "rental_uris": {"ios": "https://dc.lft.to/lastmile_qr_scan", "android": "https://dc.lft.to/lastmile_qr_scan"}, "fusion_lat": 0.0}, {"lat": 38.9679435, "lon": -77.024256, "is_disabled": 0, "fusion_lon": 0.0, "is_reserved": 0, "name": "24f6f2c05f64d2a5f679677e0004e047", "type": "electric_scooter", "bike_id": "24f6f2c05f64d2a5f679677e0004e047", "rental_uris": {"ios": "https://dc.lft.to/lastmile_qr_scan", "android": "https://dc.lft.to/lastmile_qr_scan"}, "fusion_lat": 0.0}, {"lat": 38.94182933333333, "lon": -77.02491833333333, "is_disabled": 0, "fusion_lon": 0.0, "is_reserved": 0, "name": "17d1bc0468a300ce2146c79f689aaa44", "type": "electric_scooter", "bike_id": "17d1bc0468a300ce2146c79f689aaa44", "rental_uris": {"ios": "https://dc.lft.to/lastmile_qr_scan", "android": "https://dc.lft.to/lastmile_qr_scan"}, "fusion_lat": 0.0}, {"lat": 38.89543883333333, "lon": -76.98339933333334, "is_disabled": 0, "fusion_lon": 0.0, "is_reserved": 0, "name": "c92bcfeebe747a904371a05b8d109314", "type": "electric_scooter", "bike_id": "c92bcfeebe747a904371a05b8d109314", "rental_uris": {"ios": "https://dc.lft.to/lastmile_qr_scan", "android": "https://dc.lft.to/lastmile_qr_scan"}, "fusion_lat": 0.0}, {"lat": 38.9174915, "lon": -77.0248985, "is_disabled": 0, "fusion_lon": 0.0, "is_reserved": 0, "name": "e38fca50fa60f1523930550c0a6a31ae", "type": "electric_scooter", "bike_id": "e38fca50fa60f1523930550c0a6a31ae", "rental_uris": {"ios": "https://dc.lft.to/lastmile_qr_scan", "android": "https://dc.lft.to/lastmile_qr_scan"}, "fusion_lat": 0.0}, {"lat": 38.900797, "lon": -76.92958083333333, "is_disabled": 0, "fusion_lon": 0.0, "is_reserved": 0, "name": "ed4c09b1ae3c3736a9663ec286302228", "type": "electric_scooter", "bike_id": "ed4c09b1ae3c3736a9663ec286302228", "rental_uris": {"ios": "https://dc.lft.to/lastmile_qr_scan", "android": "https://dc.lft.to/lastmile_qr_scan"}, "fusion_lat": 0.0}, {"lat": 38.90031116666667, "lon": -76.9913335, "is_disabled": 0, "fusion_lon": 0.0, "is_reserved": 0, "name": "6c55bf6efe6f77e14ef9bca1be723a32", "type": "electric_scooter", "bike_id": "6c55bf6efe6f77e14ef9bca1be723a32", "rental_uris": {"ios": "https://dc.lft.to/lastmile_qr_scan", "android": "https://dc.lft.to/lastmile_qr_scan"}, "fusion_lat": 0.0}, {"lat": 38.842777166666664, "lon": -76.98840466666667, "is_disabled": 0, "fusion_lon": 0.0, "is_reserved": 0, "name": "5b8c3edd602bc91fd92f00ca20b2bd44", "type": "electric_bike", "bike_id": "5b8c3edd602bc91fd92f00ca20b2bd44", "rental_uris": {"ios": "https://dc.lft.to/lastmile_qr_scan", "android": "https://dc.lft.to/lastmile_qr_scan"}, "fusion_lat": 0.0}, {"lat": 38.921645, "lon": -77.03834716666667, "is_disabled": 0, "fusion_lon": 0.0, "is_reserved": 0, "name": "0c1f48d6be5c97374c267b384ed9aab9", "type": "electric_scooter", "bike_id": "0c1f48d6be5c97374c267b384ed9aab9", "rental_uris": {"ios": "https://dc.lft.to/lastmile_qr_scan", "android": "https://dc.lft.to/lastmile_qr_scan"}, "fusion_lat": 0.0}, {"lat": 38.90260833333333, "lon": -77.02782866666666, "is_disabled": 0, "fusion_lon": 0.0, "is_reserved": 0, "name": "dd0132db01c4c2ddbc1bc81145dc7438", "type": "electric_scooter", "bike_id": "dd0132db01c4c2ddbc1bc81145dc7438", "rental_uris": {"ios": "https://dc.lft.to/lastmile_qr_scan", "android": "https://dc.lft.to/lastmile_qr_scan"}, "fusion_lat": 0.0}, {"lat": 38.91977516666667, "lon": -77.02345383333333, "is_disabled": 0, "fusion_lon": 0.0, "is_reserved": 0, "name": "e3d5dc815d9d8e28ee08a2311b6f1850", "type": "electric_scooter", "bike_id": "e3d5dc815d9d8e28ee08a2311b6f1850", "rental_uris": {"ios": "https://dc.lft.to/lastmile_qr_scan", "android": "https://dc.lft.to/lastmile_qr_scan"}, "fusion_lat": 0.0}, {"lat": 38.90022733333333, "lon": -76.9953585, "is_disabled": 0, "fusion_lon": 0.0, "is_reserved": 0, "name": "4cf0dd3735ef105813bfee212acbd332", "type": "electric_scooter", "bike_id": "4cf0dd3735ef105813bfee212acbd332", "rental_uris": {"ios": "https://dc.lft.to/lastmile_qr_scan", "android": "https://dc.lft.to/lastmile_qr_scan"}, "fusion_lat": 0.0}, {"lat": 38.92041416666667, "lon": -77.03709183333333, "is_disabled": 0, "fusion_lon": 0.0, "is_reserved": 0, "name": "ffa9d3537cfd649fdb6938740b52f37a", "type": "electric_scooter", "bike_id": "ffa9d3537cfd649fdb6938740b52f37a", "rental_uris": {"ios": "https://dc.lft.to/lastmile_qr_scan", "android": "https://dc.lft.to/lastmile_qr_scan"}, "fusion_lat": 0.0}, {"lat": 38.8667415, "lon": -76.98905916666666, "is_disabled": 0, "fusion_lon": 0.0, "is_reserved": 0, "name": "a67b78db1bbc37e1731688490e40463f", "type": "electric_scooter", "bike_id": "a67b78db1bbc37e1731688490e40463f", "rental_uris": {"ios": "https://dc.lft.to/lastmile_qr_scan", "android": "https://dc.lft.to/lastmile_qr_scan"}, "fusion_lat": 0.0}, {"lat": 38.877187666666664, "lon": -77.0068405, "is_disabled": 0, "fusion_lon": 0.0, "is_reserved": 0, "name": "567da08a07fc36ed91044f8a42dc47a1", "type": "electric_scooter", "bike_id": "567da08a07fc36ed91044f8a42dc47a1", "rental_uris": {"ios": "https://dc.lft.to/lastmile_qr_scan", "android": "https://dc.lft.to/lastmile_qr_scan"}, "fusion_lat": 0.0}, {"lat": 38.87458516666667, "lon": -77.00549733333334, "is_disabled": 0, "fusion_lon": 0.0, "is_reserved": 0, "name": "641a60020fc99d775c83f9b65657bba6", "type": "electric_scooter", "bike_id": "641a60020fc99d775c83f9b65657bba6", "rental_uris": {"ios": "https://dc.lft.to/lastmile_qr_scan", "android": "https://dc.lft.to/lastmile_qr_scan"}, "fusion_lat": 0.0}, {"lat": 38.922217333333336, "lon": -77.04336866666667, "is_disabled": 0, "fusion_lon": 0.0, "is_reserved": 0, "name": "bfc2bd890973e11493dfb051b3fd64c2", "type": "electric_scooter", "bike_id": "bfc2bd890973e11493dfb051b3fd64c2", "rental_uris": {"ios": "https://dc.lft.to/lastmile_qr_scan", "android": "https://dc.lft.to/lastmile_qr_scan"}, "fusion_lat": 0.0}, {"lat": 38.911099166666666, "lon": -77.04359933333333, "is_disabled": 0, "fusion_lon": 0.0, "is_reserved": 0, "name": "3deaeac1112092d2d623087f13c21fd1", "type": "electric_scooter", "bike_id": "3deaeac1112092d2d623087f13c21fd1", "rental_uris": {"ios": "https://dc.lft.to/lastmile_qr_scan", "android": "https://dc.lft.to/lastmile_qr_scan"}, "fusion_lat": 0.0}, {"lat": 38.95393516666667, "lon": -77.0279565, "is_disabled": 0, "fusion_lon": 0.0, "is_reserved": 0, "name": "c18c0da5f7221d12a5420942937e8be9", "type": "electric_scooter", "bike_id": "c18c0da5f7221d12a5420942937e8be9", "rental_uris": {"ios": "https://dc.lft.to/lastmile_qr_scan", "android": "https://dc.lft.to/lastmile_qr_scan"}, "fusion_lat": 0.0}, {"lat": 38.9173015, "lon": -77.019126, "is_disabled": 0, "fusion_lon": 0.0, "is_reserved": 0, "name": "4a3625a58890a6c94f615aa65af0bf13", "type": "electric_scooter", "bike_id": "4a3625a58890a6c94f615aa65af0bf13", "rental_uris": {"ios": "https://dc.lft.to/lastmile_qr_scan", "android": "https://dc.lft.to/lastmile_qr_scan"}, "fusion_lat": 0.0}, {"lat": 38.88731883333333, "lon": -77.03183283333334, "is_disabled": 0, "fusion_lon": 0.0, "is_reserved": 0, "name": "2ad15cbac60654bbd303739f543c7294", "type": "electric_scooter", "bike_id": "2ad15cbac60654bbd303739f543c7294", "rental_uris": {"ios": "https://dc.lft.to/lastmile_qr_scan", "android": "https://dc.lft.to/lastmile_qr_scan"}, "fusion_lat": 0.0}, {"lat": 38.881191666666666, "lon": -77.01742966666667, "is_disabled": 0, "fusion_lon": 0.0, "is_reserved": 0, "name": "62cb044068f047e8bec79abb9398405d", "type": "electric_scooter", "bike_id": "62cb044068f047e8bec79abb9398405d", "rental_uris": {"ios": "https://dc.lft.to/lastmile_qr_scan", "android": "https://dc.lft.to/lastmile_qr_scan"}, "fusion_lat": 0.0}, {"lat": 38.915539333333335, "lon": -77.02846966666667, "is_disabled": 0, "fusion_lon": 0.0, "is_reserved": 0, "name": "9b205432358df9d21b65529fc2b3f684", "type": "electric_scooter", "bike_id": "9b205432358df9d21b65529fc2b3f684", "rental_uris": {"ios": "https://dc.lft.to/lastmile_qr_scan", "android": "https://dc.lft.to/lastmile_qr_scan"}, "fusion_lat": 0.0}, {"lat": 38.899052166666664, "lon": -77.02377083333333, "is_disabled": 0, "fusion_lon": 0.0, "is_reserved": 0, "name": "ed3418647c573fa177bf0ace6f4e99b8", "type": "electric_scooter", "bike_id": "ed3418647c573fa177bf0ace6f4e99b8", "rental_uris": {"ios": "https://dc.lft.to/lastmile_qr_scan", "android": "https://dc.lft.to/lastmile_qr_scan"}, "fusion_lat": 0.0}, {"lat": 38.953315333333336, "lon": -77.01651966666667, "is_disabled": 0, "fusion_lon": 0.0, "is_reserved": 0, "name": "b75dc8d704624ed649eb320c3a6706ba", "type": "electric_bike", "bike_id": "b75dc8d704624ed649eb320c3a6706ba", "rental_uris": {"ios": "https://dc.lft.to/lastmile_qr_scan", "android": "https://dc.lft.to/lastmile_qr_scan"}, "fusion_lat": 0.0}, {"lat": 38.92298866666667, "lon": -77.04272016666667, "is_disabled": 0, "fusion_lon": 0.0, "is_reserved": 0, "name": "0eabc9283d765cee3f12eeb2880f866e", "type": "electric_scooter", "bike_id": "0eabc9283d765cee3f12eeb2880f866e", "rental_uris": {"ios": "https://dc.lft.to/lastmile_qr_scan", "android": "https://dc.lft.to/lastmile_qr_scan"}, "fusion_lat": 0.0}, {"lat": 38.92612033333333, "lon": -77.02159216666666, "is_disabled": 0, "fusion_lon": 0.0, "is_reserved": 0, "name": "80adfcc6f56f430c0ed3c0e4c2939609", "type": "electric_scooter", "bike_id": "80adfcc6f56f430c0ed3c0e4c2939609", "rental_uris": {"ios": "https://dc.lft.to/lastmile_qr_scan", "android": "https://dc.lft.to/lastmile_qr_scan"}, "fusion_lat": 0.0}, {"lat": 38.907195, "lon": -77.02527516666666, "is_disabled": 0, "fusion_lon": 0.0, "is_reserved": 0, "name": "25147f4f87a2c2a0f098c83b6e39449a", "type": "electric_scooter", "bike_id": "25147f4f87a2c2a0f098c83b6e39449a", "rental_uris": {"ios": "https://dc.lft.to/lastmile_qr_scan", "android": "https://dc.lft.to/lastmile_qr_scan"}, "fusion_lat": 0.0}, {"lat": 38.927960666666664, "lon": -77.02730783333334, "is_disabled": 0, "fusion_lon": 0.0, "is_reserved": 0, "name": "303b6e7c85a845c50375ec2040dad19a", "type": "electric_scooter", "bike_id": "303b6e7c85a845c50375ec2040dad19a", "rental_uris": {"ios": "https://dc.lft.to/lastmile_qr_scan", "android": "https://dc.lft.to/lastmile_qr_scan"}, "fusion_lat": 0.0}, {"lat": 38.919257333333334, "lon": -77.03262333333333, "is_disabled": 0, "fusion_lon": 0.0, "is_reserved": 0, "name": "6b3ca36d4948e47f2681cdee832471f3", "type": "electric_scooter", "bike_id": "6b3ca36d4948e47f2681cdee832471f3", "rental_uris": {"ios": "https://dc.lft.to/lastmile_qr_scan", "android": "https://dc.lft.to/lastmile_qr_scan"}, "fusion_lat": 0.0}, {"lat": 38.870356, "lon": -77.22908716666667, "is_disabled": 0, "fusion_lon": 0.0, "is_reserved": 0, "name": "84c413a9c86f338d3af257e65e98e8d6", "type": "electric_bike", "bike_id": "84c413a9c86f338d3af257e65e98e8d6", "rental_uris": {"ios": "https://dc.lft.to/lastmile_qr_scan", "android": "https://dc.lft.to/lastmile_qr_scan"}, "fusion_lat": 0.0}, {"lat": 38.9206985, "lon": -77.02431316666667, "is_disabled": 0, "fusion_lon": 0.0, "is_reserved": 0, "name": "0f699d0641ae1669c0ab6379ac1aa874", "type": "electric_bike", "bike_id": "0f699d0641ae1669c0ab6379ac1aa874", "rental_uris": {"ios": "https://dc.lft.to/lastmile_qr_scan", "android": "https://dc.lft.to/lastmile_qr_scan"}, "fusion_lat": 0.0}, {"lat": 38.942722, "lon": -77.032611, "is_disabled": 0, "fusion_lon": 0.0, "is_reserved": 0, "name": "e280e5a8e73a321bfc562d359721377f", "type": "electric_scooter", "bike_id": "e280e5a8e73a321bfc562d359721377f", "rental_uris": {"ios": "https://dc.lft.to/lastmile_qr_scan", "android": "https://dc.lft.to/lastmile_qr_scan"}, "fusion_lat": 0.0}, {"lat": 38.90272016666667, "lon": -77.04635016666667, "is_disabled": 0, "fusion_lon": 0.0, "is_reserved": 0, "name": "417e91ec412eaaaea197ab9d7e70e66f", "type": "electric_scooter", "bike_id": "417e91ec412eaaaea197ab9d7e70e66f", "rental_uris": {"ios": "https://dc.lft.to/lastmile_qr_scan", "android": "https://dc.lft.to/lastmile_qr_scan"}, "fusion_lat": 0.0}, {"lat": 38.90359516666667, "lon": -77.02961766666667, "is_disabled": 0, "fusion_lon": 0.0, "is_reserved": 0, "name": "a4e03b6f744b7fd62d809de1e64e4a81", "type": "electric_scooter", "bike_id": "a4e03b6f744b7fd62d809de1e64e4a81", "rental_uris": {"ios": "https://dc.lft.to/lastmile_qr_scan", "android": "https://dc.lft.to/lastmile_qr_scan"}, "fusion_lat": 0.0}, {"lat": 38.8965435, "lon": -77.05026383333333, "is_disabled": 0, "fusion_lon": 0.0, "is_reserved": 0, "name": "a6e2b14524ce5172b021e454f3797b13", "type": "electric_scooter", "bike_id": "a6e2b14524ce5172b021e454f3797b13", "rental_uris": {"ios": "https://dc.lft.to/lastmile_qr_scan", "android": "https://dc.lft.to/lastmile_qr_scan"}, "fusion_lat": 0.0}, {"lat": 38.92124733333333, "lon": -77.23676783333333, "is_disabled": 0, "fusion_lon": 0.0, "is_reserved": 0, "name": "ef14ae929b798c10dd7fd60a5b08d08d", "type": "electric_bike", "bike_id": "ef14ae929b798c10dd7fd60a5b08d08d", "rental_uris": {"ios": "https://dc.lft.to/lastmile_qr_scan", "android": "https://dc.lft.to/lastmile_qr_scan"}, "fusion_lat": 0.0}, {"lat": 38.8990505, "lon": -77.02720483333333, "is_disabled": 0, "fusion_lon": 0.0, "is_reserved": 0, "name": "6f9c7c786ae2b7ff96513dfc3fc47138", "type": "electric_scooter", "bike_id": "6f9c7c786ae2b7ff96513dfc3fc47138", "rental_uris": {"ios": "https://dc.lft.to/lastmile_qr_scan", "android": "https://dc.lft.to/lastmile_qr_scan"}, "fusion_lat": 0.0}, {"lat": 38.9192805, "lon": -77.02503433333334, "is_disabled": 0, "fusion_lon": 0.0, "is_reserved": 0, "name": "9417ded5e80507e48d7d94c7bf4c0190", "type": "electric_scooter", "bike_id": "9417ded5e80507e48d7d94c7bf4c0190", "rental_uris": {"ios": "https://dc.lft.to/lastmile_qr_scan", "android": "https://dc.lft.to/lastmile_qr_scan"}, "fusion_lat": 0.0}, {"lat": 38.938580333333334, "lon": -77.03378883333333, "is_disabled": 0, "fusion_lon": 0.0, "is_reserved": 0, "name": "121876d8fc58d25d1f6ff1a7ff124ff6", "type": "electric_scooter", "bike_id": "121876d8fc58d25d1f6ff1a7ff124ff6", "rental_uris": {"ios": "https://dc.lft.to/lastmile_qr_scan", "android": "https://dc.lft.to/lastmile_qr_scan"}, "fusion_lat": 0.0}, {"lat": 38.917994666666665, "lon": -77.04015483333333, "is_disabled": 0, "fusion_lon": 0.0, "is_reserved": 0, "name": "bfc85efb25ab1984544d9e635ce0cee1", "type": "electric_scooter", "bike_id": "bfc85efb25ab1984544d9e635ce0cee1", "rental_uris": {"ios": "https://dc.lft.to/lastmile_qr_scan", "android": "https://dc.lft.to/lastmile_qr_scan"}, "fusion_lat": 0.0}, {"lat": 38.90652266666667, "lon": -77.0316695, "is_disabled": 0, "fusion_lon": 0.0, "is_reserved": 0, "name": "321a84aabbfb92622fa9f4355febe71e", "type": "electric_scooter", "bike_id": "321a84aabbfb92622fa9f4355febe71e", "rental_uris": {"ios": "https://dc.lft.to/lastmile_qr_scan", "android": "https://dc.lft.to/lastmile_qr_scan"}, "fusion_lat": 0.0}, {"lat": 38.9275385, "lon": -77.03279116666667, "is_disabled": 0, "fusion_lon": 0.0, "is_reserved": 0, "name": "39ec8de79f6767a97051b2a370c02e01", "type": "electric_scooter", "bike_id": "39ec8de79f6767a97051b2a370c02e01", "rental_uris": {"ios": "https://dc.lft.to/lastmile_qr_scan", "android": "https://dc.lft.to/lastmile_qr_scan"}, "fusion_lat": 0.0}, {"lat": 38.94337683333333, "lon": -77.01557516666666, "is_disabled": 0, "fusion_lon": 0.0, "is_reserved": 0, "name": "054b34d5165cf3c5042add6496eabb56", "type": "electric_scooter", "bike_id": "054b34d5165cf3c5042add6496eabb56", "rental_uris": {"ios": "https://dc.lft.to/lastmile_qr_scan", "android": "https://dc.lft.to/lastmile_qr_scan"}, "fusion_lat": 0.0}, {"lat": 38.87664, "lon": -77.003449, "is_disabled": 0, "fusion_lon": 0.0, "is_reserved": 0, "name": "79e8427101c24ceafe1efea50cc67eab", "type": "electric_scooter", "bike_id": "79e8427101c24ceafe1efea50cc67eab", "rental_uris": {"ios": "https://dc.lft.to/lastmile_qr_scan", "android": "https://dc.lft.to/lastmile_qr_scan"}, "fusion_lat": 0.0}, {"lat": 38.939753333333336, "lon": -77.03688433333333, "is_disabled": 0, "fusion_lon": 0.0, "is_reserved": 0, "name": "2df0e4a4fdc0833cc16d915ab001c9f6", "type": "electric_scooter", "bike_id": "2df0e4a4fdc0833cc16d915ab001c9f6", "rental_uris": {"ios": "https://dc.lft.to/lastmile_qr_scan", "android": "https://dc.lft.to/lastmile_qr_scan"}, "fusion_lat": 0.0}, {"lat": 38.8922765, "lon": -77.0489475, "is_disabled": 0, "fusion_lon": 0.0, "is_reserved": 0, "name": "38596631f59011f80dd0d3c1834b4fbb", "type": "electric_scooter", "bike_id": "38596631f59011f80dd0d3c1834b4fbb", "rental_uris": {"ios": "https://dc.lft.to/lastmile_qr_scan", "android": "https://dc.lft.to/lastmile_qr_scan"}, "fusion_lat": 0.0}, {"lat": 38.93703216666667, "lon": -77.02399133333333, "is_disabled": 0, "fusion_lon": 0.0, "is_reserved": 0, "name": "081195ba29f117375eebac1f16d0cf58", "type": "electric_scooter", "bike_id": "081195ba29f117375eebac1f16d0cf58", "rental_uris": {"ios": "https://dc.lft.to/lastmile_qr_scan", "android": "https://dc.lft.to/lastmile_qr_scan"}, "fusion_lat": 0.0}, {"lat": 38.917511833333336, "lon": -77.031986, "is_disabled": 0, "fusion_lon": 0.0, "is_reserved": 0, "name": "254d5a94e6e2ae74e875e967fda723ae", "type": "electric_scooter", "bike_id": "254d5a94e6e2ae74e875e967fda723ae", "rental_uris": {"ios": "https://dc.lft.to/lastmile_qr_scan", "android": "https://dc.lft.to/lastmile_qr_scan"}, "fusion_lat": 0.0}, {"lat": 38.908249833333336, "lon": -77.0260215, "is_disabled": 0, "fusion_lon": 0.0, "is_reserved": 0, "name": "5325c71db58a69ddc83cb2adef29cbb6", "type": "electric_scooter", "bike_id": "5325c71db58a69ddc83cb2adef29cbb6", "rental_uris": {"ios": "https://dc.lft.to/lastmile_qr_scan", "android": "https://dc.lft.to/lastmile_qr_scan"}, "fusion_lat": 0.0}, {"lat": 38.90729433333333, "lon": -77.03446166666667, "is_disabled": 0, "fusion_lon": 0.0, "is_reserved": 0, "name": "75620a126f577b5aaed1c311b04a8c1e", "type": "electric_scooter", "bike_id": "75620a126f577b5aaed1c311b04a8c1e", "rental_uris": {"ios": "https://dc.lft.to/lastmile_qr_scan", "android": "https://dc.lft.to/lastmile_qr_scan"}, "fusion_lat": 0.0}, {"lat": 38.90265266666667, "lon": -77.03576366666667, "is_disabled": 0, "fusion_lon": 0.0, "is_reserved": 0, "name": "898dff0b60934e641471829233f1859f", "type": "electric_scooter", "bike_id": "898dff0b60934e641471829233f1859f", "rental_uris": {"ios": "https://dc.lft.to/lastmile_qr_scan", "android": "https://dc.lft.to/lastmile_qr_scan"}, "fusion_lat": 0.0}, {"lat": 38.970486666666666, "lon": -76.93618433333333, "is_disabled": 0, "fusion_lon": 0.0, "is_reserved": 0, "name": "d3d19211cc98a110dab75fac3d3b8aac", "type": "electric_bike", "bike_id": "d3d19211cc98a110dab75fac3d3b8aac", "rental_uris": {"ios": "https://dc.lft.to/lastmile_qr_scan", "android": "https://dc.lft.to/lastmile_qr_scan"}, "fusion_lat": 0.0}, {"lat": 38.8849255, "lon": -77.029723, "is_disabled": 0, "fusion_lon": 0.0, "is_reserved": 0, "name": "219edceae579eeb9658d25fa3a14a2a7", "type": "electric_scooter", "bike_id": "219edceae579eeb9658d25fa3a14a2a7", "rental_uris": {"ios": "https://dc.lft.to/lastmile_qr_scan", "android": "https://dc.lft.to/lastmile_qr_scan"}, "fusion_lat": 0.0}, {"lat": 38.92122, "lon": -77.0121365, "is_disabled": 0, "fusion_lon": 0.0, "is_reserved": 0, "name": "310be98e1122bd4a46e99f324722aad3", "type": "electric_bike", "bike_id": "310be98e1122bd4a46e99f324722aad3", "rental_uris": {"ios": "https://dc.lft.to/lastmile_qr_scan", "android": "https://dc.lft.to/lastmile_qr_scan"}, "fusion_lat": 0.0}, {"lat": 38.91112833333333, "lon": -76.99754216666666, "is_disabled": 0, "fusion_lon": 0.0, "is_reserved": 0, "name": "1b035ac3b3462bf132bb813d3048b1c3", "type": "electric_scooter", "bike_id": "1b035ac3b3462bf132bb813d3048b1c3", "rental_uris": {"ios": "https://dc.lft.to/lastmile_qr_scan", "android": "https://dc.lft.to/lastmile_qr_scan"}, "fusion_lat": 0.0}, {"lat": 38.927912666666664, "lon": -77.01557183333334, "is_disabled": 0, "fusion_lon": 0.0, "is_reserved": 0, "name": "956afaea3c90e718a59198208509c26a", "type": "electric_scooter", "bike_id": "956afaea3c90e718a59198208509c26a", "rental_uris": {"ios": "https://dc.lft.to/lastmile_qr_scan", "android": "https://dc.lft.to/lastmile_qr_scan"}, "fusion_lat": 0.0}, {"lat": 38.915478666666665, "lon": -77.04159583333333, "is_disabled": 0, "fusion_lon": 0.0, "is_reserved": 0, "name": "fa83d743a2f7e73f1ed47754bab34c50", "type": "electric_scooter", "bike_id": "fa83d743a2f7e73f1ed47754bab34c50", "rental_uris": {"ios": "https://dc.lft.to/lastmile_qr_scan", "android": "https://dc.lft.to/lastmile_qr_scan"}, "fusion_lat": 0.0}, {"lat": 38.905077166666665, "lon": -77.06470033333333, "is_disabled": 0, "fusion_lon": 0.0, "is_reserved": 0, "name": "1df97d21270c27a8299507e0bd5770c9", "type": "electric_scooter", "bike_id": "1df97d21270c27a8299507e0bd5770c9", "rental_uris": {"ios": "https://dc.lft.to/lastmile_qr_scan", "android": "https://dc.lft.to/lastmile_qr_scan"}, "fusion_lat": 0.0}, {"lat": 38.898172833333334, "lon": -77.02586533333333, "is_disabled": 0, "fusion_lon": 0.0, "is_reserved": 0, "name": "1cd2212faac28edb2d81a905ce420dd8", "type": "electric_scooter", "bike_id": "1cd2212faac28edb2d81a905ce420dd8", "rental_uris": {"ios": "https://dc.lft.to/lastmile_qr_scan", "android": "https://dc.lft.to/lastmile_qr_scan"}, "fusion_lat": 0.0}, {"lat": 38.928830833333336, "lon": -77.0361905, "is_disabled": 0, "fusion_lon": 0.0, "is_reserved": 0, "name": "57cff8573c4c9ffd5af6a521ca8add5b", "type": "electric_bike", "bike_id": "57cff8573c4c9ffd5af6a521ca8add5b", "rental_uris": {"ios": "https://dc.lft.to/lastmile_qr_scan", "android": "https://dc.lft.to/lastmile_qr_scan"}, "fusion_lat": 0.0}, {"lat": 38.935997666666665, "lon": -77.03652866666667, "is_disabled": 0, "fusion_lon": 0.0, "is_reserved": 0, "name": "8c642768b9b7a7e9a932b26ec4808bd5", "type": "electric_scooter", "bike_id": "8c642768b9b7a7e9a932b26ec4808bd5", "rental_uris": {"ios": "https://dc.lft.to/lastmile_qr_scan", "android": "https://dc.lft.to/lastmile_qr_scan"}, "fusion_lat": 0.0}, {"lat": 38.902641333333335, "lon": -77.02649983333333, "is_disabled": 0, "fusion_lon": 0.0, "is_reserved": 0, "name": "5eb69f38ff24255030c1cd562fd3122f", "type": "electric_scooter", "bike_id": "5eb69f38ff24255030c1cd562fd3122f", "rental_uris": {"ios": "https://dc.lft.to/lastmile_qr_scan", "android": "https://dc.lft.to/lastmile_qr_scan"}, "fusion_lat": 0.0}, {"lat": 38.902006166666666, "lon": -77.023761, "is_disabled": 0, "fusion_lon": 0.0, "is_reserved": 0, "name": "c5bc53cab8aeb7b47df9517d7c9a9a62", "type": "electric_scooter", "bike_id": "c5bc53cab8aeb7b47df9517d7c9a9a62", "rental_uris": {"ios": "https://dc.lft.to/lastmile_qr_scan", "android": "https://dc.lft.to/lastmile_qr_scan"}, "fusion_lat": 0.0}, {"lat": 39.003102, "lon": -76.903331, "is_disabled": 0, "fusion_lon": 0.0, "is_reserved": 0, "name": "cc9f5eb4d8a3e52ba47534631e4ec348", "type": "electric_bike", "bike_id": "cc9f5eb4d8a3e52ba47534631e4ec348", "rental_uris": {"ios": "https://dc.lft.to/lastmile_qr_scan", "android": "https://dc.lft.to/lastmile_qr_scan"}, "fusion_lat": 0.0}, {"lat": 38.918025666666665, "lon": -77.0142435, "is_disabled": 0, "fusion_lon": 0.0, "is_reserved": 0, "name": "dd8cdbbea34076049b3c3ff88132b0a2", "type": "electric_scooter", "bike_id": "dd8cdbbea34076049b3c3ff88132b0a2", "rental_uris": {"ios": "https://dc.lft.to/lastmile_qr_scan", "android": "https://dc.lft.to/lastmile_qr_scan"}, "fusion_lat": 0.0}, {"lat": 38.910386333333335, "lon": -77.06497816666666, "is_disabled": 0, "fusion_lon": 0.0, "is_reserved": 0, "name": "7af375c61e824f81d0615f5c26b406ce", "type": "electric_scooter", "bike_id": "7af375c61e824f81d0615f5c26b406ce", "rental_uris": {"ios": "https://dc.lft.to/lastmile_qr_scan", "android": "https://dc.lft.to/lastmile_qr_scan"}, "fusion_lat": 0.0}, {"lat": 38.90731433333333, "lon": -77.02386916666667, "is_disabled": 0, "fusion_lon": 0.0, "is_reserved": 0, "name": "e60aae33126e8eb69357b900c2a86e76", "type": "electric_scooter", "bike_id": "e60aae33126e8eb69357b900c2a86e76", "rental_uris": {"ios": "https://dc.lft.to/lastmile_qr_scan", "android": "https://dc.lft.to/lastmile_qr_scan"}, "fusion_lat": 0.0}, {"lat": 38.9450225, "lon": -77.03832783333333, "is_disabled": 0, "fusion_lon": 0.0, "is_reserved": 0, "name": "e2f2db7bde56de1c3f8b2eea168f649b", "type": "electric_scooter", "bike_id": "e2f2db7bde56de1c3f8b2eea168f649b", "rental_uris": {"ios": "https://dc.lft.to/lastmile_qr_scan", "android": "https://dc.lft.to/lastmile_qr_scan"}, "fusion_lat": 0.0}, {"lat": 38.928838166666665, "lon": -77.0326525, "is_disabled": 0, "fusion_lon": 0.0, "is_reserved": 0, "name": "6916bf5200ca5e7b7fa5486b82257688", "type": "electric_scooter", "bike_id": "6916bf5200ca5e7b7fa5486b82257688", "rental_uris": {"ios": "https://dc.lft.to/lastmile_qr_scan", "android": "https://dc.lft.to/lastmile_qr_scan"}, "fusion_lat": 0.0}, {"lat": 38.973514333333334, "lon": -77.0278735, "is_disabled": 0, "fusion_lon": 0.0, "is_reserved": 0, "name": "65a1d7df5c319dd7cfa41926cb4db433", "type": "electric_scooter", "bike_id": "65a1d7df5c319dd7cfa41926cb4db433", "rental_uris": {"ios": "https://dc.lft.to/lastmile_qr_scan", "android": "https://dc.lft.to/lastmile_qr_scan"}, "fusion_lat": 0.0}, {"lat": 38.90735733333333, "lon": -77.023856, "is_disabled": 0, "fusion_lon": 0.0, "is_reserved": 0, "name": "7f885969778311685d04594a7dd00d6e", "type": "electric_scooter", "bike_id": "7f885969778311685d04594a7dd00d6e", "rental_uris": {"ios": "https://dc.lft.to/lastmile_qr_scan", "android": "https://dc.lft.to/lastmile_qr_scan"}, "fusion_lat": 0.0}, {"lat": 38.931859333333335, "lon": -77.0310445, "is_disabled": 0, "fusion_lon": 0.0, "is_reserved": 0, "name": "253280e23b5653b6f06a729921555efc", "type": "electric_scooter", "bike_id": "253280e23b5653b6f06a729921555efc", "rental_uris": {"ios": "https://dc.lft.to/lastmile_qr_scan", "android": "https://dc.lft.to/lastmile_qr_scan"}, "fusion_lat": 0.0}, {"lat": 38.92762166666667, "lon": -77.02783166666667, "is_disabled": 0, "fusion_lon": 0.0, "is_reserved": 0, "name": "2c213b736556011215ef626d57f2dbf8", "type": "electric_scooter", "bike_id": "2c213b736556011215ef626d57f2dbf8", "rental_uris": {"ios": "https://dc.lft.to/lastmile_qr_scan", "android": "https://dc.lft.to/lastmile_qr_scan"}, "fusion_lat": 0.0}, {"lat": 38.9179105, "lon": -77.03199733333334, "is_disabled": 0, "fusion_lon": 0.0, "is_reserved": 0, "name": "6a2f980628eeecddd0b99b15537da9af", "type": "electric_scooter", "bike_id": "6a2f980628eeecddd0b99b15537da9af", "rental_uris": {"ios": "https://dc.lft.to/lastmile_qr_scan", "android": "https://dc.lft.to/lastmile_qr_scan"}, "fusion_lat": 0.0}, {"lat": 38.921247666666666, "lon": -77.0177405, "is_disabled": 0, "fusion_lon": 0.0, "is_reserved": 0, "name": "218dac0844d04426a469160155d5a870", "type": "electric_scooter", "bike_id": "218dac0844d04426a469160155d5a870", "rental_uris": {"ios": "https://dc.lft.to/lastmile_qr_scan", "android": "https://dc.lft.to/lastmile_qr_scan"}, "fusion_lat": 0.0}, {"lat": 38.88199266666667, "lon": -77.003657, "is_disabled": 0, "fusion_lon": 0.0, "is_reserved": 0, "name": "f07d773edf5b0652d6291e5c7a1efd52", "type": "electric_scooter", "bike_id": "f07d773edf5b0652d6291e5c7a1efd52", "rental_uris": {"ios": "https://dc.lft.to/lastmile_qr_scan", "android": "https://dc.lft.to/lastmile_qr_scan"}, "fusion_lat": 0.0}, {"lat": 38.93090133333333, "lon": -77.030325, "is_disabled": 0, "fusion_lon": 0.0, "is_reserved": 0, "name": "d497ca9cd35a1a38d79dd3501d0e10d3", "type": "electric_scooter", "bike_id": "d497ca9cd35a1a38d79dd3501d0e10d3", "rental_uris": {"ios": "https://dc.lft.to/lastmile_qr_scan", "android": "https://dc.lft.to/lastmile_qr_scan"}, "fusion_lat": 0.0}, {"lat": 38.916778666666666, "lon": -76.9802435, "is_disabled": 0, "fusion_lon": 0.0, "is_reserved": 0, "name": "3005c43a4d7757b5a3813fc32efe5f86", "type": "electric_scooter", "bike_id": "3005c43a4d7757b5a3813fc32efe5f86", "rental_uris": {"ios": "https://dc.lft.to/lastmile_qr_scan", "android": "https://dc.lft.to/lastmile_qr_scan"}, "fusion_lat": 0.0}, {"lat": 38.91787133333333, "lon": -77.02301533333333, "is_disabled": 0, "fusion_lon": 0.0, "is_reserved": 0, "name": "52c283e77a2cbc18308162097f60cc60", "type": "electric_scooter", "bike_id": "52c283e77a2cbc18308162097f60cc60", "rental_uris": {"ios": "https://dc.lft.to/lastmile_qr_scan", "android": "https://dc.lft.to/lastmile_qr_scan"}, "fusion_lat": 0.0}, {"lat": 38.912665, "lon": -77.03534833333333, "is_disabled": 0, "fusion_lon": 0.0, "is_reserved": 0, "name": "5f0df9a1d582aede93a6f652c1e73b16", "type": "electric_scooter", "bike_id": "5f0df9a1d582aede93a6f652c1e73b16", "rental_uris": {"ios": "https://dc.lft.to/lastmile_qr_scan", "android": "https://dc.lft.to/lastmile_qr_scan"}, "fusion_lat": 0.0}, {"lat": 38.886597333333334, "lon": -77.019915, "is_disabled": 0, "fusion_lon": 0.0, "is_reserved": 0, "name": "2ca0e4f71c3583cfb687584d0ecbb407", "type": "electric_scooter", "bike_id": "2ca0e4f71c3583cfb687584d0ecbb407", "rental_uris": {"ios": "https://dc.lft.to/lastmile_qr_scan", "android": "https://dc.lft.to/lastmile_qr_scan"}, "fusion_lat": 0.0}, {"lat": 38.9140255, "lon": -77.02943566666667, "is_disabled": 0, "fusion_lon": 0.0, "is_reserved": 0, "name": "0bae65a1377501e038ba1a39f9de3188", "type": "electric_scooter", "bike_id": "0bae65a1377501e038ba1a39f9de3188", "rental_uris": {"ios": "https://dc.lft.to/lastmile_qr_scan", "android": "https://dc.lft.to/lastmile_qr_scan"}, "fusion_lat": 0.0}, {"lat": 38.86329283333333, "lon": -76.987108, "is_disabled": 0, "fusion_lon": 0.0, "is_reserved": 0, "name": "ac9c3b62332c7b96509dc346900c30a2", "type": "electric_bike", "bike_id": "ac9c3b62332c7b96509dc346900c30a2", "rental_uris": {"ios": "https://dc.lft.to/lastmile_qr_scan", "android": "https://dc.lft.to/lastmile_qr_scan"}, "fusion_lat": 0.0}, {"lat": 38.93260983333333, "lon": -76.9890305, "is_disabled": 0, "fusion_lon": 0.0, "is_reserved": 0, "name": "50bc539d6e849cd913be1e838522b0b1", "type": "electric_scooter", "bike_id": "50bc539d6e849cd913be1e838522b0b1", "rental_uris": {"ios": "https://dc.lft.to/lastmile_qr_scan", "android": "https://dc.lft.to/lastmile_qr_scan"}, "fusion_lat": 0.0}, {"lat": 38.93062716666667, "lon": -76.97329133333334, "is_disabled": 0, "fusion_lon": 0.0, "is_reserved": 0, "name": "548bac06b3bc7bb837a6fa807143ecb7", "type": "electric_bike", "bike_id": "548bac06b3bc7bb837a6fa807143ecb7", "rental_uris": {"ios": "https://dc.lft.to/lastmile_qr_scan", "android": "https://dc.lft.to/lastmile_qr_scan"}, "fusion_lat": 0.0}, {"lat": 38.90845733333333, "lon": -77.06343516666666, "is_disabled": 0, "fusion_lon": 0.0, "is_reserved": 0, "name": "7717f97b311fe8ec2a55bcf76b3f1617", "type": "electric_scooter", "bike_id": "7717f97b311fe8ec2a55bcf76b3f1617", "rental_uris": {"ios": "https://dc.lft.to/lastmile_qr_scan", "android": "https://dc.lft.to/lastmile_qr_scan"}, "fusion_lat": 0.0}, {"lat": 38.92512266666667, "lon": -77.04448883333333, "is_disabled": 0, "fusion_lon": 0.0, "is_reserved": 0, "name": "08097c369b4b31dd2c616a3e67bb66ca", "type": "electric_scooter", "bike_id": "08097c369b4b31dd2c616a3e67bb66ca", "rental_uris": {"ios": "https://dc.lft.to/lastmile_qr_scan", "android": "https://dc.lft.to/lastmile_qr_scan"}, "fusion_lat": 0.0}, {"lat": 38.93181333333333, "lon": -77.03667633333333, "is_disabled": 0, "fusion_lon": 0.0, "is_reserved": 0, "name": "ae0509fa48894a147e87990b073e1e1e", "type": "electric_scooter", "bike_id": "ae0509fa48894a147e87990b073e1e1e", "rental_uris": {"ios": "https://dc.lft.to/lastmile_qr_scan", "android": "https://dc.lft.to/lastmile_qr_scan"}, "fusion_lat": 0.0}, {"lat": 38.91733466666667, "lon": -77.041751, "is_disabled": 0, "fusion_lon": 0.0, "is_reserved": 0, "name": "4bed4054c9a364f534d6c46d3617cd9d", "type": "electric_scooter", "bike_id": "4bed4054c9a364f534d6c46d3617cd9d", "rental_uris": {"ios": "https://dc.lft.to/lastmile_qr_scan", "android": "https://dc.lft.to/lastmile_qr_scan"}, "fusion_lat": 0.0}, {"lat": 38.799818, "lon": -77.129811, "is_disabled": 0, "fusion_lon": 0.0, "is_reserved": 0, "name": "a0e9c9568fb765e761364bf08e5a754a", "type": "electric_bike", "bike_id": "a0e9c9568fb765e761364bf08e5a754a", "rental_uris": {"ios": "https://dc.lft.to/lastmile_qr_scan", "android": "https://dc.lft.to/lastmile_qr_scan"}, "fusion_lat": 0.0}, {"lat": 38.921345333333335, "lon": -77.038816, "is_disabled": 0, "fusion_lon": 0.0, "is_reserved": 0, "name": "430111dd5ceaf154a244960e0971d81a", "type": "electric_bike", "bike_id": "430111dd5ceaf154a244960e0971d81a", "rental_uris": {"ios": "https://dc.lft.to/lastmile_qr_scan", "android": "https://dc.lft.to/lastmile_qr_scan"}, "fusion_lat": 0.0}, {"lat": 38.921943166666665, "lon": -77.0417985, "is_disabled": 0, "fusion_lon": 0.0, "is_reserved": 0, "name": "68527467b2f469aa979a7f61c5428cc1", "type": "electric_scooter", "bike_id": "68527467b2f469aa979a7f61c5428cc1", "rental_uris": {"ios": "https://dc.lft.to/lastmile_qr_scan", "android": "https://dc.lft.to/lastmile_qr_scan"}, "fusion_lat": 0.0}, {"lat": 38.848592, "lon": -77.09900666666667, "is_disabled": 0, "fusion_lon": 0.0, "is_reserved": 0, "name": "2afb62cfc7364854e78364aa62ad1570", "type": "electric_bike", "bike_id": "2afb62cfc7364854e78364aa62ad1570", "rental_uris": {"ios": "https://dc.lft.to/lastmile_qr_scan", "android": "https://dc.lft.to/lastmile_qr_scan"}, "fusion_lat": 0.0}, {"lat": 38.93205016666667, "lon": -77.03507716666667, "is_disabled": 0, "fusion_lon": 0.0, "is_reserved": 0, "name": "c6bc40262b47d744852cc351f067691c", "type": "electric_scooter", "bike_id": "c6bc40262b47d744852cc351f067691c", "rental_uris": {"ios": "https://dc.lft.to/lastmile_qr_scan", "android": "https://dc.lft.to/lastmile_qr_scan"}, "fusion_lat": 0.0}, {"lat": 38.92139933333333, "lon": -77.0350415, "is_disabled": 0, "fusion_lon": 0.0, "is_reserved": 0, "name": "cf5e55a5759cbf08d5b502eb36dc8b3f", "type": "electric_scooter", "bike_id": "cf5e55a5759cbf08d5b502eb36dc8b3f", "rental_uris": {"ios": "https://dc.lft.to/lastmile_qr_scan", "android": "https://dc.lft.to/lastmile_qr_scan"}, "fusion_lat": 0.0}, {"lat": 38.892199166666664, "lon": -77.0450395, "is_disabled": 0, "fusion_lon": 0.0, "is_reserved": 0, "name": "c22e9e1eaf25c56c0c00ce705830d7bf", "type": "electric_scooter", "bike_id": "c22e9e1eaf25c56c0c00ce705830d7bf", "rental_uris": {"ios": "https://dc.lft.to/lastmile_qr_scan", "android": "https://dc.lft.to/lastmile_qr_scan"}, "fusion_lat": 0.0}, {"lat": 38.8784255, "lon": -77.01932483333333, "is_disabled": 0, "fusion_lon": 0.0, "is_reserved": 0, "name": "c3b52c3f8c16544695d690484182dcc1", "type": "electric_scooter", "bike_id": "c3b52c3f8c16544695d690484182dcc1", "rental_uris": {"ios": "https://dc.lft.to/lastmile_qr_scan", "android": "https://dc.lft.to/lastmile_qr_scan"}, "fusion_lat": 0.0}, {"lat": 38.902644, "lon": -77.0153895, "is_disabled": 0, "fusion_lon": 0.0, "is_reserved": 0, "name": "a2c18bcaebf61582cc0cc15046c20efd", "type": "electric_scooter", "bike_id": "a2c18bcaebf61582cc0cc15046c20efd", "rental_uris": {"ios": "https://dc.lft.to/lastmile_qr_scan", "android": "https://dc.lft.to/lastmile_qr_scan"}, "fusion_lat": 0.0}, {"lat": 38.934506666666664, "lon": -77.0386915, "is_disabled": 0, "fusion_lon": 0.0, "is_reserved": 0, "name": "9af5c745843d46087b1420b467f35b41", "type": "electric_scooter", "bike_id": "9af5c745843d46087b1420b467f35b41", "rental_uris": {"ios": "https://dc.lft.to/lastmile_qr_scan", "android": "https://dc.lft.to/lastmile_qr_scan"}, "fusion_lat": 0.0}, {"lat": 38.9228515, "lon": -76.99771766666667, "is_disabled": 0, "fusion_lon": 0.0, "is_reserved": 0, "name": "86534b2de0323c1eb946e7c8e212fefc", "type": "electric_bike", "bike_id": "86534b2de0323c1eb946e7c8e212fefc", "rental_uris": {"ios": "https://dc.lft.to/lastmile_qr_scan", "android": "https://dc.lft.to/lastmile_qr_scan"}, "fusion_lat": 0.0}, {"lat": 38.88740766666667, "lon": -77.02128116666667, "is_disabled": 0, "fusion_lon": 0.0, "is_reserved": 0, "name": "a8d379c690ebd44c7361e7c2c504b0c5", "type": "electric_scooter", "bike_id": "a8d379c690ebd44c7361e7c2c504b0c5", "rental_uris": {"ios": "https://dc.lft.to/lastmile_qr_scan", "android": "https://dc.lft.to/lastmile_qr_scan"}, "fusion_lat": 0.0}, {"lat": 38.916946333333335, "lon": -77.02739666666666, "is_disabled": 0, "fusion_lon": 0.0, "is_reserved": 0, "name": "386909025b6550bc68b94368a70915b3", "type": "electric_scooter", "bike_id": "386909025b6550bc68b94368a70915b3", "rental_uris": {"ios": "https://dc.lft.to/lastmile_qr_scan", "android": "https://dc.lft.to/lastmile_qr_scan"}, "fusion_lat": 0.0}, {"lat": 38.887443833333336, "lon": -77.01406216666666, "is_disabled": 0, "fusion_lon": 0.0, "is_reserved": 0, "name": "3da1deec4120f4e64f1f0f2da64e2add", "type": "electric_scooter", "bike_id": "3da1deec4120f4e64f1f0f2da64e2add", "rental_uris": {"ios": "https://dc.lft.to/lastmile_qr_scan", "android": "https://dc.lft.to/lastmile_qr_scan"}, "fusion_lat": 0.0}, {"lat": 38.920263, "lon": -77.03060583333334, "is_disabled": 0, "fusion_lon": 0.0, "is_reserved": 0, "name": "138c2c037d6c0b3ce61337dc55c0a47b", "type": "electric_scooter", "bike_id": "138c2c037d6c0b3ce61337dc55c0a47b", "rental_uris": {"ios": "https://dc.lft.to/lastmile_qr_scan", "android": "https://dc.lft.to/lastmile_qr_scan"}, "fusion_lat": 0.0}, {"lat": 38.94662666666667, "lon": -76.9567195, "is_disabled": 0, "fusion_lon": 0.0, "is_reserved": 0, "name": "3b6ea62f52023a0b8e28dc9c98530e0a", "type": "electric_bike", "bike_id": "3b6ea62f52023a0b8e28dc9c98530e0a", "rental_uris": {"ios": "https://dc.lft.to/lastmile_qr_scan", "android": "https://dc.lft.to/lastmile_qr_scan"}, "fusion_lat": 0.0}, {"lat": 38.94000316666666, "lon": -77.02543366666667, "is_disabled": 0, "fusion_lon": 0.0, "is_reserved": 0, "name": "45ea5d02390af13661a81d6c33bdb336", "type": "electric_scooter", "bike_id": "45ea5d02390af13661a81d6c33bdb336", "rental_uris": {"ios": "https://dc.lft.to/lastmile_qr_scan", "android": "https://dc.lft.to/lastmile_qr_scan"}, "fusion_lat": 0.0}, {"lat": 38.900031166666665, "lon": -77.00177, "is_disabled": 0, "fusion_lon": 0.0, "is_reserved": 0, "name": "63cbb0d2757acab8fe81219bee66ba96", "type": "electric_scooter", "bike_id": "63cbb0d2757acab8fe81219bee66ba96", "rental_uris": {"ios": "https://dc.lft.to/lastmile_qr_scan", "android": "https://dc.lft.to/lastmile_qr_scan"}, "fusion_lat": 0.0}, {"lat": 38.89868333333333, "lon": -77.02194, "is_disabled": 0, "fusion_lon": 0.0, "is_reserved": 0, "name": "441dd06717f1ff79583f77321ed726ac", "type": "electric_scooter", "bike_id": "441dd06717f1ff79583f77321ed726ac", "rental_uris": {"ios": "https://dc.lft.to/lastmile_qr_scan", "android": "https://dc.lft.to/lastmile_qr_scan"}, "fusion_lat": 0.0}, {"lat": 38.910341333333335, "lon": -77.04340666666667, "is_disabled": 0, "fusion_lon": 0.0, "is_reserved": 0, "name": "0c689f2ae8382d2cdd1c523f5c56e8a2", "type": "electric_scooter", "bike_id": "0c689f2ae8382d2cdd1c523f5c56e8a2", "rental_uris": {"ios": "https://dc.lft.to/lastmile_qr_scan", "android": "https://dc.lft.to/lastmile_qr_scan"}, "fusion_lat": 0.0}, {"lat": 38.913054, "lon": -77.01451633333333, "is_disabled": 0, "fusion_lon": 0.0, "is_reserved": 0, "name": "19b281777bdb17f9476965aaf972ff62", "type": "electric_scooter", "bike_id": "19b281777bdb17f9476965aaf972ff62", "rental_uris": {"ios": "https://dc.lft.to/lastmile_qr_scan", "android": "https://dc.lft.to/lastmile_qr_scan"}, "fusion_lat": 0.0}, {"lat": 38.92171333333334, "lon": -77.03833566666667, "is_disabled": 0, "fusion_lon": 0.0, "is_reserved": 0, "name": "9cf42f58dd2e76ab9293274a4789f85f", "type": "electric_scooter", "bike_id": "9cf42f58dd2e76ab9293274a4789f85f", "rental_uris": {"ios": "https://dc.lft.to/lastmile_qr_scan", "android": "https://dc.lft.to/lastmile_qr_scan"}, "fusion_lat": 0.0}, {"lat": 38.905560666666666, "lon": -77.00595333333334, "is_disabled": 0, "fusion_lon": 0.0, "is_reserved": 0, "name": "9c1f966a3c742e5a0caa7530e7cea349", "type": "electric_scooter", "bike_id": "9c1f966a3c742e5a0caa7530e7cea349", "rental_uris": {"ios": "https://dc.lft.to/lastmile_qr_scan", "android": "https://dc.lft.to/lastmile_qr_scan"}, "fusion_lat": 0.0}, {"lat": 38.937092166666666, "lon": -77.03644, "is_disabled": 0, "fusion_lon": 0.0, "is_reserved": 0, "name": "442a80e8721860c944f71b697ff12bc3", "type": "electric_scooter", "bike_id": "442a80e8721860c944f71b697ff12bc3", "rental_uris": {"ios": "https://dc.lft.to/lastmile_qr_scan", "android": "https://dc.lft.to/lastmile_qr_scan"}, "fusion_lat": 0.0}, {"lat": 38.916334666666664, "lon": -77.02552416666667, "is_disabled": 0, "fusion_lon": 0.0, "is_reserved": 0, "name": "7e8953f022618dcf35013988f632342e", "type": "electric_scooter", "bike_id": "7e8953f022618dcf35013988f632342e", "rental_uris": {"ios": "https://dc.lft.to/lastmile_qr_scan", "android": "https://dc.lft.to/lastmile_qr_scan"}, "fusion_lat": 0.0}, {"lat": 38.89885833333334, "lon": -77.052983, "is_disabled": 0, "fusion_lon": 0.0, "is_reserved": 0, "name": "154191400d32d1caaeb5b1276895872e", "type": "electric_scooter", "bike_id": "154191400d32d1caaeb5b1276895872e", "rental_uris": {"ios": "https://dc.lft.to/lastmile_qr_scan", "android": "https://dc.lft.to/lastmile_qr_scan"}, "fusion_lat": 0.0}, {"lat": 38.878703, "lon": -76.9968165, "is_disabled": 0, "fusion_lon": 0.0, "is_reserved": 0, "name": "dc13ac372eadff49940c9437b455ba2b", "type": "electric_scooter", "bike_id": "dc13ac372eadff49940c9437b455ba2b", "rental_uris": {"ios": "https://dc.lft.to/lastmile_qr_scan", "android": "https://dc.lft.to/lastmile_qr_scan"}, "fusion_lat": 0.0}, {"lat": 38.91408633333333, "lon": -77.02485983333334, "is_disabled": 0, "fusion_lon": 0.0, "is_reserved": 0, "name": "1f2ebb480078709dd131d8bdbd3e0334", "type": "electric_scooter", "bike_id": "1f2ebb480078709dd131d8bdbd3e0334", "rental_uris": {"ios": "https://dc.lft.to/lastmile_qr_scan", "android": "https://dc.lft.to/lastmile_qr_scan"}, "fusion_lat": 0.0}, {"lat": 38.915969833333335, "lon": -77.049084, "is_disabled": 0, "fusion_lon": 0.0, "is_reserved": 0, "name": "38c70e650fc1b5595b88e4f6a5ff0e96", "type": "electric_scooter", "bike_id": "38c70e650fc1b5595b88e4f6a5ff0e96", "rental_uris": {"ios": "https://dc.lft.to/lastmile_qr_scan", "android": "https://dc.lft.to/lastmile_qr_scan"}, "fusion_lat": 0.0}, {"lat": 38.91403716666667, "lon": -77.03221383333333, "is_disabled": 0, "fusion_lon": 0.0, "is_reserved": 0, "name": "7b294f5b11b35f6bc481ca8254c05557", "type": "electric_scooter", "bike_id": "7b294f5b11b35f6bc481ca8254c05557", "rental_uris": {"ios": "https://dc.lft.to/lastmile_qr_scan", "android": "https://dc.lft.to/lastmile_qr_scan"}, "fusion_lat": 0.0}, {"lat": 38.919148, "lon": -77.0273355, "is_disabled": 0, "fusion_lon": 0.0, "is_reserved": 0, "name": "cdff63c6a3c9b43f982e6b70a1a860cc", "type": "electric_scooter", "bike_id": "cdff63c6a3c9b43f982e6b70a1a860cc", "rental_uris": {"ios": "https://dc.lft.to/lastmile_qr_scan", "android": "https://dc.lft.to/lastmile_qr_scan"}, "fusion_lat": 0.0}, {"lat": 38.90028433333333, "lon": -77.055581, "is_disabled": 0, "fusion_lon": 0.0, "is_reserved": 0, "name": "3032baa896b028c7ca38f6ae995b76ea", "type": "electric_scooter", "bike_id": "3032baa896b028c7ca38f6ae995b76ea", "rental_uris": {"ios": "https://dc.lft.to/lastmile_qr_scan", "android": "https://dc.lft.to/lastmile_qr_scan"}, "fusion_lat": 0.0}, {"lat": 38.86888533333333, "lon": -76.99003333333333, "is_disabled": 0, "fusion_lon": 0.0, "is_reserved": 0, "name": "01237324836dd800215962337e6ff81e", "type": "electric_scooter", "bike_id": "01237324836dd800215962337e6ff81e", "rental_uris": {"ios": "https://dc.lft.to/lastmile_qr_scan", "android": "https://dc.lft.to/lastmile_qr_scan"}, "fusion_lat": 0.0}, {"lat": 38.902741666666664, "lon": -77.03253633333334, "is_disabled": 0, "fusion_lon": 0.0, "is_reserved": 0, "name": "f1ac43bf78de11f04d0b83516769d18f", "type": "electric_scooter", "bike_id": "f1ac43bf78de11f04d0b83516769d18f", "rental_uris": {"ios": "https://dc.lft.to/lastmile_qr_scan", "android": "https://dc.lft.to/lastmile_qr_scan"}, "fusion_lat": 0.0}, {"lat": 38.8976875, "lon": -76.984607, "is_disabled": 0, "fusion_lon": 0.0, "is_reserved": 0, "name": "1c4f78f42cab81d4c7ce00328e5ad7d3", "type": "electric_scooter", "bike_id": "1c4f78f42cab81d4c7ce00328e5ad7d3", "rental_uris": {"ios": "https://dc.lft.to/lastmile_qr_scan", "android": "https://dc.lft.to/lastmile_qr_scan"}, "fusion_lat": 0.0}, {"lat": 38.9140105, "lon": -77.03218433333333, "is_disabled": 0, "fusion_lon": 0.0, "is_reserved": 0, "name": "b1507eccda80247403ff0315710c2389", "type": "electric_scooter", "bike_id": "b1507eccda80247403ff0315710c2389", "rental_uris": {"ios": "https://dc.lft.to/lastmile_qr_scan", "android": "https://dc.lft.to/lastmile_qr_scan"}, "fusion_lat": 0.0}, {"lat": 38.8765785, "lon": -76.994625, "is_disabled": 0, "fusion_lon": 0.0, "is_reserved": 0, "name": "692c067f9e7cac53324f5353813a2af2", "type": "electric_scooter", "bike_id": "692c067f9e7cac53324f5353813a2af2", "rental_uris": {"ios": "https://dc.lft.to/lastmile_qr_scan", "android": "https://dc.lft.to/lastmile_qr_scan"}, "fusion_lat": 0.0}, {"lat": 38.904257, "lon": -77.02772783333333, "is_disabled": 0, "fusion_lon": 0.0, "is_reserved": 0, "name": "6ae7fa834a72b3e943200598718d377b", "type": "electric_scooter", "bike_id": "6ae7fa834a72b3e943200598718d377b", "rental_uris": {"ios": "https://dc.lft.to/lastmile_qr_scan", "android": "https://dc.lft.to/lastmile_qr_scan"}, "fusion_lat": 0.0}, {"lat": 38.920914333333336, "lon": -77.02523466666666, "is_disabled": 0, "fusion_lon": 0.0, "is_reserved": 0, "name": "67931a04b00da5f64b3d8e6def6eb94a", "type": "electric_scooter", "bike_id": "67931a04b00da5f64b3d8e6def6eb94a", "rental_uris": {"ios": "https://dc.lft.to/lastmile_qr_scan", "android": "https://dc.lft.to/lastmile_qr_scan"}, "fusion_lat": 0.0},