{"data": {"bikes": [{"is_reserved": 0, "fusion_lon": 0.0, "fusion_lat": 0.0, "name": "e5b55739fcf25f941200df394c6762a8", "type": "electric_scooter", "is_disabled": 0, "lat": 38.922217, "rental_uris": {"android": "https://dc.lft.to/lastmile_qr_scan", "ios": "https://dc.lft.to/lastmile_qr_scan"}, "bike_id": "e5b55739fcf25f941200df394c6762a8", "lon": -77.04333633333333}, {"is_reserved": 0, "fusion_lon": 0.0, "fusion_lat": 0.0, "name": "92529586cf469046852eaf5d5693677a", "type": "electric_scooter", "is_disabled": 0, "lat": 38.90730533333333, "rental_uris": {"android": "https://dc.lft.to/lastmile_qr_scan", "ios": "https://dc.lft.to/lastmile_qr_scan"}, "bike_id": "92529586cf469046852eaf5d5693677a", "lon": -76.98695183333334}, {"is_reserved": 0, "fusion_lon": 0.0, "fusion_lat": 0.0, "name": "bdfe471f7f2186489463c70eb4708be1", "type": "electric_scooter", "is_disabled": 0, "lat": 38.89597416666667, "rental_uris": {"android": "https://dc.lft.to/lastmile_qr_scan", "ios": "https://dc.lft.to/lastmile_qr_scan"}, "bike_id": "bdfe471f7f2186489463c70eb4708be1", "lon": -77.011538}, {"is_reserved": 0, "fusion_lon": 0.0, "fusion_lat": 0.0, "name": "3a244488f5c896b570b5ac34b0b5dba2", "type": "electric_scooter", "is_disabled": 0, "lat": 38.91685283333333, "rental_uris": {"android": "https://dc.lft.to/lastmile_qr_scan", "ios": "https://dc.lft.to/lastmile_qr_scan"}, "bike_id": "3a244488f5c896b570b5ac34b0b5dba2", "lon": -77.02895966666667}, {"is_reserved": 0, "fusion_lon": 0.0, "fusion_lat": 0.0, "name": "d56579b347cb4f8f324082c85d7c5298", "type": "electric_scooter", "is_disabled": 0, "lat": 38.9236915, "rental_uris": {"android": "https://dc.lft.to/lastmile_qr_scan", "ios": "https://dc.lft.to/lastmile_qr_scan"}, "bike_id": "d56579b347cb4f8f324082c85d7c5298", "lon": -77.01907}, {"is_reserved": 0, "fusion_lon": 0.0, "fusion_lat": 0.0, "name": "8b6df171254a3eb193b6d15046a1dfe3", "type": "electric_scooter", "is_disabled": 0, "lat": 38.86060666666667, "rental_uris": {"android": "https://dc.lft.to/lastmile_qr_scan", "ios": "https://dc.lft.to/lastmile_qr_scan"}, "bike_id": "8b6df171254a3eb193b6d15046a1dfe3", "lon": -76.98503266666667}, {"is_reserved": 0, "fusion_lon": 0.0, "fusion_lat": 0.0, "name": "7ad81fb8edc55c76692f4328df33c618", "type": "electric_scooter", "is_disabled": 0, "lat": 38.9234465, "rental_uris": {"android": "https://dc.lft.to/lastmile_qr_scan", "ios": "https://dc.lft.to/lastmile_qr_scan"}, "bike_id": "7ad81fb8edc55c76692f4328df33c618", "lon": -77.0512655}, {"is_reserved": 0, "fusion_lon": 0.0, "fusion_lat": 0.0, "name": "6682584415f21118102a76a843e5f0a1", "type": "electric_scooter", "is_disabled": 0, "lat": 38.927543, "rental_uris": {"android": "https://dc.lft.to/lastmile_qr_scan", "ios": "https://dc.lft.to/lastmile_qr_scan"}, "bike_id": "6682584415f21118102a76a843e5f0a1", "lon": -77.02424783333333}, {"is_reserved": 0, "fusion_lon": 0.0, "fusion_lat": 0.0, "name": "4f8628472b4842a6ac309f7457db9543", "type": "electric_scooter", "is_disabled": 0, "lat": 38.90373616666667, "rental_uris": {"android": "https://dc.lft.to/lastmile_qr_scan", "ios": "https://dc.lft.to/lastmile_qr_scan"}, "bike_id": "4f8628472b4842a6ac309f7457db9543", "lon": -76.99709466666667}, {"is_reserved": 0, "fusion_lon": 0.0, "fusion_lat": 0.0, "name": "cd0b76d37a1870d78c9f986975b0eb2e", "type": "electric_scooter", "is_disabled": 0, "lat": 38.937125, "rental_uris": {"android": "https://dc.lft.to/lastmile_qr_scan", "ios": "https://dc.lft.to/lastmile_qr_scan"}, "bike_id": "cd0b76d37a1870d78c9f986975b0eb2e", "lon": -77.0293195}, {"is_reserved": 0, "fusion_lon": 0.0, "fusion_lat": 0.0, "name": "d4b5f3f8674bc97f4889152a3704a27d", "type": "electric_scooter", "is_disabled": 0, "lat": 38.892146833333335, "rental_uris": {"android": "https://dc.lft.to/lastmile_qr_scan", "ios": "https://dc.lft.to/lastmile_qr_scan"}, "bike_id": "d4b5f3f8674bc97f4889152a3704a27d", "lon": -77.0202}, {"is_reserved": 0, "fusion_lon": 0.0, "fusion_lat": 0.0, "name": "53db8b472df3eeaffe704846a99b1ac5", "type": "electric_scooter", "is_disabled": 0, "lat": 38.907304, "rental_uris": {"android": "https://dc.lft.to/lastmile_qr_scan", "ios": "https://dc.lft.to/lastmile_qr_scan"}, "bike_id": "53db8b472df3eeaffe704846a99b1ac5", "lon": -77.010728}, {"is_reserved": 0, "fusion_lon": 0.0, "fusion_lat": 0.0, "name": "cd4012c8f06aa895360264060c6c7147", "type": "electric_scooter", "is_disabled": 0, "lat": 38.921096666666664, "rental_uris": {"android": "https://dc.lft.to/lastmile_qr_scan", "ios": "https://dc.lft.to/lastmile_qr_scan"}, "bike_id": "cd4012c8f06aa895360264060c6c7147", "lon": -77.03928316666666}, {"is_reserved": 0, "fusion_lon": 0.0, "fusion_lat": 0.0, "name": "ccad229f0fc00810b526e0b0b41c596c", "type": "electric_scooter", "is_disabled": 0, "lat": 38.89606833333333, "rental_uris": {"android": "https://dc.lft.to/lastmile_qr_scan", "ios": "https://dc.lft.to/lastmile_qr_scan"}, "bike_id": "ccad229f0fc00810b526e0b0b41c596c", "lon": -76.999708}, {"is_reserved": 0, "fusion_lon": 0.0, "fusion_lat": 0.0, "name": "a21c4b74180328fb78331c20bfe82a6e", "type": "electric_scooter", "is_disabled": 0, "lat": 38.91531283333333, "rental_uris": {"android": "https://dc.lft.to/lastmile_qr_scan", "ios": "https://dc.lft.to/lastmile_qr_scan"}, "bike_id": "a21c4b74180328fb78331c20bfe82a6e", "lon": -76.97052466666666}, {"is_reserved": 0, "fusion_lon": 0.0, "fusion_lat": 0.0, "name": "fec66bc25cf5057eb3d3c5ec8e40bdca", "type": "electric_bike", "is_disabled": 0, "lat": 39.043070166666666, "rental_uris": {"android": "https://dc.lft.to/lastmile_qr_scan", "ios": "https://dc.lft.to/lastmile_qr_scan"}, "bike_id": "fec66bc25cf5057eb3d3c5ec8e40bdca", "lon": -77.05159983333333}, {"is_reserved": 0, "fusion_lon": 0.0, "fusion_lat": 0.0, "name": "88a14b19eea4c5976c9e078cb530ff5e", "type": "electric_scooter", "is_disabled": 0, "lat": 38.900059166666665, "rental_uris": {"android": "https://dc.lft.to/lastmile_qr_scan", "ios": "https://dc.lft.to/lastmile_qr_scan"}, "bike_id": "88a14b19eea4c5976c9e078cb530ff5e", "lon": -76.99631066666667}, {"is_reserved": 0, "fusion_lon": 0.0, "fusion_lat": 0.0, "name": "7d3fa5906ed028d112b5391a372f02ef", "type": "electric_scooter", "is_disabled": 0, "lat": 38.911916, "rental_uris": {"android": "https://dc.lft.to/lastmile_qr_scan", "ios": "https://dc.lft.to/lastmile_qr_scan"}, "bike_id": "7d3fa5906ed028d112b5391a372f02ef", "lon": -77.00509616666666}, {"is_reserved": 0, "fusion_lon": 0.0, "fusion_lat": 0.0, "name": "e7c772077a3c2191599132b93d0204ce", "type": "electric_scooter", "is_disabled": 0, "lat": 38.8988915, "rental_uris": {"android": "https://dc.lft.to/lastmile_qr_scan", "ios": "https://dc.lft.to/lastmile_qr_scan"}, "bike_id": "e7c772077a3c2191599132b93d0204ce", "lon": -77.03286416666667}, {"is_reserved": 0, "fusion_lon": 0.0, "fusion_lat": 0.0, "name": "5d0f0b87e838cd77f1989e9aa1921730", "type": "electric_scooter", "is_disabled": 0, "lat": 38.8872055, "rental_uris": {"android": "https://dc.lft.to/lastmile_qr_scan", "ios": "https://dc.lft.to/lastmile_qr_scan"}, "bike_id": "5d0f0b87e838cd77f1989e9aa1921730", "lon": -77.0319165}, {"is_reserved": 0, "fusion_lon": 0.0, "fusion_lat": 0.0, "name": "9522e6b6f20ba3ef47693732dd250e39", "type": "electric_scooter", "is_disabled": 0, "lat": 38.9059985, "rental_uris": {"android": "https://dc.lft.to/lastmile_qr_scan", "ios": "https://dc.lft.to/lastmile_qr_scan"}, "bike_id": "9522e6b6f20ba3ef47693732dd250e39", "lon": -77.06419433333333}, {"is_reserved": 0, "fusion_lon": 0.0, "fusion_lat": 0.0, "name": "9938bc980c59f3ba2b380524094d128b", "type": "electric_scooter", "is_disabled": 0, "lat": 38.892240666666666, "rental_uris": {"android": "https://dc.lft.to/lastmile_qr_scan", "ios": "https://dc.lft.to/lastmile_qr_scan"}, "bike_id": "9938bc980c59f3ba2b380524094d128b", "lon": -77.04661416666667}, {"is_reserved": 0, "fusion_lon": 0.0, "fusion_lat": 0.0, "name": "37ad7489cc60799763f6771e72e4533c", "type": "electric_scooter", "is_disabled": 0, "lat": 38.90356583333333, "rental_uris": {"android": "https://dc.lft.to/lastmile_qr_scan", "ios": "https://dc.lft.to/lastmile_qr_scan"}, "bike_id": "37ad7489cc60799763f6771e72e4533c", "lon": -77.05340483333333}, {"is_reserved": 0, "fusion_lon": 0.0, "fusion_lat": 0.0, "name": "7c5ccb1d2e8cc54536513295cda6982b", "type": "electric_scooter", "is_disabled": 0, "lat": 38.924505833333335, "rental_uris": {"android": "https://dc.lft.to/lastmile_qr_scan", "ios": "https://dc.lft.to/lastmile_qr_scan"}, "bike_id": "7c5ccb1d2e8cc54536513295cda6982b", "lon": -77.05753883333334}, {"is_reserved": 0, "fusion_lon": 0.0, "fusion_lat": 0.0, "name": "93eb2d58ed0e8ea3d7ef6c81f2ac1199", "type": "electric_scooter", "is_disabled": 0, "lat": 38.923243, "rental_uris": {"android": "https://dc.lft.to/lastmile_qr_scan", "ios": "https://dc.lft.to/lastmile_qr_scan"}, "bike_id": "93eb2d58ed0e8ea3d7ef6c81f2ac1199", "lon": -77.03545066666666}, {"is_reserved": 0, "fusion_lon": 0.0, "fusion_lat": 0.0, "name": "6404fec93aecf329c4a1a214c12e198e", "type": "electric_scooter", "is_disabled": 0, "lat": 38.9105835, "rental_uris": {"android": "https://dc.lft.to/lastmile_qr_scan", "ios": "https://dc.lft.to/lastmile_qr_scan"}, "bike_id": "6404fec93aecf329c4a1a214c12e198e", "lon": -77.04097116666667}, {"is_reserved": 0, "fusion_lon": 0.0, "fusion_lat": 0.0, "name": "93ffb44b253cb5441b1a9169354f9c5c", "type": "electric_scooter", "is_disabled": 0, "lat": 38.930512666666665, "rental_uris": {"android": "https://dc.lft.to/lastmile_qr_scan", "ios": "https://dc.lft.to/lastmile_qr_scan"}, "bike_id": "93ffb44b253cb5441b1a9169354f9c5c", "lon": -77.03789633333334}, {"is_reserved": 0, "fusion_lon": 0.0, "fusion_lat": 0.0, "name": "657d6c95155d9e5a4fd8dc9e7f84f238", "type": "electric_scooter", "is_disabled": 0, "lat": 38.921999, "rental_uris": {"android": "https://dc.lft.to/lastmile_qr_scan", "ios": "https://dc.lft.to/lastmile_qr_scan"}, "bike_id": "657d6c95155d9e5a4fd8dc9e7f84f238", "lon": -77.04234966666667}, {"is_reserved": 0, "fusion_lon": 0.0, "fusion_lat": 0.0, "name": "1bd0fff8b02fae043d1279700083792f", "type": "electric_scooter", "is_disabled": 0, "lat": 38.89732383333333, "rental_uris": {"android": "https://dc.lft.to/lastmile_qr_scan", "ios": "https://dc.lft.to/lastmile_qr_scan"}, "bike_id": "1bd0fff8b02fae043d1279700083792f", "lon": -77.054734}, {"is_reserved": 0, "fusion_lon": 0.0, "fusion_lat": 0.0, "name": "b3594a41bf72e99a509ac6e163cfc56a", "type": "electric_scooter", "is_disabled": 0, "lat": 38.9532475, "rental_uris": {"android": "https://dc.lft.to/lastmile_qr_scan", "ios": "https://dc.lft.to/lastmile_qr_scan"}, "bike_id": "b3594a41bf72e99a509ac6e163cfc56a", "lon": -77.07068233333334}, {"is_reserved": 0, "fusion_lon": 0.0, "fusion_lat": 0.0, "name": "5f99860bd980d302b9108e3aa4ac945b", "type": "electric_bike", "is_disabled": 0, "lat": 39.05798716666666, "rental_uris": {"android": "https://dc.lft.to/lastmile_qr_scan", "ios": "https://dc.lft.to/lastmile_qr_scan"}, "bike_id": "5f99860bd980d302b9108e3aa4ac945b", "lon": -77.1501775}, {"is_reserved": 0, "fusion_lon": 0.0, "fusion_lat": 0.0, "name": "59742b5075083cd00cc8e679d6673e6f", "type": "electric_scooter", "is_disabled": 0, "lat": 38.9258615, "rental_uris": {"android": "https://dc.lft.to/lastmile_qr_scan", "ios": "https://dc.lft.to/lastmile_qr_scan"}, "bike_id": "59742b5075083cd00cc8e679d6673e6f", "lon": -77.02684033333334}, {"is_reserved": 0, "fusion_lon": 0.0, "fusion_lat": 0.0, "name": "f2df95bece4974978081860079f47d2c", "type": "electric_scooter", "is_disabled": 0, "lat": 38.8951825, "rental_uris": {"android": "https://dc.lft.to/lastmile_qr_scan", "ios": "https://dc.lft.to/lastmile_qr_scan"}, "bike_id": "f2df95bece4974978081860079f47d2c", "lon": -77.0395805}, {"is_reserved": 0, "fusion_lon": 0.0, "fusion_lat": 0.0, "name": "9b1fe52a0d1b5ed10469a02826bf52e0", "type": "electric_scooter", "is_disabled": 0, "lat": 38.9025225, "rental_uris": {"android": "https://dc.lft.to/lastmile_qr_scan", "ios": "https://dc.lft.to/lastmile_qr_scan"}, "bike_id": "9b1fe52a0d1b5ed10469a02826bf52e0", "lon": -77.01751683333333}, {"is_reserved": 0, "fusion_lon": 0.0, "fusion_lat": 0.0, "name": "269db943caedfd0b3ceb672d7b42b737", "type": "electric_bike", "is_disabled": 0, "lat": 39.01479583333333, "rental_uris": {"android": "https://dc.lft.to/lastmile_qr_scan", "ios": "https://dc.lft.to/lastmile_qr_scan"}, "bike_id": "269db943caedfd0b3ceb672d7b42b737", "lon": -77.05493116666666}, {"is_reserved": 0, "fusion_lon": 0.0, "fusion_lat": 0.0, "name": "98f141dbe6a6fa5797a43b258ebf15a8", "type": "electric_scooter", "is_disabled": 0, "lat": 38.912669333333334, "rental_uris": {"android": "https://dc.lft.to/lastmile_qr_scan", "ios": "https://dc.lft.to/lastmile_qr_scan"}, "bike_id": "98f141dbe6a6fa5797a43b258ebf15a8", "lon": -77.0287105}, {"is_reserved": 0, "fusion_lon": 0.0, "fusion_lat": 0.0, "name": "58f23d2cbd84b02fa0cfe3f2702717f3", "type": "electric_bike", "is_disabled": 0, "lat": 38.967402166666666, "rental_uris": {"android": "https://dc.lft.to/lastmile_qr_scan", "ios": "https://dc.lft.to/lastmile_qr_scan"}, "bike_id": "58f23d2cbd84b02fa0cfe3f2702717f3", "lon": -76.98196483333334}, {"is_reserved": 0, "fusion_lon": 0.0, "fusion_lat": 0.0, "name": "06bed01a47b216ed07aefdfaa6864199", "type": "electric_scooter", "is_disabled": 0, "lat": 38.91562833333333, "rental_uris": {"android": "https://dc.lft.to/lastmile_qr_scan", "ios": "https://dc.lft.to/lastmile_qr_scan"}, "bike_id": "06bed01a47b216ed07aefdfaa6864199", "lon": -77.04098616666667}, {"is_reserved": 0, "fusion_lon": 0.0, "fusion_lat": 0.0, "name": "ac1a44656cf69b4de6e13f36db0d26b9", "type": "electric_scooter", "is_disabled": 0, "lat": 38.91195716666667, "rental_uris": {"android": "https://dc.lft.to/lastmile_qr_scan", "ios": "https://dc.lft.to/lastmile_qr_scan"}, "bike_id": "ac1a44656cf69b4de6e13f36db0d26b9", "lon": -77.03837333333334}, {"is_reserved": 0, "fusion_lon": 0.0, "fusion_lat": 0.0, "name": "e288744ff2415680a1b3565e250b9062", "type": "electric_scooter", "is_disabled": 0, "lat": 38.92653333333333, "rental_uris": {"android": "https://dc.lft.to/lastmile_qr_scan", "ios": "https://dc.lft.to/lastmile_qr_scan"}, "bike_id": "e288744ff2415680a1b3565e250b9062", "lon": -77.04138383333333}, {"is_reserved": 0, "fusion_lon": 0.0, "fusion_lat": 0.0, "name": "5e7a93dd011d59d39a09d4800df7145a", "type": "electric_scooter", "is_disabled": 0, "lat": 38.88392983333333, "rental_uris": {"android": "https://dc.lft.to/lastmile_qr_scan", "ios": "https://dc.lft.to/lastmile_qr_scan"}, "bike_id": "5e7a93dd011d59d39a09d4800df7145a", "lon": -77.03032766666666}, {"is_reserved": 0, "fusion_lon": 0.0, "fusion_lat": 0.0, "name": "9922621fb5391e5737b9caab08f1098a", "type": "electric_scooter", "is_disabled": 0, "lat": 38.9025685, "rental_uris": {"android": "https://dc.lft.to/lastmile_qr_scan", "ios": "https://dc.lft.to/lastmile_qr_scan"}, "bike_id": "9922621fb5391e5737b9caab08f1098a", "lon": -77.0175915}, {"is_reserved": 0, "fusion_lon": 0.0, "fusion_lat": 0.0, "name": "7e981fd21f9c7a464d9a36194c1fb40c", "type": "electric_scooter", "is_disabled": 0, "lat": 38.876301166666664, "rental_uris": {"android": "https://dc.lft.to/lastmile_qr_scan", "ios": "https://dc.lft.to/lastmile_qr_scan"}, "bike_id": "7e981fd21f9c7a464d9a36194c1fb40c", "lon": -77.01258816666666}, {"is_reserved": 0, "fusion_lon": 0.0, "fusion_lat": 0.0, "name": "af1dcadeec38226388115e1720a571ff", "type": "electric_scooter", "is_disabled": 0, "lat": 38.92491116666667, "rental_uris": {"android": "https://dc.lft.to/lastmile_qr_scan", "ios": "https://dc.lft.to/lastmile_qr_scan"}, "bike_id": "af1dcadeec38226388115e1720a571ff", "lon": -77.03184666666667}, {"is_reserved": 0, "fusion_lon": 0.0, "fusion_lat": 0.0, "name": "26da363f797f42afd357033e581c04c4", "type": "electric_scooter", "is_disabled": 0, "lat": 38.906175833333336, "rental_uris": {"android": "https://dc.lft.to/lastmile_qr_scan", "ios": "https://dc.lft.to/lastmile_qr_scan"}, "bike_id": "26da363f797f42afd357033e581c04c4", "lon": -76.98687766666667}, {"is_reserved": 0, "fusion_lon": 0.0, "fusion_lat": 0.0, "name": "a5fa80732a1865748d591fda9bce9b79", "type": "electric_scooter", "is_disabled": 0, "lat": 38.91759016666666, "rental_uris": {"android": "https://dc.lft.to/lastmile_qr_scan", "ios": "https://dc.lft.to/lastmile_qr_scan"}, "bike_id": "a5fa80732a1865748d591fda9bce9b79", "lon": -77.01221583333333}, {"is_reserved": 0, "fusion_lon": 0.0, "fusion_lat": 0.0, "name": "bd8f2eb1858a741a0e5a36333bd5668f", "type": "electric_scooter", "is_disabled": 0, "lat": 38.8600935, "rental_uris": {"android": "https://dc.lft.to/lastmile_qr_scan", "ios": "https://dc.lft.to/lastmile_qr_scan"}, "bike_id": "bd8f2eb1858a741a0e5a36333bd5668f", "lon": -76.98515966666666}, {"is_reserved": 0, "fusion_lon": 0.0, "fusion_lat": 0.0, "name": "facb9354bd0197230f8c60a88a43c669", "type": "electric_bike", "is_disabled": 0, "lat": 38.81838, "rental_uris": {"android": "https://dc.lft.to/lastmile_qr_scan", "ios": "https://dc.lft.to/lastmile_qr_scan"}, "bike_id": "facb9354bd0197230f8c60a88a43c669", "lon": -77.10572333333333}, {"is_reserved": 0, "fusion_lon": 0.0, "fusion_lat": 0.0, "name": "9bd27e85aa9438dc7ccbdea6a713c62b", "type": "electric_scooter", "is_disabled": 0, "lat": 38.900702333333335, "rental_uris": {"android": "https://dc.lft.to/lastmile_qr_scan", "ios": "https://dc.lft.to/lastmile_qr_scan"}, "bike_id": "9bd27e85aa9438dc7ccbdea6a713c62b", "lon": -77.00205683333333}, {"is_reserved": 0, "fusion_lon": 0.0, "fusion_lat": 0.0, "name": "c1d464c0feefd9019491e83133561198", "type": "electric_bike", "is_disabled": 0, "lat": 38.8662085, "rental_uris": {"android": "https://dc.lft.to/lastmile_qr_scan", "ios": "https://dc.lft.to/lastmile_qr_scan"}, "bike_id": "c1d464c0feefd9019491e83133561198", "lon": -76.945721}, {"is_reserved": 0, "fusion_lon": 0.0, "fusion_lat": 0.0, "name": "1935cf957e7e89d13c069be95358dd7a", "type": "electric_scooter", "is_disabled": 0, "lat": 38.89881316666666, "rental_uris": {"android": "https://dc.lft.to/lastmile_qr_scan", "ios": "https://dc.lft.to/lastmile_qr_scan"}, "bike_id": "1935cf957e7e89d13c069be95358dd7a", "lon": -76.93185833333334}, {"is_reserved": 0, "fusion_lon": 0.0, "fusion_lat": 0.0, "name": "1b22c7d19ddfd0666505ef8f216c2982", "type": "electric_scooter", "is_disabled": 0, "lat": 38.904148, "rental_uris": {"android": "https://dc.lft.to/lastmile_qr_scan", "ios": "https://dc.lft.to/lastmile_qr_scan"}, "bike_id": "1b22c7d19ddfd0666505ef8f216c2982", "lon": -76.99836433333333}, {"is_reserved": 0, "fusion_lon": 0.0, "fusion_lat": 0.0, "name": "7d41bd591e5cbc7218af953b78a3bba4", "type": "electric_scooter", "is_disabled": 0, "lat": 38.874716666666664, "rental_uris": {"android": "https://dc.lft.to/lastmile_qr_scan", "ios": "https://dc.lft.to/lastmile_qr_scan"}, "bike_id": "7d41bd591e5cbc7218af953b78a3bba4", "lon": -77.00556216666666}, {"is_reserved": 0, "fusion_lon": 0.0, "fusion_lat": 0.0, "name": "6713531b9f378fcd8ba98d1deaa017b5", "type": "electric_scooter", "is_disabled": 0, "lat": 38.92615833333333, "rental_uris": {"android": "https://dc.lft.to/lastmile_qr_scan", "ios": "https://dc.lft.to/lastmile_qr_scan"}, "bike_id": "6713531b9f378fcd8ba98d1deaa017b5", "lon": -77.03962416666667}, {"is_reserved": 0, "fusion_lon": 0.0, "fusion_lat": 0.0, "name": "21dcbb917e8c573e7aa668f27157d52c", "type": "electric_scooter", "is_disabled": 0, "lat": 38.914142166666664, "rental_uris": {"android": "https://dc.lft.to/lastmile_qr_scan", "ios": "https://dc.lft.to/lastmile_qr_scan"}, "bike_id": "21dcbb917e8c573e7aa668f27157d52c", "lon": -77.04923583333333}, {"is_reserved": 0, "fusion_lon": 0.0, "fusion_lat": 0.0, "name": "1f02da365ff612766d51647f8f02cc7e", "type": "electric_scooter", "is_disabled": 0, "lat": 38.88083, "rental_uris": {"android": "https://dc.lft.to/lastmile_qr_scan", "ios": "https://dc.lft.to/lastmile_qr_scan"}, "bike_id": "1f02da365ff612766d51647f8f02cc7e", "lon": -76.998375}, {"is_reserved": 0, "fusion_lon": 0.0, "fusion_lat": 0.0, "name": "70db9015c6e1ce5c9bf120662234c8cc", "type": "electric_scooter", "is_disabled": 0, "lat": 38.95181616666667, "rental_uris": {"android": "https://dc.lft.to/lastmile_qr_scan", "ios": "https://dc.lft.to/lastmile_qr_scan"}, "bike_id": "70db9015c6e1ce5c9bf120662234c8cc", "lon": -77.02732183333333}, {"is_reserved": 0, "fusion_lon": 0.0, "fusion_lat": 0.0, "name": "463913831864959ba3f205a92ed7b9be", "type": "electric_scooter", "is_disabled": 0, "lat": 38.89827116666667, "rental_uris": {"android": "https://dc.lft.to/lastmile_qr_scan", "ios": "https://dc.lft.to/lastmile_qr_scan"}, "bike_id": "463913831864959ba3f205a92ed7b9be", "lon": -77.02433633333334}, {"is_reserved": 0, "fusion_lon": 0.0, "fusion_lat": 0.0, "name": "b126ae83b143a2832c702c3846db4201", "type": "electric_bike", "is_disabled": 0, "lat": 38.88874883333333, "rental_uris": {"android": "https://dc.lft.to/lastmile_qr_scan", "ios": "https://dc.lft.to/lastmile_qr_scan"}, "bike_id": "b126ae83b143a2832c702c3846db4201", "lon": -76.9784455}, {"is_reserved": 0, "fusion_lon": 0.0, "fusion_lat": 0.0, "name": "e0ce4bbb57489f58f1094f2c819600d2", "type": "electric_scooter", "is_disabled": 0, "lat": 38.923456, "rental_uris": {"android": "https://dc.lft.to/lastmile_qr_scan", "ios": "https://dc.lft.to/lastmile_qr_scan"}, "bike_id": "e0ce4bbb57489f58f1094f2c819600d2", "lon": -77.050909}, {"is_reserved": 0, "fusion_lon": 0.0, "fusion_lat": 0.0, "name": "f2c554b3d13ae743f7102e9a696fa59f", "type": "electric_scooter", "is_disabled": 0, "lat": 38.9287575, "rental_uris": {"android": "https://dc.lft.to/lastmile_qr_scan", "ios": "https://dc.lft.to/lastmile_qr_scan"}, "bike_id": "f2c554b3d13ae743f7102e9a696fa59f", "lon": -77.01365933333334}, {"is_reserved": 0, "fusion_lon": 0.0, "fusion_lat": 0.0, "name": "f90f13e8b6a7f2a1c042bc6d54824ef9", "type": "electric_scooter", "is_disabled": 0, "lat": 38.9003945, "rental_uris": {"android": "https://dc.lft.to/lastmile_qr_scan", "ios": "https://dc.lft.to/lastmile_qr_scan"}, "bike_id": "f90f13e8b6a7f2a1c042bc6d54824ef9", "lon": -76.996215}, {"is_reserved": 0, "fusion_lon": 0.0, "fusion_lat": 0.0, "name": "f11f78711aa73220b8637fba320bf20b", "type": "electric_scooter", "is_disabled": 0, "lat": 38.93144366666667, "rental_uris": {"android": "https://dc.lft.to/lastmile_qr_scan", "ios": "https://dc.lft.to/lastmile_qr_scan"}, "bike_id": "f11f78711aa73220b8637fba320bf20b", "lon": -77.07861733333333}, {"is_reserved": 0, "fusion_lon": 0.0, "fusion_lat": 0.0, "name": "42e876ab57727ef4c8cc42df50f12b6c", "type": "electric_scooter", "is_disabled": 0, "lat": 38.923829, "rental_uris": {"android": "https://dc.lft.to/lastmile_qr_scan", "ios": "https://dc.lft.to/lastmile_qr_scan"}, "bike_id": "42e876ab57727ef4c8cc42df50f12b6c", "lon": -77.0302145}, {"is_reserved": 0, "fusion_lon": 0.0, "fusion_lat": 0.0, "name": "067cfbae07b12cc3290b4b6dbd5df8c7", "type": "electric_scooter", "is_disabled": 0, "lat": 38.896092, "rental_uris": {"android": "https://dc.lft.to/lastmile_qr_scan", "ios": "https://dc.lft.to/lastmile_qr_scan"}, "bike_id": "067cfbae07b12cc3290b4b6dbd5df8c7", "lon": -77.02982333333334}, {"is_reserved": 0, "fusion_lon": 0.0, "fusion_lat": 0.0, "name": "8f3c58082e835d976af89e62f0be37fe", "type": "electric_bike", "is_disabled": 0, "lat": 38.96815866666667, "rental_uris": {"android": "https://dc.lft.to/lastmile_qr_scan", "ios": "https://dc.lft.to/lastmile_qr_scan"}, "bike_id": "8f3c58082e835d976af89e62f0be37fe", "lon": -77.0722165}, {"is_reserved": 0, "fusion_lon": 0.0, "fusion_lat": 0.0, "name": "609c1a4b9928ebc54afd0665b04df88c", "type": "electric_bike", "is_disabled": 0, "lat": 38.945065666666665, "rental_uris": {"android": "https://dc.lft.to/lastmile_qr_scan", "ios": "https://dc.lft.to/lastmile_qr_scan"}, "bike_id": "609c1a4b9928ebc54afd0665b04df88c", "lon": -77.0066785}, {"is_reserved": 0, "fusion_lon": 0.0, "fusion_lat": 0.0, "name": "21ab3106f59dd34dcccb49e542cbe8a3", "type": "electric_scooter", "is_disabled": 0, "lat": 38.904442, "rental_uris": {"android": "https://dc.lft.to/lastmile_qr_scan", "ios": "https://dc.lft.to/lastmile_qr_scan"}, "bike_id": "21ab3106f59dd34dcccb49e542cbe8a3", "lon": -76.98489916666666}, {"is_reserved": 0, "fusion_lon": 0.0, "fusion_lat": 0.0, "name": "a210183965495dab40ea4670174663e0", "type": "electric_scooter", "is_disabled": 0, "lat": 38.93317166666667, "rental_uris": {"android": "https://dc.lft.to/lastmile_qr_scan", "ios": "https://dc.lft.to/lastmile_qr_scan"}, "bike_id": "a210183965495dab40ea4670174663e0", "lon": -77.02964833333333}, {"is_reserved": 0, "fusion_lon": 0.0, "fusion_lat": 0.0, "name": "b71cee708d047e5ce9bb33611c319815", "type": "electric_scooter", "is_disabled": 0, "lat": 38.916928, "rental_uris": {"android": "https://dc.lft.to/lastmile_qr_scan", "ios": "https://dc.lft.to/lastmile_qr_scan"}, "bike_id": "b71cee708d047e5ce9bb33611c319815", "lon": -77.03748033333333}, {"is_reserved": 0, "fusion_lon": 0.0, "fusion_lat": 0.0, "name": "4df695d58576f4e18830420cd2bc5e22", "type": "electric_scooter", "is_disabled": 0, "lat": 38.8712075, "rental_uris": {"android": "https://dc.lft.to/lastmile_qr_scan", "ios": "https://dc.lft.to/lastmile_qr_scan"}, "bike_id": "4df695d58576f4e18830420cd2bc5e22", "lon": -77.007536}, {"is_reserved": 0, "fusion_lon": 0.0, "fusion_lat": 0.0, "name": "8358ef7c8844a5128b570adf534d5951", "type": "electric_bike", "is_disabled": 0, "lat": 38.966212, "rental_uris": {"android": "https://dc.lft.to/lastmile_qr_scan", "ios": "https://dc.lft.to/lastmile_qr_scan"}, "bike_id": "8358ef7c8844a5128b570adf534d5951", "lon": -77.03434083333333}, {"is_reserved": 0, "fusion_lon": 0.0, "fusion_lat": 0.0, "name": "84239c9d8becf38a0661d08dfa8a1e42", "type": "electric_bike", "is_disabled": 0, "lat": 38.893550166666664, "rental_uris": {"android": "https://dc.lft.to/lastmile_qr_scan", "ios": "https://dc.lft.to/lastmile_qr_scan"}, "bike_id": "84239c9d8becf38a0661d08dfa8a1e42", "lon": -77.18741583333333}, {"is_reserved": 0, "fusion_lon": 0.0, "fusion_lat": 0.0, "name": "cda765b09c7806c26fbd7b4508b634b7", "type": "electric_scooter", "is_disabled": 0, "lat": 38.8991865, "rental_uris": {"android": "https://dc.lft.to/lastmile_qr_scan", "ios": "https://dc.lft.to/lastmile_qr_scan"}, "bike_id": "cda765b09c7806c26fbd7b4508b634b7", "lon": -76.9338435}, {"is_reserved": 0, "fusion_lon": 0.0, "fusion_lat": 0.0, "name": "ad207c07e9f8ec8005cfbd38a9dd9f35", "type": "electric_bike", "is_disabled": 0, "lat": 38.85425333333333, "rental_uris": {"android": "https://dc.lft.to/lastmile_qr_scan", "ios": "https://dc.lft.to/lastmile_qr_scan"}, "bike_id": "ad207c07e9f8ec8005cfbd38a9dd9f35", "lon": -77.12076933333333}, {"is_reserved": 0, "fusion_lon": 0.0, "fusion_lat": 0.0, "name": "cd28531970679fc6a9b2e099964e0861", "type": "electric_scooter", "is_disabled": 0, "lat": 38.92165583333333, "rental_uris": {"android": "https://dc.lft.to/lastmile_qr_scan", "ios": "https://dc.lft.to/lastmile_qr_scan"}, "bike_id": "cd28531970679fc6a9b2e099964e0861", "lon": -77.04356733333333}, {"is_reserved": 0, "fusion_lon": 0.0, "fusion_lat": 0.0, "name": "f0c651907f0517f5906dddc0bd709291", "type": "electric_scooter", "is_disabled": 0, "lat": 38.912609833333335, "rental_uris": {"android": "https://dc.lft.to/lastmile_qr_scan", "ios": "https://dc.lft.to/lastmile_qr_scan"}, "bike_id": "f0c651907f0517f5906dddc0bd709291", "lon": -77.03178533333333}, {"is_reserved": 0, "fusion_lon": 0.0, "fusion_lat": 0.0, "name": "550cff62a1b48af10c9c6f6f718eb37f", "type": "electric_scooter", "is_disabled": 0, "lat": 38.8973095, "rental_uris": {"android": "https://dc.lft.to/lastmile_qr_scan", "ios": "https://dc.lft.to/lastmile_qr_scan"}, "bike_id": "550cff62a1b48af10c9c6f6f718eb37f", "lon": -77.04715516666667}, {"is_reserved": 0, "fusion_lon": 0.0, "fusion_lat": 0.0, "name": "25ea2e70ec8f2d97b88fcfcd37326c37", "type": "electric_scooter", "is_disabled": 0, "lat": 38.89932666666667, "rental_uris": {"android": "https://dc.lft.to/lastmile_qr_scan", "ios": "https://dc.lft.to/lastmile_qr_scan"}, "bike_id": "25ea2e70ec8f2d97b88fcfcd37326c37", "lon": -76.945746}, {"is_reserved": 0, "fusion_lon": 0.0, "fusion_lat": 0.0, "name": "f23eebc33fcef4544e981a32c99ec398", "type": "electric_scooter", "is_disabled": 0, "lat": 38.908013833333335, "rental_uris": {"android": "https://dc.lft.to/lastmile_qr_scan", "ios": "https://dc.lft.to/lastmile_qr_scan"}, "bike_id": "f23eebc33fcef4544e981a32c99ec398", "lon": -77.03455966666667}, {"is_reserved": 0, "fusion_lon": 0.0, "fusion_lat": 0.0, "name": "2cee40627c9aee6f41cc4df300194eac", "type": "electric_scooter", "is_disabled": 0, "lat": 38.893936, "rental_uris": {"android": "https://dc.lft.to/lastmile_qr_scan", "ios": "https://dc.lft.to/lastmile_qr_scan"}, "bike_id": "2cee40627c9aee6f41cc4df300194eac", "lon": -77.02250083333334}, {"is_reserved": 0, "fusion_lon": 0.0, "fusion_lat": 0.0, "name": "5564f18fbde62b6b2be56d545da0e09b", "type": "electric_scooter", "is_disabled": 0, "lat": 38.91716566666667, "rental_uris": {"android": "https://dc.lft.to/lastmile_qr_scan", "ios": "https://dc.lft.to/lastmile_qr_scan"}, "bike_id": "5564f18fbde62b6b2be56d545da0e09b", "lon": -77.06839283333333}, {"is_reserved": 0, "fusion_lon": 0.0, "fusion_lat": 0.0, "name": "7efcfa15c2c82bf4fd978ef5613aff32", "type": "electric_scooter", "is_disabled": 0, "lat": 38.9324005, "rental_uris": {"android": "https://dc.lft.to/lastmile_qr_scan", "ios": "https://dc.lft.to/lastmile_qr_scan"}, "bike_id": "7efcfa15c2c82bf4fd978ef5613aff32", "lon": -77.03854216666667}, {"is_reserved": 0, "fusion_lon": 0.0, "fusion_lat": 0.0, "name": "cc817aa0bd13dfeaaef0b102daef81dd", "type": "electric_scooter", "is_disabled": 0, "lat": 38.8990265, "rental_uris": {"android": "https://dc.lft.to/lastmile_qr_scan", "ios": "https://dc.lft.to/lastmile_qr_scan"}, "bike_id": "cc817aa0bd13dfeaaef0b102daef81dd", "lon": -76.99157416666667}, {"is_reserved": 0, "fusion_lon": 0.0, "fusion_lat": 0.0, "name": "af5c97dce8577b31c4b361dc71e88d56", "type": "electric_scooter", "is_disabled": 0, "lat": 38.904922, "rental_uris": {"android": "https://dc.lft.to/lastmile_qr_scan", "ios": "https://dc.lft.to/lastmile_qr_scan"}, "bike_id": "af5c97dce8577b31c4b361dc71e88d56", "lon": -76.97923916666667}, {"is_reserved": 0, "fusion_lon": 0.0, "fusion_lat": 0.0, "name": "e4f0e8ac0682c59adafa9a03632be9cd", "type": "electric_scooter", "is_disabled": 0, "lat": 38.86380033333333, "rental_uris": {"android": "https://dc.lft.to/lastmile_qr_scan", "ios": "https://dc.lft.to/lastmile_qr_scan"}, "bike_id": "e4f0e8ac0682c59adafa9a03632be9cd", "lon": -76.98923266666667}, {"is_reserved": 0, "fusion_lon": 0.0, "fusion_lat": 0.0, "name": "0cba5888d3eb1ecb928bec0b52d41109", "type": "electric_scooter", "is_disabled": 0, "lat": 38.92751616666666, "rental_uris": {"android": "https://dc.lft.to/lastmile_qr_scan", "ios": "https://dc.lft.to/lastmile_qr_scan"}, "bike_id": "0cba5888d3eb1ecb928bec0b52d41109", "lon": -77.02533966666667}, {"is_reserved": 0, "fusion_lon": 0.0, "fusion_lat": 0.0, "name": "70f3ec02e6d3eca73b958ce8de8e58c5", "type": "electric_scooter", "is_disabled": 0, "lat": 38.92741766666666, "rental_uris": {"android": "https://dc.lft.to/lastmile_qr_scan", "ios": "https://dc.lft.to/lastmile_qr_scan"}, "bike_id": "70f3ec02e6d3eca73b958ce8de8e58c5", "lon": -77.03240433333333}, {"is_reserved": 0, "fusion_lon": 0.0, "fusion_lat": 0.0, "name": "81dbda6c6037ef04968a64327373f844", "type": "electric_scooter", "is_disabled": 0, "lat": 38.90019183333333, "rental_uris": {"android": "https://dc.lft.to/lastmile_qr_scan", "ios": "https://dc.lft.to/lastmile_qr_scan"}, "bike_id": "81dbda6c6037ef04968a64327373f844", "lon": -76.98692383333334}, {"is_reserved": 0, "fusion_lon": 0.0, "fusion_lat": 0.0, "name": "87e709aa452c644c175429108a20ea2c", "type": "electric_scooter", "is_disabled": 0, "lat": 38.8882755, "rental_uris": {"android": "https://dc.lft.to/lastmile_qr_scan", "ios": "https://dc.lft.to/lastmile_qr_scan"}, "bike_id": "87e709aa452c644c175429108a20ea2c", "lon": -76.99369583333333}, {"is_reserved": 0, "fusion_lon": 0.0, "fusion_lat": 0.0, "name": "53ae5d6746ac7b2ec11494c0b44e6b7c", "type": "electric_scooter", "is_disabled": 0, "lat": 38.918739333333335, "rental_uris": {"android": "https://dc.lft.to/lastmile_qr_scan", "ios": "https://dc.lft.to/lastmile_qr_scan"}, "bike_id": "53ae5d6746ac7b2ec11494c0b44e6b7c", "lon": -77.04446266666666}, {"is_reserved": 0, "fusion_lon": 0.0, "fusion_lat": 0.0, "name": "f58b8522b6af5efd710ed8aa06a7944a", "type": "electric_bike", "is_disabled": 0, "lat": 38.9621705, "rental_uris": {"android": "https://dc.lft.to/lastmile_qr_scan", "ios": "https://dc.lft.to/lastmile_qr_scan"}, "bike_id": "f58b8522b6af5efd710ed8aa06a7944a", "lon": -77.02632483333333}, {"is_reserved": 0, "fusion_lon": 0.0, "fusion_lat": 0.0, "name": "2e243b03346d11b9276452bf9c26c035", "type": "electric_scooter", "is_disabled": 0, "lat": 38.900316833333335, "rental_uris": {"android": "https://dc.lft.to/lastmile_qr_scan", "ios": "https://dc.lft.to/lastmile_qr_scan"}, "bike_id": "2e243b03346d11b9276452bf9c26c035", "lon": -76.98857066666666}, {"is_reserved": 0, "fusion_lon": 0.0, "fusion_lat": 0.0, "name": "08019db0e85d618db08b73bc57b8f59c", "type": "electric_scooter", "is_disabled": 0, "lat": 38.860611166666665, "rental_uris": {"android": "https://dc.lft.to/lastmile_qr_scan", "ios": "https://dc.lft.to/lastmile_qr_scan"}, "bike_id": "08019db0e85d618db08b73bc57b8f59c", "lon": -76.98425533333334}, {"is_reserved": 0, "fusion_lon": 0.0, "fusion_lat": 0.0, "name": "ff0394066c8c4a85089788d34e98ea42", "type": "electric_scooter", "is_disabled": 0, "lat": 38.929038, "rental_uris": {"android": "https://dc.lft.to/lastmile_qr_scan", "ios": "https://dc.lft.to/lastmile_qr_scan"}, "bike_id": "ff0394066c8c4a85089788d34e98ea42", "lon": -77.03272616666666}, {"is_reserved": 0, "fusion_lon": 0.0, "fusion_lat": 0.0, "name": "d71c9f3255ca5c3ef1e71756dd8c9c5e", "type": "electric_scooter", "is_disabled": 0, "lat": 38.898508666666665, "rental_uris": {"android": "https://dc.lft.to/lastmile_qr_scan", "ios": "https://dc.lft.to/lastmile_qr_scan"}, "bike_id": "d71c9f3255ca5c3ef1e71756dd8c9c5e", "lon": -76.93207016666666}, {"is_reserved": 0, "fusion_lon": 0.0, "fusion_lat": 0.0, "name": "7b7faea69ab79b8ba6d14c12ea1e7f87", "type": "electric_scooter", "is_disabled": 0, "lat": 38.919328, "rental_uris": {"android": "https://dc.lft.to/lastmile_qr_scan", "ios": "https://dc.lft.to/lastmile_qr_scan"}, "bike_id": "7b7faea69ab79b8ba6d14c12ea1e7f87", "lon": -77.025132}, {"is_reserved": 0, "fusion_lon": 0.0, "fusion_lat": 0.0, "name": "cbeaf7d3b9a8dae166c086b93c270fb7", "type": "electric_scooter", "is_disabled": 0, "lat": 38.9224435, "rental_uris": {"android": "https://dc.lft.to/lastmile_qr_scan", "ios": "https://dc.lft.to/lastmile_qr_scan"}, "bike_id": "cbeaf7d3b9a8dae166c086b93c270fb7", "lon": -77.0302285}, {"is_reserved": 0, "fusion_lon": 0.0, "fusion_lat": 0.0, "name": "d226ca02d4b641867d0bc1ba9f31baaa", "type": "electric_scooter", "is_disabled": 0, "lat": 38.88044083333333, "rental_uris": {"android": "https://dc.lft.to/lastmile_qr_scan", "ios": "https://dc.lft.to/lastmile_qr_scan"}, "bike_id": "d226ca02d4b641867d0bc1ba9f31baaa", "lon": -77.01995266666667}, {"is_reserved": 0, "fusion_lon": 0.0, "fusion_lat": 0.0, "name": "34049be553c24653fac715f89db9a70e", "type": "electric_scooter", "is_disabled": 0, "lat": 38.9287155, "rental_uris": {"android": "https://dc.lft.to/lastmile_qr_scan", "ios": "https://dc.lft.to/lastmile_qr_scan"}, "bike_id": "34049be553c24653fac715f89db9a70e", "lon": -77.03412083333333}, {"is_reserved": 0, "fusion_lon": 0.0, "fusion_lat": 0.0, "name": "390df52ba94e37f8b6d9eb48310066cd", "type": "electric_scooter", "is_disabled": 0, "lat": 38.918237500000004, "rental_uris": {"android": "https://dc.lft.to/lastmile_qr_scan", "ios": "https://dc.lft.to/lastmile_qr_scan"}, "bike_id": "390df52ba94e37f8b6d9eb48310066cd", "lon": -77.02419816666666}, {"is_reserved": 0, "fusion_lon": 0.0, "fusion_lat": 0.0, "name": "ead9f4d50d08223112c59d2690a6fe24", "type": "electric_scooter", "is_disabled": 0, "lat": 38.9035375, "rental_uris": {"android": "https://dc.lft.to/lastmile_qr_scan", "ios": "https://dc.lft.to/lastmile_qr_scan"}, "bike_id": "ead9f4d50d08223112c59d2690a6fe24", "lon": -77.04364066666666}, {"is_reserved": 0, "fusion_lon": 0.0, "fusion_lat": 0.0, "name": "b55bcac6b38b773600441664d38516c0", "type": "electric_scooter", "is_disabled": 0, "lat": 38.934835166666666, "rental_uris": {"android": "https://dc.lft.to/lastmile_qr_scan", "ios": "https://dc.lft.to/lastmile_qr_scan"}, "bike_id": "b55bcac6b38b773600441664d38516c0", "lon": -77.0579365}, {"is_reserved": 0, "fusion_lon": 0.0, "fusion_lat": 0.0, "name": "b45ed16530ab8abd9d89ece7654085e6", "type": "electric_bike", "is_disabled": 0, "lat": 38.87730366666667, "rental_uris": {"android": "https://dc.lft.to/lastmile_qr_scan", "ios": "https://dc.lft.to/lastmile_qr_scan"}, "bike_id": "b45ed16530ab8abd9d89ece7654085e6", "lon": -76.981062}, {"is_reserved": 0, "fusion_lon": 0.0, "fusion_lat": 0.0, "name": "d545e6beffdbfc6cffce5a390b1132b7", "type": "electric_scooter", "is_disabled": 0, "lat": 38.91707366666667, "rental_uris": {"android": "https://dc.lft.to/lastmile_qr_scan", "ios": "https://dc.lft.to/lastmile_qr_scan"}, "bike_id": "d545e6beffdbfc6cffce5a390b1132b7", "lon": -77.03472583333334}, {"is_reserved": 0, "fusion_lon": 0.0, "fusion_lat": 0.0, "name": "ce4706558970f959626daa2b675c2f25", "type": "electric_scooter", "is_disabled": 0, "lat": 38.907303166666665, "rental_uris": {"android": "https://dc.lft.to/lastmile_qr_scan", "ios": "https://dc.lft.to/lastmile_qr_scan"}, "bike_id": "ce4706558970f959626daa2b675c2f25", "lon": -77.0328215}, {"is_reserved": 0, "fusion_lon": 0.0, "fusion_lat": 0.0, "name": "595297fb5fd0566874e2acfb2c5d5e05", "type": "electric_scooter", "is_disabled": 0, "lat": 38.9055435, "rental_uris": {"android": "https://dc.lft.to/lastmile_qr_scan", "ios": "https://dc.lft.to/lastmile_qr_scan"}, "bike_id": "595297fb5fd0566874e2acfb2c5d5e05", "lon": -77.0060645}, {"is_reserved": 0, "fusion_lon": 0.0, "fusion_lat": 0.0, "name": "5e01f25acecc50434885c9fbece6fd64", "type": "electric_scooter", "is_disabled": 0, "lat": 38.90861233333333, "rental_uris": {"android": "https://dc.lft.to/lastmile_qr_scan", "ios": "https://dc.lft.to/lastmile_qr_scan"}, "bike_id": "5e01f25acecc50434885c9fbece6fd64", "lon": -77.0710065}, {"is_reserved": 0, "fusion_lon": 0.0, "fusion_lat": 0.0, "name": "a3fd9b4804b65f836920db03c88b7a7e", "type": "electric_scooter", "is_disabled": 0, "lat": 38.880571833333335, "rental_uris": {"android": "https://dc.lft.to/lastmile_qr_scan", "ios": "https://dc.lft.to/lastmile_qr_scan"}, "bike_id": "a3fd9b4804b65f836920db03c88b7a7e", "lon": -76.93221416666667}, {"is_reserved": 0, "fusion_lon": 0.0, "fusion_lat": 0.0, "name": "2561646ab93126328348b1fd0505037e", "type": "electric_scooter", "is_disabled": 0, "lat": 38.90555466666667, "rental_uris": {"android": "https://dc.lft.to/lastmile_qr_scan", "ios": "https://dc.lft.to/lastmile_qr_scan"}, "bike_id": "2561646ab93126328348b1fd0505037e", "lon": -77.00742116666666}, {"is_reserved": 0, "fusion_lon": 0.0, "fusion_lat": 0.0, "name": "2724288cd69a1a9c06edeef72b2ec41a", "type": "electric_scooter", "is_disabled": 0, "lat": 38.91061716666667, "rental_uris": {"android": "https://dc.lft.to/lastmile_qr_scan", "ios": "https://dc.lft.to/lastmile_qr_scan"}, "bike_id": "2724288cd69a1a9c06edeef72b2ec41a", "lon": -77.04255166666667}, {"is_reserved": 0, "fusion_lon": 0.0, "fusion_lat": 0.0, "name": "1b49f38ffa0399cd16a75d214469a64e", "type": "electric_bike", "is_disabled": 0, "lat": 38.949261, "rental_uris": {"android": "https://dc.lft.to/lastmile_qr_scan", "ios": "https://dc.lft.to/lastmile_qr_scan"}, "bike_id": "1b49f38ffa0399cd16a75d214469a64e", "lon": -77.00799466666666}, {"is_reserved": 0, "fusion_lon": 0.0, "fusion_lat": 0.0, "name": "33da6a9b4dd7d1ce598b27d368f43ec7", "type": "electric_scooter", "is_disabled": 0, "lat": 38.906476, "rental_uris": {"android": "https://dc.lft.to/lastmile_qr_scan", "ios": "https://dc.lft.to/lastmile_qr_scan"}, "bike_id": "33da6a9b4dd7d1ce598b27d368f43ec7", "lon": -77.02704283333334}, {"is_reserved": 0, "fusion_lon": 0.0, "fusion_lat": 0.0, "name": "902d92e92ee8ebe85ed1cc7340a02e39", "type": "electric_scooter", "is_disabled": 0, "lat": 38.90900216666667, "rental_uris": {"android": "https://dc.lft.to/lastmile_qr_scan", "ios": "https://dc.lft.to/lastmile_qr_scan"}, "bike_id": "902d92e92ee8ebe85ed1cc7340a02e39", "lon": -77.0457105}, {"is_reserved": 0, "fusion_lon": 0.0, "fusion_lat": 0.0, "name": "b68afdd1706b121d17d47803aef17d1e", "type": "electric_scooter", "is_disabled": 0, "lat": 38.9012995, "rental_uris": {"android": "https://dc.lft.to/lastmile_qr_scan", "ios": "https://dc.lft.to/lastmile_qr_scan"}, "bike_id": "b68afdd1706b121d17d47803aef17d1e", "lon": -77.04356033333333}, {"is_reserved": 0, "fusion_lon": 0.0, "fusion_lat": 0.0, "name": "4e8ccbfd07cf6a1477cc502bca231059", "type": "electric_scooter", "is_disabled": 0, "lat": 38.911165, "rental_uris": {"android": "https://dc.lft.to/lastmile_qr_scan", "ios": "https://dc.lft.to/lastmile_qr_scan"}, "bike_id": "4e8ccbfd07cf6a1477cc502bca231059", "lon": -77.04325116666666}, {"is_reserved": 0, "fusion_lon": 0.0, "fusion_lat": 0.0, "name": "c415cebca4d56525465f86fdd7e03e9f", "type": "electric_scooter", "is_disabled": 0, "lat": 38.87683633333333, "rental_uris": {"android": "https://dc.lft.to/lastmile_qr_scan", "ios": "https://dc.lft.to/lastmile_qr_scan"}, "bike_id": "c415cebca4d56525465f86fdd7e03e9f", "lon": -77.01789266666667}, {"is_reserved": 0, "fusion_lon": 0.0, "fusion_lat": 0.0, "name": "a85feacc5a5270bb92d066df063f4fa6", "type": "electric_scooter", "is_disabled": 0, "lat": 38.90489183333333, "rental_uris": {"android": "https://dc.lft.to/lastmile_qr_scan", "ios": "https://dc.lft.to/lastmile_qr_scan"}, "bike_id": "a85feacc5a5270bb92d066df063f4fa6", "lon": -77.02959733333333}, {"is_reserved": 0, "fusion_lon": 0.0, "fusion_lat": 0.0, "name": "2f75258e002f811edabb5ad06261e808", "type": "electric_scooter", "is_disabled": 0, "lat": 38.9099835, "rental_uris": {"android": "https://dc.lft.to/lastmile_qr_scan", "ios": "https://dc.lft.to/lastmile_qr_scan"}, "bike_id": "2f75258e002f811edabb5ad06261e808", "lon": -77.02820633333333}, {"is_reserved": 0, "fusion_lon": 0.0, "fusion_lat": 0.0, "name": "82e9aa211c48d16f52e1b73053dea8a5", "type": "electric_scooter", "is_disabled": 0, "lat": 38.91030633333333, "rental_uris": {"android": "https://dc.lft.to/lastmile_qr_scan", "ios": "https://dc.lft.to/lastmile_qr_scan"}, "bike_id": "82e9aa211c48d16f52e1b73053dea8a5", "lon": -77.03438533333333}, {"is_reserved": 0, "fusion_lon": 0.0, "fusion_lat": 0.0, "name": "ad5acc56ae0bc015d0068ccb3a9691b3", "type": "electric_scooter", "is_disabled": 0, "lat": 38.9189015, "rental_uris": {"android": "https://dc.lft.to/lastmile_qr_scan", "ios": "https://dc.lft.to/lastmile_qr_scan"}, "bike_id": "ad5acc56ae0bc015d0068ccb3a9691b3", "lon": -77.0297605}, {"is_reserved": 0, "fusion_lon": 0.0, "fusion_lat": 0.0, "name": "a452e7c7bb1b88319234b85fb8457805", "type": "electric_scooter", "is_disabled": 0, "lat": 38.922753, "rental_uris": {"android": "https://dc.lft.to/lastmile_qr_scan", "ios": "https://dc.lft.to/lastmile_qr_scan"}, "bike_id": "a452e7c7bb1b88319234b85fb8457805", "lon": -77.04285633333333}, {"is_reserved": 0, "fusion_lon": 0.0, "fusion_lat": 0.0, "name": "eb29bffa8cbf8c67bd45b1e295c8f29a", "type": "electric_scooter", "is_disabled": 0, "lat": 38.89503066666666, "rental_uris": {"android": "https://dc.lft.to/lastmile_qr_scan", "ios": "https://dc.lft.to/lastmile_qr_scan"}, "bike_id": "eb29bffa8cbf8c67bd45b1e295c8f29a", "lon": -76.93472333333334}, {"is_reserved": 0, "fusion_lon": 0.0, "fusion_lat": 0.0, "name": "f11398675ee07029fbe2923589d2d2d4", "type": "electric_scooter", "is_disabled": 0, "lat": 38.915739, "rental_uris": {"android": "https://dc.lft.to/lastmile_qr_scan", "ios": "https://dc.lft.to/lastmile_qr_scan"}, "bike_id": "f11398675ee07029fbe2923589d2d2d4", "lon": -77.02408666666666}, {"is_reserved": 0, "fusion_lon": 0.0, "fusion_lat": 0.0, "name": "37e4389e67517332b9ad36cfaaa34b5b", "type": "electric_scooter", "is_disabled": 0, "lat": 38.9227705, "rental_uris": {"android": "https://dc.lft.to/lastmile_qr_scan", "ios": "https://dc.lft.to/lastmile_qr_scan"}, "bike_id": "37e4389e67517332b9ad36cfaaa34b5b", "lon": -77.04284516666667}, {"is_reserved": 0, "fusion_lon": 0.0, "fusion_lat": 0.0, "name": "e353b7cf2390e83b354d955f40126b79", "type": "electric_scooter", "is_disabled": 0, "lat": 38.887681, "rental_uris": {"android": "https://dc.lft.to/lastmile_qr_scan", "ios": "https://dc.lft.to/lastmile_qr_scan"}, "bike_id": "e353b7cf2390e83b354d955f40126b79", "lon": -76.98684633333333}, {"is_reserved": 0, "fusion_lon": 0.0, "fusion_lat": 0.0, "name": "dfaa358a624ea39c0b09169a5e47b460", "type": "electric_bike", "is_disabled": 0, "lat": 39.05634083333333, "rental_uris": {"android": "https://dc.lft.to/lastmile_qr_scan", "ios": "https://dc.lft.to/lastmile_qr_scan"}, "bike_id": "dfaa358a624ea39c0b09169a5e47b460", "lon": -77.12521716666667}, {"is_reserved": 0, "fusion_lon": 0.0, "fusion_lat": 0.0, "name": "c876d890e3923cba5000b88c617a2159", "type": "electric_scooter", "is_disabled": 0, "lat": 38.920742, "rental_uris": {"android": "https://dc.lft.to/lastmile_qr_scan", "ios": "https://dc.lft.to/lastmile_qr_scan"}, "bike_id": "c876d890e3923cba5000b88c617a2159", "lon": -77.02460233333333}, {"is_reserved": 0, "fusion_lon": 0.0, "fusion_lat": 0.0, "name": "acec90ca7a8b5cbbb183b3312d6c4173", "type": "electric_scooter", "is_disabled": 0, "lat": 38.919683166666665, "rental_uris": {"android": "https://dc.lft.to/lastmile_qr_scan", "ios": "https://dc.lft.to/lastmile_qr_scan"}, "bike_id": "acec90ca7a8b5cbbb183b3312d6c4173", "lon": -77.04307316666667}, {"is_reserved": 0, "fusion_lon": 0.0, "fusion_lat": 0.0, "name": "e457d082597cda09ebb97ed31e14c302", "type": "electric_scooter", "is_disabled": 0, "lat": 38.9039185, "rental_uris": {"android": "https://dc.lft.to/lastmile_qr_scan", "ios": "https://dc.lft.to/lastmile_qr_scan"}, "bike_id": "e457d082597cda09ebb97ed31e14c302", "lon": -77.03846583333333}, {"is_reserved": 0, "fusion_lon": 0.0, "fusion_lat": 0.0, "name": "8ac24fb52d29e7d7c1c55a703d5d7aa0", "type": "electric_scooter", "is_disabled": 0, "lat": 38.897410666666666, "rental_uris": {"android": "https://dc.lft.to/lastmile_qr_scan", "ios": "https://dc.lft.to/lastmile_qr_scan"}, "bike_id": "8ac24fb52d29e7d7c1c55a703d5d7aa0", "lon": -77.03340066666667}, {"is_reserved": 0, "fusion_lon": 0.0, "fusion_lat": 0.0, "name": "e576d7d009f057a7dc03b82bb0993b84", "type": "electric_scooter", "is_disabled": 0, "lat": 38.945109, "rental_uris": {"android": "https://dc.lft.to/lastmile_qr_scan", "ios": "https://dc.lft.to/lastmile_qr_scan"}, "bike_id": "e576d7d009f057a7dc03b82bb0993b84", "lon": -77.074489}, {"is_reserved": 0, "fusion_lon": 0.0, "fusion_lat": 0.0, "name": "eae475f80e3c0ff272d02d05e93f5787", "type": "electric_scooter", "is_disabled": 0, "lat": 38.92445566666667, "rental_uris": {"android": "https://dc.lft.to/lastmile_qr_scan", "ios": "https://dc.lft.to/lastmile_qr_scan"}, "bike_id": "eae475f80e3c0ff272d02d05e93f5787", "lon": -76.97915316666666}, {"is_reserved": 0, "fusion_lon": 0.0, "fusion_lat": 0.0, "name": "b46700e94ae522c25a286027034c60fd", "type": "electric_scooter", "is_disabled": 0, "lat": 38.921571, "rental_uris": {"android": "https://dc.lft.to/lastmile_qr_scan", "ios": "https://dc.lft.to/lastmile_qr_scan"}, "bike_id": "b46700e94ae522c25a286027034c60fd", "lon": -77.03508466666666}, {"is_reserved": 0, "fusion_lon": 0.0, "fusion_lat": 0.0, "name": "c4dbc953bbd36a01cabe9ab85a3d8001", "type": "electric_scooter", "is_disabled": 0, "lat": 38.921655333333334, "rental_uris": {"android": "https://dc.lft.to/lastmile_qr_scan", "ios": "https://dc.lft.to/lastmile_qr_scan"}, "bike_id": "c4dbc953bbd36a01cabe9ab85a3d8001", "lon": -77.03333516666666}, {"is_reserved": 0, "fusion_lon": 0.0, "fusion_lat": 0.0, "name": "c7b662fd1314383eb74fc38e3d81738e", "type": "electric_scooter", "is_disabled": 0, "lat": 38.91686633333333, "rental_uris": {"android": "https://dc.lft.to/lastmile_qr_scan", "ios": "https://dc.lft.to/lastmile_qr_scan"}, "bike_id": "c7b662fd1314383eb74fc38e3d81738e", "lon": -77.0312145}, {"is_reserved": 0, "fusion_lon": 0.0, "fusion_lat": 0.0, "name": "61d179ea63743fef884fc230d3052e4c", "type": "electric_scooter", "is_disabled": 0, "lat": 38.90820766666667, "rental_uris": {"android": "https://dc.lft.to/lastmile_qr_scan", "ios": "https://dc.lft.to/lastmile_qr_scan"}, "bike_id": "61d179ea63743fef884fc230d3052e4c", "lon": -76.9920895}, {"is_reserved": 0, "fusion_lon": 0.0, "fusion_lat": 0.0, "name": "ebaddf406064086777a69f4fd52a1ab4", "type": "electric_scooter", "is_disabled": 0, "lat": 38.90795133333334, "rental_uris": {"android": "https://dc.lft.to/lastmile_qr_scan", "ios": "https://dc.lft.to/lastmile_qr_scan"}, "bike_id": "ebaddf406064086777a69f4fd52a1ab4", "lon": -77.03858833333334}, {"is_reserved": 0, "fusion_lon": 0.0, "fusion_lat": 0.0, "name": "0c7d4404e9c24567e0787adf69a2f8a8", "type": "electric_scooter", "is_disabled": 0, "lat": 38.9072865, "rental_uris": {"android": "https://dc.lft.to/lastmile_qr_scan", "ios": "https://dc.lft.to/lastmile_qr_scan"}, "bike_id": "0c7d4404e9c24567e0787adf69a2f8a8", "lon": -77.03828416666667}, {"is_reserved": 0, "fusion_lon": 0.0, "fusion_lat": 0.0, "name": "90110433785c673a9c02698c7299fe6e", "type": "electric_scooter", "is_disabled": 0, "lat": 38.8923675, "rental_uris": {"android": "https://dc.lft.to/lastmile_qr_scan", "ios": "https://dc.lft.to/lastmile_qr_scan"}, "bike_id": "90110433785c673a9c02698c7299fe6e", "lon": -77.03184966666667}, {"is_reserved": 0, "fusion_lon": 0.0, "fusion_lat": 0.0, "name": "02e3c94782e172eaa5347f52bae6cfa9", "type": "electric_scooter", "is_disabled": 0, "lat": 38.945163, "rental_uris": {"android": "https://dc.lft.to/lastmile_qr_scan", "ios": "https://dc.lft.to/lastmile_qr_scan"}, "bike_id": "02e3c94782e172eaa5347f52bae6cfa9", "lon": -77.03322516666667}, {"is_reserved": 0, "fusion_lon": 0.0, "fusion_lat": 0.0, "name": "c7c95f90a0b97ea5cab7a30dd5e745b6", "type": "electric_scooter", "is_disabled": 0, "lat": 38.922521833333334, "rental_uris": {"android": "https://dc.lft.to/lastmile_qr_scan", "ios": "https://dc.lft.to/lastmile_qr_scan"}, "bike_id": "c7c95f90a0b97ea5cab7a30dd5e745b6", "lon": -77.03062233333333}, {"is_reserved": 0, "fusion_lon": 0.0, "fusion_lat": 0.0, "name": "618aba6cead9780c66eac78a39c4eb3f", "type": "electric_scooter", "is_disabled": 0, "lat": 38.90816233333334, "rental_uris": {"android": "https://dc.lft.to/lastmile_qr_scan", "ios": "https://dc.lft.to/lastmile_qr_scan"}, "bike_id": "618aba6cead9780c66eac78a39c4eb3f", "lon": -77.04338216666666}, {"is_reserved": 0, "fusion_lon": 0.0, "fusion_lat": 0.0, "name": "2917125f0508ff8077de88b8d0b526c1", "type": "electric_bike", "is_disabled": 0, "lat": 38.85892, "rental_uris": {"android": "https://dc.lft.to/lastmile_qr_scan", "ios": "https://dc.lft.to/lastmile_qr_scan"}, "bike_id": "2917125f0508ff8077de88b8d0b526c1", "lon": -77.1186335}, {"is_reserved": 0, "fusion_lon": 0.0, "fusion_lat": 0.0, "name": "04303c97aec1c8e491faccd6ad37ccf1", "type": "electric_scooter", "is_disabled": 0, "lat": 38.92871816666667, "rental_uris": {"android": "https://dc.lft.to/lastmile_qr_scan", "ios": "https://dc.lft.to/lastmile_qr_scan"}, "bike_id": "04303c97aec1c8e491faccd6ad37ccf1", "lon": -77.03319016666667}, {"is_reserved": 0, "fusion_lon": 0.0, "fusion_lat": 0.0, "name": "fc2bd6d04158be59299a0f21f7e39232", "type": "electric_scooter", "is_disabled": 0, "lat": 38.91117533333333, "rental_uris": {"android": "https://dc.lft.to/lastmile_qr_scan", "ios": "https://dc.lft.to/lastmile_qr_scan"}, "bike_id": "fc2bd6d04158be59299a0f21f7e39232", "lon": -77.03154033333334}, {"is_reserved": 0, "fusion_lon": 0.0, "fusion_lat": 0.0, "name": "88f802ba5762349018728530af513154", "type": "electric_scooter", "is_disabled": 0, "lat": 38.8646925, "rental_uris": {"android": "https://dc.lft.to/lastmile_qr_scan", "ios": "https://dc.lft.to/lastmile_qr_scan"}, "bike_id": "88f802ba5762349018728530af513154", "lon": -76.97736966666666}, {"is_reserved": 0, "fusion_lon": 0.0, "fusion_lat": 0.0, "name": "f48d514b94d4262237aa86316c7286b1", "type": "electric_scooter", "is_disabled": 0, "lat": 38.9181735, "rental_uris": {"android": "https://dc.lft.to/lastmile_qr_scan", "ios": "https://dc.lft.to/lastmile_qr_scan"}, "bike_id": "f48d514b94d4262237aa86316c7286b1", "lon": -77.03564983333334}, {"is_reserved": 0, "fusion_lon": 0.0, "fusion_lat": 0.0, "name": "ea6a24a6566417423fb82e5388aba78a", "type": "electric_scooter", "is_disabled": 0, "lat": 38.9370795, "rental_uris": {"android": "https://dc.lft.to/lastmile_qr_scan", "ios": "https://dc.lft.to/lastmile_qr_scan"}, "bike_id": "ea6a24a6566417423fb82e5388aba78a", "lon": -77.024259}, {"is_reserved": 0, "fusion_lon": 0.0, "fusion_lat": 0.0, "name": "a0f1bfdd13c684741c63ef4a59a1ad59", "type": "electric_scooter", "is_disabled": 0, "lat": 38.867035333333334, "rental_uris": {"android": "https://dc.lft.to/lastmile_qr_scan", "ios": "https://dc.lft.to/lastmile_qr_scan"}, "bike_id": "a0f1bfdd13c684741c63ef4a59a1ad59", "lon": -76.987143}, {"is_reserved": 0, "fusion_lon": 0.0, "fusion_lat": 0.0, "name": "50586c3aea99e5b9128a5999ae6c509a", "type": "electric_scooter", "is_disabled": 0, "lat": 38.9314415, "rental_uris": {"android": "https://dc.lft.to/lastmile_qr_scan", "ios": "https://dc.lft.to/lastmile_qr_scan"}, "bike_id": "50586c3aea99e5b9128a5999ae6c509a", "lon": -77.04395516666666}, {"is_reserved": 0, "fusion_lon": 0.0, "fusion_lat": 0.0, "name": "0d81d4451d6c627766eab3ef25455a53", "type": "electric_scooter", "is_disabled": 0, "lat": 38.92438833333333, "rental_uris": {"android": "https://dc.lft.to/lastmile_qr_scan", "ios": "https://dc.lft.to/lastmile_qr_scan"}, "bike_id": "0d81d4451d6c627766eab3ef25455a53", "lon": -77.00064916666666}, {"is_reserved": 0, "fusion_lon": 0.0, "fusion_lat": 0.0, "name": "e242d364b705f1baf7d0de15c4e00bc0", "type": "electric_scooter", "is_disabled": 0, "lat": 38.91408116666667, "rental_uris": {"android": "https://dc.lft.to/lastmile_qr_scan", "ios": "https://dc.lft.to/lastmile_qr_scan"}, "bike_id": "e242d364b705f1baf7d0de15c4e00bc0", "lon": -77.03955883333333}, {"is_reserved": 0, "fusion_lon": 0.0, "fusion_lat": 0.0, "name": "33bf3a53ec10bc1731789dc0e1c327b4", "type": "electric_bike", "is_disabled": 0, "lat": 38.908332333333334, "rental_uris": {"android": "https://dc.lft.to/lastmile_qr_scan", "ios": "https://dc.lft.to/lastmile_qr_scan"}, "bike_id": "33bf3a53ec10bc1731789dc0e1c327b4", "lon": -76.93318216666667}, {"is_reserved": 0, "fusion_lon": 0.0, "fusion_lat": 0.0, "name": "0e328df03212b193003521c5767f6b5f", "type": "electric_scooter", "is_disabled": 0, "lat": 38.88508216666666, "rental_uris": {"android": "https://dc.lft.to/lastmile_qr_scan", "ios": "https://dc.lft.to/lastmile_qr_scan"}, "bike_id": "0e328df03212b193003521c5767f6b5f", "lon": -76.997582}, {"is_reserved": 0, "fusion_lon": 0.0, "fusion_lat": 0.0, "name": "de1705e9648269a8a63d247c986f9f4a", "type": "electric_scooter", "is_disabled": 0, "lat": 38.8840995, "rental_uris": {"android": "https://dc.lft.to/lastmile_qr_scan", "ios": "https://dc.lft.to/lastmile_qr_scan"}, "bike_id": "de1705e9648269a8a63d247c986f9f4a", "lon": -76.95384466666667}, {"is_reserved": 0, "fusion_lon": 0.0, "fusion_lat": 0.0, "name": "adc6657a3bca34c132ab803fb201841d", "type": "electric_scooter", "is_disabled": 0, "lat": 38.9228815, "rental_uris": {"android": "https://dc.lft.to/lastmile_qr_scan", "ios": "https://dc.lft.to/lastmile_qr_scan"}, "bike_id": "adc6657a3bca34c132ab803fb201841d", "lon": -77.040257}, {"is_reserved": 0, "fusion_lon": 0.0, "fusion_lat": 0.0, "name": "97a4e7c154d544ce881bf38bb4f03729", "type": "electric_bike", "is_disabled": 0, "lat": 38.839325333333335, "rental_uris": {"android": "https://dc.lft.to/lastmile_qr_scan", "ios": "https://dc.lft.to/lastmile_qr_scan"}, "bike_id": "97a4e7c154d544ce881bf38bb4f03729", "lon": -77.0790385}, {"is_reserved": 0, "fusion_lon": 0.0, "fusion_lat": 0.0, "name": "57f508785fc247d036d91b8c06d4565c", "type": "electric_scooter", "is_disabled": 0, "lat": 38.900764, "rental_uris": {"android": "https://dc.lft.to/lastmile_qr_scan", "ios": "https://dc.lft.to/lastmile_qr_scan"}, "bike_id": "57f508785fc247d036d91b8c06d4565c", "lon": -77.00208033333334}, {"is_reserved": 0, "fusion_lon": 0.0, "fusion_lat": 0.0, "name": "87263f5237430436542d008df860cc3f", "type": "electric_bike", "is_disabled": 0, "lat": 38.903144166666664, "rental_uris": {"android": "https://dc.lft.to/lastmile_qr_scan", "ios": "https://dc.lft.to/lastmile_qr_scan"}, "bike_id": "87263f5237430436542d008df860cc3f", "lon": -76.912162}, {"is_reserved": 0, "fusion_lon": 0.0, "fusion_lat": 0.0, "name": "ba80a9477978df72eb952cec8e38583f", "type": "electric_scooter", "is_disabled": 0, "lat": 38.911887166666666, "rental_uris": {"android": "https://dc.lft.to/lastmile_qr_scan", "ios": "https://dc.lft.to/lastmile_qr_scan"}, "bike_id": "ba80a9477978df72eb952cec8e38583f", "lon": -77.06084183333333}, {"is_reserved": 0, "fusion_lon": 0.0, "fusion_lat": 0.0, "name": "dd6294fd89c0b1868aef513999372296", "type": "electric_scooter", "is_disabled": 0, "lat": 38.9403865, "rental_uris": {"android": "https://dc.lft.to/lastmile_qr_scan", "ios": "https://dc.lft.to/lastmile_qr_scan"}, "bike_id": "dd6294fd89c0b1868aef513999372296", "lon": -77.02902983333334}, {"is_reserved": 0, "fusion_lon": 0.0, "fusion_lat": 0.0, "name": "7f47b8f33fa54b35c0fee38c0c1a78d1", "type": "electric_scooter", "is_disabled": 0, "lat": 38.90072516666667, "rental_uris": {"android": "https://dc.lft.to/lastmile_qr_scan", "ios": "https://dc.lft.to/lastmile_qr_scan"}, "bike_id": "7f47b8f33fa54b35c0fee38c0c1a78d1", "lon": -77.00207083333333}, {"is_reserved": 0, "fusion_lon": 0.0, "fusion_lat": 0.0, "name": "c698d9ce7908e2189221baf715cba276", "type": "electric_scooter", "is_disabled": 0, "lat": 38.95055933333333, "rental_uris": {"android": "https://dc.lft.to/lastmile_qr_scan", "ios": "https://dc.lft.to/lastmile_qr_scan"}, "bike_id": "c698d9ce7908e2189221baf715cba276", "lon": -77.007276}, {"is_reserved": 0, "fusion_lon": 0.0, "fusion_lat": 0.0, "name": "5ec21cb8647c207a1d928dbe38bd1f3e", "type": "electric_scooter", "is_disabled": 0, "lat": 38.8961635, "rental_uris": {"android": "https://dc.lft.to/lastmile_qr_scan", "ios": "https://dc.lft.to/lastmile_qr_scan"}, "bike_id": "5ec21cb8647c207a1d928dbe38bd1f3e", "lon": -76.9929875}, {"is_reserved": 0, "fusion_lon": 0.0, "fusion_lat": 0.0, "name": "08cc06b5e94ee79a54690c95f462e339", "type": "electric_scooter", "is_disabled": 0, "lat": 38.91807166666667, "rental_uris": {"android": "https://dc.lft.to/lastmile_qr_scan", "ios": "https://dc.lft.to/lastmile_qr_scan"}, "bike_id": "08cc06b5e94ee79a54690c95f462e339", "lon": -77.03196466666667}, {"is_reserved": 0, "fusion_lon": 0.0, "fusion_lat": 0.0, "name": "ccbb5984a4cb728db0dca5dff2b0150e", "type": "electric_scooter", "is_disabled": 0, "lat": 38.89222783333334, "rental_uris": {"android": "https://dc.lft.to/lastmile_qr_scan", "ios": "https://dc.lft.to/lastmile_qr_scan"}, "bike_id": "ccbb5984a4cb728db0dca5dff2b0150e", "lon": -77.03162466666667}, {"is_reserved": 0, "fusion_lon": 0.0, "fusion_lat": 0.0, "name": "de952b5ddc091bf788b9376f1107a1aa", "type": "electric_scooter", "is_disabled": 0, "lat": 38.91333083333333, "rental_uris": {"android": "https://dc.lft.to/lastmile_qr_scan", "ios": "https://dc.lft.to/lastmile_qr_scan"}, "bike_id": "de952b5ddc091bf788b9376f1107a1aa", "lon": -77.04820283333333}, {"is_reserved": 0, "fusion_lon": 0.0, "fusion_lat": 0.0, "name": "fa3df23cd520f03c93f5597a689695af", "type": "electric_scooter", "is_disabled": 0, "lat": 38.922305, "rental_uris": {"android": "https://dc.lft.to/lastmile_qr_scan", "ios": "https://dc.lft.to/lastmile_qr_scan"}, "bike_id": "fa3df23cd520f03c93f5597a689695af", "lon": -76.97533833333334}, {"is_reserved": 0, "fusion_lon": 0.0, "fusion_lat": 0.0, "name": "0d940fd36910aabf475d1b22a186d325", "type": "electric_scooter", "is_disabled": 0, "lat": 38.9088885, "rental_uris": {"android": "https://dc.lft.to/lastmile_qr_scan", "ios": "https://dc.lft.to/lastmile_qr_scan"}, "bike_id": "0d940fd36910aabf475d1b22a186d325", "lon": -77.07282133333334}, {"is_reserved": 0, "fusion_lon": 0.0, "fusion_lat": 0.0, "name": "3125250928dcaaa19514a532ec8fcddc", "type": "electric_scooter", "is_disabled": 0, "lat": 38.8899155, "rental_uris": {"android": "https://dc.lft.to/lastmile_qr_scan", "ios": "https://dc.lft.to/lastmile_qr_scan"}, "bike_id": "3125250928dcaaa19514a532ec8fcddc", "lon": -76.93107433333333}, {"is_reserved": 0, "fusion_lon": 0.0, "fusion_lat": 0.0, "name": "ce3dd733bee18973742b85f6eaa724df", "type": "electric_scooter", "is_disabled": 0, "lat": 38.8922735, "rental_uris": {"android": "https://dc.lft.to/lastmile_qr_scan", "ios": "https://dc.lft.to/lastmile_qr_scan"}, "bike_id": "ce3dd733bee18973742b85f6eaa724df", "lon": -77.043801}, {"is_reserved": 0, "fusion_lon": 0.0, "fusion_lat": 0.0, "name": "4557644e20a79f092f5819e88406b3ab", "type": "electric_scooter", "is_disabled": 0, "lat": 38.945322166666664, "rental_uris": {"android": "https://dc.lft.to/lastmile_qr_scan", "ios": "https://dc.lft.to/lastmile_qr_scan"}, "bike_id": "4557644e20a79f092f5819e88406b3ab", "lon": -77.02092683333333}, {"is_reserved": 0, "fusion_lon": 0.0, "fusion_lat": 0.0, "name": "445ea1bc72d30a94e380870f38117578", "type": "electric_scooter", "is_disabled": 0, "lat": 38.906076, "rental_uris": {"android": "https://dc.lft.to/lastmile_qr_scan", "ios": "https://dc.lft.to/lastmile_qr_scan"}, "bike_id": "445ea1bc72d30a94e380870f38117578", "lon": -76.9851945}, {"is_reserved": 0, "fusion_lon": 0.0, "fusion_lat": 0.0, "name": "3ad09fde38c1e726702abe7f0ca8e7ab", "type": "electric_scooter", "is_disabled": 0, "lat": 38.92392866666667, "rental_uris": {"android": "https://dc.lft.to/lastmile_qr_scan", "ios": "https://dc.lft.to/lastmile_qr_scan"}, "bike_id": "3ad09fde38c1e726702abe7f0ca8e7ab", "lon": -77.03537266666666}, {"is_reserved": 0, "fusion_lon": 0.0, "fusion_lat": 0.0, "name": "044ccd0be10db2f1456bbe734632df44", "type": "electric_bike", "is_disabled": 0, "lat": 38.922162, "rental_uris": {"android": "https://dc.lft.to/lastmile_qr_scan", "ios": "https://dc.lft.to/lastmile_qr_scan"}, "bike_id": "044ccd0be10db2f1456bbe734632df44", "lon": -77.08193533333333}, {"is_reserved": 0, "fusion_lon": 0.0, "fusion_lat": 0.0, "name": "455a1f860f6d17be85d9f4f26d433f2b", "type": "electric_scooter", "is_disabled": 0, "lat": 38.934523, "rental_uris": {"android": "https://dc.lft.to/lastmile_qr_scan", "ios": "https://dc.lft.to/lastmile_qr_scan"}, "bike_id": "455a1f860f6d17be85d9f4f26d433f2b", "lon": -77.03055033333334}, {"is_reserved": 0, "fusion_lon": 0.0, "fusion_lat": 0.0, "name": "5cb7aadd2615f9f82ac8e1b5dd1ab45d", "type": "electric_scooter", "is_disabled": 0, "lat": 38.91265416666667, "rental_uris": {"android": "https://dc.lft.to/lastmile_qr_scan", "ios": "https://dc.lft.to/lastmile_qr_scan"}, "bike_id": "5cb7aadd2615f9f82ac8e1b5dd1ab45d", "lon": -77.031308}, {"is_reserved": 0, "fusion_lon": 0.0, "fusion_lat": 0.0, "name": "8750f3498f89945c28f9a93432b44e8d", "type": "electric_scooter", "is_disabled": 0, "lat": 38.87657466666667, "rental_uris": {"android": "https://dc.lft.to/lastmile_qr_scan", "ios": "https://dc.lft.to/lastmile_qr_scan"}, "bike_id": "8750f3498f89945c28f9a93432b44e8d", "lon": -77.01950966666666}, {"is_reserved": 0, "fusion_lon": 0.0, "fusion_lat": 0.0, "name": "c7ad6ad2ddd472f935c611d70e0e172e", "type": "electric_scooter", "is_disabled": 0, "lat": 38.921833, "rental_uris": {"android": "https://dc.lft.to/lastmile_qr_scan", "ios": "https://dc.lft.to/lastmile_qr_scan"}, "bike_id": "c7ad6ad2ddd472f935c611d70e0e172e", "lon": -77.026678}, {"is_reserved": 0, "fusion_lon": 0.0, "fusion_lat": 0.0, "name": "a0e753d008c342ccd813945731c52c7a", "type": "electric_scooter", "is_disabled": 0, "lat": 38.905146, "rental_uris": {"android": "https://dc.lft.to/lastmile_qr_scan", "ios": "https://dc.lft.to/lastmile_qr_scan"}, "bike_id": "a0e753d008c342ccd813945731c52c7a", "lon": -77.04669416666667}, {"is_reserved": 0, "fusion_lon": 0.0, "fusion_lat": 0.0, "name": "fbd6a46e82c47a2cee7dafa971adbc6d", "type": "electric_bike", "is_disabled": 0, "lat": 38.969612166666664, "rental_uris": {"android": "https://dc.lft.to/lastmile_qr_scan", "ios": "https://dc.lft.to/lastmile_qr_scan"}, "bike_id": "fbd6a46e82c47a2cee7dafa971adbc6d", "lon": -76.95748666666667}, {"is_reserved": 0, "fusion_lon": 0.0, "fusion_lat": 0.0, "name": "84be749e9c64344f0dd073c3f0695c72", "type": "electric_scooter", "is_disabled": 0, "lat": 38.902634, "rental_uris": {"android": "https://dc.lft.to/lastmile_qr_scan", "ios": "https://dc.lft.to/lastmile_qr_scan"}, "bike_id": "84be749e9c64344f0dd073c3f0695c72", "lon": -77.01771916666667}, {"is_reserved": 0, "fusion_lon": 0.0, "fusion_lat": 0.0, "name": "3a7ea70c2627f9dedf25db83aef669e7", "type": "electric_bike", "is_disabled": 0, "lat": 38.93812333333333, "rental_uris": {"android": "https://dc.lft.to/lastmile_qr_scan", "ios": "https://dc.lft.to/lastmile_qr_scan"}, "bike_id": "3a7ea70c2627f9dedf25db83aef669e7", "lon": -77.06855133333333}, {"is_reserved": 0, "fusion_lon": 0.0, "fusion_lat": 0.0, "name": "b93341cc885c5f22e2ff677856588e92", "type": "electric_scooter", "is_disabled": 0, "lat": 38.9285125, "rental_uris": {"android": "https://dc.lft.to/lastmile_qr_scan", "ios": "https://dc.lft.to/lastmile_qr_scan"}, "bike_id": "b93341cc885c5f22e2ff677856588e92", "lon": -76.99600066666666}, {"is_reserved": 0, "fusion_lon": 0.0, "fusion_lat": 0.0, "name": "7b981232e79ae58eaf29427f42541276", "type": "electric_scooter", "is_disabled": 0, "lat": 38.900117, "rental_uris": {"android": "https://dc.lft.to/lastmile_qr_scan", "ios": "https://dc.lft.to/lastmile_qr_scan"}, "bike_id": "7b981232e79ae58eaf29427f42541276", "lon": -77.00671583333333}, {"is_reserved": 0, "fusion_lon": 0.0, "fusion_lat": 0.0, "name": "2e96afda333607ea7b39a263d25e0dba", "type": "electric_scooter", "is_disabled": 0, "lat": 38.9054495, "rental_uris": {"android": "https://dc.lft.to/lastmile_qr_scan", "ios": "https://dc.lft.to/lastmile_qr_scan"}, "bike_id": "2e96afda333607ea7b39a263d25e0dba", "lon": -77.04365233333333}, {"is_reserved": 0, "fusion_lon": 0.0, "fusion_lat": 0.0, "name": "251046a2d544134ae125a5fd6a3c31e4", "type": "electric_scooter", "is_disabled": 0, "lat": 38.92485416666667, "rental_uris": {"android": "https://dc.lft.to/lastmile_qr_scan", "ios": "https://dc.lft.to/lastmile_qr_scan"}, "bike_id": "251046a2d544134ae125a5fd6a3c31e4", "lon": -77.03497966666667}, {"is_reserved": 0, "fusion_lon": 0.0, "fusion_lat": 0.0, "name": "179e6ab560b10a65b1ab346c305d0b22", "type": "electric_scooter", "is_disabled": 0, "lat": 38.918104, "rental_uris": {"android": "https://dc.lft.to/lastmile_qr_scan", "ios": "https://dc.lft.to/lastmile_qr_scan"}, "bike_id": "179e6ab560b10a65b1ab346c305d0b22", "lon": -77.03563183333333}, {"is_reserved": 0, "fusion_lon": 0.0, "fusion_lat": 0.0, "name": "fd241fcbbac3431ec4aca59ae4af62d3", "type": "electric_scooter", "is_disabled": 0, "lat": 38.930308833333335, "rental_uris": {"android": "https://dc.lft.to/lastmile_qr_scan", "ios": "https://dc.lft.to/lastmile_qr_scan"}, "bike_id": "fd241fcbbac3431ec4aca59ae4af62d3", "lon": -77.01297616666666}, {"is_reserved": 0, "fusion_lon": 0.0, "fusion_lat": 0.0, "name": "6c4e1af17a6e71e36911290ae6ccbb90", "type": "electric_bike", "is_disabled": 0, "lat": 38.89790466666667, "rental_uris": {"android": "https://dc.lft.to/lastmile_qr_scan", "ios": "https://dc.lft.to/lastmile_qr_scan"}, "bike_id": "6c4e1af17a6e71e36911290ae6ccbb90", "lon": -77.00605566666667}, {"is_reserved": 0, "fusion_lon": 0.0, "fusion_lat": 0.0, "name": "37c8a6c9e21c5a610cd44d56b5c40dc3", "type": "electric_scooter", "is_disabled": 0, "lat": 38.90021466666666, "rental_uris": {"android": "https://dc.lft.to/lastmile_qr_scan", "ios": "https://dc.lft.to/lastmile_qr_scan"}, "bike_id": "37c8a6c9e21c5a610cd44d56b5c40dc3", "lon": -77.01188933333333}, {"is_reserved": 0, "fusion_lon": 0.0, "fusion_lat": 0.0, "name": "0a5f2d6c28d142962da602fbd510d54c", "type": "electric_scooter", "is_disabled": 0, "lat": 38.89220533333334, "rental_uris": {"android": "https://dc.lft.to/lastmile_qr_scan", "ios": "https://dc.lft.to/lastmile_qr_scan"}, "bike_id": "0a5f2d6c28d142962da602fbd510d54c", "lon": -77.04506366666666}, {"is_reserved": 0, "fusion_lon": 0.0, "fusion_lat": 0.0, "name": "369f7817f39d91f5ae07a77f9dd9cf78", "type": "electric_scooter", "is_disabled": 0, "lat": 38.952269333333334, "rental_uris": {"android": "https://dc.lft.to/lastmile_qr_scan", "ios": "https://dc.lft.to/lastmile_qr_scan"}, "bike_id": "369f7817f39d91f5ae07a77f9dd9cf78", "lon": -77.01437233333333}, {"is_reserved": 0, "fusion_lon": 0.0, "fusion_lat": 0.0, "name": "97832ecab5c6333df10d37c9b00e5c9f", "type": "electric_scooter", "is_disabled": 0, "lat": 38.8788235, "rental_uris": {"android": "https://dc.lft.to/lastmile_qr_scan", "ios": "https://dc.lft.to/lastmile_qr_scan"}, "bike_id": "97832ecab5c6333df10d37c9b00e5c9f", "lon": -77.02316516666667}, {"is_reserved": 0, "fusion_lon": 0.0, "fusion_lat": 0.0, "name": "6a3643b9a0a1a52a253046dcf3361a59", "type": "electric_scooter", "is_disabled": 0, "lat": 38.92274416666667, "rental_uris": {"android": "https://dc.lft.to/lastmile_qr_scan", "ios": "https://dc.lft.to/lastmile_qr_scan"}, "bike_id": "6a3643b9a0a1a52a253046dcf3361a59", "lon": -77.032172}, {"is_reserved": 0, "fusion_lon": 0.0, "fusion_lat": 0.0, "name": "d763f5647b698d713d28bc0e2b87c494", "type": "electric_scooter", "is_disabled": 0, "lat": 38.90725966666667, "rental_uris": {"android": "https://dc.lft.to/lastmile_qr_scan", "ios": "https://dc.lft.to/lastmile_qr_scan"}, "bike_id": "d763f5647b698d713d28bc0e2b87c494", "lon": -77.03824616666667}, {"is_reserved": 0, "fusion_lon": 0.0, "fusion_lat": 0.0, "name": "7632baeef2640a59bdeb7c003be186e1", "type": "electric_scooter", "is_disabled": 0, "lat": 38.887147, "rental_uris": {"android": "https://dc.lft.to/lastmile_qr_scan", "ios": "https://dc.lft.to/lastmile_qr_scan"}, "bike_id": "7632baeef2640a59bdeb7c003be186e1", "lon": -77.02174683333334}, {"is_reserved": 0, "fusion_lon": 0.0, "fusion_lat": 0.0, "name": "2b48b8648129adfc93e13130cef57469", "type": "electric_scooter", "is_disabled": 0, "lat": 38.9194695, "rental_uris": {"android": "https://dc.lft.to/lastmile_qr_scan", "ios": "https://dc.lft.to/lastmile_qr_scan"}, "bike_id": "2b48b8648129adfc93e13130cef57469", "lon": -77.07055483333333}, {"is_reserved": 0, "fusion_lon": 0.0, "fusion_lat": 0.0, "name": "d627dbac195efeab459cef3f34b37a6b", "type": "electric_scooter", "is_disabled": 0, "lat": 38.8949955, "rental_uris": {"android": "https://dc.lft.to/lastmile_qr_scan", "ios": "https://dc.lft.to/lastmile_qr_scan"}, "bike_id": "d627dbac195efeab459cef3f34b37a6b", "lon": -77.002078}, {"is_reserved": 0, "fusion_lon": 0.0, "fusion_lat": 0.0, "name": "4f7492033c0f1d0c68e2f89e6a07ebad", "type": "electric_scooter", "is_disabled": 0, "lat": 38.908944, "rental_uris": {"android": "https://dc.lft.to/lastmile_qr_scan", "ios": "https://dc.lft.to/lastmile_qr_scan"}, "bike_id": "4f7492033c0f1d0c68e2f89e6a07ebad", "lon": -77.000711}, {"is_reserved": 0, "fusion_lon": 0.0, "fusion_lat": 0.0, "name": "ecba09e6f4305c21cf13e45a064c6b0c", "type": "electric_scooter", "is_disabled": 0, "lat": 38.907226, "rental_uris": {"android": "https://dc.lft.to/lastmile_qr_scan", "ios": "https://dc.lft.to/lastmile_qr_scan"}, "bike_id": "ecba09e6f4305c21cf13e45a064c6b0c", "lon": -77.0174935}, {"is_reserved": 0, "fusion_lon": 0.0, "fusion_lat": 0.0, "name": "0e06684b50481ee67b139cf150e0689d", "type": "electric_bike", "is_disabled": 0, "lat": 38.8805395, "rental_uris": {"android": "https://dc.lft.to/lastmile_qr_scan", "ios": "https://dc.lft.to/lastmile_qr_scan"}, "bike_id": "0e06684b50481ee67b139cf150e0689d", "lon": -77.01126966666666}, {"is_reserved": 0, "fusion_lon": 0.0, "fusion_lat": 0.0, "name": "28c5eedcbd0dc367e0f8df14a6b2c45a", "type": "electric_scooter", "is_disabled": 0, "lat": 38.90921083333333, "rental_uris": {"android": "https://dc.lft.to/lastmile_qr_scan", "ios": "https://dc.lft.to/lastmile_qr_scan"}, "bike_id": "28c5eedcbd0dc367e0f8df14a6b2c45a", "lon": -77.0727065}, {"is_reserved": 0, "fusion_lon": 0.0, "fusion_lat": 0.0, "name": "a476cf0d18c02175409397752207539d", "type": "electric_scooter", "is_disabled": 0, "lat": 38.867015333333335, "rental_uris": {"android": "https://dc.lft.to/lastmile_qr_scan", "ios": "https://dc.lft.to/lastmile_qr_scan"}, "bike_id": "a476cf0d18c02175409397752207539d", "lon": -76.98715016666667}, {"is_reserved": 0, "fusion_lon": 0.0, "fusion_lat": 0.0, "name": "b19a415839387048abefd41d82fa8fac", "type": "electric_scooter", "is_disabled": 0, "lat": 38.8673635, "rental_uris": {"android": "https://dc.lft.to/lastmile_qr_scan", "ios": "https://dc.lft.to/lastmile_qr_scan"}, "bike_id": "b19a415839387048abefd41d82fa8fac", "lon": -76.98781216666667}, {"is_reserved": 0, "fusion_lon": 0.0, "fusion_lat": 0.0, "name": "59f24f0383a45fdb21be31b3b3433121", "type": "electric_scooter", "is_disabled": 0, "lat": 38.93255, "rental_uris": {"android": "https://dc.lft.to/lastmile_qr_scan", "ios": "https://dc.lft.to/lastmile_qr_scan"}, "bike_id": "59f24f0383a45fdb21be31b3b3433121", "lon": -77.02947216666666}, {"is_reserved": 0, "fusion_lon": 0.0, "fusion_lat": 0.0, "name": "6c6c6f59122d488596b4e0e95d61b435", "type": "electric_bike", "is_disabled": 0, "lat": 38.920214, "rental_uris": {"android": "https://dc.lft.to/lastmile_qr_scan", "ios": "https://dc.lft.to/lastmile_qr_scan"}, "bike_id": "6c6c6f59122d488596b4e0e95d61b435", "lon": -77.01316833333334}, {"is_reserved": 0, "fusion_lon": 0.0, "fusion_lat": 0.0, "name": "95b29d554a95f0eeef7bea5709a0959c", "type": "electric_scooter", "is_disabled": 0, "lat": 38.893722833333335, "rental_uris": {"android": "https://dc.lft.to/lastmile_qr_scan", "ios": "https://dc.lft.to/lastmile_qr_scan"}, "bike_id": "95b29d554a95f0eeef7bea5709a0959c", "lon": -77.03210066666666}, {"is_reserved": 0, "fusion_lon": 0.0, "fusion_lat": 0.0, "name": "1255a4b05b580397ee7707ed4f7a7d12", "type": "electric_scooter", "is_disabled": 0, "lat": 38.915495, "rental_uris": {"android": "https://dc.lft.to/lastmile_qr_scan", "ios": "https://dc.lft.to/lastmile_qr_scan"}, "bike_id": "1255a4b05b580397ee7707ed4f7a7d12", "lon": -77.03854516666667}, {"is_reserved": 0, "fusion_lon": 0.0, "fusion_lat": 0.0, "name": "eabb548a195972b45f3f49f7d5e199df", "type": "electric_scooter", "is_disabled": 0, "lat": 38.923276333333334, "rental_uris": {"android": "https://dc.lft.to/lastmile_qr_scan", "ios": "https://dc.lft.to/lastmile_qr_scan"}, "bike_id": "eabb548a195972b45f3f49f7d5e199df", "lon": -77.043955}, {"is_reserved": 0, "fusion_lon": 0.0, "fusion_lat": 0.0, "name": "56d4677eb96ad1bded2d3ba26d5f4c0c", "type": "electric_scooter", "is_disabled": 0, "lat": 38.900047, "rental_uris": {"android": "https://dc.lft.to/lastmile_qr_scan", "ios": "https://dc.lft.to/lastmile_qr_scan"}, "bike_id": "56d4677eb96ad1bded2d3ba26d5f4c0c", "lon": -76.99639383333333}, {"is_reserved": 0, "fusion_lon": 0.0, "fusion_lat": 0.0, "name": "293b51ebf3d92d38a0ec8a5bab376851", "type": "electric_scooter", "is_disabled": 0, "lat": 38.823842666666664, "rental_uris": {"android": "https://dc.lft.to/lastmile_qr_scan", "ios": "https://dc.lft.to/lastmile_qr_scan"}, "bike_id": "293b51ebf3d92d38a0ec8a5bab376851", "lon": -77.01184516666666}, {"is_reserved": 0, "fusion_lon": 0.0, "fusion_lat": 0.0, "name": "d100a474114cf37eb64df5f9d237de05", "type": "electric_scooter", "is_disabled": 0, "lat": 38.90019383333333, "rental_uris": {"android": "https://dc.lft.to/lastmile_qr_scan", "ios": "https://dc.lft.to/lastmile_qr_scan"}, "bike_id": "d100a474114cf37eb64df5f9d237de05", "lon": -77.04010566666666}, {"is_reserved": 0, "fusion_lon": 0.0, "fusion_lat": 0.0, "name": "fa6ebbdcef65ed9898af836fc0b8ca08", "type": "electric_scooter", "is_disabled": 0, "lat": 38.90811866666667, "rental_uris": {"android": "https://dc.lft.to/lastmile_qr_scan", "ios": "https://dc.lft.to/lastmile_qr_scan"}, "bike_id": "fa6ebbdcef65ed9898af836fc0b8ca08", "lon": -77.03447016666667}, {"is_reserved": 0, "fusion_lon": 0.0, "fusion_lat": 0.0, "name": "0713e544a58a3b8b705077893c134169", "type": "electric_scooter", "is_disabled": 0, "lat": 38.91408066666666, "rental_uris": {"android": "https://dc.lft.to/lastmile_qr_scan", "ios": "https://dc.lft.to/lastmile_qr_scan"}, "bike_id": "0713e544a58a3b8b705077893c134169", "lon": -77.039534}, {"is_reserved": 0, "fusion_lon": 0.0, "fusion_lat": 0.0, "name": "68c8e02d88b286fae8e2eccf82129065", "type": "electric_scooter", "is_disabled": 0, "lat": 38.9176285, "rental_uris": {"android": "https://dc.lft.to/lastmile_qr_scan", "ios": "https://dc.lft.to/lastmile_qr_scan"}, "bike_id": "68c8e02d88b286fae8e2eccf82129065", "lon": -77.01908783333333}, {"is_reserved": 0, "fusion_lon": 0.0, "fusion_lat": 0.0, "name": "f170b5c77ef5286b425ec8f70b376341", "type": "electric_scooter", "is_disabled": 0, "lat": 38.92924083333333, "rental_uris": {"android": "https://dc.lft.to/lastmile_qr_scan", "ios": "https://dc.lft.to/lastmile_qr_scan"}, "bike_id": "f170b5c77ef5286b425ec8f70b376341", "lon": -77.034829}, {"is_reserved": 0, "fusion_lon": 0.0, "fusion_lat": 0.0, "name": "75f2203d8b05a1ef81d5e8a6ca7f859a", "type": "electric_scooter", "is_disabled": 0, "lat": 38.918106, "rental_uris": {"android": "https://dc.lft.to/lastmile_qr_scan", "ios": "https://dc.lft.to/lastmile_qr_scan"}, "bike_id": "75f2203d8b05a1ef81d5e8a6ca7f859a", "lon": -77.03320666666667}, {"is_reserved": 0, "fusion_lon": 0.0, "fusion_lat": 0.0, "name": "e1fd42f38029709eae3af95c5e8eecfa", "type": "electric_scooter", "is_disabled": 0, "lat": 38.917928833333335, "rental_uris": {"android": "https://dc.lft.to/lastmile_qr_scan", "ios": "https://dc.lft.to/lastmile_qr_scan"}, "bike_id": "e1fd42f38029709eae3af95c5e8eecfa", "lon": -77.031999}, {"is_reserved": 0, "fusion_lon": 0.0, "fusion_lat": 0.0, "name": "c82ee85ada6176e2d0335604206d61de", "type": "electric_scooter", "is_disabled": 0, "lat": 38.93481216666667, "rental_uris": {"android": "https://dc.lft.to/lastmile_qr_scan", "ios": "https://dc.lft.to/lastmile_qr_scan"}, "bike_id": "c82ee85ada6176e2d0335604206d61de", "lon": -77.06482183333334}, {"is_reserved": 0, "fusion_lon": 0.0, "fusion_lat": 0.0, "name": "e219ca4dd727af7bca8e5526de6c6483", "type": "electric_scooter", "is_disabled": 0, "lat": 38.898117166666665, "rental_uris": {"android": "https://dc.lft.to/lastmile_qr_scan", "ios": "https://dc.lft.to/lastmile_qr_scan"}, "bike_id": "e219ca4dd727af7bca8e5526de6c6483", "lon": -77.040096}, {"is_reserved": 0, "fusion_lon": 0.0, "fusion_lat": 0.0, "name": "9eb8608e938548fa327bfecbf80cd2fd", "type": "electric_scooter", "is_disabled": 0, "lat": 38.87542916666666, "rental_uris": {"android": "https://dc.lft.to/lastmile_qr_scan", "ios": "https://dc.lft.to/lastmile_qr_scan"}, "bike_id": "9eb8608e938548fa327bfecbf80cd2fd", "lon": -77.00578133333333}, {"is_reserved": 0, "fusion_lon": 0.0, "fusion_lat": 0.0, "name": "d8ae2c2a37864dd2d193ed947a3953ce", "type": "electric_scooter", "is_disabled": 0, "lat": 38.92050066666667, "rental_uris": {"android": "https://dc.lft.to/lastmile_qr_scan", "ios": "https://dc.lft.to/lastmile_qr_scan"}, "bike_id": "d8ae2c2a37864dd2d193ed947a3953ce", "lon": -77.03464983333333}, {"is_reserved": 0, "fusion_lon": 0.0, "fusion_lat": 0.0, "name": "8c06358254122d23e6d3bc04fac8d621", "type": "electric_scooter", "is_disabled": 0, "lat": 38.952008666666664, "rental_uris": {"android": "https://dc.lft.to/lastmile_qr_scan", "ios": "https://dc.lft.to/lastmile_qr_scan"}, "bike_id": "8c06358254122d23e6d3bc04fac8d621", "lon": -77.0273645}, {"is_reserved": 0, "fusion_lon": 0.0, "fusion_lat": 0.0, "name": "1263737da20c5a6a0c0a76103c2f5597", "type": "electric_scooter", "is_disabled": 0, "lat": 38.907179166666666, "rental_uris": {"android": "https://dc.lft.to/lastmile_qr_scan", "ios": "https://dc.lft.to/lastmile_qr_scan"}, "bike_id": "1263737da20c5a6a0c0a76103c2f5597", "lon": -77.04813916666667}, {"is_reserved": 0, "fusion_lon": 0.0, "fusion_lat": 0.0, "name": "77bbdc4fde24d73c7cd8e0b73d2e01db", "type": "electric_scooter", "is_disabled": 0, "lat": 38.90120683333333, "rental_uris": {"android": "https://dc.lft.to/lastmile_qr_scan", "ios": "https://dc.lft.to/lastmile_qr_scan"}, "bike_id": "77bbdc4fde24d73c7cd8e0b73d2e01db", "lon": -77.04012933333334}, {"is_reserved": 0, "fusion_lon": 0.0, "fusion_lat": 0.0, "name": "288e322ba8c8b142cb3169cbce3e8af7", "type": "electric_scooter", "is_disabled": 0, "lat": 38.90362283333333, "rental_uris": {"android": "https://dc.lft.to/lastmile_qr_scan", "ios": "https://dc.lft.to/lastmile_qr_scan"}, "bike_id": "288e322ba8c8b142cb3169cbce3e8af7", "lon": -77.00605766666666}, {"is_reserved": 0, "fusion_lon": 0.0, "fusion_lat": 0.0, "name": "4fc99b47090ab887ef1427f766b3cac8", "type": "electric_scooter", "is_disabled": 0, "lat": 38.913838, "rental_uris": {"android": "https://dc.lft.to/lastmile_qr_scan", "ios": "https://dc.lft.to/lastmile_qr_scan"}, "bike_id": "4fc99b47090ab887ef1427f766b3cac8", "lon": -77.017056}, {"is_reserved": 0, "fusion_lon": 0.0, "fusion_lat": 0.0, "name": "d3711e2ddee01526926994cf2051aadb", "type": "electric_scooter", "is_disabled": 0, "lat": 38.909723166666666, "rental_uris": {"android": "https://dc.lft.to/lastmile_qr_scan", "ios": "https://dc.lft.to/lastmile_qr_scan"}, "bike_id": "d3711e2ddee01526926994cf2051aadb", "lon": -77.03857816666667}, {"is_reserved": 0, "fusion_lon": 0.0, "fusion_lat": 0.0, "name": "91d56f70cfec1b85bc91a6cc45095bbf", "type": "electric_scooter", "is_disabled": 0, "lat": 38.9013495, "rental_uris": {"android": "https://dc.lft.to/lastmile_qr_scan", "ios": "https://dc.lft.to/lastmile_qr_scan"}, "bike_id": "91d56f70cfec1b85bc91a6cc45095bbf", "lon": -77.03220716666667}, {"is_reserved": 0, "fusion_lon": 0.0, "fusion_lat": 0.0, "name": "dc9520f5495388780250d3cd2175c5dc", "type": "electric_scooter", "is_disabled": 0, "lat": 38.8902015, "rental_uris": {"android": "https://dc.lft.to/lastmile_qr_scan", "ios": "https://dc.lft.to/lastmile_qr_scan"}, "bike_id": "dc9520f5495388780250d3cd2175c5dc", "lon": -76.9373225}, {"is_reserved": 0, "fusion_lon": 0.0, "fusion_lat": 0.0, "name": "798016443f5a69fec4b4f4faa6b044ae", "type": "electric_scooter", "is_disabled": 0, "lat": 38.907344333333334, "rental_uris": {"android": "https://dc.lft.to/lastmile_qr_scan", "ios": "https://dc.lft.to/lastmile_qr_scan"}, "bike_id": "798016443f5a69fec4b4f4faa6b044ae", "lon": -77.0498465}, {"is_reserved": 0, "fusion_lon": 0.0, "fusion_lat": 0.0, "name": "8af6abbe0d58116976e645b30eee21a3", "type": "electric_scooter", "is_disabled": 0, "lat": 38.908911333333336, "rental_uris": {"android": "https://dc.lft.to/lastmile_qr_scan", "ios": "https://dc.lft.to/lastmile_qr_scan"}, "bike_id": "8af6abbe0d58116976e645b30eee21a3", "lon": -76.9854145}, {"is_reserved": 0, "fusion_lon": 0.0, "fusion_lat": 0.0, "name": "238d103724ef322fe18ebcc726b2f96f", "type": "electric_scooter", "is_disabled": 0, "lat": 38.926557, "rental_uris": {"android": "https://dc.lft.to/lastmile_qr_scan", "ios": "https://dc.lft.to/lastmile_qr_scan"}, "bike_id": "238d103724ef322fe18ebcc726b2f96f", "lon": -77.022818}, {"is_reserved": 0, "fusion_lon": 0.0, "fusion_lat": 0.0, "name": "5fc9572ce759f3265c63faa4ea4970f2", "type": "electric_scooter", "is_disabled": 0, "lat": 38.88682766666667, "rental_uris": {"android": "https://dc.lft.to/lastmile_qr_scan", "ios": "https://dc.lft.to/lastmile_qr_scan"}, "bike_id": "5fc9572ce759f3265c63faa4ea4970f2", "lon": -76.954722}, {"is_reserved": 0, "fusion_lon": 0.0, "fusion_lat": 0.0, "name": "2cb19bafd884ef49010a46ac73e0c1f3", "type": "electric_scooter", "is_disabled": 0, "lat": 38.887435833333335, "rental_uris": {"android": "https://dc.lft.to/lastmile_qr_scan", "ios": "https://dc.lft.to/lastmile_qr_scan"}, "bike_id": "2cb19bafd884ef49010a46ac73e0c1f3", "lon": -77.027346}, {"is_reserved": 0, "fusion_lon": 0.0, "fusion_lat": 0.0, "name": "79bea786ffe4c0ec9aee1a9332aeb165", "type": "electric_scooter", "is_disabled": 0, "lat": 38.91824583333333, "rental_uris": {"android": "https://dc.lft.to/lastmile_qr_scan", "ios": "https://dc.lft.to/lastmile_qr_scan"}, "bike_id": "79bea786ffe4c0ec9aee1a9332aeb165", "lon": -77.03455783333334}, {"is_reserved": 0, "fusion_lon": 0.0, "fusion_lat": 0.0, "name": "e06bf2be2f3817d95d81230ef72eefc5", "type": "electric_scooter", "is_disabled": 0, "lat": 38.931040333333335, "rental_uris": {"android": "https://dc.lft.to/lastmile_qr_scan", "ios": "https://dc.lft.to/lastmile_qr_scan"}, "bike_id": "e06bf2be2f3817d95d81230ef72eefc5", "lon": -77.0266155}, {"is_reserved": 0, "fusion_lon": 0.0, "fusion_lat": 0.0, "name": "7dffa467af3667a23afceb7639421a7e", "type": "electric_scooter", "is_disabled": 0, "lat": 38.8813475, "rental_uris": {"android": "https://dc.lft.to/lastmile_qr_scan", "ios": "https://dc.lft.to/lastmile_qr_scan"}, "bike_id": "7dffa467af3667a23afceb7639421a7e", "lon": -76.99560983333333}, {"is_reserved": 0, "fusion_lon": 0.0, "fusion_lat": 0.0, "name": "bc7af35c9afbe518de67a2b3e601bf33", "type": "electric_bike", "is_disabled": 0, "lat": 38.896186166666666, "rental_uris": {"android": "https://dc.lft.to/lastmile_qr_scan", "ios": "https://dc.lft.to/lastmile_qr_scan"}, "bike_id": "bc7af35c9afbe518de67a2b3e601bf33", "lon": -76.90745083333333}, {"is_reserved": 0, "fusion_lon": 0.0, "fusion_lat": 0.0, "name": "76b10f6aa19c9087f700cc5a0d3162e4", "type": "electric_scooter", "is_disabled": 0, "lat": 38.904978166666666, "rental_uris": {"android": "https://dc.lft.to/lastmile_qr_scan", "ios": "https://dc.lft.to/lastmile_qr_scan"}, "bike_id": "76b10f6aa19c9087f700cc5a0d3162e4", "lon": -76.97427933333333}, {"is_reserved": 0, "fusion_lon": 0.0, "fusion_lat": 0.0, "name": "395ac8e6e12198fa6af734b71f32998f", "type": "electric_scooter", "is_disabled": 0, "lat": 38.89748083333333, "rental_uris": {"android": "https://dc.lft.to/lastmile_qr_scan", "ios": "https://dc.lft.to/lastmile_qr_scan"}, "bike_id": "395ac8e6e12198fa6af734b71f32998f", "lon": -77.03344466666667}, {"is_reserved": 0, "fusion_lon": 0.0, "fusion_lat": 0.0, "name": "362f1b61752b266473752d555f77b079", "type": "electric_scooter", "is_disabled": 0, "lat": 38.903838666666665, "rental_uris": {"android": "https://dc.lft.to/lastmile_qr_scan", "ios": "https://dc.lft.to/lastmile_qr_scan"}, "bike_id": "362f1b61752b266473752d555f77b079", "lon": -77.03020483333333}, {"is_reserved": 0, "fusion_lon": 0.0, "fusion_lat": 0.0, "name": "2eb7d371315f68b688db824601ef38e2", "type": "electric_scooter", "is_disabled": 0, "lat": 38.897312, "rental_uris": {"android": "https://dc.lft.to/lastmile_qr_scan", "ios": "https://dc.lft.to/lastmile_qr_scan"}, "bike_id": "2eb7d371315f68b688db824601ef38e2", "lon": -77.05574366666667}, {"is_reserved": 0, "fusion_lon": 0.0, "fusion_lat": 0.0, "name": "5a6006a0c1ac3f92f7098c6a0b0c0fdb", "type": "electric_scooter", "is_disabled": 0, "lat": 38.87901316666667, "rental_uris": {"android": "https://dc.lft.to/lastmile_qr_scan", "ios": "https://dc.lft.to/lastmile_qr_scan"}, "bike_id": "5a6006a0c1ac3f92f7098c6a0b0c0fdb", "lon": -77.00705983333333}, {"is_reserved": 0, "fusion_lon": 0.0, "fusion_lat": 0.0, "name": "643022743aa3b1f8ca63fadf74e1896f", "type": "electric_scooter", "is_disabled": 0, "lat": 38.904576, "rental_uris": {"android": "https://dc.lft.to/lastmile_qr_scan", "ios": "https://dc.lft.to/lastmile_qr_scan"}, "bike_id": "643022743aa3b1f8ca63fadf74e1896f", "lon": -77.0172235}, {"is_reserved": 0, "fusion_lon": 0.0, "fusion_lat": 0.0, "name": "32f31d057ee86f98ec49fdf44401422f", "type": "electric_scooter", "is_disabled": 0, "lat": 38.93324916666667, "rental_uris": {"android": "https://dc.lft.to/lastmile_qr_scan", "ios": "https://dc.lft.to/lastmile_qr_scan"}, "bike_id": "32f31d057ee86f98ec49fdf44401422f", "lon": -77.034214}, {"is_reserved": 0, "fusion_lon": 0.0, "fusion_lat": 0.0, "name": "2d21dbf7f39c3d1e35c681cd8fc2eafc", "type": "electric_scooter", "is_disabled": 0, "lat": 38.93443033333333, "rental_uris": {"android": "https://dc.lft.to/lastmile_qr_scan", "ios": "https://dc.lft.to/lastmile_qr_scan"}, "bike_id": "2d21dbf7f39c3d1e35c681cd8fc2eafc", "lon": -76.9988335}, {"is_reserved": 0, "fusion_lon": 0.0, "fusion_lat": 0.0, "name": "cf7679db339d4acfb8e42d3997451890", "type": "electric_scooter", "is_disabled": 0, "lat": 38.92685916666667, "rental_uris": {"android": "https://dc.lft.to/lastmile_qr_scan", "ios": "https://dc.lft.to/lastmile_qr_scan"}, "bike_id": "cf7679db339d4acfb8e42d3997451890", "lon": -77.0278015}, {"is_reserved": 0, "fusion_lon": 0.0, "fusion_lat": 0.0, "name": "888574061ad6e2323c8c903194fdca3b", "type": "electric_scooter", "is_disabled": 0, "lat": 38.92169116666667, "rental_uris": {"android": "https://dc.lft.to/lastmile_qr_scan", "ios": "https://dc.lft.to/lastmile_qr_scan"}, "bike_id": "888574061ad6e2323c8c903194fdca3b", "lon": -77.04011616666666}, {"is_reserved": 0, "fusion_lon": 0.0, "fusion_lat": 0.0, "name": "d99612632be9c8d537fa25ec8a553813", "type": "electric_scooter", "is_disabled": 0, "lat": 38.90065833333333, "rental_uris": {"android": "https://dc.lft.to/lastmile_qr_scan", "ios": "https://dc.lft.to/lastmile_qr_scan"}, "bike_id": "d99612632be9c8d537fa25ec8a553813", "lon": -76.94691333333333}, {"is_reserved": 0, "fusion_lon": 0.0, "fusion_lat": 0.0, "name": "7def84bb7a35388f2541c825de9ea6db", "type": "electric_scooter", "is_disabled": 0, "lat": 38.950879, "rental_uris": {"android": "https://dc.lft.to/lastmile_qr_scan", "ios": "https://dc.lft.to/lastmile_qr_scan"}, "bike_id": "7def84bb7a35388f2541c825de9ea6db", "lon": -77.02327866666667}, {"is_reserved": 0, "fusion_lon": 0.0, "fusion_lat": 0.0, "name": "18005efeb2ba4f984a295390918f48d1", "type": "electric_scooter", "is_disabled": 0, "lat": 38.89220266666667, "rental_uris": {"android": "https://dc.lft.to/lastmile_qr_scan", "ios": "https://dc.lft.to/lastmile_qr_scan"}, "bike_id": "18005efeb2ba4f984a295390918f48d1", "lon": -77.0263005}, {"is_reserved": 0, "fusion_lon": 0.0, "fusion_lat": 0.0, "name": "5cb0b65674f91e86316fb7db1c5c46d7", "type": "electric_bike", "is_disabled": 0, "lat": 38.96279166666667, "rental_uris": {"android": "https://dc.lft.to/lastmile_qr_scan", "ios": "https://dc.lft.to/lastmile_qr_scan"}, "bike_id": "5cb0b65674f91e86316fb7db1c5c46d7", "lon": -77.01459016666666}, {"is_reserved": 0, "fusion_lon": 0.0, "fusion_lat": 0.0, "name": "9863f6975d46dbb3e9c14d952d91e79f", "type": "electric_bike", "is_disabled": 0, "lat": 38.9309395, "rental_uris": {"android": "https://dc.lft.to/lastmile_qr_scan", "ios": "https://dc.lft.to/lastmile_qr_scan"}, "bike_id": "9863f6975d46dbb3e9c14d952d91e79f", "lon": -77.02595133333334}, {"is_reserved": 0, "fusion_lon": 0.0, "fusion_lat": 0.0, "name": "8293e1effefa119d7575e3c70eb1060b", "type": "electric_scooter", "is_disabled": 0, "lat": 38.911901, "rental_uris": {"android": "https://dc.lft.to/lastmile_qr_scan", "ios": "https://dc.lft.to/lastmile_qr_scan"}, "bike_id": "8293e1effefa119d7575e3c70eb1060b", "lon": -77.00971433333333}, {"is_reserved": 0, "fusion_lon": 0.0, "fusion_lat": 0.0, "name": "7f2fb5487dc953b7d8286b118c843289", "type": "electric_scooter", "is_disabled": 0, "lat": 38.88726833333333, "rental_uris": {"android": "https://dc.lft.to/lastmile_qr_scan", "ios": "https://dc.lft.to/lastmile_qr_scan"}, "bike_id": "7f2fb5487dc953b7d8286b118c843289", "lon": -77.02837166666667}, {"is_reserved": 0, "fusion_lon": 0.0, "fusion_lat": 0.0, "name": "1b5edbf63b5eccc3f4fc6dd8d9e2863f", "type": "electric_scooter", "is_disabled": 0, "lat": 38.90962533333333, "rental_uris": {"android": "https://dc.lft.to/lastmile_qr_scan", "ios": "https://dc.lft.to/lastmile_qr_scan"}, "bike_id": "1b5edbf63b5eccc3f4fc6dd8d9e2863f", "lon": -77.03865866666666}, {"is_reserved": 0, "fusion_lon": 0.0, "fusion_lat": 0.0, "name": "9a1129c800cd4fe8f99ca39f38933af2", "type": "electric_scooter", "is_disabled": 0, "lat": 38.91546866666667, "rental_uris": {"android": "https://dc.lft.to/lastmile_qr_scan", "ios": "https://dc.lft.to/lastmile_qr_scan"}, "bike_id": "9a1129c800cd4fe8f99ca39f38933af2", "lon": -77.0385835}, {"is_reserved": 0, "fusion_lon": 0.0, "fusion_lat": 0.0, "name": "d82b41f1651f43f76c845b8baa0a916c", "type": "electric_scooter", "is_disabled": 0, "lat": 38.888136, "rental_uris": {"android": "https://dc.lft.to/lastmile_qr_scan", "ios": "https://dc.lft.to/lastmile_qr_scan"}, "bike_id": "d82b41f1651f43f76c845b8baa0a916c", "lon": -76.93345066666667}, {"is_reserved": 0, "fusion_lon": 0.0, "fusion_lat": 0.0, "name": "eeb695d389385cc5c3b2c8f58c6f28d2", "type": "electric_scooter", "is_disabled": 0, "lat": 38.907530333333334, "rental_uris": {"android": "https://dc.lft.to/lastmile_qr_scan", "ios": "https://dc.lft.to/lastmile_qr_scan"}, "bike_id": "eeb695d389385cc5c3b2c8f58c6f28d2", "lon": -77.00101633333334}, {"is_reserved": 0, "fusion_lon": 0.0, "fusion_lat": 0.0, "name": "5086011a6f728bbc0bd6bb3654cfc4b6", "type": "electric_scooter", "is_disabled": 0, "lat": 38.920927, "rental_uris": {"android": "https://dc.lft.to/lastmile_qr_scan", "ios": "https://dc.lft.to/lastmile_qr_scan"}, "bike_id": "5086011a6f728bbc0bd6bb3654cfc4b6", "lon": -77.00432983333333}, {"is_reserved": 0, "fusion_lon": 0.0, "fusion_lat": 0.0, "name": "818ebcc42b14f31c813769f1d996074a", "type": "electric_scooter", "is_disabled": 0, "lat": 38.927754666666665, "rental_uris": {"android": "https://dc.lft.to/lastmile_qr_scan", "ios": "https://dc.lft.to/lastmile_qr_scan"}, "bike_id": "818ebcc42b14f31c813769f1d996074a", "lon": -77.02777016666667}, {"is_reserved": 0, "fusion_lon": 0.0, "fusion_lat": 0.0, "name": "14f49935dce00c1b8e64ce9b137e28b6", "type": "electric_scooter", "is_disabled": 0, "lat": 38.9072795, "rental_uris": {"android": "https://dc.lft.to/lastmile_qr_scan", "ios": "https://dc.lft.to/lastmile_qr_scan"}, "bike_id": "14f49935dce00c1b8e64ce9b137e28b6", "lon": -77.03822233333334}, {"is_reserved": 0, "fusion_lon": 0.0, "fusion_lat": 0.0, "name": "4a8b7ce6d81360ac9ba7aeb54dd54c12", "type": "electric_scooter", "is_disabled": 0, "lat": 38.90013316666667, "rental_uris": {"android": "https://dc.lft.to/lastmile_qr_scan", "ios": "https://dc.lft.to/lastmile_qr_scan"}, "bike_id": "4a8b7ce6d81360ac9ba7aeb54dd54c12", "lon": -76.98873183333333}, {"is_reserved": 0, "fusion_lon": 0.0, "fusion_lat": 0.0, "name": "f54d8e76961524016ba150c458a7a832", "type": "electric_bike", "is_disabled": 0, "lat": 38.876382166666666, "rental_uris": {"android": "https://dc.lft.to/lastmile_qr_scan", "ios": "https://dc.lft.to/lastmile_qr_scan"}, "bike_id": "f54d8e76961524016ba150c458a7a832", "lon": -76.98867033333333}, {"is_reserved": 0, "fusion_lon": 0.0, "fusion_lat": 0.0, "name": "5ad25e8bcbe7b1733e5a3d1fd3795592", "type": "electric_scooter", "is_disabled": 0, "lat": 38.873683, "rental_uris": {"android": "https://dc.lft.to/lastmile_qr_scan", "ios": "https://dc.lft.to/lastmile_qr_scan"}, "bike_id": "5ad25e8bcbe7b1733e5a3d1fd3795592", "lon": -77.00623016666667}, {"is_reserved": 0, "fusion_lon": 0.0, "fusion_lat": 0.0, "name": "608be3284a67d47341b5e13d4f0b66de", "type": "electric_scooter", "is_disabled": 0, "lat": 38.902974, "rental_uris": {"android": "https://dc.lft.to/lastmile_qr_scan", "ios": "https://dc.lft.to/lastmile_qr_scan"}, "bike_id": "608be3284a67d47341b5e13d4f0b66de", "lon": -77.03357716666666}, {"is_reserved": 0, "fusion_lon": 0.0, "fusion_lat": 0.0, "name": "e3b9df4f3e1d4e2a50e9ba7060510502", "type": "electric_scooter", "is_disabled": 0, "lat": 38.864272, "rental_uris": {"android": "https://dc.lft.to/lastmile_qr_scan", "ios": "https://dc.lft.to/lastmile_qr_scan"}, "bike_id": "e3b9df4f3e1d4e2a50e9ba7060510502", "lon": -77.01218183333333}, {"is_reserved": 0, "fusion_lon": 0.0, "fusion_lat": 0.0, "name": "3a7aff95e908eac928dab2b5c3114fbd", "type": "electric_scooter", "is_disabled": 0, "lat": 38.90435683333333, "rental_uris": {"android": "https://dc.lft.to/lastmile_qr_scan", "ios": "https://dc.lft.to/lastmile_qr_scan"}, "bike_id": "3a7aff95e908eac928dab2b5c3114fbd", "lon": -77.0259305}, {"is_reserved": 0, "fusion_lon": 0.0, "fusion_lat": 0.0, "name": "a9e0c217641e443b2ff431d3965f968d", "type": "electric_scooter", "is_disabled": 0, "lat": 38.9174655, "rental_uris": {"android": "https://dc.lft.to/lastmile_qr_scan", "ios": "https://dc.lft.to/lastmile_qr_scan"}, "bike_id": "a9e0c217641e443b2ff431d3965f968d", "lon": -77.01088133333333}, {"is_reserved": 0, "fusion_lon": 0.0, "fusion_lat": 0.0, "name": "57b02837b651d58b2db8b4b189455806", "type": "electric_scooter", "is_disabled": 0, "lat": 38.885844, "rental_uris": {"android": "https://dc.lft.to/lastmile_qr_scan", "ios": "https://dc.lft.to/lastmile_qr_scan"}, "bike_id": "57b02837b651d58b2db8b4b189455806", "lon": -76.92984983333334}, {"is_reserved": 0, "fusion_lon": 0.0, "fusion_lat": 0.0, "name": "247fd307e6df6a5e9f6dc9ce1a9acefa", "type": "electric_scooter", "is_disabled": 0, "lat": 38.90073066666667, "rental_uris": {"android": "https://dc.lft.to/lastmile_qr_scan", "ios": "https://dc.lft.to/lastmile_qr_scan"}, "bike_id": "247fd307e6df6a5e9f6dc9ce1a9acefa", "lon": -77.00194966666666}, {"is_reserved": 0, "fusion_lon": 0.0, "fusion_lat": 0.0, "name": "68e8c515807f856f2b252a3e70ea059c", "type": "electric_scooter", "is_disabled": 0, "lat": 38.919132833333336, "rental_uris": {"android": "https://dc.lft.to/lastmile_qr_scan", "ios": "https://dc.lft.to/lastmile_qr_scan"}, "bike_id": "68e8c515807f856f2b252a3e70ea059c", "lon": -77.04469666666667}, {"is_reserved": 0, "fusion_lon": 0.0, "fusion_lat": 0.0, "name": "447fe8fc90cf2ee133275925fb4f98b3", "type": "electric_scooter", "is_disabled": 0, "lat": 38.93003733333333, "rental_uris": {"android": "https://dc.lft.to/lastmile_qr_scan", "ios": "https://dc.lft.to/lastmile_qr_scan"}, "bike_id": "447fe8fc90cf2ee133275925fb4f98b3", "lon": -77.01301966666666}, {"is_reserved": 0, "fusion_lon": 0.0, "fusion_lat": 0.0, "name": "919b00d3bf3a5e15db8cb512b47d970d", "type": "electric_scooter", "is_disabled": 0, "lat": 38.916624, "rental_uris": {"android": "https://dc.lft.to/lastmile_qr_scan", "ios": "https://dc.lft.to/lastmile_qr_scan"}, "bike_id": "919b00d3bf3a5e15db8cb512b47d970d", "lon": -77.0191545}, {"is_reserved": 0, "fusion_lon": 0.0, "fusion_lat": 0.0, "name": "e0ab19e1b36da63ba2d2f8dcf5dba550", "type": "electric_scooter", "is_disabled": 0, "lat": 38.86653, "rental_uris": {"android": "https://dc.lft.to/lastmile_qr_scan", "ios": "https://dc.lft.to/lastmile_qr_scan"}, "bike_id": "e0ab19e1b36da63ba2d2f8dcf5dba550", "lon": -76.98505416666667}, {"is_reserved": 0, "fusion_lon": 0.0, "fusion_lat": 0.0, "name": "cb6b9173aaf6dc116e3a43090d7797f5", "type": "electric_scooter", "is_disabled": 0, "lat": 38.92105316666667, "rental_uris": {"android": "https://dc.lft.to/lastmile_qr_scan", "ios": "https://dc.lft.to/lastmile_qr_scan"}, "bike_id": "cb6b9173aaf6dc116e3a43090d7797f5", "lon": -77.0332805}, {"is_reserved": 0, "fusion_lon": 0.0, "fusion_lat": 0.0, "name": "2397588f2da425df348ea6bd6b958746", "type": "electric_scooter", "is_disabled": 0, "lat": 38.93404566666667, "rental_uris": {"android": "https://dc.lft.to/lastmile_qr_scan", "ios": "https://dc.lft.to/lastmile_qr_scan"}, "bike_id": "2397588f2da425df348ea6bd6b958746", "lon": -77.02209583333334}, {"is_reserved": 0, "fusion_lon": 0.0, "fusion_lat": 0.0, "name": "da6ce212a9bdb232606a49dfa2037e71", "type": "electric_scooter", "is_disabled": 0, "lat": 38.8650455, "rental_uris": {"android": "https://dc.lft.to/lastmile_qr_scan", "ios": "https://dc.lft.to/lastmile_qr_scan"}, "bike_id": "da6ce212a9bdb232606a49dfa2037e71", "lon": -76.99003216666667}, {"is_reserved": 0, "fusion_lon": 0.0, "fusion_lat": 0.0, "name": "5327f9892a3d0da046d7149e0025d93b", "type": "electric_scooter", "is_disabled": 0, "lat": 38.90777816666667, "rental_uris": {"android": "https://dc.lft.to/lastmile_qr_scan", "ios": "https://dc.lft.to/lastmile_qr_scan"}, "bike_id": "5327f9892a3d0da046d7149e0025d93b", "lon": -77.03832933333334},