{"data": {"bikes": [{"name": "096e8d534f4dfc3c101a8fe951fb3fae", "fusion_lat": 0.0, "type": "electric_scooter", "lat": 38.90689483333333, "is_reserved": 0, "is_disabled": 0, "fusion_lon": 0.0, "bike_id": "096e8d534f4dfc3c101a8fe951fb3fae", "lon": -77.00772633333334, "rental_uris": {"ios": "https://dc.lft.to/lastmile_qr_scan", "android": "https://dc.lft.to/lastmile_qr_scan"}}, {"name": "65db9703c7e7521ba31643f290ad05c8", "fusion_lat": 0.0, "type": "electric_scooter", "lat": 38.90684783333333, "is_reserved": 0, "is_disabled": 0, "fusion_lon": 0.0, "bike_id": "65db9703c7e7521ba31643f290ad05c8", "lon": -77.03643783333334, "rental_uris": {"ios": "https://dc.lft.to/lastmile_qr_scan", "android": "https://dc.lft.to/lastmile_qr_scan"}}, {"name": "c1450d945f57d1ce92be1f77544c66ec", "fusion_lat": 0.0, "type": "electric_scooter", "lat": 38.922536, "is_reserved": 0, "is_disabled": 0, "fusion_lon": 0.0, "bike_id": "c1450d945f57d1ce92be1f77544c66ec", "lon": -77.0724345, "rental_uris": {"ios": "https://dc.lft.to/lastmile_qr_scan", "android": "https://dc.lft.to/lastmile_qr_scan"}}, {"name": "321e71272ab97942e9c77923b9ffb4c6", "fusion_lat": 0.0, "type": "electric_scooter", "lat": 38.83839966666667, "is_reserved": 0, "is_disabled": 0, "fusion_lon": 0.0, "bike_id": "321e71272ab97942e9c77923b9ffb4c6", "lon": -76.9997575, "rental_uris": {"ios": "https://dc.lft.to/lastmile_qr_scan", "android": "https://dc.lft.to/lastmile_qr_scan"}}, {"name": "be062334dc2320fa868de7ac5ce1f7e1", "fusion_lat": 0.0, "type": "electric_scooter", "lat": 38.87866533333333, "is_reserved": 0, "is_disabled": 0, "fusion_lon": 0.0, "bike_id": "be062334dc2320fa868de7ac5ce1f7e1", "lon": -76.965274, "rental_uris": {"ios": "https://dc.lft.to/lastmile_qr_scan", "android": "https://dc.lft.to/lastmile_qr_scan"}}, {"name": "e271512dc06058563fc070ae778df86d", "fusion_lat": 0.0, "type": "electric_scooter", "lat": 38.901261166666664, "is_reserved": 0, "is_disabled": 0, "fusion_lon": 0.0, "bike_id": "e271512dc06058563fc070ae778df86d", "lon": -77.05147383333333, "rental_uris": {"ios": "https://dc.lft.to/lastmile_qr_scan", "android": "https://dc.lft.to/lastmile_qr_scan"}}, {"name": "39f33b52931d8ebcdf68ce218c6af8c6", "fusion_lat": 0.0, "type": "electric_scooter", "lat": 38.9023905, "is_reserved": 0, "is_disabled": 0, "fusion_lon": 0.0, "bike_id": "39f33b52931d8ebcdf68ce218c6af8c6", "lon": -77.00200483333333, "rental_uris": {"ios": "https://dc.lft.to/lastmile_qr_scan", "android": "https://dc.lft.to/lastmile_qr_scan"}}, {"name": "e12a81d37b3f40423b75c3573606046c", "fusion_lat": 0.0, "type": "electric_scooter", "lat": 38.90574766666667, "is_reserved": 0, "is_disabled": 0, "fusion_lon": 0.0, "bike_id": "e12a81d37b3f40423b75c3573606046c", "lon": -77.02493766666667, "rental_uris": {"ios": "https://dc.lft.to/lastmile_qr_scan", "android": "https://dc.lft.to/lastmile_qr_scan"}}, {"name": "52a15e232a64cc5dc338e1bc8f938523", "fusion_lat": 0.0, "type": "electric_scooter", "lat": 38.954858, "is_reserved": 0, "is_disabled": 0, "fusion_lon": 0.0, "bike_id": "52a15e232a64cc5dc338e1bc8f938523", "lon": -77.06983166666667, "rental_uris": {"ios": "https://dc.lft.to/lastmile_qr_scan", "android": "https://dc.lft.to/lastmile_qr_scan"}}, {"name": "b9bc598d2f109bd40d7194342d0c1407", "fusion_lat": 0.0, "type": "electric_bike", "lat": 39.0000315, "is_reserved": 0, "is_disabled": 0, "fusion_lon": 0.0, "bike_id": "b9bc598d2f109bd40d7194342d0c1407", "lon": -76.99499933333334, "rental_uris": {"ios": "https://dc.lft.to/lastmile_qr_scan", "android": "https://dc.lft.to/lastmile_qr_scan"}}, {"name": "4de7c23b627c6cfc90aa1cf83551d097", "fusion_lat": 0.0, "type": "electric_scooter", "lat": 38.900264666666665, "is_reserved": 0, "is_disabled": 0, "fusion_lon": 0.0, "bike_id": "4de7c23b627c6cfc90aa1cf83551d097", "lon": -77.04696133333333, "rental_uris": {"ios": "https://dc.lft.to/lastmile_qr_scan", "android": "https://dc.lft.to/lastmile_qr_scan"}}, {"name": "f58d7b5412386230ddbb3afb19c2fcc7", "fusion_lat": 0.0, "type": "electric_scooter", "lat": 38.900381333333335, "is_reserved": 0, "is_disabled": 0, "fusion_lon": 0.0, "bike_id": "f58d7b5412386230ddbb3afb19c2fcc7", "lon": -76.99643233333333, "rental_uris": {"ios": "https://dc.lft.to/lastmile_qr_scan", "android": "https://dc.lft.to/lastmile_qr_scan"}}, {"name": "04e228593c651022a182e22c0dc0eb24", "fusion_lat": 0.0, "type": "electric_scooter", "lat": 38.9180765, "is_reserved": 0, "is_disabled": 0, "fusion_lon": 0.0, "bike_id": "04e228593c651022a182e22c0dc0eb24", "lon": -77.02495683333333, "rental_uris": {"ios": "https://dc.lft.to/lastmile_qr_scan", "android": "https://dc.lft.to/lastmile_qr_scan"}}, {"name": "8dc417857a00c74929c281291c8133ae", "fusion_lat": 0.0, "type": "electric_scooter", "lat": 38.898016166666665, "is_reserved": 0, "is_disabled": 0, "fusion_lon": 0.0, "bike_id": "8dc417857a00c74929c281291c8133ae", "lon": -76.99164716666667, "rental_uris": {"ios": "https://dc.lft.to/lastmile_qr_scan", "android": "https://dc.lft.to/lastmile_qr_scan"}}, {"name": "876041b4ed79e7290b6f76a632df515d", "fusion_lat": 0.0, "type": "electric_scooter", "lat": 38.911269833333336, "is_reserved": 0, "is_disabled": 0, "fusion_lon": 0.0, "bike_id": "876041b4ed79e7290b6f76a632df515d", "lon": -77.02199583333334, "rental_uris": {"ios": "https://dc.lft.to/lastmile_qr_scan", "android": "https://dc.lft.to/lastmile_qr_scan"}}, {"name": "d25789cebd18bb106c09699f963960c6", "fusion_lat": 0.0, "type": "electric_scooter", "lat": 38.921518, "is_reserved": 0, "is_disabled": 0, "fusion_lon": 0.0, "bike_id": "d25789cebd18bb106c09699f963960c6", "lon": -77.03512833333333, "rental_uris": {"ios": "https://dc.lft.to/lastmile_qr_scan", "android": "https://dc.lft.to/lastmile_qr_scan"}}, {"name": "777c1761e069c588e20143b60d144123", "fusion_lat": 0.0, "type": "electric_scooter", "lat": 38.909529, "is_reserved": 0, "is_disabled": 0, "fusion_lon": 0.0, "bike_id": "777c1761e069c588e20143b60d144123", "lon": -77.02764233333333, "rental_uris": {"ios": "https://dc.lft.to/lastmile_qr_scan", "android": "https://dc.lft.to/lastmile_qr_scan"}}, {"name": "cc51c441a6ef209034ebe5e75ace0346", "fusion_lat": 0.0, "type": "electric_scooter", "lat": 38.905708833333335, "is_reserved": 0, "is_disabled": 0, "fusion_lon": 0.0, "bike_id": "cc51c441a6ef209034ebe5e75ace0346", "lon": -77.02602266666666, "rental_uris": {"ios": "https://dc.lft.to/lastmile_qr_scan", "android": "https://dc.lft.to/lastmile_qr_scan"}}, {"name": "1c8063ec8b08744d2c9b6ba2a570bfce", "fusion_lat": 0.0, "type": "electric_bike", "lat": 39.0386465, "is_reserved": 0, "is_disabled": 0, "fusion_lon": 0.0, "bike_id": "1c8063ec8b08744d2c9b6ba2a570bfce", "lon": -76.99031283333333, "rental_uris": {"ios": "https://dc.lft.to/lastmile_qr_scan", "android": "https://dc.lft.to/lastmile_qr_scan"}}, {"name": "5a3265f827f6ba3be60ff6d65b9a8092", "fusion_lat": 0.0, "type": "electric_scooter", "lat": 38.90353983333333, "is_reserved": 0, "is_disabled": 0, "fusion_lon": 0.0, "bike_id": "5a3265f827f6ba3be60ff6d65b9a8092", "lon": -77.05340366666667, "rental_uris": {"ios": "https://dc.lft.to/lastmile_qr_scan", "android": "https://dc.lft.to/lastmile_qr_scan"}}, {"name": "d4ff3a30c2099bbbb0f4d3a1eb37c12a", "fusion_lat": 0.0, "type": "electric_bike", "lat": 38.8808475, "is_reserved": 0, "is_disabled": 0, "fusion_lon": 0.0, "bike_id": "d4ff3a30c2099bbbb0f4d3a1eb37c12a", "lon": -76.98533616666667, "rental_uris": {"ios": "https://dc.lft.to/lastmile_qr_scan", "android": "https://dc.lft.to/lastmile_qr_scan"}}, {"name": "b8441a1976255bbc11cf387699a52c7d", "fusion_lat": 0.0, "type": "electric_scooter", "lat": 38.912413, "is_reserved": 0, "is_disabled": 0, "fusion_lon": 0.0, "bike_id": "b8441a1976255bbc11cf387699a52c7d", "lon": -77.0091825, "rental_uris": {"ios": "https://dc.lft.to/lastmile_qr_scan", "android": "https://dc.lft.to/lastmile_qr_scan"}}, {"name": "1b5843170f60fef4c219c9bcdeeb67b9", "fusion_lat": 0.0, "type": "electric_scooter", "lat": 38.90521316666667, "is_reserved": 0, "is_disabled": 0, "fusion_lon": 0.0, "bike_id": "1b5843170f60fef4c219c9bcdeeb67b9", "lon": -77.05008033333333, "rental_uris": {"ios": "https://dc.lft.to/lastmile_qr_scan", "android": "https://dc.lft.to/lastmile_qr_scan"}}, {"name": "7134afc6a9ec2953956673ea03d3b0c9", "fusion_lat": 0.0, "type": "electric_scooter", "lat": 38.921195833333336, "is_reserved": 0, "is_disabled": 0, "fusion_lon": 0.0, "bike_id": "7134afc6a9ec2953956673ea03d3b0c9", "lon": -77.0411705, "rental_uris": {"ios": "https://dc.lft.to/lastmile_qr_scan", "android": "https://dc.lft.to/lastmile_qr_scan"}}, {"name": "a467dd5beae7f0885267ca68fde965df", "fusion_lat": 0.0, "type": "electric_bike", "lat": 38.964930833333334, "is_reserved": 0, "is_disabled": 0, "fusion_lon": 0.0, "bike_id": "a467dd5beae7f0885267ca68fde965df", "lon": -77.06493933333333, "rental_uris": {"ios": "https://dc.lft.to/lastmile_qr_scan", "android": "https://dc.lft.to/lastmile_qr_scan"}}, {"name": "aaf48b2440d7f6d075287c9f446c41e1", "fusion_lat": 0.0, "type": "electric_scooter", "lat": 38.907006333333335, "is_reserved": 0, "is_disabled": 0, "fusion_lon": 0.0, "bike_id": "aaf48b2440d7f6d075287c9f446c41e1", "lon": -77.04200066666667, "rental_uris": {"ios": "https://dc.lft.to/lastmile_qr_scan", "android": "https://dc.lft.to/lastmile_qr_scan"}}, {"name": "24af648e872eee9931cd6ef6c4293586", "fusion_lat": 0.0, "type": "electric_scooter", "lat": 38.90271516666667, "is_reserved": 0, "is_disabled": 0, "fusion_lon": 0.0, "bike_id": "24af648e872eee9931cd6ef6c4293586", "lon": -76.9985335, "rental_uris": {"ios": "https://dc.lft.to/lastmile_qr_scan", "android": "https://dc.lft.to/lastmile_qr_scan"}}, {"name": "c7fc15eb277eaaaba8983d72398c4bf1", "fusion_lat": 0.0, "type": "electric_scooter", "lat": 38.918472333333334, "is_reserved": 0, "is_disabled": 0, "fusion_lon": 0.0, "bike_id": "c7fc15eb277eaaaba8983d72398c4bf1", "lon": -77.02458283333333, "rental_uris": {"ios": "https://dc.lft.to/lastmile_qr_scan", "android": "https://dc.lft.to/lastmile_qr_scan"}}, {"name": "ad142e675dce153cf6069fb751cf1198", "fusion_lat": 0.0, "type": "electric_scooter", "lat": 38.942345333333336, "is_reserved": 0, "is_disabled": 0, "fusion_lon": 0.0, "bike_id": "ad142e675dce153cf6069fb751cf1198", "lon": -77.01547433333333, "rental_uris": {"ios": "https://dc.lft.to/lastmile_qr_scan", "android": "https://dc.lft.to/lastmile_qr_scan"}}, {"name": "936dfb9a45521dae094a63eb37d76413", "fusion_lat": 0.0, "type": "electric_scooter", "lat": 38.8979465, "is_reserved": 0, "is_disabled": 0, "fusion_lon": 0.0, "bike_id": "936dfb9a45521dae094a63eb37d76413", "lon": -76.94420933333333, "rental_uris": {"ios": "https://dc.lft.to/lastmile_qr_scan", "android": "https://dc.lft.to/lastmile_qr_scan"}}, {"name": "c4892df13c06c3e6453a26e61d67f18d", "fusion_lat": 0.0, "type": "electric_scooter", "lat": 38.9354405, "is_reserved": 0, "is_disabled": 0, "fusion_lon": 0.0, "bike_id": "c4892df13c06c3e6453a26e61d67f18d", "lon": -77.03404883333333, "rental_uris": {"ios": "https://dc.lft.to/lastmile_qr_scan", "android": "https://dc.lft.to/lastmile_qr_scan"}}, {"name": "cc646c15122c9de3525e1a369621bc7b", "fusion_lat": 0.0, "type": "electric_scooter", "lat": 38.93890533333333, "is_reserved": 0, "is_disabled": 0, "fusion_lon": 0.0, "bike_id": "cc646c15122c9de3525e1a369621bc7b", "lon": -77.032596, "rental_uris": {"ios": "https://dc.lft.to/lastmile_qr_scan", "android": "https://dc.lft.to/lastmile_qr_scan"}}, {"name": "4e794043576ffaf71e89424932a69f6c", "fusion_lat": 0.0, "type": "electric_scooter", "lat": 38.90543433333333, "is_reserved": 0, "is_disabled": 0, "fusion_lon": 0.0, "bike_id": "4e794043576ffaf71e89424932a69f6c", "lon": -77.06263383333334, "rental_uris": {"ios": "https://dc.lft.to/lastmile_qr_scan", "android": "https://dc.lft.to/lastmile_qr_scan"}}, {"name": "36b19afe4d7582b8e1c7843217073716", "fusion_lat": 0.0, "type": "electric_scooter", "lat": 38.91820333333333, "is_reserved": 0, "is_disabled": 0, "fusion_lon": 0.0, "bike_id": "36b19afe4d7582b8e1c7843217073716", "lon": -77.01019083333334, "rental_uris": {"ios": "https://dc.lft.to/lastmile_qr_scan", "android": "https://dc.lft.to/lastmile_qr_scan"}}, {"name": "7dfd48f4179c318237d0e1faa8584a2a", "fusion_lat": 0.0, "type": "electric_scooter", "lat": 38.9390325, "is_reserved": 0, "is_disabled": 0, "fusion_lon": 0.0, "bike_id": "7dfd48f4179c318237d0e1faa8584a2a", "lon": -77.06038583333333, "rental_uris": {"ios": "https://dc.lft.to/lastmile_qr_scan", "android": "https://dc.lft.to/lastmile_qr_scan"}}, {"name": "0e6112aecc47329d2aa93c753e4196ca", "fusion_lat": 0.0, "type": "electric_bike", "lat": 39.033438833333335, "is_reserved": 0, "is_disabled": 0, "fusion_lon": 0.0, "bike_id": "0e6112aecc47329d2aa93c753e4196ca", "lon": -77.04914583333333, "rental_uris": {"ios": "https://dc.lft.to/lastmile_qr_scan", "android": "https://dc.lft.to/lastmile_qr_scan"}}, {"name": "c02b1c7d793852652eae94f7adb26277", "fusion_lat": 0.0, "type": "electric_scooter", "lat": 38.9092675, "is_reserved": 0, "is_disabled": 0, "fusion_lon": 0.0, "bike_id": "c02b1c7d793852652eae94f7adb26277", "lon": -77.03860716666667, "rental_uris": {"ios": "https://dc.lft.to/lastmile_qr_scan", "android": "https://dc.lft.to/lastmile_qr_scan"}}, {"name": "18adce0b4e07e5115518b85685749823", "fusion_lat": 0.0, "type": "electric_scooter", "lat": 38.901648333333334, "is_reserved": 0, "is_disabled": 0, "fusion_lon": 0.0, "bike_id": "18adce0b4e07e5115518b85685749823", "lon": -77.05400933333334, "rental_uris": {"ios": "https://dc.lft.to/lastmile_qr_scan", "android": "https://dc.lft.to/lastmile_qr_scan"}}, {"name": "0f761e13bb81e2629ef242e6882778fc", "fusion_lat": 0.0, "type": "electric_scooter", "lat": 38.912725333333334, "is_reserved": 0, "is_disabled": 0, "fusion_lon": 0.0, "bike_id": "0f761e13bb81e2629ef242e6882778fc", "lon": -77.026933, "rental_uris": {"ios": "https://dc.lft.to/lastmile_qr_scan", "android": "https://dc.lft.to/lastmile_qr_scan"}}, {"name": "3dc5ed45a03fac1665be5a162ae1272a", "fusion_lat": 0.0, "type": "electric_bike", "lat": 38.99994933333333, "is_reserved": 0, "is_disabled": 0, "fusion_lon": 0.0, "bike_id": "3dc5ed45a03fac1665be5a162ae1272a", "lon": -76.99523066666667, "rental_uris": {"ios": "https://dc.lft.to/lastmile_qr_scan", "android": "https://dc.lft.to/lastmile_qr_scan"}}, {"name": "2f0e83ad96f48db82fdcebd0d889e65b", "fusion_lat": 0.0, "type": "electric_scooter", "lat": 38.9370275, "is_reserved": 0, "is_disabled": 0, "fusion_lon": 0.0, "bike_id": "2f0e83ad96f48db82fdcebd0d889e65b", "lon": -77.05687633333334, "rental_uris": {"ios": "https://dc.lft.to/lastmile_qr_scan", "android": "https://dc.lft.to/lastmile_qr_scan"}}, {"name": "d04c7624e4e96ce5aea6a8a827e71950", "fusion_lat": 0.0, "type": "electric_scooter", "lat": 38.909493, "is_reserved": 0, "is_disabled": 0, "fusion_lon": 0.0, "bike_id": "d04c7624e4e96ce5aea6a8a827e71950", "lon": -76.98491633333333, "rental_uris": {"ios": "https://dc.lft.to/lastmile_qr_scan", "android": "https://dc.lft.to/lastmile_qr_scan"}}, {"name": "ba64527b8e09e5c2cb747414b631a66b", "fusion_lat": 0.0, "type": "electric_scooter", "lat": 38.908672333333335, "is_reserved": 0, "is_disabled": 0, "fusion_lon": 0.0, "bike_id": "ba64527b8e09e5c2cb747414b631a66b", "lon": -77.02389333333333, "rental_uris": {"ios": "https://dc.lft.to/lastmile_qr_scan", "android": "https://dc.lft.to/lastmile_qr_scan"}}, {"name": "c7a753752199f79130e5e25cd592a2bf", "fusion_lat": 0.0, "type": "electric_scooter", "lat": 38.87329066666667, "is_reserved": 0, "is_disabled": 0, "fusion_lon": 0.0, "bike_id": "c7a753752199f79130e5e25cd592a2bf", "lon": -77.001057, "rental_uris": {"ios": "https://dc.lft.to/lastmile_qr_scan", "android": "https://dc.lft.to/lastmile_qr_scan"}}, {"name": "a26c25c042b0d4c3f0e18f5003a20dff", "fusion_lat": 0.0, "type": "electric_scooter", "lat": 38.90383816666667, "is_reserved": 0, "is_disabled": 0, "fusion_lon": 0.0, "bike_id": "a26c25c042b0d4c3f0e18f5003a20dff", "lon": -77.048243, "rental_uris": {"ios": "https://dc.lft.to/lastmile_qr_scan", "android": "https://dc.lft.to/lastmile_qr_scan"}}, {"name": "f5ccb7beade2662bbaf8d0630b37c18b", "fusion_lat": 0.0, "type": "electric_bike", "lat": 38.95187766666667, "is_reserved": 0, "is_disabled": 0, "fusion_lon": 0.0, "bike_id": "f5ccb7beade2662bbaf8d0630b37c18b", "lon": -76.93545166666667, "rental_uris": {"ios": "https://dc.lft.to/lastmile_qr_scan", "android": "https://dc.lft.to/lastmile_qr_scan"}}, {"name": "ee1c8fef23b53159c1fbae3af2227489", "fusion_lat": 0.0, "type": "electric_scooter", "lat": 38.923772166666666, "is_reserved": 0, "is_disabled": 0, "fusion_lon": 0.0, "bike_id": "ee1c8fef23b53159c1fbae3af2227489", "lon": -77.03129, "rental_uris": {"ios": "https://dc.lft.to/lastmile_qr_scan", "android": "https://dc.lft.to/lastmile_qr_scan"}}, {"name": "6eca887e38734fda826d9e8b96248019", "fusion_lat": 0.0, "type": "electric_scooter", "lat": 38.904831, "is_reserved": 0, "is_disabled": 0, "fusion_lon": 0.0, "bike_id": "6eca887e38734fda826d9e8b96248019", "lon": -76.9732765, "rental_uris": {"ios": "https://dc.lft.to/lastmile_qr_scan", "android": "https://dc.lft.to/lastmile_qr_scan"}}, {"name": "b39e0b5a06c7f8b2b0667ccd5c46e6b3", "fusion_lat": 0.0, "type": "electric_bike", "lat": 38.9210915, "is_reserved": 0, "is_disabled": 0, "fusion_lon": 0.0, "bike_id": "b39e0b5a06c7f8b2b0667ccd5c46e6b3", "lon": -77.06333233333334, "rental_uris": {"ios": "https://dc.lft.to/lastmile_qr_scan", "android": "https://dc.lft.to/lastmile_qr_scan"}}, {"name": "d16065dfbd427cc2287453dba74587d8", "fusion_lat": 0.0, "type": "electric_scooter", "lat": 38.942935166666665, "is_reserved": 0, "is_disabled": 0, "fusion_lon": 0.0, "bike_id": "d16065dfbd427cc2287453dba74587d8", "lon": -77.021768, "rental_uris": {"ios": "https://dc.lft.to/lastmile_qr_scan", "android": "https://dc.lft.to/lastmile_qr_scan"}}, {"name": "a675023b9f6eb809aaba3300901ca0b1", "fusion_lat": 0.0, "type": "electric_scooter", "lat": 38.930044333333335, "is_reserved": 0, "is_disabled": 0, "fusion_lon": 0.0, "bike_id": "a675023b9f6eb809aaba3300901ca0b1", "lon": -77.02303966666666, "rental_uris": {"ios": "https://dc.lft.to/lastmile_qr_scan", "android": "https://dc.lft.to/lastmile_qr_scan"}}, {"name": "840edf317a1133c6d22d6714e00057fd", "fusion_lat": 0.0, "type": "electric_scooter", "lat": 38.907981166666666, "is_reserved": 0, "is_disabled": 0, "fusion_lon": 0.0, "bike_id": "840edf317a1133c6d22d6714e00057fd", "lon": -77.04819683333334, "rental_uris": {"ios": "https://dc.lft.to/lastmile_qr_scan", "android": "https://dc.lft.to/lastmile_qr_scan"}}, {"name": "356256df02f7a85de56596f41954307a", "fusion_lat": 0.0, "type": "electric_scooter", "lat": 38.92109333333333, "is_reserved": 0, "is_disabled": 0, "fusion_lon": 0.0, "bike_id": "356256df02f7a85de56596f41954307a", "lon": -77.03171066666667, "rental_uris": {"ios": "https://dc.lft.to/lastmile_qr_scan", "android": "https://dc.lft.to/lastmile_qr_scan"}}, {"name": "746f27a5b53621543f6718b0a01553fc", "fusion_lat": 0.0, "type": "electric_scooter", "lat": 38.878078333333335, "is_reserved": 0, "is_disabled": 0, "fusion_lon": 0.0, "bike_id": "746f27a5b53621543f6718b0a01553fc", "lon": -77.0055665, "rental_uris": {"ios": "https://dc.lft.to/lastmile_qr_scan", "android": "https://dc.lft.to/lastmile_qr_scan"}}, {"name": "1c68fd29b5283c6507195994675bf323", "fusion_lat": 0.0, "type": "electric_scooter", "lat": 38.89739216666667, "is_reserved": 0, "is_disabled": 0, "fusion_lon": 0.0, "bike_id": "1c68fd29b5283c6507195994675bf323", "lon": -76.94255966666667, "rental_uris": {"ios": "https://dc.lft.to/lastmile_qr_scan", "android": "https://dc.lft.to/lastmile_qr_scan"}}, {"name": "16500dc8f950855a32070f0378cc5465", "fusion_lat": 0.0, "type": "electric_scooter", "lat": 38.9172315, "is_reserved": 0, "is_disabled": 0, "fusion_lon": 0.0, "bike_id": "16500dc8f950855a32070f0378cc5465", "lon": -77.02904283333334, "rental_uris": {"ios": "https://dc.lft.to/lastmile_qr_scan", "android": "https://dc.lft.to/lastmile_qr_scan"}}, {"name": "44966f643c906db5488d8b83d39b2f54", "fusion_lat": 0.0, "type": "electric_scooter", "lat": 38.919907, "is_reserved": 0, "is_disabled": 0, "fusion_lon": 0.0, "bike_id": "44966f643c906db5488d8b83d39b2f54", "lon": -76.9730655, "rental_uris": {"ios": "https://dc.lft.to/lastmile_qr_scan", "android": "https://dc.lft.to/lastmile_qr_scan"}}, {"name": "2d6da40b0001c121287fd8ee515254ee", "fusion_lat": 0.0, "type": "electric_bike", "lat": 38.932475833333335, "is_reserved": 0, "is_disabled": 0, "fusion_lon": 0.0, "bike_id": "2d6da40b0001c121287fd8ee515254ee", "lon": -77.06664483333333, "rental_uris": {"ios": "https://dc.lft.to/lastmile_qr_scan", "android": "https://dc.lft.to/lastmile_qr_scan"}}, {"name": "1be6ffadaec5899b573a49b3fb0dec69", "fusion_lat": 0.0, "type": "electric_scooter", "lat": 38.932365833333336, "is_reserved": 0, "is_disabled": 0, "fusion_lon": 0.0, "bike_id": "1be6ffadaec5899b573a49b3fb0dec69", "lon": -77.035861, "rental_uris": {"ios": "https://dc.lft.to/lastmile_qr_scan", "android": "https://dc.lft.to/lastmile_qr_scan"}}, {"name": "28f32522c6220b1de1b0610490030c99", "fusion_lat": 0.0, "type": "electric_scooter", "lat": 38.863723, "is_reserved": 0, "is_disabled": 0, "fusion_lon": 0.0, "bike_id": "28f32522c6220b1de1b0610490030c99", "lon": -77.013648, "rental_uris": {"ios": "https://dc.lft.to/lastmile_qr_scan", "android": "https://dc.lft.to/lastmile_qr_scan"}}, {"name": "7f4ec0dd2b752559e20dd685038d8c3b", "fusion_lat": 0.0, "type": "electric_scooter", "lat": 38.92052866666667, "is_reserved": 0, "is_disabled": 0, "fusion_lon": 0.0, "bike_id": "7f4ec0dd2b752559e20dd685038d8c3b", "lon": -77.0244225, "rental_uris": {"ios": "https://dc.lft.to/lastmile_qr_scan", "android": "https://dc.lft.to/lastmile_qr_scan"}}, {"name": "368d1d425293cc1556f9b2aa51144e51", "fusion_lat": 0.0, "type": "electric_scooter", "lat": 38.93935833333333, "is_reserved": 0, "is_disabled": 0, "fusion_lon": 0.0, "bike_id": "368d1d425293cc1556f9b2aa51144e51", "lon": -77.036822, "rental_uris": {"ios": "https://dc.lft.to/lastmile_qr_scan", "android": "https://dc.lft.to/lastmile_qr_scan"}}, {"name": "f2091437d44f4094208e5d18db994fea", "fusion_lat": 0.0, "type": "electric_scooter", "lat": 38.921212833333335, "is_reserved": 0, "is_disabled": 0, "fusion_lon": 0.0, "bike_id": "f2091437d44f4094208e5d18db994fea", "lon": -77.013094, "rental_uris": {"ios": "https://dc.lft.to/lastmile_qr_scan", "android": "https://dc.lft.to/lastmile_qr_scan"}}, {"name": "505fae2ec8155dee78b2e4f184cb1c77", "fusion_lat": 0.0, "type": "electric_bike", "lat": 38.85428133333333, "is_reserved": 0, "is_disabled": 0, "fusion_lon": 0.0, "bike_id": "505fae2ec8155dee78b2e4f184cb1c77", "lon": -76.90950933333333, "rental_uris": {"ios": "https://dc.lft.to/lastmile_qr_scan", "android": "https://dc.lft.to/lastmile_qr_scan"}}, {"name": "3299e827dd1e1b2739561825af45753a", "fusion_lat": 0.0, "type": "electric_scooter", "lat": 38.900743166666665, "is_reserved": 0, "is_disabled": 0, "fusion_lon": 0.0, "bike_id": "3299e827dd1e1b2739561825af45753a", "lon": -77.0519715, "rental_uris": {"ios": "https://dc.lft.to/lastmile_qr_scan", "android": "https://dc.lft.to/lastmile_qr_scan"}}, {"name": "19f0c84563e1f10588d412c714887fa6", "fusion_lat": 0.0, "type": "electric_scooter", "lat": 38.895821833333336, "is_reserved": 0, "is_disabled": 0, "fusion_lon": 0.0, "bike_id": "19f0c84563e1f10588d412c714887fa6", "lon": -76.98185483333333, "rental_uris": {"ios": "https://dc.lft.to/lastmile_qr_scan", "android": "https://dc.lft.to/lastmile_qr_scan"}}, {"name": "366e96fac7a7138b481b682d1f9256d9", "fusion_lat": 0.0, "type": "electric_scooter", "lat": 38.937513, "is_reserved": 0, "is_disabled": 0, "fusion_lon": 0.0, "bike_id": "366e96fac7a7138b481b682d1f9256d9", "lon": -77.02488633333333, "rental_uris": {"ios": "https://dc.lft.to/lastmile_qr_scan", "android": "https://dc.lft.to/lastmile_qr_scan"}}, {"name": "a38935eb424d689102a6dd9a9f3cd2a7", "fusion_lat": 0.0, "type": "electric_scooter", "lat": 38.91761966666667, "is_reserved": 0, "is_disabled": 0, "fusion_lon": 0.0, "bike_id": "a38935eb424d689102a6dd9a9f3cd2a7", "lon": -77.03198516666667, "rental_uris": {"ios": "https://dc.lft.to/lastmile_qr_scan", "android": "https://dc.lft.to/lastmile_qr_scan"}}, {"name": "d86173af083f39fd4692e91855f595fd", "fusion_lat": 0.0, "type": "electric_scooter", "lat": 38.89229566666667, "is_reserved": 0, "is_disabled": 0, "fusion_lon": 0.0, "bike_id": "d86173af083f39fd4692e91855f595fd", "lon": -77.05002883333333, "rental_uris": {"ios": "https://dc.lft.to/lastmile_qr_scan", "android": "https://dc.lft.to/lastmile_qr_scan"}}, {"name": "d9064f22536d4973c7369e9282cb6b9c", "fusion_lat": 0.0, "type": "electric_scooter", "lat": 38.935397333333334, "is_reserved": 0, "is_disabled": 0, "fusion_lon": 0.0, "bike_id": "d9064f22536d4973c7369e9282cb6b9c", "lon": -77.03403733333333, "rental_uris": {"ios": "https://dc.lft.to/lastmile_qr_scan", "android": "https://dc.lft.to/lastmile_qr_scan"}}, {"name": "8a6a4c2f87bf4be09c2ad0110e2b6255", "fusion_lat": 0.0, "type": "electric_bike", "lat": 38.81053, "is_reserved": 0, "is_disabled": 0, "fusion_lon": 0.0, "bike_id": "8a6a4c2f87bf4be09c2ad0110e2b6255", "lon": -77.08509016666666, "rental_uris": {"ios": "https://dc.lft.to/lastmile_qr_scan", "android": "https://dc.lft.to/lastmile_qr_scan"}}, {"name": "37c2780d32504d0f9bf7161da258bba5", "fusion_lat": 0.0, "type": "electric_scooter", "lat": 38.912638333333334, "is_reserved": 0, "is_disabled": 0, "fusion_lon": 0.0, "bike_id": "37c2780d32504d0f9bf7161da258bba5", "lon": -77.0077535, "rental_uris": {"ios": "https://dc.lft.to/lastmile_qr_scan", "android": "https://dc.lft.to/lastmile_qr_scan"}}, {"name": "98a0e2eb87969045ae5c1f2e1e810262", "fusion_lat": 0.0, "type": "electric_scooter", "lat": 38.895249, "is_reserved": 0, "is_disabled": 0, "fusion_lon": 0.0, "bike_id": "98a0e2eb87969045ae5c1f2e1e810262", "lon": -76.94892383333334, "rental_uris": {"ios": "https://dc.lft.to/lastmile_qr_scan", "android": "https://dc.lft.to/lastmile_qr_scan"}}, {"name": "2a4274e8dacd889913c9c386f478aca7", "fusion_lat": 0.0, "type": "electric_scooter", "lat": 38.9038905, "is_reserved": 0, "is_disabled": 0, "fusion_lon": 0.0, "bike_id": "2a4274e8dacd889913c9c386f478aca7", "lon": -77.04545533333334, "rental_uris": {"ios": "https://dc.lft.to/lastmile_qr_scan", "android": "https://dc.lft.to/lastmile_qr_scan"}}, {"name": "0177e68993f599c0c47e2531d5280dc8", "fusion_lat": 0.0, "type": "electric_scooter", "lat": 38.9198245, "is_reserved": 0, "is_disabled": 0, "fusion_lon": 0.0, "bike_id": "0177e68993f599c0c47e2531d5280dc8", "lon": -77.03300183333333, "rental_uris": {"ios": "https://dc.lft.to/lastmile_qr_scan", "android": "https://dc.lft.to/lastmile_qr_scan"}}, {"name": "ca308ad31ff0d81ec1a0932aeebed5f7", "fusion_lat": 0.0, "type": "electric_scooter", "lat": 38.914077166666665, "is_reserved": 0, "is_disabled": 0, "fusion_lon": 0.0, "bike_id": "ca308ad31ff0d81ec1a0932aeebed5f7", "lon": -77.04569666666667, "rental_uris": {"ios": "https://dc.lft.to/lastmile_qr_scan", "android": "https://dc.lft.to/lastmile_qr_scan"}}, {"name": "8d8daf902eaf0aa14ae2ce23547bda50", "fusion_lat": 0.0, "type": "electric_scooter", "lat": 38.917093666666666, "is_reserved": 0, "is_disabled": 0, "fusion_lon": 0.0, "bike_id": "8d8daf902eaf0aa14ae2ce23547bda50", "lon": -77.03862516666666, "rental_uris": {"ios": "https://dc.lft.to/lastmile_qr_scan", "android": "https://dc.lft.to/lastmile_qr_scan"}}, {"name": "a52e9bfe1f74ad8df9673abc073333f5", "fusion_lat": 0.0, "type": "electric_scooter", "lat": 38.938724666666666, "is_reserved": 0, "is_disabled": 0, "fusion_lon": 0.0, "bike_id": "a52e9bfe1f74ad8df9673abc073333f5", "lon": -77.02915916666667, "rental_uris": {"ios": "https://dc.lft.to/lastmile_qr_scan", "android": "https://dc.lft.to/lastmile_qr_scan"}}, {"name": "e6eaa2b45bc6a188df5be96947c09b4e", "fusion_lat": 0.0, "type": "electric_scooter", "lat": 38.905762, "is_reserved": 0, "is_disabled": 0, "fusion_lon": 0.0, "bike_id": "e6eaa2b45bc6a188df5be96947c09b4e", "lon": -77.007243, "rental_uris": {"ios": "https://dc.lft.to/lastmile_qr_scan", "android": "https://dc.lft.to/lastmile_qr_scan"}}, {"name": "45750f1fdbaa1c5af0e7d5cd3cd1d54e", "fusion_lat": 0.0, "type": "electric_scooter", "lat": 38.89653966666667, "is_reserved": 0, "is_disabled": 0, "fusion_lon": 0.0, "bike_id": "45750f1fdbaa1c5af0e7d5cd3cd1d54e", "lon": -77.0091955, "rental_uris": {"ios": "https://dc.lft.to/lastmile_qr_scan", "android": "https://dc.lft.to/lastmile_qr_scan"}}, {"name": "82cba4e1c2c11338aac29f55bf502231", "fusion_lat": 0.0, "type": "electric_scooter", "lat": 38.88019383333334, "is_reserved": 0, "is_disabled": 0, "fusion_lon": 0.0, "bike_id": "82cba4e1c2c11338aac29f55bf502231", "lon": -77.00509833333334, "rental_uris": {"ios": "https://dc.lft.to/lastmile_qr_scan", "android": "https://dc.lft.to/lastmile_qr_scan"}}, {"name": "43b7dec9c74a2149f3c5c6e34a088453", "fusion_lat": 0.0, "type": "electric_scooter", "lat": 38.902303333333336, "is_reserved": 0, "is_disabled": 0, "fusion_lon": 0.0, "bike_id": "43b7dec9c74a2149f3c5c6e34a088453", "lon": -77.04373966666667, "rental_uris": {"ios": "https://dc.lft.to/lastmile_qr_scan", "android": "https://dc.lft.to/lastmile_qr_scan"}}, {"name": "912993d8846885874fc42a62efff5408", "fusion_lat": 0.0, "type": "electric_scooter", "lat": 38.905662166666666, "is_reserved": 0, "is_disabled": 0, "fusion_lon": 0.0, "bike_id": "912993d8846885874fc42a62efff5408", "lon": -77.02186683333333, "rental_uris": {"ios": "https://dc.lft.to/lastmile_qr_scan", "android": "https://dc.lft.to/lastmile_qr_scan"}}, {"name": "6b9d6b669b75d1f4bdcbc908eaa61e24", "fusion_lat": 0.0, "type": "electric_scooter", "lat": 38.9105655, "is_reserved": 0, "is_disabled": 0, "fusion_lon": 0.0, "bike_id": "6b9d6b669b75d1f4bdcbc908eaa61e24", "lon": -77.05290166666667, "rental_uris": {"ios": "https://dc.lft.to/lastmile_qr_scan", "android": "https://dc.lft.to/lastmile_qr_scan"}}, {"name": "411c445d04db9194cb98144de733f555", "fusion_lat": 0.0, "type": "electric_scooter", "lat": 38.90032883333333, "is_reserved": 0, "is_disabled": 0, "fusion_lon": 0.0, "bike_id": "411c445d04db9194cb98144de733f555", "lon": -76.99562183333333, "rental_uris": {"ios": "https://dc.lft.to/lastmile_qr_scan", "android": "https://dc.lft.to/lastmile_qr_scan"}}, {"name": "ea73e19a07e98d5c0028879ebcd153d8", "fusion_lat": 0.0, "type": "electric_scooter", "lat": 38.87292383333333, "is_reserved": 0, "is_disabled": 0, "fusion_lon": 0.0, "bike_id": "ea73e19a07e98d5c0028879ebcd153d8", "lon": -77.0015465, "rental_uris": {"ios": "https://dc.lft.to/lastmile_qr_scan", "android": "https://dc.lft.to/lastmile_qr_scan"}}, {"name": "dd2c42775fcb3495483e56c76e474e43", "fusion_lat": 0.0, "type": "electric_scooter", "lat": 38.893468666666664, "is_reserved": 0, "is_disabled": 0, "fusion_lon": 0.0, "bike_id": "dd2c42775fcb3495483e56c76e474e43", "lon": -76.99144833333334, "rental_uris": {"ios": "https://dc.lft.to/lastmile_qr_scan", "android": "https://dc.lft.to/lastmile_qr_scan"}}, {"name": "704c4fee3a5b56d034d0bb011479b66d", "fusion_lat": 0.0, "type": "electric_bike", "lat": 38.945576333333335, "is_reserved": 0, "is_disabled": 0, "fusion_lon": 0.0, "bike_id": "704c4fee3a5b56d034d0bb011479b66d", "lon": -76.895388, "rental_uris": {"ios": "https://dc.lft.to/lastmile_qr_scan", "android": "https://dc.lft.to/lastmile_qr_scan"}}, {"name": "730063e7df740b17e91283ebd0e90dc9", "fusion_lat": 0.0, "type": "electric_scooter", "lat": 38.89484916666667, "is_reserved": 0, "is_disabled": 0, "fusion_lon": 0.0, "bike_id": "730063e7df740b17e91283ebd0e90dc9", "lon": -76.9487495, "rental_uris": {"ios": "https://dc.lft.to/lastmile_qr_scan", "android": "https://dc.lft.to/lastmile_qr_scan"}}, {"name": "3e2a3d93497c67c1c61bc6cfdef77f84", "fusion_lat": 0.0, "type": "electric_scooter", "lat": 38.9012135, "is_reserved": 0, "is_disabled": 0, "fusion_lon": 0.0, "bike_id": "3e2a3d93497c67c1c61bc6cfdef77f84", "lon": -77.04653083333334, "rental_uris": {"ios": "https://dc.lft.to/lastmile_qr_scan", "android": "https://dc.lft.to/lastmile_qr_scan"}}, {"name": "a369e2f9708f534d3987b77011acc939", "fusion_lat": 0.0, "type": "electric_bike", "lat": 38.973278, "is_reserved": 0, "is_disabled": 0, "fusion_lon": 0.0, "bike_id": "a369e2f9708f534d3987b77011acc939", "lon": -77.02144266666667, "rental_uris": {"ios": "https://dc.lft.to/lastmile_qr_scan", "android": "https://dc.lft.to/lastmile_qr_scan"}}, {"name": "4536b462638f9d6bacb4dd90c90107de", "fusion_lat": 0.0, "type": "electric_scooter", "lat": 38.915245, "is_reserved": 0, "is_disabled": 0, "fusion_lon": 0.0, "bike_id": "4536b462638f9d6bacb4dd90c90107de", "lon": -77.01422633333334, "rental_uris": {"ios": "https://dc.lft.to/lastmile_qr_scan", "android": "https://dc.lft.to/lastmile_qr_scan"}}, {"name": "0dadeb12792ac410f8272568446625c3", "fusion_lat": 0.0, "type": "electric_scooter", "lat": 38.90337, "is_reserved": 0, "is_disabled": 0, "fusion_lon": 0.0, "bike_id": "0dadeb12792ac410f8272568446625c3", "lon": -76.98819266666666, "rental_uris": {"ios": "https://dc.lft.to/lastmile_qr_scan", "android": "https://dc.lft.to/lastmile_qr_scan"}}, {"name": "4fb88d8095770fa0eb7c82a9ccf39c16", "fusion_lat": 0.0, "type": "electric_scooter", "lat": 38.923862666666665, "is_reserved": 0, "is_disabled": 0, "fusion_lon": 0.0, "bike_id": "4fb88d8095770fa0eb7c82a9ccf39c16", "lon": -77.02755933333333, "rental_uris": {"ios": "https://dc.lft.to/lastmile_qr_scan", "android": "https://dc.lft.to/lastmile_qr_scan"}}, {"name": "b36617024b708613c707409b8c420aa6", "fusion_lat": 0.0, "type": "electric_scooter", "lat": 38.911296, "is_reserved": 0, "is_disabled": 0, "fusion_lon": 0.0, "bike_id": "b36617024b708613c707409b8c420aa6", "lon": -77.04182383333334, "rental_uris": {"ios": "https://dc.lft.to/lastmile_qr_scan", "android": "https://dc.lft.to/lastmile_qr_scan"}}, {"name": "7d827bcf7b31538e6fbfa342bcb2b6a0", "fusion_lat": 0.0, "type": "electric_scooter", "lat": 38.89889933333333, "is_reserved": 0, "is_disabled": 0, "fusion_lon": 0.0, "bike_id": "7d827bcf7b31538e6fbfa342bcb2b6a0", "lon": -76.9330165, "rental_uris": {"ios": "https://dc.lft.to/lastmile_qr_scan", "android": "https://dc.lft.to/lastmile_qr_scan"}}, {"name": "e5f09e10981b130185fc1f4390837b61", "fusion_lat": 0.0, "type": "electric_scooter", "lat": 38.93606666666667, "is_reserved": 0, "is_disabled": 0, "fusion_lon": 0.0, "bike_id": "e5f09e10981b130185fc1f4390837b61", "lon": -77.058596, "rental_uris": {"ios": "https://dc.lft.to/lastmile_qr_scan", "android": "https://dc.lft.to/lastmile_qr_scan"}}, {"name": "ed6630b59f4d51582be4a22f730b04c1", "fusion_lat": 0.0, "type": "electric_scooter", "lat": 38.916599833333336, "is_reserved": 0, "is_disabled": 0, "fusion_lon": 0.0, "bike_id": "ed6630b59f4d51582be4a22f730b04c1", "lon": -77.095511, "rental_uris": {"ios": "https://dc.lft.to/lastmile_qr_scan", "android": "https://dc.lft.to/lastmile_qr_scan"}}, {"name": "6b23da6f4ba31e89f8a00800fd297405", "fusion_lat": 0.0, "type": "electric_scooter", "lat": 38.90660966666667, "is_reserved": 0, "is_disabled": 0, "fusion_lon": 0.0, "bike_id": "6b23da6f4ba31e89f8a00800fd297405", "lon": -76.98584933333333, "rental_uris": {"ios": "https://dc.lft.to/lastmile_qr_scan", "android": "https://dc.lft.to/lastmile_qr_scan"}}, {"name": "8988df1d6b971c97a51a7c594bcca77a", "fusion_lat": 0.0, "type": "electric_scooter", "lat": 38.91693383333333, "is_reserved": 0, "is_disabled": 0, "fusion_lon": 0.0, "bike_id": "8988df1d6b971c97a51a7c594bcca77a", "lon": -77.02304166666667, "rental_uris": {"ios": "https://dc.lft.to/lastmile_qr_scan", "android": "https://dc.lft.to/lastmile_qr_scan"}}, {"name": "a8a37a8b0502298aebf38f9ce8ba1bc8", "fusion_lat": 0.0, "type": "electric_scooter", "lat": 38.899512666666666, "is_reserved": 0, "is_disabled": 0, "fusion_lon": 0.0, "bike_id": "a8a37a8b0502298aebf38f9ce8ba1bc8", "lon": -76.98555383333333, "rental_uris": {"ios": "https://dc.lft.to/lastmile_qr_scan", "android": "https://dc.lft.to/lastmile_qr_scan"}}, {"name": "c01ce7d90a58b2e2c762be4a8eda8b89", "fusion_lat": 0.0, "type": "electric_scooter", "lat": 38.93288166666667, "is_reserved": 0, "is_disabled": 0, "fusion_lon": 0.0, "bike_id": "c01ce7d90a58b2e2c762be4a8eda8b89", "lon": -77.03634633333333, "rental_uris": {"ios": "https://dc.lft.to/lastmile_qr_scan", "android": "https://dc.lft.to/lastmile_qr_scan"}}, {"name": "0db9b402d226b2eb0d7c499584c3b67a", "fusion_lat": 0.0, "type": "electric_scooter", "lat": 38.887285, "is_reserved": 0, "is_disabled": 0, "fusion_lon": 0.0, "bike_id": "0db9b402d226b2eb0d7c499584c3b67a", "lon": -77.02832183333334, "rental_uris": {"ios": "https://dc.lft.to/lastmile_qr_scan", "android": "https://dc.lft.to/lastmile_qr_scan"}}, {"name": "ee048d2c9bbc5aefe524b830f137215b", "fusion_lat": 0.0, "type": "electric_scooter", "lat": 38.909810666666665, "is_reserved": 0, "is_disabled": 0, "fusion_lon": 0.0, "bike_id": "ee048d2c9bbc5aefe524b830f137215b", "lon": -77.01220816666667, "rental_uris": {"ios": "https://dc.lft.to/lastmile_qr_scan", "android": "https://dc.lft.to/lastmile_qr_scan"}}, {"name": "7c86c1c28f01ed2ae8a6d2e7fface5b8", "fusion_lat": 0.0, "type": "electric_scooter", "lat": 38.92042266666667, "is_reserved": 0, "is_disabled": 0, "fusion_lon": 0.0, "bike_id": "7c86c1c28f01ed2ae8a6d2e7fface5b8", "lon": -77.03020566666666, "rental_uris": {"ios": "https://dc.lft.to/lastmile_qr_scan", "android": "https://dc.lft.to/lastmile_qr_scan"}}, {"name": "fdfede15d647df5a1da752f29902f8dd", "fusion_lat": 0.0, "type": "electric_scooter", "lat": 38.879163166666665, "is_reserved": 0, "is_disabled": 0, "fusion_lon": 0.0, "bike_id": "fdfede15d647df5a1da752f29902f8dd", "lon": -77.00893533333333, "rental_uris": {"ios": "https://dc.lft.to/lastmile_qr_scan", "android": "https://dc.lft.to/lastmile_qr_scan"}}, {"name": "722609577622a6dca19279df4eefc17f", "fusion_lat": 0.0, "type": "electric_scooter", "lat": 38.9014075, "is_reserved": 0, "is_disabled": 0, "fusion_lon": 0.0, "bike_id": "722609577622a6dca19279df4eefc17f", "lon": -76.99122983333334, "rental_uris": {"ios": "https://dc.lft.to/lastmile_qr_scan", "android": "https://dc.lft.to/lastmile_qr_scan"}}, {"name": "7313a2f0e624c6a23729d2330608a06f", "fusion_lat": 0.0, "type": "electric_scooter", "lat": 38.91698433333333, "is_reserved": 0, "is_disabled": 0, "fusion_lon": 0.0, "bike_id": "7313a2f0e624c6a23729d2330608a06f", "lon": -77.03502966666667, "rental_uris": {"ios": "https://dc.lft.to/lastmile_qr_scan", "android": "https://dc.lft.to/lastmile_qr_scan"}}, {"name": "c8b9306f4636200eb03731885a502350", "fusion_lat": 0.0, "type": "electric_scooter", "lat": 38.912560666666664, "is_reserved": 0, "is_disabled": 0, "fusion_lon": 0.0, "bike_id": "c8b9306f4636200eb03731885a502350", "lon": -77.00928616666667, "rental_uris": {"ios": "https://dc.lft.to/lastmile_qr_scan", "android": "https://dc.lft.to/lastmile_qr_scan"}}, {"name": "51be0fba01b7813be747f81c1c8eae91", "fusion_lat": 0.0, "type": "electric_scooter", "lat": 38.897231166666664, "is_reserved": 0, "is_disabled": 0, "fusion_lon": 0.0, "bike_id": "51be0fba01b7813be747f81c1c8eae91", "lon": -77.02044883333333, "rental_uris": {"ios": "https://dc.lft.to/lastmile_qr_scan", "android": "https://dc.lft.to/lastmile_qr_scan"}}, {"name": "2d9bfdcd78903b42e3f1837108c49ef8", "fusion_lat": 0.0, "type": "electric_scooter", "lat": 38.93770266666667, "is_reserved": 0, "is_disabled": 0, "fusion_lon": 0.0, "bike_id": "2d9bfdcd78903b42e3f1837108c49ef8", "lon": -77.02436783333333, "rental_uris": {"ios": "https://dc.lft.to/lastmile_qr_scan", "android": "https://dc.lft.to/lastmile_qr_scan"}}, {"name": "799efb25d4f0a6880cf20f991fdea9fb", "fusion_lat": 0.0, "type": "electric_scooter", "lat": 38.89887266666667, "is_reserved": 0, "is_disabled": 0, "fusion_lon": 0.0, "bike_id": "799efb25d4f0a6880cf20f991fdea9fb", "lon": -76.931757, "rental_uris": {"ios": "https://dc.lft.to/lastmile_qr_scan", "android": "https://dc.lft.to/lastmile_qr_scan"}}, {"name": "f0e60c49f9d489c48acf1d797f3f0c84", "fusion_lat": 0.0, "type": "electric_scooter", "lat": 38.89930616666667, "is_reserved": 0, "is_disabled": 0, "fusion_lon": 0.0, "bike_id": "f0e60c49f9d489c48acf1d797f3f0c84", "lon": -77.0285395, "rental_uris": {"ios": "https://dc.lft.to/lastmile_qr_scan", "android": "https://dc.lft.to/lastmile_qr_scan"}}, {"name": "fec75f5bd75eeb78f94d9c66a4a10d38", "fusion_lat": 0.0, "type": "electric_bike", "lat": 38.8562805, "is_reserved": 0, "is_disabled": 0, "fusion_lon": 0.0, "bike_id": "fec75f5bd75eeb78f94d9c66a4a10d38", "lon": -77.11290516666666, "rental_uris": {"ios": "https://dc.lft.to/lastmile_qr_scan", "android": "https://dc.lft.to/lastmile_qr_scan"}}, {"name": "6726adadc8ff80ed835fb86c9757abeb", "fusion_lat": 0.0, "type": "electric_scooter", "lat": 38.858096833333335, "is_reserved": 0, "is_disabled": 0, "fusion_lon": 0.0, "bike_id": "6726adadc8ff80ed835fb86c9757abeb", "lon": -76.986545, "rental_uris": {"ios": "https://dc.lft.to/lastmile_qr_scan", "android": "https://dc.lft.to/lastmile_qr_scan"}}, {"name": "6b2086a315c732337505cd7cf0a23eab", "fusion_lat": 0.0, "type": "electric_scooter", "lat": 38.90397816666667, "is_reserved": 0, "is_disabled": 0, "fusion_lon": 0.0, "bike_id": "6b2086a315c732337505cd7cf0a23eab", "lon": -77.01775833333333, "rental_uris": {"ios": "https://dc.lft.to/lastmile_qr_scan", "android": "https://dc.lft.to/lastmile_qr_scan"}}, {"name": "2409bd9ac5a256b5497b4096195b1b7b", "fusion_lat": 0.0, "type": "electric_scooter", "lat": 38.90576566666667, "is_reserved": 0, "is_disabled": 0, "fusion_lon": 0.0, "bike_id": "2409bd9ac5a256b5497b4096195b1b7b", "lon": -77.022047, "rental_uris": {"ios": "https://dc.lft.to/lastmile_qr_scan", "android": "https://dc.lft.to/lastmile_qr_scan"}}, {"name": "6fa9d8342a8553b65bcde02f347d9355", "fusion_lat": 0.0, "type": "electric_scooter", "lat": 38.91801616666667, "is_reserved": 0, "is_disabled": 0, "fusion_lon": 0.0, "bike_id": "6fa9d8342a8553b65bcde02f347d9355", "lon": -77.028195, "rental_uris": {"ios": "https://dc.lft.to/lastmile_qr_scan", "android": "https://dc.lft.to/lastmile_qr_scan"}}, {"name": "212bba083e916e16e20e193ba27e15e8", "fusion_lat": 0.0, "type": "electric_scooter", "lat": 38.915365666666666, "is_reserved": 0, "is_disabled": 0, "fusion_lon": 0.0, "bike_id": "212bba083e916e16e20e193ba27e15e8", "lon": -77.0197615, "rental_uris": {"ios": "https://dc.lft.to/lastmile_qr_scan", "android": "https://dc.lft.to/lastmile_qr_scan"}}, {"name": "b16d241229dbd8dda4716ec3be3d24cc", "fusion_lat": 0.0, "type": "electric_scooter", "lat": 38.89886416666667, "is_reserved": 0, "is_disabled": 0, "fusion_lon": 0.0, "bike_id": "b16d241229dbd8dda4716ec3be3d24cc", "lon": -76.93175733333334, "rental_uris": {"ios": "https://dc.lft.to/lastmile_qr_scan", "android": "https://dc.lft.to/lastmile_qr_scan"}}, {"name": "fb99b64f9d8d53311e4d6537874e89de", "fusion_lat": 0.0, "type": "electric_scooter", "lat": 38.905196, "is_reserved": 0, "is_disabled": 0, "fusion_lon": 0.0, "bike_id": "fb99b64f9d8d53311e4d6537874e89de", "lon": -77.04995166666667, "rental_uris": {"ios": "https://dc.lft.to/lastmile_qr_scan", "android": "https://dc.lft.to/lastmile_qr_scan"}}, {"name": "f296f5dc774199af50028ca23d6e4af5", "fusion_lat": 0.0, "type": "electric_scooter", "lat": 38.876477666666666, "is_reserved": 0, "is_disabled": 0, "fusion_lon": 0.0, "bike_id": "f296f5dc774199af50028ca23d6e4af5", "lon": -76.96504583333333, "rental_uris": {"ios": "https://dc.lft.to/lastmile_qr_scan", "android": "https://dc.lft.to/lastmile_qr_scan"}}, {"name": "04964e1a48b3e94a013ad3c2ffe63992", "fusion_lat": 0.0, "type": "electric_scooter", "lat": 38.933922833333334, "is_reserved": 0, "is_disabled": 0, "fusion_lon": 0.0, "bike_id": "04964e1a48b3e94a013ad3c2ffe63992", "lon": -77.0315515, "rental_uris": {"ios": "https://dc.lft.to/lastmile_qr_scan", "android": "https://dc.lft.to/lastmile_qr_scan"}}, {"name": "ceb009f50e98ed6387d7735a06577aba", "fusion_lat": 0.0, "type": "electric_scooter", "lat": 38.9265715, "is_reserved": 0, "is_disabled": 0, "fusion_lon": 0.0, "bike_id": "ceb009f50e98ed6387d7735a06577aba", "lon": -77.024324, "rental_uris": {"ios": "https://dc.lft.to/lastmile_qr_scan", "android": "https://dc.lft.to/lastmile_qr_scan"}}, {"name": "0bb652efc1ba307ef081a5116f38aa6b", "fusion_lat": 0.0, "type": "electric_scooter", "lat": 38.92037833333333, "is_reserved": 0, "is_disabled": 0, "fusion_lon": 0.0, "bike_id": "0bb652efc1ba307ef081a5116f38aa6b", "lon": -77.02587516666667, "rental_uris": {"ios": "https://dc.lft.to/lastmile_qr_scan", "android": "https://dc.lft.to/lastmile_qr_scan"}}, {"name": "66f9ee906baeadbee298dae3e793cb2c", "fusion_lat": 0.0, "type": "electric_scooter", "lat": 38.927563, "is_reserved": 0, "is_disabled": 0, "fusion_lon": 0.0, "bike_id": "66f9ee906baeadbee298dae3e793cb2c", "lon": -77.02291683333333, "rental_uris": {"ios": "https://dc.lft.to/lastmile_qr_scan", "android": "https://dc.lft.to/lastmile_qr_scan"}}, {"name": "764c727148119abc051c59907baa86bb", "fusion_lat": 0.0, "type": "electric_scooter", "lat": 38.93066783333333, "is_reserved": 0, "is_disabled": 0, "fusion_lon": 0.0, "bike_id": "764c727148119abc051c59907baa86bb", "lon": -77.02980933333333, "rental_uris": {"ios": "https://dc.lft.to/lastmile_qr_scan", "android": "https://dc.lft.to/lastmile_qr_scan"}}, {"name": "f2fbb99972b0ea442077354d5991170a", "fusion_lat": 0.0, "type": "electric_scooter", "lat": 38.88504016666667, "is_reserved": 0, "is_disabled": 0, "fusion_lon": 0.0, "bike_id": "f2fbb99972b0ea442077354d5991170a", "lon": -77.02210133333334, "rental_uris": {"ios": "https://dc.lft.to/lastmile_qr_scan", "android": "https://dc.lft.to/lastmile_qr_scan"}}, {"name": "cee140371d13f901d2283bfe45ed3f3b", "fusion_lat": 0.0, "type": "electric_bike", "lat": 38.85858, "is_reserved": 0, "is_disabled": 0, "fusion_lon": 0.0, "bike_id": "cee140371d13f901d2283bfe45ed3f3b", "lon": -77.09758316666667, "rental_uris": {"ios": "https://dc.lft.to/lastmile_qr_scan", "android": "https://dc.lft.to/lastmile_qr_scan"}}, {"name": "ec9ee5347da1802a49a906f1f3d4f33a", "fusion_lat": 0.0, "type": "electric_scooter", "lat": 38.91632766666667, "is_reserved": 0, "is_disabled": 0, "fusion_lon": 0.0, "bike_id": "ec9ee5347da1802a49a906f1f3d4f33a", "lon": -77.000986, "rental_uris": {"ios": "https://dc.lft.to/lastmile_qr_scan", "android": "https://dc.lft.to/lastmile_qr_scan"}}, {"name": "98ea251e0bfa6ee3ef00b9191753ce66", "fusion_lat": 0.0, "type": "electric_bike", "lat": 38.94919866666667, "is_reserved": 0, "is_disabled": 0, "fusion_lon": 0.0, "bike_id": "98ea251e0bfa6ee3ef00b9191753ce66", "lon": -77.00792383333334, "rental_uris": {"ios": "https://dc.lft.to/lastmile_qr_scan", "android": "https://dc.lft.to/lastmile_qr_scan"}}, {"name": "a4249bf0366643f2b857689b6a7e5f78", "fusion_lat": 0.0, "type": "electric_scooter", "lat": 38.9177625, "is_reserved": 0, "is_disabled": 0, "fusion_lon": 0.0, "bike_id": "a4249bf0366643f2b857689b6a7e5f78", "lon": -77.023363, "rental_uris": {"ios": "https://dc.lft.to/lastmile_qr_scan", "android": "https://dc.lft.to/lastmile_qr_scan"}}, {"name": "4836f7b45f383ca370b049767fb71bcf", "fusion_lat": 0.0, "type": "electric_scooter", "lat": 38.89232416666667, "is_reserved": 0, "is_disabled": 0, "fusion_lon": 0.0, "bike_id": "4836f7b45f383ca370b049767fb71bcf", "lon": -77.015063, "rental_uris": {"ios": "https://dc.lft.to/lastmile_qr_scan", "android": "https://dc.lft.to/lastmile_qr_scan"}}, {"name": "c67a0c506b0636a7c8085b3ca1b74fb1", "fusion_lat": 0.0, "type": "electric_scooter", "lat": 38.9396355, "is_reserved": 0, "is_disabled": 0, "fusion_lon": 0.0, "bike_id": "c67a0c506b0636a7c8085b3ca1b74fb1", "lon": -77.02750833333333, "rental_uris": {"ios": "https://dc.lft.to/lastmile_qr_scan", "android": "https://dc.lft.to/lastmile_qr_scan"}}, {"name": "3ea988770b0364a541674c7c630e8eca", "fusion_lat": 0.0, "type": "electric_bike", "lat": 39.000171, "is_reserved": 0, "is_disabled": 0, "fusion_lon": 0.0, "bike_id": "3ea988770b0364a541674c7c630e8eca", "lon": -77.01742933333334, "rental_uris": {"ios": "https://dc.lft.to/lastmile_qr_scan", "android": "https://dc.lft.to/lastmile_qr_scan"}}, {"name": "961e4ccde9afbf466c8b6c28d983a2ca", "fusion_lat": 0.0, "type": "electric_scooter", "lat": 38.866607333333334, "is_reserved": 0, "is_disabled": 0, "fusion_lon": 0.0, "bike_id": "961e4ccde9afbf466c8b6c28d983a2ca", "lon": -76.988809, "rental_uris": {"ios": "https://dc.lft.to/lastmile_qr_scan", "android": "https://dc.lft.to/lastmile_qr_scan"}}, {"name": "c2f2e87dfb527c850bf5ff1b06060155", "fusion_lat": 0.0, "type": "electric_scooter", "lat": 38.89613716666667, "is_reserved": 0, "is_disabled": 0, "fusion_lon": 0.0, "bike_id": "c2f2e87dfb527c850bf5ff1b06060155", "lon": -77.044636, "rental_uris": {"ios": "https://dc.lft.to/lastmile_qr_scan", "android": "https://dc.lft.to/lastmile_qr_scan"}}, {"name": "5357ce0b3f36e452e4c956ddd5621441", "fusion_lat": 0.0, "type": "electric_scooter", "lat": 38.9111085, "is_reserved": 0, "is_disabled": 0, "fusion_lon": 0.0, "bike_id": "5357ce0b3f36e452e4c956ddd5621441", "lon": -77.02463716666666, "rental_uris": {"ios": "https://dc.lft.to/lastmile_qr_scan", "android": "https://dc.lft.to/lastmile_qr_scan"}}, {"name": "8522fea372e5b16ce06ddaac8bdd6f23", "fusion_lat": 0.0, "type": "electric_scooter", "lat": 38.907992, "is_reserved": 0, "is_disabled": 0, "fusion_lon": 0.0, "bike_id": "8522fea372e5b16ce06ddaac8bdd6f23", "lon": -77.01816016666666, "rental_uris": {"ios": "https://dc.lft.to/lastmile_qr_scan", "android": "https://dc.lft.to/lastmile_qr_scan"}}, {"name": "1cbcd0b932a7439fcc59f733953c7029", "fusion_lat": 0.0, "type": "electric_bike", "lat": 38.89348666666667, "is_reserved": 0, "is_disabled": 0, "fusion_lon": 0.0, "bike_id": "1cbcd0b932a7439fcc59f733953c7029", "lon": -76.991546, "rental_uris": {"ios": "https://dc.lft.to/lastmile_qr_scan", "android": "https://dc.lft.to/lastmile_qr_scan"}}, {"name": "563dfe04022465addde37776d9721d3a", "fusion_lat": 0.0, "type": "electric_scooter", "lat": 38.91149266666667, "is_reserved": 0, "is_disabled": 0, "fusion_lon": 0.0, "bike_id": "563dfe04022465addde37776d9721d3a", "lon": -77.01683766666666, "rental_uris": {"ios": "https://dc.lft.to/lastmile_qr_scan", "android": "https://dc.lft.to/lastmile_qr_scan"}}, {"name": "b0bbaf449efe0d1854ae0e7dd3951b70", "fusion_lat": 0.0, "type": "electric_scooter", "lat": 38.928240833333334, "is_reserved": 0, "is_disabled": 0, "fusion_lon": 0.0, "bike_id": "b0bbaf449efe0d1854ae0e7dd3951b70", "lon": -77.02256883333334, "rental_uris": {"ios": "https://dc.lft.to/lastmile_qr_scan", "android": "https://dc.lft.to/lastmile_qr_scan"}}, {"name": "5d86eda168218a4e5b5ba70d7faae3c6", "fusion_lat": 0.0, "type": "electric_scooter", "lat": 38.875833666666665, "is_reserved": 0, "is_disabled": 0, "fusion_lon": 0.0, "bike_id": "5d86eda168218a4e5b5ba70d7faae3c6", "lon": -77.01062016666667, "rental_uris": {"ios": "https://dc.lft.to/lastmile_qr_scan", "android": "https://dc.lft.to/lastmile_qr_scan"}}, {"name": "a7a8ae47a92a65991f08fb6044d0c454", "fusion_lat": 0.0, "type": "electric_scooter", "lat": 38.912872666666665, "is_reserved": 0, "is_disabled": 0, "fusion_lon": 0.0, "bike_id": "a7a8ae47a92a65991f08fb6044d0c454", "lon": -76.937463, "rental_uris": {"ios": "https://dc.lft.to/lastmile_qr_scan", "android": "https://dc.lft.to/lastmile_qr_scan"}}, {"name": "5004feb06d59b271c779826fbbbf9bdb", "fusion_lat": 0.0, "type": "electric_scooter", "lat": 38.92968166666667, "is_reserved": 0, "is_disabled": 0, "fusion_lon": 0.0, "bike_id": "5004feb06d59b271c779826fbbbf9bdb", "lon": -77.0411225, "rental_uris": {"ios": "https://dc.lft.to/lastmile_qr_scan", "android": "https://dc.lft.to/lastmile_qr_scan"}}, {"name": "76edb79deea37cabe9550c41e0d85528", "fusion_lat": 0.0, "type": "electric_scooter", "lat": 38.902595, "is_reserved": 0, "is_disabled": 0, "fusion_lon": 0.0, "bike_id": "76edb79deea37cabe9550c41e0d85528", "lon": -76.97705166666667, "rental_uris": {"ios": "https://dc.lft.to/lastmile_qr_scan", "android": "https://dc.lft.to/lastmile_qr_scan"}}, {"name": "f6e43e15e4fce59cda24ee4f591febac", "fusion_lat": 0.0, "type": "electric_scooter", "lat": 38.91403866666667, "is_reserved": 0, "is_disabled": 0, "fusion_lon": 0.0, "bike_id": "f6e43e15e4fce59cda24ee4f591febac", "lon": -77.03954316666666, "rental_uris": {"ios": "https://dc.lft.to/lastmile_qr_scan", "android": "https://dc.lft.to/lastmile_qr_scan"}}, {"name": "2c506ff5111d94bdec0aba9cef94896a", "fusion_lat": 0.0, "type": "electric_scooter", "lat": 38.91986433333334, "is_reserved": 0, "is_disabled": 0, "fusion_lon": 0.0, "bike_id": "2c506ff5111d94bdec0aba9cef94896a", "lon": -77.02381466666667, "rental_uris": {"ios": "https://dc.lft.to/lastmile_qr_scan", "android": "https://dc.lft.to/lastmile_qr_scan"}}, {"name": "df54e620a9835fa911e0c99d2d627bda", "fusion_lat": 0.0, "type": "electric_scooter", "lat": 38.917646833333336, "is_reserved": 0, "is_disabled": 0, "fusion_lon": 0.0, "bike_id": "df54e620a9835fa911e0c99d2d627bda", "lon": -77.09672316666666, "rental_uris": {"ios": "https://dc.lft.to/lastmile_qr_scan", "android": "https://dc.lft.to/lastmile_qr_scan"}}, {"name": "eaab335a931c4bfb1d254b0c43f42799", "fusion_lat": 0.0, "type": "electric_scooter", "lat": 38.88768233333333, "is_reserved": 0, "is_disabled": 0, "fusion_lon": 0.0, "bike_id": "eaab335a931c4bfb1d254b0c43f42799", "lon": -76.95603883333334, "rental_uris": {"ios": "https://dc.lft.to/lastmile_qr_scan", "android": "https://dc.lft.to/lastmile_qr_scan"}}, {"name": "b66d6045061b6c667e6f0d24acf871ab", "fusion_lat": 0.0, "type": "electric_scooter", "lat": 38.931104500000004, "is_reserved": 0, "is_disabled": 0, "fusion_lon": 0.0, "bike_id": "b66d6045061b6c667e6f0d24acf871ab", "lon": -77.0384475, "rental_uris": {"ios": "https://dc.lft.to/lastmile_qr_scan", "android": "https://dc.lft.to/lastmile_qr_scan"}}, {"name": "6b180703b935183aed88e13d6a791183", "fusion_lat": 0.0, "type": "electric_scooter", "lat": 38.91816933333333, "is_reserved": 0, "is_disabled": 0, "fusion_lon": 0.0, "bike_id": "6b180703b935183aed88e13d6a791183", "lon": -77.03215, "rental_uris": {"ios": "https://dc.lft.to/lastmile_qr_scan", "android": "https://dc.lft.to/lastmile_qr_scan"}}, {"name": "d3ecfb9d6363c20a2ec881e9d8f59eab", "fusion_lat": 0.0, "type": "electric_scooter", "lat": 38.878060833333336, "is_reserved": 0, "is_disabled": 0, "fusion_lon": 0.0, "bike_id": "d3ecfb9d6363c20a2ec881e9d8f59eab", "lon": -77.0175145, "rental_uris": {"ios": "https://dc.lft.to/lastmile_qr_scan", "android": "https://dc.lft.to/lastmile_qr_scan"}}, {"name": "fa552996f5bec9a10afe229ce544f661", "fusion_lat": 0.0, "type": "electric_scooter", "lat": 38.907004, "is_reserved": 0, "is_disabled": 0, "fusion_lon": 0.0, "bike_id": "fa552996f5bec9a10afe229ce544f661", "lon": -77.023858, "rental_uris": {"ios": "https://dc.lft.to/lastmile_qr_scan", "android": "https://dc.lft.to/lastmile_qr_scan"}}, {"name": "e82a6bf328fcee071130ee7b1190dac5", "fusion_lat": 0.0, "type": "electric_scooter", "lat": 38.903642, "is_reserved": 0, "is_disabled": 0, "fusion_lon": 0.0, "bike_id": "e82a6bf328fcee071130ee7b1190dac5", "lon": -77.00344033333333, "rental_uris": {"ios": "https://dc.lft.to/lastmile_qr_scan", "android": "https://dc.lft.to/lastmile_qr_scan"}}, {"name": "8fbfd3492a4a0222dea7467402e9db54", "fusion_lat": 0.0, "type": "electric_scooter", "lat": 38.912659, "is_reserved": 0, "is_disabled": 0, "fusion_lon": 0.0, "bike_id": "8fbfd3492a4a0222dea7467402e9db54", "lon": -77.0387095, "rental_uris": {"ios": "https://dc.lft.to/lastmile_qr_scan", "android": "https://dc.lft.to/lastmile_qr_scan"}}, {"name": "884503b9fad0d6a48e5b2d1aa5706403", "fusion_lat": 0.0, "type": "electric_scooter", "lat": 38.904071333333334, "is_reserved": 0, "is_disabled": 0, "fusion_lon": 0.0, "bike_id": "884503b9fad0d6a48e5b2d1aa5706403", "lon": -77.06423716666667, "rental_uris": {"ios": "https://dc.lft.to/lastmile_qr_scan", "android": "https://dc.lft.to/lastmile_qr_scan"}}, {"name": "41e39b535778e7d0b61608f3ce0f80d3", "fusion_lat": 0.0, "type": "electric_scooter", "lat": 38.932746, "is_reserved": 0, "is_disabled": 0, "fusion_lon": 0.0, "bike_id": "41e39b535778e7d0b61608f3ce0f80d3", "lon": -77.03897016666667, "rental_uris": {"ios": "https://dc.lft.to/lastmile_qr_scan", "android": "https://dc.lft.to/lastmile_qr_scan"}}, {"name": "bc25f4977b88f83b0e3b2100f0bd5dcf", "fusion_lat": 0.0, "type": "electric_scooter", "lat": 38.936173833333335, "is_reserved": 0, "is_disabled": 0, "fusion_lon": 0.0, "bike_id": "bc25f4977b88f83b0e3b2100f0bd5dcf", "lon": -77.0321615, "rental_uris": {"ios": "https://dc.lft.to/lastmile_qr_scan", "android": "https://dc.lft.to/lastmile_qr_scan"}}, {"name": "551ad0ef2dd2f6b76aadc71c4653343a", "fusion_lat": 0.0, "type": "electric_scooter", "lat": 38.911763666666666, "is_reserved": 0, "is_disabled": 0, "fusion_lon": 0.0, "bike_id": "551ad0ef2dd2f6b76aadc71c4653343a", "lon": -77.01126583333334, "rental_uris": {"ios": "https://dc.lft.to/lastmile_qr_scan", "android": "https://dc.lft.to/lastmile_qr_scan"}}, {"name": "8e672ded8eecd2b6261f9ee49f424e36", "fusion_lat": 0.0, "type": "electric_bike", "lat": 38.89568216666667, "is_reserved": 0, "is_disabled": 0, "fusion_lon": 0.0, "bike_id": "8e672ded8eecd2b6261f9ee49f424e36", "lon": -77.12728316666667, "rental_uris": {"ios": "https://dc.lft.to/lastmile_qr_scan", "android": "https://dc.lft.to/lastmile_qr_scan"}}, {"name": "0ce086f79cd7dd9091e633ebbf41f503", "fusion_lat": 0.0, "type": "electric_bike", "lat": 39.105667833333335, "is_reserved": 0, "is_disabled": 0, "fusion_lon": 0.0, "bike_id": "0ce086f79cd7dd9091e633ebbf41f503", "lon": -77.15269416666666, "rental_uris": {"ios": "https://dc.lft.to/lastmile_qr_scan", "android": "https://dc.lft.to/lastmile_qr_scan"}}, {"name": "7abbc516bb09481d622f65df9daf0cd4", "fusion_lat": 0.0, "type": "electric_bike", "lat": 38.92297766666667, "is_reserved": 0, "is_disabled": 0, "fusion_lon": 0.0, "bike_id": "7abbc516bb09481d622f65df9daf0cd4", "lon": -76.99378783333333, "rental_uris": {"ios": "https://dc.lft.to/lastmile_qr_scan", "android": "https://dc.lft.to/lastmile_qr_scan"}}, {"name": "56d327035336194c0fe512fbd33f90c0", "fusion_lat": 0.0, "type": "electric_scooter", "lat": 38.916812, "is_reserved": 0, "is_disabled": 0, "fusion_lon": 0.0, "bike_id": "56d327035336194c0fe512fbd33f90c0", "lon": -77.03197133333333, "rental_uris": {"ios": "https://dc.lft.to/lastmile_qr_scan", "android": "https://dc.lft.to/lastmile_qr_scan"}}, {"name": "e4ab1ac96c19b49f449c7f514fb5c614", "fusion_lat": 0.0, "type": "electric_scooter", "lat": 38.91681083333334, "is_reserved": 0, "is_disabled": 0, "fusion_lon": 0.0, "bike_id": "e4ab1ac96c19b49f449c7f514fb5c614", "lon": -77.0297055, "rental_uris": {"ios": "https://dc.lft.to/lastmile_qr_scan", "android": "https://dc.lft.to/lastmile_qr_scan"}}, {"name": "1e72387930a118480099ede4e913e781", "fusion_lat": 0.0, "type": "electric_scooter", "lat": 38.896339166666664, "is_reserved": 0, "is_disabled": 0, "fusion_lon": 0.0, "bike_id": "1e72387930a118480099ede4e913e781", "lon": -77.023845, "rental_uris": {"ios": "https://dc.lft.to/lastmile_qr_scan", "android": "https://dc.lft.to/lastmile_qr_scan"}}, {"name": "03845521c503591b004037b9adf9c51e", "fusion_lat": 0.0, "type": "electric_scooter", "lat": 38.895215, "is_reserved": 0, "is_disabled": 0, "fusion_lon": 0.0, "bike_id": "03845521c503591b004037b9adf9c51e", "lon": -76.94930583333333, "rental_uris": {"ios": "https://dc.lft.to/lastmile_qr_scan", "android": "https://dc.lft.to/lastmile_qr_scan"}}, {"name": "d8cc34cab3e7fde17b82c074974ea4f9", "fusion_lat": 0.0, "type": "electric_scooter", "lat": 38.876485, "is_reserved": 0, "is_disabled": 0, "fusion_lon": 0.0, "bike_id": "d8cc34cab3e7fde17b82c074974ea4f9", "lon": -76.96505833333333, "rental_uris": {"ios": "https://dc.lft.to/lastmile_qr_scan", "android": "https://dc.lft.to/lastmile_qr_scan"}}, {"name": "1b5606658596e49d49c7c854905a2ed0", "fusion_lat": 0.0, "type": "electric_scooter", "lat": 38.88431933333333, "is_reserved": 0, "is_disabled": 0, "fusion_lon": 0.0, "bike_id": "1b5606658596e49d49c7c854905a2ed0", "lon": -76.95758883333333, "rental_uris": {"ios": "https://dc.lft.to/lastmile_qr_scan", "android": "https://dc.lft.to/lastmile_qr_scan"}}, {"name": "39767b3fb1dd858d38e40ee84c7a6759", "fusion_lat": 0.0, "type": "electric_scooter", "lat": 38.89605516666666, "is_reserved": 0, "is_disabled": 0, "fusion_lon": 0.0, "bike_id": "39767b3fb1dd858d38e40ee84c7a6759", "lon": -77.041123, "rental_uris": {"ios": "https://dc.lft.to/lastmile_qr_scan", "android": "https://dc.lft.to/lastmile_qr_scan"}}, {"name": "00922dad03373a899560bf20a044d7f2", "fusion_lat": 0.0, "type": "electric_scooter", "lat": 38.89970916666667, "is_reserved": 0, "is_disabled": 0, "fusion_lon": 0.0, "bike_id": "00922dad03373a899560bf20a044d7f2", "lon": -76.939652, "rental_uris": {"ios": "https://dc.lft.to/lastmile_qr_scan", "android": "https://dc.lft.to/lastmile_qr_scan"}}, {"name": "cd582c4eae71df6e0b5f996a22f0728d", "fusion_lat": 0.0, "type": "electric_scooter", "lat": 38.884284, "is_reserved": 0, "is_disabled": 0, "fusion_lon": 0.0, "bike_id": "cd582c4eae71df6e0b5f996a22f0728d", "lon": -76.95753733333333, "rental_uris": {"ios": "https://dc.lft.to/lastmile_qr_scan", "android": "https://dc.lft.to/lastmile_qr_scan"}}, {"name": "ea46c2030c04107124a7333e94ccdb16", "fusion_lat": 0.0, "type": "electric_scooter", "lat": 38.897654, "is_reserved": 0, "is_disabled": 0, "fusion_lon": 0.0, "bike_id": "ea46c2030c04107124a7333e94ccdb16", "lon": -77.031167, "rental_uris": {"ios": "https://dc.lft.to/lastmile_qr_scan", "android": "https://dc.lft.to/lastmile_qr_scan"}}, {"name": "bba9974e8854e26ae8990525db629f73", "fusion_lat": 0.0, "type": "electric_bike", "lat": 38.848444666666666, "is_reserved": 0, "is_disabled": 0, "fusion_lon": 0.0, "bike_id": "bba9974e8854e26ae8990525db629f73", "lon": -77.08053533333333, "rental_uris": {"ios": "https://dc.lft.to/lastmile_qr_scan", "android": "https://dc.lft.to/lastmile_qr_scan"}}, {"name": "6a537000e652b28a31c62199b858fdc9", "fusion_lat": 0.0, "type": "electric_scooter", "lat": 38.85707333333333, "is_reserved": 0, "is_disabled": 0, "fusion_lon": 0.0, "bike_id": "6a537000e652b28a31c62199b858fdc9", "lon": -76.98136416666667, "rental_uris": {"ios": "https://dc.lft.to/lastmile_qr_scan", "android": "https://dc.lft.to/lastmile_qr_scan"}}, {"name": "722215e66a0beddf8770853d504cb39d", "fusion_lat": 0.0, "type": "electric_scooter", "lat": 38.89955833333333, "is_reserved": 0, "is_disabled": 0, "fusion_lon": 0.0, "bike_id": "722215e66a0beddf8770853d504cb39d", "lon": -77.0393985, "rental_uris": {"ios": "https://dc.lft.to/lastmile_qr_scan", "android": "https://dc.lft.to/lastmile_qr_scan"}}, {"name": "d46eafbf526c2e11952d6dca1507950c", "fusion_lat": 0.0, "type": "electric_bike", "lat": 38.91142516666667, "is_reserved": 0, "is_disabled": 0, "fusion_lon": 0.0, "bike_id": "d46eafbf526c2e11952d6dca1507950c", "lon": -77.06571766666667, "rental_uris": {"ios": "https://dc.lft.to/lastmile_qr_scan", "android": "https://dc.lft.to/lastmile_qr_scan"}}, {"name": "4bb631208afd2f973c8d4fef409ee543", "fusion_lat": 0.0, "type": "electric_scooter", "lat": 38.9397315, "is_reserved": 0, "is_disabled": 0, "fusion_lon": 0.0, "bike_id": "4bb631208afd2f973c8d4fef409ee543", "lon": -77.03560416666667, "rental_uris": {"ios": "https://dc.lft.to/lastmile_qr_scan", "android": "https://dc.lft.to/lastmile_qr_scan"}}, {"name": "545ada6342412957b32c6b3864070799", "fusion_lat": 0.0, "type": "electric_scooter", "lat": 38.91087233333333, "is_reserved": 0, "is_disabled": 0, "fusion_lon": 0.0, "bike_id": "545ada6342412957b32c6b3864070799", "lon": -76.99697316666666, "rental_uris": {"ios": "https://dc.lft.to/lastmile_qr_scan", "android": "https://dc.lft.to/lastmile_qr_scan"}}, {"name": "1d756305b2c6c97c8594bd94ba7947b2", "fusion_lat": 0.0, "type": "electric_scooter", "lat": 38.90725033333333, "is_reserved": 0, "is_disabled": 0, "fusion_lon": 0.0, "bike_id": "1d756305b2c6c97c8594bd94ba7947b2", "lon": -77.02984266666667, "rental_uris": {"ios": "https://dc.lft.to/lastmile_qr_scan", "android": "https://dc.lft.to/lastmile_qr_scan"}}, {"name": "694e157679766a11d9b74a3bf478b4aa", "fusion_lat": 0.0, "type": "electric_bike", "lat": 38.962865666666666, "is_reserved": 0, "is_disabled": 0, "fusion_lon": 0.0, "bike_id": "694e157679766a11d9b74a3bf478b4aa", "lon": -77.0325685, "rental_uris": {"ios": "https://dc.lft.to/lastmile_qr_scan", "android": "https://dc.lft.to/lastmile_qr_scan"}}, {"name": "ca6d51081b4801c0b1b9ca3a4aba4ddf", "fusion_lat": 0.0, "type": "electric_scooter", "lat": 38.88743383333333, "is_reserved": 0, "is_disabled": 0, "fusion_lon": 0.0, "bike_id": "ca6d51081b4801c0b1b9ca3a4aba4ddf", "lon": -77.02135833333334, "rental_uris": {"ios": "https://dc.lft.to/lastmile_qr_scan", "android": "https://dc.lft.to/lastmile_qr_scan"}}, {"name": "2a6e0cb7d7b62caaf705371f68dd4bb3", "fusion_lat": 0.0, "type": "electric_scooter", "lat": 38.903254, "is_reserved": 0, "is_disabled": 0, "fusion_lon": 0.0, "bike_id": "2a6e0cb7d7b62caaf705371f68dd4bb3", "lon": -77.06548233333334, "rental_uris": {"ios": "https://dc.lft.to/lastmile_qr_scan", "android": "https://dc.lft.to/lastmile_qr_scan"}}, {"name": "5474c21d584197eaa5bb6bde12ebe9c6", "fusion_lat": 0.0, "type": "electric_scooter", "lat": 38.92528033333333, "is_reserved": 0, "is_disabled": 0, "fusion_lon": 0.0, "bike_id": "5474c21d584197eaa5bb6bde12ebe9c6", "lon": -77.05543483333334, "rental_uris": {"ios": "https://dc.lft.to/lastmile_qr_scan", "android": "https://dc.lft.to/lastmile_qr_scan"}}, {"name": "e289d93a752d512f819bdd02747aef26", "fusion_lat": 0.0, "type": "electric_scooter", "lat": 38.8861, "is_reserved": 0, "is_disabled": 0, "fusion_lon": 0.0, "bike_id": "e289d93a752d512f819bdd02747aef26", "lon": -76.97817483333333, "rental_uris": {"ios": "https://dc.lft.to/lastmile_qr_scan", "android": "https://dc.lft.to/lastmile_qr_scan"}}, {"name": "fa8886971242aa7cd75d83d2aedce694", "fusion_lat": 0.0, "type": "electric_scooter", "lat": 38.917095833333335, "is_reserved": 0, "is_disabled": 0, "fusion_lon": 0.0, "bike_id": "fa8886971242aa7cd75d83d2aedce694", "lon": -77.01247, "rental_uris": {"ios": "https://dc.lft.to/lastmile_qr_scan", "android": "https://dc.lft.to/lastmile_qr_scan"}}, {"name": "49db39f8e1bed78b082a3927b6ab18de", "fusion_lat": 0.0, "type": "electric_scooter", "lat": 38.887383, "is_reserved": 0, "is_disabled": 0, "fusion_lon": 0.0, "bike_id": "49db39f8e1bed78b082a3927b6ab18de", "lon": -77.01533616666667, "rental_uris": {"ios": "https://dc.lft.to/lastmile_qr_scan", "android": "https://dc.lft.to/lastmile_qr_scan"}}, {"name": "e791bfa73c526b854da9bee1c74a7ef7", "fusion_lat": 0.0, "type": "electric_scooter", "lat": 38.91547333333333, "is_reserved": 0, "is_disabled": 0, "fusion_lon": 0.0, "bike_id": "e791bfa73c526b854da9bee1c74a7ef7", "lon": -77.0385845, "rental_uris": {"ios": "https://dc.lft.to/lastmile_qr_scan", "android": "https://dc.lft.to/lastmile_qr_scan"}}, {"name": "080d3775ee636855c5386c69281f8512", "fusion_lat": 0.0, "type": "electric_scooter", "lat": 38.90532316666667, "is_reserved": 0, "is_disabled": 0, "fusion_lon": 0.0, "bike_id": "080d3775ee636855c5386c69281f8512", "lon": -77.06277333333334, "rental_uris": {"ios": "https://dc.lft.to/lastmile_qr_scan", "android": "https://dc.lft.to/lastmile_qr_scan"}}, {"name": "de4c685477f9cfa3cdc55a73c5b838cb", "fusion_lat": 0.0, "type": "electric_scooter", "lat": 38.918492, "is_reserved": 0, "is_disabled": 0, "fusion_lon": 0.0, "bike_id": "de4c685477f9cfa3cdc55a73c5b838cb", "lon": -77.00167716666667, "rental_uris": {"ios": "https://dc.lft.to/lastmile_qr_scan", "android": "https://dc.lft.to/lastmile_qr_scan"}}, {"name": "ea777b6e9e6dbd7d7a7fe026c31f763e", "fusion_lat": 0.0, "type": "electric_bike", "lat": 38.88639516666667, "is_reserved": 0, "is_disabled": 0, "fusion_lon": 0.0, "bike_id": "ea777b6e9e6dbd7d7a7fe026c31f763e", "lon": -76.954764, "rental_uris": {"ios": "https://dc.lft.to/lastmile_qr_scan", "android": "https://dc.lft.to/lastmile_qr_scan"}}, {"name": "3fb153756d4edc65691f23af77532da1", "fusion_lat": 0.0, "type": "electric_scooter", "lat": 38.912780166666664, "is_reserved": 0, "is_disabled": 0, "fusion_lon": 0.0, "bike_id": "3fb153756d4edc65691f23af77532da1", "lon": -77.03872233333334, "rental_uris": {"ios": "https://dc.lft.to/lastmile_qr_scan", "android": "https://dc.lft.to/lastmile_qr_scan"}}, {"name": "3e16050018877fc63cdf39705e1631b8", "fusion_lat": 0.0, "type": "electric_scooter", "lat": 38.935506333333336, "is_reserved": 0, "is_disabled": 0, "fusion_lon": 0.0, "bike_id": "3e16050018877fc63cdf39705e1631b8", "lon": -77.05984316666667, "rental_uris": {"ios": "https://dc.lft.to/lastmile_qr_scan", "android": "https://dc.lft.to/lastmile_qr_scan"}}, {"name": "61efd9810da466558f10120c90aacbf0", "fusion_lat": 0.0, "type": "electric_scooter", "lat": 38.908019, "is_reserved": 0, "is_disabled": 0, "fusion_lon": 0.0, "bike_id": "61efd9810da466558f10120c90aacbf0", "lon": -77.03189833333333, "rental_uris": {"ios": "https://dc.lft.to/lastmile_qr_scan", "android": "https://dc.lft.to/lastmile_qr_scan"}}, {"name": "f42fa00de1d5c32cc60a5e8c715a985f", "fusion_lat": 0.0, "type": "electric_bike", "lat": 38.8983485, "is_reserved": 0, "is_disabled": 0, "fusion_lon": 0.0, "bike_id": "f42fa00de1d5c32cc60a5e8c715a985f", "lon": -77.11800116666667, "rental_uris": {"ios": "https://dc.lft.to/lastmile_qr_scan", "android": "https://dc.lft.to/lastmile_qr_scan"}}, {"name": "d26e703555c06b16ca825e99179783ba", "fusion_lat": 0.0, "type": "electric_scooter", "lat": 38.925688, "is_reserved": 0, "is_disabled": 0, "fusion_lon": 0.0, "bike_id": "d26e703555c06b16ca825e99179783ba", "lon": -77.02967066666666, "rental_uris": {"ios": "https://dc.lft.to/lastmile_qr_scan", "android": "https://dc.lft.to/lastmile_qr_scan"}}, {"name": "ac0d78f3556eb02d5d5eabc41b808c40", "fusion_lat": 0.0, "type": "electric_scooter", "lat": 38.9364415, "is_reserved": 0, "is_disabled": 0, "fusion_lon": 0.0, "bike_id": "ac0d78f3556eb02d5d5eabc41b808c40", "lon": -77.03459533333333, "rental_uris": {"ios": "https://dc.lft.to/lastmile_qr_scan", "android": "https://dc.lft.to/lastmile_qr_scan"}}, {"name": "d4d4bf3a3fc073beb3171dcac3a8d71a", "fusion_lat": 0.0, "type": "electric_scooter", "lat": 38.92481983333333, "is_reserved": 0, "is_disabled": 0, "fusion_lon": 0.0, "bike_id": "d4d4bf3a3fc073beb3171dcac3a8d71a", "lon": -77.02753783333333, "rental_uris": {"ios": "https://dc.lft.to/lastmile_qr_scan", "android": "https://dc.lft.to/lastmile_qr_scan"}}, {"name": "595366d9f5e808305a4e15d04217a114", "fusion_lat": 0.0, "type": "electric_bike", "lat": 38.904233833333336, "is_reserved": 0, "is_disabled": 0, "fusion_lon": 0.0, "bike_id": "595366d9f5e808305a4e15d04217a114", "lon": -76.98786933333334, "rental_uris": {"ios": "https://dc.lft.to/lastmile_qr_scan", "android": "https://dc.lft.to/lastmile_qr_scan"}}, {"name": "00edd9132e130c5d5d080f4019dc3e32", "fusion_lat": 0.0, "type": "electric_scooter", "lat": 38.916412, "is_reserved": 0, "is_disabled": 0, "fusion_lon": 0.0, "bike_id": "00edd9132e130c5d5d080f4019dc3e32", "lon": -77.03907266666667, "rental_uris": {"ios": "https://dc.lft.to/lastmile_qr_scan", "android": "https://dc.lft.to/lastmile_qr_scan"}}, {"name": "19bc4cd6c56b74c4e7359805bb8b83cd", "fusion_lat": 0.0, "type": "electric_scooter", "lat": 38.90037916666667, "is_reserved": 0, "is_disabled": 0, "fusion_lon": 0.0, "bike_id": "19bc4cd6c56b74c4e7359805bb8b83cd", "lon": -76.98520816666667, "rental_uris": {"ios": "https://dc.lft.to/lastmile_qr_scan", "android": "https://dc.lft.to/lastmile_qr_scan"}}, {"name": "2a2ea7d2555b3671a221ddcde2132340", "fusion_lat": 0.0, "type": "electric_scooter", "lat": 38.925127333333336, "is_reserved": 0, "is_disabled": 0, "fusion_lon": 0.0, "bike_id": "2a2ea7d2555b3671a221ddcde2132340", "lon": -77.02391583333333, "rental_uris": {"ios": "https://dc.lft.to/lastmile_qr_scan", "android": "https://dc.lft.to/lastmile_qr_scan"}}, {"name": "187220588a03e2dd37771d5fea48f9a1", "fusion_lat": 0.0, "type": "electric_scooter", "lat": 38.918038833333334, "is_reserved": 0, "is_disabled": 0, "fusion_lon": 0.0, "bike_id": "187220588a03e2dd37771d5fea48f9a1", "lon": -77.011471, "rental_uris": {"ios": "https://dc.lft.to/lastmile_qr_scan", "android": "https://dc.lft.to/lastmile_qr_scan"}}, {"name": "017cadea77cce0e30ba4921bffca4ad5", "fusion_lat": 0.0, "type": "electric_scooter", "lat": 38.904642833333334, "is_reserved": 0, "is_disabled": 0, "fusion_lon": 0.0, "bike_id": "017cadea77cce0e30ba4921bffca4ad5", "lon": -77.041845, "rental_uris": {"ios": "https://dc.lft.to/lastmile_qr_scan", "android": "https://dc.lft.to/lastmile_qr_scan"}}, {"name": "d8b8d264d52c10a82011a217df7bf825", "fusion_lat": 0.0, "type": "electric_scooter", "lat": 38.897394, "is_reserved": 0, "is_disabled": 0, "fusion_lon": 0.0, "bike_id": "d8b8d264d52c10a82011a217df7bf825", "lon": -77.0465605, "rental_uris": {"ios": "https://dc.lft.to/lastmile_qr_scan", "android": "https://dc.lft.to/lastmile_qr_scan"}}, {"name": "385503282215d434df88c26f16a9d984", "fusion_lat": 0.0, "type": "electric_scooter", "lat": 38.89651416666667, "is_reserved": 0, "is_disabled": 0, "fusion_lon": 0.0, "bike_id": "385503282215d434df88c26f16a9d984", "lon": -77.04907333333334, "rental_uris": {"ios": "https://dc.lft.to/lastmile_qr_scan", "android": "https://dc.lft.to/lastmile_qr_scan"}}, {"name": "9019c7bcbdd4c2f3bbf33dd876a0af87", "fusion_lat": 0.0, "type": "electric_scooter", "lat": 38.89226266666667, "is_reserved": 0, "is_disabled": 0, "fusion_lon": 0.0, "bike_id": "9019c7bcbdd4c2f3bbf33dd876a0af87", "lon": -77.045052, "rental_uris": {"ios": "https://dc.lft.to/lastmile_qr_scan", "android": "https://dc.lft.to/lastmile_qr_scan"}}, {"name": "c3e3dd1ef08e0a62bd8608accb0b190f", "fusion_lat": 0.0, "type": "electric_scooter", "lat": 38.92430983333333, "is_reserved": 0, "is_disabled": 0, "fusion_lon": 0.0, "bike_id": "c3e3dd1ef08e0a62bd8608accb0b190f", "lon": -77.051762, "rental_uris": {"ios": "https://dc.lft.to/lastmile_qr_scan", "android": "https://dc.lft.to/lastmile_qr_scan"}}, {"name": "b3835f1802c6beb989e7f223162868ce", "fusion_lat": 0.0, "type": "electric_scooter", "lat": 38.94980366666667, "is_reserved": 0, "is_disabled": 0, "fusion_lon": 0.0, "bike_id": "b3835f1802c6beb989e7f223162868ce", "lon": -77.03501633333333, "rental_uris": {"ios": "https://dc.lft.to/lastmile_qr_scan", "android": "https://dc.lft.to/lastmile_qr_scan"}}, {"name": "1eed1c53a2004af70e0701f54e6a08fc", "fusion_lat": 0.0, "type": "electric_scooter", "lat": 38.90462266666667, "is_reserved": 0, "is_disabled": 0, "fusion_lon": 0.0, "bike_id": "1eed1c53a2004af70e0701f54e6a08fc", "lon": -77.041895, "rental_uris": {"ios": "https://dc.lft.to/lastmile_qr_scan", "android": "https://dc.lft.to/lastmile_qr_scan"}}, {"name": "04c7fef97e5437a259671e93f5a550e0", "fusion_lat": 0.0, "type": "electric_scooter", "lat": 38.89541533333333, "is_reserved": 0, "is_disabled": 0, "fusion_lon": 0.0, "bike_id": "04c7fef97e5437a259671e93f5a550e0", "lon": -77.03094183333333, "rental_uris": {"ios": "https://dc.lft.to/lastmile_qr_scan", "android": "https://dc.lft.to/lastmile_qr_scan"}}, {"name": "9b600f927c21e53ee98d13eae668f293", "fusion_lat": 0.0, "type": "electric_scooter", "lat": 38.909636166666665, "is_reserved": 0, "is_disabled": 0, "fusion_lon": 0.0, "bike_id": "9b600f927c21e53ee98d13eae668f293", "lon": -77.044778, "rental_uris": {"ios": "https://dc.lft.to/lastmile_qr_scan", "android": "https://dc.lft.to/lastmile_qr_scan"}}, {"name": "c779276dec660643197cf7b54edb0c9d", "fusion_lat": 0.0, "type": "electric_scooter", "lat": 38.9191925, "is_reserved": 0, "is_disabled": 0, "fusion_lon": 0.0, "bike_id": "c779276dec660643197cf7b54edb0c9d", "lon": -77.0235775, "rental_uris": {"ios": "https://dc.lft.to/lastmile_qr_scan", "android": "https://dc.lft.to/lastmile_qr_scan"}}, {"name": "0b37baacff0ea185a4bc024814f15621", "fusion_lat": 0.0, "type": "electric_scooter", "lat": 38.9027275, "is_reserved": 0, "is_disabled": 0, "fusion_lon": 0.0, "bike_id": "0b37baacff0ea185a4bc024814f15621", "lon": -77.03213016666666, "rental_uris": {"ios": "https://dc.lft.to/lastmile_qr_scan", "android": "https://dc.lft.to/lastmile_qr_scan"}}, {"name": "773afa0508c2779bac4b5acdff623cc1", "fusion_lat": 0.0, "type": "electric_bike", "lat": 38.953668, "is_reserved": 0, "is_disabled": 0, "fusion_lon": 0.0, "bike_id": "773afa0508c2779bac4b5acdff623cc1", "lon": -77.08856983333334, "rental_uris": {"ios": "https://dc.lft.to/lastmile_qr_scan", "android": "https://dc.lft.to/lastmile_qr_scan"}}, {"name": "f2644cb1e24c180b832f22fad69b5b66", "fusion_lat": 0.0, "type": "electric_scooter", "lat": 38.8948675, "is_reserved": 0, "is_disabled": 0, "fusion_lon": 0.0, "bike_id": "f2644cb1e24c180b832f22fad69b5b66", "lon": -76.948729, "rental_uris": {"ios": "https://dc.lft.to/lastmile_qr_scan", "android": "https://dc.lft.to/lastmile_qr_scan"}}, {"name": "c650904bb1dd6ee8f836497c0e2efcd6", "fusion_lat": 0.0, "type": "electric_scooter", "lat": 38.91893866666667, "is_reserved": 0, "is_disabled": 0, "fusion_lon": 0.0, "bike_id": "c650904bb1dd6ee8f836497c0e2efcd6", "lon": -77.05291683333333, "rental_uris": {"ios": "https://dc.lft.to/lastmile_qr_scan", "android": "https://dc.lft.to/lastmile_qr_scan"}}, {"name": "4e564991664efcb14766494bde618bfc", "fusion_lat": 0.0, "type": "electric_scooter", "lat": 38.865048333333334, "is_reserved": 0, "is_disabled": 0, "fusion_lon": 0.0, "bike_id": "4e564991664efcb14766494bde618bfc", "lon": -76.99002983333334, "rental_uris": {"ios": "https://dc.lft.to/lastmile_qr_scan", "android": "https://dc.lft.to/lastmile_qr_scan"}}, {"name": "220e36af63795eb8343160f748415932", "fusion_lat": 0.0, "type": "electric_scooter", "lat": 38.909746166666665, "is_reserved": 0, "is_disabled": 0, "fusion_lon": 0.0, "bike_id": "220e36af63795eb8343160f748415932", "lon": -77.02178216666667, "rental_uris": {"ios": "https://dc.lft.to/lastmile_qr_scan", "android": "https://dc.lft.to/lastmile_qr_scan"}}, {"name": "c41ca45ef2b6cc0d5835540929c2e4fa", "fusion_lat": 0.0, "type": "electric_scooter", "lat": 38.925901, "is_reserved": 0, "is_disabled": 0, "fusion_lon": 0.0, "bike_id": "c41ca45ef2b6cc0d5835540929c2e4fa", "lon": -77.05298383333333, "rental_uris": {"ios": "https://dc.lft.to/lastmile_qr_scan", "android": "https://dc.lft.to/lastmile_qr_scan"}}, {"name": "ec7ad32921a6ebd33bcf9d09813971d2", "fusion_lat": 0.0, "type": "electric_scooter", "lat": 38.8948635, "is_reserved": 0, "is_disabled": 0, "fusion_lon": 0.0, "bike_id": "ec7ad32921a6ebd33bcf9d09813971d2", "lon": -77.02406283333333, "rental_uris": {"ios": "https://dc.lft.to/lastmile_qr_scan", "android": "https://dc.lft.to/lastmile_qr_scan"}}, {"name": "5f72ede0df8ee5d2363145f875ea0ad9", "fusion_lat": 0.0, "type": "electric_scooter", "lat": 38.8867545, "is_reserved": 0, "is_disabled": 0, "fusion_lon": 0.0, "bike_id": "5f72ede0df8ee5d2363145f875ea0ad9", "lon": -76.9361045, "rental_uris": {"ios": "https://dc.lft.to/lastmile_qr_scan", "android": "https://dc.lft.to/lastmile_qr_scan"}}, {"name": "19356a3d5fd86577ea2d6a6f3ebe77ee", "fusion_lat": 0.0, "type": "electric_scooter", "lat": 38.90145716666667, "is_reserved": 0, "is_disabled": 0, "fusion_lon": 0.0, "bike_id": "19356a3d5fd86577ea2d6a6f3ebe77ee", "lon": -77.03330233333334, "rental_uris": {"ios": "https://dc.lft.to/lastmile_qr_scan", "android": "https://dc.lft.to/lastmile_qr_scan"}}, {"name": "1a54ad44150b62551cd10e12da49f882", "fusion_lat": 0.0, "type": "electric_scooter", "lat": 38.9232685, "is_reserved": 0, "is_disabled": 0, "fusion_lon": 0.0, "bike_id": "1a54ad44150b62551cd10e12da49f882", "lon": -77.0543595, "rental_uris": {"ios": "https://dc.lft.to/lastmile_qr_scan", "android": "https://dc.lft.to/lastmile_qr_scan"}}, {"name": "7805da85f52daaaf234c8fa3fb3a8b87", "fusion_lat": 0.0, "type": "electric_bike", "lat": 38.8272895, "is_reserved": 0, "is_disabled": 0, "fusion_lon": 0.0, "bike_id": "7805da85f52daaaf234c8fa3fb3a8b87", "lon": -77.00863916666667, "rental_uris": {"ios": "https://dc.lft.to/lastmile_qr_scan", "android": "https://dc.lft.to/lastmile_qr_scan"}}, {"name": "d1f23e33126599952de2a44f7bc0263f", "fusion_lat": 0.0, "type": "electric_scooter", "lat": 38.90272383333333, "is_reserved": 0, "is_disabled": 0, "fusion_lon": 0.0, "bike_id": "d1f23e33126599952de2a44f7bc0263f", "lon": -77.01719566666667, "rental_uris": {"ios": "https://dc.lft.to/lastmile_qr_scan", "android": "https://dc.lft.to/lastmile_qr_scan"}}, {"name": "114c4b0a868831f57df568e53d0fd493", "fusion_lat": 0.0, "type": "electric_scooter", "lat": 38.92266766666667, "is_reserved": 0, "is_disabled": 0, "fusion_lon": 0.0, "bike_id": "114c4b0a868831f57df568e53d0fd493", "lon": -77.03403266666666, "rental_uris": {"ios": "https://dc.lft.to/lastmile_qr_scan", "android": "https://dc.lft.to/lastmile_qr_scan"}}, {"name": "30159538df27378636a0d0bfc09b160d", "fusion_lat": 0.0, "type": "electric_scooter", "lat": 38.9521825, "is_reserved": 0, "is_disabled": 0, "fusion_lon": 0.0, "bike_id": "30159538df27378636a0d0bfc09b160d", "lon": -77.0706735, "rental_uris": {"ios": "https://dc.lft.to/lastmile_qr_scan", "android": "https://dc.lft.to/lastmile_qr_scan"}}, {"name": "54099a1dd7c4a55dfcf5e49651938d3a", "fusion_lat": 0.0, "type": "electric_scooter", "lat": 38.91057983333334, "is_reserved": 0, "is_disabled": 0, "fusion_lon": 0.0, "bike_id": "54099a1dd7c4a55dfcf5e49651938d3a", "lon": -77.04579083333333, "rental_uris": {"ios": "https://dc.lft.to/lastmile_qr_scan", "android": "https://dc.lft.to/lastmile_qr_scan"}}, {"name": "859f612c398555dcf022d92ad5183757", "fusion_lat": 0.0, "type": "electric_scooter", "lat": 38.9172265, "is_reserved": 0, "is_disabled": 0, "fusion_lon": 0.0, "bike_id": "859f612c398555dcf022d92ad5183757", "lon": -77.02339033333334, "rental_uris": {"ios": "https://dc.lft.to/lastmile_qr_scan", "android": "https://dc.lft.to/lastmile_qr_scan"}}, {"name": "59dbd4f406d56666de7772d3d8fc69fc", "fusion_lat": 0.0, "type": "electric_scooter", "lat": 38.92432816666667, "is_reserved": 0, "is_disabled": 0, "fusion_lon": 0.0, "bike_id": "59dbd4f406d56666de7772d3d8fc69fc", "lon": -77.04250316666666, "rental_uris": {"ios": "https://dc.lft.to/lastmile_qr_scan", "android": "https://dc.lft.to/lastmile_qr_scan"}}, {"name": "84c8e789180875d1332d05c93a366548", "fusion_lat": 0.0, "type": "electric_scooter", "lat": 38.924391166666666, "is_reserved": 0, "is_disabled": 0, "fusion_lon": 0.0, "bike_id": "84c8e789180875d1332d05c93a366548", "lon": -77.0422665, "rental_uris": {"ios": "https://dc.lft.to/lastmile_qr_scan", "android": "https://dc.lft.to/lastmile_qr_scan"}}, {"name": "346e5739f69ae7a7c211ddcd427778ba", "fusion_lat": 0.0, "type": "electric_bike", "lat": 38.911841, "is_reserved": 0, "is_disabled": 0, "fusion_lon": 0.0, "bike_id": "346e5739f69ae7a7c211ddcd427778ba", "lon": -77.0114995, "rental_uris": {"ios": "https://dc.lft.to/lastmile_qr_scan", "android": "https://dc.lft.to/lastmile_qr_scan"}}, {"name": "d5b433a4991fe9f729d3828be2381d75", "fusion_lat": 0.0, "type": "electric_scooter", "lat": 38.9169915, "is_reserved": 0, "is_disabled": 0, "fusion_lon": 0.0, "bike_id": "d5b433a4991fe9f729d3828be2381d75", "lon": -77.030809, "rental_uris": {"ios": "https://dc.lft.to/lastmile_qr_scan", "android": "https://dc.lft.to/lastmile_qr_scan"}}, {"name": "e1b1fcb60fe597635b49c15bb53890c3", "fusion_lat": 0.0, "type": "electric_scooter", "lat": 38.91902116666667, "is_reserved": 0, "is_disabled": 0, "fusion_lon": 0.0, "bike_id": "e1b1fcb60fe597635b49c15bb53890c3", "lon": -77.00046516666667, "rental_uris": {"ios": "https://dc.lft.to/lastmile_qr_scan", "android": "https://dc.lft.to/lastmile_qr_scan"}}, {"name": "98368c48ebe582e2f6c4436784facfd2", "fusion_lat": 0.0, "type": "electric_scooter", "lat": 38.86664316666667, "is_reserved": 0, "is_disabled": 0, "fusion_lon": 0.0, "bike_id": "98368c48ebe582e2f6c4436784facfd2", "lon": -76.9888255, "rental_uris": {"ios": "https://dc.lft.to/lastmile_qr_scan", "android": "https://dc.lft.to/lastmile_qr_scan"}}, {"name": "c728f65538136bd334de7942b250a02b", "fusion_lat": 0.0, "type": "electric_scooter", "lat": 38.90031666666667, "is_reserved": 0, "is_disabled": 0, "fusion_lon": 0.0, "bike_id": "c728f65538136bd334de7942b250a02b", "lon": -77.00199166666667, "rental_uris": {"ios": "https://dc.lft.to/lastmile_qr_scan", "android": "https://dc.lft.to/lastmile_qr_scan"}}, {"name": "5de2a1bc39e21c0233eb6b6111f24739", "fusion_lat": 0.0, "type": "electric_bike", "lat": 38.84432566666667, "is_reserved": 0, "is_disabled": 0, "fusion_lon": 0.0, "bike_id": "5de2a1bc39e21c0233eb6b6111f24739", "lon": -77.11262333333333, "rental_uris": {"ios": "https://dc.lft.to/lastmile_qr_scan", "android": "https://dc.lft.to/lastmile_qr_scan"}}, {"name": "9fdf26f706e31882583b4590cb6fd8cd", "fusion_lat": 0.0, "type": "electric_scooter", "lat": 38.904546833333335, "is_reserved": 0, "is_disabled": 0, "fusion_lon": 0.0, "bike_id": "9fdf26f706e31882583b4590cb6fd8cd", "lon": -77.03095783333333, "rental_uris": {"ios": "https://dc.lft.to/lastmile_qr_scan", "android": "https://dc.lft.to/lastmile_qr_scan"}}, {"name": "852dbe80612bcd8c311b724c6a5ec96c", "fusion_lat": 0.0, "type": "electric_scooter", "lat": 38.917121, "is_reserved": 0, "is_disabled": 0, "fusion_lon": 0.0, "bike_id": "852dbe80612bcd8c311b724c6a5ec96c", "lon": -77.038654, "rental_uris": {"ios": "https://dc.lft.to/lastmile_qr_scan", "android": "https://dc.lft.to/lastmile_qr_scan"}}, {"name": "2940ea54a5e2166af987c184067ec8d6", "fusion_lat": 0.0, "type": "electric_scooter", "lat": 38.908469, "is_reserved": 0, "is_disabled": 0, "fusion_lon": 0.0, "bike_id": "2940ea54a5e2166af987c184067ec8d6", "lon": -77.026017, "rental_uris": {"ios": "https://dc.lft.to/lastmile_qr_scan", "android": "https://dc.lft.to/lastmile_qr_scan"}}, {"name": "fb99bf45771cce2c4f87912b0f81f079", "fusion_lat": 0.0, "type": "electric_bike", "lat": 38.886190666666664, "is_reserved": 0, "is_disabled": 0, "fusion_lon": 0.0, "bike_id": "fb99bf45771cce2c4f87912b0f81f079", "lon": -77.10755516666667, "rental_uris": {"ios": "https://dc.lft.to/lastmile_qr_scan", "android": "https://dc.lft.to/lastmile_qr_scan"}}, {"name": "b3bff805b142076a33eca761b9e1f584", "fusion_lat": 0.0, "type": "electric_bike", "lat": 39.053478, "is_reserved": 0, "is_disabled": 0, "fusion_lon": 0.0, "bike_id": "b3bff805b142076a33eca761b9e1f584", "lon": -77.13597933333334, "rental_uris": {"ios": "https://dc.lft.to/lastmile_qr_scan", "android": "https://dc.lft.to/lastmile_qr_scan"}}, {"name": "eb8e78bcdc321cfa82a5e17b26637f52", "fusion_lat": 0.0, "type": "electric_scooter", "lat": 38.933903, "is_reserved": 0, "is_disabled": 0, "fusion_lon": 0.0, "bike_id": "eb8e78bcdc321cfa82a5e17b26637f52", "lon": -77.07379516666667, "rental_uris": {"ios": "https://dc.lft.to/lastmile_qr_scan", "android": "https://dc.lft.to/lastmile_qr_scan"}}, {"name": "5e648a02d7186506e43fec7ff336e167", "fusion_lat": 0.0, "type": "electric_scooter", "lat": 38.8626505, "is_reserved": 0, "is_disabled": 0, "fusion_lon": 0.0, "bike_id": "5e648a02d7186506e43fec7ff336e167", "lon": -76.987177, "rental_uris": {"ios": "https://dc.lft.to/lastmile_qr_scan", "android": "https://dc.lft.to/lastmile_qr_scan"}}, {"name": "08e8b8d15d820ce569c6458a1b0df757", "fusion_lat": 0.0, "type": "electric_scooter", "lat": 38.91708033333333, "is_reserved": 0, "is_disabled": 0, "fusion_lon": 0.0, "bike_id": "08e8b8d15d820ce569c6458a1b0df757", "lon": -77.0288775, "rental_uris": {"ios": "https://dc.lft.to/lastmile_qr_scan", "android": "https://dc.lft.to/lastmile_qr_scan"}}, {"name": "0ffc4330743bd26767a9509ffc36efef", "fusion_lat": 0.0, "type": "electric_scooter", "lat": 38.89489, "is_reserved": 0, "is_disabled": 0, "fusion_lon": 0.0, "bike_id": "0ffc4330743bd26767a9509ffc36efef", "lon": -77.0101245, "rental_uris": {"ios": "https://dc.lft.to/lastmile_qr_scan", "android": "https://dc.lft.to/lastmile_qr_scan"}}, {"name": "17d4406f01f6897e15cf1c8594f69c2c", "fusion_lat": 0.0, "type": "electric_scooter", "lat": 38.938984833333336, "is_reserved": 0, "is_disabled": 0, "fusion_lon": 0.0, "bike_id": "17d4406f01f6897e15cf1c8594f69c2c", "lon": -77.032812, "rental_uris": {"ios": "https://dc.lft.to/lastmile_qr_scan", "android": "https://dc.lft.to/lastmile_qr_scan"}}, {"name": "052f613f239b049fa76583c998e46e3e", "fusion_lat": 0.0, "type": "electric_scooter", "lat": 38.90705833333333, "is_reserved": 0, "is_disabled": 0, "fusion_lon": 0.0, "bike_id": "052f613f239b049fa76583c998e46e3e", "lon": -76.986907, "rental_uris": {"ios": "https://dc.lft.to/lastmile_qr_scan", "android": "https://dc.lft.to/lastmile_qr_scan"}}, {"name": "f40b83881f500623f8abe6029edcf079", "fusion_lat": 0.0, "type": "electric_scooter", "lat": 38.92104466666667, "is_reserved": 0, "is_disabled": 0, "fusion_lon": 0.0, "bike_id": "f40b83881f500623f8abe6029edcf079", "lon": -77.04695633333333, "rental_uris": {"ios": "https://dc.lft.to/lastmile_qr_scan", "android": "https://dc.lft.to/lastmile_qr_scan"}}, {"name": "989e02db4feb2f43f704f591ad29853c", "fusion_lat": 0.0, "type": "electric_scooter", "lat": 38.9308395, "is_reserved": 0, "is_disabled": 0, "fusion_lon": 0.0, "bike_id": "989e02db4feb2f43f704f591ad29853c", "lon": -77.02401416666666, "rental_uris": {"ios": "https://dc.lft.to/lastmile_qr_scan", "android": "https://dc.lft.to/lastmile_qr_scan"}}, {"name": "5d7edfbe0587f627b9bc25dc820e17de", "fusion_lat": 0.0, "type": "electric_scooter", "lat": 38.936834166666664, "is_reserved": 0, "is_disabled": 0, "fusion_lon": 0.0, "bike_id": "5d7edfbe0587f627b9bc25dc820e17de", "lon": -77.02176166666666, "rental_uris": {"ios": "https://dc.lft.to/lastmile_qr_scan", "android": "https://dc.lft.to/lastmile_qr_scan"}}, {"name": "4cbab9dea4b74d1436db51ab0e0cd2f1", "fusion_lat": 0.0, "type": "electric_scooter", "lat": 38.9186105, "is_reserved": 0, "is_disabled": 0, "fusion_lon": 0.0, "bike_id": "4cbab9dea4b74d1436db51ab0e0cd2f1", "lon": -77.01505666666667, "rental_uris": {"ios": "https://dc.lft.to/lastmile_qr_scan", "android": "https://dc.lft.to/lastmile_qr_scan"}}, {"name": "8d937441f678ab841cf4a87d471df8a6", "fusion_lat": 0.0, "type": "electric_scooter", "lat": 38.934221666666666, "is_reserved": 0, "is_disabled": 0, "fusion_lon": 0.0, "bike_id": "8d937441f678ab841cf4a87d471df8a6", "lon": -77.01965633333333, "rental_uris": {"ios": "https://dc.lft.to/lastmile_qr_scan", "android": "https://dc.lft.to/lastmile_qr_scan"}}, {"name": "0bd0e813d882b65f191b7644784a918d", "fusion_lat": 0.0, "type": "electric_bike", "lat": 38.89776916666667, "is_reserved": 0, "is_disabled": 0, "fusion_lon": 0.0, "bike_id": "0bd0e813d882b65f191b7644784a918d", "lon": -76.90451133333333, "rental_uris": {"ios": "https://dc.lft.to/lastmile_qr_scan", "android": "https://dc.lft.to/lastmile_qr_scan"}}, {"name": "614199aede08cc6aafb139530b76ab2b", "fusion_lat": 0.0, "type": "electric_scooter", "lat": 38.88865933333334, "is_reserved": 0, "is_disabled": 0, "fusion_lon": 0.0, "bike_id": "614199aede08cc6aafb139530b76ab2b", "lon": -77.04005883333333, "rental_uris": {"ios": "https://dc.lft.to/lastmile_qr_scan", "android": "https://dc.lft.to/lastmile_qr_scan"}}, {"name": "3399c3e8cd847558e115b14d59d74b16", "fusion_lat": 0.0, "type": "electric_scooter", "lat": 38.93526966666667, "is_reserved": 0, "is_disabled": 0, "fusion_lon": 0.0, "bike_id": "3399c3e8cd847558e115b14d59d74b16", "lon": -77.02839533333334, "rental_uris": {"ios": "https://dc.lft.to/lastmile_qr_scan", "android": "https://dc.lft.to/lastmile_qr_scan"}}, {"name": "38026ae8aa7421671a4d562065bacfa6", "fusion_lat": 0.0, "type": "electric_scooter", "lat": 38.9024525, "is_reserved": 0, "is_disabled": 0, "fusion_lon": 0.0, "bike_id": "38026ae8aa7421671a4d562065bacfa6", "lon": -77.00197816666666, "rental_uris": {"ios": "https://dc.lft.to/lastmile_qr_scan", "android": "https://dc.lft.to/lastmile_qr_scan"}}, {"name": "33bcb47a3752ffde42323b1bfc1c31d5", "fusion_lat": 0.0, "type": "electric_scooter", "lat": 38.9289895, "is_reserved": 0, "is_disabled": 0, "fusion_lon": 0.0, "bike_id": "33bcb47a3752ffde42323b1bfc1c31d5", "lon": -77.03735066666667, "rental_uris": {"ios": "https://dc.lft.to/lastmile_qr_scan", "android": "https://dc.lft.to/lastmile_qr_scan"}}, {"name": "4fe4d0742422a7b434300772d9d46de6", "fusion_lat": 0.0, "type": "electric_scooter", "lat": 38.89529683333333, "is_reserved": 0, "is_disabled": 0, "fusion_lon": 0.0, "bike_id": "4fe4d0742422a7b434300772d9d46de6", "lon": -77.023993, "rental_uris": {"ios": "https://dc.lft.to/lastmile_qr_scan", "android": "https://dc.lft.to/lastmile_qr_scan"}}, {"name": "52389ca4017e48fce78eef39dc17e947", "fusion_lat": 0.0, "type": "electric_scooter", "lat": 38.919820666666666, "is_reserved": 0, "is_disabled": 0, "fusion_lon": 0.0, "bike_id": "52389ca4017e48fce78eef39dc17e947", "lon": -77.03317983333334, "rental_uris": {"ios": "https://dc.lft.to/lastmile_qr_scan", "android": "https://dc.lft.to/lastmile_qr_scan"}}, {"name": "013ecc292c764c0f17c30b14e2dcf692", "fusion_lat": 0.0, "type": "electric_scooter", "lat": 38.93178666666667, "is_reserved": 0, "is_disabled": 0, "fusion_lon": 0.0, "bike_id": "013ecc292c764c0f17c30b14e2dcf692", "lon": -77.05606683333333, "rental_uris": {"ios": "https://dc.lft.to/lastmile_qr_scan", "android": "https://dc.lft.to/lastmile_qr_scan"}}, {"name": "a3fd87125b1fe0d5341bc76d9d8ae504", "fusion_lat": 0.0, "type": "electric_scooter", "lat": 38.86218266666667, "is_reserved": 0, "is_disabled": 0, "fusion_lon": 0.0, "bike_id": "a3fd87125b1fe0d5341bc76d9d8ae504", "lon": -76.973664, "rental_uris": {"ios": "https://dc.lft.to/lastmile_qr_scan", "android": "https://dc.lft.to/lastmile_qr_scan"}}, {"name": "b0c2525683b673ada8713bff5d4befb0", "fusion_lat": 0.0, "type": "electric_scooter", "lat": 38.9085065, "is_reserved": 0, "is_disabled": 0, "fusion_lon": 0.0, "bike_id": "b0c2525683b673ada8713bff5d4befb0", "lon": -77.04509933333334, "rental_uris": {"ios": "https://dc.lft.to/lastmile_qr_scan", "android": "https://dc.lft.to/lastmile_qr_scan"}}, {"name": "75be77a17a6f240c9a19281731440185", "fusion_lat": 0.0, "type": "electric_scooter", "lat": 38.89093916666667, "is_reserved": 0, "is_disabled": 0, "fusion_lon": 0.0, "bike_id": "75be77a17a6f240c9a19281731440185", "lon": -76.99781766666666, "rental_uris": {"ios": "https://dc.lft.to/lastmile_qr_scan", "android": "https://dc.lft.to/lastmile_qr_scan"}}, {"name": "59ba071b2cfbfbfef2b3b059077db50d", "fusion_lat": 0.0, "type": "electric_scooter", "lat": 38.908668, "is_reserved": 0, "is_disabled": 0, "fusion_lon": 0.0, "bike_id": "59ba071b2cfbfbfef2b3b059077db50d", "lon": -77.03285933333333, "rental_uris": {"ios": "https://dc.lft.to/lastmile_qr_scan", "android": "https://dc.lft.to/lastmile_qr_scan"}}, {"name": "3eb89e9e8deac77dc5254d52764e56d6", "fusion_lat": 0.0, "type": "electric_scooter", "lat": 38.900276833333336, "is_reserved": 0, "is_disabled": 0, "fusion_lon": 0.0, "bike_id": "3eb89e9e8deac77dc5254d52764e56d6", "lon": -77.0297435, "rental_uris": {"ios": "https://dc.lft.to/lastmile_qr_scan", "android": "https://dc.lft.to/lastmile_qr_scan"}}, {"name": "a98de82375d13cace089dcbdee18130c", "fusion_lat": 0.0, "type": "electric_scooter", "lat": 38.897214166666664, "is_reserved": 0, "is_disabled": 0, "fusion_lon": 0.0, "bike_id": "a98de82375d13cace089dcbdee18130c", "lon": -77.04727283333334, "rental_uris": {"ios": "https://dc.lft.to/lastmile_qr_scan", "android": "https://dc.lft.to/lastmile_qr_scan"}}, {"name": "dcdb80493b1bef00fa39321328e7a521", "fusion_lat": 0.0, "type": "electric_bike", "lat": 38.928502333333334, "is_reserved": 0, "is_disabled": 0, "fusion_lon": 0.0, "bike_id": "dcdb80493b1bef00fa39321328e7a521", "lon": -77.105088, "rental_uris": {"ios": "https://dc.lft.to/lastmile_qr_scan", "android": "https://dc.lft.to/lastmile_qr_scan"}}, {"name": "bf8bd20d25126d588d40155bfb10beff", "fusion_lat": 0.0, "type": "electric_bike", "lat": 38.96553, "is_reserved": 0, "is_disabled": 0, "fusion_lon": 0.0, "bike_id": "bf8bd20d25126d588d40155bfb10beff", "lon": -77.03514583333333, "rental_uris": {"ios": "https://dc.lft.to/lastmile_qr_scan", "android": "https://dc.lft.to/lastmile_qr_scan"}}, {"name": "6dcfcfbc19dd6d7e6308d8c357da319e", "fusion_lat": 0.0, "type": "electric_scooter", "lat": 38.92434766666667, "is_reserved": 0, "is_disabled": 0, "fusion_lon": 0.0, "bike_id": "6dcfcfbc19dd6d7e6308d8c357da319e", "lon": -77.04129133333333, "rental_uris": {"ios": "https://dc.lft.to/lastmile_qr_scan", "android": "https://dc.lft.to/lastmile_qr_scan"}}, {"name": "2206b16f0cf2f4ddc780ceaf4a66adcc", "fusion_lat": 0.0, "type": "electric_scooter", "lat": 38.92058866666667, "is_reserved": 0, "is_disabled": 0, "fusion_lon": 0.0, "bike_id": "2206b16f0cf2f4ddc780ceaf4a66adcc", "lon": -77.04698183333333, "rental_uris": {"ios": "https://dc.lft.to/lastmile_qr_scan", "android": "https://dc.lft.to/lastmile_qr_scan"}}, {"name": "990122b97e1e88e080a8c9b8371ba4e0", "fusion_lat": 0.0, "type": "electric_scooter", "lat": 38.902713, "is_reserved": 0, "is_disabled": 0, "fusion_lon": 0.0, "bike_id": "990122b97e1e88e080a8c9b8371ba4e0", "lon": -77.05375983333333, "rental_uris": {"ios": "https://dc.lft.to/lastmile_qr_scan", "android": "https://dc.lft.to/lastmile_qr_scan"}}, {"name": "2c51ec3753b9bae25580472ac68bad80", "fusion_lat": 0.0, "type": "electric_bike", "lat": 38.84346566666667, "is_reserved": 0, "is_disabled": 0, "fusion_lon": 0.0, "bike_id": "2c51ec3753b9bae25580472ac68bad80", "lon": -77.064044, "rental_uris": {"ios": "https://dc.lft.to/lastmile_qr_scan", "android": "https://dc.lft.to/lastmile_qr_scan"}}, {"name": "48a807c03e273f95490e83c7e68042e2", "fusion_lat": 0.0, "type": "electric_scooter", "lat": 38.9247205, "is_reserved": 0, "is_disabled": 0, "fusion_lon": 0.0, "bike_id": "48a807c03e273f95490e83c7e68042e2", "lon": -77.02713933333334, "rental_uris": {"ios": "https://dc.lft.to/lastmile_qr_scan", "android": "https://dc.lft.to/lastmile_qr_scan"}}, {"name": "f332d036dced1c28c8cba7509c6df0b1", "fusion_lat": 0.0, "type": "electric_bike", "lat": 38.975231, "is_reserved": 0, "is_disabled": 0, "fusion_lon": 0.0, "bike_id": "f332d036dced1c28c8cba7509c6df0b1", "lon": -77.01683433333334, "rental_uris": {"ios": "https://dc.lft.to/lastmile_qr_scan", "android": "https://dc.lft.to/lastmile_qr_scan"}}, {"name": "53067ef453d8d36fd2771c698db1e61b", "fusion_lat": 0.0, "type": "electric_scooter", "lat": 38.83229983333333, "is_reserved": 0, "is_disabled": 0, "fusion_lon": 0.0, "bike_id": "53067ef453d8d36fd2771c698db1e61b", "lon": -76.988901, "rental_uris": {"ios": "https://dc.lft.to/lastmile_qr_scan", "android": "https://dc.lft.to/lastmile_qr_scan"}}, {"name": "9f840a060cadfeae6ce4b1eac839476b", "fusion_lat": 0.0, "type": "electric_scooter", "lat": 38.8959035, "is_reserved": 0, "is_disabled": 0, "fusion_lon": 0.0, "bike_id": "9f840a060cadfeae6ce4b1eac839476b", "lon": -77.04264966666666, "rental_uris": {"ios": "https://dc.lft.to/lastmile_qr_scan", "android": "https://dc.lft.to/lastmile_qr_scan"}}, {"name": "1b658fdc486ef78800fe73b740bb38de", "fusion_lat": 0.0, "type": "electric_scooter", "lat": 38.9275915, "is_reserved": 0, "is_disabled": 0, "fusion_lon": 0.0, "bike_id": "1b658fdc486ef78800fe73b740bb38de", "lon": -77.024244, "rental_uris": {"ios": "https://dc.lft.to/lastmile_qr_scan", "android": "https://dc.lft.to/lastmile_qr_scan"}}, {"name": "baebc1d2e70d5d1c605cba57d5d73194", "fusion_lat": 0.0, "type": "electric_scooter", "lat": 38.902609, "is_reserved": 0, "is_disabled": 0, "fusion_lon": 0.0, "bike_id": "baebc1d2e70d5d1c605cba57d5d73194", "lon": -77.029954, "rental_uris": {"ios": "https://dc.lft.to/lastmile_qr_scan", "android": "https://dc.lft.to/lastmile_qr_scan"}}, {"name": "6fcd9ee2696a1a29c9c8dfaf1867aea5", "fusion_lat": 0.0, "type": "electric_scooter", "lat": 38.876223333333336, "is_reserved": 0, "is_disabled": 0, "fusion_lon": 0.0, "bike_id": "6fcd9ee2696a1a29c9c8dfaf1867aea5", "lon": -77.00724566666666, "rental_uris": {"ios": "https://dc.lft.to/lastmile_qr_scan", "android": "https://dc.lft.to/lastmile_qr_scan"}}, {"name": "021e3b2b74af8f2b20b07bcc1d043ffa", "fusion_lat": 0.0, "type": "electric_scooter", "lat": 38.884587333333336, "is_reserved": 0, "is_disabled": 0, "fusion_lon": 0.0, "bike_id": "021e3b2b74af8f2b20b07bcc1d043ffa", "lon": -76.92468483333333, "rental_uris": {"ios": "https://dc.lft.to/lastmile_qr_scan", "android": "https://dc.lft.to/lastmile_qr_scan"}},