{"data": {"bikes": [{"name": "bfe385c3ccbbf6dd9cbbbc224675ae85", "is_disabled": 0, "lat": 38.8952035, "rental_uris": {"ios": "https://dc.lft.to/lastmile_qr_scan", "android": "https://dc.lft.to/lastmile_qr_scan"}, "bike_id": "bfe385c3ccbbf6dd9cbbbc224675ae85", "type": "electric_scooter", "lon": -77.0036285, "is_reserved": 0, "fusion_lat": 0.0, "fusion_lon": 0.0}, {"name": "f0876636fa545a5256cc60a2ef288387", "is_disabled": 0, "lat": 38.902192666666664, "rental_uris": {"ios": "https://dc.lft.to/lastmile_qr_scan", "android": "https://dc.lft.to/lastmile_qr_scan"}, "bike_id": "f0876636fa545a5256cc60a2ef288387", "type": "electric_scooter", "lon": -77.02346133333333, "is_reserved": 0, "fusion_lat": 0.0, "fusion_lon": 0.0}, {"name": "c205c8260268712e9f8d969e01cb4be9", "is_disabled": 0, "lat": 38.89037366666667, "rental_uris": {"ios": "https://dc.lft.to/lastmile_qr_scan", "android": "https://dc.lft.to/lastmile_qr_scan"}, "bike_id": "c205c8260268712e9f8d969e01cb4be9", "type": "electric_scooter", "lon": -76.93752733333334, "is_reserved": 0, "fusion_lat": 0.0, "fusion_lon": 0.0}, {"name": "274afcfa857278b74cbba1ddc7dd6d45", "is_disabled": 0, "lat": 38.911048666666666, "rental_uris": {"ios": "https://dc.lft.to/lastmile_qr_scan", "android": "https://dc.lft.to/lastmile_qr_scan"}, "bike_id": "274afcfa857278b74cbba1ddc7dd6d45", "type": "electric_scooter", "lon": -77.02101333333333, "is_reserved": 0, "fusion_lat": 0.0, "fusion_lon": 0.0}, {"name": "f1755b8be4e8ebb19f42cb4da1646717", "is_disabled": 0, "lat": 38.90670766666667, "rental_uris": {"ios": "https://dc.lft.to/lastmile_qr_scan", "android": "https://dc.lft.to/lastmile_qr_scan"}, "bike_id": "f1755b8be4e8ebb19f42cb4da1646717", "type": "electric_scooter", "lon": -77.01062233333333, "is_reserved": 0, "fusion_lat": 0.0, "fusion_lon": 0.0}, {"name": "2cad81b60999cf275807f8809e07beb7", "is_disabled": 0, "lat": 38.9322255, "rental_uris": {"ios": "https://dc.lft.to/lastmile_qr_scan", "android": "https://dc.lft.to/lastmile_qr_scan"}, "bike_id": "2cad81b60999cf275807f8809e07beb7", "type": "electric_scooter", "lon": -76.9949035, "is_reserved": 0, "fusion_lat": 0.0, "fusion_lon": 0.0}, {"name": "97ddda772c2ab880bd332ae3079936e3", "is_disabled": 0, "lat": 38.923455833333335, "rental_uris": {"ios": "https://dc.lft.to/lastmile_qr_scan", "android": "https://dc.lft.to/lastmile_qr_scan"}, "bike_id": "97ddda772c2ab880bd332ae3079936e3", "type": "electric_scooter", "lon": -77.05177033333334, "is_reserved": 0, "fusion_lat": 0.0, "fusion_lon": 0.0}, {"name": "e6b7c1d44ccf18c6459a4dab15435bed", "is_disabled": 0, "lat": 38.91803083333333, "rental_uris": {"ios": "https://dc.lft.to/lastmile_qr_scan", "android": "https://dc.lft.to/lastmile_qr_scan"}, "bike_id": "e6b7c1d44ccf18c6459a4dab15435bed", "type": "electric_scooter", "lon": -77.02706416666666, "is_reserved": 0, "fusion_lat": 0.0, "fusion_lon": 0.0}, {"name": "98e8a31e23c3b4e9440ea2317c158cba", "is_disabled": 0, "lat": 38.896128833333336, "rental_uris": {"ios": "https://dc.lft.to/lastmile_qr_scan", "android": "https://dc.lft.to/lastmile_qr_scan"}, "bike_id": "98e8a31e23c3b4e9440ea2317c158cba", "type": "electric_scooter", "lon": -76.98104566666666, "is_reserved": 0, "fusion_lat": 0.0, "fusion_lon": 0.0}, {"name": "b9adfcc7de34024998d286540b66c79f", "is_disabled": 0, "lat": 38.9055495, "rental_uris": {"ios": "https://dc.lft.to/lastmile_qr_scan", "android": "https://dc.lft.to/lastmile_qr_scan"}, "bike_id": "b9adfcc7de34024998d286540b66c79f", "type": "electric_scooter", "lon": -77.04663333333333, "is_reserved": 0, "fusion_lat": 0.0, "fusion_lon": 0.0}, {"name": "36bee5711238be5af0506043ca412615", "is_disabled": 0, "lat": 38.900574166666665, "rental_uris": {"ios": "https://dc.lft.to/lastmile_qr_scan", "android": "https://dc.lft.to/lastmile_qr_scan"}, "bike_id": "36bee5711238be5af0506043ca412615", "type": "electric_scooter", "lon": -77.0295835, "is_reserved": 0, "fusion_lat": 0.0, "fusion_lon": 0.0}, {"name": "4c3e24648411ed9d12041b9edfead7c8", "is_disabled": 0, "lat": 38.85611033333333, "rental_uris": {"ios": "https://dc.lft.to/lastmile_qr_scan", "android": "https://dc.lft.to/lastmile_qr_scan"}, "bike_id": "4c3e24648411ed9d12041b9edfead7c8", "type": "electric_bike", "lon": -77.10794683333333, "is_reserved": 0, "fusion_lat": 0.0, "fusion_lon": 0.0}, {"name": "a259e0578546509f94b09af771805abd", "is_disabled": 0, "lat": 38.90980033333334, "rental_uris": {"ios": "https://dc.lft.to/lastmile_qr_scan", "android": "https://dc.lft.to/lastmile_qr_scan"}, "bike_id": "a259e0578546509f94b09af771805abd", "type": "electric_scooter", "lon": -77.03335316666667, "is_reserved": 0, "fusion_lat": 0.0, "fusion_lon": 0.0}, {"name": "87a8600e44bf44993385d2520fbcd0f2", "is_disabled": 0, "lat": 38.8819125, "rental_uris": {"ios": "https://dc.lft.to/lastmile_qr_scan", "android": "https://dc.lft.to/lastmile_qr_scan"}, "bike_id": "87a8600e44bf44993385d2520fbcd0f2", "type": "electric_scooter", "lon": -76.9903, "is_reserved": 0, "fusion_lat": 0.0, "fusion_lon": 0.0}, {"name": "7d0854220c6cbb78a46e4d705da8623b", "is_disabled": 0, "lat": 38.90823566666667, "rental_uris": {"ios": "https://dc.lft.to/lastmile_qr_scan", "android": "https://dc.lft.to/lastmile_qr_scan"}, "bike_id": "7d0854220c6cbb78a46e4d705da8623b", "type": "electric_scooter", "lon": -77.03194733333333, "is_reserved": 0, "fusion_lat": 0.0, "fusion_lon": 0.0}, {"name": "d84365a84f1c1700fafe6806e2ed61c5", "is_disabled": 0, "lat": 38.87757033333333, "rental_uris": {"ios": "https://dc.lft.to/lastmile_qr_scan", "android": "https://dc.lft.to/lastmile_qr_scan"}, "bike_id": "d84365a84f1c1700fafe6806e2ed61c5", "type": "electric_scooter", "lon": -77.0034695, "is_reserved": 0, "fusion_lat": 0.0, "fusion_lon": 0.0}, {"name": "a3348def84393b389c3a734856448850", "is_disabled": 0, "lat": 38.90547683333333, "rental_uris": {"ios": "https://dc.lft.to/lastmile_qr_scan", "android": "https://dc.lft.to/lastmile_qr_scan"}, "bike_id": "a3348def84393b389c3a734856448850", "type": "electric_scooter", "lon": -77.00598833333333, "is_reserved": 0, "fusion_lat": 0.0, "fusion_lon": 0.0}, {"name": "796c1c216f502598d86fac898ebf860d", "is_disabled": 0, "lat": 38.899224833333335, "rental_uris": {"ios": "https://dc.lft.to/lastmile_qr_scan", "android": "https://dc.lft.to/lastmile_qr_scan"}, "bike_id": "796c1c216f502598d86fac898ebf860d", "type": "electric_scooter", "lon": -77.0513985, "is_reserved": 0, "fusion_lat": 0.0, "fusion_lon": 0.0}, {"name": "914beb7e91dd3f39e9d8f1496ab41764", "is_disabled": 0, "lat": 38.903414833333336, "rental_uris": {"ios": "https://dc.lft.to/lastmile_qr_scan", "android": "https://dc.lft.to/lastmile_qr_scan"}, "bike_id": "914beb7e91dd3f39e9d8f1496ab41764", "type": "electric_scooter", "lon": -77.05293083333333, "is_reserved": 0, "fusion_lat": 0.0, "fusion_lon": 0.0}, {"name": "dc36216d1a03e1d8c67bfd9eefd75ba5", "is_disabled": 0, "lat": 38.900151, "rental_uris": {"ios": "https://dc.lft.to/lastmile_qr_scan", "android": "https://dc.lft.to/lastmile_qr_scan"}, "bike_id": "dc36216d1a03e1d8c67bfd9eefd75ba5", "type": "electric_scooter", "lon": -77.0465435, "is_reserved": 0, "fusion_lat": 0.0, "fusion_lon": 0.0}, {"name": "b666c541a351b9be18e136c62dfc3aa9", "is_disabled": 0, "lat": 38.89569616666667, "rental_uris": {"ios": "https://dc.lft.to/lastmile_qr_scan", "android": "https://dc.lft.to/lastmile_qr_scan"}, "bike_id": "b666c541a351b9be18e136c62dfc3aa9", "type": "electric_scooter", "lon": -77.02177483333334, "is_reserved": 0, "fusion_lat": 0.0, "fusion_lon": 0.0}, {"name": "936d826f2faf7e0a6691efe6d52fb343", "is_disabled": 0, "lat": 38.918006, "rental_uris": {"ios": "https://dc.lft.to/lastmile_qr_scan", "android": "https://dc.lft.to/lastmile_qr_scan"}, "bike_id": "936d826f2faf7e0a6691efe6d52fb343", "type": "electric_scooter", "lon": -77.02707, "is_reserved": 0, "fusion_lat": 0.0, "fusion_lon": 0.0}, {"name": "64cc87f56dc5ae1874e3c9a5f7be5cea", "is_disabled": 0, "lat": 38.897275, "rental_uris": {"ios": "https://dc.lft.to/lastmile_qr_scan", "android": "https://dc.lft.to/lastmile_qr_scan"}, "bike_id": "64cc87f56dc5ae1874e3c9a5f7be5cea", "type": "electric_scooter", "lon": -77.01873033333334, "is_reserved": 0, "fusion_lat": 0.0, "fusion_lon": 0.0}, {"name": "978320188a8c0025dc4314a8a2d70f55", "is_disabled": 0, "lat": 38.90378316666666, "rental_uris": {"ios": "https://dc.lft.to/lastmile_qr_scan", "android": "https://dc.lft.to/lastmile_qr_scan"}, "bike_id": "978320188a8c0025dc4314a8a2d70f55", "type": "electric_scooter", "lon": -76.9762225, "is_reserved": 0, "fusion_lat": 0.0, "fusion_lon": 0.0}, {"name": "c39ab6aebfcec86934039c937cd59af8", "is_disabled": 0, "lat": 38.90901266666667, "rental_uris": {"ios": "https://dc.lft.to/lastmile_qr_scan", "android": "https://dc.lft.to/lastmile_qr_scan"}, "bike_id": "c39ab6aebfcec86934039c937cd59af8", "type": "electric_scooter", "lon": -77.072862, "is_reserved": 0, "fusion_lat": 0.0, "fusion_lon": 0.0}, {"name": "66325719211819170c053d748645e69f", "is_disabled": 0, "lat": 38.91929316666667, "rental_uris": {"ios": "https://dc.lft.to/lastmile_qr_scan", "android": "https://dc.lft.to/lastmile_qr_scan"}, "bike_id": "66325719211819170c053d748645e69f", "type": "electric_scooter", "lon": -77.03173233333334, "is_reserved": 0, "fusion_lat": 0.0, "fusion_lon": 0.0}, {"name": "733bb1b4f89877614896c68a53c280f2", "is_disabled": 0, "lat": 38.923746666666666, "rental_uris": {"ios": "https://dc.lft.to/lastmile_qr_scan", "android": "https://dc.lft.to/lastmile_qr_scan"}, "bike_id": "733bb1b4f89877614896c68a53c280f2", "type": "electric_scooter", "lon": -77.02815983333333, "is_reserved": 0, "fusion_lat": 0.0, "fusion_lon": 0.0}, {"name": "144222b1806b36d6a63879fb0e3757b2", "is_disabled": 0, "lat": 38.903025, "rental_uris": {"ios": "https://dc.lft.to/lastmile_qr_scan", "android": "https://dc.lft.to/lastmile_qr_scan"}, "bike_id": "144222b1806b36d6a63879fb0e3757b2", "type": "electric_scooter", "lon": -77.04183033333334, "is_reserved": 0, "fusion_lat": 0.0, "fusion_lon": 0.0}, {"name": "6a43b7707735c0631f13fa6134ba74b3", "is_disabled": 0, "lat": 38.892321333333335, "rental_uris": {"ios": "https://dc.lft.to/lastmile_qr_scan", "android": "https://dc.lft.to/lastmile_qr_scan"}, "bike_id": "6a43b7707735c0631f13fa6134ba74b3", "type": "electric_scooter", "lon": -77.0487635, "is_reserved": 0, "fusion_lat": 0.0, "fusion_lon": 0.0}, {"name": "05aea04c4fdaebaadc5cd3a13dcd1a65", "is_disabled": 0, "lat": 38.920458333333336, "rental_uris": {"ios": "https://dc.lft.to/lastmile_qr_scan", "android": "https://dc.lft.to/lastmile_qr_scan"}, "bike_id": "05aea04c4fdaebaadc5cd3a13dcd1a65", "type": "electric_scooter", "lon": -77.01679783333333, "is_reserved": 0, "fusion_lat": 0.0, "fusion_lon": 0.0}, {"name": "826b2b49a67b7a90706ef9e59fd9aa09", "is_disabled": 0, "lat": 38.93023916666667, "rental_uris": {"ios": "https://dc.lft.to/lastmile_qr_scan", "android": "https://dc.lft.to/lastmile_qr_scan"}, "bike_id": "826b2b49a67b7a90706ef9e59fd9aa09", "type": "electric_scooter", "lon": -77.03787133333333, "is_reserved": 0, "fusion_lat": 0.0, "fusion_lon": 0.0}, {"name": "5d84dc5829dd932115519ba69f8f8a7b", "is_disabled": 0, "lat": 38.90850066666667, "rental_uris": {"ios": "https://dc.lft.to/lastmile_qr_scan", "android": "https://dc.lft.to/lastmile_qr_scan"}, "bike_id": "5d84dc5829dd932115519ba69f8f8a7b", "type": "electric_scooter", "lon": -76.99787833333333, "is_reserved": 0, "fusion_lat": 0.0, "fusion_lon": 0.0}, {"name": "d17f5621d0b374168a21a02be5d979a2", "is_disabled": 0, "lat": 38.9002115, "rental_uris": {"ios": "https://dc.lft.to/lastmile_qr_scan", "android": "https://dc.lft.to/lastmile_qr_scan"}, "bike_id": "d17f5621d0b374168a21a02be5d979a2", "type": "electric_scooter", "lon": -76.99857216666666, "is_reserved": 0, "fusion_lat": 0.0, "fusion_lon": 0.0}, {"name": "32e400661dc350efe68a9548e5c96d5b", "is_disabled": 0, "lat": 38.9038955, "rental_uris": {"ios": "https://dc.lft.to/lastmile_qr_scan", "android": "https://dc.lft.to/lastmile_qr_scan"}, "bike_id": "32e400661dc350efe68a9548e5c96d5b", "type": "electric_scooter", "lon": -77.0473815, "is_reserved": 0, "fusion_lat": 0.0, "fusion_lon": 0.0}, {"name": "c016e6e9b11e8d847d07e973b491e0c9", "is_disabled": 0, "lat": 38.8818975, "rental_uris": {"ios": "https://dc.lft.to/lastmile_qr_scan", "android": "https://dc.lft.to/lastmile_qr_scan"}, "bike_id": "c016e6e9b11e8d847d07e973b491e0c9", "type": "electric_scooter", "lon": -77.00356633333334, "is_reserved": 0, "fusion_lat": 0.0, "fusion_lon": 0.0}, {"name": "5d4f679ec1f95cf60701dbd706089f18", "is_disabled": 0, "lat": 38.87289066666666, "rental_uris": {"ios": "https://dc.lft.to/lastmile_qr_scan", "android": "https://dc.lft.to/lastmile_qr_scan"}, "bike_id": "5d4f679ec1f95cf60701dbd706089f18", "type": "electric_scooter", "lon": -77.00983566666666, "is_reserved": 0, "fusion_lat": 0.0, "fusion_lon": 0.0}, {"name": "61a2acc2f716ed89fa35e6b38d6161fd", "is_disabled": 0, "lat": 38.921760166666665, "rental_uris": {"ios": "https://dc.lft.to/lastmile_qr_scan", "android": "https://dc.lft.to/lastmile_qr_scan"}, "bike_id": "61a2acc2f716ed89fa35e6b38d6161fd", "type": "electric_scooter", "lon": -77.03517633333334, "is_reserved": 0, "fusion_lat": 0.0, "fusion_lon": 0.0}, {"name": "edb360f578d652d3607f1b8327554cbd", "is_disabled": 0, "lat": 38.902495333333334, "rental_uris": {"ios": "https://dc.lft.to/lastmile_qr_scan", "android": "https://dc.lft.to/lastmile_qr_scan"}, "bike_id": "edb360f578d652d3607f1b8327554cbd", "type": "electric_scooter", "lon": -77.04564633333334, "is_reserved": 0, "fusion_lat": 0.0, "fusion_lon": 0.0}, {"name": "acbaf937bb7b38018a90d1c880c524e1", "is_disabled": 0, "lat": 38.90109966666667, "rental_uris": {"ios": "https://dc.lft.to/lastmile_qr_scan", "android": "https://dc.lft.to/lastmile_qr_scan"}, "bike_id": "acbaf937bb7b38018a90d1c880c524e1", "type": "electric_scooter", "lon": -77.03197183333333, "is_reserved": 0, "fusion_lat": 0.0, "fusion_lon": 0.0}, {"name": "c1a969e2247ed2bb9f77348a1b3b9a4b", "is_disabled": 0, "lat": 38.9216275, "rental_uris": {"ios": "https://dc.lft.to/lastmile_qr_scan", "android": "https://dc.lft.to/lastmile_qr_scan"}, "bike_id": "c1a969e2247ed2bb9f77348a1b3b9a4b", "type": "electric_scooter", "lon": -77.0338045, "is_reserved": 0, "fusion_lat": 0.0, "fusion_lon": 0.0}, {"name": "0c139bd15efd9a7fda82f330c0c4f1b6", "is_disabled": 0, "lat": 38.901418166666666, "rental_uris": {"ios": "https://dc.lft.to/lastmile_qr_scan", "android": "https://dc.lft.to/lastmile_qr_scan"}, "bike_id": "0c139bd15efd9a7fda82f330c0c4f1b6", "type": "electric_scooter", "lon": -76.98409666666667, "is_reserved": 0, "fusion_lat": 0.0, "fusion_lon": 0.0}, {"name": "ff1b7a9b6916f79294b42e463f9f126e", "is_disabled": 0, "lat": 38.8875465, "rental_uris": {"ios": "https://dc.lft.to/lastmile_qr_scan", "android": "https://dc.lft.to/lastmile_qr_scan"}, "bike_id": "ff1b7a9b6916f79294b42e463f9f126e", "type": "electric_scooter", "lon": -76.99607683333333, "is_reserved": 0, "fusion_lat": 0.0, "fusion_lon": 0.0}, {"name": "b1540e6f106fa919331c1c4f1d2383ef", "is_disabled": 0, "lat": 38.9109625, "rental_uris": {"ios": "https://dc.lft.to/lastmile_qr_scan", "android": "https://dc.lft.to/lastmile_qr_scan"}, "bike_id": "b1540e6f106fa919331c1c4f1d2383ef", "type": "electric_scooter", "lon": -77.0484255, "is_reserved": 0, "fusion_lat": 0.0, "fusion_lon": 0.0}, {"name": "f762f82b1923ca61d9ee5e4f6dfa6457", "is_disabled": 0, "lat": 38.89943483333333, "rental_uris": {"ios": "https://dc.lft.to/lastmile_qr_scan", "android": "https://dc.lft.to/lastmile_qr_scan"}, "bike_id": "f762f82b1923ca61d9ee5e4f6dfa6457", "type": "electric_scooter", "lon": -77.01626833333333, "is_reserved": 0, "fusion_lat": 0.0, "fusion_lon": 0.0}, {"name": "893a9655518935ea8d98226c2ab047bf", "is_disabled": 0, "lat": 38.8579965, "rental_uris": {"ios": "https://dc.lft.to/lastmile_qr_scan", "android": "https://dc.lft.to/lastmile_qr_scan"}, "bike_id": "893a9655518935ea8d98226c2ab047bf", "type": "electric_bike", "lon": -77.05144483333333, "is_reserved": 0, "fusion_lat": 0.0, "fusion_lon": 0.0}, {"name": "d33231bb469773effd8b93c08d0e03b5", "is_disabled": 0, "lat": 38.9033145, "rental_uris": {"ios": "https://dc.lft.to/lastmile_qr_scan", "android": "https://dc.lft.to/lastmile_qr_scan"}, "bike_id": "d33231bb469773effd8b93c08d0e03b5", "type": "electric_bike", "lon": -76.9752705, "is_reserved": 0, "fusion_lat": 0.0, "fusion_lon": 0.0}, {"name": "e9b20f6169959ba71f93f0e1fcfe23aa", "is_disabled": 0, "lat": 38.9082115, "rental_uris": {"ios": "https://dc.lft.to/lastmile_qr_scan", "android": "https://dc.lft.to/lastmile_qr_scan"}, "bike_id": "e9b20f6169959ba71f93f0e1fcfe23aa", "type": "electric_scooter", "lon": -77.04239383333334, "is_reserved": 0, "fusion_lat": 0.0, "fusion_lon": 0.0}, {"name": "5d7b1c83bc98bf6890478436a4ccac60", "is_disabled": 0, "lat": 38.89222633333333, "rental_uris": {"ios": "https://dc.lft.to/lastmile_qr_scan", "android": "https://dc.lft.to/lastmile_qr_scan"}, "bike_id": "5d7b1c83bc98bf6890478436a4ccac60", "type": "electric_scooter", "lon": -77.0263455, "is_reserved": 0, "fusion_lat": 0.0, "fusion_lon": 0.0}, {"name": "f8c29aa2240c6eff97631f6b25b35b42", "is_disabled": 0, "lat": 38.94340566666666, "rental_uris": {"ios": "https://dc.lft.to/lastmile_qr_scan", "android": "https://dc.lft.to/lastmile_qr_scan"}, "bike_id": "f8c29aa2240c6eff97631f6b25b35b42", "type": "electric_scooter", "lon": -77.0324495, "is_reserved": 0, "fusion_lat": 0.0, "fusion_lon": 0.0}, {"name": "415ddebb363d2bc8da65b47869256c3f", "is_disabled": 0, "lat": 38.900388166666666, "rental_uris": {"ios": "https://dc.lft.to/lastmile_qr_scan", "android": "https://dc.lft.to/lastmile_qr_scan"}, "bike_id": "415ddebb363d2bc8da65b47869256c3f", "type": "electric_scooter", "lon": -76.99346566666667, "is_reserved": 0, "fusion_lat": 0.0, "fusion_lon": 0.0}, {"name": "f08b7f138a402e4b43e20a198fdd3ed4", "is_disabled": 0, "lat": 38.90895316666667, "rental_uris": {"ios": "https://dc.lft.to/lastmile_qr_scan", "android": "https://dc.lft.to/lastmile_qr_scan"}, "bike_id": "f08b7f138a402e4b43e20a198fdd3ed4", "type": "electric_scooter", "lon": -77.04409266666667, "is_reserved": 0, "fusion_lat": 0.0, "fusion_lon": 0.0}, {"name": "4a8ba75dbf5708e4615ffe807295a9f1", "is_disabled": 0, "lat": 38.902681666666666, "rental_uris": {"ios": "https://dc.lft.to/lastmile_qr_scan", "android": "https://dc.lft.to/lastmile_qr_scan"}, "bike_id": "4a8ba75dbf5708e4615ffe807295a9f1", "type": "electric_scooter", "lon": -77.03420533333333, "is_reserved": 0, "fusion_lat": 0.0, "fusion_lon": 0.0}, {"name": "b54a978235dca9e7d774a92b7fa11195", "is_disabled": 0, "lat": 38.928472666666664, "rental_uris": {"ios": "https://dc.lft.to/lastmile_qr_scan", "android": "https://dc.lft.to/lastmile_qr_scan"}, "bike_id": "b54a978235dca9e7d774a92b7fa11195", "type": "electric_scooter", "lon": -77.01590466666667, "is_reserved": 0, "fusion_lat": 0.0, "fusion_lon": 0.0}, {"name": "f516cc402b32bb9624d954299f744438", "is_disabled": 0, "lat": 38.93827016666667, "rental_uris": {"ios": "https://dc.lft.to/lastmile_qr_scan", "android": "https://dc.lft.to/lastmile_qr_scan"}, "bike_id": "f516cc402b32bb9624d954299f744438", "type": "electric_scooter", "lon": -77.08621516666666, "is_reserved": 0, "fusion_lat": 0.0, "fusion_lon": 0.0}, {"name": "0193d1bb93c6f7078e6e0ca639455f43", "is_disabled": 0, "lat": 38.956042833333335, "rental_uris": {"ios": "https://dc.lft.to/lastmile_qr_scan", "android": "https://dc.lft.to/lastmile_qr_scan"}, "bike_id": "0193d1bb93c6f7078e6e0ca639455f43", "type": "electric_scooter", "lon": -77.0335555, "is_reserved": 0, "fusion_lat": 0.0, "fusion_lon": 0.0}, {"name": "971612d6326db66629fe225622bf6def", "is_disabled": 0, "lat": 38.842856833333336, "rental_uris": {"ios": "https://dc.lft.to/lastmile_qr_scan", "android": "https://dc.lft.to/lastmile_qr_scan"}, "bike_id": "971612d6326db66629fe225622bf6def", "type": "electric_bike", "lon": -77.04496433333334, "is_reserved": 0, "fusion_lat": 0.0, "fusion_lon": 0.0}, {"name": "5fffabe610195a5617231afd16ee5890", "is_disabled": 0, "lat": 38.910421666666664, "rental_uris": {"ios": "https://dc.lft.to/lastmile_qr_scan", "android": "https://dc.lft.to/lastmile_qr_scan"}, "bike_id": "5fffabe610195a5617231afd16ee5890", "type": "electric_scooter", "lon": -77.03303066666666, "is_reserved": 0, "fusion_lat": 0.0, "fusion_lon": 0.0}, {"name": "4b9629c693d1ae05b688cf98c346b774", "is_disabled": 0, "lat": 38.927527, "rental_uris": {"ios": "https://dc.lft.to/lastmile_qr_scan", "android": "https://dc.lft.to/lastmile_qr_scan"}, "bike_id": "4b9629c693d1ae05b688cf98c346b774", "type": "electric_scooter", "lon": -77.02452366666667, "is_reserved": 0, "fusion_lat": 0.0, "fusion_lon": 0.0}, {"name": "24efc0e8f801ecff7587752dbfd4b606", "is_disabled": 0, "lat": 38.930872, "rental_uris": {"ios": "https://dc.lft.to/lastmile_qr_scan", "android": "https://dc.lft.to/lastmile_qr_scan"}, "bike_id": "24efc0e8f801ecff7587752dbfd4b606", "type": "electric_scooter", "lon": -77.02003766666667, "is_reserved": 0, "fusion_lat": 0.0, "fusion_lon": 0.0}, {"name": "623777449ead8cfc2a442c78cd530702", "is_disabled": 0, "lat": 38.923191333333335, "rental_uris": {"ios": "https://dc.lft.to/lastmile_qr_scan", "android": "https://dc.lft.to/lastmile_qr_scan"}, "bike_id": "623777449ead8cfc2a442c78cd530702", "type": "electric_scooter", "lon": -77.040392, "is_reserved": 0, "fusion_lat": 0.0, "fusion_lon": 0.0}, {"name": "8783e9053dc0af16d3cafef4c3c42627", "is_disabled": 0, "lat": 38.91106533333333, "rental_uris": {"ios": "https://dc.lft.to/lastmile_qr_scan", "android": "https://dc.lft.to/lastmile_qr_scan"}, "bike_id": "8783e9053dc0af16d3cafef4c3c42627", "type": "electric_scooter", "lon": -77.03159316666667, "is_reserved": 0, "fusion_lat": 0.0, "fusion_lon": 0.0}, {"name": "2abd41366ecd345b3564c8afcf5d85b0", "is_disabled": 0, "lat": 38.90105066666667, "rental_uris": {"ios": "https://dc.lft.to/lastmile_qr_scan", "android": "https://dc.lft.to/lastmile_qr_scan"}, "bike_id": "2abd41366ecd345b3564c8afcf5d85b0", "type": "electric_scooter", "lon": -76.93047716666666, "is_reserved": 0, "fusion_lat": 0.0, "fusion_lon": 0.0}, {"name": "fda63deab47e477e95825e7f98c33dd9", "is_disabled": 0, "lat": 38.92222566666667, "rental_uris": {"ios": "https://dc.lft.to/lastmile_qr_scan", "android": "https://dc.lft.to/lastmile_qr_scan"}, "bike_id": "fda63deab47e477e95825e7f98c33dd9", "type": "electric_scooter", "lon": -77.02119666666667, "is_reserved": 0, "fusion_lat": 0.0, "fusion_lon": 0.0}, {"name": "ed42d3e2fb442e12fd15829244340c15", "is_disabled": 0, "lat": 38.860161833333336, "rental_uris": {"ios": "https://dc.lft.to/lastmile_qr_scan", "android": "https://dc.lft.to/lastmile_qr_scan"}, "bike_id": "ed42d3e2fb442e12fd15829244340c15", "type": "electric_scooter", "lon": -76.96705383333334, "is_reserved": 0, "fusion_lat": 0.0, "fusion_lon": 0.0}, {"name": "252db1a6d26e3adebbecd19ef663da86", "is_disabled": 0, "lat": 38.904672, "rental_uris": {"ios": "https://dc.lft.to/lastmile_qr_scan", "android": "https://dc.lft.to/lastmile_qr_scan"}, "bike_id": "252db1a6d26e3adebbecd19ef663da86", "type": "electric_scooter", "lon": -77.028165, "is_reserved": 0, "fusion_lat": 0.0, "fusion_lon": 0.0}, {"name": "4ed210835ced9cca96792188544576ea", "is_disabled": 0, "lat": 38.8942425, "rental_uris": {"ios": "https://dc.lft.to/lastmile_qr_scan", "android": "https://dc.lft.to/lastmile_qr_scan"}, "bike_id": "4ed210835ced9cca96792188544576ea", "type": "electric_scooter", "lon": -77.02176216666666, "is_reserved": 0, "fusion_lat": 0.0, "fusion_lon": 0.0}, {"name": "d62e49436522984ef2d7af3e1f4703dc", "is_disabled": 0, "lat": 38.907902, "rental_uris": {"ios": "https://dc.lft.to/lastmile_qr_scan", "android": "https://dc.lft.to/lastmile_qr_scan"}, "bike_id": "d62e49436522984ef2d7af3e1f4703dc", "type": "electric_scooter", "lon": -77.04247133333334, "is_reserved": 0, "fusion_lat": 0.0, "fusion_lon": 0.0}, {"name": "e17161f3203581cdb29cceb83ac2cea4", "is_disabled": 0, "lat": 38.931837333333334, "rental_uris": {"ios": "https://dc.lft.to/lastmile_qr_scan", "android": "https://dc.lft.to/lastmile_qr_scan"}, "bike_id": "e17161f3203581cdb29cceb83ac2cea4", "type": "electric_scooter", "lon": -77.02002833333333, "is_reserved": 0, "fusion_lat": 0.0, "fusion_lon": 0.0}, {"name": "5db6fc2ff89ab8cd986019a9e6f2ec70", "is_disabled": 0, "lat": 38.92468366666667, "rental_uris": {"ios": "https://dc.lft.to/lastmile_qr_scan", "android": "https://dc.lft.to/lastmile_qr_scan"}, "bike_id": "5db6fc2ff89ab8cd986019a9e6f2ec70", "type": "electric_scooter", "lon": -77.02073616666667, "is_reserved": 0, "fusion_lat": 0.0, "fusion_lon": 0.0}, {"name": "356a60680e83289f697332120446b2cd", "is_disabled": 0, "lat": 38.906854333333335, "rental_uris": {"ios": "https://dc.lft.to/lastmile_qr_scan", "android": "https://dc.lft.to/lastmile_qr_scan"}, "bike_id": "356a60680e83289f697332120446b2cd", "type": "electric_scooter", "lon": -77.03811583333334, "is_reserved": 0, "fusion_lat": 0.0, "fusion_lon": 0.0}, {"name": "7d22c776b4f1f4ec8a43d47e85381eaf", "is_disabled": 0, "lat": 38.902109333333335, "rental_uris": {"ios": "https://dc.lft.to/lastmile_qr_scan", "android": "https://dc.lft.to/lastmile_qr_scan"}, "bike_id": "7d22c776b4f1f4ec8a43d47e85381eaf", "type": "electric_scooter", "lon": -77.02299833333333, "is_reserved": 0, "fusion_lat": 0.0, "fusion_lon": 0.0}, {"name": "5ea271fef1a6d501c0f40f774774cdaf", "is_disabled": 0, "lat": 38.92338766666667, "rental_uris": {"ios": "https://dc.lft.to/lastmile_qr_scan", "android": "https://dc.lft.to/lastmile_qr_scan"}, "bike_id": "5ea271fef1a6d501c0f40f774774cdaf", "type": "electric_scooter", "lon": -77.05219316666667, "is_reserved": 0, "fusion_lat": 0.0, "fusion_lon": 0.0}, {"name": "6fbeac3e4381d093ecc3d380e73ebe15", "is_disabled": 0, "lat": 38.9179655, "rental_uris": {"ios": "https://dc.lft.to/lastmile_qr_scan", "android": "https://dc.lft.to/lastmile_qr_scan"}, "bike_id": "6fbeac3e4381d093ecc3d380e73ebe15", "type": "electric_scooter", "lon": -77.03194166666667, "is_reserved": 0, "fusion_lat": 0.0, "fusion_lon": 0.0}, {"name": "3cb21a31c48eb8ed2207b60830ac9248", "is_disabled": 0, "lat": 38.91544283333333, "rental_uris": {"ios": "https://dc.lft.to/lastmile_qr_scan", "android": "https://dc.lft.to/lastmile_qr_scan"}, "bike_id": "3cb21a31c48eb8ed2207b60830ac9248", "type": "electric_scooter", "lon": -77.0121825, "is_reserved": 0, "fusion_lat": 0.0, "fusion_lon": 0.0}, {"name": "9f0de8885b8d8decfee7f7d6a7e292c7", "is_disabled": 0, "lat": 38.89223633333334, "rental_uris": {"ios": "https://dc.lft.to/lastmile_qr_scan", "android": "https://dc.lft.to/lastmile_qr_scan"}, "bike_id": "9f0de8885b8d8decfee7f7d6a7e292c7", "type": "electric_scooter", "lon": -77.04472366666667, "is_reserved": 0, "fusion_lat": 0.0, "fusion_lon": 0.0}, {"name": "47f12b225f9af1b693c3c7da5b686292", "is_disabled": 0, "lat": 38.941878833333334, "rental_uris": {"ios": "https://dc.lft.to/lastmile_qr_scan", "android": "https://dc.lft.to/lastmile_qr_scan"}, "bike_id": "47f12b225f9af1b693c3c7da5b686292", "type": "electric_scooter", "lon": -77.02492516666666, "is_reserved": 0, "fusion_lat": 0.0, "fusion_lon": 0.0}, {"name": "100606fe8933f4aa850aeff4c24d026e", "is_disabled": 0, "lat": 38.898967166666665, "rental_uris": {"ios": "https://dc.lft.to/lastmile_qr_scan", "android": "https://dc.lft.to/lastmile_qr_scan"}, "bike_id": "100606fe8933f4aa850aeff4c24d026e", "type": "electric_scooter", "lon": -76.984997, "is_reserved": 0, "fusion_lat": 0.0, "fusion_lon": 0.0}, {"name": "92e4f7e5cf644c37f52bf04971df5625", "is_disabled": 0, "lat": 38.92344816666667, "rental_uris": {"ios": "https://dc.lft.to/lastmile_qr_scan", "android": "https://dc.lft.to/lastmile_qr_scan"}, "bike_id": "92e4f7e5cf644c37f52bf04971df5625", "type": "electric_scooter", "lon": -77.03631483333334, "is_reserved": 0, "fusion_lat": 0.0, "fusion_lon": 0.0}, {"name": "3cb36e5df105e55cf589d24e28a78c87", "is_disabled": 0, "lat": 38.905706, "rental_uris": {"ios": "https://dc.lft.to/lastmile_qr_scan", "android": "https://dc.lft.to/lastmile_qr_scan"}, "bike_id": "3cb36e5df105e55cf589d24e28a78c87", "type": "electric_scooter", "lon": -77.02202483333333, "is_reserved": 0, "fusion_lat": 0.0, "fusion_lon": 0.0}, {"name": "837a5a3a4eac9860773e2a4a798d50c6", "is_disabled": 0, "lat": 38.92271133333333, "rental_uris": {"ios": "https://dc.lft.to/lastmile_qr_scan", "android": "https://dc.lft.to/lastmile_qr_scan"}, "bike_id": "837a5a3a4eac9860773e2a4a798d50c6", "type": "electric_scooter", "lon": -77.0210475, "is_reserved": 0, "fusion_lat": 0.0, "fusion_lon": 0.0}, {"name": "cc9bcc7b1ad8ded3049923e13356a85c", "is_disabled": 0, "lat": 38.922225833333336, "rental_uris": {"ios": "https://dc.lft.to/lastmile_qr_scan", "android": "https://dc.lft.to/lastmile_qr_scan"}, "bike_id": "cc9bcc7b1ad8ded3049923e13356a85c", "type": "electric_scooter", "lon": -77.021232, "is_reserved": 0, "fusion_lat": 0.0, "fusion_lon": 0.0}, {"name": "e6e18b527831ddb3e6f76f2dbaa791db", "is_disabled": 0, "lat": 39.00485666666667, "rental_uris": {"ios": "https://dc.lft.to/lastmile_qr_scan", "android": "https://dc.lft.to/lastmile_qr_scan"}, "bike_id": "e6e18b527831ddb3e6f76f2dbaa791db", "type": "electric_bike", "lon": -77.02186, "is_reserved": 0, "fusion_lat": 0.0, "fusion_lon": 0.0}, {"name": "bbd05c941d5185f423b12c687f2936fb", "is_disabled": 0, "lat": 38.916857, "rental_uris": {"ios": "https://dc.lft.to/lastmile_qr_scan", "android": "https://dc.lft.to/lastmile_qr_scan"}, "bike_id": "bbd05c941d5185f423b12c687f2936fb", "type": "electric_scooter", "lon": -77.03856583333334, "is_reserved": 0, "fusion_lat": 0.0, "fusion_lon": 0.0}, {"name": "469f8b1fd48da8d162d8f31b375571b0", "is_disabled": 0, "lat": 38.901578, "rental_uris": {"ios": "https://dc.lft.to/lastmile_qr_scan", "android": "https://dc.lft.to/lastmile_qr_scan"}, "bike_id": "469f8b1fd48da8d162d8f31b375571b0", "type": "electric_scooter", "lon": -77.016173, "is_reserved": 0, "fusion_lat": 0.0, "fusion_lon": 0.0}, {"name": "c28c9a5a3beba5d09242b490f1c68fcf", "is_disabled": 0, "lat": 38.904802833333335, "rental_uris": {"ios": "https://dc.lft.to/lastmile_qr_scan", "android": "https://dc.lft.to/lastmile_qr_scan"}, "bike_id": "c28c9a5a3beba5d09242b490f1c68fcf", "type": "electric_scooter", "lon": -77.00213716666667, "is_reserved": 0, "fusion_lat": 0.0, "fusion_lon": 0.0}, {"name": "1ac4bbaac9f4817f75deee46b61416cb", "is_disabled": 0, "lat": 38.876681, "rental_uris": {"ios": "https://dc.lft.to/lastmile_qr_scan", "android": "https://dc.lft.to/lastmile_qr_scan"}, "bike_id": "1ac4bbaac9f4817f75deee46b61416cb", "type": "electric_scooter", "lon": -77.00301583333334, "is_reserved": 0, "fusion_lat": 0.0, "fusion_lon": 0.0}, {"name": "6764f0bad4251a011a2b61b0356e1b9f", "is_disabled": 0, "lat": 38.93105633333333, "rental_uris": {"ios": "https://dc.lft.to/lastmile_qr_scan", "android": "https://dc.lft.to/lastmile_qr_scan"}, "bike_id": "6764f0bad4251a011a2b61b0356e1b9f", "type": "electric_bike", "lon": -77.02454616666667, "is_reserved": 0, "fusion_lat": 0.0, "fusion_lon": 0.0}, {"name": "d4e4afc612c1dd1cf23e02ac1a1970ee", "is_disabled": 0, "lat": 38.942082666666664, "rental_uris": {"ios": "https://dc.lft.to/lastmile_qr_scan", "android": "https://dc.lft.to/lastmile_qr_scan"}, "bike_id": "d4e4afc612c1dd1cf23e02ac1a1970ee", "type": "electric_scooter", "lon": -77.01349683333333, "is_reserved": 0, "fusion_lat": 0.0, "fusion_lon": 0.0}, {"name": "7880c35c446181f953e6947ed8720ccf", "is_disabled": 0, "lat": 38.89522183333333, "rental_uris": {"ios": "https://dc.lft.to/lastmile_qr_scan", "android": "https://dc.lft.to/lastmile_qr_scan"}, "bike_id": "7880c35c446181f953e6947ed8720ccf", "type": "electric_scooter", "lon": -77.04479483333333, "is_reserved": 0, "fusion_lat": 0.0, "fusion_lon": 0.0}, {"name": "ad19bc4d0232c632267a636b4eaac78f", "is_disabled": 0, "lat": 38.886066666666665, "rental_uris": {"ios": "https://dc.lft.to/lastmile_qr_scan", "android": "https://dc.lft.to/lastmile_qr_scan"}, "bike_id": "ad19bc4d0232c632267a636b4eaac78f", "type": "electric_scooter", "lon": -76.99535966666667, "is_reserved": 0, "fusion_lat": 0.0, "fusion_lon": 0.0}, {"name": "17155116559ae64824e156985495e604", "is_disabled": 0, "lat": 38.90293583333333, "rental_uris": {"ios": "https://dc.lft.to/lastmile_qr_scan", "android": "https://dc.lft.to/lastmile_qr_scan"}, "bike_id": "17155116559ae64824e156985495e604", "type": "electric_scooter", "lon": -77.04876233333333, "is_reserved": 0, "fusion_lat": 0.0, "fusion_lon": 0.0}, {"name": "895c1eeca4a7b534b601cad831749129", "is_disabled": 0, "lat": 38.88412916666667, "rental_uris": {"ios": "https://dc.lft.to/lastmile_qr_scan", "android": "https://dc.lft.to/lastmile_qr_scan"}, "bike_id": "895c1eeca4a7b534b601cad831749129", "type": "electric_scooter", "lon": -76.9420705, "is_reserved": 0, "fusion_lat": 0.0, "fusion_lon": 0.0}, {"name": "39d9143663731c0c16a542751a8e68dd", "is_disabled": 0, "lat": 38.9053295, "rental_uris": {"ios": "https://dc.lft.to/lastmile_qr_scan", "android": "https://dc.lft.to/lastmile_qr_scan"}, "bike_id": "39d9143663731c0c16a542751a8e68dd", "type": "electric_scooter", "lon": -77.06518316666667, "is_reserved": 0, "fusion_lat": 0.0, "fusion_lon": 0.0}, {"name": "a005a9db981955c32bae05e31325016c", "is_disabled": 0, "lat": 38.875546666666665, "rental_uris": {"ios": "https://dc.lft.to/lastmile_qr_scan", "android": "https://dc.lft.to/lastmile_qr_scan"}, "bike_id": "a005a9db981955c32bae05e31325016c", "type": "electric_scooter", "lon": -77.006035, "is_reserved": 0, "fusion_lat": 0.0, "fusion_lon": 0.0}, {"name": "86c9c5fcac86ee6ac80ace6a5e464f33", "is_disabled": 0, "lat": 38.9234825, "rental_uris": {"ios": "https://dc.lft.to/lastmile_qr_scan", "android": "https://dc.lft.to/lastmile_qr_scan"}, "bike_id": "86c9c5fcac86ee6ac80ace6a5e464f33", "type": "electric_scooter", "lon": -77.05168283333333, "is_reserved": 0, "fusion_lat": 0.0, "fusion_lon": 0.0}, {"name": "b884cc1572b94a23b60355b95c566a00", "is_disabled": 0, "lat": 38.94974083333334, "rental_uris": {"ios": "https://dc.lft.to/lastmile_qr_scan", "android": "https://dc.lft.to/lastmile_qr_scan"}, "bike_id": "b884cc1572b94a23b60355b95c566a00", "type": "electric_bike", "lon": -77.06658833333333, "is_reserved": 0, "fusion_lat": 0.0, "fusion_lon": 0.0}, {"name": "8e8596ae7ab9af3d469e40a601e72624", "is_disabled": 0, "lat": 38.900858166666666, "rental_uris": {"ios": "https://dc.lft.to/lastmile_qr_scan", "android": "https://dc.lft.to/lastmile_qr_scan"}, "bike_id": "8e8596ae7ab9af3d469e40a601e72624", "type": "electric_scooter", "lon": -76.98333366666667, "is_reserved": 0, "fusion_lat": 0.0, "fusion_lon": 0.0}, {"name": "b77d5e5660af1dba7e756ff787ad24a5", "is_disabled": 0, "lat": 38.890773333333335, "rental_uris": {"ios": "https://dc.lft.to/lastmile_qr_scan", "android": "https://dc.lft.to/lastmile_qr_scan"}, "bike_id": "b77d5e5660af1dba7e756ff787ad24a5", "type": "electric_scooter", "lon": -76.98829816666667, "is_reserved": 0, "fusion_lat": 0.0, "fusion_lon": 0.0}, {"name": "d8c400152ffa331d5fb4be706bb0c153", "is_disabled": 0, "lat": 38.919586333333335, "rental_uris": {"ios": "https://dc.lft.to/lastmile_qr_scan", "android": "https://dc.lft.to/lastmile_qr_scan"}, "bike_id": "d8c400152ffa331d5fb4be706bb0c153", "type": "electric_scooter", "lon": -77.02383733333333, "is_reserved": 0, "fusion_lat": 0.0, "fusion_lon": 0.0}, {"name": "3db7519af06e5fe8ecd5bd54f86d6301", "is_disabled": 0, "lat": 38.90030333333333, "rental_uris": {"ios": "https://dc.lft.to/lastmile_qr_scan", "android": "https://dc.lft.to/lastmile_qr_scan"}, "bike_id": "3db7519af06e5fe8ecd5bd54f86d6301", "type": "electric_scooter", "lon": -77.0261305, "is_reserved": 0, "fusion_lat": 0.0, "fusion_lon": 0.0}, {"name": "6587e28318decff6e602271fa9febf2b", "is_disabled": 0, "lat": 38.940894666666665, "rental_uris": {"ios": "https://dc.lft.to/lastmile_qr_scan", "android": "https://dc.lft.to/lastmile_qr_scan"}, "bike_id": "6587e28318decff6e602271fa9febf2b", "type": "electric_scooter", "lon": -77.026379, "is_reserved": 0, "fusion_lat": 0.0, "fusion_lon": 0.0}, {"name": "cbe6ac4d073d15ba48d323a55366d93d", "is_disabled": 0, "lat": 38.9074205, "rental_uris": {"ios": "https://dc.lft.to/lastmile_qr_scan", "android": "https://dc.lft.to/lastmile_qr_scan"}, "bike_id": "cbe6ac4d073d15ba48d323a55366d93d", "type": "electric_scooter", "lon": -77.02394, "is_reserved": 0, "fusion_lat": 0.0, "fusion_lon": 0.0}, {"name": "0e94e1c5e7e233edd679c30898515d6c", "is_disabled": 0, "lat": 38.9243565, "rental_uris": {"ios": "https://dc.lft.to/lastmile_qr_scan", "android": "https://dc.lft.to/lastmile_qr_scan"}, "bike_id": "0e94e1c5e7e233edd679c30898515d6c", "type": "electric_scooter", "lon": -77.02240483333334, "is_reserved": 0, "fusion_lat": 0.0, "fusion_lon": 0.0}, {"name": "2771a3cf9dd2a677980aaa9830a0a26a", "is_disabled": 0, "lat": 38.94185183333333, "rental_uris": {"ios": "https://dc.lft.to/lastmile_qr_scan", "android": "https://dc.lft.to/lastmile_qr_scan"}, "bike_id": "2771a3cf9dd2a677980aaa9830a0a26a", "type": "electric_scooter", "lon": -77.02487633333334, "is_reserved": 0, "fusion_lat": 0.0, "fusion_lon": 0.0}, {"name": "f3bbf494820e9d8a2d452dcc55826b0e", "is_disabled": 0, "lat": 38.9171085, "rental_uris": {"ios": "https://dc.lft.to/lastmile_qr_scan", "android": "https://dc.lft.to/lastmile_qr_scan"}, "bike_id": "f3bbf494820e9d8a2d452dcc55826b0e", "type": "electric_scooter", "lon": -77.02393616666667, "is_reserved": 0, "fusion_lat": 0.0, "fusion_lon": 0.0}, {"name": "bccf44c30114466133b3d402a25d33ee", "is_disabled": 0, "lat": 38.873886166666665, "rental_uris": {"ios": "https://dc.lft.to/lastmile_qr_scan", "android": "https://dc.lft.to/lastmile_qr_scan"}, "bike_id": "bccf44c30114466133b3d402a25d33ee", "type": "electric_scooter", "lon": -77.00039033333333, "is_reserved": 0, "fusion_lat": 0.0, "fusion_lon": 0.0}, {"name": "6d91e19a3aa7669f999956fe1c451689", "is_disabled": 0, "lat": 38.920529333333334, "rental_uris": {"ios": "https://dc.lft.to/lastmile_qr_scan", "android": "https://dc.lft.to/lastmile_qr_scan"}, "bike_id": "6d91e19a3aa7669f999956fe1c451689", "type": "electric_scooter", "lon": -77.03394583333333, "is_reserved": 0, "fusion_lat": 0.0, "fusion_lon": 0.0}, {"name": "f6c6deafdbcd9201e4074a9814a0da88", "is_disabled": 0, "lat": 38.912538833333336, "rental_uris": {"ios": "https://dc.lft.to/lastmile_qr_scan", "android": "https://dc.lft.to/lastmile_qr_scan"}, "bike_id": "f6c6deafdbcd9201e4074a9814a0da88", "type": "electric_scooter", "lon": -77.03568716666666, "is_reserved": 0, "fusion_lat": 0.0, "fusion_lon": 0.0}, {"name": "e323d3d05610c85f6510840516fcf3ab", "is_disabled": 0, "lat": 38.896281, "rental_uris": {"ios": "https://dc.lft.to/lastmile_qr_scan", "android": "https://dc.lft.to/lastmile_qr_scan"}, "bike_id": "e323d3d05610c85f6510840516fcf3ab", "type": "electric_scooter", "lon": -77.04506333333333, "is_reserved": 0, "fusion_lat": 0.0, "fusion_lon": 0.0}, {"name": "f4ebcb01703ef653ebdb94698b9fb51d", "is_disabled": 0, "lat": 38.930578833333335, "rental_uris": {"ios": "https://dc.lft.to/lastmile_qr_scan", "android": "https://dc.lft.to/lastmile_qr_scan"}, "bike_id": "f4ebcb01703ef653ebdb94698b9fb51d", "type": "electric_scooter", "lon": -77.03212483333333, "is_reserved": 0, "fusion_lat": 0.0, "fusion_lon": 0.0}, {"name": "c9355ad46978625819c5672cf089ba26", "is_disabled": 0, "lat": 38.919265333333335, "rental_uris": {"ios": "https://dc.lft.to/lastmile_qr_scan", "android": "https://dc.lft.to/lastmile_qr_scan"}, "bike_id": "c9355ad46978625819c5672cf089ba26", "type": "electric_scooter", "lon": -77.03093983333333, "is_reserved": 0, "fusion_lat": 0.0, "fusion_lon": 0.0}, {"name": "f2a1b44c83adb7721d6c81d246c12c40", "is_disabled": 0, "lat": 38.90699933333333, "rental_uris": {"ios": "https://dc.lft.to/lastmile_qr_scan", "android": "https://dc.lft.to/lastmile_qr_scan"}, "bike_id": "f2a1b44c83adb7721d6c81d246c12c40", "type": "electric_scooter", "lon": -77.0417315, "is_reserved": 0, "fusion_lat": 0.0, "fusion_lon": 0.0}, {"name": "331a5dde895ea97f7ee4918c99d51482", "is_disabled": 0, "lat": 38.89729633333334, "rental_uris": {"ios": "https://dc.lft.to/lastmile_qr_scan", "android": "https://dc.lft.to/lastmile_qr_scan"}, "bike_id": "331a5dde895ea97f7ee4918c99d51482", "type": "electric_scooter", "lon": -77.04403616666667, "is_reserved": 0, "fusion_lat": 0.0, "fusion_lon": 0.0}, {"name": "c2b372def10f5746b619f75a8617ed97", "is_disabled": 0, "lat": 38.870873, "rental_uris": {"ios": "https://dc.lft.to/lastmile_qr_scan", "android": "https://dc.lft.to/lastmile_qr_scan"}, "bike_id": "c2b372def10f5746b619f75a8617ed97", "type": "electric_scooter", "lon": -76.96566783333333, "is_reserved": 0, "fusion_lat": 0.0, "fusion_lon": 0.0}, {"name": "ceaf00272697c74d243db84a9b56e19a", "is_disabled": 0, "lat": 38.87832733333333, "rental_uris": {"ios": "https://dc.lft.to/lastmile_qr_scan", "android": "https://dc.lft.to/lastmile_qr_scan"}, "bike_id": "ceaf00272697c74d243db84a9b56e19a", "type": "electric_scooter", "lon": -76.963216, "is_reserved": 0, "fusion_lat": 0.0, "fusion_lon": 0.0}, {"name": "f3a10fa23db86897a08524540e51285e", "is_disabled": 0, "lat": 38.818630666666664, "rental_uris": {"ios": "https://dc.lft.to/lastmile_qr_scan", "android": "https://dc.lft.to/lastmile_qr_scan"}, "bike_id": "f3a10fa23db86897a08524540e51285e", "type": "electric_bike", "lon": -77.12708916666666, "is_reserved": 0, "fusion_lat": 0.0, "fusion_lon": 0.0}, {"name": "1c87ef796d4f51fb21a68bcfea6d4c33", "is_disabled": 0, "lat": 38.90910066666667, "rental_uris": {"ios": "https://dc.lft.to/lastmile_qr_scan", "android": "https://dc.lft.to/lastmile_qr_scan"}, "bike_id": "1c87ef796d4f51fb21a68bcfea6d4c33", "type": "electric_scooter", "lon": -77.06428533333333, "is_reserved": 0, "fusion_lat": 0.0, "fusion_lon": 0.0}, {"name": "f33ab4f8166e8003fd2362a8d71c55d6", "is_disabled": 0, "lat": 38.9256675, "rental_uris": {"ios": "https://dc.lft.to/lastmile_qr_scan", "android": "https://dc.lft.to/lastmile_qr_scan"}, "bike_id": "f33ab4f8166e8003fd2362a8d71c55d6", "type": "electric_scooter", "lon": -77.0378605, "is_reserved": 0, "fusion_lat": 0.0, "fusion_lon": 0.0}, {"name": "48696df9d63078019c50c0a668af7e8d", "is_disabled": 0, "lat": 38.877253833333334, "rental_uris": {"ios": "https://dc.lft.to/lastmile_qr_scan", "android": "https://dc.lft.to/lastmile_qr_scan"}, "bike_id": "48696df9d63078019c50c0a668af7e8d", "type": "electric_scooter", "lon": -77.01760566666667, "is_reserved": 0, "fusion_lat": 0.0, "fusion_lon": 0.0}, {"name": "0200d5902319316d19e32a9bbd8a533d", "is_disabled": 0, "lat": 38.9222555, "rental_uris": {"ios": "https://dc.lft.to/lastmile_qr_scan", "android": "https://dc.lft.to/lastmile_qr_scan"}, "bike_id": "0200d5902319316d19e32a9bbd8a533d", "type": "electric_bike", "lon": -77.02826233333333, "is_reserved": 0, "fusion_lat": 0.0, "fusion_lon": 0.0}, {"name": "8f0da23f7d183271537f238f1fe74bd3", "is_disabled": 0, "lat": 38.8985375, "rental_uris": {"ios": "https://dc.lft.to/lastmile_qr_scan", "android": "https://dc.lft.to/lastmile_qr_scan"}, "bike_id": "8f0da23f7d183271537f238f1fe74bd3", "type": "electric_scooter", "lon": -77.02977483333333, "is_reserved": 0, "fusion_lat": 0.0, "fusion_lon": 0.0}, {"name": "c5c2dc92d587a8814ba7d62ae4854ae5", "is_disabled": 0, "lat": 38.92762366666667, "rental_uris": {"ios": "https://dc.lft.to/lastmile_qr_scan", "android": "https://dc.lft.to/lastmile_qr_scan"}, "bike_id": "c5c2dc92d587a8814ba7d62ae4854ae5", "type": "electric_scooter", "lon": -77.03277183333333, "is_reserved": 0, "fusion_lat": 0.0, "fusion_lon": 0.0}, {"name": "68b0bfba93eb4173522388b84fac98ca", "is_disabled": 0, "lat": 38.926837166666665, "rental_uris": {"ios": "https://dc.lft.to/lastmile_qr_scan", "android": "https://dc.lft.to/lastmile_qr_scan"}, "bike_id": "68b0bfba93eb4173522388b84fac98ca", "type": "electric_scooter", "lon": -77.02569666666666, "is_reserved": 0, "fusion_lat": 0.0, "fusion_lon": 0.0}, {"name": "028181235fc6f59f6c44b3e22ab31834", "is_disabled": 0, "lat": 38.863285, "rental_uris": {"ios": "https://dc.lft.to/lastmile_qr_scan", "android": "https://dc.lft.to/lastmile_qr_scan"}, "bike_id": "028181235fc6f59f6c44b3e22ab31834", "type": "electric_bike", "lon": -76.98721516666667, "is_reserved": 0, "fusion_lat": 0.0, "fusion_lon": 0.0}, {"name": "a482fdb0e4475b5c52384441d38c4d9d", "is_disabled": 0, "lat": 38.799884666666664, "rental_uris": {"ios": "https://dc.lft.to/lastmile_qr_scan", "android": "https://dc.lft.to/lastmile_qr_scan"}, "bike_id": "a482fdb0e4475b5c52384441d38c4d9d", "type": "electric_bike", "lon": -77.12974333333334, "is_reserved": 0, "fusion_lat": 0.0, "fusion_lon": 0.0}, {"name": "bdf3e8e66e3d9c0d428095f1a6cde027", "is_disabled": 0, "lat": 38.90487433333333, "rental_uris": {"ios": "https://dc.lft.to/lastmile_qr_scan", "android": "https://dc.lft.to/lastmile_qr_scan"}, "bike_id": "bdf3e8e66e3d9c0d428095f1a6cde027", "type": "electric_scooter", "lon": -76.99622716666667, "is_reserved": 0, "fusion_lat": 0.0, "fusion_lon": 0.0}, {"name": "c628940bc77f4eed2f483a43a80c88c7", "is_disabled": 0, "lat": 38.90848666666667, "rental_uris": {"ios": "https://dc.lft.to/lastmile_qr_scan", "android": "https://dc.lft.to/lastmile_qr_scan"}, "bike_id": "c628940bc77f4eed2f483a43a80c88c7", "type": "electric_scooter", "lon": -77.06344683333333, "is_reserved": 0, "fusion_lat": 0.0, "fusion_lon": 0.0}, {"name": "eddb6f2a5351010673b9c90accc7944e", "is_disabled": 0, "lat": 38.93261116666667, "rental_uris": {"ios": "https://dc.lft.to/lastmile_qr_scan", "android": "https://dc.lft.to/lastmile_qr_scan"}, "bike_id": "eddb6f2a5351010673b9c90accc7944e", "type": "electric_scooter", "lon": -76.98900066666667, "is_reserved": 0, "fusion_lat": 0.0, "fusion_lon": 0.0}, {"name": "81d611b91446a962ec09efa062ddb029", "is_disabled": 0, "lat": 38.88655383333333, "rental_uris": {"ios": "https://dc.lft.to/lastmile_qr_scan", "android": "https://dc.lft.to/lastmile_qr_scan"}, "bike_id": "81d611b91446a962ec09efa062ddb029", "type": "electric_scooter", "lon": -77.019837, "is_reserved": 0, "fusion_lat": 0.0, "fusion_lon": 0.0}, {"name": "a01a172c9ccab0acefd47a2240b1e3d1", "is_disabled": 0, "lat": 38.909279833333336, "rental_uris": {"ios": "https://dc.lft.to/lastmile_qr_scan", "android": "https://dc.lft.to/lastmile_qr_scan"}, "bike_id": "a01a172c9ccab0acefd47a2240b1e3d1", "type": "electric_scooter", "lon": -76.9996605, "is_reserved": 0, "fusion_lat": 0.0, "fusion_lon": 0.0}, {"name": "5f6a371ccda1e6690028432105cbdcb4", "is_disabled": 0, "lat": 38.917247, "rental_uris": {"ios": "https://dc.lft.to/lastmile_qr_scan", "android": "https://dc.lft.to/lastmile_qr_scan"}, "bike_id": "5f6a371ccda1e6690028432105cbdcb4", "type": "electric_scooter", "lon": -77.04169633333333, "is_reserved": 0, "fusion_lat": 0.0, "fusion_lon": 0.0}, {"name": "1c1f4a5ee3c0308089f26771025ceb38", "is_disabled": 0, "lat": 38.890298666666666, "rental_uris": {"ios": "https://dc.lft.to/lastmile_qr_scan", "android": "https://dc.lft.to/lastmile_qr_scan"}, "bike_id": "1c1f4a5ee3c0308089f26771025ceb38", "type": "electric_scooter", "lon": -76.937436, "is_reserved": 0, "fusion_lat": 0.0, "fusion_lon": 0.0}, {"name": "17ff770d7289c4530168ac4072bda610", "is_disabled": 0, "lat": 38.90552983333333, "rental_uris": {"ios": "https://dc.lft.to/lastmile_qr_scan", "android": "https://dc.lft.to/lastmile_qr_scan"}, "bike_id": "17ff770d7289c4530168ac4072bda610", "type": "electric_scooter", "lon": -77.04858283333333, "is_reserved": 0, "fusion_lat": 0.0, "fusion_lon": 0.0}, {"name": "e166ea3683e48fc207b5f021523bf201", "is_disabled": 0, "lat": 38.88536583333333, "rental_uris": {"ios": "https://dc.lft.to/lastmile_qr_scan", "android": "https://dc.lft.to/lastmile_qr_scan"}, "bike_id": "e166ea3683e48fc207b5f021523bf201", "type": "electric_scooter", "lon": -77.000661, "is_reserved": 0, "fusion_lat": 0.0, "fusion_lon": 0.0}, {"name": "8369dceb114f8ddf30cd6c35b0baa41f", "is_disabled": 0, "lat": 38.95420766666667, "rental_uris": {"ios": "https://dc.lft.to/lastmile_qr_scan", "android": "https://dc.lft.to/lastmile_qr_scan"}, "bike_id": "8369dceb114f8ddf30cd6c35b0baa41f", "type": "electric_scooter", "lon": -77.02763433333334, "is_reserved": 0, "fusion_lat": 0.0, "fusion_lon": 0.0}, {"name": "e03fff52d76d8b6fbeb5b14c73105683", "is_disabled": 0, "lat": 38.903925, "rental_uris": {"ios": "https://dc.lft.to/lastmile_qr_scan", "android": "https://dc.lft.to/lastmile_qr_scan"}, "bike_id": "e03fff52d76d8b6fbeb5b14c73105683", "type": "electric_scooter", "lon": -77.06819533333334, "is_reserved": 0, "fusion_lat": 0.0, "fusion_lon": 0.0}, {"name": "24a2659f5e2a0faef7f6765aa21ce346", "is_disabled": 0, "lat": 38.9046095, "rental_uris": {"ios": "https://dc.lft.to/lastmile_qr_scan", "android": "https://dc.lft.to/lastmile_qr_scan"}, "bike_id": "24a2659f5e2a0faef7f6765aa21ce346", "type": "electric_scooter", "lon": -77.06289366666667, "is_reserved": 0, "fusion_lat": 0.0, "fusion_lon": 0.0}, {"name": "b38af8d8cb150d0aa2fe4407dbb84868", "is_disabled": 0, "lat": 38.90770466666667, "rental_uris": {"ios": "https://dc.lft.to/lastmile_qr_scan", "android": "https://dc.lft.to/lastmile_qr_scan"}, "bike_id": "b38af8d8cb150d0aa2fe4407dbb84868", "type": "electric_scooter", "lon": -77.038643, "is_reserved": 0, "fusion_lat": 0.0, "fusion_lon": 0.0}, {"name": "f89a45e245d35dfdbc7ac4ac9ae3a4ba", "is_disabled": 0, "lat": 38.916805833333335, "rental_uris": {"ios": "https://dc.lft.to/lastmile_qr_scan", "android": "https://dc.lft.to/lastmile_qr_scan"}, "bike_id": "f89a45e245d35dfdbc7ac4ac9ae3a4ba", "type": "electric_scooter", "lon": -77.0235485, "is_reserved": 0, "fusion_lat": 0.0, "fusion_lon": 0.0}, {"name": "c4346c3ac817162ced64f319fb6dd891", "is_disabled": 0, "lat": 38.885373666666666, "rental_uris": {"ios": "https://dc.lft.to/lastmile_qr_scan", "android": "https://dc.lft.to/lastmile_qr_scan"}, "bike_id": "c4346c3ac817162ced64f319fb6dd891", "type": "electric_scooter", "lon": -77.00062616666666, "is_reserved": 0, "fusion_lat": 0.0, "fusion_lon": 0.0}, {"name": "19915b0ba6d8357825eec188151aac1d", "is_disabled": 0, "lat": 38.904559666666664, "rental_uris": {"ios": "https://dc.lft.to/lastmile_qr_scan", "android": "https://dc.lft.to/lastmile_qr_scan"}, "bike_id": "19915b0ba6d8357825eec188151aac1d", "type": "electric_scooter", "lon": -77.00165616666666, "is_reserved": 0, "fusion_lat": 0.0, "fusion_lon": 0.0}, {"name": "ec2e595925d6ec2188eefa09b2193041", "is_disabled": 0, "lat": 38.90111266666667, "rental_uris": {"ios": "https://dc.lft.to/lastmile_qr_scan", "android": "https://dc.lft.to/lastmile_qr_scan"}, "bike_id": "ec2e595925d6ec2188eefa09b2193041", "type": "electric_scooter", "lon": -77.03384233333334, "is_reserved": 0, "fusion_lat": 0.0, "fusion_lon": 0.0}, {"name": "70fb3b4a04a7c4b53780375702c5ee57", "is_disabled": 0, "lat": 38.887312333333334, "rental_uris": {"ios": "https://dc.lft.to/lastmile_qr_scan", "android": "https://dc.lft.to/lastmile_qr_scan"}, "bike_id": "70fb3b4a04a7c4b53780375702c5ee57", "type": "electric_scooter", "lon": -77.0176475, "is_reserved": 0, "fusion_lat": 0.0, "fusion_lon": 0.0}, {"name": "8d8e413e8ee2066f60072a63aa22d668", "is_disabled": 0, "lat": 38.89834466666667, "rental_uris": {"ios": "https://dc.lft.to/lastmile_qr_scan", "android": "https://dc.lft.to/lastmile_qr_scan"}, "bike_id": "8d8e413e8ee2066f60072a63aa22d668", "type": "electric_scooter", "lon": -76.94633833333333, "is_reserved": 0, "fusion_lat": 0.0, "fusion_lon": 0.0}, {"name": "6941297f6d106cf4c67a64913d1e33b0", "is_disabled": 0, "lat": 38.90626366666667, "rental_uris": {"ios": "https://dc.lft.to/lastmile_qr_scan", "android": "https://dc.lft.to/lastmile_qr_scan"}, "bike_id": "6941297f6d106cf4c67a64913d1e33b0", "type": "electric_scooter", "lon": -77.02606816666666, "is_reserved": 0, "fusion_lat": 0.0, "fusion_lon": 0.0}, {"name": "178035d20b89f5ab392ad6fb7b781953", "is_disabled": 0, "lat": 38.901912833333334, "rental_uris": {"ios": "https://dc.lft.to/lastmile_qr_scan", "android": "https://dc.lft.to/lastmile_qr_scan"}, "bike_id": "178035d20b89f5ab392ad6fb7b781953", "type": "electric_scooter", "lon": -77.02497916666667, "is_reserved": 0, "fusion_lat": 0.0, "fusion_lon": 0.0}, {"name": "d35ebcba2fe650a115de58d6923bbeb4", "is_disabled": 0, "lat": 38.9192575, "rental_uris": {"ios": "https://dc.lft.to/lastmile_qr_scan", "android": "https://dc.lft.to/lastmile_qr_scan"}, "bike_id": "d35ebcba2fe650a115de58d6923bbeb4", "type": "electric_scooter", "lon": -77.03421816666666, "is_reserved": 0, "fusion_lat": 0.0, "fusion_lon": 0.0}, {"name": "afcc8379c0856ef6386a79432c3afd1d", "is_disabled": 0, "lat": 38.87662183333333, "rental_uris": {"ios": "https://dc.lft.to/lastmile_qr_scan", "android": "https://dc.lft.to/lastmile_qr_scan"}, "bike_id": "afcc8379c0856ef6386a79432c3afd1d", "type": "electric_scooter", "lon": -77.0006925, "is_reserved": 0, "fusion_lat": 0.0, "fusion_lon": 0.0}, {"name": "de24d9d13382bbda6d7791df30f11ca4", "is_disabled": 0, "lat": 38.902215166666664, "rental_uris": {"ios": "https://dc.lft.to/lastmile_qr_scan", "android": "https://dc.lft.to/lastmile_qr_scan"}, "bike_id": "de24d9d13382bbda6d7791df30f11ca4", "type": "electric_scooter", "lon": -77.01613983333333, "is_reserved": 0, "fusion_lat": 0.0, "fusion_lon": 0.0}, {"name": "52f4471a2260d6b524292131cddc1151", "is_disabled": 0, "lat": 38.905056, "rental_uris": {"ios": "https://dc.lft.to/lastmile_qr_scan", "android": "https://dc.lft.to/lastmile_qr_scan"}, "bike_id": "52f4471a2260d6b524292131cddc1151", "type": "electric_scooter", "lon": -77.04822, "is_reserved": 0, "fusion_lat": 0.0, "fusion_lon": 0.0}, {"name": "4a2d3413c0d4f337cdee7dde90bf427c", "is_disabled": 0, "lat": 38.9037555, "rental_uris": {"ios": "https://dc.lft.to/lastmile_qr_scan", "android": "https://dc.lft.to/lastmile_qr_scan"}, "bike_id": "4a2d3413c0d4f337cdee7dde90bf427c", "type": "electric_scooter", "lon": -77.03205116666666, "is_reserved": 0, "fusion_lat": 0.0, "fusion_lon": 0.0}, {"name": "e457410e960f41d88e2cfe4bae5c8c0d", "is_disabled": 0, "lat": 38.90734916666667, "rental_uris": {"ios": "https://dc.lft.to/lastmile_qr_scan", "android": "https://dc.lft.to/lastmile_qr_scan"}, "bike_id": "e457410e960f41d88e2cfe4bae5c8c0d", "type": "electric_scooter", "lon": -77.043245, "is_reserved": 0, "fusion_lat": 0.0, "fusion_lon": 0.0}, {"name": "c5a58c10d0f9a941e8e3147741634504", "is_disabled": 0, "lat": 38.90389666666667, "rental_uris": {"ios": "https://dc.lft.to/lastmile_qr_scan", "android": "https://dc.lft.to/lastmile_qr_scan"}, "bike_id": "c5a58c10d0f9a941e8e3147741634504", "type": "electric_scooter", "lon": -77.043037, "is_reserved": 0, "fusion_lat": 0.0, "fusion_lon": 0.0}, {"name": "6bd97689fc7bc71e65966571bb721799", "is_disabled": 0, "lat": 38.91039283333333, "rental_uris": {"ios": "https://dc.lft.to/lastmile_qr_scan", "android": "https://dc.lft.to/lastmile_qr_scan"}, "bike_id": "6bd97689fc7bc71e65966571bb721799", "type": "electric_scooter", "lon": -77.04142683333333, "is_reserved": 0, "fusion_lat": 0.0, "fusion_lon": 0.0}, {"name": "5232d86619b84ea12c68b0e6f18d7c41", "is_disabled": 0, "lat": 38.92372683333333, "rental_uris": {"ios": "https://dc.lft.to/lastmile_qr_scan", "android": "https://dc.lft.to/lastmile_qr_scan"}, "bike_id": "5232d86619b84ea12c68b0e6f18d7c41", "type": "electric_scooter", "lon": -77.035336, "is_reserved": 0, "fusion_lat": 0.0, "fusion_lon": 0.0}, {"name": "e9fb6bde5d7ddc36142491bfcb1c8c5c", "is_disabled": 0, "lat": 38.9225205, "rental_uris": {"ios": "https://dc.lft.to/lastmile_qr_scan", "android": "https://dc.lft.to/lastmile_qr_scan"}, "bike_id": "e9fb6bde5d7ddc36142491bfcb1c8c5c", "type": "electric_scooter", "lon": -77.01953233333333, "is_reserved": 0, "fusion_lat": 0.0, "fusion_lon": 0.0}, {"name": "222e70b5b5daa58433baf67e9bc03b4f", "is_disabled": 0, "lat": 38.87739366666667, "rental_uris": {"ios": "https://dc.lft.to/lastmile_qr_scan", "android": "https://dc.lft.to/lastmile_qr_scan"}, "bike_id": "222e70b5b5daa58433baf67e9bc03b4f", "type": "electric_scooter", "lon": -77.00594033333333, "is_reserved": 0, "fusion_lat": 0.0, "fusion_lon": 0.0}, {"name": "4ba2e71611ad0e46a5db6a8a06648493", "is_disabled": 0, "lat": 38.92153183333333, "rental_uris": {"ios": "https://dc.lft.to/lastmile_qr_scan", "android": "https://dc.lft.to/lastmile_qr_scan"}, "bike_id": "4ba2e71611ad0e46a5db6a8a06648493", "type": "electric_scooter", "lon": -76.99354633333333, "is_reserved": 0, "fusion_lat": 0.0, "fusion_lon": 0.0}, {"name": "4b04143a670d13dcfa1f4c9ffd2d5d81", "is_disabled": 0, "lat": 38.88930766666667, "rental_uris": {"ios": "https://dc.lft.to/lastmile_qr_scan", "android": "https://dc.lft.to/lastmile_qr_scan"}, "bike_id": "4b04143a670d13dcfa1f4c9ffd2d5d81", "type": "electric_bike", "lon": -76.99173283333333, "is_reserved": 0, "fusion_lat": 0.0, "fusion_lon": 0.0}, {"name": "5e53a89185b2352bad3445429bfc2881", "is_disabled": 0, "lat": 38.89736, "rental_uris": {"ios": "https://dc.lft.to/lastmile_qr_scan", "android": "https://dc.lft.to/lastmile_qr_scan"}, "bike_id": "5e53a89185b2352bad3445429bfc2881", "type": "electric_scooter", "lon": -77.02687866666666, "is_reserved": 0, "fusion_lat": 0.0, "fusion_lon": 0.0}, {"name": "8fc73efd55df391c2663adbcd225e3b0", "is_disabled": 0, "lat": 38.90065283333333, "rental_uris": {"ios": "https://dc.lft.to/lastmile_qr_scan", "android": "https://dc.lft.to/lastmile_qr_scan"}, "bike_id": "8fc73efd55df391c2663adbcd225e3b0", "type": "electric_scooter", "lon": -76.93385666666667, "is_reserved": 0, "fusion_lat": 0.0, "fusion_lon": 0.0}, {"name": "7af3f83269768f6f8f6b66e8e64f88a0", "is_disabled": 0, "lat": 38.896104666666666, "rental_uris": {"ios": "https://dc.lft.to/lastmile_qr_scan", "android": "https://dc.lft.to/lastmile_qr_scan"}, "bike_id": "7af3f83269768f6f8f6b66e8e64f88a0", "type": "electric_scooter", "lon": -77.01334716666666, "is_reserved": 0, "fusion_lat": 0.0, "fusion_lon": 0.0}, {"name": "dd96bcaa21f9d555bd41e57592e6d877", "is_disabled": 0, "lat": 38.900261, "rental_uris": {"ios": "https://dc.lft.to/lastmile_qr_scan", "android": "https://dc.lft.to/lastmile_qr_scan"}, "bike_id": "dd96bcaa21f9d555bd41e57592e6d877", "type": "electric_scooter", "lon": -76.99623033333333, "is_reserved": 0, "fusion_lat": 0.0, "fusion_lon": 0.0}, {"name": "d17178fca52c3c8e6ee42e5596a71c22", "is_disabled": 0, "lat": 38.90927466666667, "rental_uris": {"ios": "https://dc.lft.to/lastmile_qr_scan", "android": "https://dc.lft.to/lastmile_qr_scan"}, "bike_id": "d17178fca52c3c8e6ee42e5596a71c22", "type": "electric_scooter", "lon": -76.99966483333333, "is_reserved": 0, "fusion_lat": 0.0, "fusion_lon": 0.0}, {"name": "e1dc7ece9798d98b6c4e44d39d32c10b", "is_disabled": 0, "lat": 38.877491666666664, "rental_uris": {"ios": "https://dc.lft.to/lastmile_qr_scan", "android": "https://dc.lft.to/lastmile_qr_scan"}, "bike_id": "e1dc7ece9798d98b6c4e44d39d32c10b", "type": "electric_scooter", "lon": -77.00338483333333, "is_reserved": 0, "fusion_lat": 0.0, "fusion_lon": 0.0}, {"name": "c06bd9e6773ab15b2b9b35ecb17b3157", "is_disabled": 0, "lat": 38.90796816666667, "rental_uris": {"ios": "https://dc.lft.to/lastmile_qr_scan", "android": "https://dc.lft.to/lastmile_qr_scan"}, "bike_id": "c06bd9e6773ab15b2b9b35ecb17b3157", "type": "electric_scooter", "lon": -77.029553, "is_reserved": 0, "fusion_lat": 0.0, "fusion_lon": 0.0}, {"name": "b8760e928d939813b6f1cfd0b1eb2486", "is_disabled": 0, "lat": 38.93857116666667, "rental_uris": {"ios": "https://dc.lft.to/lastmile_qr_scan", "android": "https://dc.lft.to/lastmile_qr_scan"}, "bike_id": "b8760e928d939813b6f1cfd0b1eb2486", "type": "electric_scooter", "lon": -77.02488616666666, "is_reserved": 0, "fusion_lat": 0.0, "fusion_lon": 0.0}, {"name": "03448ac995e0bbd52945efec7a7153d5", "is_disabled": 0, "lat": 38.909745666666666, "rental_uris": {"ios": "https://dc.lft.to/lastmile_qr_scan", "android": "https://dc.lft.to/lastmile_qr_scan"}, "bike_id": "03448ac995e0bbd52945efec7a7153d5", "type": "electric_scooter", "lon": -77.03207666666667, "is_reserved": 0, "fusion_lat": 0.0, "fusion_lon": 0.0}, {"name": "0c3b663840bd2a9d5e12cda1cfc6841b", "is_disabled": 0, "lat": 38.909332166666665, "rental_uris": {"ios": "https://dc.lft.to/lastmile_qr_scan", "android": "https://dc.lft.to/lastmile_qr_scan"}, "bike_id": "0c3b663840bd2a9d5e12cda1cfc6841b", "type": "electric_scooter", "lon": -77.02816633333333, "is_reserved": 0, "fusion_lat": 0.0, "fusion_lon": 0.0}, {"name": "eeeb90db65280b868d28193c1e55fa79", "is_disabled": 0, "lat": 38.9033795, "rental_uris": {"ios": "https://dc.lft.to/lastmile_qr_scan", "android": "https://dc.lft.to/lastmile_qr_scan"}, "bike_id": "eeeb90db65280b868d28193c1e55fa79", "type": "electric_scooter", "lon": -77.04508133333333, "is_reserved": 0, "fusion_lat": 0.0, "fusion_lon": 0.0}, {"name": "42ff5f934e3cf9bcd6cb3889168ede30", "is_disabled": 0, "lat": 38.912574666666664, "rental_uris": {"ios": "https://dc.lft.to/lastmile_qr_scan", "android": "https://dc.lft.to/lastmile_qr_scan"}, "bike_id": "42ff5f934e3cf9bcd6cb3889168ede30", "type": "electric_scooter", "lon": -77.02815466666667, "is_reserved": 0, "fusion_lat": 0.0, "fusion_lon": 0.0}, {"name": "41c4eb9cbab196309882b2276e04cec5", "is_disabled": 0, "lat": 38.923193833333336, "rental_uris": {"ios": "https://dc.lft.to/lastmile_qr_scan", "android": "https://dc.lft.to/lastmile_qr_scan"}, "bike_id": "41c4eb9cbab196309882b2276e04cec5", "type": "electric_scooter", "lon": -77.04022166666667, "is_reserved": 0, "fusion_lat": 0.0, "fusion_lon": 0.0}, {"name": "1b890da0a144a6d033e22533b0356b05", "is_disabled": 0, "lat": 38.917345166666664, "rental_uris": {"ios": "https://dc.lft.to/lastmile_qr_scan", "android": "https://dc.lft.to/lastmile_qr_scan"}, "bike_id": "1b890da0a144a6d033e22533b0356b05", "type": "electric_scooter", "lon": -77.02296366666667, "is_reserved": 0, "fusion_lat": 0.0, "fusion_lon": 0.0}, {"name": "7961d36ced9cad681780b81c2fe2dbee", "is_disabled": 0, "lat": 38.9053695, "rental_uris": {"ios": "https://dc.lft.to/lastmile_qr_scan", "android": "https://dc.lft.to/lastmile_qr_scan"}, "bike_id": "7961d36ced9cad681780b81c2fe2dbee", "type": "electric_bike", "lon": -76.998027, "is_reserved": 0, "fusion_lat": 0.0, "fusion_lon": 0.0}, {"name": "b59c06b731d1f6ef6afb5c3bebbc0ca0", "is_disabled": 0, "lat": 38.89554666666667, "rental_uris": {"ios": "https://dc.lft.to/lastmile_qr_scan", "android": "https://dc.lft.to/lastmile_qr_scan"}, "bike_id": "b59c06b731d1f6ef6afb5c3bebbc0ca0", "type": "electric_scooter", "lon": -76.94874416666667, "is_reserved": 0, "fusion_lat": 0.0, "fusion_lon": 0.0}, {"name": "acd11c0dd2864914251353d7fa8920b6", "is_disabled": 0, "lat": 38.89753783333333, "rental_uris": {"ios": "https://dc.lft.to/lastmile_qr_scan", "android": "https://dc.lft.to/lastmile_qr_scan"}, "bike_id": "acd11c0dd2864914251353d7fa8920b6", "type": "electric_scooter", "lon": -77.04489216666667, "is_reserved": 0, "fusion_lat": 0.0, "fusion_lon": 0.0}, {"name": "8dcdcaeca1bf5a4f33b7f361d658dab0", "is_disabled": 0, "lat": 38.928467833333336, "rental_uris": {"ios": "https://dc.lft.to/lastmile_qr_scan", "android": "https://dc.lft.to/lastmile_qr_scan"}, "bike_id": "8dcdcaeca1bf5a4f33b7f361d658dab0", "type": "electric_bike", "lon": -77.02054283333334, "is_reserved": 0, "fusion_lat": 0.0, "fusion_lon": 0.0}, {"name": "ba0e9eebe9dfdfa61c4f2818d175df1c", "is_disabled": 0, "lat": 38.9058345, "rental_uris": {"ios": "https://dc.lft.to/lastmile_qr_scan", "android": "https://dc.lft.to/lastmile_qr_scan"}, "bike_id": "ba0e9eebe9dfdfa61c4f2818d175df1c", "type": "electric_scooter", "lon": -77.00803016666667, "is_reserved": 0, "fusion_lat": 0.0, "fusion_lon": 0.0}, {"name": "af955449fa16c38d4f7e61157b222d16", "is_disabled": 0, "lat": 38.91494483333334, "rental_uris": {"ios": "https://dc.lft.to/lastmile_qr_scan", "android": "https://dc.lft.to/lastmile_qr_scan"}, "bike_id": "af955449fa16c38d4f7e61157b222d16", "type": "electric_scooter", "lon": -77.04254, "is_reserved": 0, "fusion_lat": 0.0, "fusion_lon": 0.0}, {"name": "3eba61999fde64dadc4603cbf8f151f1", "is_disabled": 0, "lat": 38.93049116666667, "rental_uris": {"ios": "https://dc.lft.to/lastmile_qr_scan", "android": "https://dc.lft.to/lastmile_qr_scan"}, "bike_id": "3eba61999fde64dadc4603cbf8f151f1", "type": "electric_bike", "lon": -77.03896616666667, "is_reserved": 0, "fusion_lat": 0.0, "fusion_lon": 0.0}, {"name": "40952a8574869c90c83f6ed796195f4c", "is_disabled": 0, "lat": 38.92421083333333, "rental_uris": {"ios": "https://dc.lft.to/lastmile_qr_scan", "android": "https://dc.lft.to/lastmile_qr_scan"}, "bike_id": "40952a8574869c90c83f6ed796195f4c", "type": "electric_scooter", "lon": -77.02705733333333, "is_reserved": 0, "fusion_lat": 0.0, "fusion_lon": 0.0}, {"name": "829d1bcb356847796785e8f4814149b1", "is_disabled": 0, "lat": 38.9968705, "rental_uris": {"ios": "https://dc.lft.to/lastmile_qr_scan", "android": "https://dc.lft.to/lastmile_qr_scan"}, "bike_id": "829d1bcb356847796785e8f4814149b1", "type": "electric_bike", "lon": -77.025494, "is_reserved": 0, "fusion_lat": 0.0, "fusion_lon": 0.0}, {"name": "2fcd2a8a25f3c06b5138ae3027f9af65", "is_disabled": 0, "lat": 38.9160265, "rental_uris": {"ios": "https://dc.lft.to/lastmile_qr_scan", "android": "https://dc.lft.to/lastmile_qr_scan"}, "bike_id": "2fcd2a8a25f3c06b5138ae3027f9af65", "type": "electric_scooter", "lon": -77.03229183333333, "is_reserved": 0, "fusion_lat": 0.0, "fusion_lon": 0.0}, {"name": "59cb57f708154b65c96d80266e51d9a7", "is_disabled": 0, "lat": 38.9080885, "rental_uris": {"ios": "https://dc.lft.to/lastmile_qr_scan", "android": "https://dc.lft.to/lastmile_qr_scan"}, "bike_id": "59cb57f708154b65c96d80266e51d9a7", "type": "electric_scooter", "lon": -77.0419835, "is_reserved": 0, "fusion_lat": 0.0, "fusion_lon": 0.0}, {"name": "617e6663f9738f4ed9f33f22f1e5ae1d", "is_disabled": 0, "lat": 38.921413666666666, "rental_uris": {"ios": "https://dc.lft.to/lastmile_qr_scan", "android": "https://dc.lft.to/lastmile_qr_scan"}, "bike_id": "617e6663f9738f4ed9f33f22f1e5ae1d", "type": "electric_scooter", "lon": -77.04349833333333, "is_reserved": 0, "fusion_lat": 0.0, "fusion_lon": 0.0}, {"name": "1e0a1c02d79381cea80ab184fa14b7f0", "is_disabled": 0, "lat": 38.9076055, "rental_uris": {"ios": "https://dc.lft.to/lastmile_qr_scan", "android": "https://dc.lft.to/lastmile_qr_scan"}, "bike_id": "1e0a1c02d79381cea80ab184fa14b7f0", "type": "electric_scooter", "lon": -77.03587216666666, "is_reserved": 0, "fusion_lat": 0.0, "fusion_lon": 0.0}, {"name": "8636e72307db7ed2cab44e63be0f7172", "is_disabled": 0, "lat": 38.912692666666665, "rental_uris": {"ios": "https://dc.lft.to/lastmile_qr_scan", "android": "https://dc.lft.to/lastmile_qr_scan"}, "bike_id": "8636e72307db7ed2cab44e63be0f7172", "type": "electric_scooter", "lon": -77.0403795, "is_reserved": 0, "fusion_lat": 0.0, "fusion_lon": 0.0}, {"name": "eea0282771a5478a03a9bcbb7d0d30bd", "is_disabled": 0, "lat": 38.87670716666667, "rental_uris": {"ios": "https://dc.lft.to/lastmile_qr_scan", "android": "https://dc.lft.to/lastmile_qr_scan"}, "bike_id": "eea0282771a5478a03a9bcbb7d0d30bd", "type": "electric_scooter", "lon": -77.00308566666666, "is_reserved": 0, "fusion_lat": 0.0, "fusion_lon": 0.0}, {"name": "1efcde42122710a062803cd8b4608e78", "is_disabled": 0, "lat": 38.89801516666667, "rental_uris": {"ios": "https://dc.lft.to/lastmile_qr_scan", "android": "https://dc.lft.to/lastmile_qr_scan"}, "bike_id": "1efcde42122710a062803cd8b4608e78", "type": "electric_scooter", "lon": -77.04611616666666, "is_reserved": 0, "fusion_lat": 0.0, "fusion_lon": 0.0}, {"name": "5c7e9d45aa11a2acff80103f82524eb4", "is_disabled": 0, "lat": 38.90014633333333, "rental_uris": {"ios": "https://dc.lft.to/lastmile_qr_scan", "android": "https://dc.lft.to/lastmile_qr_scan"}, "bike_id": "5c7e9d45aa11a2acff80103f82524eb4", "type": "electric_scooter", "lon": -76.99970316666666, "is_reserved": 0, "fusion_lat": 0.0, "fusion_lon": 0.0}, {"name": "83ca691fa454073904d938bb11904657", "is_disabled": 0, "lat": 38.927652, "rental_uris": {"ios": "https://dc.lft.to/lastmile_qr_scan", "android": "https://dc.lft.to/lastmile_qr_scan"}, "bike_id": "83ca691fa454073904d938bb11904657", "type": "electric_scooter", "lon": -77.03242983333334, "is_reserved": 0, "fusion_lat": 0.0, "fusion_lon": 0.0}, {"name": "5d1b8302eb7d20c13ffe8e1f8a436d4c", "is_disabled": 0, "lat": 38.906440333333336, "rental_uris": {"ios": "https://dc.lft.to/lastmile_qr_scan", "android": "https://dc.lft.to/lastmile_qr_scan"}, "bike_id": "5d1b8302eb7d20c13ffe8e1f8a436d4c", "type": "electric_scooter", "lon": -77.0431575, "is_reserved": 0, "fusion_lat": 0.0, "fusion_lon": 0.0}, {"name": "8bed4c938e9351fbf9bf7e34342705d4", "is_disabled": 0, "lat": 38.897481666666664, "rental_uris": {"ios": "https://dc.lft.to/lastmile_qr_scan", "android": "https://dc.lft.to/lastmile_qr_scan"}, "bike_id": "8bed4c938e9351fbf9bf7e34342705d4", "type": "electric_scooter", "lon": -77.03295783333333, "is_reserved": 0, "fusion_lat": 0.0, "fusion_lon": 0.0}, {"name": "37082f5279a032c8b7fa176ab7915a79", "is_disabled": 0, "lat": 38.92099433333333, "rental_uris": {"ios": "https://dc.lft.to/lastmile_qr_scan", "android": "https://dc.lft.to/lastmile_qr_scan"}, "bike_id": "37082f5279a032c8b7fa176ab7915a79", "type": "electric_scooter", "lon": -77.02509883333333, "is_reserved": 0, "fusion_lat": 0.0, "fusion_lon": 0.0}, {"name": "17c7a67425d9c8f9a6cd547513a9696e", "is_disabled": 0, "lat": 38.90961383333333, "rental_uris": {"ios": "https://dc.lft.to/lastmile_qr_scan", "android": "https://dc.lft.to/lastmile_qr_scan"}, "bike_id": "17c7a67425d9c8f9a6cd547513a9696e", "type": "electric_scooter", "lon": -77.034432, "is_reserved": 0, "fusion_lat": 0.0, "fusion_lon": 0.0}, {"name": "a448b3bd4e259c2ea452f7952aeb021a", "is_disabled": 0, "lat": 38.91685866666667, "rental_uris": {"ios": "https://dc.lft.to/lastmile_qr_scan", "android": "https://dc.lft.to/lastmile_qr_scan"}, "bike_id": "a448b3bd4e259c2ea452f7952aeb021a", "type": "electric_scooter", "lon": -77.02303566666667, "is_reserved": 0, "fusion_lat": 0.0, "fusion_lon": 0.0}, {"name": "3ac2c88554b4e4eab45b3da36f655eff", "is_disabled": 0, "lat": 38.961215, "rental_uris": {"ios": "https://dc.lft.to/lastmile_qr_scan", "android": "https://dc.lft.to/lastmile_qr_scan"}, "bike_id": "3ac2c88554b4e4eab45b3da36f655eff", "type": "electric_scooter", "lon": -77.02787133333334, "is_reserved": 0, "fusion_lat": 0.0, "fusion_lon": 0.0}, {"name": "c7026230fb2737f9ff312caa962c1619", "is_disabled": 0, "lat": 38.93331083333333, "rental_uris": {"ios": "https://dc.lft.to/lastmile_qr_scan", "android": "https://dc.lft.to/lastmile_qr_scan"}, "bike_id": "c7026230fb2737f9ff312caa962c1619", "type": "electric_scooter", "lon": -77.03809416666667, "is_reserved": 0, "fusion_lat": 0.0, "fusion_lon": 0.0}, {"name": "bdd048b36659b3c201d1a7e63941d74a", "is_disabled": 0, "lat": 38.924767833333334, "rental_uris": {"ios": "https://dc.lft.to/lastmile_qr_scan", "android": "https://dc.lft.to/lastmile_qr_scan"}, "bike_id": "bdd048b36659b3c201d1a7e63941d74a", "type": "electric_scooter", "lon": -77.03969066666667, "is_reserved": 0, "fusion_lat": 0.0, "fusion_lon": 0.0}, {"name": "7b655956c9736f2b01571045c1f83106", "is_disabled": 0, "lat": 38.90557116666667, "rental_uris": {"ios": "https://dc.lft.to/lastmile_qr_scan", "android": "https://dc.lft.to/lastmile_qr_scan"}, "bike_id": "7b655956c9736f2b01571045c1f83106", "type": "electric_scooter", "lon": -77.0058825, "is_reserved": 0, "fusion_lat": 0.0, "fusion_lon": 0.0}, {"name": "c0e1fd79c26b1b6b83b9ac621f2af01a", "is_disabled": 0, "lat": 38.89222916666667, "rental_uris": {"ios": "https://dc.lft.to/lastmile_qr_scan", "android": "https://dc.lft.to/lastmile_qr_scan"}, "bike_id": "c0e1fd79c26b1b6b83b9ac621f2af01a", "type": "electric_scooter", "lon": -77.04191683333333, "is_reserved": 0, "fusion_lat": 0.0, "fusion_lon": 0.0}, {"name": "8f48ba6468cab49c8e3df28ec93ba0b3", "is_disabled": 0, "lat": 38.907166833333335, "rental_uris": {"ios": "https://dc.lft.to/lastmile_qr_scan", "android": "https://dc.lft.to/lastmile_qr_scan"}, "bike_id": "8f48ba6468cab49c8e3df28ec93ba0b3", "type": "electric_scooter", "lon": -77.049837, "is_reserved": 0, "fusion_lat": 0.0, "fusion_lon": 0.0}, {"name": "0d5ab8ca551b939d49fe62dce39fad4c", "is_disabled": 0, "lat": 38.933625, "rental_uris": {"ios": "https://dc.lft.to/lastmile_qr_scan", "android": "https://dc.lft.to/lastmile_qr_scan"}, "bike_id": "0d5ab8ca551b939d49fe62dce39fad4c", "type": "electric_scooter", "lon": -77.0249115, "is_reserved": 0, "fusion_lat": 0.0, "fusion_lon": 0.0}, {"name": "67059cef37fd4aef5e5461bc0b568a88", "is_disabled": 0, "lat": 38.91811166666667, "rental_uris": {"ios": "https://dc.lft.to/lastmile_qr_scan", "android": "https://dc.lft.to/lastmile_qr_scan"}, "bike_id": "67059cef37fd4aef5e5461bc0b568a88", "type": "electric_scooter", "lon": -77.03174883333334, "is_reserved": 0, "fusion_lat": 0.0, "fusion_lon": 0.0}, {"name": "045ad3cdd6f8a192b44f2d07bc2889d2", "is_disabled": 0, "lat": 38.923261, "rental_uris": {"ios": "https://dc.lft.to/lastmile_qr_scan", "android": "https://dc.lft.to/lastmile_qr_scan"}, "bike_id": "045ad3cdd6f8a192b44f2d07bc2889d2", "type": "electric_scooter", "lon": -77.043469, "is_reserved": 0, "fusion_lat": 0.0, "fusion_lon": 0.0}, {"name": "d4c501d0ad69126073f5cca5d3e2bbe5", "is_disabled": 0, "lat": 38.92152016666667, "rental_uris": {"ios": "https://dc.lft.to/lastmile_qr_scan", "android": "https://dc.lft.to/lastmile_qr_scan"}, "bike_id": "d4c501d0ad69126073f5cca5d3e2bbe5", "type": "electric_scooter", "lon": -77.03431533333334, "is_reserved": 0, "fusion_lat": 0.0, "fusion_lon": 0.0}, {"name": "6fb4efaa097647a32efc1fe83c89392f", "is_disabled": 0, "lat": 38.8872305, "rental_uris": {"ios": "https://dc.lft.to/lastmile_qr_scan", "android": "https://dc.lft.to/lastmile_qr_scan"}, "bike_id": "6fb4efaa097647a32efc1fe83c89392f", "type": "electric_scooter", "lon": -77.025824, "is_reserved": 0, "fusion_lat": 0.0, "fusion_lon": 0.0}, {"name": "5291a86f5082f762cab7ece7b199ba25", "is_disabled": 0, "lat": 38.919298166666664, "rental_uris": {"ios": "https://dc.lft.to/lastmile_qr_scan", "android": "https://dc.lft.to/lastmile_qr_scan"}, "bike_id": "5291a86f5082f762cab7ece7b199ba25", "type": "electric_scooter", "lon": -77.02501116666667, "is_reserved": 0, "fusion_lat": 0.0, "fusion_lon": 0.0}, {"name": "352dd4425b3fa74f108eff9185ad39b9", "is_disabled": 0, "lat": 38.90016, "rental_uris": {"ios": "https://dc.lft.to/lastmile_qr_scan", "android": "https://dc.lft.to/lastmile_qr_scan"}, "bike_id": "352dd4425b3fa74f108eff9185ad39b9", "type": "electric_scooter", "lon": -77.01172916666667, "is_reserved": 0, "fusion_lat": 0.0, "fusion_lon": 0.0}, {"name": "9819fa17270ea2f68fd9571fc6792ce4", "is_disabled": 0, "lat": 38.919139, "rental_uris": {"ios": "https://dc.lft.to/lastmile_qr_scan", "android": "https://dc.lft.to/lastmile_qr_scan"}, "bike_id": "9819fa17270ea2f68fd9571fc6792ce4", "type": "electric_scooter", "lon": -77.027328, "is_reserved": 0, "fusion_lat": 0.0, "fusion_lon": 0.0}, {"name": "2c8a940b2d164b951e6daa7104ba32b7", "is_disabled": 0, "lat": 38.897746833333336, "rental_uris": {"ios": "https://dc.lft.to/lastmile_qr_scan", "android": "https://dc.lft.to/lastmile_qr_scan"}, "bike_id": "2c8a940b2d164b951e6daa7104ba32b7", "type": "electric_scooter", "lon": -76.98462983333333, "is_reserved": 0, "fusion_lat": 0.0, "fusion_lon": 0.0}, {"name": "ccb07d7c1eedf86943c9bd435cfe7065", "is_disabled": 0, "lat": 38.8775195, "rental_uris": {"ios": "https://dc.lft.to/lastmile_qr_scan", "android": "https://dc.lft.to/lastmile_qr_scan"}, "bike_id": "ccb07d7c1eedf86943c9bd435cfe7065", "type": "electric_scooter", "lon": -76.996841, "is_reserved": 0, "fusion_lat": 0.0, "fusion_lon": 0.0}, {"name": "c365072d1124a7b7e1e045f119bd406e", "is_disabled": 0, "lat": 38.8765745, "rental_uris": {"ios": "https://dc.lft.to/lastmile_qr_scan", "android": "https://dc.lft.to/lastmile_qr_scan"}, "bike_id": "c365072d1124a7b7e1e045f119bd406e", "type": "electric_scooter", "lon": -77.0173485, "is_reserved": 0, "fusion_lat": 0.0, "fusion_lon": 0.0}, {"name": "e3aebede7a83b8fb037d2dfa94453138", "is_disabled": 0, "lat": 39.03432816666667, "rental_uris": {"ios": "https://dc.lft.to/lastmile_qr_scan", "android": "https://dc.lft.to/lastmile_qr_scan"}, "bike_id": "e3aebede7a83b8fb037d2dfa94453138", "type": "electric_bike", "lon": -77.04320766666666, "is_reserved": 0, "fusion_lat": 0.0, "fusion_lon": 0.0}, {"name": "5e1a8ca301397b384897d26ad87e93d6", "is_disabled": 0, "lat": 38.9431245, "rental_uris": {"ios": "https://dc.lft.to/lastmile_qr_scan", "android": "https://dc.lft.to/lastmile_qr_scan"}, "bike_id": "5e1a8ca301397b384897d26ad87e93d6", "type": "electric_scooter", "lon": -77.0613305, "is_reserved": 0, "fusion_lat": 0.0, "fusion_lon": 0.0}, {"name": "6ecfb2ec3ebc3f4583f23ff08fdf6a36", "is_disabled": 0, "lat": 38.902772166666665, "rental_uris": {"ios": "https://dc.lft.to/lastmile_qr_scan", "android": "https://dc.lft.to/lastmile_qr_scan"}, "bike_id": "6ecfb2ec3ebc3f4583f23ff08fdf6a36", "type": "electric_scooter", "lon": -77.032603, "is_reserved": 0, "fusion_lat": 0.0, "fusion_lon": 0.0}, {"name": "b1d83e6d84039decece73e9816556797", "is_disabled": 0, "lat": 38.853579833333335, "rental_uris": {"ios": "https://dc.lft.to/lastmile_qr_scan", "android": "https://dc.lft.to/lastmile_qr_scan"}, "bike_id": "b1d83e6d84039decece73e9816556797", "type": "electric_bike", "lon": -77.1149765, "is_reserved": 0, "fusion_lat": 0.0, "fusion_lon": 0.0}, {"name": "853066c3e9a66c6c3fb8be0eb4f581e0", "is_disabled": 0, "lat": 38.933577666666665, "rental_uris": {"ios": "https://dc.lft.to/lastmile_qr_scan", "android": "https://dc.lft.to/lastmile_qr_scan"}, "bike_id": "853066c3e9a66c6c3fb8be0eb4f581e0", "type": "electric_scooter", "lon": -77.0341615, "is_reserved": 0, "fusion_lat": 0.0, "fusion_lon": 0.0}, {"name": "02d6f8e8ad9f2b4196313ca39e62f811", "is_disabled": 0, "lat": 38.87387366666667, "rental_uris": {"ios": "https://dc.lft.to/lastmile_qr_scan", "android": "https://dc.lft.to/lastmile_qr_scan"}, "bike_id": "02d6f8e8ad9f2b4196313ca39e62f811", "type": "electric_scooter", "lon": -77.00044583333333, "is_reserved": 0, "fusion_lat": 0.0, "fusion_lon": 0.0}, {"name": "d83f469cd7576cdcbefa1a0b2420aca3", "is_disabled": 0, "lat": 38.86064566666667, "rental_uris": {"ios": "https://dc.lft.to/lastmile_qr_scan", "android": "https://dc.lft.to/lastmile_qr_scan"}, "bike_id": "d83f469cd7576cdcbefa1a0b2420aca3", "type": "electric_scooter", "lon": -76.96713816666667, "is_reserved": 0, "fusion_lat": 0.0, "fusion_lon": 0.0}, {"name": "7c1dff6fe906211732a4dca5d9a4679b", "is_disabled": 0, "lat": 38.87486783333333, "rental_uris": {"ios": "https://dc.lft.to/lastmile_qr_scan", "android": "https://dc.lft.to/lastmile_qr_scan"}, "bike_id": "7c1dff6fe906211732a4dca5d9a4679b", "type": "electric_scooter", "lon": -77.00603133333334, "is_reserved": 0, "fusion_lat": 0.0, "fusion_lon": 0.0}, {"name": "98c94e3ec0ca79bbf19db89a2e08f687", "is_disabled": 0, "lat": 38.91710116666667, "rental_uris": {"ios": "https://dc.lft.to/lastmile_qr_scan", "android": "https://dc.lft.to/lastmile_qr_scan"}, "bike_id": "98c94e3ec0ca79bbf19db89a2e08f687", "type": "electric_scooter", "lon": -77.03047233333334, "is_reserved": 0, "fusion_lat": 0.0, "fusion_lon": 0.0}, {"name": "3f9005a439a8aebdf9bb87e2f354180d", "is_disabled": 0, "lat": 38.9112765, "rental_uris": {"ios": "https://dc.lft.to/lastmile_qr_scan", "android": "https://dc.lft.to/lastmile_qr_scan"}, "bike_id": "3f9005a439a8aebdf9bb87e2f354180d", "type": "electric_scooter", "lon": -77.02194783333333, "is_reserved": 0, "fusion_lat": 0.0, "fusion_lon": 0.0}, {"name": "29b8f3ee8ca7bfb678ae5fbe9ed036ef", "is_disabled": 0, "lat": 38.91760633333333, "rental_uris": {"ios": "https://dc.lft.to/lastmile_qr_scan", "android": "https://dc.lft.to/lastmile_qr_scan"}, "bike_id": "29b8f3ee8ca7bfb678ae5fbe9ed036ef", "type": "electric_scooter", "lon": -77.02278866666667, "is_reserved": 0, "fusion_lat": 0.0, "fusion_lon": 0.0}, {"name": "f7deae6c394e48b33747aa6d384a1e85", "is_disabled": 0, "lat": 38.9214785, "rental_uris": {"ios": "https://dc.lft.to/lastmile_qr_scan", "android": "https://dc.lft.to/lastmile_qr_scan"}, "bike_id": "f7deae6c394e48b33747aa6d384a1e85", "type": "electric_scooter", "lon": -77.03864116666666, "is_reserved": 0, "fusion_lat": 0.0, "fusion_lon": 0.0}, {"name": "557a22b341c4adc48c2be8f0cd8611e7", "is_disabled": 0, "lat": 38.917100166666664, "rental_uris": {"ios": "https://dc.lft.to/lastmile_qr_scan", "android": "https://dc.lft.to/lastmile_qr_scan"}, "bike_id": "557a22b341c4adc48c2be8f0cd8611e7", "type": "electric_scooter", "lon": -77.03863633333333, "is_reserved": 0, "fusion_lat": 0.0, "fusion_lon": 0.0}, {"name": "47c5d772fb4540aab19240ad578badc4", "is_disabled": 0, "lat": 38.9147205, "rental_uris": {"ios": "https://dc.lft.to/lastmile_qr_scan", "android": "https://dc.lft.to/lastmile_qr_scan"}, "bike_id": "47c5d772fb4540aab19240ad578badc4", "type": "electric_scooter", "lon": -77.038449, "is_reserved": 0, "fusion_lat": 0.0, "fusion_lon": 0.0}, {"name": "52d7fb039fc72cc3c8f4a85e41a21507", "is_disabled": 0, "lat": 38.92443766666667, "rental_uris": {"ios": "https://dc.lft.to/lastmile_qr_scan", "android": "https://dc.lft.to/lastmile_qr_scan"}, "bike_id": "52d7fb039fc72cc3c8f4a85e41a21507", "type": "electric_scooter", "lon": -77.0333035, "is_reserved": 0, "fusion_lat": 0.0, "fusion_lon": 0.0}, {"name": "a87fb9e4b7d916e2e7dbf7221b2c479f", "is_disabled": 0, "lat": 38.905551, "rental_uris": {"ios": "https://dc.lft.to/lastmile_qr_scan", "android": "https://dc.lft.to/lastmile_qr_scan"}, "bike_id": "a87fb9e4b7d916e2e7dbf7221b2c479f", "type": "electric_scooter", "lon": -77.00589083333334, "is_reserved": 0, "fusion_lat": 0.0, "fusion_lon": 0.0}, {"name": "99fab8f2633bc91a8ed25eb60457fad3", "is_disabled": 0, "lat": 38.91927066666667, "rental_uris": {"ios": "https://dc.lft.to/lastmile_qr_scan", "android": "https://dc.lft.to/lastmile_qr_scan"}, "bike_id": "99fab8f2633bc91a8ed25eb60457fad3", "type": "electric_scooter", "lon": -77.03034833333334, "is_reserved": 0, "fusion_lat": 0.0, "fusion_lon": 0.0}, {"name": "badb26bb339121457bc4309716d89e81", "is_disabled": 0, "lat": 38.9140545, "rental_uris": {"ios": "https://dc.lft.to/lastmile_qr_scan", "android": "https://dc.lft.to/lastmile_qr_scan"}, "bike_id": "badb26bb339121457bc4309716d89e81", "type": "electric_scooter", "lon": -77.03224733333333, "is_reserved": 0, "fusion_lat": 0.0, "fusion_lon": 0.0}, {"name": "d330f079dc000faf8f8c11da529055f8", "is_disabled": 0, "lat": 38.90731316666667, "rental_uris": {"ios": "https://dc.lft.to/lastmile_qr_scan", "android": "https://dc.lft.to/lastmile_qr_scan"}, "bike_id": "d330f079dc000faf8f8c11da529055f8", "type": "electric_scooter", "lon": -77.04158383333333, "is_reserved": 0, "fusion_lat": 0.0, "fusion_lon": 0.0}, {"name": "7a4f3488a0724b80f34ed57ba96db268", "is_disabled": 0, "lat": 38.90034283333333, "rental_uris": {"ios": "https://dc.lft.to/lastmile_qr_scan", "android": "https://dc.lft.to/lastmile_qr_scan"}, "bike_id": "7a4f3488a0724b80f34ed57ba96db268", "type": "electric_scooter", "lon": -77.03491416666667, "is_reserved": 0, "fusion_lat": 0.0, "fusion_lon": 0.0}, {"name": "7535f412d4bc43a212e4154e307ea631", "is_disabled": 0, "lat": 38.879103, "rental_uris": {"ios": "https://dc.lft.to/lastmile_qr_scan", "android": "https://dc.lft.to/lastmile_qr_scan"}, "bike_id": "7535f412d4bc43a212e4154e307ea631", "type": "electric_scooter", "lon": -77.005612, "is_reserved": 0, "fusion_lat": 0.0, "fusion_lon": 0.0}, {"name": "fc6d72a334cd163fc88c4aa6ff8180a1", "is_disabled": 0, "lat": 38.903781333333335, "rental_uris": {"ios": "https://dc.lft.to/lastmile_qr_scan", "android": "https://dc.lft.to/lastmile_qr_scan"}, "bike_id": "fc6d72a334cd163fc88c4aa6ff8180a1", "type": "electric_scooter", "lon": -77.04303383333334, "is_reserved": 0, "fusion_lat": 0.0, "fusion_lon": 0.0}, {"name": "3c80ce7c6706c65a9a46ed345279aaa8", "is_disabled": 0, "lat": 38.88754333333333, "rental_uris": {"ios": "https://dc.lft.to/lastmile_qr_scan", "android": "https://dc.lft.to/lastmile_qr_scan"}, "bike_id": "3c80ce7c6706c65a9a46ed345279aaa8", "type": "electric_scooter", "lon": -76.99603133333333, "is_reserved": 0, "fusion_lat": 0.0, "fusion_lon": 0.0}, {"name": "0084f380d59e90d544b583faa77629bd", "is_disabled": 0, "lat": 38.92079233333333, "rental_uris": {"ios": "https://dc.lft.to/lastmile_qr_scan", "android": "https://dc.lft.to/lastmile_qr_scan"}, "bike_id": "0084f380d59e90d544b583faa77629bd", "type": "electric_scooter", "lon": -77.02220716666666, "is_reserved": 0, "fusion_lat": 0.0, "fusion_lon": 0.0}, {"name": "e79bda77fb5ee9501bccbcfbdee647d8", "is_disabled": 0, "lat": 38.91674183333333, "rental_uris": {"ios": "https://dc.lft.to/lastmile_qr_scan", "android": "https://dc.lft.to/lastmile_qr_scan"}, "bike_id": "e79bda77fb5ee9501bccbcfbdee647d8", "type": "electric_scooter", "lon": -77.02389416666666, "is_reserved": 0, "fusion_lat": 0.0, "fusion_lon": 0.0}, {"name": "613c5ea294f93ddf5575810be47e7ea6", "is_disabled": 0, "lat": 38.93046966666667, "rental_uris": {"ios": "https://dc.lft.to/lastmile_qr_scan", "android": "https://dc.lft.to/lastmile_qr_scan"}, "bike_id": "613c5ea294f93ddf5575810be47e7ea6", "type": "electric_scooter", "lon": -77.0327145, "is_reserved": 0, "fusion_lat": 0.0, "fusion_lon": 0.0}, {"name": "e25fdfc0e3438de6c07b25d44b22420b", "is_disabled": 0, "lat": 38.88734266666667, "rental_uris": {"ios": "https://dc.lft.to/lastmile_qr_scan", "android": "https://dc.lft.to/lastmile_qr_scan"}, "bike_id": "e25fdfc0e3438de6c07b25d44b22420b", "type": "electric_scooter", "lon": -77.02383983333333, "is_reserved": 0, "fusion_lat": 0.0, "fusion_lon": 0.0}, {"name": "291ff59cdfba021fb65dbe0acd0ef3fa", "is_disabled": 0, "lat": 38.90965516666667, "rental_uris": {"ios": "https://dc.lft.to/lastmile_qr_scan", "android": "https://dc.lft.to/lastmile_qr_scan"}, "bike_id": "291ff59cdfba021fb65dbe0acd0ef3fa", "type": "electric_scooter", "lon": -77.0144315, "is_reserved": 0, "fusion_lat": 0.0, "fusion_lon": 0.0}, {"name": "db6936646713f2e6e42d2f9e5422d821", "is_disabled": 0, "lat": 38.90540266666667, "rental_uris": {"ios": "https://dc.lft.to/lastmile_qr_scan", "android": "https://dc.lft.to/lastmile_qr_scan"}, "bike_id": "db6936646713f2e6e42d2f9e5422d821", "type": "electric_scooter", "lon": -77.04957983333334, "is_reserved": 0, "fusion_lat": 0.0, "fusion_lon": 0.0}, {"name": "4df54519e42db41bffee521f4dec3c9d", "is_disabled": 0, "lat": 38.9179975, "rental_uris": {"ios": "https://dc.lft.to/lastmile_qr_scan", "android": "https://dc.lft.to/lastmile_qr_scan"}, "bike_id": "4df54519e42db41bffee521f4dec3c9d", "type": "electric_scooter", "lon": -77.02705666666667, "is_reserved": 0, "fusion_lat": 0.0, "fusion_lon": 0.0}, {"name": "3635358bcafc75d6ee9089dc78b34ec1", "is_disabled": 0, "lat": 38.902659166666666, "rental_uris": {"ios": "https://dc.lft.to/lastmile_qr_scan", "android": "https://dc.lft.to/lastmile_qr_scan"}, "bike_id": "3635358bcafc75d6ee9089dc78b34ec1", "type": "electric_scooter", "lon": -77.05314016666667, "is_reserved": 0, "fusion_lat": 0.0, "fusion_lon": 0.0}, {"name": "2eb520cece10ced061a1225f494d3422", "is_disabled": 0, "lat": 38.89310783333333, "rental_uris": {"ios": "https://dc.lft.to/lastmile_qr_scan", "android": "https://dc.lft.to/lastmile_qr_scan"}, "bike_id": "2eb520cece10ced061a1225f494d3422", "type": "electric_bike", "lon": -76.95089333333334, "is_reserved": 0, "fusion_lat": 0.0, "fusion_lon": 0.0}, {"name": "17135d420367a4ce6e95fe4f3f5543e0", "is_disabled": 0, "lat": 38.909690499999996, "rental_uris": {"ios": "https://dc.lft.to/lastmile_qr_scan", "android": "https://dc.lft.to/lastmile_qr_scan"}, "bike_id": "17135d420367a4ce6e95fe4f3f5543e0", "type": "electric_scooter", "lon": -77.04025416666667, "is_reserved": 0, "fusion_lat": 0.0, "fusion_lon": 0.0}, {"name": "59af3049c917426e7056a079dcecf8db", "is_disabled": 0, "lat": 38.925924333333334, "rental_uris": {"ios": "https://dc.lft.to/lastmile_qr_scan", "android": "https://dc.lft.to/lastmile_qr_scan"}, "bike_id": "59af3049c917426e7056a079dcecf8db", "type": "electric_bike", "lon": -77.2100485, "is_reserved": 0, "fusion_lat": 0.0, "fusion_lon": 0.0}, {"name": "5b36c72e2f361da436a6c99a0abbaa49", "is_disabled": 0, "lat": 38.8449655, "rental_uris": {"ios": "https://dc.lft.to/lastmile_qr_scan", "android": "https://dc.lft.to/lastmile_qr_scan"}, "bike_id": "5b36c72e2f361da436a6c99a0abbaa49", "type": "electric_scooter", "lon": -76.99596516666666, "is_reserved": 0, "fusion_lat": 0.0, "fusion_lon": 0.0}, {"name": "18b60dda685dc7a5bc3ca69631f9fb76", "is_disabled": 0, "lat": 38.873971166666664, "rental_uris": {"ios": "https://dc.lft.to/lastmile_qr_scan", "android": "https://dc.lft.to/lastmile_qr_scan"}, "bike_id": "18b60dda685dc7a5bc3ca69631f9fb76", "type": "electric_scooter", "lon": -77.01450516666667, "is_reserved": 0, "fusion_lat": 0.0, "fusion_lon": 0.0}, {"name": "4046253be1aee63f72bc0a0c8b3faf23", "is_disabled": 0, "lat": 38.88769933333333, "rental_uris": {"ios": "https://dc.lft.to/lastmile_qr_scan", "android": "https://dc.lft.to/lastmile_qr_scan"}, "bike_id": "4046253be1aee63f72bc0a0c8b3faf23", "type": "electric_scooter", "lon": -77.01303916666667, "is_reserved": 0, "fusion_lat": 0.0, "fusion_lon": 0.0}, {"name": "5e4f0d374ea8ee15efc62544b128fdd2", "is_disabled": 0, "lat": 38.87965283333333, "rental_uris": {"ios": "https://dc.lft.to/lastmile_qr_scan", "android": "https://dc.lft.to/lastmile_qr_scan"}, "bike_id": "5e4f0d374ea8ee15efc62544b128fdd2", "type": "electric_scooter", "lon": -76.98533383333333, "is_reserved": 0, "fusion_lat": 0.0, "fusion_lon": 0.0}, {"name": "f9201bdd0524e65de546dfc6f905dce4", "is_disabled": 0, "lat": 38.900264166666666, "rental_uris": {"ios": "https://dc.lft.to/lastmile_qr_scan", "android": "https://dc.lft.to/lastmile_qr_scan"}, "bike_id": "f9201bdd0524e65de546dfc6f905dce4", "type": "electric_scooter", "lon": -76.99965266666666, "is_reserved": 0, "fusion_lat": 0.0, "fusion_lon": 0.0}, {"name": "7c1f7c652b6f09164041527369a06469", "is_disabled": 0, "lat": 38.90576266666667, "rental_uris": {"ios": "https://dc.lft.to/lastmile_qr_scan", "android": "https://dc.lft.to/lastmile_qr_scan"}, "bike_id": "7c1f7c652b6f09164041527369a06469", "type": "electric_scooter", "lon": -77.00525633333334, "is_reserved": 0, "fusion_lat": 0.0, "fusion_lon": 0.0}, {"name": "d5d1d32bbfb5b1333b28112347b11441", "is_disabled": 0, "lat": 38.9269145, "rental_uris": {"ios": "https://dc.lft.to/lastmile_qr_scan", "android": "https://dc.lft.to/lastmile_qr_scan"}, "bike_id": "d5d1d32bbfb5b1333b28112347b11441", "type": "electric_scooter", "lon": -77.021844, "is_reserved": 0, "fusion_lat": 0.0, "fusion_lon": 0.0}, {"name": "35b2a3d31fb2928f95e6bbc7476c253a", "is_disabled": 0, "lat": 38.9085675, "rental_uris": {"ios": "https://dc.lft.to/lastmile_qr_scan", "android": "https://dc.lft.to/lastmile_qr_scan"}, "bike_id": "35b2a3d31fb2928f95e6bbc7476c253a", "type": "electric_scooter", "lon": -77.0271315, "is_reserved": 0, "fusion_lat": 0.0, "fusion_lon": 0.0}, {"name": "6491eb69060bf09da25d0d002ba3949b", "is_disabled": 0, "lat": 38.9111335, "rental_uris": {"ios": "https://dc.lft.to/lastmile_qr_scan", "android": "https://dc.lft.to/lastmile_qr_scan"}, "bike_id": "6491eb69060bf09da25d0d002ba3949b", "type": "electric_scooter", "lon": -77.04537116666667, "is_reserved": 0, "fusion_lat": 0.0, "fusion_lon": 0.0}, {"name": "db864da8046444bd37dee345cc4688f8", "is_disabled": 0, "lat": 38.92963866666667, "rental_uris": {"ios": "https://dc.lft.to/lastmile_qr_scan", "android": "https://dc.lft.to/lastmile_qr_scan"}, "bike_id": "db864da8046444bd37dee345cc4688f8", "type": "electric_scooter", "lon": -77.01145933333333, "is_reserved": 0, "fusion_lat": 0.0, "fusion_lon": 0.0}, {"name": "9855a3c51b05490645c9c364284a5e2b", "is_disabled": 0, "lat": 38.899515, "rental_uris": {"ios": "https://dc.lft.to/lastmile_qr_scan", "android": "https://dc.lft.to/lastmile_qr_scan"}, "bike_id": "9855a3c51b05490645c9c364284a5e2b", "type": "electric_scooter", "lon": -77.021829, "is_reserved": 0, "fusion_lat": 0.0, "fusion_lon": 0.0}, {"name": "3af86be1bb8ca9c37fdd91df4ceadb15", "is_disabled": 0, "lat": 38.922518833333335, "rental_uris": {"ios": "https://dc.lft.to/lastmile_qr_scan", "android": "https://dc.lft.to/lastmile_qr_scan"}, "bike_id": "3af86be1bb8ca9c37fdd91df4ceadb15", "type": "electric_scooter", "lon": -77.04250166666667, "is_reserved": 0, "fusion_lat": 0.0, "fusion_lon": 0.0}, {"name": "8f3db44a66791b6d3eb3eddf3fee44cd", "is_disabled": 0, "lat": 38.892145666666664, "rental_uris": {"ios": "https://dc.lft.to/lastmile_qr_scan", "android": "https://dc.lft.to/lastmile_qr_scan"}, "bike_id": "8f3db44a66791b6d3eb3eddf3fee44cd", "type": "electric_scooter", "lon": -77.0265655, "is_reserved": 0, "fusion_lat": 0.0, "fusion_lon": 0.0}, {"name": "dde1b50d8621eaafc9325c7c5d18f6c8", "is_disabled": 0, "lat": 38.88434383333333, "rental_uris": {"ios": "https://dc.lft.to/lastmile_qr_scan", "android": "https://dc.lft.to/lastmile_qr_scan"}, "bike_id": "dde1b50d8621eaafc9325c7c5d18f6c8", "type": "electric_scooter", "lon": -77.00709483333333, "is_reserved": 0, "fusion_lat": 0.0, "fusion_lon": 0.0}, {"name": "82a64d4709641baf050b19f95bd4a888", "is_disabled": 0, "lat": 38.90878766666667, "rental_uris": {"ios": "https://dc.lft.to/lastmile_qr_scan", "android": "https://dc.lft.to/lastmile_qr_scan"}, "bike_id": "82a64d4709641baf050b19f95bd4a888", "type": "electric_scooter", "lon": -77.04339983333334, "is_reserved": 0, "fusion_lat": 0.0, "fusion_lon": 0.0}, {"name": "ee9a3935396db21a410507f692fce377", "is_disabled": 0, "lat": 38.82802866666667, "rental_uris": {"ios": "https://dc.lft.to/lastmile_qr_scan", "android": "https://dc.lft.to/lastmile_qr_scan"}, "bike_id": "ee9a3935396db21a410507f692fce377", "type": "electric_bike", "lon": -77.12495966666667, "is_reserved": 0, "fusion_lat": 0.0, "fusion_lon": 0.0}, {"name": "e2e31a4c615465a04760a0c26d4c793d", "is_disabled": 0, "lat": 38.9396475, "rental_uris": {"ios": "https://dc.lft.to/lastmile_qr_scan", "android": "https://dc.lft.to/lastmile_qr_scan"}, "bike_id": "e2e31a4c615465a04760a0c26d4c793d", "type": "electric_scooter", "lon": -77.03292616666667, "is_reserved": 0, "fusion_lat": 0.0, "fusion_lon": 0.0}, {"name": "f8d31de9d6a9d01e67451642cac2f10a", "is_disabled": 0, "lat": 38.921398833333335, "rental_uris": {"ios": "https://dc.lft.to/lastmile_qr_scan", "android": "https://dc.lft.to/lastmile_qr_scan"}, "bike_id": "f8d31de9d6a9d01e67451642cac2f10a", "type": "electric_scooter", "lon": -77.01217333333334, "is_reserved": 0, "fusion_lat": 0.0, "fusion_lon": 0.0}, {"name": "d5167da932f92e72576923a63c7a834d", "is_disabled": 0, "lat": 38.917773333333336, "rental_uris": {"ios": "https://dc.lft.to/lastmile_qr_scan", "android": "https://dc.lft.to/lastmile_qr_scan"}, "bike_id": "d5167da932f92e72576923a63c7a834d", "type": "electric_scooter", "lon": -77.03851516666667, "is_reserved": 0, "fusion_lat": 0.0, "fusion_lon": 0.0}, {"name": "8130813a1986c8ff3f9fd63aeb7b495f", "is_disabled": 0, "lat": 38.9327815, "rental_uris": {"ios": "https://dc.lft.to/lastmile_qr_scan", "android": "https://dc.lft.to/lastmile_qr_scan"}, "bike_id": "8130813a1986c8ff3f9fd63aeb7b495f", "type": "electric_scooter", "lon": -77.0287015, "is_reserved": 0, "fusion_lat": 0.0, "fusion_lon": 0.0}, {"name": "159643f1437c174f57d5e31869c53208", "is_disabled": 0, "lat": 38.901989, "rental_uris": {"ios": "https://dc.lft.to/lastmile_qr_scan", "android": "https://dc.lft.to/lastmile_qr_scan"}, "bike_id": "159643f1437c174f57d5e31869c53208", "type": "electric_scooter", "lon": -77.02373466666667, "is_reserved": 0, "fusion_lat": 0.0, "fusion_lon": 0.0}, {"name": "fa5594dae18138bb5d15ee52b6201576", "is_disabled": 0, "lat": 38.9007625, "rental_uris": {"ios": "https://dc.lft.to/lastmile_qr_scan", "android": "https://dc.lft.to/lastmile_qr_scan"}, "bike_id": "fa5594dae18138bb5d15ee52b6201576", "type": "electric_scooter", "lon": -77.04907483333334, "is_reserved": 0, "fusion_lat": 0.0, "fusion_lon": 0.0}, {"name": "9dce5c557913398418302070d85a7c7d", "is_disabled": 0, "lat": 38.9195605, "rental_uris": {"ios": "https://dc.lft.to/lastmile_qr_scan", "android": "https://dc.lft.to/lastmile_qr_scan"}, "bike_id": "9dce5c557913398418302070d85a7c7d", "type": "electric_scooter", "lon": -77.02389183333334, "is_reserved": 0, "fusion_lat": 0.0, "fusion_lon": 0.0}, {"name": "6cce0b1c18515f023299123c20bed7be", "is_disabled": 0, "lat": 38.92413916666667, "rental_uris": {"ios": "https://dc.lft.to/lastmile_qr_scan", "android": "https://dc.lft.to/lastmile_qr_scan"}, "bike_id": "6cce0b1c18515f023299123c20bed7be", "type": "electric_scooter", "lon": -77.03638783333334, "is_reserved": 0, "fusion_lat": 0.0, "fusion_lon": 0.0}, {"name": "87776c6e4cd828afaedf006e8ec5f4b2", "is_disabled": 0, "lat": 38.923210833333336, "rental_uris": {"ios": "https://dc.lft.to/lastmile_qr_scan", "android": "https://dc.lft.to/lastmile_qr_scan"}, "bike_id": "87776c6e4cd828afaedf006e8ec5f4b2", "type": "electric_scooter", "lon": -77.04042066666666, "is_reserved": 0, "fusion_lat": 0.0, "fusion_lon": 0.0}, {"name": "38801ca71ce38a112ca6943c074c3a79", "is_disabled": 0, "lat": 39.010756, "rental_uris": {"ios": "https://dc.lft.to/lastmile_qr_scan", "android": "https://dc.lft.to/lastmile_qr_scan"}, "bike_id": "38801ca71ce38a112ca6943c074c3a79", "type": "electric_bike", "lon": -76.9106635, "is_reserved": 0, "fusion_lat": 0.0, "fusion_lon": 0.0}, {"name": "9c0a766997a1fd0a3199f75cc377c40f", "is_disabled": 0, "lat": 38.8922495, "rental_uris": {"ios": "https://dc.lft.to/lastmile_qr_scan", "android": "https://dc.lft.to/lastmile_qr_scan"}, "bike_id": "9c0a766997a1fd0a3199f75cc377c40f", "type": "electric_scooter", "lon": -77.04503183333334, "is_reserved": 0, "fusion_lat": 0.0, "fusion_lon": 0.0}, {"name": "7c5d8752c73d248b8f5bdc48371cdfe9", "is_disabled": 0, "lat": 38.9170275, "rental_uris": {"ios": "https://dc.lft.to/lastmile_qr_scan", "android": "https://dc.lft.to/lastmile_qr_scan"}, "bike_id": "7c5d8752c73d248b8f5bdc48371cdfe9", "type": "electric_scooter", "lon": -77.024325, "is_reserved": 0, "fusion_lat": 0.0, "fusion_lon": 0.0}, {"name": "bbcdf69465ef57c182bd8a9be9c0b92c", "is_disabled": 0, "lat": 38.8789665, "rental_uris": {"ios": "https://dc.lft.to/lastmile_qr_scan", "android": "https://dc.lft.to/lastmile_qr_scan"}, "bike_id": "bbcdf69465ef57c182bd8a9be9c0b92c", "type": "electric_scooter", "lon": -77.00558333333333, "is_reserved": 0, "fusion_lat": 0.0, "fusion_lon": 0.0}, {"name": "8731c20b72b11ff4fa2fd68bf5aff1ee", "is_disabled": 0, "lat": 38.90617533333333, "rental_uris": {"ios": "https://dc.lft.to/lastmile_qr_scan", "android": "https://dc.lft.to/lastmile_qr_scan"}, "bike_id": "8731c20b72b11ff4fa2fd68bf5aff1ee", "type": "electric_scooter", "lon": -77.01491316666667, "is_reserved": 0, "fusion_lat": 0.0, "fusion_lon": 0.0}, {"name": "8e0589cc77e196cdca59578f94810d8b", "is_disabled": 0, "lat": 38.8876325, "rental_uris": {"ios": "https://dc.lft.to/lastmile_qr_scan", "android": "https://dc.lft.to/lastmile_qr_scan"}, "bike_id": "8e0589cc77e196cdca59578f94810d8b", "type": "electric_scooter", "lon": -77.02940783333334, "is_reserved": 0, "fusion_lat": 0.0, "fusion_lon": 0.0}, {"name": "4227fefaf3f2990de160e2f654146c2a", "is_disabled": 0, "lat": 38.919593, "rental_uris": {"ios": "https://dc.lft.to/lastmile_qr_scan", "android": "https://dc.lft.to/lastmile_qr_scan"}, "bike_id": "4227fefaf3f2990de160e2f654146c2a", "type": "electric_scooter", "lon": -77.023923, "is_reserved": 0, "fusion_lat": 0.0, "fusion_lon": 0.0}, {"name": "821b7bf27f07c8785bf0629ecd2e9d61", "is_disabled": 0, "lat": 38.918078, "rental_uris": {"ios": "https://dc.lft.to/lastmile_qr_scan", "android": "https://dc.lft.to/lastmile_qr_scan"}, "bike_id": "821b7bf27f07c8785bf0629ecd2e9d61", "type": "electric_scooter", "lon": -77.03437483333333, "is_reserved": 0, "fusion_lat": 0.0, "fusion_lon": 0.0}, {"name": "1aab5061547eccf69a06643525e043f4", "is_disabled": 0, "lat": 38.87554883333333, "rental_uris": {"ios": "https://dc.lft.to/lastmile_qr_scan", "android": "https://dc.lft.to/lastmile_qr_scan"}, "bike_id": "1aab5061547eccf69a06643525e043f4", "type": "electric_scooter", "lon": -77.00606, "is_reserved": 0, "fusion_lat": 0.0, "fusion_lon": 0.0}, {"name": "de3484d82a7482dae83bfa4ef84e8403", "is_disabled": 0, "lat": 38.90977783333334, "rental_uris": {"ios": "https://dc.lft.to/lastmile_qr_scan", "android": "https://dc.lft.to/lastmile_qr_scan"},