{"data": {"bikes": [{"is_disabled": 0, "fusion_lon": 0.0, "fusion_lat": 0.0, "lat": 38.92376266666667, "type": "electric_scooter", "lon": -77.03132616666667, "bike_id": "5a1a297d79c91ed42c4da593d58d0906", "rental_uris": {"android": "https://dc.lft.to/lastmile_qr_scan", "ios": "https://dc.lft.to/lastmile_qr_scan"}, "name": "5a1a297d79c91ed42c4da593d58d0906", "is_reserved": 0}, {"is_disabled": 0, "fusion_lon": 0.0, "fusion_lat": 0.0, "lat": 38.909410333333334, "type": "electric_scooter", "lon": -77.03207933333333, "bike_id": "711b5b2e6eaf324bf7fda62c175befd7", "rental_uris": {"android": "https://dc.lft.to/lastmile_qr_scan", "ios": "https://dc.lft.to/lastmile_qr_scan"}, "name": "711b5b2e6eaf324bf7fda62c175befd7", "is_reserved": 0}, {"is_disabled": 0, "fusion_lon": 0.0, "fusion_lat": 0.0, "lat": 38.925516333333334, "type": "electric_scooter", "lon": -77.03301666666667, "bike_id": "ead99eb25ffbad1bc0d7e235677e81c1", "rental_uris": {"android": "https://dc.lft.to/lastmile_qr_scan", "ios": "https://dc.lft.to/lastmile_qr_scan"}, "name": "ead99eb25ffbad1bc0d7e235677e81c1", "is_reserved": 0}, {"is_disabled": 0, "fusion_lon": 0.0, "fusion_lat": 0.0, "lat": 38.893685, "type": "electric_scooter", "lon": -76.95000333333333, "bike_id": "c945555b80aaa3bdfe1446cd801910f3", "rental_uris": {"android": "https://dc.lft.to/lastmile_qr_scan", "ios": "https://dc.lft.to/lastmile_qr_scan"}, "name": "c945555b80aaa3bdfe1446cd801910f3", "is_reserved": 0}, {"is_disabled": 0, "fusion_lon": 0.0, "fusion_lat": 0.0, "lat": 38.93635033333333, "type": "electric_scooter", "lon": -77.0326705, "bike_id": "6f3d6e940e06093968e46a12b4b80538", "rental_uris": {"android": "https://dc.lft.to/lastmile_qr_scan", "ios": "https://dc.lft.to/lastmile_qr_scan"}, "name": "6f3d6e940e06093968e46a12b4b80538", "is_reserved": 0}, {"is_disabled": 0, "fusion_lon": 0.0, "fusion_lat": 0.0, "lat": 38.88761983333333, "type": "electric_bike", "lon": -76.90082583333333, "bike_id": "66e3677dfa9fdf50f19706a0cf421fda", "rental_uris": {"android": "https://dc.lft.to/lastmile_qr_scan", "ios": "https://dc.lft.to/lastmile_qr_scan"}, "name": "66e3677dfa9fdf50f19706a0cf421fda", "is_reserved": 0}, {"is_disabled": 0, "fusion_lon": 0.0, "fusion_lat": 0.0, "lat": 38.92442166666667, "type": "electric_scooter", "lon": -77.04030066666667, "bike_id": "3686232a06e18bcdbdc1c6dcd976b0b2", "rental_uris": {"android": "https://dc.lft.to/lastmile_qr_scan", "ios": "https://dc.lft.to/lastmile_qr_scan"}, "name": "3686232a06e18bcdbdc1c6dcd976b0b2", "is_reserved": 0}, {"is_disabled": 0, "fusion_lon": 0.0, "fusion_lat": 0.0, "lat": 39.105653833333335, "type": "electric_bike", "lon": -77.1526925, "bike_id": "836d2869cfad97a17bebc07ec3e589ba", "rental_uris": {"android": "https://dc.lft.to/lastmile_qr_scan", "ios": "https://dc.lft.to/lastmile_qr_scan"}, "name": "836d2869cfad97a17bebc07ec3e589ba", "is_reserved": 0}, {"is_disabled": 0, "fusion_lon": 0.0, "fusion_lat": 0.0, "lat": 38.90416966666667, "type": "electric_scooter", "lon": -77.02589366666666, "bike_id": "dd5eaf7a11c94d56b4d4644c5dc75a15", "rental_uris": {"android": "https://dc.lft.to/lastmile_qr_scan", "ios": "https://dc.lft.to/lastmile_qr_scan"}, "name": "dd5eaf7a11c94d56b4d4644c5dc75a15", "is_reserved": 0}, {"is_disabled": 0, "fusion_lon": 0.0, "fusion_lat": 0.0, "lat": 38.924471833333335, "type": "electric_bike", "lon": -76.96835433333334, "bike_id": "8574831f321a327562765199623177ff", "rental_uris": {"android": "https://dc.lft.to/lastmile_qr_scan", "ios": "https://dc.lft.to/lastmile_qr_scan"}, "name": "8574831f321a327562765199623177ff", "is_reserved": 0}, {"is_disabled": 0, "fusion_lon": 0.0, "fusion_lat": 0.0, "lat": 38.90032433333333, "type": "electric_scooter", "lon": -77.0019895, "bike_id": "4ab0952afbea3fd6b7e406c02fb73d5e", "rental_uris": {"android": "https://dc.lft.to/lastmile_qr_scan", "ios": "https://dc.lft.to/lastmile_qr_scan"}, "name": "4ab0952afbea3fd6b7e406c02fb73d5e", "is_reserved": 0}, {"is_disabled": 0, "fusion_lon": 0.0, "fusion_lat": 0.0, "lat": 38.90725316666666, "type": "electric_scooter", "lon": -77.0319535, "bike_id": "8ccccb7f198c33c1956a9b4c9e6f47ca", "rental_uris": {"android": "https://dc.lft.to/lastmile_qr_scan", "ios": "https://dc.lft.to/lastmile_qr_scan"}, "name": "8ccccb7f198c33c1956a9b4c9e6f47ca", "is_reserved": 0}, {"is_disabled": 0, "fusion_lon": 0.0, "fusion_lat": 0.0, "lat": 38.82873633333333, "type": "electric_bike", "lon": -77.11223516666666, "bike_id": "cb71d6f6985de8e67ca25d6f3ec9652a", "rental_uris": {"android": "https://dc.lft.to/lastmile_qr_scan", "ios": "https://dc.lft.to/lastmile_qr_scan"}, "name": "cb71d6f6985de8e67ca25d6f3ec9652a", "is_reserved": 0}, {"is_disabled": 0, "fusion_lon": 0.0, "fusion_lat": 0.0, "lat": 38.902513166666665, "type": "electric_scooter", "lon": -77.03437383333333, "bike_id": "218301aeed51c551ea6427b0a1365633", "rental_uris": {"android": "https://dc.lft.to/lastmile_qr_scan", "ios": "https://dc.lft.to/lastmile_qr_scan"}, "name": "218301aeed51c551ea6427b0a1365633", "is_reserved": 0}, {"is_disabled": 0, "fusion_lon": 0.0, "fusion_lat": 0.0, "lat": 38.91342483333333, "type": "electric_scooter", "lon": -77.04864416666666, "bike_id": "bcce2b85eaa11b38afd2c2bbf7ef2897", "rental_uris": {"android": "https://dc.lft.to/lastmile_qr_scan", "ios": "https://dc.lft.to/lastmile_qr_scan"}, "name": "bcce2b85eaa11b38afd2c2bbf7ef2897", "is_reserved": 0}, {"is_disabled": 0, "fusion_lon": 0.0, "fusion_lat": 0.0, "lat": 38.83322533333333, "type": "electric_scooter", "lon": -77.0000775, "bike_id": "c223ede002ee95810e747c3cc665cb05", "rental_uris": {"android": "https://dc.lft.to/lastmile_qr_scan", "ios": "https://dc.lft.to/lastmile_qr_scan"}, "name": "c223ede002ee95810e747c3cc665cb05", "is_reserved": 0}, {"is_disabled": 0, "fusion_lon": 0.0, "fusion_lat": 0.0, "lat": 38.92591016666667, "type": "electric_scooter", "lon": -77.05533283333334, "bike_id": "9e755da755d196176964593ede72269e", "rental_uris": {"android": "https://dc.lft.to/lastmile_qr_scan", "ios": "https://dc.lft.to/lastmile_qr_scan"}, "name": "9e755da755d196176964593ede72269e", "is_reserved": 0}, {"is_disabled": 0, "fusion_lon": 0.0, "fusion_lat": 0.0, "lat": 38.876556, "type": "electric_scooter", "lon": -77.00399716666666, "bike_id": "f2512cb4dab43aa642a1e45f8f24bc29", "rental_uris": {"android": "https://dc.lft.to/lastmile_qr_scan", "ios": "https://dc.lft.to/lastmile_qr_scan"}, "name": "f2512cb4dab43aa642a1e45f8f24bc29", "is_reserved": 0}, {"is_disabled": 0, "fusion_lon": 0.0, "fusion_lat": 0.0, "lat": 38.8319265, "type": "electric_bike", "lon": -77.07685716666667, "bike_id": "2077825efa72d71e281e82fc1d23025b", "rental_uris": {"android": "https://dc.lft.to/lastmile_qr_scan", "ios": "https://dc.lft.to/lastmile_qr_scan"}, "name": "2077825efa72d71e281e82fc1d23025b", "is_reserved": 0}, {"is_disabled": 0, "fusion_lon": 0.0, "fusion_lat": 0.0, "lat": 38.928237333333335, "type": "electric_scooter", "lon": -77.037096, "bike_id": "c06a6a039ec681961bcbdc0c703f12f8", "rental_uris": {"android": "https://dc.lft.to/lastmile_qr_scan", "ios": "https://dc.lft.to/lastmile_qr_scan"}, "name": "c06a6a039ec681961bcbdc0c703f12f8", "is_reserved": 0}, {"is_disabled": 0, "fusion_lon": 0.0, "fusion_lat": 0.0, "lat": 38.916996, "type": "electric_scooter", "lon": -77.0243765, "bike_id": "fc5485046e191b5c0e6f330b0b0f5ac4", "rental_uris": {"android": "https://dc.lft.to/lastmile_qr_scan", "ios": "https://dc.lft.to/lastmile_qr_scan"}, "name": "fc5485046e191b5c0e6f330b0b0f5ac4", "is_reserved": 0}, {"is_disabled": 0, "fusion_lon": 0.0, "fusion_lat": 0.0, "lat": 38.95557683333333, "type": "electric_bike", "lon": -76.9354155, "bike_id": "6aacad8c5e1e6913c33dddf8eba3d900", "rental_uris": {"android": "https://dc.lft.to/lastmile_qr_scan", "ios": "https://dc.lft.to/lastmile_qr_scan"}, "name": "6aacad8c5e1e6913c33dddf8eba3d900", "is_reserved": 0}, {"is_disabled": 0, "fusion_lon": 0.0, "fusion_lat": 0.0, "lat": 38.91883216666667, "type": "electric_scooter", "lon": -77.04176, "bike_id": "731a310a63bda3e2f60fae3a83540001", "rental_uris": {"android": "https://dc.lft.to/lastmile_qr_scan", "ios": "https://dc.lft.to/lastmile_qr_scan"}, "name": "731a310a63bda3e2f60fae3a83540001", "is_reserved": 0}, {"is_disabled": 0, "fusion_lon": 0.0, "fusion_lat": 0.0, "lat": 38.907340833333336, "type": "electric_scooter", "lon": -77.04250966666666, "bike_id": "fc447020461e6435a01128fcee8290ba", "rental_uris": {"android": "https://dc.lft.to/lastmile_qr_scan", "ios": "https://dc.lft.to/lastmile_qr_scan"}, "name": "fc447020461e6435a01128fcee8290ba", "is_reserved": 0}, {"is_disabled": 0, "fusion_lon": 0.0, "fusion_lat": 0.0, "lat": 38.90779, "type": "electric_scooter", "lon": -77.0451145, "bike_id": "da0dbbf528ae8bbbce02dbd1811ae0ac", "rental_uris": {"android": "https://dc.lft.to/lastmile_qr_scan", "ios": "https://dc.lft.to/lastmile_qr_scan"}, "name": "da0dbbf528ae8bbbce02dbd1811ae0ac", "is_reserved": 0}, {"is_disabled": 0, "fusion_lon": 0.0, "fusion_lat": 0.0, "lat": 38.921483333333335, "type": "electric_scooter", "lon": -77.03513016666666, "bike_id": "268184a695a0fd8792b7b307239b60d4", "rental_uris": {"android": "https://dc.lft.to/lastmile_qr_scan", "ios": "https://dc.lft.to/lastmile_qr_scan"}, "name": "268184a695a0fd8792b7b307239b60d4", "is_reserved": 0}, {"is_disabled": 0, "fusion_lon": 0.0, "fusion_lat": 0.0, "lat": 38.92261166666667, "type": "electric_scooter", "lon": -77.042104, "bike_id": "ca5bc7cfd8f97cc3c49a02504063307b", "rental_uris": {"android": "https://dc.lft.to/lastmile_qr_scan", "ios": "https://dc.lft.to/lastmile_qr_scan"}, "name": "ca5bc7cfd8f97cc3c49a02504063307b", "is_reserved": 0}, {"is_disabled": 0, "fusion_lon": 0.0, "fusion_lat": 0.0, "lat": 38.921488833333335, "type": "electric_scooter", "lon": -77.034421, "bike_id": "f468fc7be316149e2105df82d36b4389", "rental_uris": {"android": "https://dc.lft.to/lastmile_qr_scan", "ios": "https://dc.lft.to/lastmile_qr_scan"}, "name": "f468fc7be316149e2105df82d36b4389", "is_reserved": 0}, {"is_disabled": 0, "fusion_lon": 0.0, "fusion_lat": 0.0, "lat": 38.863593333333334, "type": "electric_scooter", "lon": -76.99063883333334, "bike_id": "7a5a244a7e135d57292eb830d69a42d8", "rental_uris": {"android": "https://dc.lft.to/lastmile_qr_scan", "ios": "https://dc.lft.to/lastmile_qr_scan"}, "name": "7a5a244a7e135d57292eb830d69a42d8", "is_reserved": 0}, {"is_disabled": 0, "fusion_lon": 0.0, "fusion_lat": 0.0, "lat": 38.8278175, "type": "electric_bike", "lon": -77.11086166666666, "bike_id": "4a6c87fe4cd8151dc4135547a7c0844b", "rental_uris": {"android": "https://dc.lft.to/lastmile_qr_scan", "ios": "https://dc.lft.to/lastmile_qr_scan"}, "name": "4a6c87fe4cd8151dc4135547a7c0844b", "is_reserved": 0}, {"is_disabled": 0, "fusion_lon": 0.0, "fusion_lat": 0.0, "lat": 38.9016055, "type": "electric_scooter", "lon": -77.022215, "bike_id": "0e5906f79844ea50221a072058f49fe9", "rental_uris": {"android": "https://dc.lft.to/lastmile_qr_scan", "ios": "https://dc.lft.to/lastmile_qr_scan"}, "name": "0e5906f79844ea50221a072058f49fe9", "is_reserved": 0}, {"is_disabled": 0, "fusion_lon": 0.0, "fusion_lat": 0.0, "lat": 38.91957933333333, "type": "electric_scooter", "lon": -77.00077433333334, "bike_id": "ef52277fcbda66c3df74d007a071ef9d", "rental_uris": {"android": "https://dc.lft.to/lastmile_qr_scan", "ios": "https://dc.lft.to/lastmile_qr_scan"}, "name": "ef52277fcbda66c3df74d007a071ef9d", "is_reserved": 0}, {"is_disabled": 0, "fusion_lon": 0.0, "fusion_lat": 0.0, "lat": 38.90970083333333, "type": "electric_scooter", "lon": -77.0363675, "bike_id": "fe8582b758adf11c0e2b20b301fc757e", "rental_uris": {"android": "https://dc.lft.to/lastmile_qr_scan", "ios": "https://dc.lft.to/lastmile_qr_scan"}, "name": "fe8582b758adf11c0e2b20b301fc757e", "is_reserved": 0}, {"is_disabled": 0, "fusion_lon": 0.0, "fusion_lat": 0.0, "lat": 38.92280516666667, "type": "electric_scooter", "lon": -77.04466783333334, "bike_id": "1ddd8644030b1a0af453946ecf2048e7", "rental_uris": {"android": "https://dc.lft.to/lastmile_qr_scan", "ios": "https://dc.lft.to/lastmile_qr_scan"}, "name": "1ddd8644030b1a0af453946ecf2048e7", "is_reserved": 0}, {"is_disabled": 0, "fusion_lon": 0.0, "fusion_lat": 0.0, "lat": 38.892222, "type": "electric_scooter", "lon": -77.02262016666667, "bike_id": "aae658f72f4e96c21b5bf3ce186dbde8", "rental_uris": {"android": "https://dc.lft.to/lastmile_qr_scan", "ios": "https://dc.lft.to/lastmile_qr_scan"}, "name": "aae658f72f4e96c21b5bf3ce186dbde8", "is_reserved": 0}, {"is_disabled": 0, "fusion_lon": 0.0, "fusion_lat": 0.0, "lat": 38.87869366666666, "type": "electric_scooter", "lon": -76.9652725, "bike_id": "f11dcc8305676ff569611434576749bb", "rental_uris": {"android": "https://dc.lft.to/lastmile_qr_scan", "ios": "https://dc.lft.to/lastmile_qr_scan"}, "name": "f11dcc8305676ff569611434576749bb", "is_reserved": 0}, {"is_disabled": 0, "fusion_lon": 0.0, "fusion_lat": 0.0, "lat": 38.936742833333334, "type": "electric_scooter", "lon": -77.03619216666667, "bike_id": "371cc0d3ad790ba6eafd73b8ba556f9e", "rental_uris": {"android": "https://dc.lft.to/lastmile_qr_scan", "ios": "https://dc.lft.to/lastmile_qr_scan"}, "name": "371cc0d3ad790ba6eafd73b8ba556f9e", "is_reserved": 0}, {"is_disabled": 0, "fusion_lon": 0.0, "fusion_lat": 0.0, "lat": 38.824504166666664, "type": "electric_bike", "lon": -77.07047966666667, "bike_id": "3ce228f703d38aa36d999b83ffaba0e1", "rental_uris": {"android": "https://dc.lft.to/lastmile_qr_scan", "ios": "https://dc.lft.to/lastmile_qr_scan"}, "name": "3ce228f703d38aa36d999b83ffaba0e1", "is_reserved": 0}, {"is_disabled": 0, "fusion_lon": 0.0, "fusion_lat": 0.0, "lat": 38.865359833333336, "type": "electric_bike", "lon": -77.128203, "bike_id": "852dfb6cf8003e9c7b77704d3bbc22ab", "rental_uris": {"android": "https://dc.lft.to/lastmile_qr_scan", "ios": "https://dc.lft.to/lastmile_qr_scan"}, "name": "852dfb6cf8003e9c7b77704d3bbc22ab", "is_reserved": 0}, {"is_disabled": 0, "fusion_lon": 0.0, "fusion_lat": 0.0, "lat": 38.91601266666667, "type": "electric_scooter", "lon": -77.02303583333334, "bike_id": "fe4e8dffea9f7e7c58b1251b4243e362", "rental_uris": {"android": "https://dc.lft.to/lastmile_qr_scan", "ios": "https://dc.lft.to/lastmile_qr_scan"}, "name": "fe4e8dffea9f7e7c58b1251b4243e362", "is_reserved": 0}, {"is_disabled": 0, "fusion_lon": 0.0, "fusion_lat": 0.0, "lat": 38.866741166666664, "type": "electric_scooter", "lon": -76.98892833333333, "bike_id": "fc118d92df5da8193fb6eb5797f80f92", "rental_uris": {"android": "https://dc.lft.to/lastmile_qr_scan", "ios": "https://dc.lft.to/lastmile_qr_scan"}, "name": "fc118d92df5da8193fb6eb5797f80f92", "is_reserved": 0}, {"is_disabled": 0, "fusion_lon": 0.0, "fusion_lat": 0.0, "lat": 38.91761983333333, "type": "electric_scooter", "lon": -77.03195483333333, "bike_id": "447c67d5b65901f18cbceca4c2ee6cb5", "rental_uris": {"android": "https://dc.lft.to/lastmile_qr_scan", "ios": "https://dc.lft.to/lastmile_qr_scan"}, "name": "447c67d5b65901f18cbceca4c2ee6cb5", "is_reserved": 0}, {"is_disabled": 0, "fusion_lon": 0.0, "fusion_lat": 0.0, "lat": 38.910357833333336, "type": "electric_scooter", "lon": -77.03803633333334, "bike_id": "ef76207f8630645b269c55b01956681a", "rental_uris": {"android": "https://dc.lft.to/lastmile_qr_scan", "ios": "https://dc.lft.to/lastmile_qr_scan"}, "name": "ef76207f8630645b269c55b01956681a", "is_reserved": 0}, {"is_disabled": 0, "fusion_lon": 0.0, "fusion_lat": 0.0, "lat": 38.92842783333333, "type": "electric_scooter", "lon": -77.05550666666667, "bike_id": "3a6a155e269cbfbaf19793c8d9535630", "rental_uris": {"android": "https://dc.lft.to/lastmile_qr_scan", "ios": "https://dc.lft.to/lastmile_qr_scan"}, "name": "3a6a155e269cbfbaf19793c8d9535630", "is_reserved": 0}, {"is_disabled": 0, "fusion_lon": 0.0, "fusion_lat": 0.0, "lat": 38.868045333333335, "type": "electric_scooter", "lon": -77.011771, "bike_id": "70012ec836a5569e1e77dc597ac9b0e9", "rental_uris": {"android": "https://dc.lft.to/lastmile_qr_scan", "ios": "https://dc.lft.to/lastmile_qr_scan"}, "name": "70012ec836a5569e1e77dc597ac9b0e9", "is_reserved": 0}, {"is_disabled": 0, "fusion_lon": 0.0, "fusion_lat": 0.0, "lat": 38.89393333333334, "type": "electric_scooter", "lon": -76.9499585, "bike_id": "5fd945c376f3f0f09db0d90ea0777259", "rental_uris": {"android": "https://dc.lft.to/lastmile_qr_scan", "ios": "https://dc.lft.to/lastmile_qr_scan"}, "name": "5fd945c376f3f0f09db0d90ea0777259", "is_reserved": 0}, {"is_disabled": 0, "fusion_lon": 0.0, "fusion_lat": 0.0, "lat": 39.054574833333334, "type": "electric_bike", "lon": -77.14329233333333, "bike_id": "3392b19091bd56dcc533490314f7d3c8", "rental_uris": {"android": "https://dc.lft.to/lastmile_qr_scan", "ios": "https://dc.lft.to/lastmile_qr_scan"}, "name": "3392b19091bd56dcc533490314f7d3c8", "is_reserved": 0}, {"is_disabled": 0, "fusion_lon": 0.0, "fusion_lat": 0.0, "lat": 38.898469, "type": "electric_scooter", "lon": -77.0218145, "bike_id": "ba161b09ff258cee93444ddafdc6f581", "rental_uris": {"android": "https://dc.lft.to/lastmile_qr_scan", "ios": "https://dc.lft.to/lastmile_qr_scan"}, "name": "ba161b09ff258cee93444ddafdc6f581", "is_reserved": 0}, {"is_disabled": 0, "fusion_lon": 0.0, "fusion_lat": 0.0, "lat": 38.945882166666664, "type": "electric_bike", "lon": -77.3440755, "bike_id": "d5f7bfec5c40edaf54dc877f54ab2366", "rental_uris": {"android": "https://dc.lft.to/lastmile_qr_scan", "ios": "https://dc.lft.to/lastmile_qr_scan"}, "name": "d5f7bfec5c40edaf54dc877f54ab2366", "is_reserved": 0}, {"is_disabled": 0, "fusion_lon": 0.0, "fusion_lat": 0.0, "lat": 38.897504166666664, "type": "electric_scooter", "lon": -77.04743783333333, "bike_id": "7840da2e0dc7537f80efe1258ecde853", "rental_uris": {"android": "https://dc.lft.to/lastmile_qr_scan", "ios": "https://dc.lft.to/lastmile_qr_scan"}, "name": "7840da2e0dc7537f80efe1258ecde853", "is_reserved": 0}, {"is_disabled": 0, "fusion_lon": 0.0, "fusion_lat": 0.0, "lat": 38.776196, "type": "electric_bike", "lon": -77.0835625, "bike_id": "b0f70475e7edfdbfcd618aef14590d68", "rental_uris": {"android": "https://dc.lft.to/lastmile_qr_scan", "ios": "https://dc.lft.to/lastmile_qr_scan"}, "name": "b0f70475e7edfdbfcd618aef14590d68", "is_reserved": 0}, {"is_disabled": 0, "fusion_lon": 0.0, "fusion_lat": 0.0, "lat": 38.88961166666667, "type": "electric_scooter", "lon": -76.991469, "bike_id": "e3360223d75eb606830fbd4fdf86dcb1", "rental_uris": {"android": "https://dc.lft.to/lastmile_qr_scan", "ios": "https://dc.lft.to/lastmile_qr_scan"}, "name": "e3360223d75eb606830fbd4fdf86dcb1", "is_reserved": 0}, {"is_disabled": 0, "fusion_lon": 0.0, "fusion_lat": 0.0, "lat": 38.888540666666664, "type": "electric_bike", "lon": -76.977023, "bike_id": "4a68be1970a34cbff65c8015534b6d51", "rental_uris": {"android": "https://dc.lft.to/lastmile_qr_scan", "ios": "https://dc.lft.to/lastmile_qr_scan"}, "name": "4a68be1970a34cbff65c8015534b6d51", "is_reserved": 0}, {"is_disabled": 0, "fusion_lon": 0.0, "fusion_lat": 0.0, "lat": 38.89832766666667, "type": "electric_scooter", "lon": -77.02959683333333, "bike_id": "e7904145f1b2bedb97a5ee92fc2f40c0", "rental_uris": {"android": "https://dc.lft.to/lastmile_qr_scan", "ios": "https://dc.lft.to/lastmile_qr_scan"}, "name": "e7904145f1b2bedb97a5ee92fc2f40c0", "is_reserved": 0}, {"is_disabled": 0, "fusion_lon": 0.0, "fusion_lat": 0.0, "lat": 38.887419666666666, "type": "electric_scooter", "lon": -77.01430083333334, "bike_id": "844a463bcc4a90cf1eb9dae6df3a1a7d", "rental_uris": {"android": "https://dc.lft.to/lastmile_qr_scan", "ios": "https://dc.lft.to/lastmile_qr_scan"}, "name": "844a463bcc4a90cf1eb9dae6df3a1a7d", "is_reserved": 0}, {"is_disabled": 0, "fusion_lon": 0.0, "fusion_lat": 0.0, "lat": 38.91531066666667, "type": "electric_scooter", "lon": -77.02178, "bike_id": "ad1b4380add9b2c47a3d21d353b4667d", "rental_uris": {"android": "https://dc.lft.to/lastmile_qr_scan", "ios": "https://dc.lft.to/lastmile_qr_scan"}, "name": "ad1b4380add9b2c47a3d21d353b4667d", "is_reserved": 0}, {"is_disabled": 0, "fusion_lon": 0.0, "fusion_lat": 0.0, "lat": 38.920729, "type": "electric_scooter", "lon": -77.0241705, "bike_id": "b1be50cfe47ac8aee349b072e57dd20b", "rental_uris": {"android": "https://dc.lft.to/lastmile_qr_scan", "ios": "https://dc.lft.to/lastmile_qr_scan"}, "name": "b1be50cfe47ac8aee349b072e57dd20b", "is_reserved": 0}, {"is_disabled": 0, "fusion_lon": 0.0, "fusion_lat": 0.0, "lat": 38.936912666666665, "type": "electric_scooter", "lon": -77.0237595, "bike_id": "339c4adbb3cf518e9934988f7647eccb", "rental_uris": {"android": "https://dc.lft.to/lastmile_qr_scan", "ios": "https://dc.lft.to/lastmile_qr_scan"}, "name": "339c4adbb3cf518e9934988f7647eccb", "is_reserved": 0}, {"is_disabled": 0, "fusion_lon": 0.0, "fusion_lat": 0.0, "lat": 38.89223233333333, "type": "electric_scooter", "lon": -77.04366066666667, "bike_id": "5e062a75108e2516f0247b0608d32c1b", "rental_uris": {"android": "https://dc.lft.to/lastmile_qr_scan", "ios": "https://dc.lft.to/lastmile_qr_scan"}, "name": "5e062a75108e2516f0247b0608d32c1b", "is_reserved": 0}, {"is_disabled": 0, "fusion_lon": 0.0, "fusion_lat": 0.0, "lat": 38.905013833333335, "type": "electric_scooter", "lon": -77.02958416666667, "bike_id": "e0961ac560486e83571b5582e2faff60", "rental_uris": {"android": "https://dc.lft.to/lastmile_qr_scan", "ios": "https://dc.lft.to/lastmile_qr_scan"}, "name": "e0961ac560486e83571b5582e2faff60", "is_reserved": 0}, {"is_disabled": 0, "fusion_lon": 0.0, "fusion_lat": 0.0, "lat": 38.9119705, "type": "electric_scooter", "lon": -77.04169516666667, "bike_id": "9ea51ed89d9d81200b05eb73d441d90b", "rental_uris": {"android": "https://dc.lft.to/lastmile_qr_scan", "ios": "https://dc.lft.to/lastmile_qr_scan"}, "name": "9ea51ed89d9d81200b05eb73d441d90b", "is_reserved": 0}, {"is_disabled": 0, "fusion_lon": 0.0, "fusion_lat": 0.0, "lat": 38.8381115, "type": "electric_scooter", "lon": -77.00433683333333, "bike_id": "099e64e457260948dacc90c29b44b980", "rental_uris": {"android": "https://dc.lft.to/lastmile_qr_scan", "ios": "https://dc.lft.to/lastmile_qr_scan"}, "name": "099e64e457260948dacc90c29b44b980", "is_reserved": 0}, {"is_disabled": 0, "fusion_lon": 0.0, "fusion_lat": 0.0, "lat": 38.8942295, "type": "electric_scooter", "lon": -76.912221, "bike_id": "1bed17e18672ea555d25e41d94d3ae9c", "rental_uris": {"android": "https://dc.lft.to/lastmile_qr_scan", "ios": "https://dc.lft.to/lastmile_qr_scan"}, "name": "1bed17e18672ea555d25e41d94d3ae9c", "is_reserved": 0}, {"is_disabled": 0, "fusion_lon": 0.0, "fusion_lat": 0.0, "lat": 38.937017833333336, "type": "electric_scooter", "lon": -77.06104883333333, "bike_id": "23f4c20daf6edd307407688f5adc9d06", "rental_uris": {"android": "https://dc.lft.to/lastmile_qr_scan", "ios": "https://dc.lft.to/lastmile_qr_scan"}, "name": "23f4c20daf6edd307407688f5adc9d06", "is_reserved": 0}, {"is_disabled": 0, "fusion_lon": 0.0, "fusion_lat": 0.0, "lat": 38.89532116666667, "type": "electric_scooter", "lon": -77.0111475, "bike_id": "18dccfe3d9e0dad9c19aaca382d03c86", "rental_uris": {"android": "https://dc.lft.to/lastmile_qr_scan", "ios": "https://dc.lft.to/lastmile_qr_scan"}, "name": "18dccfe3d9e0dad9c19aaca382d03c86", "is_reserved": 0}, {"is_disabled": 0, "fusion_lon": 0.0, "fusion_lat": 0.0, "lat": 38.920746333333334, "type": "electric_scooter", "lon": -77.0238855, "bike_id": "33ed5aeffcfd84b840734aaf98d7f7cf", "rental_uris": {"android": "https://dc.lft.to/lastmile_qr_scan", "ios": "https://dc.lft.to/lastmile_qr_scan"}, "name": "33ed5aeffcfd84b840734aaf98d7f7cf", "is_reserved": 0}, {"is_disabled": 0, "fusion_lon": 0.0, "fusion_lat": 0.0, "lat": 38.920213, "type": "electric_scooter", "lon": -77.024163, "bike_id": "8b93fb0c5eeb8ec2d9b1a81ec5a29980", "rental_uris": {"android": "https://dc.lft.to/lastmile_qr_scan", "ios": "https://dc.lft.to/lastmile_qr_scan"}, "name": "8b93fb0c5eeb8ec2d9b1a81ec5a29980", "is_reserved": 0}, {"is_disabled": 0, "fusion_lon": 0.0, "fusion_lat": 0.0, "lat": 38.91858583333333, "type": "electric_bike", "lon": -76.9617955, "bike_id": "fc52f4bc002cfc10fd0faeb11f6fa146", "rental_uris": {"android": "https://dc.lft.to/lastmile_qr_scan", "ios": "https://dc.lft.to/lastmile_qr_scan"}, "name": "fc52f4bc002cfc10fd0faeb11f6fa146", "is_reserved": 0}, {"is_disabled": 0, "fusion_lon": 0.0, "fusion_lat": 0.0, "lat": 38.87145666666667, "type": "electric_scooter", "lon": -76.978928, "bike_id": "447e9387a65d2c3de42cb5ffeecc9386", "rental_uris": {"android": "https://dc.lft.to/lastmile_qr_scan", "ios": "https://dc.lft.to/lastmile_qr_scan"}, "name": "447e9387a65d2c3de42cb5ffeecc9386", "is_reserved": 0}, {"is_disabled": 0, "fusion_lon": 0.0, "fusion_lat": 0.0, "lat": 38.887353833333336, "type": "electric_scooter", "lon": -77.01528516666667, "bike_id": "de793a01f3d5c400db8017c8797ab8ea", "rental_uris": {"android": "https://dc.lft.to/lastmile_qr_scan", "ios": "https://dc.lft.to/lastmile_qr_scan"}, "name": "de793a01f3d5c400db8017c8797ab8ea", "is_reserved": 0}, {"is_disabled": 0, "fusion_lon": 0.0, "fusion_lat": 0.0, "lat": 38.90047366666667, "type": "electric_scooter", "lon": -77.00072016666667, "bike_id": "535b3ff00cdaa6d05ec776e5cd830e76", "rental_uris": {"android": "https://dc.lft.to/lastmile_qr_scan", "ios": "https://dc.lft.to/lastmile_qr_scan"}, "name": "535b3ff00cdaa6d05ec776e5cd830e76", "is_reserved": 0}, {"is_disabled": 0, "fusion_lon": 0.0, "fusion_lat": 0.0, "lat": 38.91693816666667, "type": "electric_scooter", "lon": -77.03218833333334, "bike_id": "10f09ec0d4d9ea7e6914e059430fe40d", "rental_uris": {"android": "https://dc.lft.to/lastmile_qr_scan", "ios": "https://dc.lft.to/lastmile_qr_scan"}, "name": "10f09ec0d4d9ea7e6914e059430fe40d", "is_reserved": 0}, {"is_disabled": 0, "fusion_lon": 0.0, "fusion_lat": 0.0, "lat": 38.96114266666667, "type": "electric_bike", "lon": -77.069041, "bike_id": "0c2da991e8482adad131ca8becf3fc24", "rental_uris": {"android": "https://dc.lft.to/lastmile_qr_scan", "ios": "https://dc.lft.to/lastmile_qr_scan"}, "name": "0c2da991e8482adad131ca8becf3fc24", "is_reserved": 0}, {"is_disabled": 0, "fusion_lon": 0.0, "fusion_lat": 0.0, "lat": 38.9356015, "type": "electric_scooter", "lon": -77.02963033333333, "bike_id": "c95547bc41b3c2b70573339ae99162b6", "rental_uris": {"android": "https://dc.lft.to/lastmile_qr_scan", "ios": "https://dc.lft.to/lastmile_qr_scan"}, "name": "c95547bc41b3c2b70573339ae99162b6", "is_reserved": 0}, {"is_disabled": 0, "fusion_lon": 0.0, "fusion_lat": 0.0, "lat": 38.92416383333333, "type": "electric_scooter", "lon": -77.05631766666667, "bike_id": "91219bb1facdb4c662596e7e0d43ef5e", "rental_uris": {"android": "https://dc.lft.to/lastmile_qr_scan", "ios": "https://dc.lft.to/lastmile_qr_scan"}, "name": "91219bb1facdb4c662596e7e0d43ef5e", "is_reserved": 0}, {"is_disabled": 0, "fusion_lon": 0.0, "fusion_lat": 0.0, "lat": 38.89203883333333, "type": "electric_scooter", "lon": -76.98794933333333, "bike_id": "de886f93ed8d9ae908a96f0a3c076d51", "rental_uris": {"android": "https://dc.lft.to/lastmile_qr_scan", "ios": "https://dc.lft.to/lastmile_qr_scan"}, "name": "de886f93ed8d9ae908a96f0a3c076d51", "is_reserved": 0}, {"is_disabled": 0, "fusion_lon": 0.0, "fusion_lat": 0.0, "lat": 38.986552333333336, "type": "electric_scooter", "lon": -77.026548, "bike_id": "c1145c39f27ffee4103cc30943662a55", "rental_uris": {"android": "https://dc.lft.to/lastmile_qr_scan", "ios": "https://dc.lft.to/lastmile_qr_scan"}, "name": "c1145c39f27ffee4103cc30943662a55", "is_reserved": 0}, {"is_disabled": 0, "fusion_lon": 0.0, "fusion_lat": 0.0, "lat": 38.907381, "type": "electric_scooter", "lon": -77.034537, "bike_id": "4eddc8f2fde57f19eda4cfdcd43f887d", "rental_uris": {"android": "https://dc.lft.to/lastmile_qr_scan", "ios": "https://dc.lft.to/lastmile_qr_scan"}, "name": "4eddc8f2fde57f19eda4cfdcd43f887d", "is_reserved": 0}, {"is_disabled": 0, "fusion_lon": 0.0, "fusion_lat": 0.0, "lat": 38.9181745, "type": "electric_scooter", "lon": -77.0319725, "bike_id": "679959d4f2166ec4bff6758425d095d1", "rental_uris": {"android": "https://dc.lft.to/lastmile_qr_scan", "ios": "https://dc.lft.to/lastmile_qr_scan"}, "name": "679959d4f2166ec4bff6758425d095d1", "is_reserved": 0}, {"is_disabled": 0, "fusion_lon": 0.0, "fusion_lat": 0.0, "lat": 38.93270283333333, "type": "electric_scooter", "lon": -76.99688816666666, "bike_id": "663ea662b46229d684ceb6637b7d21da", "rental_uris": {"android": "https://dc.lft.to/lastmile_qr_scan", "ios": "https://dc.lft.to/lastmile_qr_scan"}, "name": "663ea662b46229d684ceb6637b7d21da", "is_reserved": 0}, {"is_disabled": 0, "fusion_lon": 0.0, "fusion_lat": 0.0, "lat": 38.91473283333333, "type": "electric_scooter", "lon": -77.04394633333334, "bike_id": "916fd3d1b5eba8268138b9ba88a29b2a", "rental_uris": {"android": "https://dc.lft.to/lastmile_qr_scan", "ios": "https://dc.lft.to/lastmile_qr_scan"}, "name": "916fd3d1b5eba8268138b9ba88a29b2a", "is_reserved": 0}, {"is_disabled": 0, "fusion_lon": 0.0, "fusion_lat": 0.0, "lat": 38.969272333333336, "type": "electric_bike", "lon": -77.02632916666667, "bike_id": "006026e8054da8ea94aae057632812d0", "rental_uris": {"android": "https://dc.lft.to/lastmile_qr_scan", "ios": "https://dc.lft.to/lastmile_qr_scan"}, "name": "006026e8054da8ea94aae057632812d0", "is_reserved": 0}, {"is_disabled": 0, "fusion_lon": 0.0, "fusion_lat": 0.0, "lat": 38.89914316666667, "type": "electric_scooter", "lon": -76.93391783333334, "bike_id": "ab5c1ee58e906733fbed1b4202e0fb77", "rental_uris": {"android": "https://dc.lft.to/lastmile_qr_scan", "ios": "https://dc.lft.to/lastmile_qr_scan"}, "name": "ab5c1ee58e906733fbed1b4202e0fb77", "is_reserved": 0}, {"is_disabled": 0, "fusion_lon": 0.0, "fusion_lat": 0.0, "lat": 38.907273833333335, "type": "electric_scooter", "lon": -77.03456266666667, "bike_id": "30f60f976f44442182c6b4e15033587c", "rental_uris": {"android": "https://dc.lft.to/lastmile_qr_scan", "ios": "https://dc.lft.to/lastmile_qr_scan"}, "name": "30f60f976f44442182c6b4e15033587c", "is_reserved": 0}, {"is_disabled": 0, "fusion_lon": 0.0, "fusion_lat": 0.0, "lat": 38.867110333333336, "type": "electric_scooter", "lon": -76.98730466666666, "bike_id": "3a0a33270e79ee046f64bc69f4eefb94", "rental_uris": {"android": "https://dc.lft.to/lastmile_qr_scan", "ios": "https://dc.lft.to/lastmile_qr_scan"}, "name": "3a0a33270e79ee046f64bc69f4eefb94", "is_reserved": 0}, {"is_disabled": 0, "fusion_lon": 0.0, "fusion_lat": 0.0, "lat": 38.92610416666667, "type": "electric_scooter", "lon": -77.03778183333333, "bike_id": "7c2d0bb2765c66bfe61ef2581c0b2528", "rental_uris": {"android": "https://dc.lft.to/lastmile_qr_scan", "ios": "https://dc.lft.to/lastmile_qr_scan"}, "name": "7c2d0bb2765c66bfe61ef2581c0b2528", "is_reserved": 0}, {"is_disabled": 0, "fusion_lon": 0.0, "fusion_lat": 0.0, "lat": 38.9128135, "type": "electric_scooter", "lon": -77.03860866666666, "bike_id": "793fe5883b9d32ab0b2a709a8b8749dc", "rental_uris": {"android": "https://dc.lft.to/lastmile_qr_scan", "ios": "https://dc.lft.to/lastmile_qr_scan"}, "name": "793fe5883b9d32ab0b2a709a8b8749dc", "is_reserved": 0}, {"is_disabled": 0, "fusion_lon": 0.0, "fusion_lat": 0.0, "lat": 38.89784816666667, "type": "electric_scooter", "lon": -77.0500435, "bike_id": "82715dc74d36bbcc14941b2b1f1ecb25", "rental_uris": {"android": "https://dc.lft.to/lastmile_qr_scan", "ios": "https://dc.lft.to/lastmile_qr_scan"}, "name": "82715dc74d36bbcc14941b2b1f1ecb25", "is_reserved": 0}, {"is_disabled": 0, "fusion_lon": 0.0, "fusion_lat": 0.0, "lat": 38.8983245, "type": "electric_scooter", "lon": -76.94633716666667, "bike_id": "58d0fff0f452df3e6ff6d79b7c8c4106", "rental_uris": {"android": "https://dc.lft.to/lastmile_qr_scan", "ios": "https://dc.lft.to/lastmile_qr_scan"}, "name": "58d0fff0f452df3e6ff6d79b7c8c4106", "is_reserved": 0}, {"is_disabled": 0, "fusion_lon": 0.0, "fusion_lat": 0.0, "lat": 38.86701133333333, "type": "electric_scooter", "lon": -76.98714116666666, "bike_id": "edf70f1bdc494943a394126ed641b3a1", "rental_uris": {"android": "https://dc.lft.to/lastmile_qr_scan", "ios": "https://dc.lft.to/lastmile_qr_scan"}, "name": "edf70f1bdc494943a394126ed641b3a1", "is_reserved": 0}, {"is_disabled": 0, "fusion_lon": 0.0, "fusion_lat": 0.0, "lat": 38.94108766666667, "type": "electric_scooter", "lon": -77.061373, "bike_id": "6f8eabc7ee2ac5b93b12edf5923fb87b", "rental_uris": {"android": "https://dc.lft.to/lastmile_qr_scan", "ios": "https://dc.lft.to/lastmile_qr_scan"}, "name": "6f8eabc7ee2ac5b93b12edf5923fb87b", "is_reserved": 0}, {"is_disabled": 0, "fusion_lon": 0.0, "fusion_lat": 0.0, "lat": 38.912697666666666, "type": "electric_scooter", "lon": -77.02227083333334, "bike_id": "7f8be5f3fc808d9884171e78004944f0", "rental_uris": {"android": "https://dc.lft.to/lastmile_qr_scan", "ios": "https://dc.lft.to/lastmile_qr_scan"}, "name": "7f8be5f3fc808d9884171e78004944f0", "is_reserved": 0}, {"is_disabled": 0, "fusion_lon": 0.0, "fusion_lat": 0.0, "lat": 38.90667166666667, "type": "electric_scooter", "lon": -77.04347983333334, "bike_id": "fb90eb1bd932282a4ccd4c04986fbaa0", "rental_uris": {"android": "https://dc.lft.to/lastmile_qr_scan", "ios": "https://dc.lft.to/lastmile_qr_scan"}, "name": "fb90eb1bd932282a4ccd4c04986fbaa0", "is_reserved": 0}, {"is_disabled": 0, "fusion_lon": 0.0, "fusion_lat": 0.0, "lat": 38.89390433333333, "type": "electric_scooter", "lon": -76.94998116666666, "bike_id": "6fc3711a7b22d7e3f4288624574fc66c", "rental_uris": {"android": "https://dc.lft.to/lastmile_qr_scan", "ios": "https://dc.lft.to/lastmile_qr_scan"}, "name": "6fc3711a7b22d7e3f4288624574fc66c", "is_reserved": 0}, {"is_disabled": 0, "fusion_lon": 0.0, "fusion_lat": 0.0, "lat": 38.93021916666667, "type": "electric_scooter", "lon": -77.0380825, "bike_id": "6b192ae8b946de90c2d9df26a1c8c276", "rental_uris": {"android": "https://dc.lft.to/lastmile_qr_scan", "ios": "https://dc.lft.to/lastmile_qr_scan"}, "name": "6b192ae8b946de90c2d9df26a1c8c276", "is_reserved": 0}, {"is_disabled": 0, "fusion_lon": 0.0, "fusion_lat": 0.0, "lat": 38.89015716666667, "type": "electric_scooter", "lon": -76.93745416666667, "bike_id": "0736203d5aae21606199cd92032d9a96", "rental_uris": {"android": "https://dc.lft.to/lastmile_qr_scan", "ios": "https://dc.lft.to/lastmile_qr_scan"}, "name": "0736203d5aae21606199cd92032d9a96", "is_reserved": 0}, {"is_disabled": 0, "fusion_lon": 0.0, "fusion_lat": 0.0, "lat": 38.85437983333333, "type": "electric_bike", "lon": -76.90983083333333, "bike_id": "b0fe44221ff188e2f92cb5c94b2831cc", "rental_uris": {"android": "https://dc.lft.to/lastmile_qr_scan", "ios": "https://dc.lft.to/lastmile_qr_scan"}, "name": "b0fe44221ff188e2f92cb5c94b2831cc", "is_reserved": 0}, {"is_disabled": 0, "fusion_lon": 0.0, "fusion_lat": 0.0, "lat": 38.86133383333333, "type": "electric_scooter", "lon": -76.98566433333333, "bike_id": "7209c3a03d01af4129d233e9c650151a", "rental_uris": {"android": "https://dc.lft.to/lastmile_qr_scan", "ios": "https://dc.lft.to/lastmile_qr_scan"}, "name": "7209c3a03d01af4129d233e9c650151a", "is_reserved": 0}, {"is_disabled": 0, "fusion_lon": 0.0, "fusion_lat": 0.0, "lat": 38.927373833333334, "type": "electric_scooter", "lon": -77.02250316666667, "bike_id": "72ea2f8703a786263446ab78591028c5", "rental_uris": {"android": "https://dc.lft.to/lastmile_qr_scan", "ios": "https://dc.lft.to/lastmile_qr_scan"}, "name": "72ea2f8703a786263446ab78591028c5", "is_reserved": 0}, {"is_disabled": 0, "fusion_lon": 0.0, "fusion_lat": 0.0, "lat": 38.93303516666667, "type": "electric_scooter", "lon": -77.03260733333333, "bike_id": "8466de671a5cdf700c463dd1f7130633", "rental_uris": {"android": "https://dc.lft.to/lastmile_qr_scan", "ios": "https://dc.lft.to/lastmile_qr_scan"}, "name": "8466de671a5cdf700c463dd1f7130633", "is_reserved": 0}, {"is_disabled": 0, "fusion_lon": 0.0, "fusion_lat": 0.0, "lat": 38.90569, "type": "electric_scooter", "lon": -77.0248895, "bike_id": "fa730d4b1597a64e19649c266eb5e84a", "rental_uris": {"android": "https://dc.lft.to/lastmile_qr_scan", "ios": "https://dc.lft.to/lastmile_qr_scan"}, "name": "fa730d4b1597a64e19649c266eb5e84a", "is_reserved": 0}, {"is_disabled": 0, "fusion_lon": 0.0, "fusion_lat": 0.0, "lat": 38.9184835, "type": "electric_scooter", "lon": -77.025217, "bike_id": "791afa5c29d1f1e1714befbebf7bb532", "rental_uris": {"android": "https://dc.lft.to/lastmile_qr_scan", "ios": "https://dc.lft.to/lastmile_qr_scan"}, "name": "791afa5c29d1f1e1714befbebf7bb532", "is_reserved": 0}, {"is_disabled": 0, "fusion_lon": 0.0, "fusion_lat": 0.0, "lat": 38.92861166666667, "type": "electric_scooter", "lon": -77.01409733333334, "bike_id": "d2cacb7926324d773f6fd1efcc5b05a9", "rental_uris": {"android": "https://dc.lft.to/lastmile_qr_scan", "ios": "https://dc.lft.to/lastmile_qr_scan"}, "name": "d2cacb7926324d773f6fd1efcc5b05a9", "is_reserved": 0}, {"is_disabled": 0, "fusion_lon": 0.0, "fusion_lat": 0.0, "lat": 38.901041166666666, "type": "electric_scooter", "lon": -77.0502675, "bike_id": "e5783ea5642b8084f2fc78317aa7b905", "rental_uris": {"android": "https://dc.lft.to/lastmile_qr_scan", "ios": "https://dc.lft.to/lastmile_qr_scan"}, "name": "e5783ea5642b8084f2fc78317aa7b905", "is_reserved": 0}, {"is_disabled": 0, "fusion_lon": 0.0, "fusion_lat": 0.0, "lat": 38.927936, "type": "electric_scooter", "lon": -77.05428483333333, "bike_id": "7fbe1500e6b8b635fdbb6d9be87706e0", "rental_uris": {"android": "https://dc.lft.to/lastmile_qr_scan", "ios": "https://dc.lft.to/lastmile_qr_scan"}, "name": "7fbe1500e6b8b635fdbb6d9be87706e0", "is_reserved": 0}, {"is_disabled": 0, "fusion_lon": 0.0, "fusion_lat": 0.0, "lat": 38.9159435, "type": "electric_scooter", "lon": -77.02347883333333, "bike_id": "a15ff1aacf04ac80159ff95757f416ba", "rental_uris": {"android": "https://dc.lft.to/lastmile_qr_scan", "ios": "https://dc.lft.to/lastmile_qr_scan"}, "name": "a15ff1aacf04ac80159ff95757f416ba", "is_reserved": 0}, {"is_disabled": 0, "fusion_lon": 0.0, "fusion_lat": 0.0, "lat": 38.88582616666667, "type": "electric_scooter", "lon": -77.01226483333333, "bike_id": "88f705ecd8d33c38349ca30a34655a38", "rental_uris": {"android": "https://dc.lft.to/lastmile_qr_scan", "ios": "https://dc.lft.to/lastmile_qr_scan"}, "name": "88f705ecd8d33c38349ca30a34655a38", "is_reserved": 0}, {"is_disabled": 0, "fusion_lon": 0.0, "fusion_lat": 0.0, "lat": 38.93250033333333, "type": "electric_scooter", "lon": -77.02974666666667, "bike_id": "fdab6365a5afffc886e9fa58ce4195b9", "rental_uris": {"android": "https://dc.lft.to/lastmile_qr_scan", "ios": "https://dc.lft.to/lastmile_qr_scan"}, "name": "fdab6365a5afffc886e9fa58ce4195b9", "is_reserved": 0}, {"is_disabled": 0, "fusion_lon": 0.0, "fusion_lat": 0.0, "lat": 38.920547166666665, "type": "electric_scooter", "lon": -76.99885433333333, "bike_id": "c9cf8af6c5cd52346f94b95f03a177ad", "rental_uris": {"android": "https://dc.lft.to/lastmile_qr_scan", "ios": "https://dc.lft.to/lastmile_qr_scan"}, "name": "c9cf8af6c5cd52346f94b95f03a177ad", "is_reserved": 0}, {"is_disabled": 0, "fusion_lon": 0.0, "fusion_lat": 0.0, "lat": 38.895255, "type": "electric_scooter", "lon": -76.94894033333334, "bike_id": "9fefe37cf15d1af2412e2c3231fc843f", "rental_uris": {"android": "https://dc.lft.to/lastmile_qr_scan", "ios": "https://dc.lft.to/lastmile_qr_scan"}, "name": "9fefe37cf15d1af2412e2c3231fc843f", "is_reserved": 0}, {"is_disabled": 0, "fusion_lon": 0.0, "fusion_lat": 0.0, "lat": 38.91560883333333, "type": "electric_scooter", "lon": -77.0410665, "bike_id": "fd419de1f555cd0da3376fabc314e75d", "rental_uris": {"android": "https://dc.lft.to/lastmile_qr_scan", "ios": "https://dc.lft.to/lastmile_qr_scan"}, "name": "fd419de1f555cd0da3376fabc314e75d", "is_reserved": 0}, {"is_disabled": 0, "fusion_lon": 0.0, "fusion_lat": 0.0, "lat": 38.91576233333333, "type": "electric_scooter", "lon": -77.020048, "bike_id": "2949dbe7c9eac89cce00285eb9db930e", "rental_uris": {"android": "https://dc.lft.to/lastmile_qr_scan", "ios": "https://dc.lft.to/lastmile_qr_scan"}, "name": "2949dbe7c9eac89cce00285eb9db930e", "is_reserved": 0}, {"is_disabled": 0, "fusion_lon": 0.0, "fusion_lat": 0.0, "lat": 38.903327166666664, "type": "electric_bike", "lon": -76.9753065, "bike_id": "a4f92919d163f90db1273bd86162ec97", "rental_uris": {"android": "https://dc.lft.to/lastmile_qr_scan", "ios": "https://dc.lft.to/lastmile_qr_scan"}, "name": "a4f92919d163f90db1273bd86162ec97", "is_reserved": 0}, {"is_disabled": 0, "fusion_lon": 0.0, "fusion_lat": 0.0, "lat": 38.9349445, "type": "electric_scooter", "lon": -77.0272695, "bike_id": "5d8cf467495af2ccffd640c3329fba89", "rental_uris": {"android": "https://dc.lft.to/lastmile_qr_scan", "ios": "https://dc.lft.to/lastmile_qr_scan"}, "name": "5d8cf467495af2ccffd640c3329fba89", "is_reserved": 0}, {"is_disabled": 0, "fusion_lon": 0.0, "fusion_lat": 0.0, "lat": 38.90084616666667, "type": "electric_scooter", "lon": -77.04888633333333, "bike_id": "00e48b4bc5e56dc103a5250ad54369e0", "rental_uris": {"android": "https://dc.lft.to/lastmile_qr_scan", "ios": "https://dc.lft.to/lastmile_qr_scan"}, "name": "00e48b4bc5e56dc103a5250ad54369e0", "is_reserved": 0}, {"is_disabled": 0, "fusion_lon": 0.0, "fusion_lat": 0.0, "lat": 38.895235666666665, "type": "electric_scooter", "lon": -77.015283, "bike_id": "db2059a62dfb87870299f7cbebe9714a", "rental_uris": {"android": "https://dc.lft.to/lastmile_qr_scan", "ios": "https://dc.lft.to/lastmile_qr_scan"}, "name": "db2059a62dfb87870299f7cbebe9714a", "is_reserved": 0}, {"is_disabled": 0, "fusion_lon": 0.0, "fusion_lat": 0.0, "lat": 38.900365, "type": "electric_scooter", "lon": -76.996457, "bike_id": "e109dcb229ee590440552d4b59d7fe34", "rental_uris": {"android": "https://dc.lft.to/lastmile_qr_scan", "ios": "https://dc.lft.to/lastmile_qr_scan"}, "name": "e109dcb229ee590440552d4b59d7fe34", "is_reserved": 0}, {"is_disabled": 0, "fusion_lon": 0.0, "fusion_lat": 0.0, "lat": 38.92114883333333, "type": "electric_scooter", "lon": -77.04214133333333, "bike_id": "8c78bbfac42436c889c2fd5c8b42da70", "rental_uris": {"android": "https://dc.lft.to/lastmile_qr_scan", "ios": "https://dc.lft.to/lastmile_qr_scan"}, "name": "8c78bbfac42436c889c2fd5c8b42da70", "is_reserved": 0}, {"is_disabled": 0, "fusion_lon": 0.0, "fusion_lat": 0.0, "lat": 38.8832, "type": "electric_scooter", "lon": -76.94947183333333, "bike_id": "c1c8326575bc1916cabb43417e0679a0", "rental_uris": {"android": "https://dc.lft.to/lastmile_qr_scan", "ios": "https://dc.lft.to/lastmile_qr_scan"}, "name": "c1c8326575bc1916cabb43417e0679a0", "is_reserved": 0}, {"is_disabled": 0, "fusion_lon": 0.0, "fusion_lat": 0.0, "lat": 38.8528055, "type": "electric_bike", "lon": -76.98152883333333, "bike_id": "0254e1e0569c3b81122beedaca567ee2", "rental_uris": {"android": "https://dc.lft.to/lastmile_qr_scan", "ios": "https://dc.lft.to/lastmile_qr_scan"}, "name": "0254e1e0569c3b81122beedaca567ee2", "is_reserved": 0}, {"is_disabled": 0, "fusion_lon": 0.0, "fusion_lat": 0.0, "lat": 38.908690666666665, "type": "electric_scooter", "lon": -77.0449425, "bike_id": "bf3e0a6a9eac4cc10589b1a10c671e8f", "rental_uris": {"android": "https://dc.lft.to/lastmile_qr_scan", "ios": "https://dc.lft.to/lastmile_qr_scan"}, "name": "bf3e0a6a9eac4cc10589b1a10c671e8f", "is_reserved": 0}, {"is_disabled": 0, "fusion_lon": 0.0, "fusion_lat": 0.0, "lat": 38.93076933333333, "type": "electric_scooter", "lon": -77.0279505, "bike_id": "041f1dc121843ed8abb9ece819b9d12a", "rental_uris": {"android": "https://dc.lft.to/lastmile_qr_scan", "ios": "https://dc.lft.to/lastmile_qr_scan"}, "name": "041f1dc121843ed8abb9ece819b9d12a", "is_reserved": 0}, {"is_disabled": 0, "fusion_lon": 0.0, "fusion_lat": 0.0, "lat": 38.91812566666667, "type": "electric_scooter", "lon": -77.02698516666666, "bike_id": "092e4acca888ae57690cb2f46104e81d", "rental_uris": {"android": "https://dc.lft.to/lastmile_qr_scan", "ios": "https://dc.lft.to/lastmile_qr_scan"}, "name": "092e4acca888ae57690cb2f46104e81d", "is_reserved": 0}, {"is_disabled": 0, "fusion_lon": 0.0, "fusion_lat": 0.0, "lat": 38.85834966666667, "type": "electric_bike", "lon": -76.99285433333333, "bike_id": "1e4c9dc3b29c55aa9b68f2f8ca395868", "rental_uris": {"android": "https://dc.lft.to/lastmile_qr_scan", "ios": "https://dc.lft.to/lastmile_qr_scan"}, "name": "1e4c9dc3b29c55aa9b68f2f8ca395868", "is_reserved": 0}, {"is_disabled": 0, "fusion_lon": 0.0, "fusion_lat": 0.0, "lat": 38.90698883333334, "type": "electric_scooter", "lon": -76.986917, "bike_id": "315f0d5671c0f18e3cc95c8e8bc7139e", "rental_uris": {"android": "https://dc.lft.to/lastmile_qr_scan", "ios": "https://dc.lft.to/lastmile_qr_scan"}, "name": "315f0d5671c0f18e3cc95c8e8bc7139e", "is_reserved": 0}, {"is_disabled": 0, "fusion_lon": 0.0, "fusion_lat": 0.0, "lat": 38.910440333333334, "type": "electric_scooter", "lon": -77.0337395, "bike_id": "80f1b055476fdaf56a40b870bf67bb82", "rental_uris": {"android": "https://dc.lft.to/lastmile_qr_scan", "ios": "https://dc.lft.to/lastmile_qr_scan"}, "name": "80f1b055476fdaf56a40b870bf67bb82", "is_reserved": 0}, {"is_disabled": 0, "fusion_lon": 0.0, "fusion_lat": 0.0, "lat": 38.894692166666665, "type": "electric_scooter", "lon": -76.994159, "bike_id": "bbc700eca1d8db4a20b1f37efc9ba55d", "rental_uris": {"android": "https://dc.lft.to/lastmile_qr_scan", "ios": "https://dc.lft.to/lastmile_qr_scan"}, "name": "bbc700eca1d8db4a20b1f37efc9ba55d", "is_reserved": 0}, {"is_disabled": 0, "fusion_lon": 0.0, "fusion_lat": 0.0, "lat": 38.86354516666667, "type": "electric_scooter", "lon": -76.99063833333334, "bike_id": "d20b37797f127bb2b43fb55a1a3e40be", "rental_uris": {"android": "https://dc.lft.to/lastmile_qr_scan", "ios": "https://dc.lft.to/lastmile_qr_scan"}, "name": "d20b37797f127bb2b43fb55a1a3e40be", "is_reserved": 0}, {"is_disabled": 0, "fusion_lon": 0.0, "fusion_lat": 0.0, "lat": 38.899923333333334, "type": "electric_scooter", "lon": -77.02064216666666, "bike_id": "c2c26f7fec62fcaea369fdf52108e546", "rental_uris": {"android": "https://dc.lft.to/lastmile_qr_scan", "ios": "https://dc.lft.to/lastmile_qr_scan"}, "name": "c2c26f7fec62fcaea369fdf52108e546", "is_reserved": 0}, {"is_disabled": 0, "fusion_lon": 0.0, "fusion_lat": 0.0, "lat": 38.8995955, "type": "electric_scooter", "lon": -77.04789333333333, "bike_id": "e793dd8360e8d7f49adc3a5a01c1ca14", "rental_uris": {"android": "https://dc.lft.to/lastmile_qr_scan", "ios": "https://dc.lft.to/lastmile_qr_scan"}, "name": "e793dd8360e8d7f49adc3a5a01c1ca14", "is_reserved": 0}, {"is_disabled": 0, "fusion_lon": 0.0, "fusion_lat": 0.0, "lat": 38.915933, "type": "electric_scooter", "lon": -77.04689583333334, "bike_id": "121cff353d080b158f9e3d5a412d3379", "rental_uris": {"android": "https://dc.lft.to/lastmile_qr_scan", "ios": "https://dc.lft.to/lastmile_qr_scan"}, "name": "121cff353d080b158f9e3d5a412d3379", "is_reserved": 0}, {"is_disabled": 0, "fusion_lon": 0.0, "fusion_lat": 0.0, "lat": 38.8973145, "type": "electric_scooter", "lon": -77.048162, "bike_id": "f8f09f8c90ce662fc45d3502c20ab009", "rental_uris": {"android": "https://dc.lft.to/lastmile_qr_scan", "ios": "https://dc.lft.to/lastmile_qr_scan"}, "name": "f8f09f8c90ce662fc45d3502c20ab009", "is_reserved": 0}, {"is_disabled": 0, "fusion_lon": 0.0, "fusion_lat": 0.0, "lat": 38.9499885, "type": "electric_bike", "lon": -77.35312116666667, "bike_id": "1f810b7c101ee8c53a1034d58003a604", "rental_uris": {"android": "https://dc.lft.to/lastmile_qr_scan", "ios": "https://dc.lft.to/lastmile_qr_scan"}, "name": "1f810b7c101ee8c53a1034d58003a604", "is_reserved": 0}, {"is_disabled": 0, "fusion_lon": 0.0, "fusion_lat": 0.0, "lat": 38.9098005, "type": "electric_scooter", "lon": -77.03830833333333, "bike_id": "445b352a439e6bd5f62c59eb5f8edccb", "rental_uris": {"android": "https://dc.lft.to/lastmile_qr_scan", "ios": "https://dc.lft.to/lastmile_qr_scan"}, "name": "445b352a439e6bd5f62c59eb5f8edccb", "is_reserved": 0}, {"is_disabled": 0, "fusion_lon": 0.0, "fusion_lat": 0.0, "lat": 38.919229333333334, "type": "electric_scooter", "lon": -77.0251685, "bike_id": "938d777551846d1fde2d619e421ff991", "rental_uris": {"android": "https://dc.lft.to/lastmile_qr_scan", "ios": "https://dc.lft.to/lastmile_qr_scan"}, "name": "938d777551846d1fde2d619e421ff991", "is_reserved": 0}, {"is_disabled": 0, "fusion_lon": 0.0, "fusion_lat": 0.0, "lat": 38.9014135, "type": "electric_scooter", "lon": -77.0273185, "bike_id": "582c9d91e82f401fe5b3026be737a36a", "rental_uris": {"android": "https://dc.lft.to/lastmile_qr_scan", "ios": "https://dc.lft.to/lastmile_qr_scan"}, "name": "582c9d91e82f401fe5b3026be737a36a", "is_reserved": 0}, {"is_disabled": 0, "fusion_lon": 0.0, "fusion_lat": 0.0, "lat": 38.89567366666667, "type": "electric_scooter", "lon": -77.02299266666667, "bike_id": "944b9272a9dc98eaa3967b96c052d596", "rental_uris": {"android": "https://dc.lft.to/lastmile_qr_scan", "ios": "https://dc.lft.to/lastmile_qr_scan"}, "name": "944b9272a9dc98eaa3967b96c052d596", "is_reserved": 0}, {"is_disabled": 0, "fusion_lon": 0.0, "fusion_lat": 0.0, "lat": 38.89464133333333, "type": "electric_scooter", "lon": -77.02286733333334, "bike_id": "30a1a3f357133b035f2747e26aacd037", "rental_uris": {"android": "https://dc.lft.to/lastmile_qr_scan", "ios": "https://dc.lft.to/lastmile_qr_scan"}, "name": "30a1a3f357133b035f2747e26aacd037", "is_reserved": 0}, {"is_disabled": 0, "fusion_lon": 0.0, "fusion_lat": 0.0, "lat": 38.876591, "type": "electric_scooter", "lon": -77.003975, "bike_id": "5c31b5f7a77cf3ebc52a9020d905b4ab", "rental_uris": {"android": "https://dc.lft.to/lastmile_qr_scan", "ios": "https://dc.lft.to/lastmile_qr_scan"}, "name": "5c31b5f7a77cf3ebc52a9020d905b4ab", "is_reserved": 0}, {"is_disabled": 0, "fusion_lon": 0.0, "fusion_lat": 0.0, "lat": 38.9167655, "type": "electric_scooter", "lon": -77.02973283333333, "bike_id": "b4c15ed1eb740c9fd907fa34854911d4", "rental_uris": {"android": "https://dc.lft.to/lastmile_qr_scan", "ios": "https://dc.lft.to/lastmile_qr_scan"}, "name": "b4c15ed1eb740c9fd907fa34854911d4", "is_reserved": 0}, {"is_disabled": 0, "fusion_lon": 0.0, "fusion_lat": 0.0, "lat": 38.924245, "type": "electric_scooter", "lon": -77.04481416666667, "bike_id": "283817c28d8c6288e482ceb5b0243e42", "rental_uris": {"android": "https://dc.lft.to/lastmile_qr_scan", "ios": "https://dc.lft.to/lastmile_qr_scan"}, "name": "283817c28d8c6288e482ceb5b0243e42", "is_reserved": 0}, {"is_disabled": 0, "fusion_lon": 0.0, "fusion_lat": 0.0, "lat": 38.9448945, "type": "electric_bike", "lon": -76.98663216666667, "bike_id": "daf66dd827f7f5b9ffa9d2c45617c424", "rental_uris": {"android": "https://dc.lft.to/lastmile_qr_scan", "ios": "https://dc.lft.to/lastmile_qr_scan"}, "name": "daf66dd827f7f5b9ffa9d2c45617c424", "is_reserved": 0}, {"is_disabled": 0, "fusion_lon": 0.0, "fusion_lat": 0.0, "lat": 38.935497166666664, "type": "electric_scooter", "lon": -77.0581215, "bike_id": "aca9ad6649b8feb171f0be6f60383b0f", "rental_uris": {"android": "https://dc.lft.to/lastmile_qr_scan", "ios": "https://dc.lft.to/lastmile_qr_scan"}, "name": "aca9ad6649b8feb171f0be6f60383b0f", "is_reserved": 0}, {"is_disabled": 0, "fusion_lon": 0.0, "fusion_lat": 0.0, "lat": 38.9117685, "type": "electric_scooter", "lon": -77.02701016666667, "bike_id": "82fe2a6bc44538543894218d1952673c", "rental_uris": {"android": "https://dc.lft.to/lastmile_qr_scan", "ios": "https://dc.lft.to/lastmile_qr_scan"}, "name": "82fe2a6bc44538543894218d1952673c", "is_reserved": 0}, {"is_disabled": 0, "fusion_lon": 0.0, "fusion_lat": 0.0, "lat": 38.912612333333335, "type": "electric_scooter", "lon": -77.041529, "bike_id": "23b71eeb54a5745e21f199d452f1a3b8", "rental_uris": {"android": "https://dc.lft.to/lastmile_qr_scan", "ios": "https://dc.lft.to/lastmile_qr_scan"}, "name": "23b71eeb54a5745e21f199d452f1a3b8", "is_reserved": 0}, {"is_disabled": 0, "fusion_lon": 0.0, "fusion_lat": 0.0, "lat": 38.91582, "type": "electric_scooter", "lon": -77.02003633333334, "bike_id": "f6b9ae981a8400b35777750a3bc41c8b", "rental_uris": {"android": "https://dc.lft.to/lastmile_qr_scan", "ios": "https://dc.lft.to/lastmile_qr_scan"}, "name": "f6b9ae981a8400b35777750a3bc41c8b", "is_reserved": 0}, {"is_disabled": 0, "fusion_lon": 0.0, "fusion_lat": 0.0, "lat": 38.91202416666667, "type": "electric_scooter", "lon": -76.98483083333333, "bike_id": "acd002f3e5e7df28390f3d564e26b5ba", "rental_uris": {"android": "https://dc.lft.to/lastmile_qr_scan", "ios": "https://dc.lft.to/lastmile_qr_scan"}, "name": "acd002f3e5e7df28390f3d564e26b5ba", "is_reserved": 0}, {"is_disabled": 0, "fusion_lon": 0.0, "fusion_lat": 0.0, "lat": 38.921624, "type": "electric_scooter", "lon": -77.04350716666667, "bike_id": "ea457c1023b9ef03a83f357a5d907c69", "rental_uris": {"android": "https://dc.lft.to/lastmile_qr_scan", "ios": "https://dc.lft.to/lastmile_qr_scan"}, "name": "ea457c1023b9ef03a83f357a5d907c69", "is_reserved": 0}, {"is_disabled": 0, "fusion_lon": 0.0, "fusion_lat": 0.0, "lat": 38.8921875, "type": "electric_scooter", "lon": -77.02222366666666, "bike_id": "b3b8b47622b72d98c50de461654651d2", "rental_uris": {"android": "https://dc.lft.to/lastmile_qr_scan", "ios": "https://dc.lft.to/lastmile_qr_scan"}, "name": "b3b8b47622b72d98c50de461654651d2", "is_reserved": 0}, {"is_disabled": 0, "fusion_lon": 0.0, "fusion_lat": 0.0, "lat": 38.9085215, "type": "electric_scooter", "lon": -76.99803, "bike_id": "764d3c7bcb8b316f5c509171684f8baf", "rental_uris": {"android": "https://dc.lft.to/lastmile_qr_scan", "ios": "https://dc.lft.to/lastmile_qr_scan"}, "name": "764d3c7bcb8b316f5c509171684f8baf", "is_reserved": 0}, {"is_disabled": 0, "fusion_lon": 0.0, "fusion_lat": 0.0, "lat": 38.90730833333333, "type": "electric_scooter", "lon": -77.0236935, "bike_id": "d6fe36fc1d484c52ab5bcb0f479e6d4a", "rental_uris": {"android": "https://dc.lft.to/lastmile_qr_scan", "ios": "https://dc.lft.to/lastmile_qr_scan"}, "name": "d6fe36fc1d484c52ab5bcb0f479e6d4a", "is_reserved": 0}, {"is_disabled": 0, "fusion_lon": 0.0, "fusion_lat": 0.0, "lat": 38.9076335, "type": "electric_scooter", "lon": -77.03198866666666, "bike_id": "c9574b5e04625129ec709bb55e6af0df", "rental_uris": {"android": "https://dc.lft.to/lastmile_qr_scan", "ios": "https://dc.lft.to/lastmile_qr_scan"}, "name": "c9574b5e04625129ec709bb55e6af0df", "is_reserved": 0}, {"is_disabled": 0, "fusion_lon": 0.0, "fusion_lat": 0.0, "lat": 38.97057383333333, "type": "electric_bike", "lon": -76.96061016666667, "bike_id": "7a69f0d644ded716456438583f56ab84", "rental_uris": {"android": "https://dc.lft.to/lastmile_qr_scan", "ios": "https://dc.lft.to/lastmile_qr_scan"}, "name": "7a69f0d644ded716456438583f56ab84", "is_reserved": 0}, {"is_disabled": 0, "fusion_lon": 0.0, "fusion_lat": 0.0, "lat": 38.94834733333333, "type": "electric_scooter", "lon": -77.02830783333333, "bike_id": "f2e806d75766c6e2260e4b35c2e35001", "rental_uris": {"android": "https://dc.lft.to/lastmile_qr_scan", "ios": "https://dc.lft.to/lastmile_qr_scan"}, "name": "f2e806d75766c6e2260e4b35c2e35001", "is_reserved": 0}, {"is_disabled": 0, "fusion_lon": 0.0, "fusion_lat": 0.0, "lat": 38.90162433333333, "type": "electric_scooter", "lon": -76.993809, "bike_id": "90adc171ca8d72a0d3be819626fb08d6", "rental_uris": {"android": "https://dc.lft.to/lastmile_qr_scan", "ios": "https://dc.lft.to/lastmile_qr_scan"}, "name": "90adc171ca8d72a0d3be819626fb08d6", "is_reserved": 0}, {"is_disabled": 0, "fusion_lon": 0.0, "fusion_lat": 0.0, "lat": 38.885683, "type": "electric_scooter", "lon": -77.00069, "bike_id": "c4a9229c52863ba05c2fbe14d0440246", "rental_uris": {"android": "https://dc.lft.to/lastmile_qr_scan", "ios": "https://dc.lft.to/lastmile_qr_scan"}, "name": "c4a9229c52863ba05c2fbe14d0440246", "is_reserved": 0}, {"is_disabled": 0, "fusion_lon": 0.0, "fusion_lat": 0.0, "lat": 38.9173375, "type": "electric_scooter", "lon": -76.99181683333333, "bike_id": "6c9ccabe84bb9fff1634e4d34fd34f40", "rental_uris": {"android": "https://dc.lft.to/lastmile_qr_scan", "ios": "https://dc.lft.to/lastmile_qr_scan"}, "name": "6c9ccabe84bb9fff1634e4d34fd34f40", "is_reserved": 0}, {"is_disabled": 0, "fusion_lon": 0.0, "fusion_lat": 0.0, "lat": 38.9157605, "type": "electric_scooter", "lon": -77.04683066666666, "bike_id": "8915e37bda144c0da490cb7842ff8993", "rental_uris": {"android": "https://dc.lft.to/lastmile_qr_scan", "ios": "https://dc.lft.to/lastmile_qr_scan"}, "name": "8915e37bda144c0da490cb7842ff8993", "is_reserved": 0}, {"is_disabled": 0, "fusion_lon": 0.0, "fusion_lat": 0.0, "lat": 38.917963666666665, "type": "electric_scooter", "lon": -77.03459583333333, "bike_id": "9ac231c27de483513812de17c1cad79f", "rental_uris": {"android": "https://dc.lft.to/lastmile_qr_scan", "ios": "https://dc.lft.to/lastmile_qr_scan"}, "name": "9ac231c27de483513812de17c1cad79f", "is_reserved": 0}, {"is_disabled": 0, "fusion_lon": 0.0, "fusion_lat": 0.0, "lat": 38.94804833333333, "type": "electric_bike", "lon": -76.97214483333333, "bike_id": "01ee8d7e9cb023ab0da424013ef6bdf5", "rental_uris": {"android": "https://dc.lft.to/lastmile_qr_scan", "ios": "https://dc.lft.to/lastmile_qr_scan"}, "name": "01ee8d7e9cb023ab0da424013ef6bdf5", "is_reserved": 0}, {"is_disabled": 0, "fusion_lon": 0.0, "fusion_lat": 0.0, "lat": 38.9051115, "type": "electric_scooter", "lon": -77.02499983333334, "bike_id": "84dbeab02d79a6782d5e6c80c08b2247", "rental_uris": {"android": "https://dc.lft.to/lastmile_qr_scan", "ios": "https://dc.lft.to/lastmile_qr_scan"}, "name": "84dbeab02d79a6782d5e6c80c08b2247", "is_reserved": 0}, {"is_disabled": 0, "fusion_lon": 0.0, "fusion_lat": 0.0, "lat": 38.932039, "type": "electric_scooter", "lon": -77.03660666666667, "bike_id": "0342efc137593055cca5e230f8ca0ae1", "rental_uris": {"android": "https://dc.lft.to/lastmile_qr_scan", "ios": "https://dc.lft.to/lastmile_qr_scan"}, "name": "0342efc137593055cca5e230f8ca0ae1", "is_reserved": 0}, {"is_disabled": 0, "fusion_lon": 0.0, "fusion_lat": 0.0, "lat": 38.984963666666665, "type": "electric_bike", "lon": -76.98197983333333, "bike_id": "b9635cfb5f981f741f6454675ec01866", "rental_uris": {"android": "https://dc.lft.to/lastmile_qr_scan", "ios": "https://dc.lft.to/lastmile_qr_scan"}, "name": "b9635cfb5f981f741f6454675ec01866", "is_reserved": 0}, {"is_disabled": 0, "fusion_lon": 0.0, "fusion_lat": 0.0, "lat": 38.93079016666667, "type": "electric_scooter", "lon": -77.02794083333333, "bike_id": "e65ed5ea6b9f88443be358f229861ef8", "rental_uris": {"android": "https://dc.lft.to/lastmile_qr_scan", "ios": "https://dc.lft.to/lastmile_qr_scan"}, "name": "e65ed5ea6b9f88443be358f229861ef8", "is_reserved": 0}, {"is_disabled": 0, "fusion_lon": 0.0, "fusion_lat": 0.0, "lat": 38.90910433333333, "type": "electric_scooter", "lon": -77.02297133333333, "bike_id": "ccfd119bd253590a36931f253d6051d5", "rental_uris": {"android": "https://dc.lft.to/lastmile_qr_scan", "ios": "https://dc.lft.to/lastmile_qr_scan"}, "name": "ccfd119bd253590a36931f253d6051d5", "is_reserved": 0}, {"is_disabled": 0, "fusion_lon": 0.0, "fusion_lat": 0.0, "lat": 38.899881666666666, "type": "electric_scooter", "lon": -77.02944916666667, "bike_id": "d670ef44e385a33e5e6d19832c9444c8", "rental_uris": {"android": "https://dc.lft.to/lastmile_qr_scan", "ios": "https://dc.lft.to/lastmile_qr_scan"}, "name": "d670ef44e385a33e5e6d19832c9444c8", "is_reserved": 0}, {"is_disabled": 0, "fusion_lon": 0.0, "fusion_lat": 0.0, "lat": 38.9073265, "type": "electric_scooter", "lon": -77.0236865, "bike_id": "e4587b799f8db4f81487213629b07353", "rental_uris": {"android": "https://dc.lft.to/lastmile_qr_scan", "ios": "https://dc.lft.to/lastmile_qr_scan"}, "name": "e4587b799f8db4f81487213629b07353", "is_reserved": 0}, {"is_disabled": 0, "fusion_lon": 0.0, "fusion_lat": 0.0, "lat": 38.905856, "type": "electric_scooter", "lon": -77.0072505, "bike_id": "24891ffba64abd62d7f9ceb0a4557cff", "rental_uris": {"android": "https://dc.lft.to/lastmile_qr_scan", "ios": "https://dc.lft.to/lastmile_qr_scan"}, "name": "24891ffba64abd62d7f9ceb0a4557cff", "is_reserved": 0}, {"is_disabled": 0, "fusion_lon": 0.0, "fusion_lat": 0.0, "lat": 38.928157, "type": "electric_scooter", "lon": -77.036357, "bike_id": "a37c3aca14a6b582bb35852e3a88f20d", "rental_uris": {"android": "https://dc.lft.to/lastmile_qr_scan", "ios": "https://dc.lft.to/lastmile_qr_scan"}, "name": "a37c3aca14a6b582bb35852e3a88f20d", "is_reserved": 0}, {"is_disabled": 0, "fusion_lon": 0.0, "fusion_lat": 0.0, "lat": 38.9199495, "type": "electric_scooter", "lon": -77.03283633333334, "bike_id": "9f82cb60fb2a91fafc4af13bff0402d2", "rental_uris": {"android": "https://dc.lft.to/lastmile_qr_scan", "ios": "https://dc.lft.to/lastmile_qr_scan"}, "name": "9f82cb60fb2a91fafc4af13bff0402d2", "is_reserved": 0}, {"is_disabled": 0, "fusion_lon": 0.0, "fusion_lat": 0.0, "lat": 38.93289633333333, "type": "electric_scooter", "lon": -77.02448966666667, "bike_id": "8a59564ffd971e4b182888848da95101", "rental_uris": {"android": "https://dc.lft.to/lastmile_qr_scan", "ios": "https://dc.lft.to/lastmile_qr_scan"}, "name": "8a59564ffd971e4b182888848da95101", "is_reserved": 0}, {"is_disabled": 0, "fusion_lon": 0.0, "fusion_lat": 0.0, "lat": 38.867109666666664, "type": "electric_scooter", "lon": -76.98732733333334, "bike_id": "555fe30c61eb0f93ce8d45e7789cca5a", "rental_uris": {"android": "https://dc.lft.to/lastmile_qr_scan", "ios": "https://dc.lft.to/lastmile_qr_scan"}, "name": "555fe30c61eb0f93ce8d45e7789cca5a", "is_reserved": 0}, {"is_disabled": 0, "fusion_lon": 0.0, "fusion_lat": 0.0, "lat": 38.879379666666665, "type": "electric_bike", "lon": -77.01469016666667, "bike_id": "f563bb9bc940a8b57770bf10db4fb38f", "rental_uris": {"android": "https://dc.lft.to/lastmile_qr_scan", "ios": "https://dc.lft.to/lastmile_qr_scan"}, "name": "f563bb9bc940a8b57770bf10db4fb38f", "is_reserved": 0}, {"is_disabled": 0, "fusion_lon": 0.0, "fusion_lat": 0.0, "lat": 38.91047016666667, "type": "electric_scooter", "lon": -77.043463, "bike_id": "c26593baaeaa0cb7f4b0b3673f8ea104", "rental_uris": {"android": "https://dc.lft.to/lastmile_qr_scan", "ios": "https://dc.lft.to/lastmile_qr_scan"}, "name": "c26593baaeaa0cb7f4b0b3673f8ea104", "is_reserved": 0}, {"is_disabled": 0, "fusion_lon": 0.0, "fusion_lat": 0.0, "lat": 38.930834833333336, "type": "electric_scooter", "lon": -77.02794, "bike_id": "6dbf6ccd396d522825478f1cf589f961", "rental_uris": {"android": "https://dc.lft.to/lastmile_qr_scan", "ios": "https://dc.lft.to/lastmile_qr_scan"}, "name": "6dbf6ccd396d522825478f1cf589f961", "is_reserved": 0}, {"is_disabled": 0, "fusion_lon": 0.0, "fusion_lat": 0.0, "lat": 38.9086645, "type": "electric_scooter", "lon": -77.0447445, "bike_id": "9b367bebd485121a92589e66a9b1de91", "rental_uris": {"android": "https://dc.lft.to/lastmile_qr_scan", "ios": "https://dc.lft.to/lastmile_qr_scan"}, "name": "9b367bebd485121a92589e66a9b1de91", "is_reserved": 0}, {"is_disabled": 0, "fusion_lon": 0.0, "fusion_lat": 0.0, "lat": 38.90971416666667, "type": "electric_scooter", "lon": -77.021763, "bike_id": "2de1175ca9ed627c231a578371f4320e", "rental_uris": {"android": "https://dc.lft.to/lastmile_qr_scan", "ios": "https://dc.lft.to/lastmile_qr_scan"}, "name": "2de1175ca9ed627c231a578371f4320e", "is_reserved": 0}, {"is_disabled": 0, "fusion_lon": 0.0, "fusion_lat": 0.0, "lat": 38.9179105, "type": "electric_scooter", "lon": -77.03194266666667, "bike_id": "67cdb72119447e0597e6f0a5e207579d", "rental_uris": {"android": "https://dc.lft.to/lastmile_qr_scan", "ios": "https://dc.lft.to/lastmile_qr_scan"}, "name": "67cdb72119447e0597e6f0a5e207579d", "is_reserved": 0}, {"is_disabled": 0, "fusion_lon": 0.0, "fusion_lat": 0.0, "lat": 38.87674166666667, "type": "electric_bike", "lon": -77.01429316666666, "bike_id": "e8852acff48d3fa64c4a42b80e8d539d", "rental_uris": {"android": "https://dc.lft.to/lastmile_qr_scan", "ios": "https://dc.lft.to/lastmile_qr_scan"}, "name": "e8852acff48d3fa64c4a42b80e8d539d", "is_reserved": 0}, {"is_disabled": 0, "fusion_lon": 0.0, "fusion_lat": 0.0, "lat": 38.929603, "type": "electric_scooter", "lon": -77.005476, "bike_id": "83744c19b0b6e4b3217f953b92464a4e", "rental_uris": {"android": "https://dc.lft.to/lastmile_qr_scan", "ios": "https://dc.lft.to/lastmile_qr_scan"}, "name": "83744c19b0b6e4b3217f953b92464a4e", "is_reserved": 0}, {"is_disabled": 0, "fusion_lon": 0.0, "fusion_lat": 0.0, "lat": 38.92811416666667, "type": "electric_scooter", "lon": -77.023481, "bike_id": "256e47e33b901619c7ae808e5e100257", "rental_uris": {"android": "https://dc.lft.to/lastmile_qr_scan", "ios": "https://dc.lft.to/lastmile_qr_scan"}, "name": "256e47e33b901619c7ae808e5e100257", "is_reserved": 0}, {"is_disabled": 0, "fusion_lon": 0.0, "fusion_lat": 0.0, "lat": 38.89223366666667, "type": "electric_scooter", "lon": -77.03188416666667, "bike_id": "64ac4b5d09f4944c9eb2d1bab4184c2a", "rental_uris": {"android": "https://dc.lft.to/lastmile_qr_scan", "ios": "https://dc.lft.to/lastmile_qr_scan"}, "name": "64ac4b5d09f4944c9eb2d1bab4184c2a", "is_reserved": 0}, {"is_disabled": 0, "fusion_lon": 0.0, "fusion_lat": 0.0, "lat": 38.902237166666666, "type": "electric_scooter", "lon": -76.98218166666666, "bike_id": "7d75ead6c3d0b069ca505e022071fba5", "rental_uris": {"android": "https://dc.lft.to/lastmile_qr_scan", "ios": "https://dc.lft.to/lastmile_qr_scan"}, "name": "7d75ead6c3d0b069ca505e022071fba5", "is_reserved": 0}, {"is_disabled": 0, "fusion_lon": 0.0, "fusion_lat": 0.0, "lat": 38.941566, "type": "electric_bike", "lon": -77.001892, "bike_id": "77b3e6acccaf24e7067426c8e473a541", "rental_uris": {"android": "https://dc.lft.to/lastmile_qr_scan", "ios": "https://dc.lft.to/lastmile_qr_scan"}, "name": "77b3e6acccaf24e7067426c8e473a541", "is_reserved": 0}, {"is_disabled": 0, "fusion_lon": 0.0, "fusion_lat": 0.0, "lat": 38.898503, "type": "electric_scooter", "lon": -77.02924733333333, "bike_id": "a8570068f4e4511e581e2f51930d6b76", "rental_uris": {"android": "https://dc.lft.to/lastmile_qr_scan", "ios": "https://dc.lft.to/lastmile_qr_scan"}, "name": "a8570068f4e4511e581e2f51930d6b76", "is_reserved": 0}, {"is_disabled": 0, "fusion_lon": 0.0, "fusion_lat": 0.0, "lat": 38.91747083333333, "type": "electric_scooter", "lon": -77.01713666666667, "bike_id": "7242f2a6cc67963b12e1daf7e4603ec8", "rental_uris": {"android": "https://dc.lft.to/lastmile_qr_scan", "ios": "https://dc.lft.to/lastmile_qr_scan"}, "name": "7242f2a6cc67963b12e1daf7e4603ec8", "is_reserved": 0}, {"is_disabled": 0, "fusion_lon": 0.0, "fusion_lat": 0.0, "lat": 39.058136, "type": "electric_bike", "lon": -77.1262825, "bike_id": "6532e0ca55c1763ddd0e625a0721ebfe", "rental_uris": {"android": "https://dc.lft.to/lastmile_qr_scan", "ios": "https://dc.lft.to/lastmile_qr_scan"}, "name": "6532e0ca55c1763ddd0e625a0721ebfe", "is_reserved": 0}, {"is_disabled": 0, "fusion_lon": 0.0, "fusion_lat": 0.0, "lat": 38.9069525, "type": "electric_bike", "lon": -77.03582366666667, "bike_id": "01449cf89eae79a5ac8709efdcadb083", "rental_uris": {"android": "https://dc.lft.to/lastmile_qr_scan", "ios": "https://dc.lft.to/lastmile_qr_scan"}, "name": "01449cf89eae79a5ac8709efdcadb083", "is_reserved": 0}, {"is_disabled": 0, "fusion_lon": 0.0, "fusion_lat": 0.0, "lat": 38.91404166666667, "type": "electric_scooter", "lon": -77.03758283333333, "bike_id": "31a1bdb2c79bf1289ecafc6f0e3ec67b", "rental_uris": {"android": "https://dc.lft.to/lastmile_qr_scan", "ios": "https://dc.lft.to/lastmile_qr_scan"}, "name": "31a1bdb2c79bf1289ecafc6f0e3ec67b", "is_reserved": 0}, {"is_disabled": 0, "fusion_lon": 0.0, "fusion_lat": 0.0, "lat": 38.896923, "type": "electric_scooter", "lon": -77.00495583333333, "bike_id": "13d757275a24183aeeefef67b0962057", "rental_uris": {"android": "https://dc.lft.to/lastmile_qr_scan", "ios": "https://dc.lft.to/lastmile_qr_scan"}, "name": "13d757275a24183aeeefef67b0962057", "is_reserved": 0}, {"is_disabled": 0, "fusion_lon": 0.0, "fusion_lat": 0.0, "lat": 38.91214266666667, "type": "electric_scooter", "lon": -77.038344, "bike_id": "116351168cd537fd75cc51398c12bae2", "rental_uris": {"android": "https://dc.lft.to/lastmile_qr_scan", "ios": "https://dc.lft.to/lastmile_qr_scan"}, "name": "116351168cd537fd75cc51398c12bae2", "is_reserved": 0}, {"is_disabled": 0, "fusion_lon": 0.0, "fusion_lat": 0.0, "lat": 38.91383733333333, "type": "electric_scooter", "lon": -77.01706066666667, "bike_id": "b1119ba795d50c6ff8d51211a7c95b4a", "rental_uris": {"android": "https://dc.lft.to/lastmile_qr_scan", "ios": "https://dc.lft.to/lastmile_qr_scan"}, "name": "b1119ba795d50c6ff8d51211a7c95b4a", "is_reserved": 0}, {"is_disabled": 0, "fusion_lon": 0.0, "fusion_lat": 0.0, "lat": 38.916957, "type": "electric_scooter", "lon": -77.02286666666667, "bike_id": "45bb599e5095101511721a5ba4df249d", "rental_uris": {"android": "https://dc.lft.to/lastmile_qr_scan", "ios": "https://dc.lft.to/lastmile_qr_scan"}, "name": "45bb599e5095101511721a5ba4df249d", "is_reserved": 0}, {"is_disabled": 0, "fusion_lon": 0.0, "fusion_lat": 0.0, "lat": 38.908452, "type": "electric_scooter", "lon": -77.03437083333333, "bike_id": "9a98a58bc3fcb25b0f974d98dc319a8e", "rental_uris": {"android": "https://dc.lft.to/lastmile_qr_scan", "ios": "https://dc.lft.to/lastmile_qr_scan"}, "name": "9a98a58bc3fcb25b0f974d98dc319a8e", "is_reserved": 0}, {"is_disabled": 0, "fusion_lon": 0.0, "fusion_lat": 0.0, "lat": 38.91809133333334, "type": "electric_scooter", "lon": -77.02685683333333, "bike_id": "903bd41517a1b2fbdde8e7893c932677", "rental_uris": {"android": "https://dc.lft.to/lastmile_qr_scan", "ios": "https://dc.lft.to/lastmile_qr_scan"}, "name": "903bd41517a1b2fbdde8e7893c932677", "is_reserved": 0}, {"is_disabled": 0, "fusion_lon": 0.0, "fusion_lat": 0.0, "lat": 38.945056, "type": "electric_bike", "lon": -77.00670283333334, "bike_id": "4a30a100a6b5cb2f7b202717cbdc9e17", "rental_uris": {"android": "https://dc.lft.to/lastmile_qr_scan", "ios": "https://dc.lft.to/lastmile_qr_scan"}, "name": "4a30a100a6b5cb2f7b202717cbdc9e17", "is_reserved": 0}, {"is_disabled": 0, "fusion_lon": 0.0, "fusion_lat": 0.0, "lat": 38.903881, "type": "electric_scooter", "lon": -77.02803916666667, "bike_id": "401a3661c41c6b6a55ad58ebf3216cc8", "rental_uris": {"android": "https://dc.lft.to/lastmile_qr_scan", "ios": "https://dc.lft.to/lastmile_qr_scan"}, "name": "401a3661c41c6b6a55ad58ebf3216cc8", "is_reserved": 0}, {"is_disabled": 0, "fusion_lon": 0.0, "fusion_lat": 0.0, "lat": 38.8745325, "type": "electric_scooter", "lon": -77.00507333333333, "bike_id": "4e6de9dda4ac957a6817e204a6a8d66e", "rental_uris": {"android": "https://dc.lft.to/lastmile_qr_scan", "ios": "https://dc.lft.to/lastmile_qr_scan"}, "name": "4e6de9dda4ac957a6817e204a6a8d66e", "is_reserved": 0}, {"is_disabled": 0, "fusion_lon": 0.0, "fusion_lat": 0.0, "lat": 38.9002655, "type": "electric_scooter", "lon": -77.0334475, "bike_id": "91f1f9ab707ae4ec1a0dddb12d0536a1", "rental_uris": {"android": "https://dc.lft.to/lastmile_qr_scan", "ios": "https://dc.lft.to/lastmile_qr_scan"}, "name": "91f1f9ab707ae4ec1a0dddb12d0536a1", "is_reserved": 0}, {"is_disabled": 0, "fusion_lon": 0.0, "fusion_lat": 0.0, "lat": 38.91693316666667, "type": "electric_scooter", "lon": -77.04086883333333, "bike_id": "6117274c18e1890f7a0659421ca7e4fc", "rental_uris": {"android": "https://dc.lft.to/lastmile_qr_scan", "ios": "https://dc.lft.to/lastmile_qr_scan"}, "name": "6117274c18e1890f7a0659421ca7e4fc", "is_reserved": 0}, {"is_disabled": 0, "fusion_lon": 0.0, "fusion_lat": 0.0, "lat": 38.89851066666667, "type": "electric_scooter", "lon": -76.99033166666666, "bike_id": "7f960a5c33d244a85d2785f4fe9c4331", "rental_uris": {"android": "https://dc.lft.to/lastmile_qr_scan", "ios": "https://dc.lft.to/lastmile_qr_scan"}, "name": "7f960a5c33d244a85d2785f4fe9c4331", "is_reserved": 0}, {"is_disabled": 0, "fusion_lon": 0.0, "fusion_lat": 0.0, "lat": 38.92416883333333, "type": "electric_scooter", "lon": -77.0354185, "bike_id": "aaebea831f308151237f9c1e74652c35", "rental_uris": {"android": "https://dc.lft.to/lastmile_qr_scan", "ios": "https://dc.lft.to/lastmile_qr_scan"}, "name": "aaebea831f308151237f9c1e74652c35", "is_reserved": 0}, {"is_disabled": 0, "fusion_lon": 0.0, "fusion_lat": 0.0, "lat": 38.95759233333333, "type": "electric_bike", "lon": -77.020603, "bike_id": "8c855eb0b7ac2cf9e142f70257b9bd93", "rental_uris": {"android": "https://dc.lft.to/lastmile_qr_scan", "ios": "https://dc.lft.to/lastmile_qr_scan"}, "name": "8c855eb0b7ac2cf9e142f70257b9bd93", "is_reserved": 0}, {"is_disabled": 0, "fusion_lon": 0.0, "fusion_lat": 0.0, "lat": 38.8993735, "type": "electric_scooter", "lon": -77.01505416666667, "bike_id": "15745fd5767231346d65b37c0361148d", "rental_uris": {"android": "https://dc.lft.to/lastmile_qr_scan", "ios": "https://dc.lft.to/lastmile_qr_scan"}, "name": "15745fd5767231346d65b37c0361148d", "is_reserved": 0}, {"is_disabled": 0, "fusion_lon": 0.0, "fusion_lat": 0.0, "lat": 38.89241883333333, "type": "electric_scooter", "lon": -77.04666783333333, "bike_id": "1d9c43ca0df19e69749cc13769671a77", "rental_uris": {"android": "https://dc.lft.to/lastmile_qr_scan", "ios": "https://dc.lft.to/lastmile_qr_scan"}, "name": "1d9c43ca0df19e69749cc13769671a77", "is_reserved": 0}, {"is_disabled": 0, "fusion_lon": 0.0, "fusion_lat": 0.0, "lat": 38.912215, "type": "electric_scooter", "lon": -77.03187633333333, "bike_id": "db87f043a580d24670f16d300841febd", "rental_uris": {"android": "https://dc.lft.to/lastmile_qr_scan", "ios": "https://dc.lft.to/lastmile_qr_scan"}, "name": "db87f043a580d24670f16d300841febd", "is_reserved": 0}, {"is_disabled": 0, "fusion_lon": 0.0, "fusion_lat": 0.0, "lat": 38.924838666666666, "type": "electric_scooter", "lon": -77.02727966666667, "bike_id": "ced23a178da20bcfc2e4f3513ecb80ae", "rental_uris": {"android": "https://dc.lft.to/lastmile_qr_scan", "ios": "https://dc.lft.to/lastmile_qr_scan"}, "name": "ced23a178da20bcfc2e4f3513ecb80ae", "is_reserved": 0}, {"is_disabled": 0, "fusion_lon": 0.0, "fusion_lat": 0.0, "lat": 38.909512666666664, "type": "electric_scooter", "lon": -77.023786, "bike_id": "a1c77cc8af5550516d07ad6d355ca322", "rental_uris": {"android": "https://dc.lft.to/lastmile_qr_scan", "ios": "https://dc.lft.to/lastmile_qr_scan"}, "name": "a1c77cc8af5550516d07ad6d355ca322", "is_reserved": 0}, {"is_disabled": 0, "fusion_lon": 0.0, "fusion_lat": 0.0, "lat": 38.952675166666666, "type": "electric_bike", "lon": -77.06986466666666, "bike_id": "0a1c44e6c1fda8e44f7e9677331d6eb7", "rental_uris": {"android": "https://dc.lft.to/lastmile_qr_scan", "ios": "https://dc.lft.to/lastmile_qr_scan"}, "name": "0a1c44e6c1fda8e44f7e9677331d6eb7", "is_reserved": 0}, {"is_disabled": 0, "fusion_lon": 0.0, "fusion_lat": 0.0, "lat": 38.953093, "type": "electric_scooter", "lon": -77.03600366666667, "bike_id": "c8c998c47724d111c8537840c8946765", "rental_uris": {"android": "https://dc.lft.to/lastmile_qr_scan", "ios": "https://dc.lft.to/lastmile_qr_scan"}, "name": "c8c998c47724d111c8537840c8946765", "is_reserved": 0}, {"is_disabled": 0, "fusion_lon": 0.0, "fusion_lat": 0.0, "lat": 38.94982616666667, "type": "electric_scooter", "lon": -77.02703366666667, "bike_id": "f49a9bcd503f9a054bd798392d2f10aa", "rental_uris": {"android": "https://dc.lft.to/lastmile_qr_scan", "ios": "https://dc.lft.to/lastmile_qr_scan"}, "name": "f49a9bcd503f9a054bd798392d2f10aa", "is_reserved": 0}, {"is_disabled": 0, "fusion_lon": 0.0, "fusion_lat": 0.0, "lat": 38.89563733333333, "type": "electric_bike", "lon": -77.12741516666667, "bike_id": "1105d5aed1a1f55a172e0f1fb833be0a", "rental_uris": {"android": "https://dc.lft.to/lastmile_qr_scan", "ios": "https://dc.lft.to/lastmile_qr_scan"}, "name": "1105d5aed1a1f55a172e0f1fb833be0a", "is_reserved": 0}, {"is_disabled": 0, "fusion_lon": 0.0, "fusion_lat": 0.0, "lat": 38.918252, "type": "electric_scooter", "lon": -77.03197066666667, "bike_id": "87436958cb79fe61c54cdc93a425dd3a", "rental_uris": {"android": "https://dc.lft.to/lastmile_qr_scan", "ios": "https://dc.lft.to/lastmile_qr_scan"}, "name": "87436958cb79fe61c54cdc93a425dd3a", "is_reserved": 0}, {"is_disabled": 0, "fusion_lon": 0.0, "fusion_lat": 0.0, "lat": 38.897964, "type": "electric_scooter", "lon": -76.93051916666667, "bike_id": "f932928a3d9808d43b95b4709fe3bd89", "rental_uris": {"android": "https://dc.lft.to/lastmile_qr_scan", "ios": "https://dc.lft.to/lastmile_qr_scan"}, "name": "f932928a3d9808d43b95b4709fe3bd89", "is_reserved": 0}, {"is_disabled": 0, "fusion_lon": 0.0, "fusion_lat": 0.0, "lat": 38.998431833333335, "type": "electric_bike", "lon": -77.02907466666667, "bike_id": "09350d85ae3cfae86e1cae7c68685cfd", "rental_uris": {"android": "https://dc.lft.to/lastmile_qr_scan", "ios": "https://dc.lft.to/lastmile_qr_scan"}, "name": "09350d85ae3cfae86e1cae7c68685cfd", "is_reserved": 0}, {"is_disabled": 0, "fusion_lon": 0.0, "fusion_lat": 0.0, "lat": 38.8315235, "type": "electric_bike", "lon": -76.99693383333333, "bike_id": "5c06dcb73018f5cb5e06bd5a8cb8c5a3", "rental_uris": {"android": "https://dc.lft.to/lastmile_qr_scan", "ios": "https://dc.lft.to/lastmile_qr_scan"}, "name": "5c06dcb73018f5cb5e06bd5a8cb8c5a3", "is_reserved": 0}, {"is_disabled": 0, "fusion_lon": 0.0, "fusion_lat": 0.0, "lat": 38.90584316666666, "type": "electric_scooter", "lon": -77.02389233333334, "bike_id": "3f8ad35e2df32e080d42a16d706c393c", "rental_uris": {"android": "https://dc.lft.to/lastmile_qr_scan", "ios": "https://dc.lft.to/lastmile_qr_scan"}, "name": "3f8ad35e2df32e080d42a16d706c393c", "is_reserved": 0}, {"is_disabled": 0, "fusion_lon": 0.0, "fusion_lat": 0.0, "lat": 38.909749833333336, "type": "electric_scooter", "lon": -77.0345325, "bike_id": "742e8e91218973ab9e03353559740111", "rental_uris": {"android": "https://dc.lft.to/lastmile_qr_scan", "ios": "https://dc.lft.to/lastmile_qr_scan"}, "name": "742e8e91218973ab9e03353559740111", "is_reserved": 0}, {"is_disabled": 0, "fusion_lon": 0.0, "fusion_lat": 0.0, "lat": 38.90957366666667, "type": "electric_scooter", "lon": -77.04864383333333, "bike_id": "99aec232b65836e2858bf2be5dca8806", "rental_uris": {"android": "https://dc.lft.to/lastmile_qr_scan", "ios": "https://dc.lft.to/lastmile_qr_scan"}, "name": "99aec232b65836e2858bf2be5dca8806", "is_reserved": 0}, {"is_disabled": 0, "fusion_lon": 0.0, "fusion_lat": 0.0, "lat": 38.850653333333334, "type": "electric_bike", "lon": -76.97331666666666, "bike_id": "6e6efbdb6e715092e6eda1fe55747d70", "rental_uris": {"android": "https://dc.lft.to/lastmile_qr_scan", "ios": "https://dc.lft.to/lastmile_qr_scan"}, "name": "6e6efbdb6e715092e6eda1fe55747d70", "is_reserved": 0}, {"is_disabled": 0, "fusion_lon": 0.0, "fusion_lat": 0.0, "lat": 38.90670016666667, "type": "electric_scooter", "lon": -77.027123, "bike_id": "59651c291e6af179be221982445ed443", "rental_uris": {"android": "https://dc.lft.to/lastmile_qr_scan", "ios": "https://dc.lft.to/lastmile_qr_scan"}, "name": "59651c291e6af179be221982445ed443", "is_reserved": 0}, {"is_disabled": 0, "fusion_lon": 0.0, "fusion_lat": 0.0, "lat": 38.913944666666666, "type": "electric_scooter", "lon": -77.038543, "bike_id": "662b940b4b45a558120c8070082973b7", "rental_uris": {"android": "https://dc.lft.to/lastmile_qr_scan", "ios": "https://dc.lft.to/lastmile_qr_scan"}, "name": "662b940b4b45a558120c8070082973b7", "is_reserved": 0}, {"is_disabled": 0, "fusion_lon": 0.0, "fusion_lat": 0.0, "lat": 38.90718566666666, "type": "electric_scooter", "lon": -77.03198516666667, "bike_id": "64f413031a5e0b2a801c4250aab34893", "rental_uris": {"android": "https://dc.lft.to/lastmile_qr_scan", "ios": "https://dc.lft.to/lastmile_qr_scan"}, "name": "64f413031a5e0b2a801c4250aab34893", "is_reserved": 0}, {"is_disabled": 0, "fusion_lon": 0.0, "fusion_lat": 0.0, "lat": 38.9284205, "type": "electric_bike", "lon": -77.0206255, "bike_id": "468302116e23135731f281f469a45294", "rental_uris": {"android": "https://dc.lft.to/lastmile_qr_scan", "ios": "https://dc.lft.to/lastmile_qr_scan"}, "name": "468302116e23135731f281f469a45294", "is_reserved": 0}, {"is_disabled": 0, "fusion_lon": 0.0, "fusion_lat": 0.0, "lat": 38.881259666666665, "type": "electric_scooter", "lon": -76.99603016666667, "bike_id": "c0ab81793cfbdd4497837e1dabe21316", "rental_uris": {"android": "https://dc.lft.to/lastmile_qr_scan", "ios": "https://dc.lft.to/lastmile_qr_scan"}, "name": "c0ab81793cfbdd4497837e1dabe21316", "is_reserved": 0}, {"is_disabled": 0, "fusion_lon": 0.0, "fusion_lat": 0.0, "lat": 38.905586166666666, "type": "electric_scooter", "lon": -77.05138083333334, "bike_id": "020b944a34a746c5087e829cbd0bd837", "rental_uris": {"android": "https://dc.lft.to/lastmile_qr_scan", "ios": "https://dc.lft.to/lastmile_qr_scan"}, "name": "020b944a34a746c5087e829cbd0bd837", "is_reserved": 0}, {"is_disabled": 0, "fusion_lon": 0.0, "fusion_lat": 0.0, "lat": 38.9520355, "type": "electric_bike", "lon": -77.02370433333333, "bike_id": "b1f7c23e14e358cbaf11262c738b8c90", "rental_uris": {"android": "https://dc.lft.to/lastmile_qr_scan", "ios": "https://dc.lft.to/lastmile_qr_scan"}, "name": "b1f7c23e14e358cbaf11262c738b8c90", "is_reserved": 0}, {"is_disabled": 0, "fusion_lon": 0.0, "fusion_lat": 0.0, "lat": 38.896040666666664, "type": "electric_scooter", "lon": -77.01123916666667, "bike_id": "29baf8a0ed37845a3bc7cbb6fbc18a52", "rental_uris": {"android": "https://dc.lft.to/lastmile_qr_scan", "ios": "https://dc.lft.to/lastmile_qr_scan"}, "name": "29baf8a0ed37845a3bc7cbb6fbc18a52", "is_reserved": 0}, {"is_disabled": 0, "fusion_lon": 0.0, "fusion_lat": 0.0, "lat": 38.956303, "type": "electric_scooter", "lon": -77.02979733333333, "bike_id": "23b43d7e152e0ff7d5032b5ae8d849cf", "rental_uris": {"android": "https://dc.lft.to/lastmile_qr_scan", "ios": "https://dc.lft.to/lastmile_qr_scan"}, "name": "23b43d7e152e0ff7d5032b5ae8d849cf", "is_reserved": 0}, {"is_disabled": 0, "fusion_lon": 0.0, "fusion_lat": 0.0, "lat": 38.8807545, "type": "electric_scooter", "lon": -77.00648216666667, "bike_id": "6a1ebee773c5682871c1c632c39c43c4", "rental_uris": {"android": "https://dc.lft.to/lastmile_qr_scan", "ios": "https://dc.lft.to/lastmile_qr_scan"}, "name": "6a1ebee773c5682871c1c632c39c43c4", "is_reserved": 0}, {"is_disabled": 0, "fusion_lon": 0.0, "fusion_lat": 0.0, "lat": 38.905923333333334, "type": "electric_scooter", "lon": -77.00720033333333, "bike_id": "22a472b414e306fb381d71141972d60d", "rental_uris": {"android": "https://dc.lft.to/lastmile_qr_scan", "ios": "https://dc.lft.to/lastmile_qr_scan"}, "name": "22a472b414e306fb381d71141972d60d", "is_reserved": 0}, {"is_disabled": 0, "fusion_lon": 0.0, "fusion_lat": 0.0, "lat": 38.91620616666667, "type": "electric_scooter", "lon": -77.0249125, "bike_id": "e173b9622a3872130725436316adfe4a", "rental_uris": {"android": "https://dc.lft.to/lastmile_qr_scan", "ios": "https://dc.lft.to/lastmile_qr_scan"}, "name": "e173b9622a3872130725436316adfe4a", "is_reserved": 0}, {"is_disabled": 0, "fusion_lon": 0.0, "fusion_lat": 0.0, "lat": 38.92493233333333, "type": "electric_scooter", "lon": -77.03933983333333, "bike_id": "3018331b4c6e0d7de5a77ffe57a2583c", "rental_uris": {"android": "https://dc.lft.to/lastmile_qr_scan", "ios": "https://dc.lft.to/lastmile_qr_scan"}, "name": "3018331b4c6e0d7de5a77ffe57a2583c", "is_reserved": 0}, {"is_disabled": 0, "fusion_lon": 0.0, "fusion_lat": 0.0, "lat": 39.00014016666667, "type": "electric_bike", "lon": -76.87284033333333, "bike_id": "eba7eaad6945ccd1a1758c1a88ee0447", "rental_uris": {"android": "https://dc.lft.to/lastmile_qr_scan", "ios": "https://dc.lft.to/lastmile_qr_scan"}, "name": "eba7eaad6945ccd1a1758c1a88ee0447", "is_reserved": 0}, {"is_disabled": 0, "fusion_lon": 0.0, "fusion_lat": 0.0, "lat": 38.90146933333333, "type": "electric_scooter", "lon": -77.022004, "bike_id": "6158611b3582ee99237961dfb8f5c6c8", "rental_uris": {"android": "https://dc.lft.to/lastmile_qr_scan", "ios": "https://dc.lft.to/lastmile_qr_scan"}, "name": "6158611b3582ee99237961dfb8f5c6c8", "is_reserved": 0}, {"is_disabled": 0, "fusion_lon": 0.0, "fusion_lat": 0.0, "lat": 38.82872, "type": "electric_bike", "lon": -77.11220133333333, "bike_id": "eb64b726124c4471ffebb0fd04aaf402", "rental_uris": {"android": "https://dc.lft.to/lastmile_qr_scan", "ios": "https://dc.lft.to/lastmile_qr_scan"}, "name": "eb64b726124c4471ffebb0fd04aaf402", "is_reserved": 0}, {"is_disabled": 0, "fusion_lon": 0.0, "fusion_lat": 0.0, "lat": 38.917033833333335, "type": "electric_scooter", "lon": -77.02850533333333, "bike_id": "8bb243b6e6dff672e8044976391508fc", "rental_uris": {"android": "https://dc.lft.to/lastmile_qr_scan", "ios": "https://dc.lft.to/lastmile_qr_scan"}, "name": "8bb243b6e6dff672e8044976391508fc", "is_reserved": 0}, {"is_disabled": 0, "fusion_lon": 0.0, "fusion_lat": 0.0, "lat": 38.918140666666666, "type": "electric_scooter", "lon": -77.040184, "bike_id": "f055291f936b4e68b1d9d39ee335686e", "rental_uris": {"android": "https://dc.lft.to/lastmile_qr_scan", "ios": "https://dc.lft.to/lastmile_qr_scan"}, "name": "f055291f936b4e68b1d9d39ee335686e", "is_reserved": 0}, {"is_disabled": 0, "fusion_lon": 0.0, "fusion_lat": 0.0, "lat": 38.90262216666667, "type": "electric_scooter", "lon": -77.06108666666667, "bike_id": "f6b3745f578e08a76a07d759237c24f4", "rental_uris": {"android": "https://dc.lft.to/lastmile_qr_scan", "ios": "https://dc.lft.to/lastmile_qr_scan"}, "name": "f6b3745f578e08a76a07d759237c24f4", "is_reserved": 0}, {"is_disabled": 0, "fusion_lon": 0.0, "fusion_lat": 0.0, "lat": 38.91544666666667, "type": "electric_scooter", "lon": -77.03852166666667, "bike_id": "2b3a6deb7377a662a05608d6db113e84", "rental_uris": {"android": "https://dc.lft.to/lastmile_qr_scan", "ios": "https://dc.lft.to/lastmile_qr_scan"}, "name": "2b3a6deb7377a662a05608d6db113e84", "is_reserved": 0}, {"is_disabled": 0, "fusion_lon": 0.0, "fusion_lat": 0.0, "lat": 38.8974565, "type": "electric_scooter", "lon": -77.021566, "bike_id": "c98471cc8f69af0271c728da139cb80f", "rental_uris": {"android": "https://dc.lft.to/lastmile_qr_scan", "ios": "https://dc.lft.to/lastmile_qr_scan"}, "name": "c98471cc8f69af0271c728da139cb80f", "is_reserved": 0}, {"is_disabled": 0, "fusion_lon": 0.0, "fusion_lat": 0.0, "lat": 38.92549833333333, "type": "electric_scooter", "lon": -77.05304933333333, "bike_id": "f8b9170e7755c81bb6f54193ab7c137f", "rental_uris": {"android": "https://dc.lft.to/lastmile_qr_scan", "ios": "https://dc.lft.to/lastmile_qr_scan"}, "name": "f8b9170e7755c81bb6f54193ab7c137f", "is_reserved": 0}, {"is_disabled": 0, "fusion_lon": 0.0, "fusion_lat": 0.0, "lat": 38.934861166666664, "type": "electric_scooter", "lon": -77.03281516666667, "bike_id": "d75b3a02d5726485f0900b744ec76900", "rental_uris": {"android": "https://dc.lft.to/lastmile_qr_scan", "ios": "https://dc.lft.to/lastmile_qr_scan"}, "name": "d75b3a02d5726485f0900b744ec76900", "is_reserved": 0}, {"is_disabled": 0, "fusion_lon": 0.0, "fusion_lat": 0.0, "lat": 38.869101, "type": "electric_scooter", "lon": -77.01375583333333, "bike_id": "aaf8262af90548337d402057b3d5ae68", "rental_uris": {"android": "https://dc.lft.to/lastmile_qr_scan", "ios": "https://dc.lft.to/lastmile_qr_scan"}, "name": "aaf8262af90548337d402057b3d5ae68", "is_reserved": 0}, {"is_disabled": 0, "fusion_lon": 0.0, "fusion_lat": 0.0, "lat": 38.93194283333333, "type": "electric_scooter", "lon": -77.02844966666666, "bike_id": "de8b4268c734fe1e025355a4972cab0c", "rental_uris": {"android": "https://dc.lft.to/lastmile_qr_scan", "ios": "https://dc.lft.to/lastmile_qr_scan"}, "name": "de8b4268c734fe1e025355a4972cab0c", "is_reserved": 0}, {"is_disabled": 0, "fusion_lon": 0.0, "fusion_lat": 0.0, "lat": 38.916324333333336, "type": "electric_scooter", "lon": -77.031494, "bike_id": "d831c62ad601d7210f119ba920a22b85", "rental_uris": {"android": "https://dc.lft.to/lastmile_qr_scan", "ios": "https://dc.lft.to/lastmile_qr_scan"}, "name": "d831c62ad601d7210f119ba920a22b85", "is_reserved": 0}, {"is_disabled": 0, "fusion_lon": 0.0, "fusion_lat": 0.0, "lat": 38.92974516666666, "type": "electric_scooter", "lon": -77.04215366666666, "bike_id": "b650fdb68f0f59f54a14d3f55d749713", "rental_uris": {"android": "https://dc.lft.to/lastmile_qr_scan", "ios": "https://dc.lft.to/lastmile_qr_scan"}, "name": "b650fdb68f0f59f54a14d3f55d749713", "is_reserved": 0}, {"is_disabled": 0, "fusion_lon": 0.0, "fusion_lat": 0.0, "lat": 38.93331283333333, "type": "electric_bike", "lon": -77.04210366666666, "bike_id": "05afa8bb9e7da007a7c0367ad6641283", "rental_uris": {"android": "https://dc.lft.to/lastmile_qr_scan", "ios": "https://dc.lft.to/lastmile_qr_scan"}, "name": "05afa8bb9e7da007a7c0367ad6641283", "is_reserved": 0}, {"is_disabled": 0, "fusion_lon": 0.0, "fusion_lat": 0.0, "lat": 38.94621883333333, "type": "electric_scooter", "lon": -77.03626366666667, "bike_id": "ad9f722bc2270163af05ac573f2ed79a", "rental_uris": {"android": "https://dc.lft.to/lastmile_qr_scan", "ios": "https://dc.lft.to/lastmile_qr_scan"}, "name": "ad9f722bc2270163af05ac573f2ed79a", "is_reserved": 0}, {"is_disabled": 0, "fusion_lon": 0.0, "fusion_lat": 0.0, "lat": 38.86700116666667, "type": "electric_scooter", "lon": -76.9871515, "bike_id": "a4b8801b952d0fc4c1990e7a5cdd7b5f", "rental_uris": {"android": "https://dc.lft.to/lastmile_qr_scan", "ios": "https://dc.lft.to/lastmile_qr_scan"}, "name": "a4b8801b952d0fc4c1990e7a5cdd7b5f", "is_reserved": 0}, {"is_disabled": 0, "fusion_lon": 0.0, "fusion_lat": 0.0, "lat": 38.931017833333335, "type": "electric_scooter", "lon": -77.026717, "bike_id": "dc56ed32a971d1dd6f43b4430db8171f", "rental_uris": {"android": "https://dc.lft.to/lastmile_qr_scan", "ios": "https://dc.lft.to/lastmile_qr_scan"}, "name": "dc56ed32a971d1dd6f43b4430db8171f", "is_reserved": 0}, {"is_disabled": 0, "fusion_lon": 0.0, "fusion_lat": 0.0, "lat": 38.920121333333334, "type": "electric_scooter", "lon": -77.03140533333334, "bike_id": "1c78ce77f15085be3d6cbccd944afc66", "rental_uris": {"android": "https://dc.lft.to/lastmile_qr_scan", "ios": "https://dc.lft.to/lastmile_qr_scan"}, "name": "1c78ce77f15085be3d6cbccd944afc66", "is_reserved": 0}, {"is_disabled": 0, "fusion_lon": 0.0, "fusion_lat": 0.0, "lat": 38.90381466666667, "type": "electric_scooter", "lon": -77.0302645, "bike_id": "4f7a15d96734c83f367874da631edfd6", "rental_uris": {"android": "https://dc.lft.to/lastmile_qr_scan", "ios": "https://dc.lft.to/lastmile_qr_scan"}, "name": "4f7a15d96734c83f367874da631edfd6", "is_reserved": 0}, {"is_disabled": 0, "fusion_lon": 0.0, "fusion_lat": 0.0, "lat": 38.897271833333335, "type": "electric_scooter", "lon": -77.0468195, "bike_id": "102ecf6a05f1182c2611fd5afbdec164", "rental_uris": {"android": "https://dc.lft.to/lastmile_qr_scan", "ios": "https://dc.lft.to/lastmile_qr_scan"}, "name": "102ecf6a05f1182c2611fd5afbdec164", "is_reserved": 0}, {"is_disabled": 0, "fusion_lon": 0.0, "fusion_lat": 0.0, "lat": 38.905581833333336, "type": "electric_scooter", "lon": -77.00594066666666, "bike_id": "0e60efd34cd09ba642086a8bb7797196", "rental_uris": {"android": "https://dc.lft.to/lastmile_qr_scan", "ios": "https://dc.lft.to/lastmile_qr_scan"}, "name": "0e60efd34cd09ba642086a8bb7797196", "is_reserved": 0}, {"is_disabled": 0, "fusion_lon": 0.0, "fusion_lat": 0.0, "lat": 38.91573433333333, "type": "electric_scooter", "lon": -77.04174966666666, "bike_id": "ff690083ba9d9de49da7524e7ea5ee17", "rental_uris": {"android": "https://dc.lft.to/lastmile_qr_scan", "ios": "https://dc.lft.to/lastmile_qr_scan"}, "name": "ff690083ba9d9de49da7524e7ea5ee17", "is_reserved": 0}, {"is_disabled": 0, "fusion_lon": 0.0, "fusion_lat": 0.0, "lat": 38.91737, "type": "electric_scooter", "lon": -77.03647266666667, "bike_id": "cf55611b9271eb1a6674ac7a88d8a893", "rental_uris": {"android": "https://dc.lft.to/lastmile_qr_scan", "ios": "https://dc.lft.to/lastmile_qr_scan"}, "name": "cf55611b9271eb1a6674ac7a88d8a893", "is_reserved": 0}, {"is_disabled": 0, "fusion_lon": 0.0, "fusion_lat": 0.0, "lat": 38.897782166666666, "type": "electric_scooter", "lon": -77.05013083333333, "bike_id": "a88a433628d9b720616da32f62bddbf8", "rental_uris": {"android": "https://dc.lft.to/lastmile_qr_scan", "ios": "https://dc.lft.to/lastmile_qr_scan"}, "name": "a88a433628d9b720616da32f62bddbf8", "is_reserved": 0}, {"is_disabled": 0, "fusion_lon": 0.0, "fusion_lat": 0.0, "lat": 38.90021216666667, "type": "electric_scooter", "lon": -77.03368716666667, "bike_id": "2b901b37481ee8eb8d64fbf9b9947a04", "rental_uris": {"android": "https://dc.lft.to/lastmile_qr_scan", "ios": "https://dc.lft.to/lastmile_qr_scan"}, "name": "2b901b37481ee8eb8d64fbf9b9947a04", "is_reserved": 0}, {"is_disabled": 0, "fusion_lon": 0.0, "fusion_lat": 0.0, "lat": 38.916981, "type": "electric_scooter", "lon": -77.0321795, "bike_id": "6228bee1ded0db6a8dcdfd7feb31b821", "rental_uris": {"android": "https://dc.lft.to/lastmile_qr_scan", "ios": "https://dc.lft.to/lastmile_qr_scan"}, "name": "6228bee1ded0db6a8dcdfd7feb31b821", "is_reserved": 0}, {"is_disabled": 0, "fusion_lon": 0.0, "fusion_lat": 0.0, "lat": 38.89679683333333, "type": "electric_scooter", "lon": -76.93541066666667, "bike_id": "e84049f9c7b55f261be623a9c8161f48", "rental_uris": {"android": "https://dc.lft.to/lastmile_qr_scan", "ios": "https://dc.lft.to/lastmile_qr_scan"}, "name": "e84049f9c7b55f261be623a9c8161f48", "is_reserved": 0}, {"is_disabled": 0, "fusion_lon": 0.0, "fusion_lat": 0.0, "lat": 38.92420933333333, "type": "electric_scooter", "lon": -77.02012516666667, "bike_id": "e21133d741b44f4dd3e3ebf41ab9914b", "rental_uris": {"android": "https://dc.lft.to/lastmile_qr_scan", "ios": "https://dc.lft.to/lastmile_qr_scan"}, "name": "e21133d741b44f4dd3e3ebf41ab9914b", "is_reserved": 0}, {"is_disabled": 0, "fusion_lon": 0.0, "fusion_lat": 0.0, "lat": 38.8960415, "type": "electric_scooter", "lon": -77.009207, "bike_id": "3ba007309b3fb4cdedcd930d69adaa99", "rental_uris": {"android": "https://dc.lft.to/lastmile_qr_scan", "ios": "https://dc.lft.to/lastmile_qr_scan"}, "name": "3ba007309b3fb4cdedcd930d69adaa99", "is_reserved": 0}, {"is_disabled": 0, "fusion_lon": 0.0, "fusion_lat": 0.0, "lat": 38.9054455, "type": "electric_scooter", "lon": -77.0465085, "bike_id": "8de16838b9839df8ec8c7f1147f8a5da", "rental_uris": {"android": "https://dc.lft.to/lastmile_qr_scan", "ios": "https://dc.lft.to/lastmile_qr_scan"}, "name": "8de16838b9839df8ec8c7f1147f8a5da", "is_reserved": 0}, {"is_disabled": 0, "fusion_lon": 0.0, "fusion_lat": 0.0, "lat": 38.9541685, "type": "electric_scooter", "lon": -77.028456, "bike_id": "7661a3b891acfd637aae224693541b26", "rental_uris": {"android": "https://dc.lft.to/lastmile_qr_scan", "ios": "https://dc.lft.to/lastmile_qr_scan"}, "name": "7661a3b891acfd637aae224693541b26", "is_reserved": 0}, {"is_disabled": 0, "fusion_lon": 0.0, "fusion_lat": 0.0, "lat": 38.907308, "type": "electric_scooter", "lon": -77.02952366666666, "bike_id": "f25a063f763d7f41d58b4c82c30d1b65", "rental_uris": {"android": "https://dc.lft.to/lastmile_qr_scan", "ios": "https://dc.lft.to/lastmile_qr_scan"}, "name": "f25a063f763d7f41d58b4c82c30d1b65", "is_reserved": 0}, {"is_disabled": 0, "fusion_lon": 0.0, "fusion_lat": 0.0, "lat": 38.97677233333334, "type": "electric_bike", "lon": -76.97168566666667, "bike_id": "dfdf5d5c94a1ebb6c8a94f093496699e", "rental_uris": {"android": "https://dc.lft.to/lastmile_qr_scan", "ios": "https://dc.lft.to/lastmile_qr_scan"}, "name": "dfdf5d5c94a1ebb6c8a94f093496699e", "is_reserved": 0}, {"is_disabled": 0, "fusion_lon": 0.0, "fusion_lat": 0.0, "lat": 38.9187015, "type": "electric_scooter", "lon": -77.04491816666666, "bike_id": "47c417d3af776d2b0c3c43ffa2005fad", "rental_uris": {"android": "https://dc.lft.to/lastmile_qr_scan", "ios": "https://dc.lft.to/lastmile_qr_scan"}, "name": "47c417d3af776d2b0c3c43ffa2005fad", "is_reserved": 0}, {"is_disabled": 0, "fusion_lon": 0.0, "fusion_lat": 0.0, "lat": 38.892349, "type": "electric_bike", "lon": -76.95226066666666, "bike_id": "d47c661260049034ecfda8598f9b040d", "rental_uris": {"android": "https://dc.lft.to/lastmile_qr_scan", "ios": "https://dc.lft.to/lastmile_qr_scan"}, "name": "d47c661260049034ecfda8598f9b040d", "is_reserved": 0}, {"is_disabled": 0, "fusion_lon": 0.0, "fusion_lat": 0.0, "lat": 38.917054666666665, "type": "electric_scooter", "lon": -77.010768, "bike_id": "1366f804bcdf6906530a1ac177134a4f", "rental_uris": {"android": "https://dc.lft.to/lastmile_qr_scan", "ios": "https://dc.lft.to/lastmile_qr_scan"}, "name": "1366f804bcdf6906530a1ac177134a4f", "is_reserved": 0}, {"is_disabled": 0, "fusion_lon": 0.0, "fusion_lat": 0.0, "lat": 38.925913, "type": "electric_bike", "lon": -76.88910766666666, "bike_id": "69898aeafc95be8e33ff7e4790725f46", "rental_uris": {"android": "https://dc.lft.to/lastmile_qr_scan", "ios": "https://dc.lft.to/lastmile_qr_scan"}, "name": "69898aeafc95be8e33ff7e4790725f46", "is_reserved": 0}, {"is_disabled": 0, "fusion_lon": 0.0, "fusion_lat": 0.0, "lat": 38.89012266666667, "type": "electric_scooter", "lon": -76.93841616666667, "bike_id": "971b4f2b6323d2a198881e9342ac0533", "rental_uris": {"android": "https://dc.lft.to/lastmile_qr_scan", "ios": "https://dc.lft.to/lastmile_qr_scan"}, "name": "971b4f2b6323d2a198881e9342ac0533", "is_reserved": 0}, {"is_disabled": 0, "fusion_lon": 0.0, "fusion_lat": 0.0, "lat": 38.930865, "type": "electric_scooter", "lon": -77.036226, "bike_id": "84b6b1e55430ea09833736fe3671c616", "rental_uris": {"android": "https://dc.lft.to/lastmile_qr_scan", "ios": "https://dc.lft.to/lastmile_qr_scan"}, "name": "84b6b1e55430ea09833736fe3671c616", "is_reserved": 0}, {"is_disabled": 0, "fusion_lon": 0.0, "fusion_lat": 0.0, "lat": 38.93059816666667, "type": "electric_scooter", "lon": -77.02967383333333, "bike_id": "02d98563a5ec7fd086b963d55ac2dee6", "rental_uris": {"android": "https://dc.lft.to/lastmile_qr_scan", "ios": "https://dc.lft.to/lastmile_qr_scan"}, "name": "02d98563a5ec7fd086b963d55ac2dee6", "is_reserved": 0}, {"is_disabled": 0, "fusion_lon": 0.0, "fusion_lat": 0.0, "lat": 38.900338, "type": "electric_scooter", "lon": -76.9963455, "bike_id": "0449cde7207cff0dace67876b5e68bad", "rental_uris": {"android": "https://dc.lft.to/lastmile_qr_scan", "ios": "https://dc.lft.to/lastmile_qr_scan"}, "name": "0449cde7207cff0dace67876b5e68bad", "is_reserved": 0}, {"is_disabled": 0, "fusion_lon": 0.0, "fusion_lat": 0.0, "lat": 38.8985735, "type": "electric_scooter", "lon": -77.029189, "bike_id": "a6f330887bf966d52b95cead1a3de14f", "rental_uris": {"android": "https://dc.lft.to/lastmile_qr_scan", "ios": "https://dc.lft.to/lastmile_qr_scan"}, "name": "a6f330887bf966d52b95cead1a3de14f", "is_reserved": 0}, {"is_disabled": 0, "fusion_lon": 0.0, "fusion_lat": 0.0, "lat": 39.0249485, "type": "electric_bike", "lon": -77.12565166666667, "bike_id": "cb9e6b9da8ed2a9ea100d56853e9be08", "rental_uris": {"android": "https://dc.lft.to/lastmile_qr_scan", "ios": "https://dc.lft.to/lastmile_qr_scan"}, "name": "cb9e6b9da8ed2a9ea100d56853e9be08", "is_reserved": 0}, {"is_disabled": 0, "fusion_lon": 0.0, "fusion_lat": 0.0, "lat": 38.93925933333333, "type": "electric_scooter", "lon": -77.07468316666667, "bike_id": "e76bd0fea92312169dcc7c00585498b7", "rental_uris": {"android": "https://dc.lft.to/lastmile_qr_scan", "ios": "https://dc.lft.to/lastmile_qr_scan"}, "name": "e76bd0fea92312169dcc7c00585498b7", "is_reserved": 0}, {"is_disabled": 0, "fusion_lon": 0.0, "fusion_lat": 0.0, "lat": 38.91834266666667, "type": "electric_scooter", "lon": -77.0316375, "bike_id": "cb6f509a0281858a7ec7f07e4c092cf7", "rental_uris": {"android": "https://dc.lft.to/lastmile_qr_scan", "ios": "https://dc.lft.to/lastmile_qr_scan"}, "name": "cb6f509a0281858a7ec7f07e4c092cf7", "is_reserved": 0}, {"is_disabled": 0, "fusion_lon": 0.0, "fusion_lat": 0.0, "lat": 38.923682666666664, "type": "electric_scooter", "lon": -77.03079983333333, "bike_id": "6d939fba7e0fbf4fae0845b53536c58e", "rental_uris": {"android": "https://dc.lft.to/lastmile_qr_scan", "ios": "https://dc.lft.to/lastmile_qr_scan"}, "name": "6d939fba7e0fbf4fae0845b53536c58e", "is_reserved": 0}, {"is_disabled": 0, "fusion_lon": 0.0, "fusion_lat": 0.0, "lat": 38.91692583333333, "type": "electric_scooter", "lon": -77.02739183333334, "bike_id": "10741bff6ccf84ec11383bdcf9c94adb", "rental_uris": {"android": "https://dc.lft.to/lastmile_qr_scan", "ios": "https://dc.lft.to/lastmile_qr_scan"}, "name": "10741bff6ccf84ec11383bdcf9c94adb", "is_reserved": 0}, {"is_disabled": 0, "fusion_lon": 0.0, "fusion_lat": 0.0, "lat": 38.902693166666666, "type": "electric_scooter", "lon": -77.03939783333334, "bike_id": "2fc24d3eb0c163c2957714dec5e85e37", "rental_uris": {"android": "https://dc.lft.to/lastmile_qr_scan", "ios": "https://dc.lft.to/lastmile_qr_scan"}, "name": "2fc24d3eb0c163c2957714dec5e85e37", "is_reserved": 0},