{"data": {"bikes": [{"bike_id": "659acbf4855f97f631450bc923f14ed3", "type": "electric_scooter", "is_disabled": 0, "lat": 38.905448, "rental_uris": {"ios": "https://dc.lft.to/lastmile_qr_scan", "android": "https://dc.lft.to/lastmile_qr_scan"}, "is_reserved": 0, "fusion_lon": 0.0, "fusion_lat": 0.0, "lon": -77.00488916666667, "name": "659acbf4855f97f631450bc923f14ed3"}, {"bike_id": "c49d2347090396293601d7d9c9760366", "type": "electric_scooter", "is_disabled": 0, "lat": 38.89362083333333, "rental_uris": {"ios": "https://dc.lft.to/lastmile_qr_scan", "android": "https://dc.lft.to/lastmile_qr_scan"}, "is_reserved": 0, "fusion_lon": 0.0, "fusion_lat": 0.0, "lon": -76.94937933333334, "name": "c49d2347090396293601d7d9c9760366"}, {"bike_id": "1b54e48fdff7c073c2624067f9e76edc", "type": "electric_scooter", "is_disabled": 0, "lat": 38.8715845, "rental_uris": {"ios": "https://dc.lft.to/lastmile_qr_scan", "android": "https://dc.lft.to/lastmile_qr_scan"}, "is_reserved": 0, "fusion_lon": 0.0, "fusion_lat": 0.0, "lon": -77.01361033333333, "name": "1b54e48fdff7c073c2624067f9e76edc"}, {"bike_id": "f13582cc6d961b625ee087c4c34ae4f5", "type": "electric_scooter", "is_disabled": 0, "lat": 38.918272333333334, "rental_uris": {"ios": "https://dc.lft.to/lastmile_qr_scan", "android": "https://dc.lft.to/lastmile_qr_scan"}, "is_reserved": 0, "fusion_lon": 0.0, "fusion_lat": 0.0, "lon": -77.03940466666667, "name": "f13582cc6d961b625ee087c4c34ae4f5"}, {"bike_id": "aa3d1fad21184b2cb280f394bb51b7bf", "type": "electric_bike", "is_disabled": 0, "lat": 38.8957575, "rental_uris": {"ios": "https://dc.lft.to/lastmile_qr_scan", "android": "https://dc.lft.to/lastmile_qr_scan"}, "is_reserved": 0, "fusion_lon": 0.0, "fusion_lat": 0.0, "lon": -77.03021683333333, "name": "aa3d1fad21184b2cb280f394bb51b7bf"}, {"bike_id": "9bfccc44deb9d01e97e012c38de618e8", "type": "electric_bike", "is_disabled": 0, "lat": 38.82178433333333, "rental_uris": {"ios": "https://dc.lft.to/lastmile_qr_scan", "android": "https://dc.lft.to/lastmile_qr_scan"}, "is_reserved": 0, "fusion_lon": 0.0, "fusion_lat": 0.0, "lon": -76.99514, "name": "9bfccc44deb9d01e97e012c38de618e8"}, {"bike_id": "4c1ce1b43cd8736c811379da3abcc82f", "type": "electric_scooter", "is_disabled": 0, "lat": 38.8972765, "rental_uris": {"ios": "https://dc.lft.to/lastmile_qr_scan", "android": "https://dc.lft.to/lastmile_qr_scan"}, "is_reserved": 0, "fusion_lon": 0.0, "fusion_lat": 0.0, "lon": -77.02640516666666, "name": "4c1ce1b43cd8736c811379da3abcc82f"}, {"bike_id": "08626854bea322fd8756d0c9642192c3", "type": "electric_bike", "is_disabled": 0, "lat": 39.0429645, "rental_uris": {"ios": "https://dc.lft.to/lastmile_qr_scan", "android": "https://dc.lft.to/lastmile_qr_scan"}, "is_reserved": 0, "fusion_lon": 0.0, "fusion_lat": 0.0, "lon": -77.05160666666667, "name": "08626854bea322fd8756d0c9642192c3"}, {"bike_id": "22ac407add36c998c7fa6965e99bfa22", "type": "electric_scooter", "is_disabled": 0, "lat": 38.930933833333334, "rental_uris": {"ios": "https://dc.lft.to/lastmile_qr_scan", "android": "https://dc.lft.to/lastmile_qr_scan"}, "is_reserved": 0, "fusion_lon": 0.0, "fusion_lat": 0.0, "lon": -77.024567, "name": "22ac407add36c998c7fa6965e99bfa22"}, {"bike_id": "be35851d67050ad8b808422e38951448", "type": "electric_scooter", "is_disabled": 0, "lat": 38.889277666666665, "rental_uris": {"ios": "https://dc.lft.to/lastmile_qr_scan", "android": "https://dc.lft.to/lastmile_qr_scan"}, "is_reserved": 0, "fusion_lon": 0.0, "fusion_lat": 0.0, "lon": -76.93577483333334, "name": "be35851d67050ad8b808422e38951448"}, {"bike_id": "1a6a0e908cf2e239c21e73254ff5f4e4", "type": "electric_scooter", "is_disabled": 0, "lat": 38.918246333333336, "rental_uris": {"ios": "https://dc.lft.to/lastmile_qr_scan", "android": "https://dc.lft.to/lastmile_qr_scan"}, "is_reserved": 0, "fusion_lon": 0.0, "fusion_lat": 0.0, "lon": -77.0253835, "name": "1a6a0e908cf2e239c21e73254ff5f4e4"}, {"bike_id": "5e9830f291410902ab6fd8d16cdb64a4", "type": "electric_scooter", "is_disabled": 0, "lat": 38.9038025, "rental_uris": {"ios": "https://dc.lft.to/lastmile_qr_scan", "android": "https://dc.lft.to/lastmile_qr_scan"}, "is_reserved": 0, "fusion_lon": 0.0, "fusion_lat": 0.0, "lon": -77.03199683333334, "name": "5e9830f291410902ab6fd8d16cdb64a4"}, {"bike_id": "5d30964e109026b7ad881d8e36938b0d", "type": "electric_scooter", "is_disabled": 0, "lat": 38.9207095, "rental_uris": {"ios": "https://dc.lft.to/lastmile_qr_scan", "android": "https://dc.lft.to/lastmile_qr_scan"}, "is_reserved": 0, "fusion_lon": 0.0, "fusion_lat": 0.0, "lon": -77.02428666666667, "name": "5d30964e109026b7ad881d8e36938b0d"}, {"bike_id": "1ff4df04d7b25dec8be3e0a419ef18e1", "type": "electric_scooter", "is_disabled": 0, "lat": 38.89222683333333, "rental_uris": {"ios": "https://dc.lft.to/lastmile_qr_scan", "android": "https://dc.lft.to/lastmile_qr_scan"}, "is_reserved": 0, "fusion_lon": 0.0, "fusion_lat": 0.0, "lon": -77.03232616666666, "name": "1ff4df04d7b25dec8be3e0a419ef18e1"}, {"bike_id": "eff917ed941d3951a86a8c9fd1e8735f", "type": "electric_scooter", "is_disabled": 0, "lat": 38.90550983333333, "rental_uris": {"ios": "https://dc.lft.to/lastmile_qr_scan", "android": "https://dc.lft.to/lastmile_qr_scan"}, "is_reserved": 0, "fusion_lon": 0.0, "fusion_lat": 0.0, "lon": -77.0652915, "name": "eff917ed941d3951a86a8c9fd1e8735f"}, {"bike_id": "454565582fd4885b4b5a35abf2fae8d8", "type": "electric_scooter", "is_disabled": 0, "lat": 38.846368, "rental_uris": {"ios": "https://dc.lft.to/lastmile_qr_scan", "android": "https://dc.lft.to/lastmile_qr_scan"}, "is_reserved": 0, "fusion_lon": 0.0, "fusion_lat": 0.0, "lon": -76.99137533333334, "name": "454565582fd4885b4b5a35abf2fae8d8"}, {"bike_id": "3a716ff114202e3bce0e0aa5fa773d02", "type": "electric_scooter", "is_disabled": 0, "lat": 38.919585833333336, "rental_uris": {"ios": "https://dc.lft.to/lastmile_qr_scan", "android": "https://dc.lft.to/lastmile_qr_scan"}, "is_reserved": 0, "fusion_lon": 0.0, "fusion_lat": 0.0, "lon": -77.04278883333333, "name": "3a716ff114202e3bce0e0aa5fa773d02"}, {"bike_id": "bfdd02833157de2185c338b50f419dd9", "type": "electric_scooter", "is_disabled": 0, "lat": 38.888623, "rental_uris": {"ios": "https://dc.lft.to/lastmile_qr_scan", "android": "https://dc.lft.to/lastmile_qr_scan"}, "is_reserved": 0, "fusion_lon": 0.0, "fusion_lat": 0.0, "lon": -76.99148266666667, "name": "bfdd02833157de2185c338b50f419dd9"}, {"bike_id": "362ce1371fdbfb773b66f0269e66ac38", "type": "electric_scooter", "is_disabled": 0, "lat": 38.912714, "rental_uris": {"ios": "https://dc.lft.to/lastmile_qr_scan", "android": "https://dc.lft.to/lastmile_qr_scan"}, "is_reserved": 0, "fusion_lon": 0.0, "fusion_lat": 0.0, "lon": -77.05162416666667, "name": "362ce1371fdbfb773b66f0269e66ac38"}, {"bike_id": "fdb33fe8f6761bca03f8edb1756efc37", "type": "electric_scooter", "is_disabled": 0, "lat": 38.92021533333333, "rental_uris": {"ios": "https://dc.lft.to/lastmile_qr_scan", "android": "https://dc.lft.to/lastmile_qr_scan"}, "is_reserved": 0, "fusion_lon": 0.0, "fusion_lat": 0.0, "lon": -77.0201105, "name": "fdb33fe8f6761bca03f8edb1756efc37"}, {"bike_id": "005bdb14ae63b0a1f865c0d04fa2b1f0", "type": "electric_scooter", "is_disabled": 0, "lat": 38.88267733333333, "rental_uris": {"ios": "https://dc.lft.to/lastmile_qr_scan", "android": "https://dc.lft.to/lastmile_qr_scan"}, "is_reserved": 0, "fusion_lon": 0.0, "fusion_lat": 0.0, "lon": -76.99253783333333, "name": "005bdb14ae63b0a1f865c0d04fa2b1f0"}, {"bike_id": "d9cbed6e68f68cbf016c1a6f3494ba13", "type": "electric_scooter", "is_disabled": 0, "lat": 38.921465, "rental_uris": {"ios": "https://dc.lft.to/lastmile_qr_scan", "android": "https://dc.lft.to/lastmile_qr_scan"}, "is_reserved": 0, "fusion_lon": 0.0, "fusion_lat": 0.0, "lon": -77.0331835, "name": "d9cbed6e68f68cbf016c1a6f3494ba13"}, {"bike_id": "81cd5355a6293758da93780dbb6de597", "type": "electric_scooter", "is_disabled": 0, "lat": 38.913270833333335, "rental_uris": {"ios": "https://dc.lft.to/lastmile_qr_scan", "android": "https://dc.lft.to/lastmile_qr_scan"}, "is_reserved": 0, "fusion_lon": 0.0, "fusion_lat": 0.0, "lon": -77.0318265, "name": "81cd5355a6293758da93780dbb6de597"}, {"bike_id": "b39286a2cf443f7dc57451378cb064a0", "type": "electric_scooter", "is_disabled": 0, "lat": 38.93142183333333, "rental_uris": {"ios": "https://dc.lft.to/lastmile_qr_scan", "android": "https://dc.lft.to/lastmile_qr_scan"}, "is_reserved": 0, "fusion_lon": 0.0, "fusion_lat": 0.0, "lon": -77.03363466666667, "name": "b39286a2cf443f7dc57451378cb064a0"}, {"bike_id": "792c69eeb2ac552455cbcaa39bd0d3a2", "type": "electric_scooter", "is_disabled": 0, "lat": 38.94328483333334, "rental_uris": {"ios": "https://dc.lft.to/lastmile_qr_scan", "android": "https://dc.lft.to/lastmile_qr_scan"}, "is_reserved": 0, "fusion_lon": 0.0, "fusion_lat": 0.0, "lon": -77.01475883333333, "name": "792c69eeb2ac552455cbcaa39bd0d3a2"}, {"bike_id": "da2c458d59a8f596469d43a8ee14ed33", "type": "electric_scooter", "is_disabled": 0, "lat": 38.916873333333335, "rental_uris": {"ios": "https://dc.lft.to/lastmile_qr_scan", "android": "https://dc.lft.to/lastmile_qr_scan"}, "is_reserved": 0, "fusion_lon": 0.0, "fusion_lat": 0.0, "lon": -77.03211983333334, "name": "da2c458d59a8f596469d43a8ee14ed33"}, {"bike_id": "aca15c46c397c56ddbf2a08126a2f23b", "type": "electric_scooter", "is_disabled": 0, "lat": 38.90388883333333, "rental_uris": {"ios": "https://dc.lft.to/lastmile_qr_scan", "android": "https://dc.lft.to/lastmile_qr_scan"}, "is_reserved": 0, "fusion_lon": 0.0, "fusion_lat": 0.0, "lon": -77.06858783333334, "name": "aca15c46c397c56ddbf2a08126a2f23b"}, {"bike_id": "f76dd6c27023255da5c6e638fbf6e127", "type": "electric_scooter", "is_disabled": 0, "lat": 38.91137033333333, "rental_uris": {"ios": "https://dc.lft.to/lastmile_qr_scan", "android": "https://dc.lft.to/lastmile_qr_scan"}, "is_reserved": 0, "fusion_lon": 0.0, "fusion_lat": 0.0, "lon": -77.06534216666667, "name": "f76dd6c27023255da5c6e638fbf6e127"}, {"bike_id": "2daf9713ab697a4cb5f215804deb7597", "type": "electric_scooter", "is_disabled": 0, "lat": 38.89816016666666, "rental_uris": {"ios": "https://dc.lft.to/lastmile_qr_scan", "android": "https://dc.lft.to/lastmile_qr_scan"}, "is_reserved": 0, "fusion_lon": 0.0, "fusion_lat": 0.0, "lon": -77.02378533333334, "name": "2daf9713ab697a4cb5f215804deb7597"}, {"bike_id": "565dc2de9b9a492ba0d3f46d3bfdf7ae", "type": "electric_scooter", "is_disabled": 0, "lat": 38.9371655, "rental_uris": {"ios": "https://dc.lft.to/lastmile_qr_scan", "android": "https://dc.lft.to/lastmile_qr_scan"}, "is_reserved": 0, "fusion_lon": 0.0, "fusion_lat": 0.0, "lon": -76.99051533333333, "name": "565dc2de9b9a492ba0d3f46d3bfdf7ae"}, {"bike_id": "1b28dfbf36b331c9fd9635be2428702c", "type": "electric_scooter", "is_disabled": 0, "lat": 38.90807566666667, "rental_uris": {"ios": "https://dc.lft.to/lastmile_qr_scan", "android": "https://dc.lft.to/lastmile_qr_scan"}, "is_reserved": 0, "fusion_lon": 0.0, "fusion_lat": 0.0, "lon": -77.08419033333334, "name": "1b28dfbf36b331c9fd9635be2428702c"}, {"bike_id": "7a9b12605b46c3c30b0cab521466a62d", "type": "electric_scooter", "is_disabled": 0, "lat": 38.874189333333334, "rental_uris": {"ios": "https://dc.lft.to/lastmile_qr_scan", "android": "https://dc.lft.to/lastmile_qr_scan"}, "is_reserved": 0, "fusion_lon": 0.0, "fusion_lat": 0.0, "lon": -76.96909616666667, "name": "7a9b12605b46c3c30b0cab521466a62d"}, {"bike_id": "1f07bd7c1b7cd06557a265830e4b5c51", "type": "electric_bike", "is_disabled": 0, "lat": 38.952451333333336, "rental_uris": {"ios": "https://dc.lft.to/lastmile_qr_scan", "android": "https://dc.lft.to/lastmile_qr_scan"}, "is_reserved": 0, "fusion_lon": 0.0, "fusion_lat": 0.0, "lon": -76.97678916666666, "name": "1f07bd7c1b7cd06557a265830e4b5c51"}, {"bike_id": "b8e53e2c02e1ed4a98c1d4760f5ace3b", "type": "electric_scooter", "is_disabled": 0, "lat": 38.9020365, "rental_uris": {"ios": "https://dc.lft.to/lastmile_qr_scan", "android": "https://dc.lft.to/lastmile_qr_scan"}, "is_reserved": 0, "fusion_lon": 0.0, "fusion_lat": 0.0, "lon": -77.02299483333333, "name": "b8e53e2c02e1ed4a98c1d4760f5ace3b"}, {"bike_id": "179952001316faee5beabc7f8edf8753", "type": "electric_scooter", "is_disabled": 0, "lat": 38.923872, "rental_uris": {"ios": "https://dc.lft.to/lastmile_qr_scan", "android": "https://dc.lft.to/lastmile_qr_scan"}, "is_reserved": 0, "fusion_lon": 0.0, "fusion_lat": 0.0, "lon": -77.05045016666666, "name": "179952001316faee5beabc7f8edf8753"}, {"bike_id": "a5c00f3091377ed1e77d6177e6f75852", "type": "electric_scooter", "is_disabled": 0, "lat": 38.892014833333334, "rental_uris": {"ios": "https://dc.lft.to/lastmile_qr_scan", "android": "https://dc.lft.to/lastmile_qr_scan"}, "is_reserved": 0, "fusion_lon": 0.0, "fusion_lat": 0.0, "lon": -77.01546483333334, "name": "a5c00f3091377ed1e77d6177e6f75852"}, {"bike_id": "39474483efbb078f61dabfe8e28343ee", "type": "electric_bike", "is_disabled": 0, "lat": 38.963133166666665, "rental_uris": {"ios": "https://dc.lft.to/lastmile_qr_scan", "android": "https://dc.lft.to/lastmile_qr_scan"}, "is_reserved": 0, "fusion_lon": 0.0, "fusion_lat": 0.0, "lon": -76.97363933333334, "name": "39474483efbb078f61dabfe8e28343ee"}, {"bike_id": "64850151a3daf4cd4921f48911d311bb", "type": "electric_scooter", "is_disabled": 0, "lat": 38.88730016666667, "rental_uris": {"ios": "https://dc.lft.to/lastmile_qr_scan", "android": "https://dc.lft.to/lastmile_qr_scan"}, "is_reserved": 0, "fusion_lon": 0.0, "fusion_lat": 0.0, "lon": -77.02203933333334, "name": "64850151a3daf4cd4921f48911d311bb"}, {"bike_id": "2df6a75d2012e898a37568952e3b0ad2", "type": "electric_scooter", "is_disabled": 0, "lat": 38.871046, "rental_uris": {"ios": "https://dc.lft.to/lastmile_qr_scan", "android": "https://dc.lft.to/lastmile_qr_scan"}, "is_reserved": 0, "fusion_lon": 0.0, "fusion_lat": 0.0, "lon": -77.00766866666666, "name": "2df6a75d2012e898a37568952e3b0ad2"}, {"bike_id": "c174f081d4ac1b075a1a6fbc5cb0598d", "type": "electric_scooter", "is_disabled": 0, "lat": 38.90708016666667, "rental_uris": {"ios": "https://dc.lft.to/lastmile_qr_scan", "android": "https://dc.lft.to/lastmile_qr_scan"}, "is_reserved": 0, "fusion_lon": 0.0, "fusion_lat": 0.0, "lon": -77.055872, "name": "c174f081d4ac1b075a1a6fbc5cb0598d"}, {"bike_id": "79e37d23c1f1a6cc0388d8b9c76551dd", "type": "electric_scooter", "is_disabled": 0, "lat": 38.9215495, "rental_uris": {"ios": "https://dc.lft.to/lastmile_qr_scan", "android": "https://dc.lft.to/lastmile_qr_scan"}, "is_reserved": 0, "fusion_lon": 0.0, "fusion_lat": 0.0, "lon": -77.03519133333333, "name": "79e37d23c1f1a6cc0388d8b9c76551dd"}, {"bike_id": "6d1453f123b5c342d9e439426f122b34", "type": "electric_scooter", "is_disabled": 0, "lat": 38.908446166666664, "rental_uris": {"ios": "https://dc.lft.to/lastmile_qr_scan", "android": "https://dc.lft.to/lastmile_qr_scan"}, "is_reserved": 0, "fusion_lon": 0.0, "fusion_lat": 0.0, "lon": -77.031951, "name": "6d1453f123b5c342d9e439426f122b34"}, {"bike_id": "8210c823a4da9d9c429897335852d090", "type": "electric_scooter", "is_disabled": 0, "lat": 38.913292, "rental_uris": {"ios": "https://dc.lft.to/lastmile_qr_scan", "android": "https://dc.lft.to/lastmile_qr_scan"}, "is_reserved": 0, "fusion_lon": 0.0, "fusion_lat": 0.0, "lon": -77.03187116666666, "name": "8210c823a4da9d9c429897335852d090"}, {"bike_id": "add43b1c8aef5dc2339f3f12588aa5e1", "type": "electric_scooter", "is_disabled": 0, "lat": 38.894777, "rental_uris": {"ios": "https://dc.lft.to/lastmile_qr_scan", "android": "https://dc.lft.to/lastmile_qr_scan"}, "is_reserved": 0, "fusion_lon": 0.0, "fusion_lat": 0.0, "lon": -76.948609, "name": "add43b1c8aef5dc2339f3f12588aa5e1"}, {"bike_id": "ba5ea4876b6fefd34c08ad0326f2903b", "type": "electric_scooter", "is_disabled": 0, "lat": 38.9117445, "rental_uris": {"ios": "https://dc.lft.to/lastmile_qr_scan", "android": "https://dc.lft.to/lastmile_qr_scan"}, "is_reserved": 0, "fusion_lon": 0.0, "fusion_lat": 0.0, "lon": -77.04037016666666, "name": "ba5ea4876b6fefd34c08ad0326f2903b"}, {"bike_id": "e98668d1549fae91ddcd9de58374e364", "type": "electric_scooter", "is_disabled": 0, "lat": 38.901229, "rental_uris": {"ios": "https://dc.lft.to/lastmile_qr_scan", "android": "https://dc.lft.to/lastmile_qr_scan"}, "is_reserved": 0, "fusion_lon": 0.0, "fusion_lat": 0.0, "lon": -77.00322166666666, "name": "e98668d1549fae91ddcd9de58374e364"}, {"bike_id": "66c45ca3dbeb54322db1afc61a336cbd", "type": "electric_scooter", "is_disabled": 0, "lat": 38.91486316666666, "rental_uris": {"ios": "https://dc.lft.to/lastmile_qr_scan", "android": "https://dc.lft.to/lastmile_qr_scan"}, "is_reserved": 0, "fusion_lon": 0.0, "fusion_lat": 0.0, "lon": -77.03764916666667, "name": "66c45ca3dbeb54322db1afc61a336cbd"}, {"bike_id": "ce887b347a02b09b628dcf3ee24b6049", "type": "electric_scooter", "is_disabled": 0, "lat": 38.907578, "rental_uris": {"ios": "https://dc.lft.to/lastmile_qr_scan", "android": "https://dc.lft.to/lastmile_qr_scan"}, "is_reserved": 0, "fusion_lon": 0.0, "fusion_lat": 0.0, "lon": -77.01695166666667, "name": "ce887b347a02b09b628dcf3ee24b6049"}, {"bike_id": "b65f2c0fb029cb097ef4a5c75faefc99", "type": "electric_scooter", "is_disabled": 0, "lat": 38.91682383333333, "rental_uris": {"ios": "https://dc.lft.to/lastmile_qr_scan", "android": "https://dc.lft.to/lastmile_qr_scan"}, "is_reserved": 0, "fusion_lon": 0.0, "fusion_lat": 0.0, "lon": -77.037629, "name": "b65f2c0fb029cb097ef4a5c75faefc99"}, {"bike_id": "2bd65908b8521be389b5b74b55f81cda", "type": "electric_scooter", "is_disabled": 0, "lat": 38.897035, "rental_uris": {"ios": "https://dc.lft.to/lastmile_qr_scan", "android": "https://dc.lft.to/lastmile_qr_scan"}, "is_reserved": 0, "fusion_lon": 0.0, "fusion_lat": 0.0, "lon": -77.008321, "name": "2bd65908b8521be389b5b74b55f81cda"}, {"bike_id": "93b3dbcde4f4014da0e37aa9097aaded", "type": "electric_scooter", "is_disabled": 0, "lat": 38.905131, "rental_uris": {"ios": "https://dc.lft.to/lastmile_qr_scan", "android": "https://dc.lft.to/lastmile_qr_scan"}, "is_reserved": 0, "fusion_lon": 0.0, "fusion_lat": 0.0, "lon": -77.01717933333333, "name": "93b3dbcde4f4014da0e37aa9097aaded"}, {"bike_id": "b3f449e48759da0ca7968421f5a7a712", "type": "electric_scooter", "is_disabled": 0, "lat": 38.898439, "rental_uris": {"ios": "https://dc.lft.to/lastmile_qr_scan", "android": "https://dc.lft.to/lastmile_qr_scan"}, "is_reserved": 0, "fusion_lon": 0.0, "fusion_lat": 0.0, "lon": -76.94630433333333, "name": "b3f449e48759da0ca7968421f5a7a712"}, {"bike_id": "15ce83303e054937d2cca3c0d1160c3c", "type": "electric_scooter", "is_disabled": 0, "lat": 38.919245833333335, "rental_uris": {"ios": "https://dc.lft.to/lastmile_qr_scan", "android": "https://dc.lft.to/lastmile_qr_scan"}, "is_reserved": 0, "fusion_lon": 0.0, "fusion_lat": 0.0, "lon": -77.045005, "name": "15ce83303e054937d2cca3c0d1160c3c"}, {"bike_id": "4e89394748f928e819b422b0514431a8", "type": "electric_scooter", "is_disabled": 0, "lat": 38.9027185, "rental_uris": {"ios": "https://dc.lft.to/lastmile_qr_scan", "android": "https://dc.lft.to/lastmile_qr_scan"}, "is_reserved": 0, "fusion_lon": 0.0, "fusion_lat": 0.0, "lon": -77.0548145, "name": "4e89394748f928e819b422b0514431a8"}, {"bike_id": "c3176345b727157bf16601596ea578c1", "type": "electric_scooter", "is_disabled": 0, "lat": 38.896106833333334, "rental_uris": {"ios": "https://dc.lft.to/lastmile_qr_scan", "android": "https://dc.lft.to/lastmile_qr_scan"}, "is_reserved": 0, "fusion_lon": 0.0, "fusion_lat": 0.0, "lon": -76.9856765, "name": "c3176345b727157bf16601596ea578c1"}, {"bike_id": "34d52b8d9ac7993c1314606ba0ef7579", "type": "electric_scooter", "is_disabled": 0, "lat": 38.865027833333336, "rental_uris": {"ios": "https://dc.lft.to/lastmile_qr_scan", "android": "https://dc.lft.to/lastmile_qr_scan"}, "is_reserved": 0, "fusion_lon": 0.0, "fusion_lat": 0.0, "lon": -76.99003716666667, "name": "34d52b8d9ac7993c1314606ba0ef7579"}, {"bike_id": "a4038867677ec0a530e4f5c26fa70209", "type": "electric_scooter", "is_disabled": 0, "lat": 38.92119183333333, "rental_uris": {"ios": "https://dc.lft.to/lastmile_qr_scan", "android": "https://dc.lft.to/lastmile_qr_scan"}, "is_reserved": 0, "fusion_lon": 0.0, "fusion_lat": 0.0, "lon": -77.01212866666667, "name": "a4038867677ec0a530e4f5c26fa70209"}, {"bike_id": "422a3edca793ddc9d0f1c7e3f6eb9a36", "type": "electric_scooter", "is_disabled": 0, "lat": 38.9573095, "rental_uris": {"ios": "https://dc.lft.to/lastmile_qr_scan", "android": "https://dc.lft.to/lastmile_qr_scan"}, "is_reserved": 0, "fusion_lon": 0.0, "fusion_lat": 0.0, "lon": -77.02804116666667, "name": "422a3edca793ddc9d0f1c7e3f6eb9a36"}, {"bike_id": "d3bdefbd4442db8644f9105455db9c93", "type": "electric_scooter", "is_disabled": 0, "lat": 38.892218, "rental_uris": {"ios": "https://dc.lft.to/lastmile_qr_scan", "android": "https://dc.lft.to/lastmile_qr_scan"}, "is_reserved": 0, "fusion_lon": 0.0, "fusion_lat": 0.0, "lon": -77.01374333333334, "name": "d3bdefbd4442db8644f9105455db9c93"}, {"bike_id": "52311df7dd6ad429be822ea2113a3418", "type": "electric_scooter", "is_disabled": 0, "lat": 38.87488483333333, "rental_uris": {"ios": "https://dc.lft.to/lastmile_qr_scan", "android": "https://dc.lft.to/lastmile_qr_scan"}, "is_reserved": 0, "fusion_lon": 0.0, "fusion_lat": 0.0, "lon": -77.001009, "name": "52311df7dd6ad429be822ea2113a3418"}, {"bike_id": "f8f9f450e98a8f1ffd674577784660c6", "type": "electric_scooter", "is_disabled": 0, "lat": 38.915569166666664, "rental_uris": {"ios": "https://dc.lft.to/lastmile_qr_scan", "android": "https://dc.lft.to/lastmile_qr_scan"}, "is_reserved": 0, "fusion_lon": 0.0, "fusion_lat": 0.0, "lon": -77.0257215, "name": "f8f9f450e98a8f1ffd674577784660c6"}, {"bike_id": "bbdd93715de54ec40ab27d822cc55161", "type": "electric_bike", "is_disabled": 0, "lat": 38.85354566666667, "rental_uris": {"ios": "https://dc.lft.to/lastmile_qr_scan", "android": "https://dc.lft.to/lastmile_qr_scan"}, "is_reserved": 0, "fusion_lon": 0.0, "fusion_lat": 0.0, "lon": -77.08689216666667, "name": "bbdd93715de54ec40ab27d822cc55161"}, {"bike_id": "3c5ccb615db43c6a5fd3c7067533affa", "type": "electric_scooter", "is_disabled": 0, "lat": 38.921519833333335, "rental_uris": {"ios": "https://dc.lft.to/lastmile_qr_scan", "android": "https://dc.lft.to/lastmile_qr_scan"}, "is_reserved": 0, "fusion_lon": 0.0, "fusion_lat": 0.0, "lon": -77.03518416666667, "name": "3c5ccb615db43c6a5fd3c7067533affa"}, {"bike_id": "d464f9281157314b242371f289c322a1", "type": "electric_scooter", "is_disabled": 0, "lat": 38.914753166666664, "rental_uris": {"ios": "https://dc.lft.to/lastmile_qr_scan", "android": "https://dc.lft.to/lastmile_qr_scan"}, "is_reserved": 0, "fusion_lon": 0.0, "fusion_lat": 0.0, "lon": -77.0028545, "name": "d464f9281157314b242371f289c322a1"}, {"bike_id": "d5a8b8a69e7a61c88880d2585d721d78", "type": "electric_scooter", "is_disabled": 0, "lat": 38.92159766666666, "rental_uris": {"ios": "https://dc.lft.to/lastmile_qr_scan", "android": "https://dc.lft.to/lastmile_qr_scan"}, "is_reserved": 0, "fusion_lon": 0.0, "fusion_lat": 0.0, "lon": -77.03340283333333, "name": "d5a8b8a69e7a61c88880d2585d721d78"}, {"bike_id": "d9a44a8f1aeec609210263a0b50d2ff2", "type": "electric_scooter", "is_disabled": 0, "lat": 38.9036905, "rental_uris": {"ios": "https://dc.lft.to/lastmile_qr_scan", "android": "https://dc.lft.to/lastmile_qr_scan"}, "is_reserved": 0, "fusion_lon": 0.0, "fusion_lat": 0.0, "lon": -77.02213166666667, "name": "d9a44a8f1aeec609210263a0b50d2ff2"}, {"bike_id": "44257cfb1d15d1d718f0d4398032f79b", "type": "electric_scooter", "is_disabled": 0, "lat": 38.9171155, "rental_uris": {"ios": "https://dc.lft.to/lastmile_qr_scan", "android": "https://dc.lft.to/lastmile_qr_scan"}, "is_reserved": 0, "fusion_lon": 0.0, "fusion_lat": 0.0, "lon": -77.012135, "name": "44257cfb1d15d1d718f0d4398032f79b"}, {"bike_id": "b960fea856d81f027be4078e6847b7dd", "type": "electric_scooter", "is_disabled": 0, "lat": 38.905807, "rental_uris": {"ios": "https://dc.lft.to/lastmile_qr_scan", "android": "https://dc.lft.to/lastmile_qr_scan"}, "is_reserved": 0, "fusion_lon": 0.0, "fusion_lat": 0.0, "lon": -77.05699016666667, "name": "b960fea856d81f027be4078e6847b7dd"}, {"bike_id": "ffa269b4142fec7e2f7f3a3eb05486d0", "type": "electric_scooter", "is_disabled": 0, "lat": 38.904124333333336, "rental_uris": {"ios": "https://dc.lft.to/lastmile_qr_scan", "android": "https://dc.lft.to/lastmile_qr_scan"}, "is_reserved": 0, "fusion_lon": 0.0, "fusion_lat": 0.0, "lon": -77.06950516666667, "name": "ffa269b4142fec7e2f7f3a3eb05486d0"}, {"bike_id": "2521fc82bc7b487a2316dd9ecad4eee2", "type": "electric_scooter", "is_disabled": 0, "lat": 38.906018, "rental_uris": {"ios": "https://dc.lft.to/lastmile_qr_scan", "android": "https://dc.lft.to/lastmile_qr_scan"}, "is_reserved": 0, "fusion_lon": 0.0, "fusion_lat": 0.0, "lon": -77.0271375, "name": "2521fc82bc7b487a2316dd9ecad4eee2"}, {"bike_id": "658ad1205ca33496b126c829ae3f9654", "type": "electric_bike", "is_disabled": 0, "lat": 38.84961933333334, "rental_uris": {"ios": "https://dc.lft.to/lastmile_qr_scan", "android": "https://dc.lft.to/lastmile_qr_scan"}, "is_reserved": 0, "fusion_lon": 0.0, "fusion_lat": 0.0, "lon": -77.077591, "name": "658ad1205ca33496b126c829ae3f9654"}, {"bike_id": "cf87a8361f011a8e08ccf17bc853cf3d", "type": "electric_scooter", "is_disabled": 0, "lat": 38.897314333333334, "rental_uris": {"ios": "https://dc.lft.to/lastmile_qr_scan", "android": "https://dc.lft.to/lastmile_qr_scan"}, "is_reserved": 0, "fusion_lon": 0.0, "fusion_lat": 0.0, "lon": -77.05475716666666, "name": "cf87a8361f011a8e08ccf17bc853cf3d"}, {"bike_id": "b859b79053ae130da4066e2b08b54054", "type": "electric_scooter", "is_disabled": 0, "lat": 38.915003, "rental_uris": {"ios": "https://dc.lft.to/lastmile_qr_scan", "android": "https://dc.lft.to/lastmile_qr_scan"}, "is_reserved": 0, "fusion_lon": 0.0, "fusion_lat": 0.0, "lon": -77.01778966666667, "name": "b859b79053ae130da4066e2b08b54054"}, {"bike_id": "7ddde60a961260a0838b58a3b69a5d51", "type": "electric_scooter", "is_disabled": 0, "lat": 38.922295166666665, "rental_uris": {"ios": "https://dc.lft.to/lastmile_qr_scan", "android": "https://dc.lft.to/lastmile_qr_scan"}, "is_reserved": 0, "fusion_lon": 0.0, "fusion_lat": 0.0, "lon": -77.03699433333334, "name": "7ddde60a961260a0838b58a3b69a5d51"}, {"bike_id": "b30e00fea0df020ff6a2b3ed0ac5995c", "type": "electric_scooter", "is_disabled": 0, "lat": 38.90408866666667, "rental_uris": {"ios": "https://dc.lft.to/lastmile_qr_scan", "android": "https://dc.lft.to/lastmile_qr_scan"}, "is_reserved": 0, "fusion_lon": 0.0, "fusion_lat": 0.0, "lon": -76.97331266666667, "name": "b30e00fea0df020ff6a2b3ed0ac5995c"}, {"bike_id": "9f644df8ccf3d9aa1e689a5a12d2e26b", "type": "electric_bike", "is_disabled": 0, "lat": 38.94473416666666, "rental_uris": {"ios": "https://dc.lft.to/lastmile_qr_scan", "android": "https://dc.lft.to/lastmile_qr_scan"}, "is_reserved": 0, "fusion_lon": 0.0, "fusion_lat": 0.0, "lon": -76.98686266666667, "name": "9f644df8ccf3d9aa1e689a5a12d2e26b"}, {"bike_id": "59cd8836aadc3de9a55e60f3f4f1cef9", "type": "electric_scooter", "is_disabled": 0, "lat": 38.866560666666665, "rental_uris": {"ios": "https://dc.lft.to/lastmile_qr_scan", "android": "https://dc.lft.to/lastmile_qr_scan"}, "is_reserved": 0, "fusion_lon": 0.0, "fusion_lat": 0.0, "lon": -76.9888575, "name": "59cd8836aadc3de9a55e60f3f4f1cef9"}, {"bike_id": "357951b3e3148d0b6f656bb2075f316a", "type": "electric_scooter", "is_disabled": 0, "lat": 38.91224033333334, "rental_uris": {"ios": "https://dc.lft.to/lastmile_qr_scan", "android": "https://dc.lft.to/lastmile_qr_scan"}, "is_reserved": 0, "fusion_lon": 0.0, "fusion_lat": 0.0, "lon": -76.987931, "name": "357951b3e3148d0b6f656bb2075f316a"}, {"bike_id": "6fe1fe53d5b66cd57ba709646b4aed99", "type": "electric_scooter", "is_disabled": 0, "lat": 38.90904066666667, "rental_uris": {"ios": "https://dc.lft.to/lastmile_qr_scan", "android": "https://dc.lft.to/lastmile_qr_scan"}, "is_reserved": 0, "fusion_lon": 0.0, "fusion_lat": 0.0, "lon": -77.0438635, "name": "6fe1fe53d5b66cd57ba709646b4aed99"}, {"bike_id": "2f98b2f9f13ad3c2aa5198bb3ef07486", "type": "electric_scooter", "is_disabled": 0, "lat": 38.91267883333333, "rental_uris": {"ios": "https://dc.lft.to/lastmile_qr_scan", "android": "https://dc.lft.to/lastmile_qr_scan"}, "is_reserved": 0, "fusion_lon": 0.0, "fusion_lat": 0.0, "lon": -77.02214066666667, "name": "2f98b2f9f13ad3c2aa5198bb3ef07486"}, {"bike_id": "32512a13a046e87ab019274017899afb", "type": "electric_scooter", "is_disabled": 0, "lat": 38.886743833333334, "rental_uris": {"ios": "https://dc.lft.to/lastmile_qr_scan", "android": "https://dc.lft.to/lastmile_qr_scan"}, "is_reserved": 0, "fusion_lon": 0.0, "fusion_lat": 0.0, "lon": -76.98782466666667, "name": "32512a13a046e87ab019274017899afb"}, {"bike_id": "80aeb3e61187f1b6efe251b0b202dbb5", "type": "electric_scooter", "is_disabled": 0, "lat": 38.91957266666667, "rental_uris": {"ios": "https://dc.lft.to/lastmile_qr_scan", "android": "https://dc.lft.to/lastmile_qr_scan"}, "is_reserved": 0, "fusion_lon": 0.0, "fusion_lat": 0.0, "lon": -77.025588, "name": "80aeb3e61187f1b6efe251b0b202dbb5"}, {"bike_id": "270e29c2098deb91d04654bd5d8dc6fe", "type": "electric_scooter", "is_disabled": 0, "lat": 38.892230166666664, "rental_uris": {"ios": "https://dc.lft.to/lastmile_qr_scan", "android": "https://dc.lft.to/lastmile_qr_scan"}, "is_reserved": 0, "fusion_lon": 0.0, "fusion_lat": 0.0, "lon": -77.04311483333333, "name": "270e29c2098deb91d04654bd5d8dc6fe"}, {"bike_id": "980c0b6a093a5b4d1eeda8b48c13c2d6", "type": "electric_scooter", "is_disabled": 0, "lat": 38.905671, "rental_uris": {"ios": "https://dc.lft.to/lastmile_qr_scan", "android": "https://dc.lft.to/lastmile_qr_scan"}, "is_reserved": 0, "fusion_lon": 0.0, "fusion_lat": 0.0, "lon": -77.01794616666666, "name": "980c0b6a093a5b4d1eeda8b48c13c2d6"}, {"bike_id": "0dddb430f6cb06724caf61eb02fdd6a4", "type": "electric_scooter", "is_disabled": 0, "lat": 38.92546016666667, "rental_uris": {"ios": "https://dc.lft.to/lastmile_qr_scan", "android": "https://dc.lft.to/lastmile_qr_scan"}, "is_reserved": 0, "fusion_lon": 0.0, "fusion_lat": 0.0, "lon": -77.05301533333333, "name": "0dddb430f6cb06724caf61eb02fdd6a4"}, {"bike_id": "3c02dd1c8b52dc81475e04a0e50bec7b", "type": "electric_scooter", "is_disabled": 0, "lat": 38.90271883333333, "rental_uris": {"ios": "https://dc.lft.to/lastmile_qr_scan", "android": "https://dc.lft.to/lastmile_qr_scan"}, "is_reserved": 0, "fusion_lon": 0.0, "fusion_lat": 0.0, "lon": -77.03453883333333, "name": "3c02dd1c8b52dc81475e04a0e50bec7b"}, {"bike_id": "ef50c6fa79974385d4fac92644e74962", "type": "electric_scooter", "is_disabled": 0, "lat": 38.887118666666666, "rental_uris": {"ios": "https://dc.lft.to/lastmile_qr_scan", "android": "https://dc.lft.to/lastmile_qr_scan"}, "is_reserved": 0, "fusion_lon": 0.0, "fusion_lat": 0.0, "lon": -77.03176366666666, "name": "ef50c6fa79974385d4fac92644e74962"}, {"bike_id": "e0e4d5a31ca889849632192a23e8af74", "type": "electric_scooter", "is_disabled": 0, "lat": 38.92246333333333, "rental_uris": {"ios": "https://dc.lft.to/lastmile_qr_scan", "android": "https://dc.lft.to/lastmile_qr_scan"}, "is_reserved": 0, "fusion_lon": 0.0, "fusion_lat": 0.0, "lon": -77.04272, "name": "e0e4d5a31ca889849632192a23e8af74"}, {"bike_id": "6ee8da6ce08cdd6aedff21a4d287b83a", "type": "electric_scooter", "is_disabled": 0, "lat": 38.903557, "rental_uris": {"ios": "https://dc.lft.to/lastmile_qr_scan", "android": "https://dc.lft.to/lastmile_qr_scan"}, "is_reserved": 0, "fusion_lon": 0.0, "fusion_lat": 0.0, "lon": -77.0075005, "name": "6ee8da6ce08cdd6aedff21a4d287b83a"}, {"bike_id": "c0f566faa6c0abc33bf6f436cf5a8d6d", "type": "electric_scooter", "is_disabled": 0, "lat": 38.92858416666667, "rental_uris": {"ios": "https://dc.lft.to/lastmile_qr_scan", "android": "https://dc.lft.to/lastmile_qr_scan"}, "is_reserved": 0, "fusion_lon": 0.0, "fusion_lat": 0.0, "lon": -77.03708333333333, "name": "c0f566faa6c0abc33bf6f436cf5a8d6d"}, {"bike_id": "7743f52b739d92bb89babb5bf8109aad", "type": "electric_scooter", "is_disabled": 0, "lat": 38.912668833333335, "rental_uris": {"ios": "https://dc.lft.to/lastmile_qr_scan", "android": "https://dc.lft.to/lastmile_qr_scan"}, "is_reserved": 0, "fusion_lon": 0.0, "fusion_lat": 0.0, "lon": -77.02211683333333, "name": "7743f52b739d92bb89babb5bf8109aad"}, {"bike_id": "27a1475f23bab64a37a83c108da145ed", "type": "electric_scooter", "is_disabled": 0, "lat": 38.92191916666667, "rental_uris": {"ios": "https://dc.lft.to/lastmile_qr_scan", "android": "https://dc.lft.to/lastmile_qr_scan"}, "is_reserved": 0, "fusion_lon": 0.0, "fusion_lat": 0.0, "lon": -77.03807916666666, "name": "27a1475f23bab64a37a83c108da145ed"}, {"bike_id": "43e407b4856531357682257101a6e29f", "type": "electric_scooter", "is_disabled": 0, "lat": 38.91815283333333, "rental_uris": {"ios": "https://dc.lft.to/lastmile_qr_scan", "android": "https://dc.lft.to/lastmile_qr_scan"}, "is_reserved": 0, "fusion_lon": 0.0, "fusion_lat": 0.0, "lon": -77.00262133333334, "name": "43e407b4856531357682257101a6e29f"}, {"bike_id": "230a35c90f538681a8665f03b6e435e7", "type": "electric_bike", "is_disabled": 0, "lat": 38.948955833333336, "rental_uris": {"ios": "https://dc.lft.to/lastmile_qr_scan", "android": "https://dc.lft.to/lastmile_qr_scan"}, "is_reserved": 0, "fusion_lon": 0.0, "fusion_lat": 0.0, "lon": -76.96377466666667, "name": "230a35c90f538681a8665f03b6e435e7"}, {"bike_id": "f8a7b5c3694c593550806eeb36f9862d", "type": "electric_scooter", "is_disabled": 0, "lat": 38.917699999999996, "rental_uris": {"ios": "https://dc.lft.to/lastmile_qr_scan", "android": "https://dc.lft.to/lastmile_qr_scan"}, "is_reserved": 0, "fusion_lon": 0.0, "fusion_lat": 0.0, "lon": -77.0477125, "name": "f8a7b5c3694c593550806eeb36f9862d"}, {"bike_id": "7d33fe8a81ab730b1870286c9bab3a5e", "type": "electric_scooter", "is_disabled": 0, "lat": 38.866679166666664, "rental_uris": {"ios": "https://dc.lft.to/lastmile_qr_scan", "android": "https://dc.lft.to/lastmile_qr_scan"}, "is_reserved": 0, "fusion_lon": 0.0, "fusion_lat": 0.0, "lon": -76.985369, "name": "7d33fe8a81ab730b1870286c9bab3a5e"}, {"bike_id": "e904819638feb7669b537001bf327fde", "type": "electric_scooter", "is_disabled": 0, "lat": 38.93195266666667, "rental_uris": {"ios": "https://dc.lft.to/lastmile_qr_scan", "android": "https://dc.lft.to/lastmile_qr_scan"}, "is_reserved": 0, "fusion_lon": 0.0, "fusion_lat": 0.0, "lon": -77.03858016666666, "name": "e904819638feb7669b537001bf327fde"}, {"bike_id": "01bee1eb18e59f2fe55dd02e62311f67", "type": "electric_bike", "is_disabled": 0, "lat": 38.942617166666665, "rental_uris": {"ios": "https://dc.lft.to/lastmile_qr_scan", "android": "https://dc.lft.to/lastmile_qr_scan"}, "is_reserved": 0, "fusion_lon": 0.0, "fusion_lat": 0.0, "lon": -76.9907405, "name": "01bee1eb18e59f2fe55dd02e62311f67"}, {"bike_id": "a80e7ab5385a22ffd0e560a2426b1cd3", "type": "electric_scooter", "is_disabled": 0, "lat": 38.898834, "rental_uris": {"ios": "https://dc.lft.to/lastmile_qr_scan", "android": "https://dc.lft.to/lastmile_qr_scan"}, "is_reserved": 0, "fusion_lon": 0.0, "fusion_lat": 0.0, "lon": -76.93176316666667, "name": "a80e7ab5385a22ffd0e560a2426b1cd3"}, {"bike_id": "10e82c00eca59f8b04f615a0f687cf6c", "type": "electric_scooter", "is_disabled": 0, "lat": 38.896161666666664, "rental_uris": {"ios": "https://dc.lft.to/lastmile_qr_scan", "android": "https://dc.lft.to/lastmile_qr_scan"}, "is_reserved": 0, "fusion_lon": 0.0, "fusion_lat": 0.0, "lon": -77.03128233333334, "name": "10e82c00eca59f8b04f615a0f687cf6c"}, {"bike_id": "bc62260bf338a7c067a2c8fac45c9479", "type": "electric_scooter", "is_disabled": 0, "lat": 38.9148755, "rental_uris": {"ios": "https://dc.lft.to/lastmile_qr_scan", "android": "https://dc.lft.to/lastmile_qr_scan"}, "is_reserved": 0, "fusion_lon": 0.0, "fusion_lat": 0.0, "lon": -77.04166466666666, "name": "bc62260bf338a7c067a2c8fac45c9479"}, {"bike_id": "e87bf153066f00a3c86385ba40246029", "type": "electric_bike", "is_disabled": 0, "lat": 38.848397, "rental_uris": {"ios": "https://dc.lft.to/lastmile_qr_scan", "android": "https://dc.lft.to/lastmile_qr_scan"}, "is_reserved": 0, "fusion_lon": 0.0, "fusion_lat": 0.0, "lon": -77.07922183333334, "name": "e87bf153066f00a3c86385ba40246029"}, {"bike_id": "7a3ec71a0b1fbfeecb47ad17d2c1af1e", "type": "electric_scooter", "is_disabled": 0, "lat": 38.951133166666665, "rental_uris": {"ios": "https://dc.lft.to/lastmile_qr_scan", "android": "https://dc.lft.to/lastmile_qr_scan"}, "is_reserved": 0, "fusion_lon": 0.0, "fusion_lat": 0.0, "lon": -77.01434066666667, "name": "7a3ec71a0b1fbfeecb47ad17d2c1af1e"}, {"bike_id": "eec70564d0afe449b326fa348cd42e30", "type": "electric_scooter", "is_disabled": 0, "lat": 38.881834, "rental_uris": {"ios": "https://dc.lft.to/lastmile_qr_scan", "android": "https://dc.lft.to/lastmile_qr_scan"}, "is_reserved": 0, "fusion_lon": 0.0, "fusion_lat": 0.0, "lon": -77.02095883333334, "name": "eec70564d0afe449b326fa348cd42e30"}, {"bike_id": "7727d7681f91feea36577f6bd2b6a41a", "type": "electric_scooter", "is_disabled": 0, "lat": 38.900588166666665, "rental_uris": {"ios": "https://dc.lft.to/lastmile_qr_scan", "android": "https://dc.lft.to/lastmile_qr_scan"}, "is_reserved": 0, "fusion_lon": 0.0, "fusion_lat": 0.0, "lon": -77.01297033333333, "name": "7727d7681f91feea36577f6bd2b6a41a"}, {"bike_id": "a9bc50a9940ff9cfac76d1bf54e7d8db", "type": "electric_bike", "is_disabled": 0, "lat": 38.8863475, "rental_uris": {"ios": "https://dc.lft.to/lastmile_qr_scan", "android": "https://dc.lft.to/lastmile_qr_scan"}, "is_reserved": 0, "fusion_lon": 0.0, "fusion_lat": 0.0, "lon": -77.12987216666667, "name": "a9bc50a9940ff9cfac76d1bf54e7d8db"}, {"bike_id": "6d0f6be5c3d81fb3dd6b8d9a3e6dd04e", "type": "electric_scooter", "is_disabled": 0, "lat": 38.9006135, "rental_uris": {"ios": "https://dc.lft.to/lastmile_qr_scan", "android": "https://dc.lft.to/lastmile_qr_scan"}, "is_reserved": 0, "fusion_lon": 0.0, "fusion_lat": 0.0, "lon": -76.927388, "name": "6d0f6be5c3d81fb3dd6b8d9a3e6dd04e"}, {"bike_id": "b63f62c5960ad1ba5c52726beeb3f371", "type": "electric_scooter", "is_disabled": 0, "lat": 38.93925333333333, "rental_uris": {"ios": "https://dc.lft.to/lastmile_qr_scan", "android": "https://dc.lft.to/lastmile_qr_scan"}, "is_reserved": 0, "fusion_lon": 0.0, "fusion_lat": 0.0, "lon": -77.0368155, "name": "b63f62c5960ad1ba5c52726beeb3f371"}, {"bike_id": "89966c8e64b1147dcd8b636d89d32ba7", "type": "electric_scooter", "is_disabled": 0, "lat": 38.94994583333333, "rental_uris": {"ios": "https://dc.lft.to/lastmile_qr_scan", "android": "https://dc.lft.to/lastmile_qr_scan"}, "is_reserved": 0, "fusion_lon": 0.0, "fusion_lat": 0.0, "lon": -77.01831383333334, "name": "89966c8e64b1147dcd8b636d89d32ba7"}, {"bike_id": "cb31b9c4a8e88d606676f84b4050e833", "type": "electric_scooter", "is_disabled": 0, "lat": 38.905894, "rental_uris": {"ios": "https://dc.lft.to/lastmile_qr_scan", "android": "https://dc.lft.to/lastmile_qr_scan"}, "is_reserved": 0, "fusion_lon": 0.0, "fusion_lat": 0.0, "lon": -77.051577, "name": "cb31b9c4a8e88d606676f84b4050e833"}, {"bike_id": "b9b957527c2439133d431551b0d52c5a", "type": "electric_scooter", "is_disabled": 0, "lat": 38.9170105, "rental_uris": {"ios": "https://dc.lft.to/lastmile_qr_scan", "android": "https://dc.lft.to/lastmile_qr_scan"}, "is_reserved": 0, "fusion_lon": 0.0, "fusion_lat": 0.0, "lon": -77.0241075, "name": "b9b957527c2439133d431551b0d52c5a"}, {"bike_id": "8b36f2166eab2b768abebf75a8c2eebb", "type": "electric_scooter", "is_disabled": 0, "lat": 38.917053833333334, "rental_uris": {"ios": "https://dc.lft.to/lastmile_qr_scan", "android": "https://dc.lft.to/lastmile_qr_scan"}, "is_reserved": 0, "fusion_lon": 0.0, "fusion_lat": 0.0, "lon": -77.0348485, "name": "8b36f2166eab2b768abebf75a8c2eebb"}, {"bike_id": "a703b68dad882d1c3bc82d7faef8c2c7", "type": "electric_bike", "is_disabled": 0, "lat": 38.90993666666667, "rental_uris": {"ios": "https://dc.lft.to/lastmile_qr_scan", "android": "https://dc.lft.to/lastmile_qr_scan"}, "is_reserved": 0, "fusion_lon": 0.0, "fusion_lat": 0.0, "lon": -77.04634566666667, "name": "a703b68dad882d1c3bc82d7faef8c2c7"}, {"bike_id": "c7be97eb265f8dbf6405a2c4f3b47b82", "type": "electric_scooter", "is_disabled": 0, "lat": 38.90499, "rental_uris": {"ios": "https://dc.lft.to/lastmile_qr_scan", "android": "https://dc.lft.to/lastmile_qr_scan"}, "is_reserved": 0, "fusion_lon": 0.0, "fusion_lat": 0.0, "lon": -77.06888666666667, "name": "c7be97eb265f8dbf6405a2c4f3b47b82"}, {"bike_id": "d99a314b56089880e3246fb3790dc540", "type": "electric_bike", "is_disabled": 0, "lat": 38.94557433333333, "rental_uris": {"ios": "https://dc.lft.to/lastmile_qr_scan", "android": "https://dc.lft.to/lastmile_qr_scan"}, "is_reserved": 0, "fusion_lon": 0.0, "fusion_lat": 0.0, "lon": -76.9779915, "name": "d99a314b56089880e3246fb3790dc540"}, {"bike_id": "b527d36ec41b880a8bffeba9c112a829", "type": "electric_scooter", "is_disabled": 0, "lat": 38.916698333333336, "rental_uris": {"ios": "https://dc.lft.to/lastmile_qr_scan", "android": "https://dc.lft.to/lastmile_qr_scan"}, "is_reserved": 0, "fusion_lon": 0.0, "fusion_lat": 0.0, "lon": -77.02294066666667, "name": "b527d36ec41b880a8bffeba9c112a829"}, {"bike_id": "aba5c320427756e7ddab9c09bf4d29d3", "type": "electric_scooter", "is_disabled": 0, "lat": 38.90192066666667, "rental_uris": {"ios": "https://dc.lft.to/lastmile_qr_scan", "android": "https://dc.lft.to/lastmile_qr_scan"}, "is_reserved": 0, "fusion_lon": 0.0, "fusion_lat": 0.0, "lon": -77.023185, "name": "aba5c320427756e7ddab9c09bf4d29d3"}, {"bike_id": "defaa9063a03d80aedba8458a6e5ce9d", "type": "electric_scooter", "is_disabled": 0, "lat": 38.88960433333333, "rental_uris": {"ios": "https://dc.lft.to/lastmile_qr_scan", "android": "https://dc.lft.to/lastmile_qr_scan"}, "is_reserved": 0, "fusion_lon": 0.0, "fusion_lat": 0.0, "lon": -77.02824016666666, "name": "defaa9063a03d80aedba8458a6e5ce9d"}, {"bike_id": "b145a3262b81a9c0b0d090d7320cc1a1", "type": "electric_scooter", "is_disabled": 0, "lat": 38.9111095, "rental_uris": {"ios": "https://dc.lft.to/lastmile_qr_scan", "android": "https://dc.lft.to/lastmile_qr_scan"}, "is_reserved": 0, "fusion_lon": 0.0, "fusion_lat": 0.0, "lon": -77.02234133333333, "name": "b145a3262b81a9c0b0d090d7320cc1a1"}, {"bike_id": "e90e182d04c8a60b9e6056172cea4a39", "type": "electric_scooter", "is_disabled": 0, "lat": 38.919602, "rental_uris": {"ios": "https://dc.lft.to/lastmile_qr_scan", "android": "https://dc.lft.to/lastmile_qr_scan"}, "is_reserved": 0, "fusion_lon": 0.0, "fusion_lat": 0.0, "lon": -77.01442133333333, "name": "e90e182d04c8a60b9e6056172cea4a39"}, {"bike_id": "c20f94aa20042182c898b76b0a443c85", "type": "electric_bike", "is_disabled": 0, "lat": 39.014735333333334, "rental_uris": {"ios": "https://dc.lft.to/lastmile_qr_scan", "android": "https://dc.lft.to/lastmile_qr_scan"}, "is_reserved": 0, "fusion_lon": 0.0, "fusion_lat": 0.0, "lon": -77.0549755, "name": "c20f94aa20042182c898b76b0a443c85"}, {"bike_id": "4f8d51caa39ab35e2916517387923ba9", "type": "electric_scooter", "is_disabled": 0, "lat": 38.91680566666667, "rental_uris": {"ios": "https://dc.lft.to/lastmile_qr_scan", "android": "https://dc.lft.to/lastmile_qr_scan"}, "is_reserved": 0, "fusion_lon": 0.0, "fusion_lat": 0.0, "lon": -77.028924, "name": "4f8d51caa39ab35e2916517387923ba9"}, {"bike_id": "8299b5920431fe93221454d4c133f7f2", "type": "electric_scooter", "is_disabled": 0, "lat": 38.894758, "rental_uris": {"ios": "https://dc.lft.to/lastmile_qr_scan", "android": "https://dc.lft.to/lastmile_qr_scan"}, "is_reserved": 0, "fusion_lon": 0.0, "fusion_lat": 0.0, "lon": -76.99487, "name": "8299b5920431fe93221454d4c133f7f2"}, {"bike_id": "712756e9d268d3ce8f721bb001ced43a", "type": "electric_scooter", "is_disabled": 0, "lat": 38.898363833333335, "rental_uris": {"ios": "https://dc.lft.to/lastmile_qr_scan", "android": "https://dc.lft.to/lastmile_qr_scan"}, "is_reserved": 0, "fusion_lon": 0.0, "fusion_lat": 0.0, "lon": -76.9464065, "name": "712756e9d268d3ce8f721bb001ced43a"}, {"bike_id": "4f5668db2c069bff30af702b778e08fa", "type": "electric_scooter", "is_disabled": 0, "lat": 38.90604783333333, "rental_uris": {"ios": "https://dc.lft.to/lastmile_qr_scan", "android": "https://dc.lft.to/lastmile_qr_scan"}, "is_reserved": 0, "fusion_lon": 0.0, "fusion_lat": 0.0, "lon": -77.0034, "name": "4f5668db2c069bff30af702b778e08fa"}, {"bike_id": "66ce44f8e966298ea8cf9f6c48347f33", "type": "electric_bike", "is_disabled": 0, "lat": 38.9086325, "rental_uris": {"ios": "https://dc.lft.to/lastmile_qr_scan", "android": "https://dc.lft.to/lastmile_qr_scan"}, "is_reserved": 0, "fusion_lon": 0.0, "fusion_lat": 0.0, "lon": -77.0764765, "name": "66ce44f8e966298ea8cf9f6c48347f33"}, {"bike_id": "ec045e7d69e82d0dfcc5512d9ebf431b", "type": "electric_scooter", "is_disabled": 0, "lat": 38.861951166666664, "rental_uris": {"ios": "https://dc.lft.to/lastmile_qr_scan", "android": "https://dc.lft.to/lastmile_qr_scan"}, "is_reserved": 0, "fusion_lon": 0.0, "fusion_lat": 0.0, "lon": -76.95949933333333, "name": "ec045e7d69e82d0dfcc5512d9ebf431b"}, {"bike_id": "2cb8922b0ffba8563c09cf0d90ae1d0f", "type": "electric_bike", "is_disabled": 0, "lat": 38.995213, "rental_uris": {"ios": "https://dc.lft.to/lastmile_qr_scan", "android": "https://dc.lft.to/lastmile_qr_scan"}, "is_reserved": 0, "fusion_lon": 0.0, "fusion_lat": 0.0, "lon": -77.06953216666666, "name": "2cb8922b0ffba8563c09cf0d90ae1d0f"}, {"bike_id": "cbc667a5d6cbbddec88d4fc2fc8f8f3b", "type": "electric_scooter", "is_disabled": 0, "lat": 38.968478, "rental_uris": {"ios": "https://dc.lft.to/lastmile_qr_scan", "android": "https://dc.lft.to/lastmile_qr_scan"}, "is_reserved": 0, "fusion_lon": 0.0, "fusion_lat": 0.0, "lon": -77.02729833333333, "name": "cbc667a5d6cbbddec88d4fc2fc8f8f3b"}, {"bike_id": "4a5baa7c5fea004a7a46f986f28d0f8e", "type": "electric_scooter", "is_disabled": 0, "lat": 38.92737833333333, "rental_uris": {"ios": "https://dc.lft.to/lastmile_qr_scan", "android": "https://dc.lft.to/lastmile_qr_scan"}, "is_reserved": 0, "fusion_lon": 0.0, "fusion_lat": 0.0, "lon": -77.03353016666667, "name": "4a5baa7c5fea004a7a46f986f28d0f8e"}, {"bike_id": "0001b5a5a2d9df638fbd08621ee91397", "type": "electric_bike", "is_disabled": 0, "lat": 38.9950755, "rental_uris": {"ios": "https://dc.lft.to/lastmile_qr_scan", "android": "https://dc.lft.to/lastmile_qr_scan"}, "is_reserved": 0, "fusion_lon": 0.0, "fusion_lat": 0.0, "lon": -77.0288145, "name": "0001b5a5a2d9df638fbd08621ee91397"}, {"bike_id": "0563287411b2991f3252f59404ea1b99", "type": "electric_scooter", "is_disabled": 0, "lat": 38.8764635, "rental_uris": {"ios": "https://dc.lft.to/lastmile_qr_scan", "android": "https://dc.lft.to/lastmile_qr_scan"}, "is_reserved": 0, "fusion_lon": 0.0, "fusion_lat": 0.0, "lon": -76.965035, "name": "0563287411b2991f3252f59404ea1b99"}, {"bike_id": "08a929af9667f8056c6597a89074262f", "type": "electric_scooter", "is_disabled": 0, "lat": 38.862466, "rental_uris": {"ios": "https://dc.lft.to/lastmile_qr_scan", "android": "https://dc.lft.to/lastmile_qr_scan"}, "is_reserved": 0, "fusion_lon": 0.0, "fusion_lat": 0.0, "lon": -76.99505383333333, "name": "08a929af9667f8056c6597a89074262f"}, {"bike_id": "0e087056e9027cf24a1a01fbea684dbe", "type": "electric_scooter", "is_disabled": 0, "lat": 38.913457333333334, "rental_uris": {"ios": "https://dc.lft.to/lastmile_qr_scan", "android": "https://dc.lft.to/lastmile_qr_scan"}, "is_reserved": 0, "fusion_lon": 0.0, "fusion_lat": 0.0, "lon": -77.07114083333333, "name": "0e087056e9027cf24a1a01fbea684dbe"}, {"bike_id": "f1d5f8ded7da39847464b2b105ef380f", "type": "electric_scooter", "is_disabled": 0, "lat": 38.92027516666667, "rental_uris": {"ios": "https://dc.lft.to/lastmile_qr_scan", "android": "https://dc.lft.to/lastmile_qr_scan"}, "is_reserved": 0, "fusion_lon": 0.0, "fusion_lat": 0.0, "lon": -76.99562116666667, "name": "f1d5f8ded7da39847464b2b105ef380f"}, {"bike_id": "54f5a9bf86f1bd84d8daa5b05f9ef039", "type": "electric_scooter", "is_disabled": 0, "lat": 38.8669395, "rental_uris": {"ios": "https://dc.lft.to/lastmile_qr_scan", "android": "https://dc.lft.to/lastmile_qr_scan"}, "is_reserved": 0, "fusion_lon": 0.0, "fusion_lat": 0.0, "lon": -76.98715433333334, "name": "54f5a9bf86f1bd84d8daa5b05f9ef039"}, {"bike_id": "a4cbe06ae58467e77a26c87f88603422", "type": "electric_scooter", "is_disabled": 0, "lat": 38.909542, "rental_uris": {"ios": "https://dc.lft.to/lastmile_qr_scan", "android": "https://dc.lft.to/lastmile_qr_scan"}, "is_reserved": 0, "fusion_lon": 0.0, "fusion_lat": 0.0, "lon": -77.0211785, "name": "a4cbe06ae58467e77a26c87f88603422"}, {"bike_id": "d0d5ce8472ba4c09fc7697b2a01c7ece", "type": "electric_scooter", "is_disabled": 0, "lat": 38.92263416666667, "rental_uris": {"ios": "https://dc.lft.to/lastmile_qr_scan", "android": "https://dc.lft.to/lastmile_qr_scan"}, "is_reserved": 0, "fusion_lon": 0.0, "fusion_lat": 0.0, "lon": -77.03666583333333, "name": "d0d5ce8472ba4c09fc7697b2a01c7ece"}, {"bike_id": "50b4d54a3d531013c624d765dc452600", "type": "electric_scooter", "is_disabled": 0, "lat": 38.908656, "rental_uris": {"ios": "https://dc.lft.to/lastmile_qr_scan", "android": "https://dc.lft.to/lastmile_qr_scan"}, "is_reserved": 0, "fusion_lon": 0.0, "fusion_lat": 0.0, "lon": -77.03475016666667, "name": "50b4d54a3d531013c624d765dc452600"}, {"bike_id": "d3f274d0141c535008e82ef43475183f", "type": "electric_bike", "is_disabled": 0, "lat": 39.02430066666667, "rental_uris": {"ios": "https://dc.lft.to/lastmile_qr_scan", "android": "https://dc.lft.to/lastmile_qr_scan"}, "is_reserved": 0, "fusion_lon": 0.0, "fusion_lat": 0.0, "lon": -77.131034, "name": "d3f274d0141c535008e82ef43475183f"}, {"bike_id": "dc782cddce26f40582604453bad3d0a3", "type": "electric_bike", "is_disabled": 0, "lat": 38.89847566666667, "rental_uris": {"ios": "https://dc.lft.to/lastmile_qr_scan", "android": "https://dc.lft.to/lastmile_qr_scan"}, "is_reserved": 0, "fusion_lon": 0.0, "fusion_lat": 0.0, "lon": -77.053027, "name": "dc782cddce26f40582604453bad3d0a3"}, {"bike_id": "0f40efee730b3c4b124f2a2b83e0e0b7", "type": "electric_scooter", "is_disabled": 0, "lat": 38.90092033333333, "rental_uris": {"ios": "https://dc.lft.to/lastmile_qr_scan", "android": "https://dc.lft.to/lastmile_qr_scan"}, "is_reserved": 0, "fusion_lon": 0.0, "fusion_lat": 0.0, "lon": -77.019428, "name": "0f40efee730b3c4b124f2a2b83e0e0b7"}, {"bike_id": "c92ed9ada1cc9fdd89cd253deb4398b3", "type": "electric_scooter", "is_disabled": 0, "lat": 38.92040466666667, "rental_uris": {"ios": "https://dc.lft.to/lastmile_qr_scan", "android": "https://dc.lft.to/lastmile_qr_scan"}, "is_reserved": 0, "fusion_lon": 0.0, "fusion_lat": 0.0, "lon": -77.0418895, "name": "c92ed9ada1cc9fdd89cd253deb4398b3"}, {"bike_id": "c58110c02c55a84f046c49a0d7a169d8", "type": "electric_scooter", "is_disabled": 0, "lat": 38.93135133333333, "rental_uris": {"ios": "https://dc.lft.to/lastmile_qr_scan", "android": "https://dc.lft.to/lastmile_qr_scan"}, "is_reserved": 0, "fusion_lon": 0.0, "fusion_lat": 0.0, "lon": -77.04247383333333, "name": "c58110c02c55a84f046c49a0d7a169d8"}, {"bike_id": "5195c5ee96a484fac40a5bbdb05fcf27", "type": "electric_scooter", "is_disabled": 0, "lat": 38.899683, "rental_uris": {"ios": "https://dc.lft.to/lastmile_qr_scan", "android": "https://dc.lft.to/lastmile_qr_scan"}, "is_reserved": 0, "fusion_lon": 0.0, "fusion_lat": 0.0, "lon": -77.01913716666667, "name": "5195c5ee96a484fac40a5bbdb05fcf27"}, {"bike_id": "0d402cbaaf6195c0401b1023eae4f6d7", "type": "electric_scooter", "is_disabled": 0, "lat": 38.9211515, "rental_uris": {"ios": "https://dc.lft.to/lastmile_qr_scan", "android": "https://dc.lft.to/lastmile_qr_scan"}, "is_reserved": 0, "fusion_lon": 0.0, "fusion_lat": 0.0, "lon": -76.9945295, "name": "0d402cbaaf6195c0401b1023eae4f6d7"}, {"bike_id": "d47dfe7e6f9fc180fd0f7f36a83321b6", "type": "electric_scooter", "is_disabled": 0, "lat": 38.928382, "rental_uris": {"ios": "https://dc.lft.to/lastmile_qr_scan", "android": "https://dc.lft.to/lastmile_qr_scan"}, "is_reserved": 0, "fusion_lon": 0.0, "fusion_lat": 0.0, "lon": -77.03276283333334, "name": "d47dfe7e6f9fc180fd0f7f36a83321b6"}, {"bike_id": "cd3e7a5d1789abd975072b7adec2eaf7", "type": "electric_scooter", "is_disabled": 0, "lat": 38.916948833333336, "rental_uris": {"ios": "https://dc.lft.to/lastmile_qr_scan", "android": "https://dc.lft.to/lastmile_qr_scan"}, "is_reserved": 0, "fusion_lon": 0.0, "fusion_lat": 0.0, "lon": -77.02876366666666, "name": "cd3e7a5d1789abd975072b7adec2eaf7"}, {"bike_id": "1f41b3b34021dd156815f3c4163dff81", "type": "electric_bike", "is_disabled": 0, "lat": 38.957068166666666, "rental_uris": {"ios": "https://dc.lft.to/lastmile_qr_scan", "android": "https://dc.lft.to/lastmile_qr_scan"}, "is_reserved": 0, "fusion_lon": 0.0, "fusion_lat": 0.0, "lon": -77.0240355, "name": "1f41b3b34021dd156815f3c4163dff81"}, {"bike_id": "92b3228cd158675f465a4b63dccc02ea", "type": "electric_scooter", "is_disabled": 0, "lat": 38.89882516666667, "rental_uris": {"ios": "https://dc.lft.to/lastmile_qr_scan", "android": "https://dc.lft.to/lastmile_qr_scan"}, "is_reserved": 0, "fusion_lon": 0.0, "fusion_lat": 0.0, "lon": -76.93177366666667, "name": "92b3228cd158675f465a4b63dccc02ea"}, {"bike_id": "7ee3b76cdb41744e74dd02d266b23951", "type": "electric_scooter", "is_disabled": 0, "lat": 38.86700166666667, "rental_uris": {"ios": "https://dc.lft.to/lastmile_qr_scan", "android": "https://dc.lft.to/lastmile_qr_scan"}, "is_reserved": 0, "fusion_lon": 0.0, "fusion_lat": 0.0, "lon": -76.98711966666667, "name": "7ee3b76cdb41744e74dd02d266b23951"}, {"bike_id": "df26b4c6482959e782933915026042a5", "type": "electric_scooter", "is_disabled": 0, "lat": 38.8621075, "rental_uris": {"ios": "https://dc.lft.to/lastmile_qr_scan", "android": "https://dc.lft.to/lastmile_qr_scan"}, "is_reserved": 0, "fusion_lon": 0.0, "fusion_lat": 0.0, "lon": -76.9947175, "name": "df26b4c6482959e782933915026042a5"}, {"bike_id": "c146658805fa94256b27acdb91a5d751", "type": "electric_bike", "is_disabled": 0, "lat": 38.969225333333334, "rental_uris": {"ios": "https://dc.lft.to/lastmile_qr_scan", "android": "https://dc.lft.to/lastmile_qr_scan"}, "is_reserved": 0, "fusion_lon": 0.0, "fusion_lat": 0.0, "lon": -76.95810316666666, "name": "c146658805fa94256b27acdb91a5d751"}, {"bike_id": "92f36145d7492dfb4c38307a43855fd5", "type": "electric_scooter", "is_disabled": 0, "lat": 38.91764366666666, "rental_uris": {"ios": "https://dc.lft.to/lastmile_qr_scan", "android": "https://dc.lft.to/lastmile_qr_scan"}, "is_reserved": 0, "fusion_lon": 0.0, "fusion_lat": 0.0, "lon": -77.04767766666667, "name": "92f36145d7492dfb4c38307a43855fd5"}, {"bike_id": "008f636f6cb59803f544756a233b77d6", "type": "electric_scooter", "is_disabled": 0, "lat": 38.895574333333336, "rental_uris": {"ios": "https://dc.lft.to/lastmile_qr_scan", "android": "https://dc.lft.to/lastmile_qr_scan"}, "is_reserved": 0, "fusion_lon": 0.0, "fusion_lat": 0.0, "lon": -76.949448, "name": "008f636f6cb59803f544756a233b77d6"}, {"bike_id": "67acc3975dd447796ed812f4b322d63b", "type": "electric_scooter", "is_disabled": 0, "lat": 38.8669925, "rental_uris": {"ios": "https://dc.lft.to/lastmile_qr_scan", "android": "https://dc.lft.to/lastmile_qr_scan"}, "is_reserved": 0, "fusion_lon": 0.0, "fusion_lat": 0.0, "lon": -76.98712816666666, "name": "67acc3975dd447796ed812f4b322d63b"}, {"bike_id": "45edd992b74024a89acabb7455ab771b", "type": "electric_scooter", "is_disabled": 0, "lat": 38.938372, "rental_uris": {"ios": "https://dc.lft.to/lastmile_qr_scan", "android": "https://dc.lft.to/lastmile_qr_scan"}, "is_reserved": 0, "fusion_lon": 0.0, "fusion_lat": 0.0, "lon": -77.03380616666666, "name": "45edd992b74024a89acabb7455ab771b"}, {"bike_id": "560aa15b406dff8b7c2777ee5f169297", "type": "electric_scooter", "is_disabled": 0, "lat": 38.91323383333334, "rental_uris": {"ios": "https://dc.lft.to/lastmile_qr_scan", "android": "https://dc.lft.to/lastmile_qr_scan"}, "is_reserved": 0, "fusion_lon": 0.0, "fusion_lat": 0.0, "lon": -77.03647683333334, "name": "560aa15b406dff8b7c2777ee5f169297"}, {"bike_id": "6bbadb46c0a1e6fa3bd953ae8a074a43", "type": "electric_scooter", "is_disabled": 0, "lat": 38.862064833333335, "rental_uris": {"ios": "https://dc.lft.to/lastmile_qr_scan", "android": "https://dc.lft.to/lastmile_qr_scan"}, "is_reserved": 0, "fusion_lon": 0.0, "fusion_lat": 0.0, "lon": -76.994669, "name": "6bbadb46c0a1e6fa3bd953ae8a074a43"}, {"bike_id": "33d6f26f9a01c7594848fd16c121678c", "type": "electric_scooter", "is_disabled": 0, "lat": 38.93094983333334, "rental_uris": {"ios": "https://dc.lft.to/lastmile_qr_scan", "android": "https://dc.lft.to/lastmile_qr_scan"}, "is_reserved": 0, "fusion_lon": 0.0, "fusion_lat": 0.0, "lon": -77.03479083333333, "name": "33d6f26f9a01c7594848fd16c121678c"}, {"bike_id": "a2394194b8891ece9543c9a9f004a9b1", "type": "electric_scooter", "is_disabled": 0, "lat": 38.928824666666664, "rental_uris": {"ios": "https://dc.lft.to/lastmile_qr_scan", "android": "https://dc.lft.to/lastmile_qr_scan"}, "is_reserved": 0, "fusion_lon": 0.0, "fusion_lat": 0.0, "lon": -77.03287416666667, "name": "a2394194b8891ece9543c9a9f004a9b1"}, {"bike_id": "2515c9819ced6856f31e454d50102e3d", "type": "electric_scooter", "is_disabled": 0, "lat": 38.929295333333336, "rental_uris": {"ios": "https://dc.lft.to/lastmile_qr_scan", "android": "https://dc.lft.to/lastmile_qr_scan"}, "is_reserved": 0, "fusion_lon": 0.0, "fusion_lat": 0.0, "lon": -77.032929, "name": "2515c9819ced6856f31e454d50102e3d"}, {"bike_id": "43787d1eafe79efa2cbb8b351063be39", "type": "electric_scooter", "is_disabled": 0, "lat": 38.906074833333335, "rental_uris": {"ios": "https://dc.lft.to/lastmile_qr_scan", "android": "https://dc.lft.to/lastmile_qr_scan"}, "is_reserved": 0, "fusion_lon": 0.0, "fusion_lat": 0.0, "lon": -77.016188, "name": "43787d1eafe79efa2cbb8b351063be39"}, {"bike_id": "48a5d5fee004604d5035eb379fedd9eb", "type": "electric_scooter", "is_disabled": 0, "lat": 38.90960116666667, "rental_uris": {"ios": "https://dc.lft.to/lastmile_qr_scan", "android": "https://dc.lft.to/lastmile_qr_scan"}, "is_reserved": 0, "fusion_lon": 0.0, "fusion_lat": 0.0, "lon": -77.03233766666666, "name": "48a5d5fee004604d5035eb379fedd9eb"}, {"bike_id": "16ffb0d0770035fc73fbe2b9e523f689", "type": "electric_scooter", "is_disabled": 0, "lat": 38.90389833333333, "rental_uris": {"ios": "https://dc.lft.to/lastmile_qr_scan", "android": "https://dc.lft.to/lastmile_qr_scan"}, "is_reserved": 0, "fusion_lon": 0.0, "fusion_lat": 0.0, "lon": -77.06781583333333, "name": "16ffb0d0770035fc73fbe2b9e523f689"}, {"bike_id": "4d0590aa046e3a40e63e00c66cc95eec", "type": "electric_scooter", "is_disabled": 0, "lat": 38.92852383333334, "rental_uris": {"ios": "https://dc.lft.to/lastmile_qr_scan", "android": "https://dc.lft.to/lastmile_qr_scan"}, "is_reserved": 0, "fusion_lon": 0.0, "fusion_lat": 0.0, "lon": -77.0362355, "name": "4d0590aa046e3a40e63e00c66cc95eec"}, {"bike_id": "145e8c414919a33bbcf84c95735f62e7", "type": "electric_scooter", "is_disabled": 0, "lat": 38.9014675, "rental_uris": {"ios": "https://dc.lft.to/lastmile_qr_scan", "android": "https://dc.lft.to/lastmile_qr_scan"}, "is_reserved": 0, "fusion_lon": 0.0, "fusion_lat": 0.0, "lon": -77.03871516666666, "name": "145e8c414919a33bbcf84c95735f62e7"}, {"bike_id": "7fb28be7ab89a5cf192a50db9ef71d0a", "type": "electric_scooter", "is_disabled": 0, "lat": 38.91472066666667, "rental_uris": {"ios": "https://dc.lft.to/lastmile_qr_scan", "android": "https://dc.lft.to/lastmile_qr_scan"}, "is_reserved": 0, "fusion_lon": 0.0, "fusion_lat": 0.0, "lon": -77.03213666666667, "name": "7fb28be7ab89a5cf192a50db9ef71d0a"}, {"bike_id": "2976cfbdbc1def0f6feca9a6105b5bef", "type": "electric_scooter", "is_disabled": 0, "lat": 38.915331, "rental_uris": {"ios": "https://dc.lft.to/lastmile_qr_scan", "android": "https://dc.lft.to/lastmile_qr_scan"}, "is_reserved": 0, "fusion_lon": 0.0, "fusion_lat": 0.0, "lon": -77.01998283333333, "name": "2976cfbdbc1def0f6feca9a6105b5bef"}, {"bike_id": "7a7977934e4750dffe691a7270df85e3", "type": "electric_scooter", "is_disabled": 0, "lat": 38.89026783333333, "rental_uris": {"ios": "https://dc.lft.to/lastmile_qr_scan", "android": "https://dc.lft.to/lastmile_qr_scan"}, "is_reserved": 0, "fusion_lon": 0.0, "fusion_lat": 0.0, "lon": -76.93757766666667, "name": "7a7977934e4750dffe691a7270df85e3"}, {"bike_id": "4401dc9abae596bbcab7a8cf6435ef8b", "type": "electric_scooter", "is_disabled": 0, "lat": 38.909598, "rental_uris": {"ios": "https://dc.lft.to/lastmile_qr_scan", "android": "https://dc.lft.to/lastmile_qr_scan"}, "is_reserved": 0, "fusion_lon": 0.0, "fusion_lat": 0.0, "lon": -77.04866483333333, "name": "4401dc9abae596bbcab7a8cf6435ef8b"}, {"bike_id": "7f9041600a494502f0e25ddf34675348", "type": "electric_scooter", "is_disabled": 0, "lat": 38.918429, "rental_uris": {"ios": "https://dc.lft.to/lastmile_qr_scan", "android": "https://dc.lft.to/lastmile_qr_scan"}, "is_reserved": 0, "fusion_lon": 0.0, "fusion_lat": 0.0, "lon": -76.96556566666666, "name": "7f9041600a494502f0e25ddf34675348"}, {"bike_id": "0ca19978979c8d0ec35cadefeec65305", "type": "electric_scooter", "is_disabled": 0, "lat": 38.8979495, "rental_uris": {"ios": "https://dc.lft.to/lastmile_qr_scan", "android": "https://dc.lft.to/lastmile_qr_scan"}, "is_reserved": 0, "fusion_lon": 0.0, "fusion_lat": 0.0, "lon": -77.02499783333333, "name": "0ca19978979c8d0ec35cadefeec65305"}, {"bike_id": "3c830ebe3f868c58126695138c4f77bb", "type": "electric_scooter", "is_disabled": 0, "lat": 38.891969833333334, "rental_uris": {"ios": "https://dc.lft.to/lastmile_qr_scan", "android": "https://dc.lft.to/lastmile_qr_scan"}, "is_reserved": 0, "fusion_lon": 0.0, "fusion_lat": 0.0, "lon": -76.99937133333333, "name": "3c830ebe3f868c58126695138c4f77bb"}, {"bike_id": "e796c4c5fd3e0cbbcac19d2a9f839eda", "type": "electric_scooter", "is_disabled": 0, "lat": 38.90414916666667, "rental_uris": {"ios": "https://dc.lft.to/lastmile_qr_scan", "android": "https://dc.lft.to/lastmile_qr_scan"}, "is_reserved": 0, "fusion_lon": 0.0, "fusion_lat": 0.0, "lon": -76.990888, "name": "e796c4c5fd3e0cbbcac19d2a9f839eda"}, {"bike_id": "67892a5944d320791c9c59a55516740f", "type": "electric_scooter", "is_disabled": 0, "lat": 38.916400833333334, "rental_uris": {"ios": "https://dc.lft.to/lastmile_qr_scan", "android": "https://dc.lft.to/lastmile_qr_scan"}, "is_reserved": 0, "fusion_lon": 0.0, "fusion_lat": 0.0, "lon": -77.000474, "name": "67892a5944d320791c9c59a55516740f"}, {"bike_id": "6d67eb4714cd626a2b01698aaea6553d", "type": "electric_scooter", "is_disabled": 0, "lat": 38.91117883333333, "rental_uris": {"ios": "https://dc.lft.to/lastmile_qr_scan", "android": "https://dc.lft.to/lastmile_qr_scan"}, "is_reserved": 0, "fusion_lon": 0.0, "fusion_lat": 0.0, "lon": -77.038732, "name": "6d67eb4714cd626a2b01698aaea6553d"}, {"bike_id": "48fbf0882be14661d57406b876d73596", "type": "electric_scooter", "is_disabled": 0, "lat": 38.95645833333333, "rental_uris": {"ios": "https://dc.lft.to/lastmile_qr_scan", "android": "https://dc.lft.to/lastmile_qr_scan"}, "is_reserved": 0, "fusion_lon": 0.0, "fusion_lat": 0.0, "lon": -77.01968916666667, "name": "48fbf0882be14661d57406b876d73596"}, {"bike_id": "397809c666c58a3ca89c0f3adacdbc9e", "type": "electric_scooter", "is_disabled": 0, "lat": 38.915453666666664, "rental_uris": {"ios": "https://dc.lft.to/lastmile_qr_scan", "android": "https://dc.lft.to/lastmile_qr_scan"}, "is_reserved": 0, "fusion_lon": 0.0, "fusion_lat": 0.0, "lon": -77.022731, "name": "397809c666c58a3ca89c0f3adacdbc9e"}, {"bike_id": "c7864f8ea9869356626f7c1f2747b7e2", "type": "electric_scooter", "is_disabled": 0, "lat": 38.919079333333336, "rental_uris": {"ios": "https://dc.lft.to/lastmile_qr_scan", "android": "https://dc.lft.to/lastmile_qr_scan"}, "is_reserved": 0, "fusion_lon": 0.0, "fusion_lat": 0.0, "lon": -77.03444516666667, "name": "c7864f8ea9869356626f7c1f2747b7e2"}, {"bike_id": "a3e87212d706a1133bbe0bd825eef55b", "type": "electric_scooter", "is_disabled": 0, "lat": 38.915512, "rental_uris": {"ios": "https://dc.lft.to/lastmile_qr_scan", "android": "https://dc.lft.to/lastmile_qr_scan"}, "is_reserved": 0, "fusion_lon": 0.0, "fusion_lat": 0.0, "lon": -77.02642733333333, "name": "a3e87212d706a1133bbe0bd825eef55b"}, {"bike_id": "d7f681c340b9f084e4aadd692b33a617", "type": "electric_scooter", "is_disabled": 0, "lat": 38.8443625, "rental_uris": {"ios": "https://dc.lft.to/lastmile_qr_scan", "android": "https://dc.lft.to/lastmile_qr_scan"}, "is_reserved": 0, "fusion_lon": 0.0, "fusion_lat": 0.0, "lon": -76.99872433333333, "name": "d7f681c340b9f084e4aadd692b33a617"}, {"bike_id": "c9c421206ce681fadd3729d03bdfa187", "type": "electric_scooter", "is_disabled": 0, "lat": 38.956239333333336, "rental_uris": {"ios": "https://dc.lft.to/lastmile_qr_scan", "android": "https://dc.lft.to/lastmile_qr_scan"}, "is_reserved": 0, "fusion_lon": 0.0, "fusion_lat": 0.0, "lon": -77.0223675, "name": "c9c421206ce681fadd3729d03bdfa187"}, {"bike_id": "adcf5ce28dfec926b1466fa706cffa41", "type": "electric_scooter", "is_disabled": 0, "lat": 38.918260333333336, "rental_uris": {"ios": "https://dc.lft.to/lastmile_qr_scan", "android": "https://dc.lft.to/lastmile_qr_scan"}, "is_reserved": 0, "fusion_lon": 0.0, "fusion_lat": 0.0, "lon": -77.03207816666666, "name": "adcf5ce28dfec926b1466fa706cffa41"}, {"bike_id": "27d837ec587338022e262a3df94783a8", "type": "electric_scooter", "is_disabled": 0, "lat": 38.9094155, "rental_uris": {"ios": "https://dc.lft.to/lastmile_qr_scan", "android": "https://dc.lft.to/lastmile_qr_scan"}, "is_reserved": 0, "fusion_lon": 0.0, "fusion_lat": 0.0, "lon": -77.0336635, "name": "27d837ec587338022e262a3df94783a8"}, {"bike_id": "5a0682fc341c1767277419268a3c1ce9", "type": "electric_scooter", "is_disabled": 0, "lat": 38.9278515, "rental_uris": {"ios": "https://dc.lft.to/lastmile_qr_scan", "android": "https://dc.lft.to/lastmile_qr_scan"}, "is_reserved": 0, "fusion_lon": 0.0, "fusion_lat": 0.0, "lon": -77.043235, "name": "5a0682fc341c1767277419268a3c1ce9"}, {"bike_id": "fc38d94edf55ea7e7faacbe294186d36", "type": "electric_scooter", "is_disabled": 0, "lat": 38.9181525, "rental_uris": {"ios": "https://dc.lft.to/lastmile_qr_scan", "android": "https://dc.lft.to/lastmile_qr_scan"}, "is_reserved": 0, "fusion_lon": 0.0, "fusion_lat": 0.0, "lon": -77.04950633333333, "name": "fc38d94edf55ea7e7faacbe294186d36"}, {"bike_id": "87771a0e417c275507927a8f5b711951", "type": "electric_scooter", "is_disabled": 0, "lat": 38.90874016666667, "rental_uris": {"ios": "https://dc.lft.to/lastmile_qr_scan", "android": "https://dc.lft.to/lastmile_qr_scan"}, "is_reserved": 0, "fusion_lon": 0.0, "fusion_lat": 0.0, "lon": -76.99827133333334, "name": "87771a0e417c275507927a8f5b711951"}, {"bike_id": "a7b5de3a34eb61ca315b6f58f188f92a", "type": "electric_scooter", "is_disabled": 0, "lat": 38.9095475, "rental_uris": {"ios": "https://dc.lft.to/lastmile_qr_scan", "android": "https://dc.lft.to/lastmile_qr_scan"}, "is_reserved": 0, "fusion_lon": 0.0, "fusion_lat": 0.0, "lon": -77.0347165, "name": "a7b5de3a34eb61ca315b6f58f188f92a"}, {"bike_id": "155f719332c482319c3037ba6a1ce635", "type": "electric_scooter", "is_disabled": 0, "lat": 38.943041666666666, "rental_uris": {"ios": "https://dc.lft.to/lastmile_qr_scan", "android": "https://dc.lft.to/lastmile_qr_scan"}, "is_reserved": 0, "fusion_lon": 0.0, "fusion_lat": 0.0, "lon": -77.06208316666667, "name": "155f719332c482319c3037ba6a1ce635"}, {"bike_id": "f3bd7e8dd46ecc05ce8dc1a4fa802d38", "type": "electric_scooter", "is_disabled": 0, "lat": 38.909550833333334, "rental_uris": {"ios": "https://dc.lft.to/lastmile_qr_scan", "android": "https://dc.lft.to/lastmile_qr_scan"}, "is_reserved": 0, "fusion_lon": 0.0, "fusion_lat": 0.0, "lon": -77.03632516666667, "name": "f3bd7e8dd46ecc05ce8dc1a4fa802d38"}, {"bike_id": "96e0ff7c6c52ed0a0bed4d0091818f76", "type": "electric_scooter", "is_disabled": 0, "lat": 38.921901, "rental_uris": {"ios": "https://dc.lft.to/lastmile_qr_scan", "android": "https://dc.lft.to/lastmile_qr_scan"}, "is_reserved": 0, "fusion_lon": 0.0, "fusion_lat": 0.0, "lon": -77.019741, "name": "96e0ff7c6c52ed0a0bed4d0091818f76"}, {"bike_id": "ba0ccf307ef2e7b67cc56653af751c31", "type": "electric_scooter", "is_disabled": 0, "lat": 38.9184685, "rental_uris": {"ios": "https://dc.lft.to/lastmile_qr_scan", "android": "https://dc.lft.to/lastmile_qr_scan"}, "is_reserved": 0, "fusion_lon": 0.0, "fusion_lat": 0.0, "lon": -76.96563216666667, "name": "ba0ccf307ef2e7b67cc56653af751c31"}, {"bike_id": "91a48ed8b341bdb833903ea1bd8dfd5c", "type": "electric_scooter", "is_disabled": 0, "lat": 38.922093, "rental_uris": {"ios": "https://dc.lft.to/lastmile_qr_scan", "android": "https://dc.lft.to/lastmile_qr_scan"}, "is_reserved": 0, "fusion_lon": 0.0, "fusion_lat": 0.0, "lon": -77.03293683333334, "name": "91a48ed8b341bdb833903ea1bd8dfd5c"}, {"bike_id": "2a881f75b293b7e9c405667b05254910", "type": "electric_scooter", "is_disabled": 0, "lat": 38.92833516666666, "rental_uris": {"ios": "https://dc.lft.to/lastmile_qr_scan", "android": "https://dc.lft.to/lastmile_qr_scan"}, "is_reserved": 0, "fusion_lon": 0.0, "fusion_lat": 0.0, "lon": -77.05524266666667, "name": "2a881f75b293b7e9c405667b05254910"}, {"bike_id": "8b9f1e30d97c267de6978b8933bf2b19", "type": "electric_scooter", "is_disabled": 0, "lat": 38.90319133333333, "rental_uris": {"ios": "https://dc.lft.to/lastmile_qr_scan", "android": "https://dc.lft.to/lastmile_qr_scan"}, "is_reserved": 0, "fusion_lon": 0.0, "fusion_lat": 0.0, "lon": -77.05181166666667, "name": "8b9f1e30d97c267de6978b8933bf2b19"}, {"bike_id": "4c38bec4a63fd364cd138be83b1920df", "type": "electric_scooter", "is_disabled": 0, "lat": 38.91106216666667, "rental_uris": {"ios": "https://dc.lft.to/lastmile_qr_scan", "android": "https://dc.lft.to/lastmile_qr_scan"}, "is_reserved": 0, "fusion_lon": 0.0, "fusion_lat": 0.0, "lon": -77.03787833333334, "name": "4c38bec4a63fd364cd138be83b1920df"}, {"bike_id": "fc89ac266e0565bb25c8d84f1dde18cf", "type": "electric_scooter", "is_disabled": 0, "lat": 38.917464333333335, "rental_uris": {"ios": "https://dc.lft.to/lastmile_qr_scan", "android": "https://dc.lft.to/lastmile_qr_scan"}, "is_reserved": 0, "fusion_lon": 0.0, "fusion_lat": 0.0, "lon": -77.0386125, "name": "fc89ac266e0565bb25c8d84f1dde18cf"}, {"bike_id": "998d4d29d9623efdd26ebcdb976c33e4", "type": "electric_bike", "is_disabled": 0, "lat": 38.897423833333335, "rental_uris": {"ios": "https://dc.lft.to/lastmile_qr_scan", "android": "https://dc.lft.to/lastmile_qr_scan"}, "is_reserved": 0, "fusion_lon": 0.0, "fusion_lat": 0.0, "lon": -76.920486, "name": "998d4d29d9623efdd26ebcdb976c33e4"}, {"bike_id": "f917c919050f176d3c6a34d92b6c6d9a", "type": "electric_bike", "is_disabled": 0, "lat": 38.859291166666665, "rental_uris": {"ios": "https://dc.lft.to/lastmile_qr_scan", "android": "https://dc.lft.to/lastmile_qr_scan"}, "is_reserved": 0, "fusion_lon": 0.0, "fusion_lat": 0.0, "lon": -77.11833183333333, "name": "f917c919050f176d3c6a34d92b6c6d9a"}, {"bike_id": "cbbbc04d22b7409f4a12f9e1f705849f", "type": "electric_bike", "is_disabled": 0, "lat": 38.823673166666666, "rental_uris": {"ios": "https://dc.lft.to/lastmile_qr_scan", "android": "https://dc.lft.to/lastmile_qr_scan"}, "is_reserved": 0, "fusion_lon": 0.0, "fusion_lat": 0.0, "lon": -77.0022125, "name": "cbbbc04d22b7409f4a12f9e1f705849f"}, {"bike_id": "d31bf7ad8c1588459cfef77cb09b2246", "type": "electric_scooter", "is_disabled": 0, "lat": 38.887303833333334, "rental_uris": {"ios": "https://dc.lft.to/lastmile_qr_scan", "android": "https://dc.lft.to/lastmile_qr_scan"}, "is_reserved": 0, "fusion_lon": 0.0, "fusion_lat": 0.0, "lon": -77.0317935, "name": "d31bf7ad8c1588459cfef77cb09b2246"}, {"bike_id": "845e364dda5879146596f70b733d4515", "type": "electric_scooter", "is_disabled": 0, "lat": 38.91571416666667, "rental_uris": {"ios": "https://dc.lft.to/lastmile_qr_scan", "android": "https://dc.lft.to/lastmile_qr_scan"}, "is_reserved": 0, "fusion_lon": 0.0, "fusion_lat": 0.0, "lon": -77.01960616666666, "name": "845e364dda5879146596f70b733d4515"}, {"bike_id": "83acf9ebaa877763d9eef901a291f884", "type": "electric_scooter", "is_disabled": 0, "lat": 38.92108133333333, "rental_uris": {"ios": "https://dc.lft.to/lastmile_qr_scan", "android": "https://dc.lft.to/lastmile_qr_scan"}, "is_reserved": 0, "fusion_lon": 0.0, "fusion_lat": 0.0, "lon": -77.04698866666666, "name": "83acf9ebaa877763d9eef901a291f884"}, {"bike_id": "9b55eb789d6e8846a40712aa7cd38246", "type": "electric_scooter", "is_disabled": 0, "lat": 38.897296, "rental_uris": {"ios": "https://dc.lft.to/lastmile_qr_scan", "android": "https://dc.lft.to/lastmile_qr_scan"}, "is_reserved": 0, "fusion_lon": 0.0, "fusion_lat": 0.0, "lon": -77.02462633333333, "name": "9b55eb789d6e8846a40712aa7cd38246"}, {"bike_id": "23e5d21763a6154e63c6e9fa22c3248f", "type": "electric_scooter", "is_disabled": 0, "lat": 38.904657, "rental_uris": {"ios": "https://dc.lft.to/lastmile_qr_scan", "android": "https://dc.lft.to/lastmile_qr_scan"}, "is_reserved": 0, "fusion_lon": 0.0, "fusion_lat": 0.0, "lon": -77.0281055, "name": "23e5d21763a6154e63c6e9fa22c3248f"}, {"bike_id": "59661c77fe43e6fd63f178947deae0e8", "type": "electric_scooter", "is_disabled": 0, "lat": 38.9215485, "rental_uris": {"ios": "https://dc.lft.to/lastmile_qr_scan", "android": "https://dc.lft.to/lastmile_qr_scan"}, "is_reserved": 0, "fusion_lon": 0.0, "fusion_lat": 0.0, "lon": -77.0351995, "name": "59661c77fe43e6fd63f178947deae0e8"}, {"bike_id": "d99e03c48a0a34a4ab6bcb6edd06e3dc", "type": "electric_scooter", "is_disabled": 0, "lat": 38.948515666666665, "rental_uris": {"ios": "https://dc.lft.to/lastmile_qr_scan", "android": "https://dc.lft.to/lastmile_qr_scan"}, "is_reserved": 0, "fusion_lon": 0.0, "fusion_lat": 0.0, "lon": -77.08021266666667, "name": "d99e03c48a0a34a4ab6bcb6edd06e3dc"}, {"bike_id": "2b781afb4563810b5ecb01759a732292", "type": "electric_scooter", "is_disabled": 0, "lat": 38.916678833333336, "rental_uris": {"ios": "https://dc.lft.to/lastmile_qr_scan", "android": "https://dc.lft.to/lastmile_qr_scan"}, "is_reserved": 0, "fusion_lon": 0.0, "fusion_lat": 0.0, "lon": -77.0437685, "name": "2b781afb4563810b5ecb01759a732292"}, {"bike_id": "2404b43fffab97fe77f06645c3183210", "type": "electric_scooter", "is_disabled": 0, "lat": 38.892134, "rental_uris": {"ios": "https://dc.lft.to/lastmile_qr_scan", "android": "https://dc.lft.to/lastmile_qr_scan"}, "is_reserved": 0, "fusion_lon": 0.0, "fusion_lat": 0.0, "lon": -77.03028683333334, "name": "2404b43fffab97fe77f06645c3183210"}, {"bike_id": "58618da48f582a9536e839969c6e1995", "type": "electric_scooter", "is_disabled": 0, "lat": 38.90237616666667, "rental_uris": {"ios": "https://dc.lft.to/lastmile_qr_scan", "android": "https://dc.lft.to/lastmile_qr_scan"}, "is_reserved": 0, "fusion_lon": 0.0, "fusion_lat": 0.0, "lon": -77.0019735, "name": "58618da48f582a9536e839969c6e1995"}, {"bike_id": "93f0057c92f67ffb7338c3941db7134c", "type": "electric_scooter", "is_disabled": 0, "lat": 38.931438, "rental_uris": {"ios": "https://dc.lft.to/lastmile_qr_scan", "android": "https://dc.lft.to/lastmile_qr_scan"}, "is_reserved": 0, "fusion_lon": 0.0, "fusion_lat": 0.0, "lon": -77.03360933333333, "name": "93f0057c92f67ffb7338c3941db7134c"}, {"bike_id": "bbe6f8105dd164bae085c4795936d208", "type": "electric_scooter", "is_disabled": 0, "lat": 38.9296945, "rental_uris": {"ios": "https://dc.lft.to/lastmile_qr_scan", "android": "https://dc.lft.to/lastmile_qr_scan"}, "is_reserved": 0, "fusion_lon": 0.0, "fusion_lat": 0.0, "lon": -77.04378516666667, "name": "bbe6f8105dd164bae085c4795936d208"}, {"bike_id": "3b3cf7cc4af3ea331eebac4bea9c8279", "type": "electric_bike", "is_disabled": 0, "lat": 38.882409333333335, "rental_uris": {"ios": "https://dc.lft.to/lastmile_qr_scan", "android": "https://dc.lft.to/lastmile_qr_scan"}, "is_reserved": 0, "fusion_lon": 0.0, "fusion_lat": 0.0, "lon": -76.9625975, "name": "3b3cf7cc4af3ea331eebac4bea9c8279"}, {"bike_id": "04a4e0a7535c3fa50f66b3d7b18ede8a", "type": "electric_bike", "is_disabled": 0, "lat": 38.9322575, "rental_uris": {"ios": "https://dc.lft.to/lastmile_qr_scan", "android": "https://dc.lft.to/lastmile_qr_scan"}, "is_reserved": 0, "fusion_lon": 0.0, "fusion_lat": 0.0, "lon": -77.1812425, "name": "04a4e0a7535c3fa50f66b3d7b18ede8a"}, {"bike_id": "9b969191197ea0904d557ef464bacde1", "type": "electric_scooter", "is_disabled": 0, "lat": 38.9160445, "rental_uris": {"ios": "https://dc.lft.to/lastmile_qr_scan", "android": "https://dc.lft.to/lastmile_qr_scan"}, "is_reserved": 0, "fusion_lon": 0.0, "fusion_lat": 0.0, "lon": -77.04873233333333, "name": "9b969191197ea0904d557ef464bacde1"}, {"bike_id": "90431c65d0da37acfb7583da5477013b", "type": "electric_scooter", "is_disabled": 0, "lat": 38.925418, "rental_uris": {"ios": "https://dc.lft.to/lastmile_qr_scan", "android": "https://dc.lft.to/lastmile_qr_scan"}, "is_reserved": 0, "fusion_lon": 0.0, "fusion_lat": 0.0, "lon": -77.03230583333334, "name": "90431c65d0da37acfb7583da5477013b"}, {"bike_id": "d44a42240f0d6d1bd049b334646cf096", "type": "electric_scooter", "is_disabled": 0, "lat": 38.910756, "rental_uris": {"ios": "https://dc.lft.to/lastmile_qr_scan", "android": "https://dc.lft.to/lastmile_qr_scan"}, "is_reserved": 0, "fusion_lon": 0.0, "fusion_lat": 0.0, "lon": -77.03724, "name": "d44a42240f0d6d1bd049b334646cf096"}, {"bike_id": "0f3379bf857649ce4e2c234195ddd304", "type": "electric_scooter", "is_disabled": 0, "lat": 38.91688083333333, "rental_uris": {"ios": "https://dc.lft.to/lastmile_qr_scan", "android": "https://dc.lft.to/lastmile_qr_scan"}, "is_reserved": 0, "fusion_lon": 0.0, "fusion_lat": 0.0, "lon": -77.03746683333334, "name": "0f3379bf857649ce4e2c234195ddd304"}, {"bike_id": "ab9e7476a069742d1d15c325ccacf688", "type": "electric_scooter", "is_disabled": 0, "lat": 38.93451483333333, "rental_uris": {"ios": "https://dc.lft.to/lastmile_qr_scan", "android": "https://dc.lft.to/lastmile_qr_scan"}, "is_reserved": 0, "fusion_lon": 0.0, "fusion_lat": 0.0, "lon": -77.027955, "name": "ab9e7476a069742d1d15c325ccacf688"}, {"bike_id": "39ea3dbf336e70c0d935a2749b96263b", "type": "electric_scooter", "is_disabled": 0, "lat": 38.904668666666666, "rental_uris": {"ios": "https://dc.lft.to/lastmile_qr_scan", "android": "https://dc.lft.to/lastmile_qr_scan"}, "is_reserved": 0, "fusion_lon": 0.0, "fusion_lat": 0.0, "lon": -76.97610383333334, "name": "39ea3dbf336e70c0d935a2749b96263b"}, {"bike_id": "033a597a70cffda5591fc7a38ca9bf38", "type": "electric_scooter", "is_disabled": 0, "lat": 38.906798, "rental_uris": {"ios": "https://dc.lft.to/lastmile_qr_scan", "android": "https://dc.lft.to/lastmile_qr_scan"}, "is_reserved": 0, "fusion_lon": 0.0, "fusion_lat": 0.0, "lon": -76.980066, "name": "033a597a70cffda5591fc7a38ca9bf38"}, {"bike_id": "9af127bc546cf6a5c7064a0c5e42f5b8", "type": "electric_scooter", "is_disabled": 0, "lat": 38.914454, "rental_uris": {"ios": "https://dc.lft.to/lastmile_qr_scan", "android": "https://dc.lft.to/lastmile_qr_scan"}, "is_reserved": 0, "fusion_lon": 0.0, "fusion_lat": 0.0, "lon": -77.02592033333333, "name": "9af127bc546cf6a5c7064a0c5e42f5b8"}, {"bike_id": "cc43872c5bbbc141fbf2a6e06f029f41", "type": "electric_scooter", "is_disabled": 0, "lat": 38.90132333333333, "rental_uris": {"ios": "https://dc.lft.to/lastmile_qr_scan", "android": "https://dc.lft.to/lastmile_qr_scan"}, "is_reserved": 0, "fusion_lon": 0.0, "fusion_lat": 0.0, "lon": -77.01801016666667, "name": "cc43872c5bbbc141fbf2a6e06f029f41"}, {"bike_id": "50a7c438dca62ab724550911ef390239", "type": "electric_scooter", "is_disabled": 0, "lat": 38.884288833333336, "rental_uris": {"ios": "https://dc.lft.to/lastmile_qr_scan", "android": "https://dc.lft.to/lastmile_qr_scan"}, "is_reserved": 0, "fusion_lon": 0.0, "fusion_lat": 0.0, "lon": -76.957564, "name": "50a7c438dca62ab724550911ef390239"}, {"bike_id": "82f9f6422e678a434266048761f72797", "type": "electric_scooter", "is_disabled": 0, "lat": 38.887337333333335, "rental_uris": {"ios": "https://dc.lft.to/lastmile_qr_scan", "android": "https://dc.lft.to/lastmile_qr_scan"}, "is_reserved": 0, "fusion_lon": 0.0, "fusion_lat": 0.0, "lon": -77.023981, "name": "82f9f6422e678a434266048761f72797"}, {"bike_id": "746364bf713df8b82e3afe0d066483d2", "type": "electric_scooter", "is_disabled": 0, "lat": 38.91031816666667, "rental_uris": {"ios": "https://dc.lft.to/lastmile_qr_scan", "android": "https://dc.lft.to/lastmile_qr_scan"}, "is_reserved": 0, "fusion_lon": 0.0, "fusion_lat": 0.0, "lon": -77.03802416666667, "name": "746364bf713df8b82e3afe0d066483d2"}, {"bike_id": "10cbb27da97754a5da2868dbbeeae4b1", "type": "electric_scooter", "is_disabled": 0, "lat": 38.9223435, "rental_uris": {"ios": "https://dc.lft.to/lastmile_qr_scan", "android": "https://dc.lft.to/lastmile_qr_scan"}, "is_reserved": 0, "fusion_lon": 0.0, "fusion_lat": 0.0, "lon": -77.02125833333334, "name": "10cbb27da97754a5da2868dbbeeae4b1"}, {"bike_id": "27ac8670c2f060ca1ce904160293e4a7", "type": "electric_scooter", "is_disabled": 0, "lat": 38.91780283333333, "rental_uris": {"ios": "https://dc.lft.to/lastmile_qr_scan", "android": "https://dc.lft.to/lastmile_qr_scan"}, "is_reserved": 0, "fusion_lon": 0.0, "fusion_lat": 0.0, "lon": -77.02297916666667, "name": "27ac8670c2f060ca1ce904160293e4a7"}, {"bike_id": "ac72a9738867e64c764fdf165deda6a2", "type": "electric_scooter", "is_disabled": 0, "lat": 38.91824533333333, "rental_uris": {"ios": "https://dc.lft.to/lastmile_qr_scan", "android": "https://dc.lft.to/lastmile_qr_scan"}, "is_reserved": 0, "fusion_lon": 0.0, "fusion_lat": 0.0, "lon": -77.0452685, "name": "ac72a9738867e64c764fdf165deda6a2"}, {"bike_id": "c56f3bedd58bfdda170575e288637a09", "type": "electric_scooter", "is_disabled": 0, "lat": 38.89006, "rental_uris": {"ios": "https://dc.lft.to/lastmile_qr_scan", "android": "https://dc.lft.to/lastmile_qr_scan"}, "is_reserved": 0, "fusion_lon": 0.0, "fusion_lat": 0.0, "lon": -76.937473, "name": "c56f3bedd58bfdda170575e288637a09"}, {"bike_id": "d7253cf6a698514468eaa77001e4c9e6", "type": "electric_scooter", "is_disabled": 0, "lat": 38.8998, "rental_uris": {"ios": "https://dc.lft.to/lastmile_qr_scan", "android": "https://dc.lft.to/lastmile_qr_scan"}, "is_reserved": 0, "fusion_lon": 0.0, "fusion_lat": 0.0, "lon": -77.0216405, "name": "d7253cf6a698514468eaa77001e4c9e6"}, {"bike_id": "8290cce8e19646fc1e73cc9ea5ca454d", "type": "electric_scooter", "is_disabled": 0, "lat": 38.87645333333333, "rental_uris": {"ios": "https://dc.lft.to/lastmile_qr_scan", "android": "https://dc.lft.to/lastmile_qr_scan"}, "is_reserved": 0, "fusion_lon": 0.0, "fusion_lat": 0.0, "lon": -76.96510083333334, "name": "8290cce8e19646fc1e73cc9ea5ca454d"}, {"bike_id": "4d99195346ae857b2dc97b45215c6418", "type": "electric_scooter", "is_disabled": 0, "lat": 38.922519666666666, "rental_uris": {"ios": "https://dc.lft.to/lastmile_qr_scan", "android": "https://dc.lft.to/lastmile_qr_scan"}, "is_reserved": 0, "fusion_lon": 0.0, "fusion_lat": 0.0, "lon": -77.04261516666666, "name": "4d99195346ae857b2dc97b45215c6418"}, {"bike_id": "ff8ee6b1d4f17c63e92f9570674a5705", "type": "electric_scooter", "is_disabled": 0, "lat": 38.928443666666666, "rental_uris": {"ios": "https://dc.lft.to/lastmile_qr_scan", "android": "https://dc.lft.to/lastmile_qr_scan"}, "is_reserved": 0, "fusion_lon": 0.0, "fusion_lat": 0.0, "lon": -77.013756, "name": "ff8ee6b1d4f17c63e92f9570674a5705"}, {"bike_id": "f6dc47bc37c6e1f393d24366704214ed", "type": "electric_scooter", "is_disabled": 0, "lat": 38.913789333333334, "rental_uris": {"ios": "https://dc.lft.to/lastmile_qr_scan", "android": "https://dc.lft.to/lastmile_qr_scan"}, "is_reserved": 0, "fusion_lon": 0.0, "fusion_lat": 0.0, "lon": -77.01706383333334, "name": "f6dc47bc37c6e1f393d24366704214ed"}, {"bike_id": "581892064379d9c905ccdff9aca0d91e", "type": "electric_bike", "is_disabled": 0, "lat": 38.908528833333335, "rental_uris": {"ios": "https://dc.lft.to/lastmile_qr_scan", "android": "https://dc.lft.to/lastmile_qr_scan"}, "is_reserved": 0, "fusion_lon": 0.0, "fusion_lat": 0.0, "lon": -76.99139316666667, "name": "581892064379d9c905ccdff9aca0d91e"}, {"bike_id": "f5d52ba36ebb22bebe27a183fefbedf3", "type": "electric_scooter", "is_disabled": 0, "lat": 38.91087983333333, "rental_uris": {"ios": "https://dc.lft.to/lastmile_qr_scan", "android": "https://dc.lft.to/lastmile_qr_scan"}, "is_reserved": 0, "fusion_lon": 0.0, "fusion_lat": 0.0, "lon": -77.04215533333333, "name": "f5d52ba36ebb22bebe27a183fefbedf3"}, {"bike_id": "11b2ef3a6962d88a911632bc9ed8a33a", "type": "electric_scooter", "is_disabled": 0, "lat": 38.92730316666667, "rental_uris": {"ios": "https://dc.lft.to/lastmile_qr_scan", "android": "https://dc.lft.to/lastmile_qr_scan"}, "is_reserved": 0, "fusion_lon": 0.0, "fusion_lat": 0.0, "lon": -77.03427866666667, "name": "11b2ef3a6962d88a911632bc9ed8a33a"}, {"bike_id": "059d380d81b11383d2b403d9f95b4e55", "type": "electric_scooter", "is_disabled": 0, "lat": 38.91843216666667, "rental_uris": {"ios": "https://dc.lft.to/lastmile_qr_scan", "android": "https://dc.lft.to/lastmile_qr_scan"}, "is_reserved": 0, "fusion_lon": 0.0, "fusion_lat": 0.0, "lon": -76.96555983333333, "name": "059d380d81b11383d2b403d9f95b4e55"}, {"bike_id": "1b4b661be45f9d0a5244e8edf6d3160b", "type": "electric_scooter", "is_disabled": 0, "lat": 38.878781833333335, "rental_uris": {"ios": "https://dc.lft.to/lastmile_qr_scan", "android": "https://dc.lft.to/lastmile_qr_scan"}, "is_reserved": 0, "fusion_lon": 0.0, "fusion_lat": 0.0, "lon": -77.02192333333333, "name": "1b4b661be45f9d0a5244e8edf6d3160b"}, {"bike_id": "6194940cc7797f70f3e239a422ac9f5d", "type": "electric_scooter", "is_disabled": 0, "lat": 38.914149333333334, "rental_uris": {"ios": "https://dc.lft.to/lastmile_qr_scan", "android": "https://dc.lft.to/lastmile_qr_scan"}, "is_reserved": 0, "fusion_lon": 0.0, "fusion_lat": 0.0, "lon": -77.03227766666667, "name": "6194940cc7797f70f3e239a422ac9f5d"}, {"bike_id": "5022f7e0ca97ec309280d4392fc11a2a", "type": "electric_scooter", "is_disabled": 0, "lat": 38.880288166666666, "rental_uris": {"ios": "https://dc.lft.to/lastmile_qr_scan", "android": "https://dc.lft.to/lastmile_qr_scan"}, "is_reserved": 0, "fusion_lon": 0.0, "fusion_lat": 0.0, "lon": -77.0100565, "name": "5022f7e0ca97ec309280d4392fc11a2a"}, {"bike_id": "ea872f0e84f1f9e4ce8137b051dd33d4", "type": "electric_scooter", "is_disabled": 0, "lat": 38.9168945, "rental_uris": {"ios": "https://dc.lft.to/lastmile_qr_scan", "android": "https://dc.lft.to/lastmile_qr_scan"}, "is_reserved": 0, "fusion_lon": 0.0, "fusion_lat": 0.0, "lon": -77.02876666666667, "name": "ea872f0e84f1f9e4ce8137b051dd33d4"}, {"bike_id": "4d631230833e539d609d6013ca857620", "type": "electric_scooter", "is_disabled": 0, "lat": 38.9284155, "rental_uris": {"ios": "https://dc.lft.to/lastmile_qr_scan", "android": "https://dc.lft.to/lastmile_qr_scan"}, "is_reserved": 0, "fusion_lon": 0.0, "fusion_lat": 0.0, "lon": -77.0330755, "name": "4d631230833e539d609d6013ca857620"}, {"bike_id": "bae92e686db15a29170716cb80380732", "type": "electric_scooter", "is_disabled": 0, "lat": 38.90842716666667, "rental_uris": {"ios": "https://dc.lft.to/lastmile_qr_scan", "android": "https://dc.lft.to/lastmile_qr_scan"}, "is_reserved": 0, "fusion_lon": 0.0, "fusion_lat": 0.0, "lon": -77.020662, "name": "bae92e686db15a29170716cb80380732"}, {"bike_id": "da7f49326c29b7abe7b2081c00970ab6", "type": "electric_scooter", "is_disabled": 0, "lat": 38.91500333333333, "rental_uris": {"ios": "https://dc.lft.to/lastmile_qr_scan", "android": "https://dc.lft.to/lastmile_qr_scan"}, "is_reserved": 0, "fusion_lon": 0.0, "fusion_lat": 0.0, "lon": -77.031932, "name": "da7f49326c29b7abe7b2081c00970ab6"}, {"bike_id": "e65ea14899d2c5d0199ca3e1bb44ea72", "type": "electric_scooter", "is_disabled": 0, "lat": 38.89954483333333, "rental_uris": {"ios": "https://dc.lft.to/lastmile_qr_scan", "android": "https://dc.lft.to/lastmile_qr_scan"}, "is_reserved": 0, "fusion_lon": 0.0, "fusion_lat": 0.0, "lon": -77.01508333333334, "name": "e65ea14899d2c5d0199ca3e1bb44ea72"}, {"bike_id": "3848fadc7d7da7c388447e95a19f091d", "type": "electric_scooter", "is_disabled": 0, "lat": 38.930363166666666, "rental_uris": {"ios": "https://dc.lft.to/lastmile_qr_scan", "android": "https://dc.lft.to/lastmile_qr_scan"}, "is_reserved": 0, "fusion_lon": 0.0, "fusion_lat": 0.0, "lon": -77.01822183333333, "name": "3848fadc7d7da7c388447e95a19f091d"}, {"bike_id": "5ac1cdf712f1336d4efc4c553bdf1340", "type": "electric_scooter", "is_disabled": 0, "lat": 38.882081666666664, "rental_uris": {"ios": "https://dc.lft.to/lastmile_qr_scan", "android": "https://dc.lft.to/lastmile_qr_scan"}, "is_reserved": 0, "fusion_lon": 0.0, "fusion_lat": 0.0, "lon": -77.0290645, "name": "5ac1cdf712f1336d4efc4c553bdf1340"}, {"bike_id": "a2dbf038dafbb411442f486ae68ac381", "type": "electric_scooter", "is_disabled": 0, "lat": 38.90190716666667, "rental_uris": {"ios": "https://dc.lft.to/lastmile_qr_scan", "android": "https://dc.lft.to/lastmile_qr_scan"}, "is_reserved": 0, "fusion_lon": 0.0, "fusion_lat": 0.0, "lon": -76.996843, "name": "a2dbf038dafbb411442f486ae68ac381"}, {"bike_id": "8e428d4e27cff38d6020a287c9079c4c", "type": "electric_scooter", "is_disabled": 0, "lat": 38.9183735, "rental_uris": {"ios": "https://dc.lft.to/lastmile_qr_scan", "android": "https://dc.lft.to/lastmile_qr_scan"}, "is_reserved": 0, "fusion_lon": 0.0, "fusion_lat": 0.0, "lon": -76.96555316666667, "name": "8e428d4e27cff38d6020a287c9079c4c"}, {"bike_id": "242730dad94941c467e147cc66d5a417", "type": "electric_scooter", "is_disabled": 0, "lat": 38.8842725, "rental_uris": {"ios": "https://dc.lft.to/lastmile_qr_scan", "android": "https://dc.lft.to/lastmile_qr_scan"}, "is_reserved": 0, "fusion_lon": 0.0, "fusion_lat": 0.0, "lon": -76.95757633333334, "name": "242730dad94941c467e147cc66d5a417"}, {"bike_id": "f774356809a86ee5d39881387bc56099", "type": "electric_scooter", "is_disabled": 0, "lat": 38.908089333333336, "rental_uris": {"ios": "https://dc.lft.to/lastmile_qr_scan", "android": "https://dc.lft.to/lastmile_qr_scan"}, "is_reserved": 0, "fusion_lon": 0.0, "fusion_lat": 0.0, "lon": -77.02603233333333, "name": "f774356809a86ee5d39881387bc56099"}, {"bike_id": "b30378a2f5db50467b1ca56dc736aa9d", "type": "electric_scooter", "is_disabled": 0, "lat": 38.900408666666664, "rental_uris": {"ios": "https://dc.lft.to/lastmile_qr_scan", "android": "https://dc.lft.to/lastmile_qr_scan"}, "is_reserved": 0, "fusion_lon": 0.0, "fusion_lat": 0.0, "lon": -77.03372533333334, "name": "b30378a2f5db50467b1ca56dc736aa9d"}, {"bike_id": "58cc627a9bf3cad8c1114794709cdba9", "type": "electric_bike", "is_disabled": 0, "lat": 38.865146333333335, "rental_uris": {"ios": "https://dc.lft.to/lastmile_qr_scan", "android": "https://dc.lft.to/lastmile_qr_scan"}, "is_reserved": 0, "fusion_lon": 0.0, "fusion_lat": 0.0, "lon": -77.12939, "name": "58cc627a9bf3cad8c1114794709cdba9"}, {"bike_id": "581959bfd4f9987c351a4e48d22053a0", "type": "electric_scooter", "is_disabled": 0, "lat": 38.89699383333333, "rental_uris": {"ios": "https://dc.lft.to/lastmile_qr_scan", "android": "https://dc.lft.to/lastmile_qr_scan"}, "is_reserved": 0, "fusion_lon": 0.0, "fusion_lat": 0.0, "lon": -76.93001416666667, "name": "581959bfd4f9987c351a4e48d22053a0"}, {"bike_id": "7e9b55d1715358141d7a35ffd5725dcf", "type": "electric_bike", "is_disabled": 0, "lat": 38.80389783333333, "rental_uris": {"ios": "https://dc.lft.to/lastmile_qr_scan", "android": "https://dc.lft.to/lastmile_qr_scan"}, "is_reserved": 0, "fusion_lon": 0.0, "fusion_lat": 0.0, "lon": -77.05566783333333, "name": "7e9b55d1715358141d7a35ffd5725dcf"}, {"bike_id": "9700a14359a813e70f4b8649e173f0ce", "type": "electric_scooter", "is_disabled": 0, "lat": 38.900794166666664, "rental_uris": {"ios": "https://dc.lft.to/lastmile_qr_scan", "android": "https://dc.lft.to/lastmile_qr_scan"}, "is_reserved": 0, "fusion_lon": 0.0, "fusion_lat": 0.0, "lon": -77.05065233333333, "name": "9700a14359a813e70f4b8649e173f0ce"}, {"bike_id": "45de1ec2b33b5bad7f843c198c85d221", "type": "electric_scooter", "is_disabled": 0, "lat": 38.900059166666665, "rental_uris": {"ios": "https://dc.lft.to/lastmile_qr_scan", "android": "https://dc.lft.to/lastmile_qr_scan"}, "is_reserved": 0, "fusion_lon": 0.0, "fusion_lat": 0.0, "lon": -77.04155116666666, "name": "45de1ec2b33b5bad7f843c198c85d221"}, {"bike_id": "0a5f94ca7a8167d8d246bbaa26e56b0a", "type": "electric_scooter", "is_disabled": 0, "lat": 38.876279833333335, "rental_uris": {"ios": "https://dc.lft.to/lastmile_qr_scan", "android": "https://dc.lft.to/lastmile_qr_scan"}, "is_reserved": 0, "fusion_lon": 0.0, "fusion_lat": 0.0, "lon": -77.009631, "name": "0a5f94ca7a8167d8d246bbaa26e56b0a"}, {"bike_id": "a8dbd2f22141f366523e042c1fd708db", "type": "electric_scooter", "is_disabled": 0, "lat": 38.91550766666667, "rental_uris": {"ios": "https://dc.lft.to/lastmile_qr_scan", "android": "https://dc.lft.to/lastmile_qr_scan"}, "is_reserved": 0, "fusion_lon": 0.0, "fusion_lat": 0.0, "lon": -77.0213715, "name": "a8dbd2f22141f366523e042c1fd708db"}, {"bike_id": "c0345d32516ba29ac5777a16572b3164", "type": "electric_scooter", "is_disabled": 0, "lat": 38.907563, "rental_uris": {"ios": "https://dc.lft.to/lastmile_qr_scan", "android": "https://dc.lft.to/lastmile_qr_scan"}, "is_reserved": 0, "fusion_lon": 0.0, "fusion_lat": 0.0, "lon": -77.03075483333333, "name": "c0345d32516ba29ac5777a16572b3164"}, {"bike_id": "5646cd90336b00af0ca964b68d09f764", "type": "electric_scooter", "is_disabled": 0, "lat": 38.9157395, "rental_uris": {"ios": "https://dc.lft.to/lastmile_qr_scan", "android": "https://dc.lft.to/lastmile_qr_scan"}, "is_reserved": 0, "fusion_lon": 0.0, "fusion_lat": 0.0, "lon": -77.02025933333333, "name": "5646cd90336b00af0ca964b68d09f764"}, {"bike_id": "cf7d9c9ad7e748dfba3995a700985c4a", "type": "electric_scooter", "is_disabled": 0, "lat": 38.885304833333336, "rental_uris": {"ios": "https://dc.lft.to/lastmile_qr_scan", "android": "https://dc.lft.to/lastmile_qr_scan"}, "is_reserved": 0, "fusion_lon": 0.0, "fusion_lat": 0.0, "lon": -76.99830266666666, "name": "cf7d9c9ad7e748dfba3995a700985c4a"}, {"bike_id": "c80b231ee0a6306b878aa548a94e4d43", "type": "electric_scooter", "is_disabled": 0, "lat": 38.900701166666664, "rental_uris": {"ios": "https://dc.lft.to/lastmile_qr_scan", "android": "https://dc.lft.to/lastmile_qr_scan"}, "is_reserved": 0, "fusion_lon": 0.0, "fusion_lat": 0.0, "lon": -77.01217933333334, "name": "c80b231ee0a6306b878aa548a94e4d43"}, {"bike_id": "71bb0ca6e7acc3eadf8a3d7fe093b0dd", "type": "electric_scooter", "is_disabled": 0, "lat": 38.908214666666666, "rental_uris": {"ios": "https://dc.lft.to/lastmile_qr_scan", "android": "https://dc.lft.to/lastmile_qr_scan"}, "is_reserved": 0, "fusion_lon": 0.0, "fusion_lat": 0.0, "lon": -76.9971205, "name": "71bb0ca6e7acc3eadf8a3d7fe093b0dd"}, {"bike_id": "ee0f56af995be59406a3d80a4f04991e", "type": "electric_bike", "is_disabled": 0, "lat": 39.013675, "rental_uris": {"ios": "https://dc.lft.to/lastmile_qr_scan", "android": "https://dc.lft.to/lastmile_qr_scan"}, "is_reserved": 0, "fusion_lon": 0.0, "fusion_lat": 0.0, "lon": -76.92137216666667, "name": "ee0f56af995be59406a3d80a4f04991e"}, {"bike_id": "7f253f9ddae38e5b5d5934e5a6dc45b7", "type": "electric_scooter", "is_disabled": 0, "lat": 38.923315833333334, "rental_uris": {"ios": "https://dc.lft.to/lastmile_qr_scan", "android": "https://dc.lft.to/lastmile_qr_scan"}, "is_reserved": 0, "fusion_lon": 0.0, "fusion_lat": 0.0, "lon": -77.046274, "name": "7f253f9ddae38e5b5d5934e5a6dc45b7"}, {"bike_id": "b444430c7d14f0319ff02f5c3fcd3236", "type": "electric_scooter", "is_disabled": 0, "lat": 38.9176965, "rental_uris": {"ios": "https://dc.lft.to/lastmile_qr_scan", "android": "https://dc.lft.to/lastmile_qr_scan"}, "is_reserved": 0, "fusion_lon": 0.0, "fusion_lat": 0.0, "lon": -77.029625, "name": "b444430c7d14f0319ff02f5c3fcd3236"}, {"bike_id": "46c434e950628989a35f13cf6829952a", "type": "electric_scooter", "is_disabled": 0, "lat": 38.898336, "rental_uris": {"ios": "https://dc.lft.to/lastmile_qr_scan", "android": "https://dc.lft.to/lastmile_qr_scan"}, "is_reserved": 0, "fusion_lon": 0.0, "fusion_lat": 0.0, "lon": -77.0277005, "name": "46c434e950628989a35f13cf6829952a"}, {"bike_id": "02d171227863edd83502a8bb00755429", "type": "electric_scooter", "is_disabled": 0, "lat": 38.923289, "rental_uris": {"ios": "https://dc.lft.to/lastmile_qr_scan", "android": "https://dc.lft.to/lastmile_qr_scan"}, "is_reserved": 0, "fusion_lon": 0.0, "fusion_lat": 0.0, "lon": -77.02298933333333, "name": "02d171227863edd83502a8bb00755429"}, {"bike_id": "545720e7f61fa7effb82bb7581702166", "type": "electric_scooter", "is_disabled": 0, "lat": 38.92362216666667, "rental_uris": {"ios": "https://dc.lft.to/lastmile_qr_scan", "android": "https://dc.lft.to/lastmile_qr_scan"}, "is_reserved": 0, "fusion_lon": 0.0, "fusion_lat": 0.0, "lon": -77.05129416666666, "name": "545720e7f61fa7effb82bb7581702166"}, {"bike_id": "c3b2ee34f7e3bcf96d0715f4d0219c32", "type": "electric_scooter", "is_disabled": 0, "lat": 38.89219966666667, "rental_uris": {"ios": "https://dc.lft.to/lastmile_qr_scan", "android": "https://dc.lft.to/lastmile_qr_scan"}, "is_reserved": 0, "fusion_lon": 0.0, "fusion_lat": 0.0, "lon": -77.0323275, "name": "c3b2ee34f7e3bcf96d0715f4d0219c32"}, {"bike_id": "0369f31f2651642fec647989114fc60c", "type": "electric_scooter", "is_disabled": 0, "lat": 38.91031016666667, "rental_uris": {"ios": "https://dc.lft.to/lastmile_qr_scan", "android": "https://dc.lft.to/lastmile_qr_scan"}, "is_reserved": 0, "fusion_lon": 0.0, "fusion_lat": 0.0, "lon": -77.0380635, "name": "0369f31f2651642fec647989114fc60c"}, {"bike_id": "bc9c5ab3f90e989995a4af7bcabdcb6f", "type": "electric_scooter", "is_disabled": 0, "lat": 38.919201, "rental_uris": {"ios": "https://dc.lft.to/lastmile_qr_scan", "android": "https://dc.lft.to/lastmile_qr_scan"}, "is_reserved": 0, "fusion_lon": 0.0, "fusion_lat": 0.0, "lon": -77.0311395, "name": "bc9c5ab3f90e989995a4af7bcabdcb6f"}, {"bike_id": "28d7a51300d8b06cd7c32e9e3bd2e114", "type": "electric_scooter", "is_disabled": 0, "lat": 38.909569166666664, "rental_uris": {"ios": "https://dc.lft.to/lastmile_qr_scan", "android": "https://dc.lft.to/lastmile_qr_scan"}, "is_reserved": 0, "fusion_lon": 0.0, "fusion_lat": 0.0, "lon": -77.03261383333333, "name": "28d7a51300d8b06cd7c32e9e3bd2e114"}, {"bike_id": "8a189585b7686c7ad52fd468a5e05845", "type": "electric_scooter", "is_disabled": 0, "lat": 38.9562805, "rental_uris": {"ios": "https://dc.lft.to/lastmile_qr_scan", "android": "https://dc.lft.to/lastmile_qr_scan"}, "is_reserved": 0, "fusion_lon": 0.0, "fusion_lat": 0.0, "lon": -77.036211, "name": "8a189585b7686c7ad52fd468a5e05845"}, {"bike_id": "e6f5c0c2cd9e5a4f6e08fcb501d83e88", "type": "electric_scooter", "is_disabled": 0, "lat": 38.90731916666667, "rental_uris": {"ios": "https://dc.lft.to/lastmile_qr_scan", "android": "https://dc.lft.to/lastmile_qr_scan"}, "is_reserved": 0, "fusion_lon": 0.0, "fusion_lat": 0.0, "lon": -77.0451885, "name": "e6f5c0c2cd9e5a4f6e08fcb501d83e88"}, {"bike_id": "fb8ce69ed3cb32bdb759a9c5e19fdd7d", "type": "electric_scooter", "is_disabled": 0, "lat": 38.923263, "rental_uris": {"ios": "https://dc.lft.to/lastmile_qr_scan", "android": "https://dc.lft.to/lastmile_qr_scan"}, "is_reserved": 0, "fusion_lon": 0.0, "fusion_lat": 0.0, "lon": -77.03774333333334, "name": "fb8ce69ed3cb32bdb759a9c5e19fdd7d"}, {"bike_id": "6be4ac23c6853ddd1ede4d4f6dc563a8", "type": "electric_scooter", "is_disabled": 0, "lat": 38.9011555, "rental_uris": {"ios": "https://dc.lft.to/lastmile_qr_scan", "android": "https://dc.lft.to/lastmile_qr_scan"}, "is_reserved": 0, "fusion_lon": 0.0, "fusion_lat": 0.0, "lon": -76.92955816666667, "name": "6be4ac23c6853ddd1ede4d4f6dc563a8"}, {"bike_id": "e3428176c2e30fb1544b3f1d1dc1e118", "type": "electric_scooter", "is_disabled": 0, "lat": 38.88531, "rental_uris": {"ios": "https://dc.lft.to/lastmile_qr_scan", "android": "https://dc.lft.to/lastmile_qr_scan"}, "is_reserved": 0, "fusion_lon": 0.0, "fusion_lat": 0.0, "lon": -76.998194, "name": "e3428176c2e30fb1544b3f1d1dc1e118"}, {"bike_id": "7c5e475cb5aca80c595942df6fc48091", "type": "electric_bike", "is_disabled": 0, "lat": 38.973877, "rental_uris": {"ios": "https://dc.lft.to/lastmile_qr_scan", "android": "https://dc.lft.to/lastmile_qr_scan"},