{"data": {"bikes": [{"fusion_lon": 0.0, "bike_id": "50540bce2a2d91d9761b53258925f25f", "name": "50540bce2a2d91d9761b53258925f25f", "rental_uris": {"android": "https://dc.lft.to/lastmile_qr_scan", "ios": "https://dc.lft.to/lastmile_qr_scan"}, "lon": -77.0176665, "fusion_lat": 0.0, "is_disabled": 0, "is_reserved": 0, "lat": 38.93895366666667, "type": "electric_scooter"}, {"fusion_lon": 0.0, "bike_id": "6d383047ded4837f148f4ddb15560652", "name": "6d383047ded4837f148f4ddb15560652", "rental_uris": {"android": "https://dc.lft.to/lastmile_qr_scan", "ios": "https://dc.lft.to/lastmile_qr_scan"}, "lon": -77.048877, "fusion_lat": 0.0, "is_disabled": 0, "is_reserved": 0, "lat": 38.899054666666665, "type": "electric_scooter"}, {"fusion_lon": 0.0, "bike_id": "8800bf7b1a31e839587d5e6b6c29e3e9", "name": "8800bf7b1a31e839587d5e6b6c29e3e9", "rental_uris": {"android": "https://dc.lft.to/lastmile_qr_scan", "ios": "https://dc.lft.to/lastmile_qr_scan"}, "lon": -77.07016616666667, "fusion_lat": 0.0, "is_disabled": 0, "is_reserved": 0, "lat": 38.841123333333336, "type": "electric_bike"}, {"fusion_lon": 0.0, "bike_id": "527efd332f464d399ee1418ae424da72", "name": "527efd332f464d399ee1418ae424da72", "rental_uris": {"android": "https://dc.lft.to/lastmile_qr_scan", "ios": "https://dc.lft.to/lastmile_qr_scan"}, "lon": -77.04049233333333, "fusion_lat": 0.0, "is_disabled": 0, "is_reserved": 0, "lat": 38.906053, "type": "electric_scooter"}, {"fusion_lon": 0.0, "bike_id": "ba9f8575ce1dbdf38f96b8dbb59f9db6", "name": "ba9f8575ce1dbdf38f96b8dbb59f9db6", "rental_uris": {"android": "https://dc.lft.to/lastmile_qr_scan", "ios": "https://dc.lft.to/lastmile_qr_scan"}, "lon": -77.021832, "fusion_lat": 0.0, "is_disabled": 0, "is_reserved": 0, "lat": 38.914352, "type": "electric_scooter"}, {"fusion_lon": 0.0, "bike_id": "3dc2bd6f2612a20b39bb055e8c3c90a3", "name": "3dc2bd6f2612a20b39bb055e8c3c90a3", "rental_uris": {"android": "https://dc.lft.to/lastmile_qr_scan", "ios": "https://dc.lft.to/lastmile_qr_scan"}, "lon": -76.965053, "fusion_lat": 0.0, "is_disabled": 0, "is_reserved": 0, "lat": 38.876446, "type": "electric_scooter"}, {"fusion_lon": 0.0, "bike_id": "9f4f69dc71cb0f8e4c81c9ee3fd6e388", "name": "9f4f69dc71cb0f8e4c81c9ee3fd6e388", "rental_uris": {"android": "https://dc.lft.to/lastmile_qr_scan", "ios": "https://dc.lft.to/lastmile_qr_scan"}, "lon": -77.043358, "fusion_lat": 0.0, "is_disabled": 0, "is_reserved": 0, "lat": 38.89224733333333, "type": "electric_scooter"}, {"fusion_lon": 0.0, "bike_id": "fc46fab849cf2b857889b418ca0ea2cb", "name": "fc46fab849cf2b857889b418ca0ea2cb", "rental_uris": {"android": "https://dc.lft.to/lastmile_qr_scan", "ios": "https://dc.lft.to/lastmile_qr_scan"}, "lon": -76.96983183333333, "fusion_lat": 0.0, "is_disabled": 0, "is_reserved": 0, "lat": 38.87387366666667, "type": "electric_scooter"}, {"fusion_lon": 0.0, "bike_id": "6bd1d62c7546408ade84a16b45b45105", "name": "6bd1d62c7546408ade84a16b45b45105", "rental_uris": {"android": "https://dc.lft.to/lastmile_qr_scan", "ios": "https://dc.lft.to/lastmile_qr_scan"}, "lon": -77.02402566666666, "fusion_lat": 0.0, "is_disabled": 0, "is_reserved": 0, "lat": 38.95714616666667, "type": "electric_scooter"}, {"fusion_lon": 0.0, "bike_id": "957da2dd8f0e37f9b4b351558997cd2b", "name": "957da2dd8f0e37f9b4b351558997cd2b", "rental_uris": {"android": "https://dc.lft.to/lastmile_qr_scan", "ios": "https://dc.lft.to/lastmile_qr_scan"}, "lon": -77.02978133333333, "fusion_lat": 0.0, "is_disabled": 0, "is_reserved": 0, "lat": 38.910235, "type": "electric_scooter"}, {"fusion_lon": 0.0, "bike_id": "2bcff404cd76d7133361feff4cebbded", "name": "2bcff404cd76d7133361feff4cebbded", "rental_uris": {"android": "https://dc.lft.to/lastmile_qr_scan", "ios": "https://dc.lft.to/lastmile_qr_scan"}, "lon": -77.02047166666667, "fusion_lat": 0.0, "is_disabled": 0, "is_reserved": 0, "lat": 38.91559683333333, "type": "electric_scooter"}, {"fusion_lon": 0.0, "bike_id": "95a777338281812d7cd8af2943ab6012", "name": "95a777338281812d7cd8af2943ab6012", "rental_uris": {"android": "https://dc.lft.to/lastmile_qr_scan", "ios": "https://dc.lft.to/lastmile_qr_scan"}, "lon": -76.9733365, "fusion_lat": 0.0, "is_disabled": 0, "is_reserved": 0, "lat": 38.90413616666667, "type": "electric_scooter"}, {"fusion_lon": 0.0, "bike_id": "bd3d85ba6430fb387768b8db8b38a159", "name": "bd3d85ba6430fb387768b8db8b38a159", "rental_uris": {"android": "https://dc.lft.to/lastmile_qr_scan", "ios": "https://dc.lft.to/lastmile_qr_scan"}, "lon": -76.99552783333333, "fusion_lat": 0.0, "is_disabled": 0, "is_reserved": 0, "lat": 38.86230716666667, "type": "electric_scooter"}, {"fusion_lon": 0.0, "bike_id": "dd922287c17d84b2e274abe78ab839e6", "name": "dd922287c17d84b2e274abe78ab839e6", "rental_uris": {"android": "https://dc.lft.to/lastmile_qr_scan", "ios": "https://dc.lft.to/lastmile_qr_scan"}, "lon": -77.1152205, "fusion_lat": 0.0, "is_disabled": 0, "is_reserved": 0, "lat": 39.0706605, "type": "electric_bike"}, {"fusion_lon": 0.0, "bike_id": "e27884e1d00e0ce93393a4c965b4c271", "name": "e27884e1d00e0ce93393a4c965b4c271", "rental_uris": {"android": "https://dc.lft.to/lastmile_qr_scan", "ios": "https://dc.lft.to/lastmile_qr_scan"}, "lon": -77.04328166666667, "fusion_lat": 0.0, "is_disabled": 0, "is_reserved": 0, "lat": 38.89225066666667, "type": "electric_scooter"}, {"fusion_lon": 0.0, "bike_id": "1b17714fd9bf2cd274bb1144a5ca87b8", "name": "1b17714fd9bf2cd274bb1144a5ca87b8", "rental_uris": {"android": "https://dc.lft.to/lastmile_qr_scan", "ios": "https://dc.lft.to/lastmile_qr_scan"}, "lon": -76.98779433333333, "fusion_lat": 0.0, "is_disabled": 0, "is_reserved": 0, "lat": 38.911992166666664, "type": "electric_scooter"}, {"fusion_lon": 0.0, "bike_id": "cbee9087f797eb33b5f81e06e57fb6f8", "name": "cbee9087f797eb33b5f81e06e57fb6f8", "rental_uris": {"android": "https://dc.lft.to/lastmile_qr_scan", "ios": "https://dc.lft.to/lastmile_qr_scan"}, "lon": -77.04761733333333, "fusion_lat": 0.0, "is_disabled": 0, "is_reserved": 0, "lat": 38.895925, "type": "electric_scooter"}, {"fusion_lon": 0.0, "bike_id": "8fb5beee61823781725d977c9377242c", "name": "8fb5beee61823781725d977c9377242c", "rental_uris": {"android": "https://dc.lft.to/lastmile_qr_scan", "ios": "https://dc.lft.to/lastmile_qr_scan"}, "lon": -77.05039283333333, "fusion_lat": 0.0, "is_disabled": 0, "is_reserved": 0, "lat": 38.92518233333333, "type": "electric_scooter"}, {"fusion_lon": 0.0, "bike_id": "6578d65c33703cf14904d66d92db1ef6", "name": "6578d65c33703cf14904d66d92db1ef6", "rental_uris": {"android": "https://dc.lft.to/lastmile_qr_scan", "ios": "https://dc.lft.to/lastmile_qr_scan"}, "lon": -77.03286416666667, "fusion_lat": 0.0, "is_disabled": 0, "is_reserved": 0, "lat": 38.932624833333335, "type": "electric_scooter"}, {"fusion_lon": 0.0, "bike_id": "d7ba7f2e6b0db9a2304eb509ccfc924c", "name": "d7ba7f2e6b0db9a2304eb509ccfc924c", "rental_uris": {"android": "https://dc.lft.to/lastmile_qr_scan", "ios": "https://dc.lft.to/lastmile_qr_scan"}, "lon": -77.03101533333333, "fusion_lat": 0.0, "is_disabled": 0, "is_reserved": 0, "lat": 38.928676333333335, "type": "electric_scooter"}, {"fusion_lon": 0.0, "bike_id": "95591a867d5c4c9a7f81960fb1b9f473", "name": "95591a867d5c4c9a7f81960fb1b9f473", "rental_uris": {"android": "https://dc.lft.to/lastmile_qr_scan", "ios": "https://dc.lft.to/lastmile_qr_scan"}, "lon": -77.005858, "fusion_lat": 0.0, "is_disabled": 0, "is_reserved": 0, "lat": 38.87187616666667, "type": "electric_scooter"}, {"fusion_lon": 0.0, "bike_id": "a9cb57d7b30e11f7faa47eed3ab0f3e3", "name": "a9cb57d7b30e11f7faa47eed3ab0f3e3", "rental_uris": {"android": "https://dc.lft.to/lastmile_qr_scan", "ios": "https://dc.lft.to/lastmile_qr_scan"}, "lon": -77.032295, "fusion_lat": 0.0, "is_disabled": 0, "is_reserved": 0, "lat": 38.90015416666667, "type": "electric_scooter"}, {"fusion_lon": 0.0, "bike_id": "eb482dc1da5a6f8e26b63f22156587ed", "name": "eb482dc1da5a6f8e26b63f22156587ed", "rental_uris": {"android": "https://dc.lft.to/lastmile_qr_scan", "ios": "https://dc.lft.to/lastmile_qr_scan"}, "lon": -77.04743416666666, "fusion_lat": 0.0, "is_disabled": 0, "is_reserved": 0, "lat": 38.905245666666666, "type": "electric_scooter"}, {"fusion_lon": 0.0, "bike_id": "34d1a6dd605e45deeb27fd713c25676d", "name": "34d1a6dd605e45deeb27fd713c25676d", "rental_uris": {"android": "https://dc.lft.to/lastmile_qr_scan", "ios": "https://dc.lft.to/lastmile_qr_scan"}, "lon": -76.98990983333333, "fusion_lat": 0.0, "is_disabled": 0, "is_reserved": 0, "lat": 38.92448, "type": "electric_scooter"}, {"fusion_lon": 0.0, "bike_id": "09569d78e5576c4912d5611c0b4d8160", "name": "09569d78e5576c4912d5611c0b4d8160", "rental_uris": {"android": "https://dc.lft.to/lastmile_qr_scan", "ios": "https://dc.lft.to/lastmile_qr_scan"}, "lon": -77.019536, "fusion_lat": 0.0, "is_disabled": 0, "is_reserved": 0, "lat": 38.92418416666667, "type": "electric_scooter"}, {"fusion_lon": 0.0, "bike_id": "08d2adc7dcd08a57b2fdbebace894e95", "name": "08d2adc7dcd08a57b2fdbebace894e95", "rental_uris": {"android": "https://dc.lft.to/lastmile_qr_scan", "ios": "https://dc.lft.to/lastmile_qr_scan"}, "lon": -77.052729, "fusion_lat": 0.0, "is_disabled": 0, "is_reserved": 0, "lat": 38.927627333333334, "type": "electric_scooter"}, {"fusion_lon": 0.0, "bike_id": "4ed54fd8eb368520fb9e7217bd2fa553", "name": "4ed54fd8eb368520fb9e7217bd2fa553", "rental_uris": {"android": "https://dc.lft.to/lastmile_qr_scan", "ios": "https://dc.lft.to/lastmile_qr_scan"}, "lon": -77.03266016666667, "fusion_lat": 0.0, "is_disabled": 0, "is_reserved": 0, "lat": 38.914057, "type": "electric_scooter"}, {"fusion_lon": 0.0, "bike_id": "9f056341699a1d6b6cc39deb9d543d35", "name": "9f056341699a1d6b6cc39deb9d543d35", "rental_uris": {"android": "https://dc.lft.to/lastmile_qr_scan", "ios": "https://dc.lft.to/lastmile_qr_scan"}, "lon": -76.99812083333333, "fusion_lat": 0.0, "is_disabled": 0, "is_reserved": 0, "lat": 38.8199315, "type": "electric_bike"}, {"fusion_lon": 0.0, "bike_id": "b1e00e4361b1874ff1fb0c4f0e846e54", "name": "b1e00e4361b1874ff1fb0c4f0e846e54", "rental_uris": {"android": "https://dc.lft.to/lastmile_qr_scan", "ios": "https://dc.lft.to/lastmile_qr_scan"}, "lon": -77.04364183333334, "fusion_lat": 0.0, "is_disabled": 0, "is_reserved": 0, "lat": 38.90865216666667, "type": "electric_scooter"}, {"fusion_lon": 0.0, "bike_id": "1a4b8f236dda876178dc517a7cefcead", "name": "1a4b8f236dda876178dc517a7cefcead", "rental_uris": {"android": "https://dc.lft.to/lastmile_qr_scan", "ios": "https://dc.lft.to/lastmile_qr_scan"}, "lon": -77.01229733333334, "fusion_lat": 0.0, "is_disabled": 0, "is_reserved": 0, "lat": 38.898268333333334, "type": "electric_scooter"}, {"fusion_lon": 0.0, "bike_id": "98b9ddadae307a944e95d95028550bdf", "name": "98b9ddadae307a944e95d95028550bdf", "rental_uris": {"android": "https://dc.lft.to/lastmile_qr_scan", "ios": "https://dc.lft.to/lastmile_qr_scan"}, "lon": -77.036424, "fusion_lat": 0.0, "is_disabled": 0, "is_reserved": 0, "lat": 38.91615566666667, "type": "electric_scooter"}, {"fusion_lon": 0.0, "bike_id": "dd65e933d335b1be752b041439d9af5d", "name": "dd65e933d335b1be752b041439d9af5d", "rental_uris": {"android": "https://dc.lft.to/lastmile_qr_scan", "ios": "https://dc.lft.to/lastmile_qr_scan"}, "lon": -77.01764133333333, "fusion_lat": 0.0, "is_disabled": 0, "is_reserved": 0, "lat": 38.877241833333336, "type": "electric_scooter"}, {"fusion_lon": 0.0, "bike_id": "11a461822e45a68c8bfaa35f9d910bde", "name": "11a461822e45a68c8bfaa35f9d910bde", "rental_uris": {"android": "https://dc.lft.to/lastmile_qr_scan", "ios": "https://dc.lft.to/lastmile_qr_scan"}, "lon": -77.02255866666667, "fusion_lat": 0.0, "is_disabled": 0, "is_reserved": 0, "lat": 38.92508766666667, "type": "electric_scooter"}, {"fusion_lon": 0.0, "bike_id": "a14d6043e163bb499eaa83a14042721d", "name": "a14d6043e163bb499eaa83a14042721d", "rental_uris": {"android": "https://dc.lft.to/lastmile_qr_scan", "ios": "https://dc.lft.to/lastmile_qr_scan"}, "lon": -76.98938716666666, "fusion_lat": 0.0, "is_disabled": 0, "is_reserved": 0, "lat": 38.9039865, "type": "electric_scooter"}, {"fusion_lon": 0.0, "bike_id": "7fbace36b81112c2bbc8f9af3a34082d", "name": "7fbace36b81112c2bbc8f9af3a34082d", "rental_uris": {"android": "https://dc.lft.to/lastmile_qr_scan", "ios": "https://dc.lft.to/lastmile_qr_scan"}, "lon": -76.926666, "fusion_lat": 0.0, "is_disabled": 0, "is_reserved": 0, "lat": 38.891789333333335, "type": "electric_scooter"}, {"fusion_lon": 0.0, "bike_id": "c9d2c51d638d69862a3dc76a2d0d9e52", "name": "c9d2c51d638d69862a3dc76a2d0d9e52", "rental_uris": {"android": "https://dc.lft.to/lastmile_qr_scan", "ios": "https://dc.lft.to/lastmile_qr_scan"}, "lon": -77.0445925, "fusion_lat": 0.0, "is_disabled": 0, "is_reserved": 0, "lat": 38.901239, "type": "electric_scooter"}, {"fusion_lon": 0.0, "bike_id": "81ab6cdcc2e6f3a03933efeb3dd1801f", "name": "81ab6cdcc2e6f3a03933efeb3dd1801f", "rental_uris": {"android": "https://dc.lft.to/lastmile_qr_scan", "ios": "https://dc.lft.to/lastmile_qr_scan"}, "lon": -77.04866666666666, "fusion_lat": 0.0, "is_disabled": 0, "is_reserved": 0, "lat": 38.89222066666667, "type": "electric_scooter"}, {"fusion_lon": 0.0, "bike_id": "4c55b5ec2eddad8d99803adeb2ee34e3", "name": "4c55b5ec2eddad8d99803adeb2ee34e3", "rental_uris": {"android": "https://dc.lft.to/lastmile_qr_scan", "ios": "https://dc.lft.to/lastmile_qr_scan"}, "lon": -77.03288333333333, "fusion_lat": 0.0, "is_disabled": 0, "is_reserved": 0, "lat": 38.937665, "type": "electric_scooter"}, {"fusion_lon": 0.0, "bike_id": "b83afc4f052029bbb48aac433233fdb3", "name": "b83afc4f052029bbb48aac433233fdb3", "rental_uris": {"android": "https://dc.lft.to/lastmile_qr_scan", "ios": "https://dc.lft.to/lastmile_qr_scan"}, "lon": -77.07040933333333, "fusion_lat": 0.0, "is_disabled": 0, "is_reserved": 0, "lat": 38.907687333333335, "type": "electric_scooter"}, {"fusion_lon": 0.0, "bike_id": "e9dd7d5a2622b05293196a1e540ec510", "name": "e9dd7d5a2622b05293196a1e540ec510", "rental_uris": {"android": "https://dc.lft.to/lastmile_qr_scan", "ios": "https://dc.lft.to/lastmile_qr_scan"}, "lon": -76.96706183333333, "fusion_lat": 0.0, "is_disabled": 0, "is_reserved": 0, "lat": 38.860154, "type": "electric_scooter"}, {"fusion_lon": 0.0, "bike_id": "2a843d676df24da54cc216209a762957", "name": "2a843d676df24da54cc216209a762957", "rental_uris": {"android": "https://dc.lft.to/lastmile_qr_scan", "ios": "https://dc.lft.to/lastmile_qr_scan"}, "lon": -77.045427, "fusion_lat": 0.0, "is_disabled": 0, "is_reserved": 0, "lat": 38.911121666666666, "type": "electric_scooter"}, {"fusion_lon": 0.0, "bike_id": "ab931df3380cd269fa7e99876eb3f380", "name": "ab931df3380cd269fa7e99876eb3f380", "rental_uris": {"android": "https://dc.lft.to/lastmile_qr_scan", "ios": "https://dc.lft.to/lastmile_qr_scan"}, "lon": -77.06867616666666, "fusion_lat": 0.0, "is_disabled": 0, "is_reserved": 0, "lat": 38.937424166666666, "type": "electric_scooter"}, {"fusion_lon": 0.0, "bike_id": "1087057f23fca93032fc222b8bf180f2", "name": "1087057f23fca93032fc222b8bf180f2", "rental_uris": {"android": "https://dc.lft.to/lastmile_qr_scan", "ios": "https://dc.lft.to/lastmile_qr_scan"}, "lon": -77.01711383333334, "fusion_lat": 0.0, "is_disabled": 0, "is_reserved": 0, "lat": 38.90972033333333, "type": "electric_scooter"}, {"fusion_lon": 0.0, "bike_id": "4ed96537719935b75ad0bd84c95de08e", "name": "4ed96537719935b75ad0bd84c95de08e", "rental_uris": {"android": "https://dc.lft.to/lastmile_qr_scan", "ios": "https://dc.lft.to/lastmile_qr_scan"}, "lon": -77.037771, "fusion_lat": 0.0, "is_disabled": 0, "is_reserved": 0, "lat": 38.916978666666665, "type": "electric_scooter"}, {"fusion_lon": 0.0, "bike_id": "e00469dfb831f7e9b66fe73f1db55289", "name": "e00469dfb831f7e9b66fe73f1db55289", "rental_uris": {"android": "https://dc.lft.to/lastmile_qr_scan", "ios": "https://dc.lft.to/lastmile_qr_scan"}, "lon": -76.99831833333333, "fusion_lat": 0.0, "is_disabled": 0, "is_reserved": 0, "lat": 38.885373333333334, "type": "electric_scooter"}, {"fusion_lon": 0.0, "bike_id": "ac78f99aca8173e120e643224ae8e6f8", "name": "ac78f99aca8173e120e643224ae8e6f8", "rental_uris": {"android": "https://dc.lft.to/lastmile_qr_scan", "ios": "https://dc.lft.to/lastmile_qr_scan"}, "lon": -77.03406416666667, "fusion_lat": 0.0, "is_disabled": 0, "is_reserved": 0, "lat": 38.90387616666667, "type": "electric_scooter"}, {"fusion_lon": 0.0, "bike_id": "08280d45b0e67ea10491ec3e33cb943a", "name": "08280d45b0e67ea10491ec3e33cb943a", "rental_uris": {"android": "https://dc.lft.to/lastmile_qr_scan", "ios": "https://dc.lft.to/lastmile_qr_scan"}, "lon": -77.0320585, "fusion_lat": 0.0, "is_disabled": 0, "is_reserved": 0, "lat": 38.917683333333336, "type": "electric_scooter"}, {"fusion_lon": 0.0, "bike_id": "9daa0cf0b1ac773c2bccb40c7834f8fb", "name": "9daa0cf0b1ac773c2bccb40c7834f8fb", "rental_uris": {"android": "https://dc.lft.to/lastmile_qr_scan", "ios": "https://dc.lft.to/lastmile_qr_scan"}, "lon": -77.041532, "fusion_lat": 0.0, "is_disabled": 0, "is_reserved": 0, "lat": 38.917170166666665, "type": "electric_scooter"}, {"fusion_lon": 0.0, "bike_id": "f065da8bb5a6846ece8bc012394dbb8a", "name": "f065da8bb5a6846ece8bc012394dbb8a", "rental_uris": {"android": "https://dc.lft.to/lastmile_qr_scan", "ios": "https://dc.lft.to/lastmile_qr_scan"}, "lon": -76.998874, "fusion_lat": 0.0, "is_disabled": 0, "is_reserved": 0, "lat": 38.879277333333334, "type": "electric_scooter"}, {"fusion_lon": 0.0, "bike_id": "17ffe34f2e330885c1cd84bf3a6110c1", "name": "17ffe34f2e330885c1cd84bf3a6110c1", "rental_uris": {"android": "https://dc.lft.to/lastmile_qr_scan", "ios": "https://dc.lft.to/lastmile_qr_scan"}, "lon": -77.06061533333333, "fusion_lat": 0.0, "is_disabled": 0, "is_reserved": 0, "lat": 38.9433695, "type": "electric_bike"}, {"fusion_lon": 0.0, "bike_id": "5f7d8effa5db93c4a8500dcb83ccb60d", "name": "5f7d8effa5db93c4a8500dcb83ccb60d", "rental_uris": {"android": "https://dc.lft.to/lastmile_qr_scan", "ios": "https://dc.lft.to/lastmile_qr_scan"}, "lon": -77.03401766666667, "fusion_lat": 0.0, "is_disabled": 0, "is_reserved": 0, "lat": 38.90254616666667, "type": "electric_scooter"}, {"fusion_lon": 0.0, "bike_id": "056ac57253d9909b2a6c7e3cc612d7cd", "name": "056ac57253d9909b2a6c7e3cc612d7cd", "rental_uris": {"android": "https://dc.lft.to/lastmile_qr_scan", "ios": "https://dc.lft.to/lastmile_qr_scan"}, "lon": -77.05930766666667, "fusion_lat": 0.0, "is_disabled": 0, "is_reserved": 0, "lat": 38.94308916666667, "type": "electric_scooter"}, {"fusion_lon": 0.0, "bike_id": "555eaeb3057908edc9b202219c0dba9a", "name": "555eaeb3057908edc9b202219c0dba9a", "rental_uris": {"android": "https://dc.lft.to/lastmile_qr_scan", "ios": "https://dc.lft.to/lastmile_qr_scan"}, "lon": -77.0432975, "fusion_lat": 0.0, "is_disabled": 0, "is_reserved": 0, "lat": 38.9280885, "type": "electric_scooter"}, {"fusion_lon": 0.0, "bike_id": "72576b6529031e4d60af69378f5a2343", "name": "72576b6529031e4d60af69378f5a2343", "rental_uris": {"android": "https://dc.lft.to/lastmile_qr_scan", "ios": "https://dc.lft.to/lastmile_qr_scan"}, "lon": -77.04043116666666, "fusion_lat": 0.0, "is_disabled": 0, "is_reserved": 0, "lat": 38.905726666666666, "type": "electric_scooter"}, {"fusion_lon": 0.0, "bike_id": "31cff5c5bc04b25bf1ca2b5ea16e5530", "name": "31cff5c5bc04b25bf1ca2b5ea16e5530", "rental_uris": {"android": "https://dc.lft.to/lastmile_qr_scan", "ios": "https://dc.lft.to/lastmile_qr_scan"}, "lon": -77.0391075, "fusion_lat": 0.0, "is_disabled": 0, "is_reserved": 0, "lat": 38.924486333333334, "type": "electric_scooter"}, {"fusion_lon": 0.0, "bike_id": "b53d153fdc9cb8bab16d84edd1fd0663", "name": "b53d153fdc9cb8bab16d84edd1fd0663", "rental_uris": {"android": "https://dc.lft.to/lastmile_qr_scan", "ios": "https://dc.lft.to/lastmile_qr_scan"}, "lon": -77.0149385, "fusion_lat": 0.0, "is_disabled": 0, "is_reserved": 0, "lat": 38.957653666666666, "type": "electric_scooter"}, {"fusion_lon": 0.0, "bike_id": "f7e14b3ada7d4104fad001ddf70eb713", "name": "f7e14b3ada7d4104fad001ddf70eb713", "rental_uris": {"android": "https://dc.lft.to/lastmile_qr_scan", "ios": "https://dc.lft.to/lastmile_qr_scan"}, "lon": -77.04306083333333, "fusion_lat": 0.0, "is_disabled": 0, "is_reserved": 0, "lat": 38.905729666666666, "type": "electric_scooter"}, {"fusion_lon": 0.0, "bike_id": "1bf6a7d4a181e9350f91ef1584f074ce", "name": "1bf6a7d4a181e9350f91ef1584f074ce", "rental_uris": {"android": "https://dc.lft.to/lastmile_qr_scan", "ios": "https://dc.lft.to/lastmile_qr_scan"}, "lon": -77.06747266666666, "fusion_lat": 0.0, "is_disabled": 0, "is_reserved": 0, "lat": 38.905129, "type": "electric_scooter"}, {"fusion_lon": 0.0, "bike_id": "74f61cacc547d048a94b634fe383f45c", "name": "74f61cacc547d048a94b634fe383f45c", "rental_uris": {"android": "https://dc.lft.to/lastmile_qr_scan", "ios": "https://dc.lft.to/lastmile_qr_scan"}, "lon": -77.0715455, "fusion_lat": 0.0, "is_disabled": 0, "is_reserved": 0, "lat": 38.907804166666665, "type": "electric_scooter"}, {"fusion_lon": 0.0, "bike_id": "a6e8b61d08615a45ec7a0febc9c4d081", "name": "a6e8b61d08615a45ec7a0febc9c4d081", "rental_uris": {"android": "https://dc.lft.to/lastmile_qr_scan", "ios": "https://dc.lft.to/lastmile_qr_scan"}, "lon": -76.93742216666666, "fusion_lat": 0.0, "is_disabled": 0, "is_reserved": 0, "lat": 38.89005316666667, "type": "electric_scooter"}, {"fusion_lon": 0.0, "bike_id": "1943b3c6580a3bd2b0c71da253836ab4", "name": "1943b3c6580a3bd2b0c71da253836ab4", "rental_uris": {"android": "https://dc.lft.to/lastmile_qr_scan", "ios": "https://dc.lft.to/lastmile_qr_scan"}, "lon": -77.04546233333333, "fusion_lat": 0.0, "is_disabled": 0, "is_reserved": 0, "lat": 38.91109516666667, "type": "electric_scooter"}, {"fusion_lon": 0.0, "bike_id": "cbcdba76278c337b202e2068ec809be2", "name": "cbcdba76278c337b202e2068ec809be2", "rental_uris": {"android": "https://dc.lft.to/lastmile_qr_scan", "ios": "https://dc.lft.to/lastmile_qr_scan"}, "lon": -77.03459033333333, "fusion_lat": 0.0, "is_disabled": 0, "is_reserved": 0, "lat": 38.9044475, "type": "electric_scooter"}, {"fusion_lon": 0.0, "bike_id": "172da537343d9ed883dec6e0148aa188", "name": "172da537343d9ed883dec6e0148aa188", "rental_uris": {"android": "https://dc.lft.to/lastmile_qr_scan", "ios": "https://dc.lft.to/lastmile_qr_scan"}, "lon": -77.04331333333333, "fusion_lat": 0.0, "is_disabled": 0, "is_reserved": 0, "lat": 38.92814466666667, "type": "electric_scooter"}, {"fusion_lon": 0.0, "bike_id": "1d1ec6aa788e9a53c3e9370fb54aca9d", "name": "1d1ec6aa788e9a53c3e9370fb54aca9d", "rental_uris": {"android": "https://dc.lft.to/lastmile_qr_scan", "ios": "https://dc.lft.to/lastmile_qr_scan"}, "lon": -77.12987183333334, "fusion_lat": 0.0, "is_disabled": 0, "is_reserved": 0, "lat": 38.80763266666666, "type": "electric_bike"}, {"fusion_lon": 0.0, "bike_id": "9f971d06ef716deca274b218ff741fdf", "name": "9f971d06ef716deca274b218ff741fdf", "rental_uris": {"android": "https://dc.lft.to/lastmile_qr_scan", "ios": "https://dc.lft.to/lastmile_qr_scan"}, "lon": -77.03817633333334, "fusion_lat": 0.0, "is_disabled": 0, "is_reserved": 0, "lat": 38.92709833333333, "type": "electric_scooter"}, {"fusion_lon": 0.0, "bike_id": "d8ef294d209009bfb165ffede06e0439", "name": "d8ef294d209009bfb165ffede06e0439", "rental_uris": {"android": "https://dc.lft.to/lastmile_qr_scan", "ios": "https://dc.lft.to/lastmile_qr_scan"}, "lon": -76.99697416666666, "fusion_lat": 0.0, "is_disabled": 0, "is_reserved": 0, "lat": 38.90804416666667, "type": "electric_scooter"}, {"fusion_lon": 0.0, "bike_id": "89c95db0c8b9159561afbc82b2407604", "name": "89c95db0c8b9159561afbc82b2407604", "rental_uris": {"android": "https://dc.lft.to/lastmile_qr_scan", "ios": "https://dc.lft.to/lastmile_qr_scan"}, "lon": -77.00510016666667, "fusion_lat": 0.0, "is_disabled": 0, "is_reserved": 0, "lat": 38.8753545, "type": "electric_scooter"}, {"fusion_lon": 0.0, "bike_id": "db90a89030c52410748c7b698cc4ca39", "name": "db90a89030c52410748c7b698cc4ca39", "rental_uris": {"android": "https://dc.lft.to/lastmile_qr_scan", "ios": "https://dc.lft.to/lastmile_qr_scan"}, "lon": -76.9425435, "fusion_lat": 0.0, "is_disabled": 0, "is_reserved": 0, "lat": 38.89845866666667, "type": "electric_scooter"}, {"fusion_lon": 0.0, "bike_id": "51a7d51f558fbd42c57239dc3e14545e", "name": "51a7d51f558fbd42c57239dc3e14545e", "rental_uris": {"android": "https://dc.lft.to/lastmile_qr_scan", "ios": "https://dc.lft.to/lastmile_qr_scan"}, "lon": -77.02986583333333, "fusion_lat": 0.0, "is_disabled": 0, "is_reserved": 0, "lat": 38.903730333333336, "type": "electric_scooter"}, {"fusion_lon": 0.0, "bike_id": "3cf835d450a4d1bbc76cfbfc87d6a64a", "name": "3cf835d450a4d1bbc76cfbfc87d6a64a", "rental_uris": {"android": "https://dc.lft.to/lastmile_qr_scan", "ios": "https://dc.lft.to/lastmile_qr_scan"}, "lon": -77.04435216666667, "fusion_lat": 0.0, "is_disabled": 0, "is_reserved": 0, "lat": 38.921303, "type": "electric_scooter"}, {"fusion_lon": 0.0, "bike_id": "8c713c4ae7271c35065c77c376feae5e", "name": "8c713c4ae7271c35065c77c376feae5e", "rental_uris": {"android": "https://dc.lft.to/lastmile_qr_scan", "ios": "https://dc.lft.to/lastmile_qr_scan"}, "lon": -76.99253566666667, "fusion_lat": 0.0, "is_disabled": 0, "is_reserved": 0, "lat": 38.8818345, "type": "electric_scooter"}, {"fusion_lon": 0.0, "bike_id": "a2bc122a4d7ee536d9470e9778ea32bd", "name": "a2bc122a4d7ee536d9470e9778ea32bd", "rental_uris": {"android": "https://dc.lft.to/lastmile_qr_scan", "ios": "https://dc.lft.to/lastmile_qr_scan"}, "lon": -77.02221616666667, "fusion_lat": 0.0, "is_disabled": 0, "is_reserved": 0, "lat": 38.92473366666667, "type": "electric_scooter"}, {"fusion_lon": 0.0, "bike_id": "bb16c843663c5f648a4eab06bb798962", "name": "bb16c843663c5f648a4eab06bb798962", "rental_uris": {"android": "https://dc.lft.to/lastmile_qr_scan", "ios": "https://dc.lft.to/lastmile_qr_scan"}, "lon": -77.04197433333333, "fusion_lat": 0.0, "is_disabled": 0, "is_reserved": 0, "lat": 38.8922165, "type": "electric_scooter"}, {"fusion_lon": 0.0, "bike_id": "c693a03d7ffbb0c90a456bb6c31d3072", "name": "c693a03d7ffbb0c90a456bb6c31d3072", "rental_uris": {"android": "https://dc.lft.to/lastmile_qr_scan", "ios": "https://dc.lft.to/lastmile_qr_scan"}, "lon": -77.09559566666667, "fusion_lat": 0.0, "is_disabled": 0, "is_reserved": 0, "lat": 38.85879, "type": "electric_bike"}, {"fusion_lon": 0.0, "bike_id": "d07ba9021eecd635cecea044626a3c4d", "name": "d07ba9021eecd635cecea044626a3c4d", "rental_uris": {"android": "https://dc.lft.to/lastmile_qr_scan", "ios": "https://dc.lft.to/lastmile_qr_scan"}, "lon": -77.02213, "fusion_lat": 0.0, "is_disabled": 0, "is_reserved": 0, "lat": 38.90680316666667, "type": "electric_scooter"}, {"fusion_lon": 0.0, "bike_id": "badd4d6f2d3cdefa742b651dc5ff7ea4", "name": "badd4d6f2d3cdefa742b651dc5ff7ea4", "rental_uris": {"android": "https://dc.lft.to/lastmile_qr_scan", "ios": "https://dc.lft.to/lastmile_qr_scan"}, "lon": -77.0360975, "fusion_lat": 0.0, "is_disabled": 0, "is_reserved": 0, "lat": 38.923351333333336, "type": "electric_scooter"}, {"fusion_lon": 0.0, "bike_id": "255c5e1cf85efe3a677282e510537d62", "name": "255c5e1cf85efe3a677282e510537d62", "rental_uris": {"android": "https://dc.lft.to/lastmile_qr_scan", "ios": "https://dc.lft.to/lastmile_qr_scan"}, "lon": -77.03768016666666, "fusion_lat": 0.0, "is_disabled": 0, "is_reserved": 0, "lat": 38.907767666666665, "type": "electric_scooter"}, {"fusion_lon": 0.0, "bike_id": "d3c2d896e546035a16144fd91f356126", "name": "d3c2d896e546035a16144fd91f356126", "rental_uris": {"android": "https://dc.lft.to/lastmile_qr_scan", "ios": "https://dc.lft.to/lastmile_qr_scan"}, "lon": -77.023528, "fusion_lat": 0.0, "is_disabled": 0, "is_reserved": 0, "lat": 38.9317385, "type": "electric_scooter"}, {"fusion_lon": 0.0, "bike_id": "e53583ff893e39f794f113882a735d49", "name": "e53583ff893e39f794f113882a735d49", "rental_uris": {"android": "https://dc.lft.to/lastmile_qr_scan", "ios": "https://dc.lft.to/lastmile_qr_scan"}, "lon": -77.04334666666666, "fusion_lat": 0.0, "is_disabled": 0, "is_reserved": 0, "lat": 38.92223233333333, "type": "electric_scooter"}, {"fusion_lon": 0.0, "bike_id": "60a3239edb59b9a768e7b4feb8ae24f2", "name": "60a3239edb59b9a768e7b4feb8ae24f2", "rental_uris": {"android": "https://dc.lft.to/lastmile_qr_scan", "ios": "https://dc.lft.to/lastmile_qr_scan"}, "lon": -77.01378016666666, "fusion_lat": 0.0, "is_disabled": 0, "is_reserved": 0, "lat": 38.896336833333336, "type": "electric_scooter"}, {"fusion_lon": 0.0, "bike_id": "a8b29013a1d6bd2f3d5a3ef373d26b24", "name": "a8b29013a1d6bd2f3d5a3ef373d26b24", "rental_uris": {"android": "https://dc.lft.to/lastmile_qr_scan", "ios": "https://dc.lft.to/lastmile_qr_scan"}, "lon": -77.0196745, "fusion_lat": 0.0, "is_disabled": 0, "is_reserved": 0, "lat": 38.922560833333335, "type": "electric_scooter"}, {"fusion_lon": 0.0, "bike_id": "e92ff0f18c36ef16842cd4da895423eb", "name": "e92ff0f18c36ef16842cd4da895423eb", "rental_uris": {"android": "https://dc.lft.to/lastmile_qr_scan", "ios": "https://dc.lft.to/lastmile_qr_scan"}, "lon": -77.04159083333333, "fusion_lat": 0.0, "is_disabled": 0, "is_reserved": 0, "lat": 38.899142499999996, "type": "electric_scooter"}, {"fusion_lon": 0.0, "bike_id": "9d73f3909da095105f7532e9ab8a3bf5", "name": "9d73f3909da095105f7532e9ab8a3bf5", "rental_uris": {"android": "https://dc.lft.to/lastmile_qr_scan", "ios": "https://dc.lft.to/lastmile_qr_scan"}, "lon": -77.009214, "fusion_lat": 0.0, "is_disabled": 0, "is_reserved": 0, "lat": 38.89596233333333, "type": "electric_scooter"}, {"fusion_lon": 0.0, "bike_id": "dfb26588278b7d626ff39e0bf6186f46", "name": "dfb26588278b7d626ff39e0bf6186f46", "rental_uris": {"android": "https://dc.lft.to/lastmile_qr_scan", "ios": "https://dc.lft.to/lastmile_qr_scan"}, "lon": -77.03155583333333, "fusion_lat": 0.0, "is_disabled": 0, "is_reserved": 0, "lat": 38.91563583333333, "type": "electric_scooter"}, {"fusion_lon": 0.0, "bike_id": "198f0fb9837344f553c7f47afe60f076", "name": "198f0fb9837344f553c7f47afe60f076", "rental_uris": {"android": "https://dc.lft.to/lastmile_qr_scan", "ios": "https://dc.lft.to/lastmile_qr_scan"}, "lon": -77.06093316666667, "fusion_lat": 0.0, "is_disabled": 0, "is_reserved": 0, "lat": 38.902285, "type": "electric_scooter"}, {"fusion_lon": 0.0, "bike_id": "6ea4a3ea9e0f8b26a2c4ee778d613eeb", "name": "6ea4a3ea9e0f8b26a2c4ee778d613eeb", "rental_uris": {"android": "https://dc.lft.to/lastmile_qr_scan", "ios": "https://dc.lft.to/lastmile_qr_scan"}, "lon": -77.0219755, "fusion_lat": 0.0, "is_disabled": 0, "is_reserved": 0, "lat": 38.9109895, "type": "electric_scooter"}, {"fusion_lon": 0.0, "bike_id": "f6a5ec32a44548baf6972449d36e534d", "name": "f6a5ec32a44548baf6972449d36e534d", "rental_uris": {"android": "https://dc.lft.to/lastmile_qr_scan", "ios": "https://dc.lft.to/lastmile_qr_scan"}, "lon": -77.07465716666667, "fusion_lat": 0.0, "is_disabled": 0, "is_reserved": 0, "lat": 38.93560866666667, "type": "electric_scooter"}, {"fusion_lon": 0.0, "bike_id": "9a61d6056cd8a82c2e34c2ca862c8a16", "name": "9a61d6056cd8a82c2e34c2ca862c8a16", "rental_uris": {"android": "https://dc.lft.to/lastmile_qr_scan", "ios": "https://dc.lft.to/lastmile_qr_scan"}, "lon": -77.04346533333333, "fusion_lat": 0.0, "is_disabled": 0, "is_reserved": 0, "lat": 38.90531216666667, "type": "electric_scooter"}, {"fusion_lon": 0.0, "bike_id": "6191dcf69b57c1df5f2215c72a7be724", "name": "6191dcf69b57c1df5f2215c72a7be724", "rental_uris": {"android": "https://dc.lft.to/lastmile_qr_scan", "ios": "https://dc.lft.to/lastmile_qr_scan"}, "lon": -77.04131683333334, "fusion_lat": 0.0, "is_disabled": 0, "is_reserved": 0, "lat": 38.921420833333336, "type": "electric_scooter"}, {"fusion_lon": 0.0, "bike_id": "978bf42e626a525cfa944dc2026ab670", "name": "978bf42e626a525cfa944dc2026ab670", "rental_uris": {"android": "https://dc.lft.to/lastmile_qr_scan", "ios": "https://dc.lft.to/lastmile_qr_scan"}, "lon": -77.0061135, "fusion_lat": 0.0, "is_disabled": 0, "is_reserved": 0, "lat": 38.90632633333333, "type": "electric_scooter"}, {"fusion_lon": 0.0, "bike_id": "ee59f1126c69e3a16e3e6e557fb801df", "name": "ee59f1126c69e3a16e3e6e557fb801df", "rental_uris": {"android": "https://dc.lft.to/lastmile_qr_scan", "ios": "https://dc.lft.to/lastmile_qr_scan"}, "lon": -77.03350033333334, "fusion_lat": 0.0, "is_disabled": 0, "is_reserved": 0, "lat": 38.895345666666664, "type": "electric_scooter"}, {"fusion_lon": 0.0, "bike_id": "d5e3c671a9b314010006474ba6fb4245", "name": "d5e3c671a9b314010006474ba6fb4245", "rental_uris": {"android": "https://dc.lft.to/lastmile_qr_scan", "ios": "https://dc.lft.to/lastmile_qr_scan"}, "lon": -77.04656483333333, "fusion_lat": 0.0, "is_disabled": 0, "is_reserved": 0, "lat": 38.89229866666667, "type": "electric_scooter"}, {"fusion_lon": 0.0, "bike_id": "9954bc0bf9cb19b71598f23d0d063e39", "name": "9954bc0bf9cb19b71598f23d0d063e39", "rental_uris": {"android": "https://dc.lft.to/lastmile_qr_scan", "ios": "https://dc.lft.to/lastmile_qr_scan"}, "lon": -77.046436, "fusion_lat": 0.0, "is_disabled": 0, "is_reserved": 0, "lat": 38.899536833333336, "type": "electric_scooter"}, {"fusion_lon": 0.0, "bike_id": "5ad5ae471a346c68218872fb0b685a0d", "name": "5ad5ae471a346c68218872fb0b685a0d", "rental_uris": {"android": "https://dc.lft.to/lastmile_qr_scan", "ios": "https://dc.lft.to/lastmile_qr_scan"}, "lon": -77.03661616666666, "fusion_lat": 0.0, "is_disabled": 0, "is_reserved": 0, "lat": 38.91565883333333, "type": "electric_scooter"}, {"fusion_lon": 0.0, "bike_id": "4a445d936423e2962bca27f58a4692be", "name": "4a445d936423e2962bca27f58a4692be", "rental_uris": {"android": "https://dc.lft.to/lastmile_qr_scan", "ios": "https://dc.lft.to/lastmile_qr_scan"}, "lon": -76.979578, "fusion_lat": 0.0, "is_disabled": 0, "is_reserved": 0, "lat": 38.892208, "type": "electric_scooter"}, {"fusion_lon": 0.0, "bike_id": "0f6f9669737743b45a723fcb9f5828f8", "name": "0f6f9669737743b45a723fcb9f5828f8", "rental_uris": {"android": "https://dc.lft.to/lastmile_qr_scan", "ios": "https://dc.lft.to/lastmile_qr_scan"}, "lon": -77.04178966666667, "fusion_lat": 0.0, "is_disabled": 0, "is_reserved": 0, "lat": 38.899442, "type": "electric_scooter"}, {"fusion_lon": 0.0, "bike_id": "9b4e431f9ea1abd43f61237fdc059dc7", "name": "9b4e431f9ea1abd43f61237fdc059dc7", "rental_uris": {"android": "https://dc.lft.to/lastmile_qr_scan", "ios": "https://dc.lft.to/lastmile_qr_scan"}, "lon": -77.034269, "fusion_lat": 0.0, "is_disabled": 0, "is_reserved": 0, "lat": 38.909661666666665, "type": "electric_scooter"}, {"fusion_lon": 0.0, "bike_id": "60cd006f283e0ab75bae05e0e99a4216", "name": "60cd006f283e0ab75bae05e0e99a4216", "rental_uris": {"android": "https://dc.lft.to/lastmile_qr_scan", "ios": "https://dc.lft.to/lastmile_qr_scan"}, "lon": -77.090071, "fusion_lat": 0.0, "is_disabled": 0, "is_reserved": 0, "lat": 38.92666283333333, "type": "electric_bike"}, {"fusion_lon": 0.0, "bike_id": "2888aa4bfaf25d47929da52a6be0c8df", "name": "2888aa4bfaf25d47929da52a6be0c8df", "rental_uris": {"android": "https://dc.lft.to/lastmile_qr_scan", "ios": "https://dc.lft.to/lastmile_qr_scan"}, "lon": -77.021754, "fusion_lat": 0.0, "is_disabled": 0, "is_reserved": 0, "lat": 38.9429425, "type": "electric_scooter"}, {"fusion_lon": 0.0, "bike_id": "83cb2e2d01ab0785e4c7b026d374a6c3", "name": "83cb2e2d01ab0785e4c7b026d374a6c3", "rental_uris": {"android": "https://dc.lft.to/lastmile_qr_scan", "ios": "https://dc.lft.to/lastmile_qr_scan"}, "lon": -77.04999766666667, "fusion_lat": 0.0, "is_disabled": 0, "is_reserved": 0, "lat": 38.89231766666666, "type": "electric_scooter"}, {"fusion_lon": 0.0, "bike_id": "a2988e17628874c0431877298e7cefe0", "name": "a2988e17628874c0431877298e7cefe0", "rental_uris": {"android": "https://dc.lft.to/lastmile_qr_scan", "ios": "https://dc.lft.to/lastmile_qr_scan"}, "lon": -77.0077425, "fusion_lat": 0.0, "is_disabled": 0, "is_reserved": 0, "lat": 38.87491466666667, "type": "electric_bike"}, {"fusion_lon": 0.0, "bike_id": "bac99c6f6282972bd87996d7bcd8233d", "name": "bac99c6f6282972bd87996d7bcd8233d", "rental_uris": {"android": "https://dc.lft.to/lastmile_qr_scan", "ios": "https://dc.lft.to/lastmile_qr_scan"}, "lon": -77.00170433333334, "fusion_lat": 0.0, "is_disabled": 0, "is_reserved": 0, "lat": 38.8737765, "type": "electric_scooter"}, {"fusion_lon": 0.0, "bike_id": "776600844cca088502a4deac6d7a60fe", "name": "776600844cca088502a4deac6d7a60fe", "rental_uris": {"android": "https://dc.lft.to/lastmile_qr_scan", "ios": "https://dc.lft.to/lastmile_qr_scan"}, "lon": -76.95712983333334, "fusion_lat": 0.0, "is_disabled": 0, "is_reserved": 0, "lat": 38.85086183333333, "type": "electric_bike"}, {"fusion_lon": 0.0, "bike_id": "c05d177ff6681f16e38441755f2e777e", "name": "c05d177ff6681f16e38441755f2e777e", "rental_uris": {"android": "https://dc.lft.to/lastmile_qr_scan", "ios": "https://dc.lft.to/lastmile_qr_scan"}, "lon": -77.0203745, "fusion_lat": 0.0, "is_disabled": 0, "is_reserved": 0, "lat": 38.899666333333336, "type": "electric_scooter"}, {"fusion_lon": 0.0, "bike_id": "edf96e4204d9c8d3e92f5b0060b2df06", "name": "edf96e4204d9c8d3e92f5b0060b2df06", "rental_uris": {"android": "https://dc.lft.to/lastmile_qr_scan", "ios": "https://dc.lft.to/lastmile_qr_scan"}, "lon": -77.02844133333333, "fusion_lat": 0.0, "is_disabled": 0, "is_reserved": 0, "lat": 38.942662, "type": "electric_bike"}, {"fusion_lon": 0.0, "bike_id": "4af5bdee6f0b05d60de0e38953a9b289", "name": "4af5bdee6f0b05d60de0e38953a9b289", "rental_uris": {"android": "https://dc.lft.to/lastmile_qr_scan", "ios": "https://dc.lft.to/lastmile_qr_scan"}, "lon": -77.03197333333334, "fusion_lat": 0.0, "is_disabled": 0, "is_reserved": 0, "lat": 38.9196535, "type": "electric_scooter"}, {"fusion_lon": 0.0, "bike_id": "8b9baa3a3aef386f83eac013aecb73de", "name": "8b9baa3a3aef386f83eac013aecb73de", "rental_uris": {"android": "https://dc.lft.to/lastmile_qr_scan", "ios": "https://dc.lft.to/lastmile_qr_scan"}, "lon": -77.02002083333333, "fusion_lat": 0.0, "is_disabled": 0, "is_reserved": 0, "lat": 38.96444983333333, "type": "electric_scooter"}, {"fusion_lon": 0.0, "bike_id": "09804c133914bb97ae58d26f15413a08", "name": "09804c133914bb97ae58d26f15413a08", "rental_uris": {"android": "https://dc.lft.to/lastmile_qr_scan", "ios": "https://dc.lft.to/lastmile_qr_scan"}, "lon": -77.0320445, "fusion_lat": 0.0, "is_disabled": 0, "is_reserved": 0, "lat": 38.911889, "type": "electric_scooter"}, {"fusion_lon": 0.0, "bike_id": "d73d8378be4b163360e6db7442d35e72", "name": "d73d8378be4b163360e6db7442d35e72", "rental_uris": {"android": "https://dc.lft.to/lastmile_qr_scan", "ios": "https://dc.lft.to/lastmile_qr_scan"}, "lon": -77.01766216666667, "fusion_lat": 0.0, "is_disabled": 0, "is_reserved": 0, "lat": 38.87720316666667, "type": "electric_scooter"}, {"fusion_lon": 0.0, "bike_id": "81ce60bd159108e79125f7121f5d674a", "name": "81ce60bd159108e79125f7121f5d674a", "rental_uris": {"android": "https://dc.lft.to/lastmile_qr_scan", "ios": "https://dc.lft.to/lastmile_qr_scan"}, "lon": -77.04101933333334, "fusion_lat": 0.0, "is_disabled": 0, "is_reserved": 0, "lat": 38.89858433333333, "type": "electric_scooter"}, {"fusion_lon": 0.0, "bike_id": "a11c4af8766d6e5e0cdad23c0b23faa8", "name": "a11c4af8766d6e5e0cdad23c0b23faa8", "rental_uris": {"android": "https://dc.lft.to/lastmile_qr_scan", "ios": "https://dc.lft.to/lastmile_qr_scan"}, "lon": -77.00896466666667, "fusion_lat": 0.0, "is_disabled": 0, "is_reserved": 0, "lat": 38.955686666666665, "type": "electric_scooter"}, {"fusion_lon": 0.0, "bike_id": "e98508cfb396beb3bb1aa7c0e4fd9653", "name": "e98508cfb396beb3bb1aa7c0e4fd9653", "rental_uris": {"android": "https://dc.lft.to/lastmile_qr_scan", "ios": "https://dc.lft.to/lastmile_qr_scan"}, "lon": -77.01778033333333, "fusion_lat": 0.0, "is_disabled": 0, "is_reserved": 0, "lat": 38.91960616666667, "type": "electric_scooter"}, {"fusion_lon": 0.0, "bike_id": "3a2915e05652218e21b8a054d90aaf8d", "name": "3a2915e05652218e21b8a054d90aaf8d", "rental_uris": {"android": "https://dc.lft.to/lastmile_qr_scan", "ios": "https://dc.lft.to/lastmile_qr_scan"}, "lon": -77.0123185, "fusion_lat": 0.0, "is_disabled": 0, "is_reserved": 0, "lat": 38.893427, "type": "electric_scooter"}, {"fusion_lon": 0.0, "bike_id": "79d25cadb2cff655aaf4b3687c7ce9f5", "name": "79d25cadb2cff655aaf4b3687c7ce9f5", "rental_uris": {"android": "https://dc.lft.to/lastmile_qr_scan", "ios": "https://dc.lft.to/lastmile_qr_scan"}, "lon": -77.01950416666666, "fusion_lat": 0.0, "is_disabled": 0, "is_reserved": 0, "lat": 38.923251666666665, "type": "electric_scooter"}, {"fusion_lon": 0.0, "bike_id": "149512143116a9c3287c203649a2a609", "name": "149512143116a9c3287c203649a2a609", "rental_uris": {"android": "https://dc.lft.to/lastmile_qr_scan", "ios": "https://dc.lft.to/lastmile_qr_scan"}, "lon": -77.0232845, "fusion_lat": 0.0, "is_disabled": 0, "is_reserved": 0, "lat": 38.930665166666664, "type": "electric_scooter"}, {"fusion_lon": 0.0, "bike_id": "f8d5137a51265c43121cb53e10228063", "name": "f8d5137a51265c43121cb53e10228063", "rental_uris": {"android": "https://dc.lft.to/lastmile_qr_scan", "ios": "https://dc.lft.to/lastmile_qr_scan"}, "lon": -77.0319595, "fusion_lat": 0.0, "is_disabled": 0, "is_reserved": 0, "lat": 38.91078133333333, "type": "electric_scooter"}, {"fusion_lon": 0.0, "bike_id": "95b914f9ba487c7f4946530cb8f7016a", "name": "95b914f9ba487c7f4946530cb8f7016a", "rental_uris": {"android": "https://dc.lft.to/lastmile_qr_scan", "ios": "https://dc.lft.to/lastmile_qr_scan"}, "lon": -77.02115166666667, "fusion_lat": 0.0, "is_disabled": 0, "is_reserved": 0, "lat": 38.904868, "type": "electric_scooter"}, {"fusion_lon": 0.0, "bike_id": "0da5fa6fabfcd49511f41d4a447a0a60", "name": "0da5fa6fabfcd49511f41d4a447a0a60", "rental_uris": {"android": "https://dc.lft.to/lastmile_qr_scan", "ios": "https://dc.lft.to/lastmile_qr_scan"}, "lon": -77.02464716666667, "fusion_lat": 0.0, "is_disabled": 0, "is_reserved": 0, "lat": 38.920016, "type": "electric_scooter"}, {"fusion_lon": 0.0, "bike_id": "6115678dc45688fd3e4d5608a6f27c39", "name": "6115678dc45688fd3e4d5608a6f27c39", "rental_uris": {"android": "https://dc.lft.to/lastmile_qr_scan", "ios": "https://dc.lft.to/lastmile_qr_scan"}, "lon": -77.006082, "fusion_lat": 0.0, "is_disabled": 0, "is_reserved": 0, "lat": 38.90632466666667, "type": "electric_scooter"}, {"fusion_lon": 0.0, "bike_id": "b98d3ed60aabae7d68eb1fb5fa836053", "name": "b98d3ed60aabae7d68eb1fb5fa836053", "rental_uris": {"android": "https://dc.lft.to/lastmile_qr_scan", "ios": "https://dc.lft.to/lastmile_qr_scan"}, "lon": -77.0416375, "fusion_lat": 0.0, "is_disabled": 0, "is_reserved": 0, "lat": 38.913159, "type": "electric_scooter"}, {"fusion_lon": 0.0, "bike_id": "b1964d45e1fa1adf9cde2cb04012b54d", "name": "b1964d45e1fa1adf9cde2cb04012b54d", "rental_uris": {"android": "https://dc.lft.to/lastmile_qr_scan", "ios": "https://dc.lft.to/lastmile_qr_scan"}, "lon": -77.03184733333333, "fusion_lat": 0.0, "is_disabled": 0, "is_reserved": 0, "lat": 38.911304333333334, "type": "electric_scooter"}, {"fusion_lon": 0.0, "bike_id": "eea28270e7e4147046cd0d9aaba02f7c", "name": "eea28270e7e4147046cd0d9aaba02f7c", "rental_uris": {"android": "https://dc.lft.to/lastmile_qr_scan", "ios": "https://dc.lft.to/lastmile_qr_scan"}, "lon": -76.98554416666667, "fusion_lat": 0.0, "is_disabled": 0, "is_reserved": 0, "lat": 38.900430666666665, "type": "electric_scooter"}, {"fusion_lon": 0.0, "bike_id": "39b365c608aa726f84db4c6993f4d4ea", "name": "39b365c608aa726f84db4c6993f4d4ea", "rental_uris": {"android": "https://dc.lft.to/lastmile_qr_scan", "ios": "https://dc.lft.to/lastmile_qr_scan"}, "lon": -77.0385865, "fusion_lat": 0.0, "is_disabled": 0, "is_reserved": 0, "lat": 38.917138, "type": "electric_scooter"}, {"fusion_lon": 0.0, "bike_id": "52c1d22dab29bad1822e7f30c83ae704", "name": "52c1d22dab29bad1822e7f30c83ae704", "rental_uris": {"android": "https://dc.lft.to/lastmile_qr_scan", "ios": "https://dc.lft.to/lastmile_qr_scan"}, "lon": -77.0414875, "fusion_lat": 0.0, "is_disabled": 0, "is_reserved": 0, "lat": 38.909062, "type": "electric_scooter"}, {"fusion_lon": 0.0, "bike_id": "6d1d52da61ca6f7d4cf3cac399d9d629", "name": "6d1d52da61ca6f7d4cf3cac399d9d629", "rental_uris": {"android": "https://dc.lft.to/lastmile_qr_scan", "ios": "https://dc.lft.to/lastmile_qr_scan"}, "lon": -77.03956083333334, "fusion_lat": 0.0, "is_disabled": 0, "is_reserved": 0, "lat": 38.89247866666667, "type": "electric_scooter"}, {"fusion_lon": 0.0, "bike_id": "c0a8144d3f41883b331878cb1c88d8ac", "name": "c0a8144d3f41883b331878cb1c88d8ac", "rental_uris": {"android": "https://dc.lft.to/lastmile_qr_scan", "ios": "https://dc.lft.to/lastmile_qr_scan"}, "lon": -77.04035533333334, "fusion_lat": 0.0, "is_disabled": 0, "is_reserved": 0, "lat": 38.924708333333335, "type": "electric_scooter"}, {"fusion_lon": 0.0, "bike_id": "06f55fe7a39b01cb7efe40a69dbff2a1", "name": "06f55fe7a39b01cb7efe40a69dbff2a1", "rental_uris": {"android": "https://dc.lft.to/lastmile_qr_scan", "ios": "https://dc.lft.to/lastmile_qr_scan"}, "lon": -77.0197355, "fusion_lat": 0.0, "is_disabled": 0, "is_reserved": 0, "lat": 38.898916666666665, "type": "electric_scooter"}, {"fusion_lon": 0.0, "bike_id": "3a3e95180cce8f4e77f2dac6653d2e25", "name": "3a3e95180cce8f4e77f2dac6653d2e25", "rental_uris": {"android": "https://dc.lft.to/lastmile_qr_scan", "ios": "https://dc.lft.to/lastmile_qr_scan"}, "lon": -77.032237, "fusion_lat": 0.0, "is_disabled": 0, "is_reserved": 0, "lat": 38.9086695, "type": "electric_scooter"}, {"fusion_lon": 0.0, "bike_id": "a3cafb2d0b24304b66069975b48f7565", "name": "a3cafb2d0b24304b66069975b48f7565", "rental_uris": {"android": "https://dc.lft.to/lastmile_qr_scan", "ios": "https://dc.lft.to/lastmile_qr_scan"}, "lon": -76.9793495, "fusion_lat": 0.0, "is_disabled": 0, "is_reserved": 0, "lat": 38.933073, "type": "electric_scooter"}, {"fusion_lon": 0.0, "bike_id": "a568686a0058ea34500e57f73348405b", "name": "a568686a0058ea34500e57f73348405b", "rental_uris": {"android": "https://dc.lft.to/lastmile_qr_scan", "ios": "https://dc.lft.to/lastmile_qr_scan"}, "lon": -77.10720616666667, "fusion_lat": 0.0, "is_disabled": 0, "is_reserved": 0, "lat": 39.05586016666667, "type": "electric_bike"}, {"fusion_lon": 0.0, "bike_id": "3eee8bd9b81eee6c80530e769a245c51", "name": "3eee8bd9b81eee6c80530e769a245c51", "rental_uris": {"android": "https://dc.lft.to/lastmile_qr_scan", "ios": "https://dc.lft.to/lastmile_qr_scan"}, "lon": -77.02546533333333, "fusion_lat": 0.0, "is_disabled": 0, "is_reserved": 0, "lat": 38.90723583333333, "type": "electric_scooter"}, {"fusion_lon": 0.0, "bike_id": "0e2352458458b9198fb9800c7ad3c2a8", "name": "0e2352458458b9198fb9800c7ad3c2a8", "rental_uris": {"android": "https://dc.lft.to/lastmile_qr_scan", "ios": "https://dc.lft.to/lastmile_qr_scan"}, "lon": -77.04160966666667, "fusion_lat": 0.0, "is_disabled": 0, "is_reserved": 0, "lat": 38.892413833333336, "type": "electric_scooter"}, {"fusion_lon": 0.0, "bike_id": "19767a20c24c18f54bb6dcbd25832787", "name": "19767a20c24c18f54bb6dcbd25832787", "rental_uris": {"android": "https://dc.lft.to/lastmile_qr_scan", "ios": "https://dc.lft.to/lastmile_qr_scan"}, "lon": -77.03428383333333, "fusion_lat": 0.0, "is_disabled": 0, "is_reserved": 0, "lat": 38.919336, "type": "electric_scooter"}, {"fusion_lon": 0.0, "bike_id": "f0f89567513728d9e8177ac7cb32e140", "name": "f0f89567513728d9e8177ac7cb32e140", "rental_uris": {"android": "https://dc.lft.to/lastmile_qr_scan", "ios": "https://dc.lft.to/lastmile_qr_scan"}, "lon": -77.04845516666667, "fusion_lat": 0.0, "is_disabled": 0, "is_reserved": 0, "lat": 38.90016983333334, "type": "electric_scooter"}, {"fusion_lon": 0.0, "bike_id": "32fe98f56782395d7d41a8629d4fb9a0", "name": "32fe98f56782395d7d41a8629d4fb9a0", "rental_uris": {"android": "https://dc.lft.to/lastmile_qr_scan", "ios": "https://dc.lft.to/lastmile_qr_scan"}, "lon": -77.03185516666667, "fusion_lat": 0.0, "is_disabled": 0, "is_reserved": 0, "lat": 38.916794, "type": "electric_scooter"}, {"fusion_lon": 0.0, "bike_id": "9c0dd180bdeb8c67a0d550c798562e54", "name": "9c0dd180bdeb8c67a0d550c798562e54", "rental_uris": {"android": "https://dc.lft.to/lastmile_qr_scan", "ios": "https://dc.lft.to/lastmile_qr_scan"}, "lon": -76.99381016666666, "fusion_lat": 0.0, "is_disabled": 0, "is_reserved": 0, "lat": 38.893409, "type": "electric_scooter"}, {"fusion_lon": 0.0, "bike_id": "7fb4b45eb96d1dc0df820385da29fc0a", "name": "7fb4b45eb96d1dc0df820385da29fc0a", "rental_uris": {"android": "https://dc.lft.to/lastmile_qr_scan", "ios": "https://dc.lft.to/lastmile_qr_scan"}, "lon": -76.99268033333334, "fusion_lat": 0.0, "is_disabled": 0, "is_reserved": 0, "lat": 38.92224516666667, "type": "electric_scooter"}, {"fusion_lon": 0.0, "bike_id": "e8d19e9a7e7ee247e9a32364ce83b744", "name": "e8d19e9a7e7ee247e9a32364ce83b744", "rental_uris": {"android": "https://dc.lft.to/lastmile_qr_scan", "ios": "https://dc.lft.to/lastmile_qr_scan"}, "lon": -77.02171483333333, "fusion_lat": 0.0, "is_disabled": 0, "is_reserved": 0, "lat": 38.91440933333333, "type": "electric_scooter"}, {"fusion_lon": 0.0, "bike_id": "5c94418277a14b54495488d6fa0c86c5", "name": "5c94418277a14b54495488d6fa0c86c5", "rental_uris": {"android": "https://dc.lft.to/lastmile_qr_scan", "ios": "https://dc.lft.to/lastmile_qr_scan"}, "lon": -77.00689383333334, "fusion_lat": 0.0, "is_disabled": 0, "is_reserved": 0, "lat": 38.877052666666664, "type": "electric_scooter"}, {"fusion_lon": 0.0, "bike_id": "4549452fffb9bb88696cebfe29b7a07f", "name": "4549452fffb9bb88696cebfe29b7a07f", "rental_uris": {"android": "https://dc.lft.to/lastmile_qr_scan", "ios": "https://dc.lft.to/lastmile_qr_scan"}, "lon": -77.04536583333334, "fusion_lat": 0.0, "is_disabled": 0, "is_reserved": 0, "lat": 38.91406766666667, "type": "electric_scooter"}, {"fusion_lon": 0.0, "bike_id": "fa0b634db764d55587356fc3dae421de", "name": "fa0b634db764d55587356fc3dae421de", "rental_uris": {"android": "https://dc.lft.to/lastmile_qr_scan", "ios": "https://dc.lft.to/lastmile_qr_scan"}, "lon": -77.03376416666667, "fusion_lat": 0.0, "is_disabled": 0, "is_reserved": 0, "lat": 38.8924025, "type": "electric_scooter"}, {"fusion_lon": 0.0, "bike_id": "51b5944390e9d54d736de0afb965ac12", "name": "51b5944390e9d54d736de0afb965ac12", "rental_uris": {"android": "https://dc.lft.to/lastmile_qr_scan", "ios": "https://dc.lft.to/lastmile_qr_scan"}, "lon": -77.01666516666667, "fusion_lat": 0.0, "is_disabled": 0, "is_reserved": 0, "lat": 38.92052, "type": "electric_scooter"}, {"fusion_lon": 0.0, "bike_id": "79ddff5361003526e547217f77d2e60a", "name": "79ddff5361003526e547217f77d2e60a", "rental_uris": {"android": "https://dc.lft.to/lastmile_qr_scan", "ios": "https://dc.lft.to/lastmile_qr_scan"}, "lon": -77.0555735, "fusion_lat": 0.0, "is_disabled": 0, "is_reserved": 0, "lat": 38.930351, "type": "electric_scooter"}, {"fusion_lon": 0.0, "bike_id": "70289775dcc2d219ce01934114a89b2b", "name": "70289775dcc2d219ce01934114a89b2b", "rental_uris": {"android": "https://dc.lft.to/lastmile_qr_scan", "ios": "https://dc.lft.to/lastmile_qr_scan"}, "lon": -77.04621016666667, "fusion_lat": 0.0, "is_disabled": 0, "is_reserved": 0, "lat": 38.909767, "type": "electric_scooter"}, {"fusion_lon": 0.0, "bike_id": "7ff64fa01a6a03c83eb41297f4594a5e", "name": "7ff64fa01a6a03c83eb41297f4594a5e", "rental_uris": {"android": "https://dc.lft.to/lastmile_qr_scan", "ios": "https://dc.lft.to/lastmile_qr_scan"}, "lon": -77.03423916666667, "fusion_lat": 0.0, "is_disabled": 0, "is_reserved": 0, "lat": 38.93533866666667, "type": "electric_scooter"}, {"fusion_lon": 0.0, "bike_id": "d662571b6aa91fc08b3775a81119bc7d", "name": "d662571b6aa91fc08b3775a81119bc7d", "rental_uris": {"android": "https://dc.lft.to/lastmile_qr_scan", "ios": "https://dc.lft.to/lastmile_qr_scan"}, "lon": -77.04004683333334, "fusion_lat": 0.0, "is_disabled": 0, "is_reserved": 0, "lat": 38.934271, "type": "electric_scooter"}, {"fusion_lon": 0.0, "bike_id": "5257cf34c96bacf990ea1ca09db4d6fd", "name": "5257cf34c96bacf990ea1ca09db4d6fd", "rental_uris": {"android": "https://dc.lft.to/lastmile_qr_scan", "ios": "https://dc.lft.to/lastmile_qr_scan"}, "lon": -77.04848966666667, "fusion_lat": 0.0, "is_disabled": 0, "is_reserved": 0, "lat": 38.919592, "type": "electric_scooter"}, {"fusion_lon": 0.0, "bike_id": "cdf5b24ea3969f19fe9a86283e80389f", "name": "cdf5b24ea3969f19fe9a86283e80389f", "rental_uris": {"android": "https://dc.lft.to/lastmile_qr_scan", "ios": "https://dc.lft.to/lastmile_qr_scan"}, "lon": -77.0383015, "fusion_lat": 0.0, "is_disabled": 0, "is_reserved": 0, "lat": 38.912555833333336, "type": "electric_scooter"}, {"fusion_lon": 0.0, "bike_id": "224486438b43685f9ff854dc825e9bc4", "name": "224486438b43685f9ff854dc825e9bc4", "rental_uris": {"android": "https://dc.lft.to/lastmile_qr_scan", "ios": "https://dc.lft.to/lastmile_qr_scan"}, "lon": -76.937447, "fusion_lat": 0.0, "is_disabled": 0, "is_reserved": 0, "lat": 38.89005066666667, "type": "electric_scooter"}, {"fusion_lon": 0.0, "bike_id": "8775caeb0a0210a1a1e19bd47b1ac392", "name": "8775caeb0a0210a1a1e19bd47b1ac392", "rental_uris": {"android": "https://dc.lft.to/lastmile_qr_scan", "ios": "https://dc.lft.to/lastmile_qr_scan"}, "lon": -77.033208, "fusion_lat": 0.0, "is_disabled": 0, "is_reserved": 0, "lat": 38.89645466666666, "type": "electric_scooter"}, {"fusion_lon": 0.0, "bike_id": "43d8c5befd80e0385ca46564c860db08", "name": "43d8c5befd80e0385ca46564c860db08", "rental_uris": {"android": "https://dc.lft.to/lastmile_qr_scan", "ios": "https://dc.lft.to/lastmile_qr_scan"}, "lon": -77.048948, "fusion_lat": 0.0, "is_disabled": 0, "is_reserved": 0, "lat": 38.90398833333333, "type": "electric_scooter"}, {"fusion_lon": 0.0, "bike_id": "f9c3517e3decd083b619f4e6e336fc06", "name": "f9c3517e3decd083b619f4e6e336fc06", "rental_uris": {"android": "https://dc.lft.to/lastmile_qr_scan", "ios": "https://dc.lft.to/lastmile_qr_scan"}, "lon": -77.02964383333334, "fusion_lat": 0.0, "is_disabled": 0, "is_reserved": 0, "lat": 38.885549833333336, "type": "electric_scooter"}, {"fusion_lon": 0.0, "bike_id": "5a5988081ffec5138d9aa722ee722fcd", "name": "5a5988081ffec5138d9aa722ee722fcd", "rental_uris": {"android": "https://dc.lft.to/lastmile_qr_scan", "ios": "https://dc.lft.to/lastmile_qr_scan"}, "lon": -77.0278875, "fusion_lat": 0.0, "is_disabled": 0, "is_reserved": 0, "lat": 38.93062116666667, "type": "electric_scooter"}, {"fusion_lon": 0.0, "bike_id": "6b8b10467718fca66932315512bef4df", "name": "6b8b10467718fca66932315512bef4df", "rental_uris": {"android": "https://dc.lft.to/lastmile_qr_scan", "ios": "https://dc.lft.to/lastmile_qr_scan"}, "lon": -76.98521383333333, "fusion_lat": 0.0, "is_disabled": 0, "is_reserved": 0, "lat": 38.86890116666667, "type": "electric_bike"}, {"fusion_lon": 0.0, "bike_id": "4927447a96d565f50757e3c13f1b2cfe", "name": "4927447a96d565f50757e3c13f1b2cfe", "rental_uris": {"android": "https://dc.lft.to/lastmile_qr_scan", "ios": "https://dc.lft.to/lastmile_qr_scan"}, "lon": -77.02961383333333, "fusion_lat": 0.0, "is_disabled": 0, "is_reserved": 0, "lat": 38.93229216666667, "type": "electric_scooter"}, {"fusion_lon": 0.0, "bike_id": "aae4d468a799947eacedfab0eb08af96", "name": "aae4d468a799947eacedfab0eb08af96", "rental_uris": {"android": "https://dc.lft.to/lastmile_qr_scan", "ios": "https://dc.lft.to/lastmile_qr_scan"}, "lon": -76.98552733333334, "fusion_lat": 0.0, "is_disabled": 0, "is_reserved": 0, "lat": 38.899811, "type": "electric_scooter"}, {"fusion_lon": 0.0, "bike_id": "373fb11e4bccda36dffff264cd3baf89", "name": "373fb11e4bccda36dffff264cd3baf89", "rental_uris": {"android": "https://dc.lft.to/lastmile_qr_scan", "ios": "https://dc.lft.to/lastmile_qr_scan"}, "lon": -77.10728916666666, "fusion_lat": 0.0, "is_disabled": 0, "is_reserved": 0, "lat": 39.055720666666666, "type": "electric_bike"}, {"fusion_lon": 0.0, "bike_id": "a0690d339cde8ec00b5baf5c2f81bea7", "name": "a0690d339cde8ec00b5baf5c2f81bea7", "rental_uris": {"android": "https://dc.lft.to/lastmile_qr_scan", "ios": "https://dc.lft.to/lastmile_qr_scan"}, "lon": -77.03601383333333, "fusion_lat": 0.0, "is_disabled": 0, "is_reserved": 0, "lat": 38.91696316666667, "type": "electric_scooter"}, {"fusion_lon": 0.0, "bike_id": "faeab4f7dd031e1cbb96c72f1c805fcb", "name": "faeab4f7dd031e1cbb96c72f1c805fcb", "rental_uris": {"android": "https://dc.lft.to/lastmile_qr_scan", "ios": "https://dc.lft.to/lastmile_qr_scan"}, "lon": -76.996436, "fusion_lat": 0.0, "is_disabled": 0, "is_reserved": 0, "lat": 38.90034566666667, "type": "electric_scooter"}, {"fusion_lon": 0.0, "bike_id": "b0071ca1460c9748dbcbfb9916604802", "name": "b0071ca1460c9748dbcbfb9916604802", "rental_uris": {"android": "https://dc.lft.to/lastmile_qr_scan", "ios": "https://dc.lft.to/lastmile_qr_scan"}, "lon": -77.03356566666666, "fusion_lat": 0.0, "is_disabled": 0, "is_reserved": 0, "lat": 38.928837, "type": "electric_scooter"}, {"fusion_lon": 0.0, "bike_id": "fbcb340cfae0efe6d672746265cf52c6", "name": "fbcb340cfae0efe6d672746265cf52c6", "rental_uris": {"android": "https://dc.lft.to/lastmile_qr_scan", "ios": "https://dc.lft.to/lastmile_qr_scan"}, "lon": -76.9752495, "fusion_lat": 0.0, "is_disabled": 0, "is_reserved": 0, "lat": 38.84007616666667, "type": "electric_bike"}, {"fusion_lon": 0.0, "bike_id": "033f98823b75779ca0e1b0d401be3862", "name": "033f98823b75779ca0e1b0d401be3862", "rental_uris": {"android": "https://dc.lft.to/lastmile_qr_scan", "ios": "https://dc.lft.to/lastmile_qr_scan"}, "lon": -77.03789083333334, "fusion_lat": 0.0, "is_disabled": 0, "is_reserved": 0, "lat": 38.90235916666666, "type": "electric_scooter"}, {"fusion_lon": 0.0, "bike_id": "794adccc94f8ca465a0bad160b761685", "name": "794adccc94f8ca465a0bad160b761685", "rental_uris": {"android": "https://dc.lft.to/lastmile_qr_scan", "ios": "https://dc.lft.to/lastmile_qr_scan"}, "lon": -76.96506116666667, "fusion_lat": 0.0, "is_disabled": 0, "is_reserved": 0, "lat": 38.876478, "type": "electric_scooter"}, {"fusion_lon": 0.0, "bike_id": "ba57c633680ec680dcd56082cef10a32", "name": "ba57c633680ec680dcd56082cef10a32", "rental_uris": {"android": "https://dc.lft.to/lastmile_qr_scan", "ios": "https://dc.lft.to/lastmile_qr_scan"}, "lon": -77.04227516666667, "fusion_lat": 0.0, "is_disabled": 0, "is_reserved": 0, "lat": 38.92182833333333, "type": "electric_scooter"}, {"fusion_lon": 0.0, "bike_id": "8469dfb612e5a26aec5835f4a5f0211d", "name": "8469dfb612e5a26aec5835f4a5f0211d", "rental_uris": {"android": "https://dc.lft.to/lastmile_qr_scan", "ios": "https://dc.lft.to/lastmile_qr_scan"}, "lon": -77.05139166666666, "fusion_lat": 0.0, "is_disabled": 0, "is_reserved": 0, "lat": 38.906521166666664, "type": "electric_scooter"}, {"fusion_lon": 0.0, "bike_id": "3aa0741c76a2c161e61af5ea2f105815", "name": "3aa0741c76a2c161e61af5ea2f105815", "rental_uris": {"android": "https://dc.lft.to/lastmile_qr_scan", "ios": "https://dc.lft.to/lastmile_qr_scan"}, "lon": -77.10733116666667, "fusion_lat": 0.0, "is_disabled": 0, "is_reserved": 0, "lat": 39.055773333333335, "type": "electric_bike"}, {"fusion_lon": 0.0, "bike_id": "d183a7f50aed7b54b15b24d3d178edb8", "name": "d183a7f50aed7b54b15b24d3d178edb8", "rental_uris": {"android": "https://dc.lft.to/lastmile_qr_scan", "ios": "https://dc.lft.to/lastmile_qr_scan"}, "lon": -77.04017566666667, "fusion_lat": 0.0, "is_disabled": 0, "is_reserved": 0, "lat": 38.90165183333333, "type": "electric_scooter"}, {"fusion_lon": 0.0, "bike_id": "9c3b90f8a121d973f38c7294967a6103", "name": "9c3b90f8a121d973f38c7294967a6103", "rental_uris": {"android": "https://dc.lft.to/lastmile_qr_scan", "ios": "https://dc.lft.to/lastmile_qr_scan"}, "lon": -77.03794, "fusion_lat": 0.0, "is_disabled": 0, "is_reserved": 0, "lat": 38.906834333333336, "type": "electric_scooter"}, {"fusion_lon": 0.0, "bike_id": "2de7954f9383e8038ab1071fba49b92d", "name": "2de7954f9383e8038ab1071fba49b92d", "rental_uris": {"android": "https://dc.lft.to/lastmile_qr_scan", "ios": "https://dc.lft.to/lastmile_qr_scan"}, "lon": -77.04682883333334, "fusion_lat": 0.0, "is_disabled": 0, "is_reserved": 0, "lat": 38.895095833333336, "type": "electric_scooter"}, {"fusion_lon": 0.0, "bike_id": "0b1bdc303c65aeff5280da58781fac12", "name": "0b1bdc303c65aeff5280da58781fac12", "rental_uris": {"android": "https://dc.lft.to/lastmile_qr_scan", "ios": "https://dc.lft.to/lastmile_qr_scan"}, "lon": -77.03164366666667, "fusion_lat": 0.0, "is_disabled": 0, "is_reserved": 0, "lat": 38.892208833333335, "type": "electric_scooter"}, {"fusion_lon": 0.0, "bike_id": "042749a1ac0a267914b1be443ed1ad41", "name": "042749a1ac0a267914b1be443ed1ad41", "rental_uris": {"android": "https://dc.lft.to/lastmile_qr_scan", "ios": "https://dc.lft.to/lastmile_qr_scan"}, "lon": -77.02548766666666, "fusion_lat": 0.0, "is_disabled": 0, "is_reserved": 0, "lat": 38.93993, "type": "electric_scooter"}, {"fusion_lon": 0.0, "bike_id": "e3428c5b99b85311fa14f8e51f6c9026", "name": "e3428c5b99b85311fa14f8e51f6c9026", "rental_uris": {"android": "https://dc.lft.to/lastmile_qr_scan", "ios": "https://dc.lft.to/lastmile_qr_scan"}, "lon": -76.9375595, "fusion_lat": 0.0, "is_disabled": 0, "is_reserved": 0, "lat": 38.89047716666666, "type": "electric_scooter"}, {"fusion_lon": 0.0, "bike_id": "9d87c2b21215c81b43a1588c1ac4eea4", "name": "9d87c2b21215c81b43a1588c1ac4eea4", "rental_uris": {"android": "https://dc.lft.to/lastmile_qr_scan", "ios": "https://dc.lft.to/lastmile_qr_scan"}, "lon": -77.022843, "fusion_lat": 0.0, "is_disabled": 0, "is_reserved": 0, "lat": 38.91617733333333, "type": "electric_scooter"}, {"fusion_lon": 0.0, "bike_id": "4b1872eb70b2e42c0889643f08c8fc93", "name": "4b1872eb70b2e42c0889643f08c8fc93", "rental_uris": {"android": "https://dc.lft.to/lastmile_qr_scan", "ios": "https://dc.lft.to/lastmile_qr_scan"}, "lon": -77.0221815, "fusion_lat": 0.0, "is_disabled": 0, "is_reserved": 0, "lat": 38.92478216666667, "type": "electric_scooter"}, {"fusion_lon": 0.0, "bike_id": "aa0776e139cb3a76b9a55c73b25c6f86", "name": "aa0776e139cb3a76b9a55c73b25c6f86", "rental_uris": {"android": "https://dc.lft.to/lastmile_qr_scan", "ios": "https://dc.lft.to/lastmile_qr_scan"}, "lon": -76.93758233333334, "fusion_lat": 0.0, "is_disabled": 0, "is_reserved": 0, "lat": 38.89049216666667, "type": "electric_scooter"}, {"fusion_lon": 0.0, "bike_id": "16ec7852e92801bcd0ae7397b7bb794a", "name": "16ec7852e92801bcd0ae7397b7bb794a", "rental_uris": {"android": "https://dc.lft.to/lastmile_qr_scan", "ios": "https://dc.lft.to/lastmile_qr_scan"}, "lon": -77.05013216666667, "fusion_lat": 0.0, "is_disabled": 0, "is_reserved": 0, "lat": 38.923395166666666, "type": "electric_scooter"}, {"fusion_lon": 0.0, "bike_id": "f938998ce4ffc76ffb91854d945dfbef", "name": "f938998ce4ffc76ffb91854d945dfbef", "rental_uris": {"android": "https://dc.lft.to/lastmile_qr_scan", "ios": "https://dc.lft.to/lastmile_qr_scan"}, "lon": -76.9823275, "fusion_lat": 0.0, "is_disabled": 0, "is_reserved": 0, "lat": 38.86473516666667, "type": "electric_scooter"}, {"fusion_lon": 0.0, "bike_id": "82ea96af7589ad25a28b2645bb777e44", "name": "82ea96af7589ad25a28b2645bb777e44", "rental_uris": {"android": "https://dc.lft.to/lastmile_qr_scan", "ios": "https://dc.lft.to/lastmile_qr_scan"}, "lon": -77.0272575, "fusion_lat": 0.0, "is_disabled": 0, "is_reserved": 0, "lat": 38.901438666666664, "type": "electric_scooter"}, {"fusion_lon": 0.0, "bike_id": "90ca852a3486cba334fe0496040a77e6", "name": "90ca852a3486cba334fe0496040a77e6", "rental_uris": {"android": "https://dc.lft.to/lastmile_qr_scan", "ios": "https://dc.lft.to/lastmile_qr_scan"}, "lon": -77.01378216666667, "fusion_lat": 0.0, "is_disabled": 0, "is_reserved": 0, "lat": 38.86936266666667, "type": "electric_scooter"}, {"fusion_lon": 0.0, "bike_id": "f894e25107b8eb2746f0c81df6f0c2db", "name": "f894e25107b8eb2746f0c81df6f0c2db", "rental_uris": {"android": "https://dc.lft.to/lastmile_qr_scan", "ios": "https://dc.lft.to/lastmile_qr_scan"}, "lon": -76.99773283333333, "fusion_lat": 0.0, "is_disabled": 0, "is_reserved": 0, "lat": 38.922823, "type": "electric_bike"}, {"fusion_lon": 0.0, "bike_id": "5bdd258f86be1ded5bb41d5af569393c", "name": "5bdd258f86be1ded5bb41d5af569393c", "rental_uris": {"android": "https://dc.lft.to/lastmile_qr_scan", "ios": "https://dc.lft.to/lastmile_qr_scan"}, "lon": -76.98095466666666, "fusion_lat": 0.0, "is_disabled": 0, "is_reserved": 0, "lat": 38.89613383333333, "type": "electric_scooter"}, {"fusion_lon": 0.0, "bike_id": "9180dab68a7b4a4f23899e8ffbf6ebbe", "name": "9180dab68a7b4a4f23899e8ffbf6ebbe", "rental_uris": {"android": "https://dc.lft.to/lastmile_qr_scan", "ios": "https://dc.lft.to/lastmile_qr_scan"}, "lon": -77.04754566666666, "fusion_lat": 0.0, "is_disabled": 0, "is_reserved": 0, "lat": 38.90552266666667, "type": "electric_scooter"}, {"fusion_lon": 0.0, "bike_id": "a1549ca52676bc75ca0744c0eac25ac0", "name": "a1549ca52676bc75ca0744c0eac25ac0", "rental_uris": {"android": "https://dc.lft.to/lastmile_qr_scan", "ios": "https://dc.lft.to/lastmile_qr_scan"}, "lon": -76.98510983333334, "fusion_lat": 0.0, "is_disabled": 0, "is_reserved": 0, "lat": 38.903487, "type": "electric_scooter"}, {"fusion_lon": 0.0, "bike_id": "fd4761474ef19f83d64daaf07dbdb708", "name": "fd4761474ef19f83d64daaf07dbdb708", "rental_uris": {"android": "https://dc.lft.to/lastmile_qr_scan", "ios": "https://dc.lft.to/lastmile_qr_scan"}, "lon": -77.0115625, "fusion_lat": 0.0, "is_disabled": 0, "is_reserved": 0, "lat": 38.89635166666667, "type": "electric_scooter"}, {"fusion_lon": 0.0, "bike_id": "6644941b914b5a1eb7d3f2a985775c36", "name": "6644941b914b5a1eb7d3f2a985775c36", "rental_uris": {"android": "https://dc.lft.to/lastmile_qr_scan", "ios": "https://dc.lft.to/lastmile_qr_scan"}, "lon": -77.0324865, "fusion_lat": 0.0, "is_disabled": 0, "is_reserved": 0, "lat": 38.91553716666667, "type": "electric_scooter"}, {"fusion_lon": 0.0, "bike_id": "0c6283289c20ba4db4de141324868ef6", "name": "0c6283289c20ba4db4de141324868ef6", "rental_uris": {"android": "https://dc.lft.to/lastmile_qr_scan", "ios": "https://dc.lft.to/lastmile_qr_scan"}, "lon": -77.04669333333334, "fusion_lat": 0.0, "is_disabled": 0, "is_reserved": 0, "lat": 38.89274016666667, "type": "electric_scooter"}, {"fusion_lon": 0.0, "bike_id": "ad8742d76450e52c4fb41cca257dcf05", "name": "ad8742d76450e52c4fb41cca257dcf05", "rental_uris": {"android": "https://dc.lft.to/lastmile_qr_scan", "ios": "https://dc.lft.to/lastmile_qr_scan"}, "lon": -77.00570016666667, "fusion_lat": 0.0, "is_disabled": 0, "is_reserved": 0, "lat": 38.876686, "type": "electric_scooter"}, {"fusion_lon": 0.0, "bike_id": "2f5ce5cfa3bd798d23c05d04dc1636ed", "name": "2f5ce5cfa3bd798d23c05d04dc1636ed", "rental_uris": {"android": "https://dc.lft.to/lastmile_qr_scan", "ios": "https://dc.lft.to/lastmile_qr_scan"}, "lon": -77.04279183333334, "fusion_lat": 0.0, "is_disabled": 0, "is_reserved": 0, "lat": 38.896078833333334, "type": "electric_scooter"}, {"fusion_lon": 0.0, "bike_id": "6ffc48e4cd7865d91e3e615c788cab46", "name": "6ffc48e4cd7865d91e3e615c788cab46", "rental_uris": {"android": "https://dc.lft.to/lastmile_qr_scan", "ios": "https://dc.lft.to/lastmile_qr_scan"}, "lon": -77.02208366666666, "fusion_lat": 0.0, "is_disabled": 0, "is_reserved": 0, "lat": 38.887181166666664, "type": "electric_scooter"}, {"fusion_lon": 0.0, "bike_id": "f1c1f09527482f53072ef6c9e23bdf04", "name": "f1c1f09527482f53072ef6c9e23bdf04", "rental_uris": {"android": "https://dc.lft.to/lastmile_qr_scan", "ios": "https://dc.lft.to/lastmile_qr_scan"}, "lon": -77.01789016666666, "fusion_lat": 0.0, "is_disabled": 0, "is_reserved": 0, "lat": 38.9183525, "type": "electric_scooter"}, {"fusion_lon": 0.0, "bike_id": "584a8fac6907676416ba6981077691ed", "name": "584a8fac6907676416ba6981077691ed", "rental_uris": {"android": "https://dc.lft.to/lastmile_qr_scan", "ios": "https://dc.lft.to/lastmile_qr_scan"}, "lon": -77.035634, "fusion_lat": 0.0, "is_disabled": 0, "is_reserved": 0, "lat": 38.90478066666667, "type": "electric_scooter"}, {"fusion_lon": 0.0, "bike_id": "d5d9facc9a914eda45a39da2e83f3a00", "name": "d5d9facc9a914eda45a39da2e83f3a00", "rental_uris": {"android": "https://dc.lft.to/lastmile_qr_scan", "ios": "https://dc.lft.to/lastmile_qr_scan"}, "lon": -77.03332533333334, "fusion_lat": 0.0, "is_disabled": 0, "is_reserved": 0, "lat": 38.924390333333335, "type": "electric_scooter"}, {"fusion_lon": 0.0, "bike_id": "b0614a0b791e3b27eb7b6b1f342be3bd", "name": "b0614a0b791e3b27eb7b6b1f342be3bd", "rental_uris": {"android": "https://dc.lft.to/lastmile_qr_scan", "ios": "https://dc.lft.to/lastmile_qr_scan"}, "lon": -77.043711, "fusion_lat": 0.0, "is_disabled": 0, "is_reserved": 0, "lat": 38.8922305, "type": "electric_scooter"}, {"fusion_lon": 0.0, "bike_id": "d42bf27b0e1f0a9a25b6897944984a9b", "name": "d42bf27b0e1f0a9a25b6897944984a9b", "rental_uris": {"android": "https://dc.lft.to/lastmile_qr_scan", "ios": "https://dc.lft.to/lastmile_qr_scan"}, "lon": -77.02431383333334, "fusion_lat": 0.0, "is_disabled": 0, "is_reserved": 0, "lat": 38.933787, "type": "electric_scooter"}, {"fusion_lon": 0.0, "bike_id": "ea6e3d11f7ec1f828fa64c9b5ccb7342", "name": "ea6e3d11f7ec1f828fa64c9b5ccb7342", "rental_uris": {"android": "https://dc.lft.to/lastmile_qr_scan", "ios": "https://dc.lft.to/lastmile_qr_scan"}, "lon": -77.0395085, "fusion_lat": 0.0, "is_disabled": 0, "is_reserved": 0, "lat": 38.94627533333333, "type": "electric_scooter"}, {"fusion_lon": 0.0, "bike_id": "f7d08777135d070074ceff5733347a7d", "name": "f7d08777135d070074ceff5733347a7d", "rental_uris": {"android": "https://dc.lft.to/lastmile_qr_scan", "ios": "https://dc.lft.to/lastmile_qr_scan"}, "lon": -77.01526316666667, "fusion_lat": 0.0, "is_disabled": 0, "is_reserved": 0, "lat": 38.884421833333334, "type": "electric_scooter"}, {"fusion_lon": 0.0, "bike_id": "64ff1f53e33da5d3b22170ab51042a3d", "name": "64ff1f53e33da5d3b22170ab51042a3d", "rental_uris": {"android": "https://dc.lft.to/lastmile_qr_scan", "ios": "https://dc.lft.to/lastmile_qr_scan"}, "lon": -76.93757966666666, "fusion_lat": 0.0, "is_disabled": 0, "is_reserved": 0, "lat": 38.890474833333336, "type": "electric_scooter"}, {"fusion_lon": 0.0, "bike_id": "768318341f7fb123d6ccf30811bfc782", "name": "768318341f7fb123d6ccf30811bfc782", "rental_uris": {"android": "https://dc.lft.to/lastmile_qr_scan", "ios": "https://dc.lft.to/lastmile_qr_scan"}, "lon": -76.9326825, "fusion_lat": 0.0, "is_disabled": 0, "is_reserved": 0, "lat": 38.887503, "type": "electric_scooter"}, {"fusion_lon": 0.0, "bike_id": "0557a62c3b2e4daa427a64002bcab568", "name": "0557a62c3b2e4daa427a64002bcab568", "rental_uris": {"android": "https://dc.lft.to/lastmile_qr_scan", "ios": "https://dc.lft.to/lastmile_qr_scan"}, "lon": -77.23364766666667, "fusion_lat": 0.0, "is_disabled": 0, "is_reserved": 0, "lat": 38.9248435, "type": "electric_bike"}, {"fusion_lon": 0.0, "bike_id": "0b4aa9a61013f4ed9d15b1e8d5c4d7d3", "name": "0b4aa9a61013f4ed9d15b1e8d5c4d7d3", "rental_uris": {"android": "https://dc.lft.to/lastmile_qr_scan", "ios": "https://dc.lft.to/lastmile_qr_scan"}, "lon": -76.95166916666666, "fusion_lat": 0.0, "is_disabled": 0, "is_reserved": 0, "lat": 39.084436, "type": "electric_bike"}, {"fusion_lon": 0.0, "bike_id": "e23c3be43c2605f1e67ad9f93b10abc7", "name": "e23c3be43c2605f1e67ad9f93b10abc7", "rental_uris": {"android": "https://dc.lft.to/lastmile_qr_scan", "ios": "https://dc.lft.to/lastmile_qr_scan"}, "lon": -77.04336933333333, "fusion_lat": 0.0, "is_disabled": 0, "is_reserved": 0, "lat": 38.892237, "type": "electric_scooter"}, {"fusion_lon": 0.0, "bike_id": "4a3a9c6948a685e669e9831d7684d617", "name": "4a3a9c6948a685e669e9831d7684d617", "rental_uris": {"android": "https://dc.lft.to/lastmile_qr_scan", "ios": "https://dc.lft.to/lastmile_qr_scan"}, "lon": -77.02114833333333, "fusion_lat": 0.0, "is_disabled": 0, "is_reserved": 0, "lat": 38.893003, "type": "electric_scooter"}, {"fusion_lon": 0.0, "bike_id": "b1d231f9ff6cc04e1e9a786231f2e096", "name": "b1d231f9ff6cc04e1e9a786231f2e096", "rental_uris": {"android": "https://dc.lft.to/lastmile_qr_scan", "ios": "https://dc.lft.to/lastmile_qr_scan"}, "lon": -77.0433945, "fusion_lat": 0.0, "is_disabled": 0, "is_reserved": 0, "lat": 38.9031595, "type": "electric_scooter"}, {"fusion_lon": 0.0, "bike_id": "07c95261d40d7a66acb60876f3596f37", "name": "07c95261d40d7a66acb60876f3596f37", "rental_uris": {"android": "https://dc.lft.to/lastmile_qr_scan", "ios": "https://dc.lft.to/lastmile_qr_scan"}, "lon": -76.9735, "fusion_lat": 0.0, "is_disabled": 0, "is_reserved": 0, "lat": 38.927643833333335, "type": "electric_scooter"}, {"fusion_lon": 0.0, "bike_id": "2632b6034fc725c45dc8d39e1bc61faf", "name": "2632b6034fc725c45dc8d39e1bc61faf", "rental_uris": {"android": "https://dc.lft.to/lastmile_qr_scan", "ios": "https://dc.lft.to/lastmile_qr_scan"}, "lon": -77.00902166666667, "fusion_lat": 0.0, "is_disabled": 0, "is_reserved": 0, "lat": 38.89549783333333, "type": "electric_scooter"}, {"fusion_lon": 0.0, "bike_id": "622c1c8dd978c387699d59885c095753", "name": "622c1c8dd978c387699d59885c095753", "rental_uris": {"android": "https://dc.lft.to/lastmile_qr_scan", "ios": "https://dc.lft.to/lastmile_qr_scan"}, "lon": -77.05177866666666, "fusion_lat": 0.0, "is_disabled": 0, "is_reserved": 0, "lat": 38.92430233333333, "type": "electric_scooter"}, {"fusion_lon": 0.0, "bike_id": "8f741d311ccb7edd6c369901726e02d1", "name": "8f741d311ccb7edd6c369901726e02d1", "rental_uris": {"android": "https://dc.lft.to/lastmile_qr_scan", "ios": "https://dc.lft.to/lastmile_qr_scan"}, "lon": -77.02412, "fusion_lat": 0.0, "is_disabled": 0, "is_reserved": 0, "lat": 38.90056533333333, "type": "electric_scooter"}, {"fusion_lon": 0.0, "bike_id": "ea5f785b5e4108a98906c0db69472087", "name": "ea5f785b5e4108a98906c0db69472087", "rental_uris": {"android": "https://dc.lft.to/lastmile_qr_scan", "ios": "https://dc.lft.to/lastmile_qr_scan"}, "lon": -77.03230266666667, "fusion_lat": 0.0, "is_disabled": 0, "is_reserved": 0, "lat": 38.91715116666666, "type": "electric_scooter"}, {"fusion_lon": 0.0, "bike_id": "378d87523cd3961a4c6845050dbea246", "name": "378d87523cd3961a4c6845050dbea246", "rental_uris": {"android": "https://dc.lft.to/lastmile_qr_scan", "ios": "https://dc.lft.to/lastmile_qr_scan"}, "lon": -77.03938516666666, "fusion_lat": 0.0, "is_disabled": 0, "is_reserved": 0, "lat": 38.91619033333333, "type": "electric_scooter"}, {"fusion_lon": 0.0, "bike_id": "9d259a016e9338eda36640b1dbd71124", "name": "9d259a016e9338eda36640b1dbd71124", "rental_uris": {"android": "https://dc.lft.to/lastmile_qr_scan", "ios": "https://dc.lft.to/lastmile_qr_scan"}, "lon": -77.07346183333334, "fusion_lat": 0.0, "is_disabled": 0, "is_reserved": 0, "lat": 38.922532833333335, "type": "electric_scooter"}, {"fusion_lon": 0.0, "bike_id": "6591bda6bdd694744cb17a241cb8684a", "name": "6591bda6bdd694744cb17a241cb8684a", "rental_uris": {"android": "https://dc.lft.to/lastmile_qr_scan", "ios": "https://dc.lft.to/lastmile_qr_scan"}, "lon": -76.99690416666667, "fusion_lat": 0.0, "is_disabled": 0, "is_reserved": 0, "lat": 38.88878066666667, "type": "electric_bike"}, {"fusion_lon": 0.0, "bike_id": "8ef095bf94abc872bede67c82120747c", "name": "8ef095bf94abc872bede67c82120747c", "rental_uris": {"android": "https://dc.lft.to/lastmile_qr_scan", "ios": "https://dc.lft.to/lastmile_qr_scan"}, "lon": -77.01723416666667, "fusion_lat": 0.0, "is_disabled": 0, "is_reserved": 0, "lat": 38.892229666666665, "type": "electric_scooter"}, {"fusion_lon": 0.0, "bike_id": "efc7350df087e3f03677ed12731f577e", "name": "efc7350df087e3f03677ed12731f577e", "rental_uris": {"android": "https://dc.lft.to/lastmile_qr_scan", "ios": "https://dc.lft.to/lastmile_qr_scan"}, "lon": -76.99414783333333, "fusion_lat": 0.0, "is_disabled": 0, "is_reserved": 0, "lat": 38.877833333333335, "type": "electric_scooter"}, {"fusion_lon": 0.0, "bike_id": "96ad86e1583a07ada56374e7b657269a", "name": "96ad86e1583a07ada56374e7b657269a", "rental_uris": {"android": "https://dc.lft.to/lastmile_qr_scan", "ios": "https://dc.lft.to/lastmile_qr_scan"}, "lon": -77.22827066666666, "fusion_lat": 0.0, "is_disabled": 0, "is_reserved": 0, "lat": 38.8827525, "type": "electric_bike"}, {"fusion_lon": 0.0, "bike_id": "50c5bdeeb4844e7769903229ab11f2fb", "name": "50c5bdeeb4844e7769903229ab11f2fb", "rental_uris": {"android": "https://dc.lft.to/lastmile_qr_scan", "ios": "https://dc.lft.to/lastmile_qr_scan"}, "lon": -77.0318275, "fusion_lat": 0.0, "is_disabled": 0, "is_reserved": 0, "lat": 38.9163105, "type": "electric_scooter"}, {"fusion_lon": 0.0, "bike_id": "9daf0dd79b569a87f9e373f2303cff22", "name": "9daf0dd79b569a87f9e373f2303cff22", "rental_uris": {"android": "https://dc.lft.to/lastmile_qr_scan", "ios": "https://dc.lft.to/lastmile_qr_scan"}, "lon": -77.081901, "fusion_lat": 0.0, "is_disabled": 0, "is_reserved": 0, "lat": 38.922154, "type": "electric_bike"}, {"fusion_lon": 0.0, "bike_id": "43c87e5db1903db0d4943473e41a8859", "name": "43c87e5db1903db0d4943473e41a8859", "rental_uris": {"android": "https://dc.lft.to/lastmile_qr_scan", "ios": "https://dc.lft.to/lastmile_qr_scan"}, "lon": -77.02031966666667, "fusion_lat": 0.0, "is_disabled": 0, "is_reserved": 0, "lat": 38.922505, "type": "electric_scooter"}, {"fusion_lon": 0.0, "bike_id": "c8b12c58e6dba6a546a4d5b2295860bc", "name": "c8b12c58e6dba6a546a4d5b2295860bc", "rental_uris": {"android": "https://dc.lft.to/lastmile_qr_scan", "ios": "https://dc.lft.to/lastmile_qr_scan"}, "lon": -77.0194815, "fusion_lat": 0.0, "is_disabled": 0, "is_reserved": 0, "lat": 38.922624666666664, "type": "electric_scooter"}, {"fusion_lon": 0.0, "bike_id": "817a74ac591d40ceb7b2499b4c9afe7e", "name": "817a74ac591d40ceb7b2499b4c9afe7e", "rental_uris": {"android": "https://dc.lft.to/lastmile_qr_scan", "ios": "https://dc.lft.to/lastmile_qr_scan"}, "lon": -77.03568783333333, "fusion_lat": 0.0, "is_disabled": 0, "is_reserved": 0, "lat": 38.918700666666666, "type": "electric_scooter"}, {"fusion_lon": 0.0, "bike_id": "edeb2c7256dbaf352007a2505cc61a12", "name": "edeb2c7256dbaf352007a2505cc61a12", "rental_uris": {"android": "https://dc.lft.to/lastmile_qr_scan", "ios": "https://dc.lft.to/lastmile_qr_scan"}, "lon": -77.08980483333333, "fusion_lat": 0.0, "is_disabled": 0, "is_reserved": 0, "lat": 38.93716083333333, "type": "electric_scooter"}, {"fusion_lon": 0.0, "bike_id": "c90e49c85a2b2f85a32456e82bfa42d8", "name": "c90e49c85a2b2f85a32456e82bfa42d8", "rental_uris": {"android": "https://dc.lft.to/lastmile_qr_scan", "ios": "https://dc.lft.to/lastmile_qr_scan"}, "lon": -76.995681, "fusion_lat": 0.0, "is_disabled": 0, "is_reserved": 0, "lat": 38.86272833333334, "type": "electric_scooter"}, {"fusion_lon": 0.0, "bike_id": "216e267b9c3ecbf3c14f8cbc045d14d1", "name": "216e267b9c3ecbf3c14f8cbc045d14d1", "rental_uris": {"android": "https://dc.lft.to/lastmile_qr_scan", "ios": "https://dc.lft.to/lastmile_qr_scan"}, "lon": -77.01896966666666, "fusion_lat": 0.0, "is_disabled": 0, "is_reserved": 0, "lat": 38.92337916666666, "type": "electric_scooter"}, {"fusion_lon": 0.0, "bike_id": "b71ee0da875a7aed5ab63f3a8cef0336", "name": "b71ee0da875a7aed5ab63f3a8cef0336", "rental_uris": {"android": "https://dc.lft.to/lastmile_qr_scan", "ios": "https://dc.lft.to/lastmile_qr_scan"}, "lon": -77.0188935, "fusion_lat": 0.0, "is_disabled": 0, "is_reserved": 0, "lat": 38.9127055, "type": "electric_scooter"}, {"fusion_lon": 0.0, "bike_id": "4dc06f84a3570fca99557dd0bf820fdd", "name": "4dc06f84a3570fca99557dd0bf820fdd", "rental_uris": {"android": "https://dc.lft.to/lastmile_qr_scan", "ios": "https://dc.lft.to/lastmile_qr_scan"}, "lon": -76.999626, "fusion_lat": 0.0, "is_disabled": 0, "is_reserved": 0, "lat": 38.89420916666667, "type": "electric_scooter"}, {"fusion_lon": 0.0, "bike_id": "fb8e74542611b9211ded4c401af838ab", "name": "fb8e74542611b9211ded4c401af838ab", "rental_uris": {"android": "https://dc.lft.to/lastmile_qr_scan", "ios": "https://dc.lft.to/lastmile_qr_scan"}, "lon": -77.05091916666667, "fusion_lat": 0.0, "is_disabled": 0, "is_reserved": 0, "lat": 38.813354333333336, "type": "electric_bike"}, {"fusion_lon": 0.0, "bike_id": "1351e7199bb262d71ed4c30429fb6189", "name": "1351e7199bb262d71ed4c30429fb6189", "rental_uris": {"android": "https://dc.lft.to/lastmile_qr_scan", "ios": "https://dc.lft.to/lastmile_qr_scan"}, "lon": -77.0125965, "fusion_lat": 0.0, "is_disabled": 0, "is_reserved": 0, "lat": 38.9001285, "type": "electric_scooter"}, {"fusion_lon": 0.0, "bike_id": "78c0708d2ccb2b7bbd807387fd62a907", "name": "78c0708d2ccb2b7bbd807387fd62a907", "rental_uris": {"android": "https://dc.lft.to/lastmile_qr_scan", "ios": "https://dc.lft.to/lastmile_qr_scan"}, "lon": -77.032127, "fusion_lat": 0.0, "is_disabled": 0, "is_reserved": 0, "lat": 38.90114666666667, "type": "electric_scooter"}, {"fusion_lon": 0.0, "bike_id": "7beb01c1e9ad8edfc065b24640bf962b", "name": "7beb01c1e9ad8edfc065b24640bf962b", "rental_uris": {"android": "https://dc.lft.to/lastmile_qr_scan", "ios": "https://dc.lft.to/lastmile_qr_scan"}, "lon": -76.9106505, "fusion_lat": 0.0, "is_disabled": 0, "is_reserved": 0, "lat": 39.010779, "type": "electric_bike"}, {"fusion_lon": 0.0, "bike_id": "a7f60fbb3ad5c35064b4278056cc136c", "name": "a7f60fbb3ad5c35064b4278056cc136c", "rental_uris": {"android": "https://dc.lft.to/lastmile_qr_scan", "ios": "https://dc.lft.to/lastmile_qr_scan"}, "lon": -76.9884425, "fusion_lat": 0.0, "is_disabled": 0, "is_reserved": 0, "lat": 38.89042416666667, "type": "electric_scooter"}, {"fusion_lon": 0.0, "bike_id": "95527765c88db578ea2adc4d9d6574f1", "name": "95527765c88db578ea2adc4d9d6574f1", "rental_uris": {"android": "https://dc.lft.to/lastmile_qr_scan", "ios": "https://dc.lft.to/lastmile_qr_scan"}, "lon": -77.03366633333333, "fusion_lat": 0.0, "is_disabled": 0, "is_reserved": 0, "lat": 38.94508183333333, "type": "electric_scooter"}, {"fusion_lon": 0.0, "bike_id": "af3fcfc7929f1c5fb7f6d1f4d38c2754", "name": "af3fcfc7929f1c5fb7f6d1f4d38c2754", "rental_uris": {"android": "https://dc.lft.to/lastmile_qr_scan", "ios": "https://dc.lft.to/lastmile_qr_scan"}, "lon": -77.02431133333333, "fusion_lat": 0.0, "is_disabled": 0, "is_reserved": 0, "lat": 38.92317933333333, "type": "electric_bike"}, {"fusion_lon": 0.0, "bike_id": "80d35f790d791c7edcb2fd87f1ff5a22", "name": "80d35f790d791c7edcb2fd87f1ff5a22", "rental_uris": {"android": "https://dc.lft.to/lastmile_qr_scan", "ios": "https://dc.lft.to/lastmile_qr_scan"}, "lon": -77.01888766666667, "fusion_lat": 0.0, "is_disabled": 0, "is_reserved": 0, "lat": 38.90344666666667, "type": "electric_scooter"}, {"fusion_lon": 0.0, "bike_id": "c55132551949dc9c41175a3082edea7f", "name": "c55132551949dc9c41175a3082edea7f", "rental_uris": {"android": "https://dc.lft.to/lastmile_qr_scan", "ios": "https://dc.lft.to/lastmile_qr_scan"}, "lon": -77.028735, "fusion_lat": 0.0, "is_disabled": 0, "is_reserved": 0, "lat": 38.903080333333335, "type": "electric_scooter"}, {"fusion_lon": 0.0, "bike_id": "444dea2419b060bafc1f84ab53829cb0", "name": "444dea2419b060bafc1f84ab53829cb0", "rental_uris": {"android": "https://dc.lft.to/lastmile_qr_scan", "ios": "https://dc.lft.to/lastmile_qr_scan"}, "lon": -76.93387066666666, "fusion_lat": 0.0, "is_disabled": 0, "is_reserved": 0, "lat": 38.899146333333334, "type": "electric_scooter"}, {"fusion_lon": 0.0, "bike_id": "04b805ada9461e69e69414fccc4760f9", "name": "04b805ada9461e69e69414fccc4760f9", "rental_uris": {"android": "https://dc.lft.to/lastmile_qr_scan", "ios": "https://dc.lft.to/lastmile_qr_scan"}, "lon": -77.00119266666667, "fusion_lat": 0.0, "is_disabled": 0, "is_reserved": 0, "lat": 38.8765675, "type": "electric_scooter"}, {"fusion_lon": 0.0, "bike_id": "e3167326accbfb450770ea049f415a08", "name": "e3167326accbfb450770ea049f415a08", "rental_uris": {"android": "https://dc.lft.to/lastmile_qr_scan", "ios": "https://dc.lft.to/lastmile_qr_scan"}, "lon": -77.00058066666666, "fusion_lat": 0.0, "is_disabled": 0, "is_reserved": 0, "lat": 38.87441183333333, "type": "electric_scooter"}, {"fusion_lon": 0.0, "bike_id": "529bc630434efe8922dddc4bed422245", "name": "529bc630434efe8922dddc4bed422245", "rental_uris": {"android": "https://dc.lft.to/lastmile_qr_scan", "ios": "https://dc.lft.to/lastmile_qr_scan"}, "lon": -77.02489716666666, "fusion_lat": 0.0, "is_disabled": 0, "is_reserved": 0, "lat": 38.91940616666667, "type": "electric_scooter"}, {"fusion_lon": 0.0, "bike_id": "d421e6084761b61031cafe9e204651f9", "name": "d421e6084761b61031cafe9e204651f9", "rental_uris": {"android": "https://dc.lft.to/lastmile_qr_scan", "ios": "https://dc.lft.to/lastmile_qr_scan"}, "lon": -77.043813, "fusion_lat": 0.0, "is_disabled": 0, "is_reserved": 0, "lat": 38.9211045, "type": "electric_scooter"}, {"fusion_lon": 0.0, "bike_id": "955ba10a0a7282a9a12d40b1c97afe74", "name": "955ba10a0a7282a9a12d40b1c97afe74", "rental_uris": {"android": "https://dc.lft.to/lastmile_qr_scan", "ios": "https://dc.lft.to/lastmile_qr_scan"}, "lon": -77.04522133333333, "fusion_lat": 0.0, "is_disabled": 0, "is_reserved": 0, "lat": 38.90115316666667, "type": "electric_scooter"}, {"fusion_lon": 0.0, "bike_id": "527a01529fa075f1a948fd9bf12f8b7c", "name": "527a01529fa075f1a948fd9bf12f8b7c", "rental_uris": {"android": "https://dc.lft.to/lastmile_qr_scan", "ios": "https://dc.lft.to/lastmile_qr_scan"}, "lon": -77.06950916666666, "fusion_lat": 0.0, "is_disabled": 0, "is_reserved": 0, "lat": 38.917359, "type": "electric_scooter"}, {"fusion_lon": 0.0, "bike_id": "ebb9011db89b6719619191008c6c2ff8", "name": "ebb9011db89b6719619191008c6c2ff8", "rental_uris": {"android": "https://dc.lft.to/lastmile_qr_scan", "ios": "https://dc.lft.to/lastmile_qr_scan"}, "lon": -77.03245733333333, "fusion_lat": 0.0, "is_disabled": 0, "is_reserved": 0, "lat": 38.93766083333333, "type": "electric_scooter"}, {"fusion_lon": 0.0, "bike_id": "f0ca3ba301068aa16bd009b95b79fc40", "name": "f0ca3ba301068aa16bd009b95b79fc40", "rental_uris": {"android": "https://dc.lft.to/lastmile_qr_scan", "ios": "https://dc.lft.to/lastmile_qr_scan"}, "lon": -77.04379533333334, "fusion_lat": 0.0, "is_disabled": 0, "is_reserved": 0, "lat": 38.907380833333335, "type": "electric_scooter"}, {"fusion_lon": 0.0, "bike_id": "9d55d2d3f3b41d4a337eec012cb2cde2", "name": "9d55d2d3f3b41d4a337eec012cb2cde2", "rental_uris": {"android": "https://dc.lft.to/lastmile_qr_scan", "ios": "https://dc.lft.to/lastmile_qr_scan"}, "lon": -77.029487, "fusion_lat": 0.0, "is_disabled": 0, "is_reserved": 0, "lat": 38.88405233333334, "type": "electric_scooter"}, {"fusion_lon": 0.0, "bike_id": "e7f739863cceb9835e41839aa5c532d7", "name": "e7f739863cceb9835e41839aa5c532d7", "rental_uris": {"android": "https://dc.lft.to/lastmile_qr_scan", "ios": "https://dc.lft.to/lastmile_qr_scan"}, "lon": -76.98443833333333, "fusion_lat": 0.0, "is_disabled": 0, "is_reserved": 0, "lat": 38.914355666666665, "type": "electric_scooter"}, {"fusion_lon": 0.0, "bike_id": "5e2465ed45ffbc15a9fa31a5945f4911", "name": "5e2465ed45ffbc15a9fa31a5945f4911", "rental_uris": {"android": "https://dc.lft.to/lastmile_qr_scan", "ios": "https://dc.lft.to/lastmile_qr_scan"}, "lon": -76.973297, "fusion_lat": 0.0, "is_disabled": 0, "is_reserved": 0, "lat": 38.904091666666666, "type": "electric_scooter"}, {"fusion_lon": 0.0, "bike_id": "41b21d715e7d75b58a8a6b2955b15e9e", "name": "41b21d715e7d75b58a8a6b2955b15e9e", "rental_uris": {"android": "https://dc.lft.to/lastmile_qr_scan", "ios": "https://dc.lft.to/lastmile_qr_scan"}, "lon": -77.03766716666667, "fusion_lat": 0.0, "is_disabled": 0, "is_reserved": 0, "lat": 38.92712566666667, "type": "electric_scooter"}, {"fusion_lon": 0.0, "bike_id": "9febcf466e2510174b1a7cbef0837f19", "name": "9febcf466e2510174b1a7cbef0837f19", "rental_uris": {"android": "https://dc.lft.to/lastmile_qr_scan", "ios": "https://dc.lft.to/lastmile_qr_scan"}, "lon": -77.02947133333333, "fusion_lat": 0.0, "is_disabled": 0, "is_reserved": 0, "lat": 38.942852, "type": "electric_scooter"}, {"fusion_lon": 0.0, "bike_id": "b61dfce93ca4ec6dfbb756127a88e61e", "name": "b61dfce93ca4ec6dfbb756127a88e61e", "rental_uris": {"android": "https://dc.lft.to/lastmile_qr_scan", "ios": "https://dc.lft.to/lastmile_qr_scan"}, "lon": -77.03179583333333, "fusion_lat": 0.0, "is_disabled": 0, "is_reserved": 0, "lat": 38.887332, "type": "electric_scooter"}, {"fusion_lon": 0.0, "bike_id": "c979d53f5cef462e32127de4ab9d70de", "name": "c979d53f5cef462e32127de4ab9d70de", "rental_uris": {"android": "https://dc.lft.to/lastmile_qr_scan", "ios": "https://dc.lft.to/lastmile_qr_scan"}, "lon": -77.0058545, "fusion_lat": 0.0, "is_disabled": 0, "is_reserved": 0, "lat": 38.877745, "type": "electric_scooter"}, {"fusion_lon": 0.0, "bike_id": "fc3a0b47a50ccd67a01b9b8c4f2603d8", "name": "fc3a0b47a50ccd67a01b9b8c4f2603d8", "rental_uris": {"android": "https://dc.lft.to/lastmile_qr_scan", "ios": "https://dc.lft.to/lastmile_qr_scan"}, "lon": -77.10715566666667, "fusion_lat": 0.0, "is_disabled": 0, "is_reserved": 0, "lat": 39.055829833333334, "type": "electric_bike"}, {"fusion_lon": 0.0, "bike_id": "a5472626bc6a9cdcef5a0ba5d1cc8a16", "name": "a5472626bc6a9cdcef5a0ba5d1cc8a16", "rental_uris": {"android": "https://dc.lft.to/lastmile_qr_scan", "ios": "https://dc.lft.to/lastmile_qr_scan"}, "lon": -77.04626883333333, "fusion_lat": 0.0, "is_disabled": 0, "is_reserved": 0, "lat": 38.903582666666665, "type": "electric_scooter"}, {"fusion_lon": 0.0, "bike_id": "ba4831326c9bb08fc2338fe537620e97", "name": "ba4831326c9bb08fc2338fe537620e97", "rental_uris": {"android": "https://dc.lft.to/lastmile_qr_scan", "ios": "https://dc.lft.to/lastmile_qr_scan"}, "lon": -77.034438, "fusion_lat": 0.0, "is_disabled": 0, "is_reserved": 0, "lat": 38.910007666666665, "type": "electric_bike"}, {"fusion_lon": 0.0, "bike_id": "597d6dafa5ed1d07a465fd9461f3d748", "name": "597d6dafa5ed1d07a465fd9461f3d748", "rental_uris": {"android": "https://dc.lft.to/lastmile_qr_scan", "ios": "https://dc.lft.to/lastmile_qr_scan"}, "lon": -77.06580816666667, "fusion_lat": 0.0, "is_disabled": 0, "is_reserved": 0, "lat": 38.9113495, "type": "electric_bike"}, {"fusion_lon": 0.0, "bike_id": "cc2b76f344ed308e404c426acdf1eb9b", "name": "cc2b76f344ed308e404c426acdf1eb9b", "rental_uris": {"android": "https://dc.lft.to/lastmile_qr_scan", "ios": "https://dc.lft.to/lastmile_qr_scan"}, "lon": -77.00293166666667, "fusion_lat": 0.0, "is_disabled": 0, "is_reserved": 0, "lat": 38.89237983333334, "type": "electric_scooter"}, {"fusion_lon": 0.0, "bike_id": "ba6732f22f0371a5237bc0e186038daa", "name": "ba6732f22f0371a5237bc0e186038daa", "rental_uris": {"android": "https://dc.lft.to/lastmile_qr_scan", "ios": "https://dc.lft.to/lastmile_qr_scan"}, "lon": -77.04665133333333, "fusion_lat": 0.0, "is_disabled": 0, "is_reserved": 0, "lat": 38.910374, "type": "electric_scooter"}, {"fusion_lon": 0.0, "bike_id": "01ff46c04e4b0ba8434158645e34f413", "name": "01ff46c04e4b0ba8434158645e34f413", "rental_uris": {"android": "https://dc.lft.to/lastmile_qr_scan", "ios": "https://dc.lft.to/lastmile_qr_scan"}, "lon": -77.01827166666666, "fusion_lat": 0.0, "is_disabled": 0, "is_reserved": 0, "lat": 38.9226365, "type": "electric_scooter"}, {"fusion_lon": 0.0, "bike_id": "e678178c98abb2a735a4b148533cbb4a", "name": "e678178c98abb2a735a4b148533cbb4a", "rental_uris": {"android": "https://dc.lft.to/lastmile_qr_scan", "ios": "https://dc.lft.to/lastmile_qr_scan"}, "lon": -77.00191416666667, "fusion_lat": 0.0, "is_disabled": 0, "is_reserved": 0, "lat": 38.87408533333333, "type": "electric_scooter"}, {"fusion_lon": 0.0, "bike_id": "e7c42653e063022f9d646776f792a30c", "name": "e7c42653e063022f9d646776f792a30c", "rental_uris": {"android": "https://dc.lft.to/lastmile_qr_scan", "ios": "https://dc.lft.to/lastmile_qr_scan"}, "lon": -77.0517035, "fusion_lat": 0.0, "is_disabled": 0, "is_reserved": 0, "lat": 38.92347183333333, "type": "electric_scooter"}, {"fusion_lon": 0.0, "bike_id": "93adf138eae5f22033bf7c5702f0befa", "name": "93adf138eae5f22033bf7c5702f0befa", "rental_uris": {"android": "https://dc.lft.to/lastmile_qr_scan", "ios": "https://dc.lft.to/lastmile_qr_scan"}, "lon": -77.0181935, "fusion_lat": 0.0, "is_disabled": 0, "is_reserved": 0, "lat": 38.9007925, "type": "electric_scooter"}, {"fusion_lon": 0.0, "bike_id": "47ca7a4fb3e4831b41c0aca7068599e7", "name": "47ca7a4fb3e4831b41c0aca7068599e7", "rental_uris": {"android": "https://dc.lft.to/lastmile_qr_scan", "ios": "https://dc.lft.to/lastmile_qr_scan"}, "lon": -77.064526, "fusion_lat": 0.0, "is_disabled": 0, "is_reserved": 0, "lat": 38.90524116666667, "type": "electric_scooter"}, {"fusion_lon": 0.0, "bike_id": "8c5e48a525261351226c358f4ad5f11d", "name": "8c5e48a525261351226c358f4ad5f11d", "rental_uris": {"android": "https://dc.lft.to/lastmile_qr_scan", "ios": "https://dc.lft.to/lastmile_qr_scan"}, "lon": -77.0386635, "fusion_lat": 0.0, "is_disabled": 0, "is_reserved": 0, "lat": 38.91710283333333, "type": "electric_scooter"}, {"fusion_lon": 0.0, "bike_id": "d42b00ecd9d79caf58b51b83542f997d", "name": "d42b00ecd9d79caf58b51b83542f997d", "rental_uris": {"android": "https://dc.lft.to/lastmile_qr_scan", "ios": "https://dc.lft.to/lastmile_qr_scan"}, "lon": -77.041636, "fusion_lat": 0.0, "is_disabled": 0, "is_reserved": 0, "lat": 38.892393166666665, "type": "electric_scooter"}, {"fusion_lon": 0.0, "bike_id": "b70eee7668ad2a940821729a27b564e0", "name": "b70eee7668ad2a940821729a27b564e0", "rental_uris": {"android": "https://dc.lft.to/lastmile_qr_scan", "ios": "https://dc.lft.to/lastmile_qr_scan"}, "lon": -77.01967833333333, "fusion_lat": 0.0, "is_disabled": 0, "is_reserved": 0, "lat": 38.921951166666666, "type": "electric_scooter"}, {"fusion_lon": 0.0, "bike_id": "9d13035d122d1336a8b570b7f0ab0e21", "name": "9d13035d122d1336a8b570b7f0ab0e21", "rental_uris": {"android": "https://dc.lft.to/lastmile_qr_scan", "ios": "https://dc.lft.to/lastmile_qr_scan"}, "lon": -76.99798066666666, "fusion_lat": 0.0, "is_disabled": 0, "is_reserved": 0, "lat": 38.885629, "type": "electric_scooter"}, {"fusion_lon": 0.0, "bike_id": "42a01c6574ce74801f78183dd9286490", "name": "42a01c6574ce74801f78183dd9286490", "rental_uris": {"android": "https://dc.lft.to/lastmile_qr_scan", "ios": "https://dc.lft.to/lastmile_qr_scan"}, "lon": -77.04000616666667, "fusion_lat": 0.0, "is_disabled": 0, "is_reserved": 0, "lat": 38.91628816666667, "type": "electric_scooter"}, {"fusion_lon": 0.0, "bike_id": "d0b254db3f42980a3d19c820ab2fbd82", "name": "d0b254db3f42980a3d19c820ab2fbd82", "rental_uris": {"android": "https://dc.lft.to/lastmile_qr_scan", "ios": "https://dc.lft.to/lastmile_qr_scan"}, "lon": -77.062666, "fusion_lat": 0.0, "is_disabled": 0, "is_reserved": 0, "lat": 38.904117, "type": "electric_scooter"}, {"fusion_lon": 0.0, "bike_id": "810e42e330c4e1bee43ebf8860a88af5", "name": "810e42e330c4e1bee43ebf8860a88af5", "rental_uris": {"android": "https://dc.lft.to/lastmile_qr_scan", "ios": "https://dc.lft.to/lastmile_qr_scan"}, "lon": -77.00874233333333, "fusion_lat": 0.0, "is_disabled": 0, "is_reserved": 0, "lat": 38.87918333333333, "type": "electric_scooter"}, {"fusion_lon": 0.0, "bike_id": "663d5b75a0eea708b7d3ce45dd537adb", "name": "663d5b75a0eea708b7d3ce45dd537adb", "rental_uris": {"android": "https://dc.lft.to/lastmile_qr_scan", "ios": "https://dc.lft.to/lastmile_qr_scan"}, "lon": -77.036189, "fusion_lat": 0.0, "is_disabled": 0, "is_reserved": 0, "lat": 38.93326233333333, "type": "electric_scooter"}, {"fusion_lon": 0.0, "bike_id": "6a41062513b74f75ad4b495e1950d744", "name": "6a41062513b74f75ad4b495e1950d744", "rental_uris": {"android": "https://dc.lft.to/lastmile_qr_scan", "ios": "https://dc.lft.to/lastmile_qr_scan"}, "lon": -77.021006, "fusion_lat": 0.0, "is_disabled": 0, "is_reserved": 0, "lat": 38.904266, "type": "electric_scooter"}, {"fusion_lon": 0.0, "bike_id": "587fbad6d1f34c9f1510a9d85519412b", "name": "587fbad6d1f34c9f1510a9d85519412b", "rental_uris": {"android": "https://dc.lft.to/lastmile_qr_scan", "ios": "https://dc.lft.to/lastmile_qr_scan"}, "lon": -77.0126335, "fusion_lat": 0.0, "is_disabled": 0, "is_reserved": 0, "lat": 38.900142, "type": "electric_scooter"}, {"fusion_lon": 0.0, "bike_id": "38f8859208b6fc32bed91d07aa959c54", "name": "38f8859208b6fc32bed91d07aa959c54", "rental_uris": {"android": "https://dc.lft.to/lastmile_qr_scan", "ios": "https://dc.lft.to/lastmile_qr_scan"}, "lon": -77.07699016666666, "fusion_lat": 0.0, "is_disabled": 0, "is_reserved": 0, "lat": 38.931556, "type": "electric_scooter"}, {"fusion_lon": 0.0, "bike_id": "624211d310449f90d0a31f27f8937d9e", "name": "624211d310449f90d0a31f27f8937d9e", "rental_uris": {"android": "https://dc.lft.to/lastmile_qr_scan", "ios": "https://dc.lft.to/lastmile_qr_scan"}, "lon": -76.98887083333334, "fusion_lat": 0.0, "is_disabled": 0, "is_reserved": 0, "lat": 38.861148, "type": "electric_scooter"}, {"fusion_lon": 0.0, "bike_id": "398d63584ecf34f060d321b0fd8c41a9", "name": "398d63584ecf34f060d321b0fd8c41a9", "rental_uris": {"android": "https://dc.lft.to/lastmile_qr_scan", "ios": "https://dc.lft.to/lastmile_qr_scan"}, "lon": -77.00451516666666, "fusion_lat": 0.0, "is_disabled": 0, "is_reserved": 0, "lat": 38.8379335, "type": "electric_scooter"}, {"fusion_lon": 0.0, "bike_id": "11cf0fb1220c0f7ce87b38ae3d5e2c84", "name": "11cf0fb1220c0f7ce87b38ae3d5e2c84", "rental_uris": {"android": "https://dc.lft.to/lastmile_qr_scan", "ios": "https://dc.lft.to/lastmile_qr_scan"}, "lon": -77.02746966666666, "fusion_lat": 0.0, "is_disabled": 0, "is_reserved": 0, "lat": 38.96609683333333, "type": "electric_scooter"}, {"fusion_lon": 0.0, "bike_id": "d2f332aa850460774d5d6a2451de8479", "name": "d2f332aa850460774d5d6a2451de8479", "rental_uris": {"android": "https://dc.lft.to/lastmile_qr_scan", "ios": "https://dc.lft.to/lastmile_qr_scan"}, "lon": -77.04228016666667, "fusion_lat": 0.0, "is_disabled": 0, "is_reserved": 0, "lat": 38.907556166666666, "type": "electric_scooter"}, {"fusion_lon": 0.0, "bike_id": "615abfa8295b1662a98a2634fbdb5156", "name": "615abfa8295b1662a98a2634fbdb5156", "rental_uris": {"android": "https://dc.lft.to/lastmile_qr_scan", "ios": "https://dc.lft.to/lastmile_qr_scan"}, "lon": -77.05036816666667, "fusion_lat": 0.0, "is_disabled": 0, "is_reserved": 0, "lat": 38.89622283333333, "type": "electric_scooter"}, {"fusion_lon": 0.0, "bike_id": "174aa9c933987218a7589b7848feab50", "name": "174aa9c933987218a7589b7848feab50", "rental_uris": {"android": "https://dc.lft.to/lastmile_qr_scan", "ios": "https://dc.lft.to/lastmile_qr_scan"}, "lon": -77.04742216666666, "fusion_lat": 0.0, "is_disabled": 0, "is_reserved": 0, "lat": 39.000305166666664, "type": "electric_bike"}, {"fusion_lon": 0.0, "bike_id": "8b08bb1d8ef1a3a566d8978d99757fe3", "name": "8b08bb1d8ef1a3a566d8978d99757fe3", "rental_uris": {"android": "https://dc.lft.to/lastmile_qr_scan", "ios": "https://dc.lft.to/lastmile_qr_scan"}, "lon": -77.07267883333333, "fusion_lat": 0.0, "is_disabled": 0, "is_reserved": 0, "lat": 38.936313, "type": "electric_scooter"}, {"fusion_lon": 0.0, "bike_id": "c01c928c3f2769d3196c51174cfc1c52", "name": "c01c928c3f2769d3196c51174cfc1c52", "rental_uris": {"android": "https://dc.lft.to/lastmile_qr_scan", "ios": "https://dc.lft.to/lastmile_qr_scan"}, "lon": -77.07228783333333, "fusion_lat": 0.0, "is_disabled": 0, "is_reserved": 0, "lat": 38.93847366666667, "type": "electric_scooter"}, {"fusion_lon": 0.0, "bike_id": "ff3c688af05a24ed6717cf5ce18731b8", "name": "ff3c688af05a24ed6717cf5ce18731b8", "rental_uris": {"android": "https://dc.lft.to/lastmile_qr_scan", "ios": "https://dc.lft.to/lastmile_qr_scan"}, "lon": -77.03188466666667, "fusion_lat": 0.0, "is_disabled": 0, "is_reserved": 0, "lat": 38.916366833333335, "type": "electric_scooter"}, {"fusion_lon": 0.0, "bike_id": "cad1bf19cee47e2915506c161887f1e7", "name": "cad1bf19cee47e2915506c161887f1e7", "rental_uris": {"android": "https://dc.lft.to/lastmile_qr_scan", "ios": "https://dc.lft.to/lastmile_qr_scan"}, "lon": -77.03324133333334, "fusion_lat": 0.0, "is_disabled": 0, "is_reserved": 0, "lat": 38.887735, "type": "electric_scooter"}, {"fusion_lon": 0.0, "bike_id": "bf7390b30047c72db7ba3fcf4ee611e2", "name": "bf7390b30047c72db7ba3fcf4ee611e2", "rental_uris": {"android": "https://dc.lft.to/lastmile_qr_scan", "ios": "https://dc.lft.to/lastmile_qr_scan"}, "lon": -77.05445966666667, "fusion_lat": 0.0, "is_disabled": 0, "is_reserved": 0, "lat": 38.92863333333333, "type": "electric_scooter"},