{"data": {"bikes": [{"fusion_lat": 0.0, "name": "d5e7de58f519873784727b33c0024c9d", "is_disabled": 0, "rental_uris": {"android": "https://dc.lft.to/lastmile_qr_scan", "ios": "https://dc.lft.to/lastmile_qr_scan"}, "fusion_lon": 0.0, "lat": 38.8997835, "bike_id": "d5e7de58f519873784727b33c0024c9d", "type": "electric_scooter", "is_reserved": 0, "lon": -77.02216816666666}, {"fusion_lat": 0.0, "name": "244c17c086dc49e9d6f755c054fb088b", "is_disabled": 0, "rental_uris": {"android": "https://dc.lft.to/lastmile_qr_scan", "ios": "https://dc.lft.to/lastmile_qr_scan"}, "fusion_lon": 0.0, "lat": 38.90496, "bike_id": "244c17c086dc49e9d6f755c054fb088b", "type": "electric_scooter", "is_reserved": 0, "lon": -77.0511815}, {"fusion_lat": 0.0, "name": "a48409faa1071d716b3385260fcba59a", "is_disabled": 0, "rental_uris": {"android": "https://dc.lft.to/lastmile_qr_scan", "ios": "https://dc.lft.to/lastmile_qr_scan"}, "fusion_lon": 0.0, "lat": 38.912624666666666, "bike_id": "a48409faa1071d716b3385260fcba59a", "type": "electric_scooter", "is_reserved": 0, "lon": -77.038815}, {"fusion_lat": 0.0, "name": "ff7f68bec5136a526a7176a702d04711", "is_disabled": 0, "rental_uris": {"android": "https://dc.lft.to/lastmile_qr_scan", "ios": "https://dc.lft.to/lastmile_qr_scan"}, "fusion_lon": 0.0, "lat": 38.8621335, "bike_id": "ff7f68bec5136a526a7176a702d04711", "type": "electric_bike", "is_reserved": 0, "lon": -76.9955285}, {"fusion_lat": 0.0, "name": "c51a1a24fbd034b7386527b76945bdbe", "is_disabled": 0, "rental_uris": {"android": "https://dc.lft.to/lastmile_qr_scan", "ios": "https://dc.lft.to/lastmile_qr_scan"}, "fusion_lon": 0.0, "lat": 38.87768916666667, "bike_id": "c51a1a24fbd034b7386527b76945bdbe", "type": "electric_scooter", "is_reserved": 0, "lon": -76.99380683333334}, {"fusion_lat": 0.0, "name": "207a3450afd0f399990c94e396be6b1e", "is_disabled": 0, "rental_uris": {"android": "https://dc.lft.to/lastmile_qr_scan", "ios": "https://dc.lft.to/lastmile_qr_scan"}, "fusion_lon": 0.0, "lat": 38.899205333333335, "bike_id": "207a3450afd0f399990c94e396be6b1e", "type": "electric_scooter", "is_reserved": 0, "lon": -77.04162783333334}, {"fusion_lat": 0.0, "name": "7fd4112b5a726767754ac3bda91433ff", "is_disabled": 0, "rental_uris": {"android": "https://dc.lft.to/lastmile_qr_scan", "ios": "https://dc.lft.to/lastmile_qr_scan"}, "fusion_lon": 0.0, "lat": 38.93307816666667, "bike_id": "7fd4112b5a726767754ac3bda91433ff", "type": "electric_scooter", "is_reserved": 0, "lon": -77.03082116666667}, {"fusion_lat": 0.0, "name": "220bab790304ab8e724f660d01bb7e46", "is_disabled": 0, "rental_uris": {"android": "https://dc.lft.to/lastmile_qr_scan", "ios": "https://dc.lft.to/lastmile_qr_scan"}, "fusion_lon": 0.0, "lat": 38.89632, "bike_id": "220bab790304ab8e724f660d01bb7e46", "type": "electric_scooter", "is_reserved": 0, "lon": -77.033778}, {"fusion_lat": 0.0, "name": "62a59647b7ea445b6d44f5e5d026f28e", "is_disabled": 0, "rental_uris": {"android": "https://dc.lft.to/lastmile_qr_scan", "ios": "https://dc.lft.to/lastmile_qr_scan"}, "fusion_lon": 0.0, "lat": 38.9058025, "bike_id": "62a59647b7ea445b6d44f5e5d026f28e", "type": "electric_scooter", "is_reserved": 0, "lon": -77.038462}, {"fusion_lat": 0.0, "name": "c37654e3ee37c2836ec12bf0b621d866", "is_disabled": 0, "rental_uris": {"android": "https://dc.lft.to/lastmile_qr_scan", "ios": "https://dc.lft.to/lastmile_qr_scan"}, "fusion_lon": 0.0, "lat": 38.90030316666667, "bike_id": "c37654e3ee37c2836ec12bf0b621d866", "type": "electric_scooter", "is_reserved": 0, "lon": -77.03996066666667}, {"fusion_lat": 0.0, "name": "9ffb26d3334e2500679947e4cfbf3e96", "is_disabled": 0, "rental_uris": {"android": "https://dc.lft.to/lastmile_qr_scan", "ios": "https://dc.lft.to/lastmile_qr_scan"}, "fusion_lon": 0.0, "lat": 38.904107333333336, "bike_id": "9ffb26d3334e2500679947e4cfbf3e96", "type": "electric_scooter", "is_reserved": 0, "lon": -76.9732895}, {"fusion_lat": 0.0, "name": "ef5f1066425ccc4793470ef2d4566dc0", "is_disabled": 0, "rental_uris": {"android": "https://dc.lft.to/lastmile_qr_scan", "ios": "https://dc.lft.to/lastmile_qr_scan"}, "fusion_lon": 0.0, "lat": 38.92253766666666, "bike_id": "ef5f1066425ccc4793470ef2d4566dc0", "type": "electric_scooter", "is_reserved": 0, "lon": -77.01843933333333}, {"fusion_lat": 0.0, "name": "be0032bdccb22949d0fd3a22e77ec7da", "is_disabled": 0, "rental_uris": {"android": "https://dc.lft.to/lastmile_qr_scan", "ios": "https://dc.lft.to/lastmile_qr_scan"}, "fusion_lon": 0.0, "lat": 38.89206183333334, "bike_id": "be0032bdccb22949d0fd3a22e77ec7da", "type": "electric_scooter", "is_reserved": 0, "lon": -76.97704233333333}, {"fusion_lat": 0.0, "name": "17ee5c7e5224873625f1c3d7d7e4314c", "is_disabled": 0, "rental_uris": {"android": "https://dc.lft.to/lastmile_qr_scan", "ios": "https://dc.lft.to/lastmile_qr_scan"}, "fusion_lon": 0.0, "lat": 38.90644266666666, "bike_id": "17ee5c7e5224873625f1c3d7d7e4314c", "type": "electric_scooter", "is_reserved": 0, "lon": -77.01793633333334}, {"fusion_lat": 0.0, "name": "18826090e8af6b2a955a1f60118c845f", "is_disabled": 0, "rental_uris": {"android": "https://dc.lft.to/lastmile_qr_scan", "ios": "https://dc.lft.to/lastmile_qr_scan"}, "fusion_lon": 0.0, "lat": 38.90897283333334, "bike_id": "18826090e8af6b2a955a1f60118c845f", "type": "electric_scooter", "is_reserved": 0, "lon": -77.03285366666667}, {"fusion_lat": 0.0, "name": "967a98551c7dbae1c2abc7127cfe59bf", "is_disabled": 0, "rental_uris": {"android": "https://dc.lft.to/lastmile_qr_scan", "ios": "https://dc.lft.to/lastmile_qr_scan"}, "fusion_lon": 0.0, "lat": 38.927914333333334, "bike_id": "967a98551c7dbae1c2abc7127cfe59bf", "type": "electric_scooter", "is_reserved": 0, "lon": -77.03207933333333}, {"fusion_lat": 0.0, "name": "0b42a23a3f746675076a2b1f4f0b58fb", "is_disabled": 0, "rental_uris": {"android": "https://dc.lft.to/lastmile_qr_scan", "ios": "https://dc.lft.to/lastmile_qr_scan"}, "fusion_lon": 0.0, "lat": 38.89969683333333, "bike_id": "0b42a23a3f746675076a2b1f4f0b58fb", "type": "electric_scooter", "is_reserved": 0, "lon": -77.02401883333333}, {"fusion_lat": 0.0, "name": "706ea0584a4c885214f0dce914708a35", "is_disabled": 0, "rental_uris": {"android": "https://dc.lft.to/lastmile_qr_scan", "ios": "https://dc.lft.to/lastmile_qr_scan"}, "fusion_lon": 0.0, "lat": 38.90376066666666, "bike_id": "706ea0584a4c885214f0dce914708a35", "type": "electric_scooter", "is_reserved": 0, "lon": -77.01844716666666}, {"fusion_lat": 0.0, "name": "7f92215acae4b1e6ff85cb940a3e2ac2", "is_disabled": 0, "rental_uris": {"android": "https://dc.lft.to/lastmile_qr_scan", "ios": "https://dc.lft.to/lastmile_qr_scan"}, "fusion_lon": 0.0, "lat": 38.917651666666664, "bike_id": "7f92215acae4b1e6ff85cb940a3e2ac2", "type": "electric_scooter", "is_reserved": 0, "lon": -77.03642333333333}, {"fusion_lat": 0.0, "name": "3b101ccaf0f41e2ec8d42ed8dcf2ce60", "is_disabled": 0, "rental_uris": {"android": "https://dc.lft.to/lastmile_qr_scan", "ios": "https://dc.lft.to/lastmile_qr_scan"}, "fusion_lon": 0.0, "lat": 38.912926, "bike_id": "3b101ccaf0f41e2ec8d42ed8dcf2ce60", "type": "electric_scooter", "is_reserved": 0, "lon": -77.04877666666667}, {"fusion_lat": 0.0, "name": "a34d215199a2d91e5b177cd53abf516e", "is_disabled": 0, "rental_uris": {"android": "https://dc.lft.to/lastmile_qr_scan", "ios": "https://dc.lft.to/lastmile_qr_scan"}, "fusion_lon": 0.0, "lat": 38.804951, "bike_id": "a34d215199a2d91e5b177cd53abf516e", "type": "electric_bike", "is_reserved": 0, "lon": -77.10160316666666}, {"fusion_lat": 0.0, "name": "d8bce0455c5e2d66e0fad43f516b8369", "is_disabled": 0, "rental_uris": {"android": "https://dc.lft.to/lastmile_qr_scan", "ios": "https://dc.lft.to/lastmile_qr_scan"}, "fusion_lon": 0.0, "lat": 38.92500616666667, "bike_id": "d8bce0455c5e2d66e0fad43f516b8369", "type": "electric_scooter", "is_reserved": 0, "lon": -77.02141933333333}, {"fusion_lat": 0.0, "name": "4832fa3ff74ef464ab445e099e8483e9", "is_disabled": 0, "rental_uris": {"android": "https://dc.lft.to/lastmile_qr_scan", "ios": "https://dc.lft.to/lastmile_qr_scan"}, "fusion_lon": 0.0, "lat": 38.919660666666665, "bike_id": "4832fa3ff74ef464ab445e099e8483e9", "type": "electric_scooter", "is_reserved": 0, "lon": -77.07110233333333}, {"fusion_lat": 0.0, "name": "8084994bd2b08c6dfb5b1c6c78cc1ae9", "is_disabled": 0, "rental_uris": {"android": "https://dc.lft.to/lastmile_qr_scan", "ios": "https://dc.lft.to/lastmile_qr_scan"}, "fusion_lon": 0.0, "lat": 38.86168933333333, "bike_id": "8084994bd2b08c6dfb5b1c6c78cc1ae9", "type": "electric_scooter", "is_reserved": 0, "lon": -76.98366516666667}, {"fusion_lat": 0.0, "name": "c89705195250712d3aabd6e155ac84b3", "is_disabled": 0, "rental_uris": {"android": "https://dc.lft.to/lastmile_qr_scan", "ios": "https://dc.lft.to/lastmile_qr_scan"}, "fusion_lon": 0.0, "lat": 38.94899266666667, "bike_id": "c89705195250712d3aabd6e155ac84b3", "type": "electric_bike", "is_reserved": 0, "lon": -76.96373333333334}, {"fusion_lat": 0.0, "name": "1b95a1170ab7c3c1db8b776b4e9801e3", "is_disabled": 0, "rental_uris": {"android": "https://dc.lft.to/lastmile_qr_scan", "ios": "https://dc.lft.to/lastmile_qr_scan"}, "fusion_lon": 0.0, "lat": 38.89287383333333, "bike_id": "1b95a1170ab7c3c1db8b776b4e9801e3", "type": "electric_scooter", "is_reserved": 0, "lon": -76.983071}, {"fusion_lat": 0.0, "name": "d540ca45dd85e7f754b01a3f68561b9d", "is_disabled": 0, "rental_uris": {"android": "https://dc.lft.to/lastmile_qr_scan", "ios": "https://dc.lft.to/lastmile_qr_scan"}, "fusion_lon": 0.0, "lat": 38.9200605, "bike_id": "d540ca45dd85e7f754b01a3f68561b9d", "type": "electric_scooter", "is_reserved": 0, "lon": -77.03138516666667}, {"fusion_lat": 0.0, "name": "887e8c01ea27d559b888cc7cee0f40a7", "is_disabled": 0, "rental_uris": {"android": "https://dc.lft.to/lastmile_qr_scan", "ios": "https://dc.lft.to/lastmile_qr_scan"}, "fusion_lon": 0.0, "lat": 38.9207405, "bike_id": "887e8c01ea27d559b888cc7cee0f40a7", "type": "electric_scooter", "is_reserved": 0, "lon": -77.0021165}, {"fusion_lat": 0.0, "name": "3cf1bd1166da94cb9a1e74d183e1770b", "is_disabled": 0, "rental_uris": {"android": "https://dc.lft.to/lastmile_qr_scan", "ios": "https://dc.lft.to/lastmile_qr_scan"}, "fusion_lon": 0.0, "lat": 38.93597283333333, "bike_id": "3cf1bd1166da94cb9a1e74d183e1770b", "type": "electric_scooter", "is_reserved": 0, "lon": -77.02285383333333}, {"fusion_lat": 0.0, "name": "7411ae38ab5687d2d6f808ccb2b44c63", "is_disabled": 0, "rental_uris": {"android": "https://dc.lft.to/lastmile_qr_scan", "ios": "https://dc.lft.to/lastmile_qr_scan"}, "fusion_lon": 0.0, "lat": 38.907882, "bike_id": "7411ae38ab5687d2d6f808ccb2b44c63", "type": "electric_scooter", "is_reserved": 0, "lon": -77.02959216666666}, {"fusion_lat": 0.0, "name": "9d1f930442da080da9a7f26400a2f6c6", "is_disabled": 0, "rental_uris": {"android": "https://dc.lft.to/lastmile_qr_scan", "ios": "https://dc.lft.to/lastmile_qr_scan"}, "fusion_lon": 0.0, "lat": 38.91390366666667, "bike_id": "9d1f930442da080da9a7f26400a2f6c6", "type": "electric_scooter", "is_reserved": 0, "lon": -77.03321583333333}, {"fusion_lat": 0.0, "name": "1a1fc06a5f48634028fdda1c659a572f", "is_disabled": 0, "rental_uris": {"android": "https://dc.lft.to/lastmile_qr_scan", "ios": "https://dc.lft.to/lastmile_qr_scan"}, "fusion_lon": 0.0, "lat": 38.89903533333333, "bike_id": "1a1fc06a5f48634028fdda1c659a572f", "type": "electric_scooter", "is_reserved": 0, "lon": -77.056696}, {"fusion_lat": 0.0, "name": "8d0c1ff28bd5b81cb6b052387ee3bc8d", "is_disabled": 0, "rental_uris": {"android": "https://dc.lft.to/lastmile_qr_scan", "ios": "https://dc.lft.to/lastmile_qr_scan"}, "fusion_lon": 0.0, "lat": 38.91801433333333, "bike_id": "8d0c1ff28bd5b81cb6b052387ee3bc8d", "type": "electric_scooter", "is_reserved": 0, "lon": -77.00909216666666}, {"fusion_lat": 0.0, "name": "49c1e60dc37567e73f63a7c4db55b82b", "is_disabled": 0, "rental_uris": {"android": "https://dc.lft.to/lastmile_qr_scan", "ios": "https://dc.lft.to/lastmile_qr_scan"}, "fusion_lon": 0.0, "lat": 38.89165, "bike_id": "49c1e60dc37567e73f63a7c4db55b82b", "type": "electric_scooter", "is_reserved": 0, "lon": -76.99462933333334}, {"fusion_lat": 0.0, "name": "7aaae95b4f4d8d95270e216edbbe9664", "is_disabled": 0, "rental_uris": {"android": "https://dc.lft.to/lastmile_qr_scan", "ios": "https://dc.lft.to/lastmile_qr_scan"}, "fusion_lon": 0.0, "lat": 38.89069333333333, "bike_id": "7aaae95b4f4d8d95270e216edbbe9664", "type": "electric_scooter", "is_reserved": 0, "lon": -76.9445645}, {"fusion_lat": 0.0, "name": "5566653a71e4329300772dac029428c8", "is_disabled": 0, "rental_uris": {"android": "https://dc.lft.to/lastmile_qr_scan", "ios": "https://dc.lft.to/lastmile_qr_scan"}, "fusion_lon": 0.0, "lat": 38.92515566666667, "bike_id": "5566653a71e4329300772dac029428c8", "type": "electric_scooter", "is_reserved": 0, "lon": -76.99569716666667}, {"fusion_lat": 0.0, "name": "a45092b15e8af09ae9d5199639600094", "is_disabled": 0, "rental_uris": {"android": "https://dc.lft.to/lastmile_qr_scan", "ios": "https://dc.lft.to/lastmile_qr_scan"}, "fusion_lon": 0.0, "lat": 38.91682183333333, "bike_id": "a45092b15e8af09ae9d5199639600094", "type": "electric_scooter", "is_reserved": 0, "lon": -77.03686816666666}, {"fusion_lat": 0.0, "name": "9a153eb3f51c2bcc0c597ea17ceafd53", "is_disabled": 0, "rental_uris": {"android": "https://dc.lft.to/lastmile_qr_scan", "ios": "https://dc.lft.to/lastmile_qr_scan"}, "fusion_lon": 0.0, "lat": 38.931923, "bike_id": "9a153eb3f51c2bcc0c597ea17ceafd53", "type": "electric_scooter", "is_reserved": 0, "lon": -77.02795766666667}, {"fusion_lat": 0.0, "name": "424b0597cca075771ab356c40a0cd79d", "is_disabled": 0, "rental_uris": {"android": "https://dc.lft.to/lastmile_qr_scan", "ios": "https://dc.lft.to/lastmile_qr_scan"}, "fusion_lon": 0.0, "lat": 38.899355166666666, "bike_id": "424b0597cca075771ab356c40a0cd79d", "type": "electric_scooter", "is_reserved": 0, "lon": -77.003623}, {"fusion_lat": 0.0, "name": "6f7bfaf5aa228a5493d688d24241ba74", "is_disabled": 0, "rental_uris": {"android": "https://dc.lft.to/lastmile_qr_scan", "ios": "https://dc.lft.to/lastmile_qr_scan"}, "fusion_lon": 0.0, "lat": 38.956430833333336, "bike_id": "6f7bfaf5aa228a5493d688d24241ba74", "type": "electric_scooter", "is_reserved": 0, "lon": -77.02411833333333}, {"fusion_lat": 0.0, "name": "0222c5c45b3e3558b9fd983e1440a661", "is_disabled": 0, "rental_uris": {"android": "https://dc.lft.to/lastmile_qr_scan", "ios": "https://dc.lft.to/lastmile_qr_scan"}, "fusion_lon": 0.0, "lat": 38.89534166666667, "bike_id": "0222c5c45b3e3558b9fd983e1440a661", "type": "electric_scooter", "is_reserved": 0, "lon": -77.01195333333334}, {"fusion_lat": 0.0, "name": "ff506c8c7ec75a0f026bdbc30c2f4f83", "is_disabled": 0, "rental_uris": {"android": "https://dc.lft.to/lastmile_qr_scan", "ios": "https://dc.lft.to/lastmile_qr_scan"}, "fusion_lon": 0.0, "lat": 38.9192975, "bike_id": "ff506c8c7ec75a0f026bdbc30c2f4f83", "type": "electric_scooter", "is_reserved": 0, "lon": -77.07078383333334}, {"fusion_lat": 0.0, "name": "889c474b2172f4d710beb7d3f63bb270", "is_disabled": 0, "rental_uris": {"android": "https://dc.lft.to/lastmile_qr_scan", "ios": "https://dc.lft.to/lastmile_qr_scan"}, "fusion_lon": 0.0, "lat": 38.92118116666666, "bike_id": "889c474b2172f4d710beb7d3f63bb270", "type": "electric_scooter", "is_reserved": 0, "lon": -77.04425933333333}, {"fusion_lat": 0.0, "name": "60daf3a201184bf5155f19945b88c5b5", "is_disabled": 0, "rental_uris": {"android": "https://dc.lft.to/lastmile_qr_scan", "ios": "https://dc.lft.to/lastmile_qr_scan"}, "fusion_lon": 0.0, "lat": 38.91030583333333, "bike_id": "60daf3a201184bf5155f19945b88c5b5", "type": "electric_scooter", "is_reserved": 0, "lon": -77.00915566666667}, {"fusion_lat": 0.0, "name": "f1739940a4468009fa67264b474b91d4", "is_disabled": 0, "rental_uris": {"android": "https://dc.lft.to/lastmile_qr_scan", "ios": "https://dc.lft.to/lastmile_qr_scan"}, "fusion_lon": 0.0, "lat": 38.80022616666667, "bike_id": "f1739940a4468009fa67264b474b91d4", "type": "electric_bike", "is_reserved": 0, "lon": -77.05479533333333}, {"fusion_lat": 0.0, "name": "1755524076e2f34a036b110d8f0c09c3", "is_disabled": 0, "rental_uris": {"android": "https://dc.lft.to/lastmile_qr_scan", "ios": "https://dc.lft.to/lastmile_qr_scan"}, "fusion_lon": 0.0, "lat": 38.9046795, "bike_id": "1755524076e2f34a036b110d8f0c09c3", "type": "electric_scooter", "is_reserved": 0, "lon": -77.043463}, {"fusion_lat": 0.0, "name": "cf81d792eae92855e3e9c4296dc51e44", "is_disabled": 0, "rental_uris": {"android": "https://dc.lft.to/lastmile_qr_scan", "ios": "https://dc.lft.to/lastmile_qr_scan"}, "fusion_lon": 0.0, "lat": 38.933082, "bike_id": "cf81d792eae92855e3e9c4296dc51e44", "type": "electric_scooter", "is_reserved": 0, "lon": -77.03262383333333}, {"fusion_lat": 0.0, "name": "13b70fe495a5fe2b33281bf4b0f0613c", "is_disabled": 0, "rental_uris": {"android": "https://dc.lft.to/lastmile_qr_scan", "ios": "https://dc.lft.to/lastmile_qr_scan"}, "fusion_lon": 0.0, "lat": 38.916929, "bike_id": "13b70fe495a5fe2b33281bf4b0f0613c", "type": "electric_scooter", "is_reserved": 0, "lon": -77.03345616666667}, {"fusion_lat": 0.0, "name": "5cf44707ea8aa52836216a3e8aab71cf", "is_disabled": 0, "rental_uris": {"android": "https://dc.lft.to/lastmile_qr_scan", "ios": "https://dc.lft.to/lastmile_qr_scan"}, "fusion_lon": 0.0, "lat": 38.90617066666667, "bike_id": "5cf44707ea8aa52836216a3e8aab71cf", "type": "electric_scooter", "is_reserved": 0, "lon": -77.02410883333333}, {"fusion_lat": 0.0, "name": "8e92627f27a78e32ac1802dca3c45163", "is_disabled": 0, "rental_uris": {"android": "https://dc.lft.to/lastmile_qr_scan", "ios": "https://dc.lft.to/lastmile_qr_scan"}, "fusion_lon": 0.0, "lat": 38.87332466666667, "bike_id": "8e92627f27a78e32ac1802dca3c45163", "type": "electric_bike", "is_reserved": 0, "lon": -77.082121}, {"fusion_lat": 0.0, "name": "916877deca52db562a45320a4186dfd0", "is_disabled": 0, "rental_uris": {"android": "https://dc.lft.to/lastmile_qr_scan", "ios": "https://dc.lft.to/lastmile_qr_scan"}, "fusion_lon": 0.0, "lat": 38.87659433333334, "bike_id": "916877deca52db562a45320a4186dfd0", "type": "electric_scooter", "is_reserved": 0, "lon": -77.0091835}, {"fusion_lat": 0.0, "name": "4ce0c47d67a41e077552363b086104b8", "is_disabled": 0, "rental_uris": {"android": "https://dc.lft.to/lastmile_qr_scan", "ios": "https://dc.lft.to/lastmile_qr_scan"}, "fusion_lon": 0.0, "lat": 38.901294, "bike_id": "4ce0c47d67a41e077552363b086104b8", "type": "electric_scooter", "is_reserved": 0, "lon": -77.00062566666666}, {"fusion_lat": 0.0, "name": "0873f94f4d351f8682aa695f80bcb436", "is_disabled": 0, "rental_uris": {"android": "https://dc.lft.to/lastmile_qr_scan", "ios": "https://dc.lft.to/lastmile_qr_scan"}, "fusion_lon": 0.0, "lat": 38.9588025, "bike_id": "0873f94f4d351f8682aa695f80bcb436", "type": "electric_scooter", "is_reserved": 0, "lon": -77.01169166666666}, {"fusion_lat": 0.0, "name": "1b5b32ccd104529486ef7610ccd356eb", "is_disabled": 0, "rental_uris": {"android": "https://dc.lft.to/lastmile_qr_scan", "ios": "https://dc.lft.to/lastmile_qr_scan"}, "fusion_lon": 0.0, "lat": 38.928231, "bike_id": "1b5b32ccd104529486ef7610ccd356eb", "type": "electric_scooter", "is_reserved": 0, "lon": -77.02256}, {"fusion_lat": 0.0, "name": "620dee6aeea10f4fc0066c83fbbf1c43", "is_disabled": 0, "rental_uris": {"android": "https://dc.lft.to/lastmile_qr_scan", "ios": "https://dc.lft.to/lastmile_qr_scan"}, "fusion_lon": 0.0, "lat": 38.91456733333333, "bike_id": "620dee6aeea10f4fc0066c83fbbf1c43", "type": "electric_scooter", "is_reserved": 0, "lon": -77.03206716666666}, {"fusion_lat": 0.0, "name": "73e4de0e844cc6daac712abe3e09678b", "is_disabled": 0, "rental_uris": {"android": "https://dc.lft.to/lastmile_qr_scan", "ios": "https://dc.lft.to/lastmile_qr_scan"}, "fusion_lon": 0.0, "lat": 38.8823435, "bike_id": "73e4de0e844cc6daac712abe3e09678b", "type": "electric_scooter", "is_reserved": 0, "lon": -77.02615266666666}, {"fusion_lat": 0.0, "name": "dc002e4aa0606f6b162c537ff4f53720", "is_disabled": 0, "rental_uris": {"android": "https://dc.lft.to/lastmile_qr_scan", "ios": "https://dc.lft.to/lastmile_qr_scan"}, "fusion_lon": 0.0, "lat": 38.93133783333333, "bike_id": "dc002e4aa0606f6b162c537ff4f53720", "type": "electric_scooter", "is_reserved": 0, "lon": -77.02349616666666}, {"fusion_lat": 0.0, "name": "739c8eee7ca762c8bc6a922582be4352", "is_disabled": 0, "rental_uris": {"android": "https://dc.lft.to/lastmile_qr_scan", "ios": "https://dc.lft.to/lastmile_qr_scan"}, "fusion_lon": 0.0, "lat": 38.87910316666667, "bike_id": "739c8eee7ca762c8bc6a922582be4352", "type": "electric_scooter", "is_reserved": 0, "lon": -77.00892066666667}, {"fusion_lat": 0.0, "name": "659fbf3babfa2a6e5334414ea9a30bb0", "is_disabled": 0, "rental_uris": {"android": "https://dc.lft.to/lastmile_qr_scan", "ios": "https://dc.lft.to/lastmile_qr_scan"}, "fusion_lon": 0.0, "lat": 38.915543, "bike_id": "659fbf3babfa2a6e5334414ea9a30bb0", "type": "electric_scooter", "is_reserved": 0, "lon": -77.03225266666666}, {"fusion_lat": 0.0, "name": "803004ac07610f3770d38d85dfc8b0e1", "is_disabled": 0, "rental_uris": {"android": "https://dc.lft.to/lastmile_qr_scan", "ios": "https://dc.lft.to/lastmile_qr_scan"}, "fusion_lon": 0.0, "lat": 38.915531333333334, "bike_id": "803004ac07610f3770d38d85dfc8b0e1", "type": "electric_scooter", "is_reserved": 0, "lon": -77.03234783333333}, {"fusion_lat": 0.0, "name": "32bffbf214e86a7af5e7597650cab00d", "is_disabled": 0, "rental_uris": {"android": "https://dc.lft.to/lastmile_qr_scan", "ios": "https://dc.lft.to/lastmile_qr_scan"}, "fusion_lon": 0.0, "lat": 38.956199833333336, "bike_id": "32bffbf214e86a7af5e7597650cab00d", "type": "electric_scooter", "is_reserved": 0, "lon": -77.02833183333334}, {"fusion_lat": 0.0, "name": "ccf06c640d18c6040b8bbc3497c5e9a5", "is_disabled": 0, "rental_uris": {"android": "https://dc.lft.to/lastmile_qr_scan", "ios": "https://dc.lft.to/lastmile_qr_scan"}, "fusion_lon": 0.0, "lat": 38.8578165, "bike_id": "ccf06c640d18c6040b8bbc3497c5e9a5", "type": "electric_scooter", "is_reserved": 0, "lon": -76.972991}, {"fusion_lat": 0.0, "name": "8150b152efe0179142dd388ab293e8e7", "is_disabled": 0, "rental_uris": {"android": "https://dc.lft.to/lastmile_qr_scan", "ios": "https://dc.lft.to/lastmile_qr_scan"}, "fusion_lon": 0.0, "lat": 38.903859, "bike_id": "8150b152efe0179142dd388ab293e8e7", "type": "electric_scooter", "is_reserved": 0, "lon": -77.0613485}, {"fusion_lat": 0.0, "name": "0173772827fd56d61b055d0eb0a54393", "is_disabled": 0, "rental_uris": {"android": "https://dc.lft.to/lastmile_qr_scan", "ios": "https://dc.lft.to/lastmile_qr_scan"}, "fusion_lon": 0.0, "lat": 38.925364, "bike_id": "0173772827fd56d61b055d0eb0a54393", "type": "electric_scooter", "is_reserved": 0, "lon": -77.05546583333333}, {"fusion_lat": 0.0, "name": "4ababc1f19fac10152b43ac9332dfc2f", "is_disabled": 0, "rental_uris": {"android": "https://dc.lft.to/lastmile_qr_scan", "ios": "https://dc.lft.to/lastmile_qr_scan"}, "fusion_lon": 0.0, "lat": 38.936098666666666, "bike_id": "4ababc1f19fac10152b43ac9332dfc2f", "type": "electric_scooter", "is_reserved": 0, "lon": -77.03801866666667}, {"fusion_lat": 0.0, "name": "1b6ad035252329e9d91bf6004a2f27ab", "is_disabled": 0, "rental_uris": {"android": "https://dc.lft.to/lastmile_qr_scan", "ios": "https://dc.lft.to/lastmile_qr_scan"}, "fusion_lon": 0.0, "lat": 38.9008045, "bike_id": "1b6ad035252329e9d91bf6004a2f27ab", "type": "electric_scooter", "is_reserved": 0, "lon": -77.04795083333333}, {"fusion_lat": 0.0, "name": "2d1e06bc0e836b44bdf73da833bbfa2d", "is_disabled": 0, "rental_uris": {"android": "https://dc.lft.to/lastmile_qr_scan", "ios": "https://dc.lft.to/lastmile_qr_scan"}, "fusion_lon": 0.0, "lat": 38.90650016666667, "bike_id": "2d1e06bc0e836b44bdf73da833bbfa2d", "type": "electric_scooter", "is_reserved": 0, "lon": -77.029443}, {"fusion_lat": 0.0, "name": "94d2aa9a33b0d94e184c959f6c37c5b3", "is_disabled": 0, "rental_uris": {"android": "https://dc.lft.to/lastmile_qr_scan", "ios": "https://dc.lft.to/lastmile_qr_scan"}, "fusion_lon": 0.0, "lat": 38.935510666666666, "bike_id": "94d2aa9a33b0d94e184c959f6c37c5b3", "type": "electric_scooter", "is_reserved": 0, "lon": -77.0325805}, {"fusion_lat": 0.0, "name": "43ea6a9c9308b7b7983a3fb5b7665dec", "is_disabled": 0, "rental_uris": {"android": "https://dc.lft.to/lastmile_qr_scan", "ios": "https://dc.lft.to/lastmile_qr_scan"}, "fusion_lon": 0.0, "lat": 38.900671833333334, "bike_id": "43ea6a9c9308b7b7983a3fb5b7665dec", "type": "electric_scooter", "is_reserved": 0, "lon": -76.93387233333333}, {"fusion_lat": 0.0, "name": "a76889d3df1ed6c78497bdfb1734bf55", "is_disabled": 0, "rental_uris": {"android": "https://dc.lft.to/lastmile_qr_scan", "ios": "https://dc.lft.to/lastmile_qr_scan"}, "fusion_lon": 0.0, "lat": 38.845090166666665, "bike_id": "a76889d3df1ed6c78497bdfb1734bf55", "type": "electric_bike", "is_reserved": 0, "lon": -76.99351083333333}, {"fusion_lat": 0.0, "name": "6b539f141ab75c0e8207d37a1585056f", "is_disabled": 0, "rental_uris": {"android": "https://dc.lft.to/lastmile_qr_scan", "ios": "https://dc.lft.to/lastmile_qr_scan"}, "fusion_lon": 0.0, "lat": 38.904419833333336, "bike_id": "6b539f141ab75c0e8207d37a1585056f", "type": "electric_scooter", "is_reserved": 0, "lon": -77.02972783333334}, {"fusion_lat": 0.0, "name": "a3f92571a720591dd108d148df5cec76", "is_disabled": 0, "rental_uris": {"android": "https://dc.lft.to/lastmile_qr_scan", "ios": "https://dc.lft.to/lastmile_qr_scan"}, "fusion_lon": 0.0, "lat": 38.98391383333333, "bike_id": "a3f92571a720591dd108d148df5cec76", "type": "electric_scooter", "is_reserved": 0, "lon": -77.02630116666667}, {"fusion_lat": 0.0, "name": "f21d0b6a1e9283d70a74b8ae6e6dc3a1", "is_disabled": 0, "rental_uris": {"android": "https://dc.lft.to/lastmile_qr_scan", "ios": "https://dc.lft.to/lastmile_qr_scan"}, "fusion_lon": 0.0, "lat": 38.908993833333334, "bike_id": "f21d0b6a1e9283d70a74b8ae6e6dc3a1", "type": "electric_scooter", "is_reserved": 0, "lon": -77.0321285}, {"fusion_lat": 0.0, "name": "ef3db23e8bb1581523e8fe853c5cde59", "is_disabled": 0, "rental_uris": {"android": "https://dc.lft.to/lastmile_qr_scan", "ios": "https://dc.lft.to/lastmile_qr_scan"}, "fusion_lon": 0.0, "lat": 38.927902, "bike_id": "ef3db23e8bb1581523e8fe853c5cde59", "type": "electric_scooter", "is_reserved": 0, "lon": -76.995588}, {"fusion_lat": 0.0, "name": "635184ac4e8ea837e5b6b63fdad9c012", "is_disabled": 0, "rental_uris": {"android": "https://dc.lft.to/lastmile_qr_scan", "ios": "https://dc.lft.to/lastmile_qr_scan"}, "fusion_lon": 0.0, "lat": 38.921537666666666, "bike_id": "635184ac4e8ea837e5b6b63fdad9c012", "type": "electric_scooter", "is_reserved": 0, "lon": -77.0386345}, {"fusion_lat": 0.0, "name": "18738a56f01a10f6ae1583d9224074eb", "is_disabled": 0, "rental_uris": {"android": "https://dc.lft.to/lastmile_qr_scan", "ios": "https://dc.lft.to/lastmile_qr_scan"}, "fusion_lon": 0.0, "lat": 38.945247, "bike_id": "18738a56f01a10f6ae1583d9224074eb", "type": "electric_scooter", "is_reserved": 0, "lon": -77.0227255}, {"fusion_lat": 0.0, "name": "01e9acf228962cabb711ae4e006e80d9", "is_disabled": 0, "rental_uris": {"android": "https://dc.lft.to/lastmile_qr_scan", "ios": "https://dc.lft.to/lastmile_qr_scan"}, "fusion_lon": 0.0, "lat": 38.91906866666667, "bike_id": "01e9acf228962cabb711ae4e006e80d9", "type": "electric_scooter", "is_reserved": 0, "lon": -77.01220933333333}, {"fusion_lat": 0.0, "name": "0a2b6e7f169f6f6bb9fc05b90877d689", "is_disabled": 0, "rental_uris": {"android": "https://dc.lft.to/lastmile_qr_scan", "ios": "https://dc.lft.to/lastmile_qr_scan"}, "fusion_lon": 0.0, "lat": 38.89992866666667, "bike_id": "0a2b6e7f169f6f6bb9fc05b90877d689", "type": "electric_scooter", "is_reserved": 0, "lon": -77.027086}, {"fusion_lat": 0.0, "name": "fea2a72d21790116b1206b3132c55df0", "is_disabled": 0, "rental_uris": {"android": "https://dc.lft.to/lastmile_qr_scan", "ios": "https://dc.lft.to/lastmile_qr_scan"}, "fusion_lon": 0.0, "lat": 38.936224833333334, "bike_id": "fea2a72d21790116b1206b3132c55df0", "type": "electric_scooter", "is_reserved": 0, "lon": -77.081782}, {"fusion_lat": 0.0, "name": "9668ba9aea6615196a3c7f9ac7fc0fbb", "is_disabled": 0, "rental_uris": {"android": "https://dc.lft.to/lastmile_qr_scan", "ios": "https://dc.lft.to/lastmile_qr_scan"}, "fusion_lon": 0.0, "lat": 38.9068785, "bike_id": "9668ba9aea6615196a3c7f9ac7fc0fbb", "type": "electric_scooter", "is_reserved": 0, "lon": -77.0085385}, {"fusion_lat": 0.0, "name": "ed87233fd6cdfb85b03b5d529f495185", "is_disabled": 0, "rental_uris": {"android": "https://dc.lft.to/lastmile_qr_scan", "ios": "https://dc.lft.to/lastmile_qr_scan"}, "fusion_lon": 0.0, "lat": 38.94405533333333, "bike_id": "ed87233fd6cdfb85b03b5d529f495185", "type": "electric_scooter", "is_reserved": 0, "lon": -77.03621533333333}, {"fusion_lat": 0.0, "name": "10c114f10919036b1c3f5b058e72a0f3", "is_disabled": 0, "rental_uris": {"android": "https://dc.lft.to/lastmile_qr_scan", "ios": "https://dc.lft.to/lastmile_qr_scan"}, "fusion_lon": 0.0, "lat": 38.9170605, "bike_id": "10c114f10919036b1c3f5b058e72a0f3", "type": "electric_scooter", "is_reserved": 0, "lon": -77.00114783333333}, {"fusion_lat": 0.0, "name": "30c0ea34b004df5ca7108afba38765fd", "is_disabled": 0, "rental_uris": {"android": "https://dc.lft.to/lastmile_qr_scan", "ios": "https://dc.lft.to/lastmile_qr_scan"}, "fusion_lon": 0.0, "lat": 38.90022366666667, "bike_id": "30c0ea34b004df5ca7108afba38765fd", "type": "electric_scooter", "is_reserved": 0, "lon": -77.00038266666667}, {"fusion_lat": 0.0, "name": "96c58f04e9bef9187d442d083108ec92", "is_disabled": 0, "rental_uris": {"android": "https://dc.lft.to/lastmile_qr_scan", "ios": "https://dc.lft.to/lastmile_qr_scan"}, "fusion_lon": 0.0, "lat": 38.91190533333334, "bike_id": "96c58f04e9bef9187d442d083108ec92", "type": "electric_scooter", "is_reserved": 0, "lon": -77.07306133333333}, {"fusion_lat": 0.0, "name": "df59f52220cfda92b9bbc6b89b3c1235", "is_disabled": 0, "rental_uris": {"android": "https://dc.lft.to/lastmile_qr_scan", "ios": "https://dc.lft.to/lastmile_qr_scan"}, "fusion_lon": 0.0, "lat": 38.9332215, "bike_id": "df59f52220cfda92b9bbc6b89b3c1235", "type": "electric_scooter", "is_reserved": 0, "lon": -77.02752716666667}, {"fusion_lat": 0.0, "name": "1665ef351613fa87bc133b67c521069c", "is_disabled": 0, "rental_uris": {"android": "https://dc.lft.to/lastmile_qr_scan", "ios": "https://dc.lft.to/lastmile_qr_scan"}, "fusion_lon": 0.0, "lat": 38.91604783333333, "bike_id": "1665ef351613fa87bc133b67c521069c", "type": "electric_scooter", "is_reserved": 0, "lon": -77.03220333333333}, {"fusion_lat": 0.0, "name": "0b880ebcbbcd054963687b8a48aa8947", "is_disabled": 0, "rental_uris": {"android": "https://dc.lft.to/lastmile_qr_scan", "ios": "https://dc.lft.to/lastmile_qr_scan"}, "fusion_lon": 0.0, "lat": 38.920759833333335, "bike_id": "0b880ebcbbcd054963687b8a48aa8947", "type": "electric_scooter", "is_reserved": 0, "lon": -77.025398}, {"fusion_lat": 0.0, "name": "8ca2eb8cbd743f31d4b486263575a09c", "is_disabled": 0, "rental_uris": {"android": "https://dc.lft.to/lastmile_qr_scan", "ios": "https://dc.lft.to/lastmile_qr_scan"}, "fusion_lon": 0.0, "lat": 38.90062533333333, "bike_id": "8ca2eb8cbd743f31d4b486263575a09c", "type": "electric_scooter", "is_reserved": 0, "lon": -76.98553383333333}, {"fusion_lat": 0.0, "name": "00d603e0afd3735f786cb279aeb7dc09", "is_disabled": 0, "rental_uris": {"android": "https://dc.lft.to/lastmile_qr_scan", "ios": "https://dc.lft.to/lastmile_qr_scan"}, "fusion_lon": 0.0, "lat": 38.928683166666666, "bike_id": "00d603e0afd3735f786cb279aeb7dc09", "type": "electric_scooter", "is_reserved": 0, "lon": -77.03786416666667}, {"fusion_lat": 0.0, "name": "932c1fd1447c6afb72b7cf563c331120", "is_disabled": 0, "rental_uris": {"android": "https://dc.lft.to/lastmile_qr_scan", "ios": "https://dc.lft.to/lastmile_qr_scan"}, "fusion_lon": 0.0, "lat": 38.92255016666667, "bike_id": "932c1fd1447c6afb72b7cf563c331120", "type": "electric_scooter", "is_reserved": 0, "lon": -77.0184125}, {"fusion_lat": 0.0, "name": "a35ac98db9031d676c9d21f1eb2488a4", "is_disabled": 0, "rental_uris": {"android": "https://dc.lft.to/lastmile_qr_scan", "ios": "https://dc.lft.to/lastmile_qr_scan"}, "fusion_lon": 0.0, "lat": 38.87402216666667, "bike_id": "a35ac98db9031d676c9d21f1eb2488a4", "type": "electric_scooter", "is_reserved": 0, "lon": -77.000207}, {"fusion_lat": 0.0, "name": "ba10bd2671aa312e18d9ad6bd9197664", "is_disabled": 0, "rental_uris": {"android": "https://dc.lft.to/lastmile_qr_scan", "ios": "https://dc.lft.to/lastmile_qr_scan"}, "fusion_lon": 0.0, "lat": 38.916505, "bike_id": "ba10bd2671aa312e18d9ad6bd9197664", "type": "electric_scooter", "is_reserved": 0, "lon": -77.04798633333333}, {"fusion_lat": 0.0, "name": "6094d8fa4e564f25b9076fe7b09f2ac5", "is_disabled": 0, "rental_uris": {"android": "https://dc.lft.to/lastmile_qr_scan", "ios": "https://dc.lft.to/lastmile_qr_scan"}, "fusion_lon": 0.0, "lat": 38.884329666666666, "bike_id": "6094d8fa4e564f25b9076fe7b09f2ac5", "type": "electric_scooter", "is_reserved": 0, "lon": -77.02603016666667}, {"fusion_lat": 0.0, "name": "49ab51d42b473bdca6e887e81105bd20", "is_disabled": 0, "rental_uris": {"android": "https://dc.lft.to/lastmile_qr_scan", "ios": "https://dc.lft.to/lastmile_qr_scan"}, "fusion_lon": 0.0, "lat": 38.899912, "bike_id": "49ab51d42b473bdca6e887e81105bd20", "type": "electric_scooter", "is_reserved": 0, "lon": -76.9843575}, {"fusion_lat": 0.0, "name": "b6f71fda9763a6ae643dd2339b77adb3", "is_disabled": 0, "rental_uris": {"android": "https://dc.lft.to/lastmile_qr_scan", "ios": "https://dc.lft.to/lastmile_qr_scan"}, "fusion_lon": 0.0, "lat": 38.90035916666667, "bike_id": "b6f71fda9763a6ae643dd2339b77adb3", "type": "electric_scooter", "is_reserved": 0, "lon": -77.00188916666667}, {"fusion_lat": 0.0, "name": "7b674e7cde02334df297f7d653867398", "is_disabled": 0, "rental_uris": {"android": "https://dc.lft.to/lastmile_qr_scan", "ios": "https://dc.lft.to/lastmile_qr_scan"}, "fusion_lon": 0.0, "lat": 38.90521066666667, "bike_id": "7b674e7cde02334df297f7d653867398", "type": "electric_scooter", "is_reserved": 0, "lon": -77.05933783333333}, {"fusion_lat": 0.0, "name": "6c9a4e9d2349eced198c63fbd9a295af", "is_disabled": 0, "rental_uris": {"android": "https://dc.lft.to/lastmile_qr_scan", "ios": "https://dc.lft.to/lastmile_qr_scan"}, "fusion_lon": 0.0, "lat": 38.916821166666665, "bike_id": "6c9a4e9d2349eced198c63fbd9a295af", "type": "electric_scooter", "is_reserved": 0, "lon": -77.041465}, {"fusion_lat": 0.0, "name": "fd724e98f9d126ed1cabf6523ba99a62", "is_disabled": 0, "rental_uris": {"android": "https://dc.lft.to/lastmile_qr_scan", "ios": "https://dc.lft.to/lastmile_qr_scan"}, "fusion_lon": 0.0, "lat": 39.03607983333333, "bike_id": "fd724e98f9d126ed1cabf6523ba99a62", "type": "electric_bike", "is_reserved": 0, "lon": -77.05532766666667}, {"fusion_lat": 0.0, "name": "ad9fb89b91e936e722d62d44c57a2b36", "is_disabled": 0, "rental_uris": {"android": "https://dc.lft.to/lastmile_qr_scan", "ios": "https://dc.lft.to/lastmile_qr_scan"}, "fusion_lon": 0.0, "lat": 38.90612516666667, "bike_id": "ad9fb89b91e936e722d62d44c57a2b36", "type": "electric_scooter", "is_reserved": 0, "lon": -77.05895116666667}, {"fusion_lat": 0.0, "name": "b77cf300de90f4a164cb6e36b86df111", "is_disabled": 0, "rental_uris": {"android": "https://dc.lft.to/lastmile_qr_scan", "ios": "https://dc.lft.to/lastmile_qr_scan"}, "fusion_lon": 0.0, "lat": 38.92358133333333, "bike_id": "b77cf300de90f4a164cb6e36b86df111", "type": "electric_scooter", "is_reserved": 0, "lon": -77.04317216666666}, {"fusion_lat": 0.0, "name": "12c7804d0a77e86e948390ad29a84e99", "is_disabled": 0, "rental_uris": {"android": "https://dc.lft.to/lastmile_qr_scan", "ios": "https://dc.lft.to/lastmile_qr_scan"}, "fusion_lon": 0.0, "lat": 38.92982283333333, "bike_id": "12c7804d0a77e86e948390ad29a84e99", "type": "electric_scooter", "is_reserved": 0, "lon": -77.025342}, {"fusion_lat": 0.0, "name": "cfccb273b9f39ead296d3f588df7afc0", "is_disabled": 0, "rental_uris": {"android": "https://dc.lft.to/lastmile_qr_scan", "ios": "https://dc.lft.to/lastmile_qr_scan"}, "fusion_lon": 0.0, "lat": 38.90864033333333, "bike_id": "cfccb273b9f39ead296d3f588df7afc0", "type": "electric_scooter", "is_reserved": 0, "lon": -77.0428375}, {"fusion_lat": 0.0, "name": "551e8a68b3eb2e5126d30d3aff9965ff", "is_disabled": 0, "rental_uris": {"android": "https://dc.lft.to/lastmile_qr_scan", "ios": "https://dc.lft.to/lastmile_qr_scan"}, "fusion_lon": 0.0, "lat": 38.907642, "bike_id": "551e8a68b3eb2e5126d30d3aff9965ff", "type": "electric_scooter", "is_reserved": 0, "lon": -77.03214166666666}, {"fusion_lat": 0.0, "name": "173c4ab98f2a6ef30dae1bc94e50d9cf", "is_disabled": 0, "rental_uris": {"android": "https://dc.lft.to/lastmile_qr_scan", "ios": "https://dc.lft.to/lastmile_qr_scan"}, "fusion_lon": 0.0, "lat": 38.91716366666667, "bike_id": "173c4ab98f2a6ef30dae1bc94e50d9cf", "type": "electric_scooter", "is_reserved": 0, "lon": -77.032507}, {"fusion_lat": 0.0, "name": "82b4fff4cb009857404b085e04c1aa17", "is_disabled": 0, "rental_uris": {"android": "https://dc.lft.to/lastmile_qr_scan", "ios": "https://dc.lft.to/lastmile_qr_scan"}, "fusion_lon": 0.0, "lat": 38.909654333333336, "bike_id": "82b4fff4cb009857404b085e04c1aa17", "type": "electric_scooter", "is_reserved": 0, "lon": -77.0337925}, {"fusion_lat": 0.0, "name": "af7a3db61db266d9e5760c3e096d8926", "is_disabled": 0, "rental_uris": {"android": "https://dc.lft.to/lastmile_qr_scan", "ios": "https://dc.lft.to/lastmile_qr_scan"}, "fusion_lon": 0.0, "lat": 38.92401133333333, "bike_id": "af7a3db61db266d9e5760c3e096d8926", "type": "electric_scooter", "is_reserved": 0, "lon": -77.04289566666667}, {"fusion_lat": 0.0, "name": "f2369d99d69f24cd6828d560b0ae58e5", "is_disabled": 0, "rental_uris": {"android": "https://dc.lft.to/lastmile_qr_scan", "ios": "https://dc.lft.to/lastmile_qr_scan"}, "fusion_lon": 0.0, "lat": 38.89992216666667, "bike_id": "f2369d99d69f24cd6828d560b0ae58e5", "type": "electric_scooter", "is_reserved": 0, "lon": -77.00651483333333}, {"fusion_lat": 0.0, "name": "cfca9e194e7d51b81a33152ad11f2259", "is_disabled": 0, "rental_uris": {"android": "https://dc.lft.to/lastmile_qr_scan", "ios": "https://dc.lft.to/lastmile_qr_scan"}, "fusion_lon": 0.0, "lat": 38.93459216666667, "bike_id": "cfca9e194e7d51b81a33152ad11f2259", "type": "electric_scooter", "is_reserved": 0, "lon": -77.0726235}, {"fusion_lat": 0.0, "name": "ab7d5811ecbbed96bcfb1e690d24d3c8", "is_disabled": 0, "rental_uris": {"android": "https://dc.lft.to/lastmile_qr_scan", "ios": "https://dc.lft.to/lastmile_qr_scan"}, "fusion_lon": 0.0, "lat": 38.90424333333333, "bike_id": "ab7d5811ecbbed96bcfb1e690d24d3c8", "type": "electric_scooter", "is_reserved": 0, "lon": -76.9498}, {"fusion_lat": 0.0, "name": "ded63994a8b00ceeff860de100457faf", "is_disabled": 0, "rental_uris": {"android": "https://dc.lft.to/lastmile_qr_scan", "ios": "https://dc.lft.to/lastmile_qr_scan"}, "fusion_lon": 0.0, "lat": 38.8971695, "bike_id": "ded63994a8b00ceeff860de100457faf", "type": "electric_scooter", "is_reserved": 0, "lon": -77.01285533333333}, {"fusion_lat": 0.0, "name": "bf119bbfc398edd6c1c3ef3b468a04b6", "is_disabled": 0, "rental_uris": {"android": "https://dc.lft.to/lastmile_qr_scan", "ios": "https://dc.lft.to/lastmile_qr_scan"}, "fusion_lon": 0.0, "lat": 38.88533983333333, "bike_id": "bf119bbfc398edd6c1c3ef3b468a04b6", "type": "electric_scooter", "is_reserved": 0, "lon": -77.01509866666666}, {"fusion_lat": 0.0, "name": "7939d37aaef6e8802afeb9023f532a13", "is_disabled": 0, "rental_uris": {"android": "https://dc.lft.to/lastmile_qr_scan", "ios": "https://dc.lft.to/lastmile_qr_scan"}, "fusion_lon": 0.0, "lat": 38.9139825, "bike_id": "7939d37aaef6e8802afeb9023f532a13", "type": "electric_scooter", "is_reserved": 0, "lon": -77.03182016666666}, {"fusion_lat": 0.0, "name": "027eeca31bb180cf4ef0436c0c77212b", "is_disabled": 0, "rental_uris": {"android": "https://dc.lft.to/lastmile_qr_scan", "ios": "https://dc.lft.to/lastmile_qr_scan"}, "fusion_lon": 0.0, "lat": 38.93586833333333, "bike_id": "027eeca31bb180cf4ef0436c0c77212b", "type": "electric_scooter", "is_reserved": 0, "lon": -77.024299}, {"fusion_lat": 0.0, "name": "99646a9d1c83a36334bf5d101bbaf292", "is_disabled": 0, "rental_uris": {"android": "https://dc.lft.to/lastmile_qr_scan", "ios": "https://dc.lft.to/lastmile_qr_scan"}, "fusion_lon": 0.0, "lat": 38.8960525, "bike_id": "99646a9d1c83a36334bf5d101bbaf292", "type": "electric_scooter", "is_reserved": 0, "lon": -77.03235183333334}, {"fusion_lat": 0.0, "name": "db2d6dbe2c603f382b69edecc5e1fd4f", "is_disabled": 0, "rental_uris": {"android": "https://dc.lft.to/lastmile_qr_scan", "ios": "https://dc.lft.to/lastmile_qr_scan"}, "fusion_lon": 0.0, "lat": 38.92056383333333, "bike_id": "db2d6dbe2c603f382b69edecc5e1fd4f", "type": "electric_scooter", "is_reserved": 0, "lon": -77.0425555}, {"fusion_lat": 0.0, "name": "eefdea3e919b85fbce40f2345d51b847", "is_disabled": 0, "rental_uris": {"android": "https://dc.lft.to/lastmile_qr_scan", "ios": "https://dc.lft.to/lastmile_qr_scan"}, "fusion_lon": 0.0, "lat": 38.93514916666667, "bike_id": "eefdea3e919b85fbce40f2345d51b847", "type": "electric_scooter", "is_reserved": 0, "lon": -77.03347033333333}, {"fusion_lat": 0.0, "name": "59ef41af8850edcd79450388975c887c", "is_disabled": 0, "rental_uris": {"android": "https://dc.lft.to/lastmile_qr_scan", "ios": "https://dc.lft.to/lastmile_qr_scan"}, "fusion_lon": 0.0, "lat": 38.87893533333333, "bike_id": "59ef41af8850edcd79450388975c887c", "type": "electric_scooter", "is_reserved": 0, "lon": -77.02270383333334}, {"fusion_lat": 0.0, "name": "e4e18c210281c70550199b032882168c", "is_disabled": 0, "rental_uris": {"android": "https://dc.lft.to/lastmile_qr_scan", "ios": "https://dc.lft.to/lastmile_qr_scan"}, "fusion_lon": 0.0, "lat": 38.924807333333334, "bike_id": "e4e18c210281c70550199b032882168c", "type": "electric_scooter", "is_reserved": 0, "lon": -77.02626416666666}, {"fusion_lat": 0.0, "name": "0ae2ead2b4fe98e2efaa277a947127c0", "is_disabled": 0, "rental_uris": {"android": "https://dc.lft.to/lastmile_qr_scan", "ios": "https://dc.lft.to/lastmile_qr_scan"}, "fusion_lon": 0.0, "lat": 38.922469166666666, "bike_id": "0ae2ead2b4fe98e2efaa277a947127c0", "type": "electric_scooter", "is_reserved": 0, "lon": -77.07478783333333}, {"fusion_lat": 0.0, "name": "79ed2b0d048b8477b6dd4575c9d449f6", "is_disabled": 0, "rental_uris": {"android": "https://dc.lft.to/lastmile_qr_scan", "ios": "https://dc.lft.to/lastmile_qr_scan"}, "fusion_lon": 0.0, "lat": 38.931947666666666, "bike_id": "79ed2b0d048b8477b6dd4575c9d449f6", "type": "electric_bike", "is_reserved": 0, "lon": -77.229275}, {"fusion_lat": 0.0, "name": "df26f6ad77bb01698cbf8dcddbc2410f", "is_disabled": 0, "rental_uris": {"android": "https://dc.lft.to/lastmile_qr_scan", "ios": "https://dc.lft.to/lastmile_qr_scan"}, "fusion_lon": 0.0, "lat": 38.9028595, "bike_id": "df26f6ad77bb01698cbf8dcddbc2410f", "type": "electric_scooter", "is_reserved": 0, "lon": -77.03353016666667}, {"fusion_lat": 0.0, "name": "fd0e227fb9e226f072b000232936c956", "is_disabled": 0, "rental_uris": {"android": "https://dc.lft.to/lastmile_qr_scan", "ios": "https://dc.lft.to/lastmile_qr_scan"}, "fusion_lon": 0.0, "lat": 38.916957833333335, "bike_id": "fd0e227fb9e226f072b000232936c956", "type": "electric_scooter", "is_reserved": 0, "lon": -77.03719383333333}, {"fusion_lat": 0.0, "name": "628611a744abaf7b5e0b5e25baf2007e", "is_disabled": 0, "rental_uris": {"android": "https://dc.lft.to/lastmile_qr_scan", "ios": "https://dc.lft.to/lastmile_qr_scan"}, "fusion_lon": 0.0, "lat": 38.93890483333333, "bike_id": "628611a744abaf7b5e0b5e25baf2007e", "type": "electric_scooter", "is_reserved": 0, "lon": -77.0246545}, {"fusion_lat": 0.0, "name": "98ae1f08a1fdad32b253d692d81a4506", "is_disabled": 0, "rental_uris": {"android": "https://dc.lft.to/lastmile_qr_scan", "ios": "https://dc.lft.to/lastmile_qr_scan"}, "fusion_lon": 0.0, "lat": 38.92337066666666, "bike_id": "98ae1f08a1fdad32b253d692d81a4506", "type": "electric_scooter", "is_reserved": 0, "lon": -77.04581316666666}, {"fusion_lat": 0.0, "name": "d94846049ec143e8a5f8a4c1e767c1fc", "is_disabled": 0, "rental_uris": {"android": "https://dc.lft.to/lastmile_qr_scan", "ios": "https://dc.lft.to/lastmile_qr_scan"}, "fusion_lon": 0.0, "lat": 38.853525, "bike_id": "d94846049ec143e8a5f8a4c1e767c1fc", "type": "electric_bike", "is_reserved": 0, "lon": -77.13480116666666}, {"fusion_lat": 0.0, "name": "11fbcc5b54b91c797e20c98459065a69", "is_disabled": 0, "rental_uris": {"android": "https://dc.lft.to/lastmile_qr_scan", "ios": "https://dc.lft.to/lastmile_qr_scan"}, "fusion_lon": 0.0, "lat": 38.88650633333334, "bike_id": "11fbcc5b54b91c797e20c98459065a69", "type": "electric_scooter", "is_reserved": 0, "lon": -77.001158}, {"fusion_lat": 0.0, "name": "18c1c19f724d94d4f8f3483cacfeefe7", "is_disabled": 0, "rental_uris": {"android": "https://dc.lft.to/lastmile_qr_scan", "ios": "https://dc.lft.to/lastmile_qr_scan"}, "fusion_lon": 0.0, "lat": 38.86246333333333, "bike_id": "18c1c19f724d94d4f8f3483cacfeefe7", "type": "electric_scooter", "is_reserved": 0, "lon": -76.994981}, {"fusion_lat": 0.0, "name": "92538f735560fa5d6fbc8621227ea0a5", "is_disabled": 0, "rental_uris": {"android": "https://dc.lft.to/lastmile_qr_scan", "ios": "https://dc.lft.to/lastmile_qr_scan"}, "fusion_lon": 0.0, "lat": 38.90141833333333, "bike_id": "92538f735560fa5d6fbc8621227ea0a5", "type": "electric_scooter", "is_reserved": 0, "lon": -76.99843166666666}, {"fusion_lat": 0.0, "name": "9356f23c27d99e5a01c5295aca154853", "is_disabled": 0, "rental_uris": {"android": "https://dc.lft.to/lastmile_qr_scan", "ios": "https://dc.lft.to/lastmile_qr_scan"}, "fusion_lon": 0.0, "lat": 38.92972016666667, "bike_id": "9356f23c27d99e5a01c5295aca154853", "type": "electric_scooter", "is_reserved": 0, "lon": -77.0279545}, {"fusion_lat": 0.0, "name": "673bae0371e1d652125548719413ce34", "is_disabled": 0, "rental_uris": {"android": "https://dc.lft.to/lastmile_qr_scan", "ios": "https://dc.lft.to/lastmile_qr_scan"}, "fusion_lon": 0.0, "lat": 38.90192116666667, "bike_id": "673bae0371e1d652125548719413ce34", "type": "electric_scooter", "is_reserved": 0, "lon": -77.02133383333333}, {"fusion_lat": 0.0, "name": "9f08d04cf7ed59dae6bb48d61d1c9122", "is_disabled": 0, "rental_uris": {"android": "https://dc.lft.to/lastmile_qr_scan", "ios": "https://dc.lft.to/lastmile_qr_scan"}, "fusion_lon": 0.0, "lat": 38.90906116666667, "bike_id": "9f08d04cf7ed59dae6bb48d61d1c9122", "type": "electric_scooter", "is_reserved": 0, "lon": -77.04474433333333}, {"fusion_lat": 0.0, "name": "0efab9c40fde52beeca631d60da518d9", "is_disabled": 0, "rental_uris": {"android": "https://dc.lft.to/lastmile_qr_scan", "ios": "https://dc.lft.to/lastmile_qr_scan"}, "fusion_lon": 0.0, "lat": 38.89643433333333, "bike_id": "0efab9c40fde52beeca631d60da518d9", "type": "electric_scooter", "is_reserved": 0, "lon": -77.05018766666667}, {"fusion_lat": 0.0, "name": "31d51a6e835c1e82b5ca66b4d9d27c35", "is_disabled": 0, "rental_uris": {"android": "https://dc.lft.to/lastmile_qr_scan", "ios": "https://dc.lft.to/lastmile_qr_scan"}, "fusion_lon": 0.0, "lat": 38.94958666666667, "bike_id": "31d51a6e835c1e82b5ca66b4d9d27c35", "type": "electric_bike", "is_reserved": 0, "lon": -77.066418}, {"fusion_lat": 0.0, "name": "711ed315ecc1b4797a15826d980e9951", "is_disabled": 0, "rental_uris": {"android": "https://dc.lft.to/lastmile_qr_scan", "ios": "https://dc.lft.to/lastmile_qr_scan"}, "fusion_lon": 0.0, "lat": 38.958917166666666, "bike_id": "711ed315ecc1b4797a15826d980e9951", "type": "electric_scooter", "is_reserved": 0, "lon": -77.027353}, {"fusion_lat": 0.0, "name": "25ad2224c31413a89e8a7e059cf6e099", "is_disabled": 0, "rental_uris": {"android": "https://dc.lft.to/lastmile_qr_scan", "ios": "https://dc.lft.to/lastmile_qr_scan"}, "fusion_lon": 0.0, "lat": 38.88715883333333, "bike_id": "25ad2224c31413a89e8a7e059cf6e099", "type": "electric_scooter", "is_reserved": 0, "lon": -77.0177685}, {"fusion_lat": 0.0, "name": "e213d7acc5f8cea159ce787bc9db1b88", "is_disabled": 0, "rental_uris": {"android": "https://dc.lft.to/lastmile_qr_scan", "ios": "https://dc.lft.to/lastmile_qr_scan"}, "fusion_lon": 0.0, "lat": 38.81335833333333, "bike_id": "e213d7acc5f8cea159ce787bc9db1b88", "type": "electric_bike", "is_reserved": 0, "lon": -77.0508025}, {"fusion_lat": 0.0, "name": "5f5182a2611774b2bfb1ddcdc592c572", "is_disabled": 0, "rental_uris": {"android": "https://dc.lft.to/lastmile_qr_scan", "ios": "https://dc.lft.to/lastmile_qr_scan"}, "fusion_lon": 0.0, "lat": 38.928659, "bike_id": "5f5182a2611774b2bfb1ddcdc592c572", "type": "electric_scooter", "is_reserved": 0, "lon": -77.03219916666667}, {"fusion_lat": 0.0, "name": "6b512b538d2a123bac9ab9a2ed3dd98c", "is_disabled": 0, "rental_uris": {"android": "https://dc.lft.to/lastmile_qr_scan", "ios": "https://dc.lft.to/lastmile_qr_scan"}, "fusion_lon": 0.0, "lat": 38.903891, "bike_id": "6b512b538d2a123bac9ab9a2ed3dd98c", "type": "electric_scooter", "is_reserved": 0, "lon": -77.0670685}, {"fusion_lat": 0.0, "name": "4de13d581e20e7170a422948e7d09812", "is_disabled": 0, "rental_uris": {"android": "https://dc.lft.to/lastmile_qr_scan", "ios": "https://dc.lft.to/lastmile_qr_scan"}, "fusion_lon": 0.0, "lat": 38.883847333333335, "bike_id": "4de13d581e20e7170a422948e7d09812", "type": "electric_scooter", "is_reserved": 0, "lon": -76.93041866666667}, {"fusion_lat": 0.0, "name": "f716ed1babb633a05f23ac2299d81fec", "is_disabled": 0, "rental_uris": {"android": "https://dc.lft.to/lastmile_qr_scan", "ios": "https://dc.lft.to/lastmile_qr_scan"}, "fusion_lon": 0.0, "lat": 38.901886, "bike_id": "f716ed1babb633a05f23ac2299d81fec", "type": "electric_scooter", "is_reserved": 0, "lon": -77.02135666666666}, {"fusion_lat": 0.0, "name": "6d95f6308a5d504ace9ee85811e5e952", "is_disabled": 0, "rental_uris": {"android": "https://dc.lft.to/lastmile_qr_scan", "ios": "https://dc.lft.to/lastmile_qr_scan"}, "fusion_lon": 0.0, "lat": 38.9023615, "bike_id": "6d95f6308a5d504ace9ee85811e5e952", "type": "electric_scooter", "is_reserved": 0, "lon": -77.04544783333333}, {"fusion_lat": 0.0, "name": "2995f057be7d9575e649bc97fa4cc10e", "is_disabled": 0, "rental_uris": {"android": "https://dc.lft.to/lastmile_qr_scan", "ios": "https://dc.lft.to/lastmile_qr_scan"}, "fusion_lon": 0.0, "lat": 38.905123333333336, "bike_id": "2995f057be7d9575e649bc97fa4cc10e", "type": "electric_scooter", "is_reserved": 0, "lon": -77.06386933333333}, {"fusion_lat": 0.0, "name": "1d2065fd5921ea7fe2326f0b0e4c70d9", "is_disabled": 0, "rental_uris": {"android": "https://dc.lft.to/lastmile_qr_scan", "ios": "https://dc.lft.to/lastmile_qr_scan"}, "fusion_lon": 0.0, "lat": 38.87249683333334, "bike_id": "1d2065fd5921ea7fe2326f0b0e4c70d9", "type": "electric_scooter", "is_reserved": 0, "lon": -76.977303}, {"fusion_lat": 0.0, "name": "d8b98b39f9408576179c5b04588482b0", "is_disabled": 0, "rental_uris": {"android": "https://dc.lft.to/lastmile_qr_scan", "ios": "https://dc.lft.to/lastmile_qr_scan"}, "fusion_lon": 0.0, "lat": 38.90970766666667, "bike_id": "d8b98b39f9408576179c5b04588482b0", "type": "electric_scooter", "is_reserved": 0, "lon": -77.009131}, {"fusion_lat": 0.0, "name": "ca8d543ccf82ea97f222dab1d11c68ea", "is_disabled": 0, "rental_uris": {"android": "https://dc.lft.to/lastmile_qr_scan", "ios": "https://dc.lft.to/lastmile_qr_scan"}, "fusion_lon": 0.0, "lat": 38.9057675, "bike_id": "ca8d543ccf82ea97f222dab1d11c68ea", "type": "electric_scooter", "is_reserved": 0, "lon": -77.0089375}, {"fusion_lat": 0.0, "name": "25e6d9c8bc4ade645cd6ae9e306d7890", "is_disabled": 0, "rental_uris": {"android": "https://dc.lft.to/lastmile_qr_scan", "ios": "https://dc.lft.to/lastmile_qr_scan"}, "fusion_lon": 0.0, "lat": 38.9390205, "bike_id": "25e6d9c8bc4ade645cd6ae9e306d7890", "type": "electric_scooter", "is_reserved": 0, "lon": -77.03322733333333}, {"fusion_lat": 0.0, "name": "ff8ce3a5733791f78da5a41cd4f1b476", "is_disabled": 0, "rental_uris": {"android": "https://dc.lft.to/lastmile_qr_scan", "ios": "https://dc.lft.to/lastmile_qr_scan"}, "fusion_lon": 0.0, "lat": 38.956366, "bike_id": "ff8ce3a5733791f78da5a41cd4f1b476", "type": "electric_scooter", "is_reserved": 0, "lon": -77.033021}, {"fusion_lat": 0.0, "name": "0ce644365fcd035c566fa8ac558250ac", "is_disabled": 0, "rental_uris": {"android": "https://dc.lft.to/lastmile_qr_scan", "ios": "https://dc.lft.to/lastmile_qr_scan"}, "fusion_lon": 0.0, "lat": 38.910138, "bike_id": "0ce644365fcd035c566fa8ac558250ac", "type": "electric_scooter", "is_reserved": 0, "lon": -77.03841683333333}, {"fusion_lat": 0.0, "name": "0c5a9828db4e7534e887edcd318eb4f8", "is_disabled": 0, "rental_uris": {"android": "https://dc.lft.to/lastmile_qr_scan", "ios": "https://dc.lft.to/lastmile_qr_scan"}, "fusion_lon": 0.0, "lat": 38.93454716666667, "bike_id": "0c5a9828db4e7534e887edcd318eb4f8", "type": "electric_scooter", "is_reserved": 0, "lon": -77.0233325}, {"fusion_lat": 0.0, "name": "d58c71557219ce40c812f2644ff7e124", "is_disabled": 0, "rental_uris": {"android": "https://dc.lft.to/lastmile_qr_scan", "ios": "https://dc.lft.to/lastmile_qr_scan"}, "fusion_lon": 0.0, "lat": 38.93764483333333, "bike_id": "d58c71557219ce40c812f2644ff7e124", "type": "electric_scooter", "is_reserved": 0, "lon": -77.02544183333333}, {"fusion_lat": 0.0, "name": "58f01d48501a31e2a58c3337a843af4a", "is_disabled": 0, "rental_uris": {"android": "https://dc.lft.to/lastmile_qr_scan", "ios": "https://dc.lft.to/lastmile_qr_scan"}, "fusion_lon": 0.0, "lat": 38.901016, "bike_id": "58f01d48501a31e2a58c3337a843af4a", "type": "electric_scooter", "is_reserved": 0, "lon": -77.058102}, {"fusion_lat": 0.0, "name": "b95ee70355de9ea44e1acb3ea9e6b86d", "is_disabled": 0, "rental_uris": {"android": "https://dc.lft.to/lastmile_qr_scan", "ios": "https://dc.lft.to/lastmile_qr_scan"}, "fusion_lon": 0.0, "lat": 38.919828833333334, "bike_id": "b95ee70355de9ea44e1acb3ea9e6b86d", "type": "electric_scooter", "is_reserved": 0, "lon": -77.02499933333333}, {"fusion_lat": 0.0, "name": "cb6fe1510f5674245bccacc07da008d2", "is_disabled": 0, "rental_uris": {"android": "https://dc.lft.to/lastmile_qr_scan", "ios": "https://dc.lft.to/lastmile_qr_scan"}, "fusion_lon": 0.0, "lat": 38.912567333333335, "bike_id": "cb6fe1510f5674245bccacc07da008d2", "type": "electric_scooter", "is_reserved": 0, "lon": -77.02428683333333}, {"fusion_lat": 0.0, "name": "31dc77fa4c7a24df1f91f6db88d2703a", "is_disabled": 0, "rental_uris": {"android": "https://dc.lft.to/lastmile_qr_scan", "ios": "https://dc.lft.to/lastmile_qr_scan"}, "fusion_lon": 0.0, "lat": 38.899446, "bike_id": "31dc77fa4c7a24df1f91f6db88d2703a", "type": "electric_scooter", "is_reserved": 0, "lon": -77.05000816666667}, {"fusion_lat": 0.0, "name": "d7658be2a41782505cf88d01a7a0b8ef", "is_disabled": 0, "rental_uris": {"android": "https://dc.lft.to/lastmile_qr_scan", "ios": "https://dc.lft.to/lastmile_qr_scan"}, "fusion_lon": 0.0, "lat": 38.904113333333335, "bike_id": "d7658be2a41782505cf88d01a7a0b8ef", "type": "electric_scooter", "is_reserved": 0, "lon": -76.97329116666667}, {"fusion_lat": 0.0, "name": "9cdd5d8b66d1a819bd090a99e9c080c7", "is_disabled": 0, "rental_uris": {"android": "https://dc.lft.to/lastmile_qr_scan", "ios": "https://dc.lft.to/lastmile_qr_scan"}, "fusion_lon": 0.0, "lat": 38.94152916666667, "bike_id": "9cdd5d8b66d1a819bd090a99e9c080c7", "type": "electric_bike", "is_reserved": 0, "lon": -77.0019435}, {"fusion_lat": 0.0, "name": "4fcc56a562af9a7b0ce0064ea5cc24da", "is_disabled": 0, "rental_uris": {"android": "https://dc.lft.to/lastmile_qr_scan", "ios": "https://dc.lft.to/lastmile_qr_scan"}, "fusion_lon": 0.0, "lat": 38.98772616666667, "bike_id": "4fcc56a562af9a7b0ce0064ea5cc24da", "type": "electric_bike", "is_reserved": 0, "lon": -77.14055333333333}, {"fusion_lat": 0.0, "name": "02b48f9b654ebc73dabb51ab6b723e93", "is_disabled": 0, "rental_uris": {"android": "https://dc.lft.to/lastmile_qr_scan", "ios": "https://dc.lft.to/lastmile_qr_scan"}, "fusion_lon": 0.0, "lat": 38.9559675, "bike_id": "02b48f9b654ebc73dabb51ab6b723e93", "type": "electric_bike", "is_reserved": 0, "lon": -77.01010716666667}, {"fusion_lat": 0.0, "name": "5db15f7b5a46960024bd06788d5d3258", "is_disabled": 0, "rental_uris": {"android": "https://dc.lft.to/lastmile_qr_scan", "ios": "https://dc.lft.to/lastmile_qr_scan"}, "fusion_lon": 0.0, "lat": 38.90025083333333, "bike_id": "5db15f7b5a46960024bd06788d5d3258", "type": "electric_scooter", "is_reserved": 0, "lon": -77.03623583333334}, {"fusion_lat": 0.0, "name": "441e209feac69fdcf1da71168b62d2db", "is_disabled": 0, "rental_uris": {"android": "https://dc.lft.to/lastmile_qr_scan", "ios": "https://dc.lft.to/lastmile_qr_scan"}, "fusion_lon": 0.0, "lat": 38.904172, "bike_id": "441e209feac69fdcf1da71168b62d2db", "type": "electric_scooter", "is_reserved": 0, "lon": -77.018971}, {"fusion_lat": 0.0, "name": "2fa67611b91101fda82f1e7b03f41752", "is_disabled": 0, "rental_uris": {"android": "https://dc.lft.to/lastmile_qr_scan", "ios": "https://dc.lft.to/lastmile_qr_scan"}, "fusion_lon": 0.0, "lat": 38.88511966666667, "bike_id": "2fa67611b91101fda82f1e7b03f41752", "type": "electric_scooter", "is_reserved": 0, "lon": -77.00054616666667}, {"fusion_lat": 0.0, "name": "d703f581f69d931d2ce1ba4ad80cb5de", "is_disabled": 0, "rental_uris": {"android": "https://dc.lft.to/lastmile_qr_scan", "ios": "https://dc.lft.to/lastmile_qr_scan"}, "fusion_lon": 0.0, "lat": 38.99219883333333, "bike_id": "d703f581f69d931d2ce1ba4ad80cb5de", "type": "electric_bike", "is_reserved": 0, "lon": -76.944491}, {"fusion_lat": 0.0, "name": "c7be13f42c58ff044642bb7a5fa37333", "is_disabled": 0, "rental_uris": {"android": "https://dc.lft.to/lastmile_qr_scan", "ios": "https://dc.lft.to/lastmile_qr_scan"}, "fusion_lon": 0.0, "lat": 38.91739483333333, "bike_id": "c7be13f42c58ff044642bb7a5fa37333", "type": "electric_scooter", "is_reserved": 0, "lon": -77.02377766666666}, {"fusion_lat": 0.0, "name": "6d7f8ccad6a5494e44f6cb6fca151930", "is_disabled": 0, "rental_uris": {"android": "https://dc.lft.to/lastmile_qr_scan", "ios": "https://dc.lft.to/lastmile_qr_scan"}, "fusion_lon": 0.0, "lat": 38.915256666666664, "bike_id": "6d7f8ccad6a5494e44f6cb6fca151930", "type": "electric_scooter", "is_reserved": 0, "lon": -77.01326716666667}, {"fusion_lat": 0.0, "name": "6b3832741a56b69cece4f20af65998e5", "is_disabled": 0, "rental_uris": {"android": "https://dc.lft.to/lastmile_qr_scan", "ios": "https://dc.lft.to/lastmile_qr_scan"}, "fusion_lon": 0.0, "lat": 38.92229583333334, "bike_id": "6b3832741a56b69cece4f20af65998e5", "type": "electric_scooter", "is_reserved": 0, "lon": -77.0464865}, {"fusion_lat": 0.0, "name": "f29996fc8f459fa027ee8b899c8620f4", "is_disabled": 0, "rental_uris": {"android": "https://dc.lft.to/lastmile_qr_scan", "ios": "https://dc.lft.to/lastmile_qr_scan"}, "fusion_lon": 0.0, "lat": 38.95314466666667, "bike_id": "f29996fc8f459fa027ee8b899c8620f4", "type": "electric_scooter", "is_reserved": 0, "lon": -77.022474}, {"fusion_lat": 0.0, "name": "2e5303023e2765ad5c1f1791221787d2", "is_disabled": 0, "rental_uris": {"android": "https://dc.lft.to/lastmile_qr_scan", "ios": "https://dc.lft.to/lastmile_qr_scan"}, "fusion_lon": 0.0, "lat": 38.85528333333333, "bike_id": "2e5303023e2765ad5c1f1791221787d2", "type": "electric_bike", "is_reserved": 0, "lon": -77.12046566666666}, {"fusion_lat": 0.0, "name": "40447f9a9e4ba84e102a5d4cc3ccf950", "is_disabled": 0, "rental_uris": {"android": "https://dc.lft.to/lastmile_qr_scan", "ios": "https://dc.lft.to/lastmile_qr_scan"}, "fusion_lon": 0.0, "lat": 38.906897666666666, "bike_id": "40447f9a9e4ba84e102a5d4cc3ccf950", "type": "electric_scooter", "is_reserved": 0, "lon": -77.02698633333333}, {"fusion_lat": 0.0, "name": "6a3e724868c2219bda922cef59b4badd", "is_disabled": 0, "rental_uris": {"android": "https://dc.lft.to/lastmile_qr_scan", "ios": "https://dc.lft.to/lastmile_qr_scan"}, "fusion_lon": 0.0, "lat": 38.91327583333333, "bike_id": "6a3e724868c2219bda922cef59b4badd", "type": "electric_scooter", "is_reserved": 0, "lon": -77.03193116666667}, {"fusion_lat": 0.0, "name": "987a478284b721cb407a9079d653dd51", "is_disabled": 0, "rental_uris": {"android": "https://dc.lft.to/lastmile_qr_scan", "ios": "https://dc.lft.to/lastmile_qr_scan"}, "fusion_lon": 0.0, "lat": 38.90223666666667, "bike_id": "987a478284b721cb407a9079d653dd51", "type": "electric_scooter", "is_reserved": 0, "lon": -77.05945566666666}, {"fusion_lat": 0.0, "name": "ef387f966fb07589921245a9638fee3a", "is_disabled": 0, "rental_uris": {"android": "https://dc.lft.to/lastmile_qr_scan", "ios": "https://dc.lft.to/lastmile_qr_scan"}, "fusion_lon": 0.0, "lat": 38.88726616666667, "bike_id": "ef387f966fb07589921245a9638fee3a", "type": "electric_scooter", "is_reserved": 0, "lon": -76.98357983333334}, {"fusion_lat": 0.0, "name": "63e0f9e3bffd7a323f0992881afd1379", "is_disabled": 0, "rental_uris": {"android": "https://dc.lft.to/lastmile_qr_scan", "ios": "https://dc.lft.to/lastmile_qr_scan"}, "fusion_lon": 0.0, "lat": 38.920790833333335, "bike_id": "63e0f9e3bffd7a323f0992881afd1379", "type": "electric_bike", "is_reserved": 0, "lon": -76.9894435}, {"fusion_lat": 0.0, "name": "b1b62aefa42fefdd57aa563325274c57", "is_disabled": 0, "rental_uris": {"android": "https://dc.lft.to/lastmile_qr_scan", "ios": "https://dc.lft.to/lastmile_qr_scan"}, "fusion_lon": 0.0, "lat": 38.91267066666666, "bike_id": "b1b62aefa42fefdd57aa563325274c57", "type": "electric_scooter", "is_reserved": 0, "lon": -77.03880116666667}, {"fusion_lat": 0.0, "name": "d2d203a377eb79cbcc0bc35937b7027c", "is_disabled": 0, "rental_uris": {"android": "https://dc.lft.to/lastmile_qr_scan", "ios": "https://dc.lft.to/lastmile_qr_scan"}, "fusion_lon": 0.0, "lat": 38.942307, "bike_id": "d2d203a377eb79cbcc0bc35937b7027c", "type": "electric_scooter", "is_reserved": 0, "lon": -77.01384766666666}, {"fusion_lat": 0.0, "name": "606af638d335e6a6930e76c336fbe67e", "is_disabled": 0, "rental_uris": {"android": "https://dc.lft.to/lastmile_qr_scan", "ios": "https://dc.lft.to/lastmile_qr_scan"}, "fusion_lon": 0.0, "lat": 38.8974395, "bike_id": "606af638d335e6a6930e76c336fbe67e", "type": "electric_scooter", "is_reserved": 0, "lon": -77.0033115}, {"fusion_lat": 0.0, "name": "dace58866db909df49453933e33e9e42", "is_disabled": 0, "rental_uris": {"android": "https://dc.lft.to/lastmile_qr_scan", "ios": "https://dc.lft.to/lastmile_qr_scan"}, "fusion_lon": 0.0, "lat": 38.88544566666667, "bike_id": "dace58866db909df49453933e33e9e42", "type": "electric_scooter", "is_reserved": 0, "lon": -77.01506766666667}, {"fusion_lat": 0.0, "name": "5179542007af1b842692204587481081", "is_disabled": 0, "rental_uris": {"android": "https://dc.lft.to/lastmile_qr_scan", "ios": "https://dc.lft.to/lastmile_qr_scan"}, "fusion_lon": 0.0, "lat": 38.8933105, "bike_id": "5179542007af1b842692204587481081", "type": "electric_scooter", "is_reserved": 0, "lon": -77.02245716666667}, {"fusion_lat": 0.0, "name": "a2ba0b0f0d78554d7e427da73ac271e6", "is_disabled": 0, "rental_uris": {"android": "https://dc.lft.to/lastmile_qr_scan", "ios": "https://dc.lft.to/lastmile_qr_scan"}, "fusion_lon": 0.0, "lat": 38.901058166666665, "bike_id": "a2ba0b0f0d78554d7e427da73ac271e6", "type": "electric_scooter", "is_reserved": 0, "lon": -77.05132183333333}, {"fusion_lat": 0.0, "name": "4622dc09a2890d870b8cb477c31ec2a1", "is_disabled": 0, "rental_uris": {"android": "https://dc.lft.to/lastmile_qr_scan", "ios": "https://dc.lft.to/lastmile_qr_scan"}, "fusion_lon": 0.0, "lat": 38.936573833333334, "bike_id": "4622dc09a2890d870b8cb477c31ec2a1", "type": "electric_scooter", "is_reserved": 0, "lon": -77.03051616666667}, {"fusion_lat": 0.0, "name": "d2d451530349175c1375fad84b1214d8", "is_disabled": 0, "rental_uris": {"android": "https://dc.lft.to/lastmile_qr_scan", "ios": "https://dc.lft.to/lastmile_qr_scan"}, "fusion_lon": 0.0, "lat": 38.91123916666667, "bike_id": "d2d451530349175c1375fad84b1214d8", "type": "electric_scooter", "is_reserved": 0, "lon": -77.02199033333333}, {"fusion_lat": 0.0, "name": "0d145698a9dced13335c05ea678ff101", "is_disabled": 0, "rental_uris": {"android": "https://dc.lft.to/lastmile_qr_scan", "ios": "https://dc.lft.to/lastmile_qr_scan"}, "fusion_lon": 0.0, "lat": 38.90735983333333, "bike_id": "0d145698a9dced13335c05ea678ff101", "type": "electric_scooter", "is_reserved": 0, "lon": -77.043481}, {"fusion_lat": 0.0, "name": "dc03c6c92793a3e3f9d43c807eb3591e", "is_disabled": 0, "rental_uris": {"android": "https://dc.lft.to/lastmile_qr_scan", "ios": "https://dc.lft.to/lastmile_qr_scan"}, "fusion_lon": 0.0, "lat": 38.9039835, "bike_id": "dc03c6c92793a3e3f9d43c807eb3591e", "type": "electric_scooter", "is_reserved": 0, "lon": -77.06782016666666}, {"fusion_lat": 0.0, "name": "7b12fbdd274a99a0c7cc3bbab71ebfc5", "is_disabled": 0, "rental_uris": {"android": "https://dc.lft.to/lastmile_qr_scan", "ios": "https://dc.lft.to/lastmile_qr_scan"}, "fusion_lon": 0.0, "lat": 38.905132, "bike_id": "7b12fbdd274a99a0c7cc3bbab71ebfc5", "type": "electric_scooter", "is_reserved": 0, "lon": -77.0269825}, {"fusion_lat": 0.0, "name": "a53056184400375e462bf0c8a284c779", "is_disabled": 0, "rental_uris": {"android": "https://dc.lft.to/lastmile_qr_scan", "ios": "https://dc.lft.to/lastmile_qr_scan"}, "fusion_lon": 0.0, "lat": 38.887258833333334, "bike_id": "a53056184400375e462bf0c8a284c779", "type": "electric_scooter", "is_reserved": 0, "lon": -77.0219335}, {"fusion_lat": 0.0, "name": "fa3409d42a1c1393cface08fd18e5d49", "is_disabled": 0, "rental_uris": {"android": "https://dc.lft.to/lastmile_qr_scan", "ios": "https://dc.lft.to/lastmile_qr_scan"}, "fusion_lon": 0.0, "lat": 38.8633685, "bike_id": "fa3409d42a1c1393cface08fd18e5d49", "type": "electric_bike", "is_reserved": 0, "lon": -76.98723383333333}, {"fusion_lat": 0.0, "name": "6e9eb4da8bd2661f5d90bf971a1a3a86", "is_disabled": 0, "rental_uris": {"android": "https://dc.lft.to/lastmile_qr_scan", "ios": "https://dc.lft.to/lastmile_qr_scan"}, "fusion_lon": 0.0, "lat": 38.898414333333335, "bike_id": "6e9eb4da8bd2661f5d90bf971a1a3a86", "type": "electric_scooter", "is_reserved": 0, "lon": -77.02716966666667}, {"fusion_lat": 0.0, "name": "b2d5eb2f69d665226b5de557c9f23c20", "is_disabled": 0, "rental_uris": {"android": "https://dc.lft.to/lastmile_qr_scan", "ios": "https://dc.lft.to/lastmile_qr_scan"}, "fusion_lon": 0.0, "lat": 38.9162085, "bike_id": "b2d5eb2f69d665226b5de557c9f23c20", "type": "electric_scooter", "is_reserved": 0, "lon": -77.0112785}, {"fusion_lat": 0.0, "name": "53c0202fe9b038dd67f615db630422e6", "is_disabled": 0, "rental_uris": {"android": "https://dc.lft.to/lastmile_qr_scan", "ios": "https://dc.lft.to/lastmile_qr_scan"}, "fusion_lon": 0.0, "lat": 38.909313833333336, "bike_id": "53c0202fe9b038dd67f615db630422e6", "type": "electric_scooter", "is_reserved": 0, "lon": -77.04578933333333}, {"fusion_lat": 0.0, "name": "1b0bc96c24022b0c241a70f6d93374c9", "is_disabled": 0, "rental_uris": {"android": "https://dc.lft.to/lastmile_qr_scan", "ios": "https://dc.lft.to/lastmile_qr_scan"}, "fusion_lon": 0.0, "lat": 38.87994666666667, "bike_id": "1b0bc96c24022b0c241a70f6d93374c9", "type": "electric_scooter", "is_reserved": 0, "lon": -77.03738483333333}, {"fusion_lat": 0.0, "name": "41071c4354d175f61c0f92ee0c5a825e", "is_disabled": 0, "rental_uris": {"android": "https://dc.lft.to/lastmile_qr_scan", "ios": "https://dc.lft.to/lastmile_qr_scan"}, "fusion_lon": 0.0, "lat": 38.89983316666667, "bike_id": "41071c4354d175f61c0f92ee0c5a825e", "type": "electric_scooter", "is_reserved": 0, "lon": -77.04047966666667}, {"fusion_lat": 0.0, "name": "9b8c29e39d49ef71427ac65cb7822417", "is_disabled": 0, "rental_uris": {"android": "https://dc.lft.to/lastmile_qr_scan", "ios": "https://dc.lft.to/lastmile_qr_scan"}, "fusion_lon": 0.0, "lat": 38.9238015, "bike_id": "9b8c29e39d49ef71427ac65cb7822417", "type": "electric_scooter", "is_reserved": 0, "lon": -77.0753405}, {"fusion_lat": 0.0, "name": "c701ceb5f32ce440b3bc5cb066dff2be", "is_disabled": 0, "rental_uris": {"android": "https://dc.lft.to/lastmile_qr_scan", "ios": "https://dc.lft.to/lastmile_qr_scan"}, "fusion_lon": 0.0, "lat": 38.917058, "bike_id": "c701ceb5f32ce440b3bc5cb066dff2be", "type": "electric_scooter", "is_reserved": 0, "lon": -77.0324245}, {"fusion_lat": 0.0, "name": "f44ac9dd1d6379a2a6cd2c5283ce358d", "is_disabled": 0, "rental_uris": {"android": "https://dc.lft.to/lastmile_qr_scan", "ios": "https://dc.lft.to/lastmile_qr_scan"}, "fusion_lon": 0.0, "lat": 38.921241, "bike_id": "f44ac9dd1d6379a2a6cd2c5283ce358d", "type": "electric_scooter", "is_reserved": 0, "lon": -77.0442615}, {"fusion_lat": 0.0, "name": "68011443a22cbab0fdb0ec3cc3212d24", "is_disabled": 0, "rental_uris": {"android": "https://dc.lft.to/lastmile_qr_scan", "ios": "https://dc.lft.to/lastmile_qr_scan"}, "fusion_lon": 0.0, "lat": 38.918033333333334, "bike_id": "68011443a22cbab0fdb0ec3cc3212d24", "type": "electric_scooter", "is_reserved": 0, "lon": -77.0365925}, {"fusion_lat": 0.0, "name": "e7db67efb063df7859a26f63b2b68601", "is_disabled": 0, "rental_uris": {"android": "https://dc.lft.to/lastmile_qr_scan", "ios": "https://dc.lft.to/lastmile_qr_scan"}, "fusion_lon": 0.0, "lat": 38.9419155, "bike_id": "e7db67efb063df7859a26f63b2b68601", "type": "electric_scooter", "is_reserved": 0, "lon": -77.02407366666667}, {"fusion_lat": 0.0, "name": "6645b33903cf0167e46d1d1d44515dcb", "is_disabled": 0, "rental_uris": {"android": "https://dc.lft.to/lastmile_qr_scan", "ios": "https://dc.lft.to/lastmile_qr_scan"}, "fusion_lon": 0.0, "lat": 38.845107166666665, "bike_id": "6645b33903cf0167e46d1d1d44515dcb", "type": "electric_bike", "is_reserved": 0, "lon": -76.9935465}, {"fusion_lat": 0.0, "name": "108d0b6c6db715cbd658ed9ae21ec3f5", "is_disabled": 0, "rental_uris": {"android": "https://dc.lft.to/lastmile_qr_scan", "ios": "https://dc.lft.to/lastmile_qr_scan"}, "fusion_lon": 0.0, "lat": 38.907524, "bike_id": "108d0b6c6db715cbd658ed9ae21ec3f5", "type": "electric_scooter", "is_reserved": 0, "lon": -77.02380983333333}, {"fusion_lat": 0.0, "name": "a2d2d8b952b93a0dd2b6726c0741ca0a", "is_disabled": 0, "rental_uris": {"android": "https://dc.lft.to/lastmile_qr_scan", "ios": "https://dc.lft.to/lastmile_qr_scan"}, "fusion_lon": 0.0, "lat": 38.90409966666667, "bike_id": "a2d2d8b952b93a0dd2b6726c0741ca0a", "type": "electric_scooter", "is_reserved": 0, "lon": -77.02391316666667}, {"fusion_lat": 0.0, "name": "f91d04f295d9aaa65ac9e4756d2b2731", "is_disabled": 0, "rental_uris": {"android": "https://dc.lft.to/lastmile_qr_scan", "ios": "https://dc.lft.to/lastmile_qr_scan"}, "fusion_lon": 0.0, "lat": 38.907584666666665, "bike_id": "f91d04f295d9aaa65ac9e4756d2b2731", "type": "electric_scooter", "is_reserved": 0, "lon": -77.038451}, {"fusion_lat": 0.0, "name": "7eac9a5349bd4efe77ba65a512d72d3a", "is_disabled": 0, "rental_uris": {"android": "https://dc.lft.to/lastmile_qr_scan", "ios": "https://dc.lft.to/lastmile_qr_scan"}, "fusion_lon": 0.0, "lat": 38.90702816666666, "bike_id": "7eac9a5349bd4efe77ba65a512d72d3a", "type": "electric_scooter", "is_reserved": 0, "lon": -76.98702466666667}, {"fusion_lat": 0.0, "name": "5a96d5162f85439b88b4b55bdd77af8e", "is_disabled": 0, "rental_uris": {"android": "https://dc.lft.to/lastmile_qr_scan", "ios": "https://dc.lft.to/lastmile_qr_scan"}, "fusion_lon": 0.0, "lat": 38.93419166666666, "bike_id": "5a96d5162f85439b88b4b55bdd77af8e", "type": "electric_scooter", "is_reserved": 0, "lon": -77.0284135}, {"fusion_lat": 0.0, "name": "8cc553753dee61eaafc6434f7609c16d", "is_disabled": 0, "rental_uris": {"android": "https://dc.lft.to/lastmile_qr_scan", "ios": "https://dc.lft.to/lastmile_qr_scan"}, "fusion_lon": 0.0, "lat": 38.88662, "bike_id": "8cc553753dee61eaafc6434f7609c16d", "type": "electric_scooter", "is_reserved": 0, "lon": -77.0282795}, {"fusion_lat": 0.0, "name": "fec5b1fdf8eb8a7215c2bb243d44cb17", "is_disabled": 0, "rental_uris": {"android": "https://dc.lft.to/lastmile_qr_scan", "ios": "https://dc.lft.to/lastmile_qr_scan"}, "fusion_lon": 0.0, "lat": 38.92615416666666, "bike_id": "fec5b1fdf8eb8a7215c2bb243d44cb17", "type": "electric_scooter", "is_reserved": 0, "lon": -77.02160866666667}, {"fusion_lat": 0.0, "name": "ac1fe5a8260f65d6469488c9e1bb0c31", "is_disabled": 0, "rental_uris": {"android": "https://dc.lft.to/lastmile_qr_scan", "ios": "https://dc.lft.to/lastmile_qr_scan"}, "fusion_lon": 0.0, "lat": 38.924391666666665, "bike_id": "ac1fe5a8260f65d6469488c9e1bb0c31", "type": "electric_scooter", "is_reserved": 0, "lon": -77.0340475}, {"fusion_lat": 0.0, "name": "d8f032eaff9853171faafbcd3329f0fe", "is_disabled": 0, "rental_uris": {"android": "https://dc.lft.to/lastmile_qr_scan", "ios": "https://dc.lft.to/lastmile_qr_scan"}, "fusion_lon": 0.0, "lat": 38.88720083333333, "bike_id": "d8f032eaff9853171faafbcd3329f0fe", "type": "electric_scooter", "is_reserved": 0, "lon": -76.99686883333334}, {"fusion_lat": 0.0, "name": "4a479a350cf921dcb3a29b26232a97bd", "is_disabled": 0, "rental_uris": {"android": "https://dc.lft.to/lastmile_qr_scan", "ios": "https://dc.lft.to/lastmile_qr_scan"}, "fusion_lon": 0.0, "lat": 38.917254666666665, "bike_id": "4a479a350cf921dcb3a29b26232a97bd", "type": "electric_scooter", "is_reserved": 0, "lon": -77.03852933333333}, {"fusion_lat": 0.0, "name": "f822e9a2365aef79aaaa9c0fe3887042", "is_disabled": 0, "rental_uris": {"android": "https://dc.lft.to/lastmile_qr_scan", "ios": "https://dc.lft.to/lastmile_qr_scan"}, "fusion_lon": 0.0, "lat": 38.9243655, "bike_id": "f822e9a2365aef79aaaa9c0fe3887042", "type": "electric_scooter", "is_reserved": 0, "lon": -77.051944}, {"fusion_lat": 0.0, "name": "331a8ae33307997bbce9f3a668fb9b03", "is_disabled": 0, "rental_uris": {"android": "https://dc.lft.to/lastmile_qr_scan", "ios": "https://dc.lft.to/lastmile_qr_scan"}, "fusion_lon": 0.0, "lat": 38.93705033333333, "bike_id": "331a8ae33307997bbce9f3a668fb9b03", "type": "electric_scooter", "is_reserved": 0, "lon": -77.06098233333333}, {"fusion_lat": 0.0, "name": "7b217dbfb4951e4ce4a8c0e255bf061a", "is_disabled": 0, "rental_uris": {"android": "https://dc.lft.to/lastmile_qr_scan", "ios": "https://dc.lft.to/lastmile_qr_scan"}, "fusion_lon": 0.0, "lat": 38.892261166666664, "bike_id": "7b217dbfb4951e4ce4a8c0e255bf061a", "type": "electric_scooter", "is_reserved": 0, "lon": -77.03196583333333}, {"fusion_lat": 0.0, "name": "19d52853d835ff2e3dac5bba99105e80", "is_disabled": 0, "rental_uris": {"android": "https://dc.lft.to/lastmile_qr_scan", "ios": "https://dc.lft.to/lastmile_qr_scan"}, "fusion_lon": 0.0, "lat": 38.8625395, "bike_id": "19d52853d835ff2e3dac5bba99105e80", "type": "electric_scooter", "is_reserved": 0, "lon": -76.99510916666667}, {"fusion_lat": 0.0, "name": "7df821f40885b9654fc6de9a87dec5d3", "is_disabled": 0, "rental_uris": {"android": "https://dc.lft.to/lastmile_qr_scan", "ios": "https://dc.lft.to/lastmile_qr_scan"}, "fusion_lon": 0.0, "lat": 38.93967816666667, "bike_id": "7df821f40885b9654fc6de9a87dec5d3", "type": "electric_scooter", "is_reserved": 0, "lon": -77.032563}, {"fusion_lat": 0.0, "name": "24a556101d16169b43f2780030341165", "is_disabled": 0, "rental_uris": {"android": "https://dc.lft.to/lastmile_qr_scan", "ios": "https://dc.lft.to/lastmile_qr_scan"}, "fusion_lon": 0.0, "lat": 38.890056666666666, "bike_id": "24a556101d16169b43f2780030341165", "type": "electric_scooter", "is_reserved": 0, "lon": -76.93744816666667}, {"fusion_lat": 0.0, "name": "f215167c2cae62eff3b9a2cd78100a50", "is_disabled": 0, "rental_uris": {"android": "https://dc.lft.to/lastmile_qr_scan", "ios": "https://dc.lft.to/lastmile_qr_scan"}, "fusion_lon": 0.0, "lat": 38.93071033333333, "bike_id": "f215167c2cae62eff3b9a2cd78100a50", "type": "electric_scooter", "is_reserved": 0, "lon": -77.033727}, {"fusion_lat": 0.0, "name": "323e5380a7a71bf91eec6c987bfd65a9", "is_disabled": 0, "rental_uris": {"android": "https://dc.lft.to/lastmile_qr_scan", "ios": "https://dc.lft.to/lastmile_qr_scan"}, "fusion_lon": 0.0, "lat": 38.945144166666665, "bike_id": "323e5380a7a71bf91eec6c987bfd65a9", "type": "electric_scooter", "is_reserved": 0, "lon": -77.03889}, {"fusion_lat": 0.0, "name": "f43bbbe50e4aa8664b3bd46167ae1e1d", "is_disabled": 0, "rental_uris": {"android": "https://dc.lft.to/lastmile_qr_scan", "ios": "https://dc.lft.to/lastmile_qr_scan"}, "fusion_lon": 0.0, "lat": 38.892250833333335, "bike_id": "f43bbbe50e4aa8664b3bd46167ae1e1d", "type": "electric_scooter", "is_reserved": 0, "lon": -77.03220383333333}, {"fusion_lat": 0.0, "name": "b1fa47f7497a90773137631b4808c9d1", "is_disabled": 0, "rental_uris": {"android": "https://dc.lft.to/lastmile_qr_scan", "ios": "https://dc.lft.to/lastmile_qr_scan"}, "fusion_lon": 0.0, "lat": 38.9505805, "bike_id": "b1fa47f7497a90773137631b4808c9d1", "type": "electric_scooter", "is_reserved": 0, "lon": -77.08026383333333}, {"fusion_lat": 0.0, "name": "b9d88eecc38be884f6b6b5ed7379f199", "is_disabled": 0, "rental_uris": {"android": "https://dc.lft.to/lastmile_qr_scan", "ios": "https://dc.lft.to/lastmile_qr_scan"}, "fusion_lon": 0.0, "lat": 38.908289833333335, "bike_id": "b9d88eecc38be884f6b6b5ed7379f199", "type": "electric_scooter", "is_reserved": 0, "lon": -76.98423416666667}, {"fusion_lat": 0.0, "name": "027ef1100e490878ccdb13f8d336a57b", "is_disabled": 0, "rental_uris": {"android": "https://dc.lft.to/lastmile_qr_scan", "ios": "https://dc.lft.to/lastmile_qr_scan"}, "fusion_lon": 0.0, "lat": 38.91054233333333, "bike_id": "027ef1100e490878ccdb13f8d336a57b", "type": "electric_scooter", "is_reserved": 0, "lon": -77.04101583333333}, {"fusion_lat": 0.0, "name": "681be62dd485ba74ab42513cf84b9bdf", "is_disabled": 0, "rental_uris": {"android": "https://dc.lft.to/lastmile_qr_scan", "ios": "https://dc.lft.to/lastmile_qr_scan"}, "fusion_lon": 0.0, "lat": 38.91123316666667, "bike_id": "681be62dd485ba74ab42513cf84b9bdf", "type": "electric_scooter", "is_reserved": 0, "lon": -77.02196616666667}, {"fusion_lat": 0.0, "name": "4d65582a03bb6e81bd7493bc6a1818e8", "is_disabled": 0, "rental_uris": {"android": "https://dc.lft.to/lastmile_qr_scan", "ios": "https://dc.lft.to/lastmile_qr_scan"}, "fusion_lon": 0.0, "lat": 38.885932333333336, "bike_id": "4d65582a03bb6e81bd7493bc6a1818e8", "type": "electric_scooter", "is_reserved": 0, "lon": -77.0172025}, {"fusion_lat": 0.0, "name": "4ab04b53974ca91070857357d85424ee", "is_disabled": 0, "rental_uris": {"android": "https://dc.lft.to/lastmile_qr_scan", "ios": "https://dc.lft.to/lastmile_qr_scan"}, "fusion_lon": 0.0, "lat": 38.90623716666666, "bike_id": "4ab04b53974ca91070857357d85424ee", "type": "electric_scooter", "is_reserved": 0, "lon": -77.024074}, {"fusion_lat": 0.0, "name": "07902272159c0d7ccfc14b0e734059ba", "is_disabled": 0, "rental_uris": {"android": "https://dc.lft.to/lastmile_qr_scan", "ios": "https://dc.lft.to/lastmile_qr_scan"}, "fusion_lon": 0.0, "lat": 38.922882, "bike_id": "07902272159c0d7ccfc14b0e734059ba", "type": "electric_bike", "is_reserved": 0, "lon": -77.02243666666666}, {"fusion_lat": 0.0, "name": "3f520be19d947947e7f5ec3247e54524", "is_disabled": 0, "rental_uris": {"android": "https://dc.lft.to/lastmile_qr_scan", "ios": "https://dc.lft.to/lastmile_qr_scan"}, "fusion_lon": 0.0, "lat": 38.934029, "bike_id": "3f520be19d947947e7f5ec3247e54524", "type": "electric_scooter", "is_reserved": 0, "lon": -77.05748216666667}, {"fusion_lat": 0.0, "name": "773ed6c6217f5bda97b4971efdd4d7cb", "is_disabled": 0, "rental_uris": {"android": "https://dc.lft.to/lastmile_qr_scan", "ios": "https://dc.lft.to/lastmile_qr_scan"}, "fusion_lon": 0.0, "lat": 38.91692333333334, "bike_id": "773ed6c6217f5bda97b4971efdd4d7cb", "type": "electric_scooter", "is_reserved": 0, "lon": -77.02593816666666}, {"fusion_lat": 0.0, "name": "aa1472bb9e85ba4f38c4168e9e329734", "is_disabled": 0, "rental_uris": {"android": "https://dc.lft.to/lastmile_qr_scan", "ios": "https://dc.lft.to/lastmile_qr_scan"}, "fusion_lon": 0.0, "lat": 38.892322666666665, "bike_id": "aa1472bb9e85ba4f38c4168e9e329734", "type": "electric_scooter", "is_reserved": 0, "lon": -77.03167333333333}, {"fusion_lat": 0.0, "name": "9f9b2ed54f230eeaa234262f00a14f52", "is_disabled": 0, "rental_uris": {"android": "https://dc.lft.to/lastmile_qr_scan", "ios": "https://dc.lft.to/lastmile_qr_scan"}, "fusion_lon": 0.0, "lat": 38.962374833333335, "bike_id": "9f9b2ed54f230eeaa234262f00a14f52", "type": "electric_bike", "is_reserved": 0, "lon": -76.92758016666667}, {"fusion_lat": 0.0, "name": "997230da8bffbdad9ffc931030681155", "is_disabled": 0, "rental_uris": {"android": "https://dc.lft.to/lastmile_qr_scan", "ios": "https://dc.lft.to/lastmile_qr_scan"}, "fusion_lon": 0.0, "lat": 38.90564633333334, "bike_id": "997230da8bffbdad9ffc931030681155", "type": "electric_scooter", "is_reserved": 0, "lon": -77.02501516666666}, {"fusion_lat": 0.0, "name": "176fc103f319cf21e689fa4531a7df90", "is_disabled": 0, "rental_uris": {"android": "https://dc.lft.to/lastmile_qr_scan", "ios": "https://dc.lft.to/lastmile_qr_scan"}, "fusion_lon": 0.0, "lat": 38.9156625, "bike_id": "176fc103f319cf21e689fa4531a7df90", "type": "electric_scooter", "is_reserved": 0, "lon": -77.03145066666667}, {"fusion_lat": 0.0, "name": "f6ac8894cdbc91305835da7b9b897e54", "is_disabled": 0, "rental_uris": {"android": "https://dc.lft.to/lastmile_qr_scan", "ios": "https://dc.lft.to/lastmile_qr_scan"}, "fusion_lon": 0.0, "lat": 38.956869, "bike_id": "f6ac8894cdbc91305835da7b9b897e54", "type": "electric_scooter", "is_reserved": 0, "lon": -77.03250616666666}, {"fusion_lat": 0.0, "name": "f7d474eb0dd45befe4ef603ed4256d3b", "is_disabled": 0, "rental_uris": {"android": "https://dc.lft.to/lastmile_qr_scan", "ios": "https://dc.lft.to/lastmile_qr_scan"}, "fusion_lon": 0.0, "lat": 38.8890515, "bike_id": "f7d474eb0dd45befe4ef603ed4256d3b", "type": "electric_scooter", "is_reserved": 0, "lon": -76.99205116666667}, {"fusion_lat": 0.0, "name": "9cc3da78a2134ade75831f0eb160a52a", "is_disabled": 0, "rental_uris": {"android": "https://dc.lft.to/lastmile_qr_scan", "ios": "https://dc.lft.to/lastmile_qr_scan"}, "fusion_lon": 0.0, "lat": 38.92959533333333, "bike_id": "9cc3da78a2134ade75831f0eb160a52a", "type": "electric_scooter", "is_reserved": 0, "lon": -77.05501833333334}, {"fusion_lat": 0.0, "name": "d8771c57cc5597244ed924aadd8c7598", "is_disabled": 0, "rental_uris": {"android": "https://dc.lft.to/lastmile_qr_scan", "ios": "https://dc.lft.to/lastmile_qr_scan"}, "fusion_lon": 0.0, "lat": 38.9169595, "bike_id": "d8771c57cc5597244ed924aadd8c7598", "type": "electric_scooter", "is_reserved": 0, "lon": -77.03773133333333}, {"fusion_lat": 0.0, "name": "9c0a55d4b9dc4bd3e7cba90e94556d60", "is_disabled": 0, "rental_uris": {"android": "https://dc.lft.to/lastmile_qr_scan", "ios": "https://dc.lft.to/lastmile_qr_scan"}, "fusion_lon": 0.0, "lat": 38.9102935, "bike_id": "9c0a55d4b9dc4bd3e7cba90e94556d60", "type": "electric_scooter", "is_reserved": 0, "lon": -77.01510116666667}, {"fusion_lat": 0.0, "name": "587ef42e275f1be74f72e3750001be23", "is_disabled": 0, "rental_uris": {"android": "https://dc.lft.to/lastmile_qr_scan", "ios": "https://dc.lft.to/lastmile_qr_scan"}, "fusion_lon": 0.0, "lat": 38.935401666666664, "bike_id": "587ef42e275f1be74f72e3750001be23", "type": "electric_scooter", "is_reserved": 0, "lon": -77.02348233333333}, {"fusion_lat": 0.0, "name": "f8e0ddb45c54295af9ad64766eeed328", "is_disabled": 0, "rental_uris": {"android": "https://dc.lft.to/lastmile_qr_scan", "ios": "https://dc.lft.to/lastmile_qr_scan"}, "fusion_lon": 0.0, "lat": 38.87921266666667, "bike_id": "f8e0ddb45c54295af9ad64766eeed328", "type": "electric_scooter", "is_reserved": 0, "lon": -76.94481866666666}, {"fusion_lat": 0.0, "name": "24bdcc3bffff9cd1bec888b6975158e8", "is_disabled": 0, "rental_uris": {"android": "https://dc.lft.to/lastmile_qr_scan", "ios": "https://dc.lft.to/lastmile_qr_scan"}, "fusion_lon": 0.0, "lat": 38.90122683333333, "bike_id": "24bdcc3bffff9cd1bec888b6975158e8", "type": "electric_bike", "is_reserved": 0, "lon": -77.038086}, {"fusion_lat": 0.0, "name": "1ade147d420d237522b710f9f7a73b7b", "is_disabled": 0, "rental_uris": {"android": "https://dc.lft.to/lastmile_qr_scan", "ios": "https://dc.lft.to/lastmile_qr_scan"}, "fusion_lon": 0.0, "lat": 38.89353066666666, "bike_id": "1ade147d420d237522b710f9f7a73b7b", "type": "electric_bike", "is_reserved": 0, "lon": -77.187445}, {"fusion_lat": 0.0, "name": "991697b70a533ef2d47bd8dcddb3b57c", "is_disabled": 0, "rental_uris": {"android": "https://dc.lft.to/lastmile_qr_scan", "ios": "https://dc.lft.to/lastmile_qr_scan"}, "fusion_lon": 0.0, "lat": 38.926157, "bike_id": "991697b70a533ef2d47bd8dcddb3b57c", "type": "electric_scooter", "is_reserved": 0, "lon": -77.02160766666667}, {"fusion_lat": 0.0, "name": "629e632130c4c4d200a88e57dcecf79d", "is_disabled": 0, "rental_uris": {"android": "https://dc.lft.to/lastmile_qr_scan", "ios": "https://dc.lft.to/lastmile_qr_scan"}, "fusion_lon": 0.0, "lat": 38.949506666666665, "bike_id": "629e632130c4c4d200a88e57dcecf79d", "type": "electric_scooter", "is_reserved": 0, "lon": -77.02313}, {"fusion_lat": 0.0, "name": "f98eb774ce28edfcf452c1cb97fa46d6", "is_disabled": 0, "rental_uris": {"android": "https://dc.lft.to/lastmile_qr_scan", "ios": "https://dc.lft.to/lastmile_qr_scan"}, "fusion_lon": 0.0, "lat": 38.91966516666667, "bike_id": "f98eb774ce28edfcf452c1cb97fa46d6", "type": "electric_scooter", "is_reserved": 0, "lon": -77.02501266666667}, {"fusion_lat": 0.0, "name": "edbfeb4cc84a3dd8692ea6bf4e197e54", "is_disabled": 0, "rental_uris": {"android": "https://dc.lft.to/lastmile_qr_scan", "ios": "https://dc.lft.to/lastmile_qr_scan"}, "fusion_lon": 0.0, "lat": 38.898383, "bike_id": "edbfeb4cc84a3dd8692ea6bf4e197e54", "type": "electric_scooter", "is_reserved": 0, "lon": -77.03201883333334}, {"fusion_lat": 0.0, "name": "0189802470878789969a29c7f9310838", "is_disabled": 0, "rental_uris": {"android": "https://dc.lft.to/lastmile_qr_scan", "ios": "https://dc.lft.to/lastmile_qr_scan"}, "fusion_lon": 0.0, "lat": 38.9247565, "bike_id": "0189802470878789969a29c7f9310838", "type": "electric_scooter", "is_reserved": 0, "lon": -77.02834983333334}, {"fusion_lat": 0.0, "name": "4cd4570af05f5d034a5333fb583c8748", "is_disabled": 0, "rental_uris": {"android": "https://dc.lft.to/lastmile_qr_scan", "ios": "https://dc.lft.to/lastmile_qr_scan"}, "fusion_lon": 0.0, "lat": 38.91115833333333, "bike_id": "4cd4570af05f5d034a5333fb583c8748", "type": "electric_scooter", "is_reserved": 0, "lon": -77.00664916666666}, {"fusion_lat": 0.0, "name": "32d96b09b9564194d3a181368a4e5d68", "is_disabled": 0, "rental_uris": {"android": "https://dc.lft.to/lastmile_qr_scan", "ios": "https://dc.lft.to/lastmile_qr_scan"}, "fusion_lon": 0.0, "lat": 38.93077666666667, "bike_id": "32d96b09b9564194d3a181368a4e5d68", "type": "electric_scooter", "is_reserved": 0, "lon": -77.07762016666666}, {"fusion_lat": 0.0, "name": "73be3024ea1fa1a722f897ebc3a1aca0", "is_disabled": 0, "rental_uris": {"android": "https://dc.lft.to/lastmile_qr_scan", "ios": "https://dc.lft.to/lastmile_qr_scan"}, "fusion_lon": 0.0, "lat": 38.88063783333333, "bike_id": "73be3024ea1fa1a722f897ebc3a1aca0", "type": "electric_scooter", "is_reserved": 0, "lon": -77.02553316666666}, {"fusion_lat": 0.0, "name": "406002acae7de13477c302f0104f3cb6", "is_disabled": 0, "rental_uris": {"android": "https://dc.lft.to/lastmile_qr_scan", "ios": "https://dc.lft.to/lastmile_qr_scan"}, "fusion_lon": 0.0, "lat": 38.90409616666667, "bike_id": "406002acae7de13477c302f0104f3cb6", "type": "electric_scooter", "is_reserved": 0, "lon": -76.97329516666667}, {"fusion_lat": 0.0, "name": "88c4a01ec40438f64529b43affac967b", "is_disabled": 0, "rental_uris": {"android": "https://dc.lft.to/lastmile_qr_scan", "ios": "https://dc.lft.to/lastmile_qr_scan"}, "fusion_lon": 0.0, "lat": 38.907288, "bike_id": "88c4a01ec40438f64529b43affac967b", "type": "electric_scooter", "is_reserved": 0, "lon": -77.012151}, {"fusion_lat": 0.0, "name": "e14d6716cb04eee2d9b61fcdcdd4ef64", "is_disabled": 0, "rental_uris": {"android": "https://dc.lft.to/lastmile_qr_scan", "ios": "https://dc.lft.to/lastmile_qr_scan"}, "fusion_lon": 0.0, "lat": 38.90151733333333, "bike_id": "e14d6716cb04eee2d9b61fcdcdd4ef64", "type": "electric_scooter", "is_reserved": 0, "lon": -77.03336916666666}, {"fusion_lat": 0.0, "name": "7518f4601519a339cdad02653ba19755", "is_disabled": 0, "rental_uris": {"android": "https://dc.lft.to/lastmile_qr_scan", "ios": "https://dc.lft.to/lastmile_qr_scan"}, "fusion_lon": 0.0, "lat": 38.892325166666666, "bike_id": "7518f4601519a339cdad02653ba19755", "type": "electric_scooter", "is_reserved": 0, "lon": -77.031763}, {"fusion_lat": 0.0, "name": "7182cf7600c5e541f36f9bc4605c8dec", "is_disabled": 0, "rental_uris": {"android": "https://dc.lft.to/lastmile_qr_scan", "ios": "https://dc.lft.to/lastmile_qr_scan"}, "fusion_lon": 0.0, "lat": 38.902575166666665, "bike_id": "7182cf7600c5e541f36f9bc4605c8dec", "type": "electric_scooter", "is_reserved": 0, "lon": -76.97452583333333}, {"fusion_lat": 0.0, "name": "35f178f28483713c1b7e6c170e289a09", "is_disabled": 0, "rental_uris": {"android": "https://dc.lft.to/lastmile_qr_scan", "ios": "https://dc.lft.to/lastmile_qr_scan"}, "fusion_lon": 0.0, "lat": 38.91923166666667, "bike_id": "35f178f28483713c1b7e6c170e289a09", "type": "electric_scooter", "is_reserved": 0, "lon": -77.034417}, {"fusion_lat": 0.0, "name": "597f10f1a6dd0ffbbac31ba2e8892af6", "is_disabled": 0, "rental_uris": {"android": "https://dc.lft.to/lastmile_qr_scan", "ios": "https://dc.lft.to/lastmile_qr_scan"}, "fusion_lon": 0.0, "lat": 38.860216666666666, "bike_id": "597f10f1a6dd0ffbbac31ba2e8892af6", "type": "electric_bike", "is_reserved": 0, "lon": -77.12804933333334}, {"fusion_lat": 0.0, "name": "9613298f5c1f8dc0d315055c00c15ebb", "is_disabled": 0, "rental_uris": {"android": "https://dc.lft.to/lastmile_qr_scan", "ios": "https://dc.lft.to/lastmile_qr_scan"}, "fusion_lon": 0.0, "lat": 38.9562815, "bike_id": "9613298f5c1f8dc0d315055c00c15ebb", "type": "electric_scooter", "is_reserved": 0, "lon": -77.02315}, {"fusion_lat": 0.0, "name": "836c1d11b1507b2acb2908d110a043af", "is_disabled": 0, "rental_uris": {"android": "https://dc.lft.to/lastmile_qr_scan", "ios": "https://dc.lft.to/lastmile_qr_scan"}, "fusion_lon": 0.0, "lat": 38.904132, "bike_id": "836c1d11b1507b2acb2908d110a043af", "type": "electric_scooter", "is_reserved": 0, "lon": -77.0206815}, {"fusion_lat": 0.0, "name": "bd8e20b25e1e1adc0e69584a0c282e31", "is_disabled": 0, "rental_uris": {"android": "https://dc.lft.to/lastmile_qr_scan", "ios": "https://dc.lft.to/lastmile_qr_scan"}, "fusion_lon": 0.0, "lat": 38.95238716666667, "bike_id": "bd8e20b25e1e1adc0e69584a0c282e31", "type": "electric_scooter", "is_reserved": 0, "lon": -76.9901135}, {"fusion_lat": 0.0, "name": "b4c3ad3cce9e1c923767e63d55a36010", "is_disabled": 0, "rental_uris": {"android": "https://dc.lft.to/lastmile_qr_scan", "ios": "https://dc.lft.to/lastmile_qr_scan"}, "fusion_lon": 0.0, "lat": 38.923322166666665, "bike_id": "b4c3ad3cce9e1c923767e63d55a36010", "type": "electric_scooter", "is_reserved": 0, "lon": -77.02459166666667}, {"fusion_lat": 0.0, "name": "286818205988c12ceb1d9a90d46798fd", "is_disabled": 0, "rental_uris": {"android": "https://dc.lft.to/lastmile_qr_scan", "ios": "https://dc.lft.to/lastmile_qr_scan"}, "fusion_lon": 0.0, "lat": 38.93139383333333, "bike_id": "286818205988c12ceb1d9a90d46798fd", "type": "electric_scooter", "is_reserved": 0, "lon": -77.03256416666666}, {"fusion_lat": 0.0, "name": "77af8d1a9766d289ef2d844f618eb44f", "is_disabled": 0, "rental_uris": {"android": "https://dc.lft.to/lastmile_qr_scan", "ios": "https://dc.lft.to/lastmile_qr_scan"}, "fusion_lon": 0.0, "lat": 38.89563533333333, "bike_id": "77af8d1a9766d289ef2d844f618eb44f", "type": "electric_scooter", "is_reserved": 0, "lon": -77.027275}, {"fusion_lat": 0.0, "name": "5f1cdc83b7dc62be7545a44689a80cc9", "is_disabled": 0, "rental_uris": {"android": "https://dc.lft.to/lastmile_qr_scan", "ios": "https://dc.lft.to/lastmile_qr_scan"}, "fusion_lon": 0.0, "lat": 38.9079285, "bike_id": "5f1cdc83b7dc62be7545a44689a80cc9", "type": "electric_scooter", "is_reserved": 0, "lon": -77.01119366666667}, {"fusion_lat": 0.0, "name": "e9527f430966a7e57934a5b317f7f7bc", "is_disabled": 0, "rental_uris": {"android": "https://dc.lft.to/lastmile_qr_scan", "ios": "https://dc.lft.to/lastmile_qr_scan"}, "fusion_lon": 0.0, "lat": 38.897321, "bike_id": "e9527f430966a7e57934a5b317f7f7bc", "type": "electric_scooter", "is_reserved": 0, "lon": -76.94701783333333}, {"fusion_lat": 0.0, "name": "72b3fb3dcb293a91284d8c1ed808f670", "is_disabled": 0, "rental_uris": {"android": "https://dc.lft.to/lastmile_qr_scan", "ios": "https://dc.lft.to/lastmile_qr_scan"}, "fusion_lon": 0.0, "lat": 38.86257916666667, "bike_id": "72b3fb3dcb293a91284d8c1ed808f670", "type": "electric_bike", "is_reserved": 0, "lon": -76.9835005}, {"fusion_lat": 0.0, "name": "e6ea84cdb9f21c016a1c31429fba7011", "is_disabled": 0, "rental_uris": {"android": "https://dc.lft.to/lastmile_qr_scan", "ios": "https://dc.lft.to/lastmile_qr_scan"}, "fusion_lon": 0.0, "lat": 38.93141266666667, "bike_id": "e6ea84cdb9f21c016a1c31429fba7011", "type": "electric_scooter", "is_reserved": 0, "lon": -77.038305}, {"fusion_lat": 0.0, "name": "5fa21604cafb82b14ab30e4573d4c843", "is_disabled": 0, "rental_uris": {"android": "https://dc.lft.to/lastmile_qr_scan", "ios": "https://dc.lft.to/lastmile_qr_scan"}, "fusion_lon": 0.0, "lat": 38.881584833333335, "bike_id": "5fa21604cafb82b14ab30e4573d4c843", "type": "electric_scooter", "is_reserved": 0, "lon": -77.0275185}, {"fusion_lat": 0.0, "name": "0a89d5b8a4f005e757e2fbde7dee92c3", "is_disabled": 0, "rental_uris": {"android": "https://dc.lft.to/lastmile_qr_scan", "ios": "https://dc.lft.to/lastmile_qr_scan"}, "fusion_lon": 0.0, "lat": 38.91983116666667, "bike_id": "0a89d5b8a4f005e757e2fbde7dee92c3", "type": "electric_scooter", "is_reserved": 0, "lon": -77.04177716666666}, {"fusion_lat": 0.0, "name": "62da203b9fdefc612751031ca8c425b2", "is_disabled": 0, "rental_uris": {"android": "https://dc.lft.to/lastmile_qr_scan", "ios": "https://dc.lft.to/lastmile_qr_scan"}, "fusion_lon": 0.0, "lat": 38.91396233333333, "bike_id": "62da203b9fdefc612751031ca8c425b2", "type": "electric_scooter", "is_reserved": 0, "lon": -77.04172216666667}, {"fusion_lat": 0.0, "name": "ac830ad5a30caf576b99dc3c65946c05", "is_disabled": 0, "rental_uris": {"android": "https://dc.lft.to/lastmile_qr_scan", "ios": "https://dc.lft.to/lastmile_qr_scan"}, "fusion_lon": 0.0, "lat": 38.93048233333333, "bike_id": "ac830ad5a30caf576b99dc3c65946c05", "type": "electric_scooter", "is_reserved": 0, "lon": -77.03608733333333}, {"fusion_lat": 0.0, "name": "1cb60e3a187cd516b3c45a970f4673fa", "is_disabled": 0, "rental_uris": {"android": "https://dc.lft.to/lastmile_qr_scan", "ios": "https://dc.lft.to/lastmile_qr_scan"}, "fusion_lon": 0.0, "lat": 38.9360995, "bike_id": "1cb60e3a187cd516b3c45a970f4673fa", "type": "electric_scooter", "is_reserved": 0, "lon": -77.03662616666666}, {"fusion_lat": 0.0, "name": "9d82f95bd418a382ddcd02b3436650b2", "is_disabled": 0, "rental_uris": {"android": "https://dc.lft.to/lastmile_qr_scan", "ios": "https://dc.lft.to/lastmile_qr_scan"}, "fusion_lon": 0.0, "lat": 38.87180466666667, "bike_id": "9d82f95bd418a382ddcd02b3436650b2", "type": "electric_scooter", "is_reserved": 0, "lon": -77.00616983333333}, {"fusion_lat": 0.0, "name": "7793ce09c3a28cb1783be70a94215671", "is_disabled": 0, "rental_uris": {"android": "https://dc.lft.to/lastmile_qr_scan", "ios": "https://dc.lft.to/lastmile_qr_scan"}, "fusion_lon": 0.0, "lat": 38.902987333333336, "bike_id": "7793ce09c3a28cb1783be70a94215671", "type": "electric_scooter", "is_reserved": 0, "lon": -77.06524716666667}, {"fusion_lat": 0.0, "name": "0ac8da0f4b90e395a0a358d02966fbfc", "is_disabled": 0, "rental_uris": {"android": "https://dc.lft.to/lastmile_qr_scan", "ios": "https://dc.lft.to/lastmile_qr_scan"}, "fusion_lon": 0.0, "lat": 38.90563683333333, "bike_id": "0ac8da0f4b90e395a0a358d02966fbfc", "type": "electric_scooter", "is_reserved": 0, "lon": -77.01312583333333}, {"fusion_lat": 0.0, "name": "d7269d76f9dbf4b91a160554fd8de78b", "is_disabled": 0, "rental_uris": {"android": "https://dc.lft.to/lastmile_qr_scan", "ios": "https://dc.lft.to/lastmile_qr_scan"}, "fusion_lon": 0.0, "lat": 38.857952166666664, "bike_id": "d7269d76f9dbf4b91a160554fd8de78b", "type": "electric_bike", "is_reserved": 0, "lon": -77.12013033333334}, {"fusion_lat": 0.0, "name": "a6ff0801f7353d36e600ede823b2b68d", "is_disabled": 0, "rental_uris": {"android": "https://dc.lft.to/lastmile_qr_scan", "ios": "https://dc.lft.to/lastmile_qr_scan"}, "fusion_lon": 0.0, "lat": 38.94205433333333, "bike_id": "a6ff0801f7353d36e600ede823b2b68d", "type": "electric_bike", "is_reserved": 0, "lon": -77.01827783333333}, {"fusion_lat": 0.0, "name": "cd1372a29306db011847b330ca0c9754", "is_disabled": 0, "rental_uris": {"android": "https://dc.lft.to/lastmile_qr_scan", "ios": "https://dc.lft.to/lastmile_qr_scan"}, "fusion_lon": 0.0, "lat": 38.93065383333333, "bike_id": "cd1372a29306db011847b330ca0c9754", "type": "electric_scooter", "is_reserved": 0, "lon": -77.0297795}, {"fusion_lat": 0.0, "name": "1170e469c3143476f2af8ff7600fe7f2", "is_disabled": 0, "rental_uris": {"android": "https://dc.lft.to/lastmile_qr_scan", "ios": "https://dc.lft.to/lastmile_qr_scan"}, "fusion_lon": 0.0, "lat": 38.88057033333333, "bike_id": "1170e469c3143476f2af8ff7600fe7f2", "type": "electric_scooter", "is_reserved": 0, "lon": -76.93215133333334}, {"fusion_lat": 0.0, "name": "12620df3905137124e7492c81897e947", "is_disabled": 0, "rental_uris": {"android": "https://dc.lft.to/lastmile_qr_scan", "ios": "https://dc.lft.to/lastmile_qr_scan"}, "fusion_lon": 0.0, "lat": 38.904373166666666, "bike_id": "12620df3905137124e7492c81897e947", "type": "electric_scooter", "is_reserved": 0, "lon": -77.02977133333333}, {"fusion_lat": 0.0, "name": "8aedfc32fd8e3381c08a9fca975bb996", "is_disabled": 0, "rental_uris": {"android": "https://dc.lft.to/lastmile_qr_scan", "ios": "https://dc.lft.to/lastmile_qr_scan"}, "fusion_lon": 0.0, "lat": 38.9140015, "bike_id": "8aedfc32fd8e3381c08a9fca975bb996", "type": "electric_scooter", "is_reserved": 0, "lon": -77.03182483333333}, {"fusion_lat": 0.0, "name": "0529124a97a26b10023da4640b829e97", "is_disabled": 0, "rental_uris": {"android": "https://dc.lft.to/lastmile_qr_scan", "ios": "https://dc.lft.to/lastmile_qr_scan"}, "fusion_lon": 0.0, "lat": 38.925557, "bike_id": "0529124a97a26b10023da4640b829e97", "type": "electric_scooter", "is_reserved": 0, "lon": -77.0227965}, {"fusion_lat": 0.0, "name": "6572a1389e199b5ca53467b8bfb52d9f", "is_disabled": 0, "rental_uris": {"android": "https://dc.lft.to/lastmile_qr_scan", "ios": "https://dc.lft.to/lastmile_qr_scan"}, "fusion_lon": 0.0, "lat": 38.8981865, "bike_id": "6572a1389e199b5ca53467b8bfb52d9f", "type": "electric_scooter", "is_reserved": 0, "lon": -77.03326116666666}, {"fusion_lat": 0.0, "name": "f17f2a3581f26b92839d1bf18da4c3fb", "is_disabled": 0, "rental_uris": {"android": "https://dc.lft.to/lastmile_qr_scan", "ios": "https://dc.lft.to/lastmile_qr_scan"}, "fusion_lon": 0.0, "lat": 38.9124975, "bike_id": "f17f2a3581f26b92839d1bf18da4c3fb", "type": "electric_scooter", "is_reserved": 0, "lon": -77.0332435}, {"fusion_lat": 0.0, "name": "88ad7f559d25eaefa86aeb0b60a6c73b", "is_disabled": 0, "rental_uris": {"android": "https://dc.lft.to/lastmile_qr_scan", "ios": "https://dc.lft.to/lastmile_qr_scan"}, "fusion_lon": 0.0, "lat": 38.92558916666667, "bike_id": "88ad7f559d25eaefa86aeb0b60a6c73b", "type": "electric_scooter", "is_reserved": 0, "lon": -77.02278266666667}, {"fusion_lat": 0.0, "name": "6128345b5510bf52fda1237d4b439154", "is_disabled": 0, "rental_uris": {"android": "https://dc.lft.to/lastmile_qr_scan", "ios": "https://dc.lft.to/lastmile_qr_scan"}, "fusion_lon": 0.0, "lat": 38.90734833333333, "bike_id": "6128345b5510bf52fda1237d4b439154", "type": "electric_scooter", "is_reserved": 0, "lon": -77.03862533333333}, {"fusion_lat": 0.0, "name": "951d53b91436b005871c21107bd33c60", "is_disabled": 0, "rental_uris": {"android": "https://dc.lft.to/lastmile_qr_scan", "ios": "https://dc.lft.to/lastmile_qr_scan"}, "fusion_lon": 0.0, "lat": 38.879663666666666, "bike_id": "951d53b91436b005871c21107bd33c60", "type": "electric_scooter", "is_reserved": 0, "lon": -77.006001},