{"data": {"bikes": [{"rental_uris": {"android": "https://dc.lft.to/lastmile_qr_scan", "ios": "https://dc.lft.to/lastmile_qr_scan"}, "lat": 38.9136085, "type": "electric_scooter", "name": "ffe5fe1474163fe76f3a7bdf6747947b", "fusion_lon": 0.0, "fusion_lat": 0.0, "is_reserved": 0, "bike_id": "ffe5fe1474163fe76f3a7bdf6747947b", "lon": -77.0458455, "is_disabled": 0}, {"rental_uris": {"android": "https://dc.lft.to/lastmile_qr_scan", "ios": "https://dc.lft.to/lastmile_qr_scan"}, "lat": 38.902845, "type": "electric_scooter", "name": "81a95fdb778e33e27b584cac119d3d78", "fusion_lon": 0.0, "fusion_lat": 0.0, "is_reserved": 0, "bike_id": "81a95fdb778e33e27b584cac119d3d78", "lon": -77.04268783333333, "is_disabled": 0}, {"rental_uris": {"android": "https://dc.lft.to/lastmile_qr_scan", "ios": "https://dc.lft.to/lastmile_qr_scan"}, "lat": 38.923671166666665, "type": "electric_scooter", "name": "2d8a15588a2b96fbed4918f2dc39dcf7", "fusion_lon": 0.0, "fusion_lat": 0.0, "is_reserved": 0, "bike_id": "2d8a15588a2b96fbed4918f2dc39dcf7", "lon": -77.01911, "is_disabled": 0}, {"rental_uris": {"android": "https://dc.lft.to/lastmile_qr_scan", "ios": "https://dc.lft.to/lastmile_qr_scan"}, "lat": 38.918121, "type": "electric_scooter", "name": "191fc5437189196fea55d70616c48930", "fusion_lon": 0.0, "fusion_lat": 0.0, "is_reserved": 0, "bike_id": "191fc5437189196fea55d70616c48930", "lon": -77.02505, "is_disabled": 0}, {"rental_uris": {"android": "https://dc.lft.to/lastmile_qr_scan", "ios": "https://dc.lft.to/lastmile_qr_scan"}, "lat": 38.9079525, "type": "electric_scooter", "name": "8b18cc6f0a9ddeeddcebc8206c1661e6", "fusion_lon": 0.0, "fusion_lat": 0.0, "is_reserved": 0, "bike_id": "8b18cc6f0a9ddeeddcebc8206c1661e6", "lon": -76.9971735, "is_disabled": 0}, {"rental_uris": {"android": "https://dc.lft.to/lastmile_qr_scan", "ios": "https://dc.lft.to/lastmile_qr_scan"}, "lat": 38.936618, "type": "electric_scooter", "name": "47a9fa5109ff292c708d800a0ddcacaf", "fusion_lon": 0.0, "fusion_lat": 0.0, "is_reserved": 0, "bike_id": "47a9fa5109ff292c708d800a0ddcacaf", "lon": -77.06607833333334, "is_disabled": 0}, {"rental_uris": {"android": "https://dc.lft.to/lastmile_qr_scan", "ios": "https://dc.lft.to/lastmile_qr_scan"}, "lat": 38.92674183333333, "type": "electric_scooter", "name": "c6b24a8cb13d3c4d953d2a3563372e3c", "fusion_lon": 0.0, "fusion_lat": 0.0, "is_reserved": 0, "bike_id": "c6b24a8cb13d3c4d953d2a3563372e3c", "lon": -77.01470383333333, "is_disabled": 0}, {"rental_uris": {"android": "https://dc.lft.to/lastmile_qr_scan", "ios": "https://dc.lft.to/lastmile_qr_scan"}, "lat": 38.8951415, "type": "electric_scooter", "name": "184743fe0fccf337b147e3a1cdefac3e", "fusion_lon": 0.0, "fusion_lat": 0.0, "is_reserved": 0, "bike_id": "184743fe0fccf337b147e3a1cdefac3e", "lon": -77.046745, "is_disabled": 0}, {"rental_uris": {"android": "https://dc.lft.to/lastmile_qr_scan", "ios": "https://dc.lft.to/lastmile_qr_scan"}, "lat": 38.92334983333333, "type": "electric_scooter", "name": "090114566bba7eff625b40a131aca918", "fusion_lon": 0.0, "fusion_lat": 0.0, "is_reserved": 0, "bike_id": "090114566bba7eff625b40a131aca918", "lon": -77.05678166666667, "is_disabled": 0}, {"rental_uris": {"android": "https://dc.lft.to/lastmile_qr_scan", "ios": "https://dc.lft.to/lastmile_qr_scan"}, "lat": 38.905121, "type": "electric_scooter", "name": "1daa7dc935d1fd11467704790409649e", "fusion_lon": 0.0, "fusion_lat": 0.0, "is_reserved": 0, "bike_id": "1daa7dc935d1fd11467704790409649e", "lon": -77.06047683333334, "is_disabled": 0}, {"rental_uris": {"android": "https://dc.lft.to/lastmile_qr_scan", "ios": "https://dc.lft.to/lastmile_qr_scan"}, "lat": 38.912668, "type": "electric_scooter", "name": "8d37faa3b1986a55abcebe37305c61c9", "fusion_lon": 0.0, "fusion_lat": 0.0, "is_reserved": 0, "bike_id": "8d37faa3b1986a55abcebe37305c61c9", "lon": -77.037147, "is_disabled": 0}, {"rental_uris": {"android": "https://dc.lft.to/lastmile_qr_scan", "ios": "https://dc.lft.to/lastmile_qr_scan"}, "lat": 38.922406, "type": "electric_scooter", "name": "ef1a5915992e999bdd9a3fe9189870cf", "fusion_lon": 0.0, "fusion_lat": 0.0, "is_reserved": 0, "bike_id": "ef1a5915992e999bdd9a3fe9189870cf", "lon": -77.03518416666667, "is_disabled": 0}, {"rental_uris": {"android": "https://dc.lft.to/lastmile_qr_scan", "ios": "https://dc.lft.to/lastmile_qr_scan"}, "lat": 38.9046975, "type": "electric_scooter", "name": "11be4bc01dcf3ab992803d515afd11ca", "fusion_lon": 0.0, "fusion_lat": 0.0, "is_reserved": 0, "bike_id": "11be4bc01dcf3ab992803d515afd11ca", "lon": -77.03558483333333, "is_disabled": 0}, {"rental_uris": {"android": "https://dc.lft.to/lastmile_qr_scan", "ios": "https://dc.lft.to/lastmile_qr_scan"}, "lat": 38.924116, "type": "electric_scooter", "name": "537e7e025d2dfc6a2e53be7f6d80370e", "fusion_lon": 0.0, "fusion_lat": 0.0, "is_reserved": 0, "bike_id": "537e7e025d2dfc6a2e53be7f6d80370e", "lon": -77.022759, "is_disabled": 0}, {"rental_uris": {"android": "https://dc.lft.to/lastmile_qr_scan", "ios": "https://dc.lft.to/lastmile_qr_scan"}, "lat": 38.9355565, "type": "electric_scooter", "name": "623bf893101fb3317ee225b567417cab", "fusion_lon": 0.0, "fusion_lat": 0.0, "is_reserved": 0, "bike_id": "623bf893101fb3317ee225b567417cab", "lon": -77.07708866666667, "is_disabled": 0}, {"rental_uris": {"android": "https://dc.lft.to/lastmile_qr_scan", "ios": "https://dc.lft.to/lastmile_qr_scan"}, "lat": 38.899064, "type": "electric_scooter", "name": "9eb53183381b7796a238f84ede7285bb", "fusion_lon": 0.0, "fusion_lat": 0.0, "is_reserved": 0, "bike_id": "9eb53183381b7796a238f84ede7285bb", "lon": -77.0405905, "is_disabled": 0}, {"rental_uris": {"android": "https://dc.lft.to/lastmile_qr_scan", "ios": "https://dc.lft.to/lastmile_qr_scan"}, "lat": 38.9386055, "type": "electric_scooter", "name": "c39c924ef498e335684634c9be35d5d4", "fusion_lon": 0.0, "fusion_lat": 0.0, "is_reserved": 0, "bike_id": "c39c924ef498e335684634c9be35d5d4", "lon": -76.994329, "is_disabled": 0}, {"rental_uris": {"android": "https://dc.lft.to/lastmile_qr_scan", "ios": "https://dc.lft.to/lastmile_qr_scan"}, "lat": 38.8850855, "type": "electric_scooter", "name": "d7cd448756fe63452d1c41574168a6a7", "fusion_lon": 0.0, "fusion_lat": 0.0, "is_reserved": 0, "bike_id": "d7cd448756fe63452d1c41574168a6a7", "lon": -77.00566533333334, "is_disabled": 0}, {"rental_uris": {"android": "https://dc.lft.to/lastmile_qr_scan", "ios": "https://dc.lft.to/lastmile_qr_scan"}, "lat": 38.89536483333333, "type": "electric_scooter", "name": "ae29599532e448c9eb5f87c024490f77", "fusion_lon": 0.0, "fusion_lat": 0.0, "is_reserved": 0, "bike_id": "ae29599532e448c9eb5f87c024490f77", "lon": -77.00343433333333, "is_disabled": 0}, {"rental_uris": {"android": "https://dc.lft.to/lastmile_qr_scan", "ios": "https://dc.lft.to/lastmile_qr_scan"}, "lat": 38.862471, "type": "electric_scooter", "name": "e89f796bbfff0ee9a1bd28c1bf31cb22", "fusion_lon": 0.0, "fusion_lat": 0.0, "is_reserved": 0, "bike_id": "e89f796bbfff0ee9a1bd28c1bf31cb22", "lon": -76.99499166666666, "is_disabled": 0}, {"rental_uris": {"android": "https://dc.lft.to/lastmile_qr_scan", "ios": "https://dc.lft.to/lastmile_qr_scan"}, "lat": 38.95332633333334, "type": "electric_bike", "name": "d75da65c5160dc1245c43fff331c1c24", "fusion_lon": 0.0, "fusion_lat": 0.0, "is_reserved": 0, "bike_id": "d75da65c5160dc1245c43fff331c1c24", "lon": -76.98251916666666, "is_disabled": 0}, {"rental_uris": {"android": "https://dc.lft.to/lastmile_qr_scan", "ios": "https://dc.lft.to/lastmile_qr_scan"}, "lat": 38.908744666666664, "type": "electric_scooter", "name": "202e4eab6d8462a211943ae8cf475c96", "fusion_lon": 0.0, "fusion_lat": 0.0, "is_reserved": 0, "bike_id": "202e4eab6d8462a211943ae8cf475c96", "lon": -77.04048433333334, "is_disabled": 0}, {"rental_uris": {"android": "https://dc.lft.to/lastmile_qr_scan", "ios": "https://dc.lft.to/lastmile_qr_scan"}, "lat": 38.920708166666664, "type": "electric_scooter", "name": "e5ca6acd9627cb1c8634a08d9d69c4b9", "fusion_lon": 0.0, "fusion_lat": 0.0, "is_reserved": 0, "bike_id": "e5ca6acd9627cb1c8634a08d9d69c4b9", "lon": -77.03302866666667, "is_disabled": 0}, {"rental_uris": {"android": "https://dc.lft.to/lastmile_qr_scan", "ios": "https://dc.lft.to/lastmile_qr_scan"}, "lat": 38.90598116666666, "type": "electric_scooter", "name": "24920ca6f34fc52ae0239ceacdff2051", "fusion_lon": 0.0, "fusion_lat": 0.0, "is_reserved": 0, "bike_id": "24920ca6f34fc52ae0239ceacdff2051", "lon": -76.99497016666666, "is_disabled": 0}, {"rental_uris": {"android": "https://dc.lft.to/lastmile_qr_scan", "ios": "https://dc.lft.to/lastmile_qr_scan"}, "lat": 38.902636666666666, "type": "electric_scooter", "name": "c8c7821a2c2e50502b192d26893d3500", "fusion_lon": 0.0, "fusion_lat": 0.0, "is_reserved": 0, "bike_id": "c8c7821a2c2e50502b192d26893d3500", "lon": -77.0405995, "is_disabled": 0}, {"rental_uris": {"android": "https://dc.lft.to/lastmile_qr_scan", "ios": "https://dc.lft.to/lastmile_qr_scan"}, "lat": 38.915813666666665, "type": "electric_scooter", "name": "014ae13f7f7467ce604e81444bbdd39c", "fusion_lon": 0.0, "fusion_lat": 0.0, "is_reserved": 0, "bike_id": "014ae13f7f7467ce604e81444bbdd39c", "lon": -77.0200595, "is_disabled": 0}, {"rental_uris": {"android": "https://dc.lft.to/lastmile_qr_scan", "ios": "https://dc.lft.to/lastmile_qr_scan"}, "lat": 38.8793545, "type": "electric_scooter", "name": "86742005cdda097c1c3e072d1144831d", "fusion_lon": 0.0, "fusion_lat": 0.0, "is_reserved": 0, "bike_id": "86742005cdda097c1c3e072d1144831d", "lon": -76.99371683333334, "is_disabled": 0}, {"rental_uris": {"android": "https://dc.lft.to/lastmile_qr_scan", "ios": "https://dc.lft.to/lastmile_qr_scan"}, "lat": 38.90005766666667, "type": "electric_scooter", "name": "b0e942ca7d9a38757be167d1cc439e38", "fusion_lon": 0.0, "fusion_lat": 0.0, "is_reserved": 0, "bike_id": "b0e942ca7d9a38757be167d1cc439e38", "lon": -77.05530516666667, "is_disabled": 0}, {"rental_uris": {"android": "https://dc.lft.to/lastmile_qr_scan", "ios": "https://dc.lft.to/lastmile_qr_scan"}, "lat": 38.90673616666667, "type": "electric_scooter", "name": "b159216b7e22bd61c423aa7ed3175f9f", "fusion_lon": 0.0, "fusion_lat": 0.0, "is_reserved": 0, "bike_id": "b159216b7e22bd61c423aa7ed3175f9f", "lon": -77.0379985, "is_disabled": 0}, {"rental_uris": {"android": "https://dc.lft.to/lastmile_qr_scan", "ios": "https://dc.lft.to/lastmile_qr_scan"}, "lat": 38.922058166666666, "type": "electric_scooter", "name": "6d4a993abc7f187c279ae395a0f45f47", "fusion_lon": 0.0, "fusion_lat": 0.0, "is_reserved": 0, "bike_id": "6d4a993abc7f187c279ae395a0f45f47", "lon": -77.020336, "is_disabled": 0}, {"rental_uris": {"android": "https://dc.lft.to/lastmile_qr_scan", "ios": "https://dc.lft.to/lastmile_qr_scan"}, "lat": 38.95651983333333, "type": "electric_scooter", "name": "a9c59e79a02628f06d1e5f932d6f3922", "fusion_lon": 0.0, "fusion_lat": 0.0, "is_reserved": 0, "bike_id": "a9c59e79a02628f06d1e5f932d6f3922", "lon": -77.0123785, "is_disabled": 0}, {"rental_uris": {"android": "https://dc.lft.to/lastmile_qr_scan", "ios": "https://dc.lft.to/lastmile_qr_scan"}, "lat": 38.896460166666664, "type": "electric_scooter", "name": "6652695ed9ee7a34fd5c66bedbf885f1", "fusion_lon": 0.0, "fusion_lat": 0.0, "is_reserved": 0, "bike_id": "6652695ed9ee7a34fd5c66bedbf885f1", "lon": -77.0405365, "is_disabled": 0}, {"rental_uris": {"android": "https://dc.lft.to/lastmile_qr_scan", "ios": "https://dc.lft.to/lastmile_qr_scan"}, "lat": 38.909355166666664, "type": "electric_scooter", "name": "acdbec95999f228a7274121f2544b386", "fusion_lon": 0.0, "fusion_lat": 0.0, "is_reserved": 0, "bike_id": "acdbec95999f228a7274121f2544b386", "lon": -77.03197466666667, "is_disabled": 0}, {"rental_uris": {"android": "https://dc.lft.to/lastmile_qr_scan", "ios": "https://dc.lft.to/lastmile_qr_scan"}, "lat": 38.92667, "type": "electric_scooter", "name": "d09f0e8607835a8b7d04cfb6e8717096", "fusion_lon": 0.0, "fusion_lat": 0.0, "is_reserved": 0, "bike_id": "d09f0e8607835a8b7d04cfb6e8717096", "lon": -77.06011966666667, "is_disabled": 0}, {"rental_uris": {"android": "https://dc.lft.to/lastmile_qr_scan", "ios": "https://dc.lft.to/lastmile_qr_scan"}, "lat": 38.87786466666667, "type": "electric_scooter", "name": "176e14ae1e068f3a3b331dd30b1a6a89", "fusion_lon": 0.0, "fusion_lat": 0.0, "is_reserved": 0, "bike_id": "176e14ae1e068f3a3b331dd30b1a6a89", "lon": -76.99408083333333, "is_disabled": 0}, {"rental_uris": {"android": "https://dc.lft.to/lastmile_qr_scan", "ios": "https://dc.lft.to/lastmile_qr_scan"}, "lat": 38.903726, "type": "electric_scooter", "name": "19b1d33a43cf868681c754231caaf368", "fusion_lon": 0.0, "fusion_lat": 0.0, "is_reserved": 0, "bike_id": "19b1d33a43cf868681c754231caaf368", "lon": -77.04163933333334, "is_disabled": 0}, {"rental_uris": {"android": "https://dc.lft.to/lastmile_qr_scan", "ios": "https://dc.lft.to/lastmile_qr_scan"}, "lat": 38.840289, "type": "electric_bike", "name": "6504466ddbc12d69c8f552aa98e7d588", "fusion_lon": 0.0, "fusion_lat": 0.0, "is_reserved": 0, "bike_id": "6504466ddbc12d69c8f552aa98e7d588", "lon": -76.9885535, "is_disabled": 0}, {"rental_uris": {"android": "https://dc.lft.to/lastmile_qr_scan", "ios": "https://dc.lft.to/lastmile_qr_scan"}, "lat": 38.917103, "type": "electric_scooter", "name": "7d4759b0812aaf7ac77367ebfe858c55", "fusion_lon": 0.0, "fusion_lat": 0.0, "is_reserved": 0, "bike_id": "7d4759b0812aaf7ac77367ebfe858c55", "lon": -77.03663083333333, "is_disabled": 0}, {"rental_uris": {"android": "https://dc.lft.to/lastmile_qr_scan", "ios": "https://dc.lft.to/lastmile_qr_scan"}, "lat": 38.93763833333333, "type": "electric_bike", "name": "88d01da1adf5951a5cf3dd996c4aaf63", "fusion_lon": 0.0, "fusion_lat": 0.0, "is_reserved": 0, "bike_id": "88d01da1adf5951a5cf3dd996c4aaf63", "lon": -76.99056683333333, "is_disabled": 0}, {"rental_uris": {"android": "https://dc.lft.to/lastmile_qr_scan", "ios": "https://dc.lft.to/lastmile_qr_scan"}, "lat": 38.902656666666665, "type": "electric_scooter", "name": "c86e1992b29e193aa20cbc361fbbc6c2", "fusion_lon": 0.0, "fusion_lat": 0.0, "is_reserved": 0, "bike_id": "c86e1992b29e193aa20cbc361fbbc6c2", "lon": -77.043312, "is_disabled": 0}, {"rental_uris": {"android": "https://dc.lft.to/lastmile_qr_scan", "ios": "https://dc.lft.to/lastmile_qr_scan"}, "lat": 38.875909166666666, "type": "electric_scooter", "name": "f2395489d4170069c31a5a1f9f916793", "fusion_lon": 0.0, "fusion_lat": 0.0, "is_reserved": 0, "bike_id": "f2395489d4170069c31a5a1f9f916793", "lon": -77.005748, "is_disabled": 0}, {"rental_uris": {"android": "https://dc.lft.to/lastmile_qr_scan", "ios": "https://dc.lft.to/lastmile_qr_scan"}, "lat": 38.89520983333333, "type": "electric_scooter", "name": "69370ff8e301ef285cc0b50a8f76cfa3", "fusion_lon": 0.0, "fusion_lat": 0.0, "is_reserved": 0, "bike_id": "69370ff8e301ef285cc0b50a8f76cfa3", "lon": -76.98115883333334, "is_disabled": 0}, {"rental_uris": {"android": "https://dc.lft.to/lastmile_qr_scan", "ios": "https://dc.lft.to/lastmile_qr_scan"}, "lat": 38.875888, "type": "electric_scooter", "name": "d001565a2b965e96300dfd4c8dfc3efa", "fusion_lon": 0.0, "fusion_lat": 0.0, "is_reserved": 0, "bike_id": "d001565a2b965e96300dfd4c8dfc3efa", "lon": -77.00574433333334, "is_disabled": 0}, {"rental_uris": {"android": "https://dc.lft.to/lastmile_qr_scan", "ios": "https://dc.lft.to/lastmile_qr_scan"}, "lat": 38.92320633333333, "type": "electric_scooter", "name": "c37f366b24f2b4ac0c1494b00bb1c739", "fusion_lon": 0.0, "fusion_lat": 0.0, "is_reserved": 0, "bike_id": "c37f366b24f2b4ac0c1494b00bb1c739", "lon": -77.03860766666666, "is_disabled": 0}, {"rental_uris": {"android": "https://dc.lft.to/lastmile_qr_scan", "ios": "https://dc.lft.to/lastmile_qr_scan"}, "lat": 38.877003333333334, "type": "electric_scooter", "name": "beaab81f08c72c913a7ae2accdcf2516", "fusion_lon": 0.0, "fusion_lat": 0.0, "is_reserved": 0, "bike_id": "beaab81f08c72c913a7ae2accdcf2516", "lon": -77.0176415, "is_disabled": 0}, {"rental_uris": {"android": "https://dc.lft.to/lastmile_qr_scan", "ios": "https://dc.lft.to/lastmile_qr_scan"}, "lat": 38.935514166666664, "type": "electric_scooter", "name": "869708448bcf3109503413569f8ab549", "fusion_lon": 0.0, "fusion_lat": 0.0, "is_reserved": 0, "bike_id": "869708448bcf3109503413569f8ab549", "lon": -77.08739033333333, "is_disabled": 0}, {"rental_uris": {"android": "https://dc.lft.to/lastmile_qr_scan", "ios": "https://dc.lft.to/lastmile_qr_scan"}, "lat": 38.905355166666666, "type": "electric_scooter", "name": "caae1a6131f99fb24ae84c8e208b2d2a", "fusion_lon": 0.0, "fusion_lat": 0.0, "is_reserved": 0, "bike_id": "caae1a6131f99fb24ae84c8e208b2d2a", "lon": -77.06531033333333, "is_disabled": 0}, {"rental_uris": {"android": "https://dc.lft.to/lastmile_qr_scan", "ios": "https://dc.lft.to/lastmile_qr_scan"}, "lat": 38.883950666666664, "type": "electric_scooter", "name": "fb89a6b6355a7b2c9448e78ec892fd37", "fusion_lon": 0.0, "fusion_lat": 0.0, "is_reserved": 0, "bike_id": "fb89a6b6355a7b2c9448e78ec892fd37", "lon": -76.99506583333333, "is_disabled": 0}, {"rental_uris": {"android": "https://dc.lft.to/lastmile_qr_scan", "ios": "https://dc.lft.to/lastmile_qr_scan"}, "lat": 38.95417066666667, "type": "electric_scooter", "name": "a5a96d403449618bc9744a79a3d88031", "fusion_lon": 0.0, "fusion_lat": 0.0, "is_reserved": 0, "bike_id": "a5a96d403449618bc9744a79a3d88031", "lon": -77.02816916666667, "is_disabled": 0}, {"rental_uris": {"android": "https://dc.lft.to/lastmile_qr_scan", "ios": "https://dc.lft.to/lastmile_qr_scan"}, "lat": 38.903071, "type": "electric_scooter", "name": "9b7907abd0a15399c45e29471ea43aa0", "fusion_lon": 0.0, "fusion_lat": 0.0, "is_reserved": 0, "bike_id": "9b7907abd0a15399c45e29471ea43aa0", "lon": -76.9750455, "is_disabled": 0}, {"rental_uris": {"android": "https://dc.lft.to/lastmile_qr_scan", "ios": "https://dc.lft.to/lastmile_qr_scan"}, "lat": 38.884415, "type": "electric_scooter", "name": "cff4a96451a412aa1baef0f042b5f476", "fusion_lon": 0.0, "fusion_lat": 0.0, "is_reserved": 0, "bike_id": "cff4a96451a412aa1baef0f042b5f476", "lon": -76.95766, "is_disabled": 0}, {"rental_uris": {"android": "https://dc.lft.to/lastmile_qr_scan", "ios": "https://dc.lft.to/lastmile_qr_scan"}, "lat": 38.89292783333333, "type": "electric_scooter", "name": "e693b549e04f12fcd691cccc0cefac70", "fusion_lon": 0.0, "fusion_lat": 0.0, "is_reserved": 0, "bike_id": "e693b549e04f12fcd691cccc0cefac70", "lon": -76.99839266666666, "is_disabled": 0}, {"rental_uris": {"android": "https://dc.lft.to/lastmile_qr_scan", "ios": "https://dc.lft.to/lastmile_qr_scan"}, "lat": 38.91774133333333, "type": "electric_scooter", "name": "fd32a34c1b7eba252b9b99c1b860d7ea", "fusion_lon": 0.0, "fusion_lat": 0.0, "is_reserved": 0, "bike_id": "fd32a34c1b7eba252b9b99c1b860d7ea", "lon": -77.02305066666666, "is_disabled": 0}, {"rental_uris": {"android": "https://dc.lft.to/lastmile_qr_scan", "ios": "https://dc.lft.to/lastmile_qr_scan"}, "lat": 38.916388, "type": "electric_scooter", "name": "aa68b85a5eace2f864dc18cd2941f1a4", "fusion_lon": 0.0, "fusion_lat": 0.0, "is_reserved": 0, "bike_id": "aa68b85a5eace2f864dc18cd2941f1a4", "lon": -77.048098, "is_disabled": 0}, {"rental_uris": {"android": "https://dc.lft.to/lastmile_qr_scan", "ios": "https://dc.lft.to/lastmile_qr_scan"}, "lat": 38.949116833333335, "type": "electric_scooter", "name": "f5013498d80487f422f17f7cece273ea", "fusion_lon": 0.0, "fusion_lat": 0.0, "is_reserved": 0, "bike_id": "f5013498d80487f422f17f7cece273ea", "lon": -77.02085383333333, "is_disabled": 0}, {"rental_uris": {"android": "https://dc.lft.to/lastmile_qr_scan", "ios": "https://dc.lft.to/lastmile_qr_scan"}, "lat": 38.92085866666667, "type": "electric_scooter", "name": "b532ff4c1a27526a30bd00fd23692ac2", "fusion_lon": 0.0, "fusion_lat": 0.0, "is_reserved": 0, "bike_id": "b532ff4c1a27526a30bd00fd23692ac2", "lon": -77.025308, "is_disabled": 0}, {"rental_uris": {"android": "https://dc.lft.to/lastmile_qr_scan", "ios": "https://dc.lft.to/lastmile_qr_scan"}, "lat": 38.903127166666664, "type": "electric_scooter", "name": "74f7372d1e67b00e8d1e6cebc49c4cda", "fusion_lon": 0.0, "fusion_lat": 0.0, "is_reserved": 0, "bike_id": "74f7372d1e67b00e8d1e6cebc49c4cda", "lon": -77.03969216666667, "is_disabled": 0}, {"rental_uris": {"android": "https://dc.lft.to/lastmile_qr_scan", "ios": "https://dc.lft.to/lastmile_qr_scan"}, "lat": 38.902931833333334, "type": "electric_scooter", "name": "b24ad465a96a9d0027908ede74306dc1", "fusion_lon": 0.0, "fusion_lat": 0.0, "is_reserved": 0, "bike_id": "b24ad465a96a9d0027908ede74306dc1", "lon": -77.0340825, "is_disabled": 0}, {"rental_uris": {"android": "https://dc.lft.to/lastmile_qr_scan", "ios": "https://dc.lft.to/lastmile_qr_scan"}, "lat": 38.883886333333336, "type": "electric_scooter", "name": "eedbb025bc24eb69f07411fe7cfeb990", "fusion_lon": 0.0, "fusion_lat": 0.0, "is_reserved": 0, "bike_id": "eedbb025bc24eb69f07411fe7cfeb990", "lon": -76.99507833333334, "is_disabled": 0}, {"rental_uris": {"android": "https://dc.lft.to/lastmile_qr_scan", "ios": "https://dc.lft.to/lastmile_qr_scan"}, "lat": 38.902556833333335, "type": "electric_scooter", "name": "ccbc2801252d68508828d8c7776f86a5", "fusion_lon": 0.0, "fusion_lat": 0.0, "is_reserved": 0, "bike_id": "ccbc2801252d68508828d8c7776f86a5", "lon": -77.034471, "is_disabled": 0}, {"rental_uris": {"android": "https://dc.lft.to/lastmile_qr_scan", "ios": "https://dc.lft.to/lastmile_qr_scan"}, "lat": 38.89817016666667, "type": "electric_scooter", "name": "38e7136cbd4b0a51f0a7b627af48f7df", "fusion_lon": 0.0, "fusion_lat": 0.0, "is_reserved": 0, "bike_id": "38e7136cbd4b0a51f0a7b627af48f7df", "lon": -77.0239615, "is_disabled": 0}, {"rental_uris": {"android": "https://dc.lft.to/lastmile_qr_scan", "ios": "https://dc.lft.to/lastmile_qr_scan"}, "lat": 38.905006666666665, "type": "electric_scooter", "name": "014aa50735df10b3809a29da8078fb8b", "fusion_lon": 0.0, "fusion_lat": 0.0, "is_reserved": 0, "bike_id": "014aa50735df10b3809a29da8078fb8b", "lon": -77.04094516666666, "is_disabled": 0}, {"rental_uris": {"android": "https://dc.lft.to/lastmile_qr_scan", "ios": "https://dc.lft.to/lastmile_qr_scan"}, "lat": 38.897090666666664, "type": "electric_scooter", "name": "80d63ad270e8b16f803d07a1158cafdd", "fusion_lon": 0.0, "fusion_lat": 0.0, "is_reserved": 0, "bike_id": "80d63ad270e8b16f803d07a1158cafdd", "lon": -77.00840616666666, "is_disabled": 0}, {"rental_uris": {"android": "https://dc.lft.to/lastmile_qr_scan", "ios": "https://dc.lft.to/lastmile_qr_scan"}, "lat": 38.9172415, "type": "electric_scooter", "name": "c14d35e4d6d0a4b05d5aeb0163d3d90e", "fusion_lon": 0.0, "fusion_lat": 0.0, "is_reserved": 0, "bike_id": "c14d35e4d6d0a4b05d5aeb0163d3d90e", "lon": -77.02822933333333, "is_disabled": 0}, {"rental_uris": {"android": "https://dc.lft.to/lastmile_qr_scan", "ios": "https://dc.lft.to/lastmile_qr_scan"}, "lat": 38.8904465, "type": "electric_scooter", "name": "83a7015f526e69647b1caf4ef88def4a", "fusion_lon": 0.0, "fusion_lat": 0.0, "is_reserved": 0, "bike_id": "83a7015f526e69647b1caf4ef88def4a", "lon": -76.93753583333333, "is_disabled": 0}, {"rental_uris": {"android": "https://dc.lft.to/lastmile_qr_scan", "ios": "https://dc.lft.to/lastmile_qr_scan"}, "lat": 38.92706166666667, "type": "electric_scooter", "name": "2744456e4b44559dfe68f3fba73c5d62", "fusion_lon": 0.0, "fusion_lat": 0.0, "is_reserved": 0, "bike_id": "2744456e4b44559dfe68f3fba73c5d62", "lon": -76.9607745, "is_disabled": 0}, {"rental_uris": {"android": "https://dc.lft.to/lastmile_qr_scan", "ios": "https://dc.lft.to/lastmile_qr_scan"}, "lat": 38.900119333333336, "type": "electric_scooter", "name": "a57bbee0b46821d06b597c0023955fa3", "fusion_lon": 0.0, "fusion_lat": 0.0, "is_reserved": 0, "bike_id": "a57bbee0b46821d06b597c0023955fa3", "lon": -77.03174466666667, "is_disabled": 0}, {"rental_uris": {"android": "https://dc.lft.to/lastmile_qr_scan", "ios": "https://dc.lft.to/lastmile_qr_scan"}, "lat": 38.872928333333334, "type": "electric_scooter", "name": "d6aa987dcd7ffc2f843bfea362559be3", "fusion_lon": 0.0, "fusion_lat": 0.0, "is_reserved": 0, "bike_id": "d6aa987dcd7ffc2f843bfea362559be3", "lon": -77.00988933333333, "is_disabled": 0}, {"rental_uris": {"android": "https://dc.lft.to/lastmile_qr_scan", "ios": "https://dc.lft.to/lastmile_qr_scan"}, "lat": 38.931753666666665, "type": "electric_scooter", "name": "f367cc822fed6b3def88b64052a8da9f", "fusion_lon": 0.0, "fusion_lat": 0.0, "is_reserved": 0, "bike_id": "f367cc822fed6b3def88b64052a8da9f", "lon": -77.0366875, "is_disabled": 0}, {"rental_uris": {"android": "https://dc.lft.to/lastmile_qr_scan", "ios": "https://dc.lft.to/lastmile_qr_scan"}, "lat": 38.896621333333336, "type": "electric_scooter", "name": "8415df09185f27d0cb365f5f5cc1a6b4", "fusion_lon": 0.0, "fusion_lat": 0.0, "is_reserved": 0, "bike_id": "8415df09185f27d0cb365f5f5cc1a6b4", "lon": -77.02429266666667, "is_disabled": 0}, {"rental_uris": {"android": "https://dc.lft.to/lastmile_qr_scan", "ios": "https://dc.lft.to/lastmile_qr_scan"}, "lat": 38.87526016666666, "type": "electric_scooter", "name": "4513306770f5d646c38995b8d33ccb19", "fusion_lon": 0.0, "fusion_lat": 0.0, "is_reserved": 0, "bike_id": "4513306770f5d646c38995b8d33ccb19", "lon": -77.01228066666667, "is_disabled": 0}, {"rental_uris": {"android": "https://dc.lft.to/lastmile_qr_scan", "ios": "https://dc.lft.to/lastmile_qr_scan"}, "lat": 38.90862516666667, "type": "electric_bike", "name": "91dfc430f38869250299c0f876292e20", "fusion_lon": 0.0, "fusion_lat": 0.0, "is_reserved": 0, "bike_id": "91dfc430f38869250299c0f876292e20", "lon": -77.08077466666667, "is_disabled": 0}, {"rental_uris": {"android": "https://dc.lft.to/lastmile_qr_scan", "ios": "https://dc.lft.to/lastmile_qr_scan"}, "lat": 38.93461883333333, "type": "electric_scooter", "name": "f775aa03cbdcdf8bb5908ec917729e82", "fusion_lon": 0.0, "fusion_lat": 0.0, "is_reserved": 0, "bike_id": "f775aa03cbdcdf8bb5908ec917729e82", "lon": -77.0863685, "is_disabled": 0}, {"rental_uris": {"android": "https://dc.lft.to/lastmile_qr_scan", "ios": "https://dc.lft.to/lastmile_qr_scan"}, "lat": 38.85575683333333, "type": "electric_bike", "name": "acd75b5d9924eff892a56d874b50ddc6", "fusion_lon": 0.0, "fusion_lat": 0.0, "is_reserved": 0, "bike_id": "acd75b5d9924eff892a56d874b50ddc6", "lon": -77.0533065, "is_disabled": 0}, {"rental_uris": {"android": "https://dc.lft.to/lastmile_qr_scan", "ios": "https://dc.lft.to/lastmile_qr_scan"}, "lat": 38.97549566666667, "type": "electric_scooter", "name": "637304d96cb9460366a99ebecf6a5b6f", "fusion_lon": 0.0, "fusion_lat": 0.0, "is_reserved": 0, "bike_id": "637304d96cb9460366a99ebecf6a5b6f", "lon": -77.02670566666667, "is_disabled": 0}, {"rental_uris": {"android": "https://dc.lft.to/lastmile_qr_scan", "ios": "https://dc.lft.to/lastmile_qr_scan"}, "lat": 38.923556166666664, "type": "electric_scooter", "name": "b75aad1eed027e31a4e168040c74aff7", "fusion_lon": 0.0, "fusion_lat": 0.0, "is_reserved": 0, "bike_id": "b75aad1eed027e31a4e168040c74aff7", "lon": -77.020956, "is_disabled": 0}, {"rental_uris": {"android": "https://dc.lft.to/lastmile_qr_scan", "ios": "https://dc.lft.to/lastmile_qr_scan"}, "lat": 38.904042833333335, "type": "electric_scooter", "name": "1585e38120b9d2a0eed4348964123308", "fusion_lon": 0.0, "fusion_lat": 0.0, "is_reserved": 0, "bike_id": "1585e38120b9d2a0eed4348964123308", "lon": -77.03250233333333, "is_disabled": 0}, {"rental_uris": {"android": "https://dc.lft.to/lastmile_qr_scan", "ios": "https://dc.lft.to/lastmile_qr_scan"}, "lat": 38.87661883333333, "type": "electric_scooter", "name": "76ccaaa84524a8b5052a57aff5327fea", "fusion_lon": 0.0, "fusion_lat": 0.0, "is_reserved": 0, "bike_id": "76ccaaa84524a8b5052a57aff5327fea", "lon": -77.00062183333333, "is_disabled": 0}, {"rental_uris": {"android": "https://dc.lft.to/lastmile_qr_scan", "ios": "https://dc.lft.to/lastmile_qr_scan"}, "lat": 38.908012166666666, "type": "electric_scooter", "name": "9a2745d651b72815d542fa6540eb3b92", "fusion_lon": 0.0, "fusion_lat": 0.0, "is_reserved": 0, "bike_id": "9a2745d651b72815d542fa6540eb3b92", "lon": -77.08399266666666, "is_disabled": 0}, {"rental_uris": {"android": "https://dc.lft.to/lastmile_qr_scan", "ios": "https://dc.lft.to/lastmile_qr_scan"}, "lat": 38.905853, "type": "electric_scooter", "name": "c3b5f30cdac2e2fa9f367a3dd122084f", "fusion_lon": 0.0, "fusion_lat": 0.0, "is_reserved": 0, "bike_id": "c3b5f30cdac2e2fa9f367a3dd122084f", "lon": -77.04146783333333, "is_disabled": 0}, {"rental_uris": {"android": "https://dc.lft.to/lastmile_qr_scan", "ios": "https://dc.lft.to/lastmile_qr_scan"}, "lat": 38.8628295, "type": "electric_bike", "name": "7759d87adf73c3735b0c676cd41f071e", "fusion_lon": 0.0, "fusion_lat": 0.0, "is_reserved": 0, "bike_id": "7759d87adf73c3735b0c676cd41f071e", "lon": -76.9451815, "is_disabled": 0}, {"rental_uris": {"android": "https://dc.lft.to/lastmile_qr_scan", "ios": "https://dc.lft.to/lastmile_qr_scan"}, "lat": 38.8996435, "type": "electric_scooter", "name": "401b85f4d9130348786753c2f6247fa3", "fusion_lon": 0.0, "fusion_lat": 0.0, "is_reserved": 0, "bike_id": "401b85f4d9130348786753c2f6247fa3", "lon": -77.0472165, "is_disabled": 0}, {"rental_uris": {"android": "https://dc.lft.to/lastmile_qr_scan", "ios": "https://dc.lft.to/lastmile_qr_scan"}, "lat": 38.920937333333335, "type": "electric_scooter", "name": "72b0b415183884ea99ef4f3464c07159", "fusion_lon": 0.0, "fusion_lat": 0.0, "is_reserved": 0, "bike_id": "72b0b415183884ea99ef4f3464c07159", "lon": -77.02303916666666, "is_disabled": 0}, {"rental_uris": {"android": "https://dc.lft.to/lastmile_qr_scan", "ios": "https://dc.lft.to/lastmile_qr_scan"}, "lat": 38.90277583333334, "type": "electric_scooter", "name": "acf1b8f80c0de4208ca86b2add5c008e", "fusion_lon": 0.0, "fusion_lat": 0.0, "is_reserved": 0, "bike_id": "acf1b8f80c0de4208ca86b2add5c008e", "lon": -77.038576, "is_disabled": 0}, {"rental_uris": {"android": "https://dc.lft.to/lastmile_qr_scan", "ios": "https://dc.lft.to/lastmile_qr_scan"}, "lat": 38.93321, "type": "electric_scooter", "name": "1cbefebcd71e9afcb97525a692d20512", "fusion_lon": 0.0, "fusion_lat": 0.0, "is_reserved": 0, "bike_id": "1cbefebcd71e9afcb97525a692d20512", "lon": -77.02924816666666, "is_disabled": 0}, {"rental_uris": {"android": "https://dc.lft.to/lastmile_qr_scan", "ios": "https://dc.lft.to/lastmile_qr_scan"}, "lat": 38.89222616666667, "type": "electric_scooter", "name": "0f684320a879cff5375538b22a3707be", "fusion_lon": 0.0, "fusion_lat": 0.0, "is_reserved": 0, "bike_id": "0f684320a879cff5375538b22a3707be", "lon": -77.043589, "is_disabled": 0}, {"rental_uris": {"android": "https://dc.lft.to/lastmile_qr_scan", "ios": "https://dc.lft.to/lastmile_qr_scan"}, "lat": 38.926862666666665, "type": "electric_scooter", "name": "8a79faa7d7717973888c20d168e61e4a", "fusion_lon": 0.0, "fusion_lat": 0.0, "is_reserved": 0, "bike_id": "8a79faa7d7717973888c20d168e61e4a", "lon": -77.02957266666667, "is_disabled": 0}, {"rental_uris": {"android": "https://dc.lft.to/lastmile_qr_scan", "ios": "https://dc.lft.to/lastmile_qr_scan"}, "lat": 38.887458333333335, "type": "electric_scooter", "name": "152fc770e50814e4e5120dbf1b526bed", "fusion_lon": 0.0, "fusion_lat": 0.0, "is_reserved": 0, "bike_id": "152fc770e50814e4e5120dbf1b526bed", "lon": -77.01537583333334, "is_disabled": 0}, {"rental_uris": {"android": "https://dc.lft.to/lastmile_qr_scan", "ios": "https://dc.lft.to/lastmile_qr_scan"}, "lat": 38.923930666666664, "type": "electric_scooter", "name": "fd8a41ab15a0d5179a987c88cea3a5ba", "fusion_lon": 0.0, "fusion_lat": 0.0, "is_reserved": 0, "bike_id": "fd8a41ab15a0d5179a987c88cea3a5ba", "lon": -77.02653716666667, "is_disabled": 0}, {"rental_uris": {"android": "https://dc.lft.to/lastmile_qr_scan", "ios": "https://dc.lft.to/lastmile_qr_scan"}, "lat": 38.905629833333336, "type": "electric_scooter", "name": "17e782002811b6fa7f5538de2db9dff1", "fusion_lon": 0.0, "fusion_lat": 0.0, "is_reserved": 0, "bike_id": "17e782002811b6fa7f5538de2db9dff1", "lon": -77.034589, "is_disabled": 0}, {"rental_uris": {"android": "https://dc.lft.to/lastmile_qr_scan", "ios": "https://dc.lft.to/lastmile_qr_scan"}, "lat": 38.90162483333334, "type": "electric_scooter", "name": "40c940fd72c9b6d8999951083c96c442", "fusion_lon": 0.0, "fusion_lat": 0.0, "is_reserved": 0, "bike_id": "40c940fd72c9b6d8999951083c96c442", "lon": -76.98076466666667, "is_disabled": 0}, {"rental_uris": {"android": "https://dc.lft.to/lastmile_qr_scan", "ios": "https://dc.lft.to/lastmile_qr_scan"}, "lat": 38.807333166666666, "type": "electric_bike", "name": "4e0a83e67ab3fe917acbb1c697c68c96", "fusion_lon": 0.0, "fusion_lat": 0.0, "is_reserved": 0, "bike_id": "4e0a83e67ab3fe917acbb1c697c68c96", "lon": -76.99255583333333, "is_disabled": 0}, {"rental_uris": {"android": "https://dc.lft.to/lastmile_qr_scan", "ios": "https://dc.lft.to/lastmile_qr_scan"}, "lat": 38.900241666666666, "type": "electric_scooter", "name": "895bb7dabf0a89f1d70ae40755dbc65e", "fusion_lon": 0.0, "fusion_lat": 0.0, "is_reserved": 0, "bike_id": "895bb7dabf0a89f1d70ae40755dbc65e", "lon": -77.04900183333334, "is_disabled": 0}, {"rental_uris": {"android": "https://dc.lft.to/lastmile_qr_scan", "ios": "https://dc.lft.to/lastmile_qr_scan"}, "lat": 38.92452766666667, "type": "electric_scooter", "name": "70e97d91d489bfad7b836d6d719cd71e", "fusion_lon": 0.0, "fusion_lat": 0.0, "is_reserved": 0, "bike_id": "70e97d91d489bfad7b836d6d719cd71e", "lon": -77.020361, "is_disabled": 0}, {"rental_uris": {"android": "https://dc.lft.to/lastmile_qr_scan", "ios": "https://dc.lft.to/lastmile_qr_scan"}, "lat": 38.894729166666664, "type": "electric_bike", "name": "2f4430a63b361fa02a164c85c06af18a", "fusion_lon": 0.0, "fusion_lat": 0.0, "is_reserved": 0, "bike_id": "2f4430a63b361fa02a164c85c06af18a", "lon": -77.04660116666666, "is_disabled": 0}, {"rental_uris": {"android": "https://dc.lft.to/lastmile_qr_scan", "ios": "https://dc.lft.to/lastmile_qr_scan"}, "lat": 38.884328833333335, "type": "electric_scooter", "name": "579245f4e99e925bc52f5fd8baa081e1", "fusion_lon": 0.0, "fusion_lat": 0.0, "is_reserved": 0, "bike_id": "579245f4e99e925bc52f5fd8baa081e1", "lon": -76.9574645, "is_disabled": 0}, {"rental_uris": {"android": "https://dc.lft.to/lastmile_qr_scan", "ios": "https://dc.lft.to/lastmile_qr_scan"}, "lat": 38.924887166666664, "type": "electric_scooter", "name": "ab25f375ece513031599d27fce49e164", "fusion_lon": 0.0, "fusion_lat": 0.0, "is_reserved": 0, "bike_id": "ab25f375ece513031599d27fce49e164", "lon": -77.05211116666666, "is_disabled": 0}, {"rental_uris": {"android": "https://dc.lft.to/lastmile_qr_scan", "ios": "https://dc.lft.to/lastmile_qr_scan"}, "lat": 38.94257133333333, "type": "electric_scooter", "name": "ff7ca90b8d0cdd7ce6ce6d8f2a9baf6f", "fusion_lon": 0.0, "fusion_lat": 0.0, "is_reserved": 0, "bike_id": "ff7ca90b8d0cdd7ce6ce6d8f2a9baf6f", "lon": -77.04140666666666, "is_disabled": 0}, {"rental_uris": {"android": "https://dc.lft.to/lastmile_qr_scan", "ios": "https://dc.lft.to/lastmile_qr_scan"}, "lat": 38.89832066666666, "type": "electric_scooter", "name": "d4dde6dead494507c55a4e97b9b370dc", "fusion_lon": 0.0, "fusion_lat": 0.0, "is_reserved": 0, "bike_id": "d4dde6dead494507c55a4e97b9b370dc", "lon": -77.0297325, "is_disabled": 0}, {"rental_uris": {"android": "https://dc.lft.to/lastmile_qr_scan", "ios": "https://dc.lft.to/lastmile_qr_scan"}, "lat": 38.88038316666667, "type": "electric_scooter", "name": "3956e0b3d01e66eb5db200680991e70b", "fusion_lon": 0.0, "fusion_lat": 0.0, "is_reserved": 0, "bike_id": "3956e0b3d01e66eb5db200680991e70b", "lon": -76.92726533333334, "is_disabled": 0}, {"rental_uris": {"android": "https://dc.lft.to/lastmile_qr_scan", "ios": "https://dc.lft.to/lastmile_qr_scan"}, "lat": 38.89224566666667, "type": "electric_scooter", "name": "c9b69444d4a5fe61a24f3ea5ca2c2291", "fusion_lon": 0.0, "fusion_lat": 0.0, "is_reserved": 0, "bike_id": "c9b69444d4a5fe61a24f3ea5ca2c2291", "lon": -77.03198583333334, "is_disabled": 0}, {"rental_uris": {"android": "https://dc.lft.to/lastmile_qr_scan", "ios": "https://dc.lft.to/lastmile_qr_scan"}, "lat": 38.89547733333333, "type": "electric_scooter", "name": "d31357dbae646a62fa580d13051a9b9a", "fusion_lon": 0.0, "fusion_lat": 0.0, "is_reserved": 0, "bike_id": "d31357dbae646a62fa580d13051a9b9a", "lon": -77.01113683333334, "is_disabled": 0}, {"rental_uris": {"android": "https://dc.lft.to/lastmile_qr_scan", "ios": "https://dc.lft.to/lastmile_qr_scan"}, "lat": 38.88989983333333, "type": "electric_scooter", "name": "231daea920b3be0e97505e334a847754", "fusion_lon": 0.0, "fusion_lat": 0.0, "is_reserved": 0, "bike_id": "231daea920b3be0e97505e334a847754", "lon": -77.0035005, "is_disabled": 0}, {"rental_uris": {"android": "https://dc.lft.to/lastmile_qr_scan", "ios": "https://dc.lft.to/lastmile_qr_scan"}, "lat": 38.8757925, "type": "electric_bike", "name": "0ae810b01b3811c9d40b488b5755df2b", "fusion_lon": 0.0, "fusion_lat": 0.0, "is_reserved": 0, "bike_id": "0ae810b01b3811c9d40b488b5755df2b", "lon": -77.2341295, "is_disabled": 0}, {"rental_uris": {"android": "https://dc.lft.to/lastmile_qr_scan", "ios": "https://dc.lft.to/lastmile_qr_scan"}, "lat": 38.92236966666667, "type": "electric_scooter", "name": "d64dfd3aa07493597e27b7213c455710", "fusion_lon": 0.0, "fusion_lat": 0.0, "is_reserved": 0, "bike_id": "d64dfd3aa07493597e27b7213c455710", "lon": -77.04245483333334, "is_disabled": 0}, {"rental_uris": {"android": "https://dc.lft.to/lastmile_qr_scan", "ios": "https://dc.lft.to/lastmile_qr_scan"}, "lat": 38.9041405, "type": "electric_scooter", "name": "755d78f013d34a7e2c6aa92c69d3f26a", "fusion_lon": 0.0, "fusion_lat": 0.0, "is_reserved": 0, "bike_id": "755d78f013d34a7e2c6aa92c69d3f26a", "lon": -77.04355933333333, "is_disabled": 0}, {"rental_uris": {"android": "https://dc.lft.to/lastmile_qr_scan", "ios": "https://dc.lft.to/lastmile_qr_scan"}, "lat": 38.89507483333333, "type": "electric_scooter", "name": "22189cf1cdc0726ecc2c83ecf1c79fc2", "fusion_lon": 0.0, "fusion_lat": 0.0, "is_reserved": 0, "bike_id": "22189cf1cdc0726ecc2c83ecf1c79fc2", "lon": -76.94886533333333, "is_disabled": 0}, {"rental_uris": {"android": "https://dc.lft.to/lastmile_qr_scan", "ios": "https://dc.lft.to/lastmile_qr_scan"}, "lat": 38.91022616666667, "type": "electric_scooter", "name": "ecc3053f2c810af33eeeb46041212f24", "fusion_lon": 0.0, "fusion_lat": 0.0, "is_reserved": 0, "bike_id": "ecc3053f2c810af33eeeb46041212f24", "lon": -77.04331566666667, "is_disabled": 0}, {"rental_uris": {"android": "https://dc.lft.to/lastmile_qr_scan", "ios": "https://dc.lft.to/lastmile_qr_scan"}, "lat": 38.9060245, "type": "electric_scooter", "name": "f776f3eeb14b3c369df404ba5d0850d7", "fusion_lon": 0.0, "fusion_lat": 0.0, "is_reserved": 0, "bike_id": "f776f3eeb14b3c369df404ba5d0850d7", "lon": -77.041089, "is_disabled": 0}, {"rental_uris": {"android": "https://dc.lft.to/lastmile_qr_scan", "ios": "https://dc.lft.to/lastmile_qr_scan"}, "lat": 38.92488316666667, "type": "electric_scooter", "name": "843b5a3ebf0340f96d4826cc9247abd8", "fusion_lon": 0.0, "fusion_lat": 0.0, "is_reserved": 0, "bike_id": "843b5a3ebf0340f96d4826cc9247abd8", "lon": -77.02268, "is_disabled": 0}, {"rental_uris": {"android": "https://dc.lft.to/lastmile_qr_scan", "ios": "https://dc.lft.to/lastmile_qr_scan"}, "lat": 38.897363166666665, "type": "electric_scooter", "name": "2f68c8dd66184e75012f92939743eae6", "fusion_lon": 0.0, "fusion_lat": 0.0, "is_reserved": 0, "bike_id": "2f68c8dd66184e75012f92939743eae6", "lon": -77.02566433333334, "is_disabled": 0}, {"rental_uris": {"android": "https://dc.lft.to/lastmile_qr_scan", "ios": "https://dc.lft.to/lastmile_qr_scan"}, "lat": 38.91900783333333, "type": "electric_scooter", "name": "6333ffd9b4bca78c44c841183926a26d", "fusion_lon": 0.0, "fusion_lat": 0.0, "is_reserved": 0, "bike_id": "6333ffd9b4bca78c44c841183926a26d", "lon": -77.0207435, "is_disabled": 0}, {"rental_uris": {"android": "https://dc.lft.to/lastmile_qr_scan", "ios": "https://dc.lft.to/lastmile_qr_scan"}, "lat": 38.883879666666665, "type": "electric_scooter", "name": "0b3c689367a829cb7f79ef3ada9efabf", "fusion_lon": 0.0, "fusion_lat": 0.0, "is_reserved": 0, "bike_id": "0b3c689367a829cb7f79ef3ada9efabf", "lon": -76.9951045, "is_disabled": 0}, {"rental_uris": {"android": "https://dc.lft.to/lastmile_qr_scan", "ios": "https://dc.lft.to/lastmile_qr_scan"}, "lat": 38.8763915, "type": "electric_scooter", "name": "373ec1db29640a489c3d4c950a27a031", "fusion_lon": 0.0, "fusion_lat": 0.0, "is_reserved": 0, "bike_id": "373ec1db29640a489c3d4c950a27a031", "lon": -77.00084283333334, "is_disabled": 0}, {"rental_uris": {"android": "https://dc.lft.to/lastmile_qr_scan", "ios": "https://dc.lft.to/lastmile_qr_scan"}, "lat": 38.930995333333335, "type": "electric_scooter", "name": "9d1b1d188bbdcc3cf5fbd4eea296241d", "fusion_lon": 0.0, "fusion_lat": 0.0, "is_reserved": 0, "bike_id": "9d1b1d188bbdcc3cf5fbd4eea296241d", "lon": -77.02662516666666, "is_disabled": 0}, {"rental_uris": {"android": "https://dc.lft.to/lastmile_qr_scan", "ios": "https://dc.lft.to/lastmile_qr_scan"}, "lat": 38.89833433333333, "type": "electric_scooter", "name": "2ba95862af2a564063828e0ac94ec54f", "fusion_lon": 0.0, "fusion_lat": 0.0, "is_reserved": 0, "bike_id": "2ba95862af2a564063828e0ac94ec54f", "lon": -77.0297575, "is_disabled": 0}, {"rental_uris": {"android": "https://dc.lft.to/lastmile_qr_scan", "ios": "https://dc.lft.to/lastmile_qr_scan"}, "lat": 38.930843333333335, "type": "electric_scooter", "name": "82f53849337073fa57289281cb31eaf6", "fusion_lon": 0.0, "fusion_lat": 0.0, "is_reserved": 0, "bike_id": "82f53849337073fa57289281cb31eaf6", "lon": -77.02808433333334, "is_disabled": 0}, {"rental_uris": {"android": "https://dc.lft.to/lastmile_qr_scan", "ios": "https://dc.lft.to/lastmile_qr_scan"}, "lat": 38.90382, "type": "electric_scooter", "name": "4c4b2f07b2caeda786f6c5c64e9bc055", "fusion_lon": 0.0, "fusion_lat": 0.0, "is_reserved": 0, "bike_id": "4c4b2f07b2caeda786f6c5c64e9bc055", "lon": -77.03636583333333, "is_disabled": 0}, {"rental_uris": {"android": "https://dc.lft.to/lastmile_qr_scan", "ios": "https://dc.lft.to/lastmile_qr_scan"}, "lat": 38.928025833333336, "type": "electric_scooter", "name": "881c5089fe98710003c9c0290d629710", "fusion_lon": 0.0, "fusion_lat": 0.0, "is_reserved": 0, "bike_id": "881c5089fe98710003c9c0290d629710", "lon": -77.015557, "is_disabled": 0}, {"rental_uris": {"android": "https://dc.lft.to/lastmile_qr_scan", "ios": "https://dc.lft.to/lastmile_qr_scan"}, "lat": 38.7846445, "type": "electric_bike", "name": "e32bba25abb4dbe431fb16d52208591e", "fusion_lon": 0.0, "fusion_lat": 0.0, "is_reserved": 0, "bike_id": "e32bba25abb4dbe431fb16d52208591e", "lon": -77.054373, "is_disabled": 0}, {"rental_uris": {"android": "https://dc.lft.to/lastmile_qr_scan", "ios": "https://dc.lft.to/lastmile_qr_scan"}, "lat": 38.90635233333333, "type": "electric_scooter", "name": "2c9dbb4a6c9c00fbd67284b823ecd849", "fusion_lon": 0.0, "fusion_lat": 0.0, "is_reserved": 0, "bike_id": "2c9dbb4a6c9c00fbd67284b823ecd849", "lon": -77.0071165, "is_disabled": 0}, {"rental_uris": {"android": "https://dc.lft.to/lastmile_qr_scan", "ios": "https://dc.lft.to/lastmile_qr_scan"}, "lat": 38.9094615, "type": "electric_scooter", "name": "c9410318ff439527ede846f54e31de24", "fusion_lon": 0.0, "fusion_lat": 0.0, "is_reserved": 0, "bike_id": "c9410318ff439527ede846f54e31de24", "lon": -77.015261, "is_disabled": 0}, {"rental_uris": {"android": "https://dc.lft.to/lastmile_qr_scan", "ios": "https://dc.lft.to/lastmile_qr_scan"}, "lat": 38.957026666666664, "type": "electric_bike", "name": "2791e9dac27f4209ab550b161db3cf97", "fusion_lon": 0.0, "fusion_lat": 0.0, "is_reserved": 0, "bike_id": "2791e9dac27f4209ab550b161db3cf97", "lon": -76.97385866666667, "is_disabled": 0}, {"rental_uris": {"android": "https://dc.lft.to/lastmile_qr_scan", "ios": "https://dc.lft.to/lastmile_qr_scan"}, "lat": 38.92476683333334, "type": "electric_scooter", "name": "1f78881186c8e8f1b3d55cde4435eed9", "fusion_lon": 0.0, "fusion_lat": 0.0, "is_reserved": 0, "bike_id": "1f78881186c8e8f1b3d55cde4435eed9", "lon": -77.0220075, "is_disabled": 0}, {"rental_uris": {"android": "https://dc.lft.to/lastmile_qr_scan", "ios": "https://dc.lft.to/lastmile_qr_scan"}, "lat": 38.863358166666664, "type": "electric_bike", "name": "3c17da1789d9f90d44bb7eae40bb27bf", "fusion_lon": 0.0, "fusion_lat": 0.0, "is_reserved": 0, "bike_id": "3c17da1789d9f90d44bb7eae40bb27bf", "lon": -76.98716516666667, "is_disabled": 0}, {"rental_uris": {"android": "https://dc.lft.to/lastmile_qr_scan", "ios": "https://dc.lft.to/lastmile_qr_scan"}, "lat": 38.8048255, "type": "electric_bike", "name": "9140d75be36457626ce362bfced824e7", "fusion_lon": 0.0, "fusion_lat": 0.0, "is_reserved": 0, "bike_id": "9140d75be36457626ce362bfced824e7", "lon": -76.99105933333334, "is_disabled": 0}, {"rental_uris": {"android": "https://dc.lft.to/lastmile_qr_scan", "ios": "https://dc.lft.to/lastmile_qr_scan"}, "lat": 38.904304833333335, "type": "electric_scooter", "name": "34cbf5bfb3f5285186363108f1208e83", "fusion_lon": 0.0, "fusion_lat": 0.0, "is_reserved": 0, "bike_id": "34cbf5bfb3f5285186363108f1208e83", "lon": -77.04652516666667, "is_disabled": 0}, {"rental_uris": {"android": "https://dc.lft.to/lastmile_qr_scan", "ios": "https://dc.lft.to/lastmile_qr_scan"}, "lat": 38.96229616666667, "type": "electric_scooter", "name": "7a69b70449f2dad5acb94b02246426b9", "fusion_lon": 0.0, "fusion_lat": 0.0, "is_reserved": 0, "bike_id": "7a69b70449f2dad5acb94b02246426b9", "lon": -77.01359833333333, "is_disabled": 0}, {"rental_uris": {"android": "https://dc.lft.to/lastmile_qr_scan", "ios": "https://dc.lft.to/lastmile_qr_scan"}, "lat": 38.882539333333334, "type": "electric_scooter", "name": "49ae5f9d94b657688a9fba3d94417a28", "fusion_lon": 0.0, "fusion_lat": 0.0, "is_reserved": 0, "bike_id": "49ae5f9d94b657688a9fba3d94417a28", "lon": -77.0035985, "is_disabled": 0}, {"rental_uris": {"android": "https://dc.lft.to/lastmile_qr_scan", "ios": "https://dc.lft.to/lastmile_qr_scan"}, "lat": 38.83744683333333, "type": "electric_scooter", "name": "d40e56d07245e01793370e81bf07c049", "fusion_lon": 0.0, "fusion_lat": 0.0, "is_reserved": 0, "bike_id": "d40e56d07245e01793370e81bf07c049", "lon": -76.9986315, "is_disabled": 0}, {"rental_uris": {"android": "https://dc.lft.to/lastmile_qr_scan", "ios": "https://dc.lft.to/lastmile_qr_scan"}, "lat": 38.90990816666667, "type": "electric_scooter", "name": "6b742d816c3741443e92f92bb1ac2c12", "fusion_lon": 0.0, "fusion_lat": 0.0, "is_reserved": 0, "bike_id": "6b742d816c3741443e92f92bb1ac2c12", "lon": -77.04438216666667, "is_disabled": 0}, {"rental_uris": {"android": "https://dc.lft.to/lastmile_qr_scan", "ios": "https://dc.lft.to/lastmile_qr_scan"}, "lat": 38.884242, "type": "electric_scooter", "name": "c4a3343c2432c1696bd9ab1d9d2167ec", "fusion_lon": 0.0, "fusion_lat": 0.0, "is_reserved": 0, "bike_id": "c4a3343c2432c1696bd9ab1d9d2167ec", "lon": -76.99692266666666, "is_disabled": 0}, {"rental_uris": {"android": "https://dc.lft.to/lastmile_qr_scan", "ios": "https://dc.lft.to/lastmile_qr_scan"}, "lat": 39.003850166666666, "type": "electric_bike", "name": "12445affa423b3a3d1fe076d78ff73fc", "fusion_lon": 0.0, "fusion_lat": 0.0, "is_reserved": 0, "bike_id": "12445affa423b3a3d1fe076d78ff73fc", "lon": -77.01283866666667, "is_disabled": 0}, {"rental_uris": {"android": "https://dc.lft.to/lastmile_qr_scan", "ios": "https://dc.lft.to/lastmile_qr_scan"}, "lat": 38.9038115, "type": "electric_scooter", "name": "224f5f373186d7e404092af93f363d4b", "fusion_lon": 0.0, "fusion_lat": 0.0, "is_reserved": 0, "bike_id": "224f5f373186d7e404092af93f363d4b", "lon": -77.04659916666667, "is_disabled": 0}, {"rental_uris": {"android": "https://dc.lft.to/lastmile_qr_scan", "ios": "https://dc.lft.to/lastmile_qr_scan"}, "lat": 38.888430166666666, "type": "electric_scooter", "name": "a98755630fe184265c1370f5d1142409", "fusion_lon": 0.0, "fusion_lat": 0.0, "is_reserved": 0, "bike_id": "a98755630fe184265c1370f5d1142409", "lon": -76.9771835, "is_disabled": 0}, {"rental_uris": {"android": "https://dc.lft.to/lastmile_qr_scan", "ios": "https://dc.lft.to/lastmile_qr_scan"}, "lat": 38.917079666666666, "type": "electric_scooter", "name": "98a7d2b77ab8cb242359d5f9bab26076", "fusion_lon": 0.0, "fusion_lat": 0.0, "is_reserved": 0, "bike_id": "98a7d2b77ab8cb242359d5f9bab26076", "lon": -77.0321385, "is_disabled": 0}, {"rental_uris": {"android": "https://dc.lft.to/lastmile_qr_scan", "ios": "https://dc.lft.to/lastmile_qr_scan"}, "lat": 38.901722166666666, "type": "electric_scooter", "name": "4733c9fa1929f747b25fe0769f9d5b5e", "fusion_lon": 0.0, "fusion_lat": 0.0, "is_reserved": 0, "bike_id": "4733c9fa1929f747b25fe0769f9d5b5e", "lon": -77.02201983333333, "is_disabled": 0}, {"rental_uris": {"android": "https://dc.lft.to/lastmile_qr_scan", "ios": "https://dc.lft.to/lastmile_qr_scan"}, "lat": 38.9033865, "type": "electric_scooter", "name": "f6f2a8f24590e15e46ea92d3237aecdd", "fusion_lon": 0.0, "fusion_lat": 0.0, "is_reserved": 0, "bike_id": "f6f2a8f24590e15e46ea92d3237aecdd", "lon": -76.97573716666666, "is_disabled": 0}, {"rental_uris": {"android": "https://dc.lft.to/lastmile_qr_scan", "ios": "https://dc.lft.to/lastmile_qr_scan"}, "lat": 38.91264983333333, "type": "electric_scooter", "name": "223f40e453f3cc42398489f3b35cff47", "fusion_lon": 0.0, "fusion_lat": 0.0, "is_reserved": 0, "bike_id": "223f40e453f3cc42398489f3b35cff47", "lon": -77.07460616666667, "is_disabled": 0}, {"rental_uris": {"android": "https://dc.lft.to/lastmile_qr_scan", "ios": "https://dc.lft.to/lastmile_qr_scan"}, "lat": 38.95166966666667, "type": "electric_scooter", "name": "1547df9ea20eb13a960a31eb10bca961", "fusion_lon": 0.0, "fusion_lat": 0.0, "is_reserved": 0, "bike_id": "1547df9ea20eb13a960a31eb10bca961", "lon": -77.0691205, "is_disabled": 0}, {"rental_uris": {"android": "https://dc.lft.to/lastmile_qr_scan", "ios": "https://dc.lft.to/lastmile_qr_scan"}, "lat": 38.89514633333334, "type": "electric_scooter", "name": "e7de1657976e64f757b5d040a388c34b", "fusion_lon": 0.0, "fusion_lat": 0.0, "is_reserved": 0, "bike_id": "e7de1657976e64f757b5d040a388c34b", "lon": -77.0197965, "is_disabled": 0}, {"rental_uris": {"android": "https://dc.lft.to/lastmile_qr_scan", "ios": "https://dc.lft.to/lastmile_qr_scan"}, "lat": 38.8949115, "type": "electric_scooter", "name": "d5e68ac68f6c8de45ceddc3fb17def71", "fusion_lon": 0.0, "fusion_lat": 0.0, "is_reserved": 0, "bike_id": "d5e68ac68f6c8de45ceddc3fb17def71", "lon": -76.94892616666667, "is_disabled": 0}, {"rental_uris": {"android": "https://dc.lft.to/lastmile_qr_scan", "ios": "https://dc.lft.to/lastmile_qr_scan"}, "lat": 38.89225916666667, "type": "electric_scooter", "name": "279d8ef0da65b9b0300d24f38f4f9ce3", "fusion_lon": 0.0, "fusion_lat": 0.0, "is_reserved": 0, "bike_id": "279d8ef0da65b9b0300d24f38f4f9ce3", "lon": -77.02617516666666, "is_disabled": 0}, {"rental_uris": {"android": "https://dc.lft.to/lastmile_qr_scan", "ios": "https://dc.lft.to/lastmile_qr_scan"}, "lat": 38.93971666666667, "type": "electric_scooter", "name": "086d9b1517d2d94fb99be20ab97e986c", "fusion_lon": 0.0, "fusion_lat": 0.0, "is_reserved": 0, "bike_id": "086d9b1517d2d94fb99be20ab97e986c", "lon": -77.0343185, "is_disabled": 0}, {"rental_uris": {"android": "https://dc.lft.to/lastmile_qr_scan", "ios": "https://dc.lft.to/lastmile_qr_scan"}, "lat": 38.829239666666666, "type": "electric_bike", "name": "f99ce29ca587688b504f134faa955a72", "fusion_lon": 0.0, "fusion_lat": 0.0, "is_reserved": 0, "bike_id": "f99ce29ca587688b504f134faa955a72", "lon": -77.0687725, "is_disabled": 0}, {"rental_uris": {"android": "https://dc.lft.to/lastmile_qr_scan", "ios": "https://dc.lft.to/lastmile_qr_scan"}, "lat": 38.91861266666667, "type": "electric_bike", "name": "31372faa0934f686a4e9660ecc4a709b", "fusion_lon": 0.0, "fusion_lat": 0.0, "is_reserved": 0, "bike_id": "31372faa0934f686a4e9660ecc4a709b", "lon": -76.96090116666667, "is_disabled": 0}, {"rental_uris": {"android": "https://dc.lft.to/lastmile_qr_scan", "ios": "https://dc.lft.to/lastmile_qr_scan"}, "lat": 38.9263255, "type": "electric_scooter", "name": "ecd77cc8e98f93e4348715687de77ce9", "fusion_lon": 0.0, "fusion_lat": 0.0, "is_reserved": 0, "bike_id": "ecd77cc8e98f93e4348715687de77ce9", "lon": -77.02289033333334, "is_disabled": 0}, {"rental_uris": {"android": "https://dc.lft.to/lastmile_qr_scan", "ios": "https://dc.lft.to/lastmile_qr_scan"}, "lat": 38.90355016666667, "type": "electric_bike", "name": "d1da333e56612f3002beed9ed9924736", "fusion_lon": 0.0, "fusion_lat": 0.0, "is_reserved": 0, "bike_id": "d1da333e56612f3002beed9ed9924736", "lon": -77.03967633333333, "is_disabled": 0}, {"rental_uris": {"android": "https://dc.lft.to/lastmile_qr_scan", "ios": "https://dc.lft.to/lastmile_qr_scan"}, "lat": 38.906650166666665, "type": "electric_scooter", "name": "8d99ba6552b5936cb5530192df719900", "fusion_lon": 0.0, "fusion_lat": 0.0, "is_reserved": 0, "bike_id": "8d99ba6552b5936cb5530192df719900", "lon": -77.02704566666667, "is_disabled": 0}, {"rental_uris": {"android": "https://dc.lft.to/lastmile_qr_scan", "ios": "https://dc.lft.to/lastmile_qr_scan"}, "lat": 38.891992333333334, "type": "electric_scooter", "name": "f2447b71bfa0027e0e149f9a0e0b3d79", "fusion_lon": 0.0, "fusion_lat": 0.0, "is_reserved": 0, "bike_id": "f2447b71bfa0027e0e149f9a0e0b3d79", "lon": -77.02141566666667, "is_disabled": 0}, {"rental_uris": {"android": "https://dc.lft.to/lastmile_qr_scan", "ios": "https://dc.lft.to/lastmile_qr_scan"}, "lat": 38.94180166666666, "type": "electric_scooter", "name": "c9b29c6f3ad6c388ac53c7994eebff1a", "fusion_lon": 0.0, "fusion_lat": 0.0, "is_reserved": 0, "bike_id": "c9b29c6f3ad6c388ac53c7994eebff1a", "lon": -77.0314555, "is_disabled": 0}, {"rental_uris": {"android": "https://dc.lft.to/lastmile_qr_scan", "ios": "https://dc.lft.to/lastmile_qr_scan"}, "lat": 38.918151, "type": "electric_scooter", "name": "6f95c18ea4d506afe725f6741a976258", "fusion_lon": 0.0, "fusion_lat": 0.0, "is_reserved": 0, "bike_id": "6f95c18ea4d506afe725f6741a976258", "lon": -77.0270655, "is_disabled": 0}, {"rental_uris": {"android": "https://dc.lft.to/lastmile_qr_scan", "ios": "https://dc.lft.to/lastmile_qr_scan"}, "lat": 38.920550166666665, "type": "electric_scooter", "name": "a032a4307bedcdd8b0b01e3a2ec0d96f", "fusion_lon": 0.0, "fusion_lat": 0.0, "is_reserved": 0, "bike_id": "a032a4307bedcdd8b0b01e3a2ec0d96f", "lon": -77.04182133333333, "is_disabled": 0}, {"rental_uris": {"android": "https://dc.lft.to/lastmile_qr_scan", "ios": "https://dc.lft.to/lastmile_qr_scan"}, "lat": 38.89115016666667, "type": "electric_bike", "name": "461afb11621933c69533c00cd6afdc1a", "fusion_lon": 0.0, "fusion_lat": 0.0, "is_reserved": 0, "bike_id": "461afb11621933c69533c00cd6afdc1a", "lon": -77.0058295, "is_disabled": 0}, {"rental_uris": {"android": "https://dc.lft.to/lastmile_qr_scan", "ios": "https://dc.lft.to/lastmile_qr_scan"}, "lat": 38.87660066666667, "type": "electric_scooter", "name": "a73df6db72f5aebea4a82b75c6d73c09", "fusion_lon": 0.0, "fusion_lat": 0.0, "is_reserved": 0, "bike_id": "a73df6db72f5aebea4a82b75c6d73c09", "lon": -77.00065666666667, "is_disabled": 0}, {"rental_uris": {"android": "https://dc.lft.to/lastmile_qr_scan", "ios": "https://dc.lft.to/lastmile_qr_scan"}, "lat": 38.901535333333335, "type": "electric_scooter", "name": "f38393dce4f98a8717e1f4060a33ad89", "fusion_lon": 0.0, "fusion_lat": 0.0, "is_reserved": 0, "bike_id": "f38393dce4f98a8717e1f4060a33ad89", "lon": -76.9742075, "is_disabled": 0}, {"rental_uris": {"android": "https://dc.lft.to/lastmile_qr_scan", "ios": "https://dc.lft.to/lastmile_qr_scan"}, "lat": 38.905803166666665, "type": "electric_scooter", "name": "7a90034febc9863787d168907c94c0c9", "fusion_lon": 0.0, "fusion_lat": 0.0, "is_reserved": 0, "bike_id": "7a90034febc9863787d168907c94c0c9", "lon": -77.00591033333333, "is_disabled": 0}, {"rental_uris": {"android": "https://dc.lft.to/lastmile_qr_scan", "ios": "https://dc.lft.to/lastmile_qr_scan"}, "lat": 38.937998, "type": "electric_scooter", "name": "b6c475fda9e6ee72ec830418a29565c9", "fusion_lon": 0.0, "fusion_lat": 0.0, "is_reserved": 0, "bike_id": "b6c475fda9e6ee72ec830418a29565c9", "lon": -77.03405116666667, "is_disabled": 0}, {"rental_uris": {"android": "https://dc.lft.to/lastmile_qr_scan", "ios": "https://dc.lft.to/lastmile_qr_scan"}, "lat": 38.923392, "type": "electric_scooter", "name": "d512350e91ef07dfa1ddefa98f1b0706", "fusion_lon": 0.0, "fusion_lat": 0.0, "is_reserved": 0, "bike_id": "d512350e91ef07dfa1ddefa98f1b0706", "lon": -77.035041, "is_disabled": 0}, {"rental_uris": {"android": "https://dc.lft.to/lastmile_qr_scan", "ios": "https://dc.lft.to/lastmile_qr_scan"}, "lat": 38.89228283333333, "type": "electric_scooter", "name": "32f484e2c55b504208480d0eb55a4c69", "fusion_lon": 0.0, "fusion_lat": 0.0, "is_reserved": 0, "bike_id": "32f484e2c55b504208480d0eb55a4c69", "lon": -77.04339166666666, "is_disabled": 0}, {"rental_uris": {"android": "https://dc.lft.to/lastmile_qr_scan", "ios": "https://dc.lft.to/lastmile_qr_scan"}, "lat": 38.89831616666667, "type": "electric_scooter", "name": "b92be88a8dd0cba976619f62775ae5a8", "fusion_lon": 0.0, "fusion_lat": 0.0, "is_reserved": 0, "bike_id": "b92be88a8dd0cba976619f62775ae5a8", "lon": -77.04571266666666, "is_disabled": 0}, {"rental_uris": {"android": "https://dc.lft.to/lastmile_qr_scan", "ios": "https://dc.lft.to/lastmile_qr_scan"}, "lat": 38.87646083333333, "type": "electric_scooter", "name": "70877ab355cdf4247455b9da37643487", "fusion_lon": 0.0, "fusion_lat": 0.0, "is_reserved": 0, "bike_id": "70877ab355cdf4247455b9da37643487", "lon": -77.00236366666667, "is_disabled": 0}, {"rental_uris": {"android": "https://dc.lft.to/lastmile_qr_scan", "ios": "https://dc.lft.to/lastmile_qr_scan"}, "lat": 38.82209433333333, "type": "electric_bike", "name": "e80eb4a66fe53553fadd85ca4909dc82", "fusion_lon": 0.0, "fusion_lat": 0.0, "is_reserved": 0, "bike_id": "e80eb4a66fe53553fadd85ca4909dc82", "lon": -76.9770875, "is_disabled": 0}, {"rental_uris": {"android": "https://dc.lft.to/lastmile_qr_scan", "ios": "https://dc.lft.to/lastmile_qr_scan"}, "lat": 38.902810833333334, "type": "electric_scooter", "name": "8a88a33307f44535aa4c5a184c5fc1f7", "fusion_lon": 0.0, "fusion_lat": 0.0, "is_reserved": 0, "bike_id": "8a88a33307f44535aa4c5a184c5fc1f7", "lon": -77.03926533333333, "is_disabled": 0}, {"rental_uris": {"android": "https://dc.lft.to/lastmile_qr_scan", "ios": "https://dc.lft.to/lastmile_qr_scan"}, "lat": 38.998151, "type": "electric_bike", "name": "c88088ab64f98cc9d66f183ac740dc01", "fusion_lon": 0.0, "fusion_lat": 0.0, "is_reserved": 0, "bike_id": "c88088ab64f98cc9d66f183ac740dc01", "lon": -77.0287765, "is_disabled": 0}, {"rental_uris": {"android": "https://dc.lft.to/lastmile_qr_scan", "ios": "https://dc.lft.to/lastmile_qr_scan"}, "lat": 38.941868666666664, "type": "electric_scooter", "name": "76a128b4900247f16f7cf319bac0c744", "fusion_lon": 0.0, "fusion_lat": 0.0, "is_reserved": 0, "bike_id": "76a128b4900247f16f7cf319bac0c744", "lon": -77.024866, "is_disabled": 0}, {"rental_uris": {"android": "https://dc.lft.to/lastmile_qr_scan", "ios": "https://dc.lft.to/lastmile_qr_scan"}, "lat": 38.894592833333334, "type": "electric_scooter", "name": "902ab0b0315694763937320e8aac0810", "fusion_lon": 0.0, "fusion_lat": 0.0, "is_reserved": 0, "bike_id": "902ab0b0315694763937320e8aac0810", "lon": -77.02685683333333, "is_disabled": 0}, {"rental_uris": {"android": "https://dc.lft.to/lastmile_qr_scan", "ios": "https://dc.lft.to/lastmile_qr_scan"}, "lat": 38.9325375, "type": "electric_scooter", "name": "1278ac1177dbbf008f899940969cb3cf", "fusion_lon": 0.0, "fusion_lat": 0.0, "is_reserved": 0, "bike_id": "1278ac1177dbbf008f899940969cb3cf", "lon": -77.032803, "is_disabled": 0}, {"rental_uris": {"android": "https://dc.lft.to/lastmile_qr_scan", "ios": "https://dc.lft.to/lastmile_qr_scan"}, "lat": 38.92439316666667, "type": "electric_bike", "name": "3b32128c17785e8d0c52fa9eec8ba913", "fusion_lon": 0.0, "fusion_lat": 0.0, "is_reserved": 0, "bike_id": "3b32128c17785e8d0c52fa9eec8ba913", "lon": -76.97162266666666, "is_disabled": 0}, {"rental_uris": {"android": "https://dc.lft.to/lastmile_qr_scan", "ios": "https://dc.lft.to/lastmile_qr_scan"}, "lat": 38.8972215, "type": "electric_scooter", "name": "89bd0fe0ac5c93087e482af3eb53d27d", "fusion_lon": 0.0, "fusion_lat": 0.0, "is_reserved": 0, "bike_id": "89bd0fe0ac5c93087e482af3eb53d27d", "lon": -77.02691733333333, "is_disabled": 0}, {"rental_uris": {"android": "https://dc.lft.to/lastmile_qr_scan", "ios": "https://dc.lft.to/lastmile_qr_scan"}, "lat": 38.924979, "type": "electric_scooter", "name": "404d394110bc5e8b8ab710e9637b3cb4", "fusion_lon": 0.0, "fusion_lat": 0.0, "is_reserved": 0, "bike_id": "404d394110bc5e8b8ab710e9637b3cb4", "lon": -77.02157783333334, "is_disabled": 0}, {"rental_uris": {"android": "https://dc.lft.to/lastmile_qr_scan", "ios": "https://dc.lft.to/lastmile_qr_scan"}, "lat": 38.892235166666666, "type": "electric_scooter", "name": "20b135e16bf0d3fa5ea8d26ddb6d8c18", "fusion_lon": 0.0, "fusion_lat": 0.0, "is_reserved": 0, "bike_id": "20b135e16bf0d3fa5ea8d26ddb6d8c18", "lon": -77.04799716666666, "is_disabled": 0}, {"rental_uris": {"android": "https://dc.lft.to/lastmile_qr_scan", "ios": "https://dc.lft.to/lastmile_qr_scan"}, "lat": 38.888454833333334, "type": "electric_scooter", "name": "1bbb35b492cae4ec6104b39bc4a8087c", "fusion_lon": 0.0, "fusion_lat": 0.0, "is_reserved": 0, "bike_id": "1bbb35b492cae4ec6104b39bc4a8087c", "lon": -76.97715833333334, "is_disabled": 0}, {"rental_uris": {"android": "https://dc.lft.to/lastmile_qr_scan", "ios": "https://dc.lft.to/lastmile_qr_scan"}, "lat": 38.894904333333336, "type": "electric_scooter", "name": "5135130e399e7a4bdf3c5ef6ca5fd6aa", "fusion_lon": 0.0, "fusion_lat": 0.0, "is_reserved": 0, "bike_id": "5135130e399e7a4bdf3c5ef6ca5fd6aa", "lon": -77.00970516666666, "is_disabled": 0}, {"rental_uris": {"android": "https://dc.lft.to/lastmile_qr_scan", "ios": "https://dc.lft.to/lastmile_qr_scan"}, "lat": 38.89845066666667, "type": "electric_scooter", "name": "df3c2c3d3441cb287f46cc1f10271573", "fusion_lon": 0.0, "fusion_lat": 0.0, "is_reserved": 0, "bike_id": "df3c2c3d3441cb287f46cc1f10271573", "lon": -77.01941716666667, "is_disabled": 0}, {"rental_uris": {"android": "https://dc.lft.to/lastmile_qr_scan", "ios": "https://dc.lft.to/lastmile_qr_scan"}, "lat": 38.901981666666664, "type": "electric_scooter", "name": "0090c27395bfc3bf2904f3eaf81618ac", "fusion_lon": 0.0, "fusion_lat": 0.0, "is_reserved": 0, "bike_id": "0090c27395bfc3bf2904f3eaf81618ac", "lon": -76.98195916666667, "is_disabled": 0}, {"rental_uris": {"android": "https://dc.lft.to/lastmile_qr_scan", "ios": "https://dc.lft.to/lastmile_qr_scan"}, "lat": 38.92372683333333, "type": "electric_scooter", "name": "9caf2f6d93c3dfb4c935ed4eadf31cc0", "fusion_lon": 0.0, "fusion_lat": 0.0, "is_reserved": 0, "bike_id": "9caf2f6d93c3dfb4c935ed4eadf31cc0", "lon": -77.051469, "is_disabled": 0}, {"rental_uris": {"android": "https://dc.lft.to/lastmile_qr_scan", "ios": "https://dc.lft.to/lastmile_qr_scan"}, "lat": 38.864921333333335, "type": "electric_bike", "name": "f1e908b0e6d9811cc8ce469458124479", "fusion_lon": 0.0, "fusion_lat": 0.0, "is_reserved": 0, "bike_id": "f1e908b0e6d9811cc8ce469458124479", "lon": -76.977387, "is_disabled": 0}, {"rental_uris": {"android": "https://dc.lft.to/lastmile_qr_scan", "ios": "https://dc.lft.to/lastmile_qr_scan"}, "lat": 38.92668466666667, "type": "electric_scooter", "name": "be177e7c8ec817451f4f531e99943320", "fusion_lon": 0.0, "fusion_lat": 0.0, "is_reserved": 0, "bike_id": "be177e7c8ec817451f4f531e99943320", "lon": -77.05436383333333, "is_disabled": 0}, {"rental_uris": {"android": "https://dc.lft.to/lastmile_qr_scan", "ios": "https://dc.lft.to/lastmile_qr_scan"}, "lat": 38.900127833333336, "type": "electric_scooter", "name": "0c8f3f4972c91632781daae8b1d6438a", "fusion_lon": 0.0, "fusion_lat": 0.0, "is_reserved": 0, "bike_id": "0c8f3f4972c91632781daae8b1d6438a", "lon": -77.01246966666666, "is_disabled": 0}, {"rental_uris": {"android": "https://dc.lft.to/lastmile_qr_scan", "ios": "https://dc.lft.to/lastmile_qr_scan"}, "lat": 38.9244265, "type": "electric_scooter", "name": "c5d4ca833afbe81a585b05cc44591381", "fusion_lon": 0.0, "fusion_lat": 0.0, "is_reserved": 0, "bike_id": "c5d4ca833afbe81a585b05cc44591381", "lon": -77.02149566666667, "is_disabled": 0}, {"rental_uris": {"android": "https://dc.lft.to/lastmile_qr_scan", "ios": "https://dc.lft.to/lastmile_qr_scan"}, "lat": 38.932388833333334, "type": "electric_bike", "name": "47e31a41da134fd8d012ce014907cec5", "fusion_lon": 0.0, "fusion_lat": 0.0, "is_reserved": 0, "bike_id": "47e31a41da134fd8d012ce014907cec5", "lon": -76.99715366666666, "is_disabled": 0}, {"rental_uris": {"android": "https://dc.lft.to/lastmile_qr_scan", "ios": "https://dc.lft.to/lastmile_qr_scan"}, "lat": 38.919088, "type": "electric_scooter", "name": "a099d677f7506f6112bc57b477bf82da", "fusion_lon": 0.0, "fusion_lat": 0.0, "is_reserved": 0, "bike_id": "a099d677f7506f6112bc57b477bf82da", "lon": -77.021374, "is_disabled": 0}, {"rental_uris": {"android": "https://dc.lft.to/lastmile_qr_scan", "ios": "https://dc.lft.to/lastmile_qr_scan"}, "lat": 38.89611883333333, "type": "electric_scooter", "name": "f6977e74c4577364e9a9e680e2fb731a", "fusion_lon": 0.0, "fusion_lat": 0.0, "is_reserved": 0, "bike_id": "f6977e74c4577364e9a9e680e2fb731a", "lon": -76.948484, "is_disabled": 0}, {"rental_uris": {"android": "https://dc.lft.to/lastmile_qr_scan", "ios": "https://dc.lft.to/lastmile_qr_scan"}, "lat": 38.9011775, "type": "electric_scooter", "name": "edd994bd848a1132f10b9bd282d11907", "fusion_lon": 0.0, "fusion_lat": 0.0, "is_reserved": 0, "bike_id": "edd994bd848a1132f10b9bd282d11907", "lon": -77.03373033333334, "is_disabled": 0}, {"rental_uris": {"android": "https://dc.lft.to/lastmile_qr_scan", "ios": "https://dc.lft.to/lastmile_qr_scan"}, "lat": 38.933090666666665, "type": "electric_scooter", "name": "3c744e50b66c3353eee60fb33f51b9c2", "fusion_lon": 0.0, "fusion_lat": 0.0, "is_reserved": 0, "bike_id": "3c744e50b66c3353eee60fb33f51b9c2", "lon": -77.03076733333333, "is_disabled": 0}, {"rental_uris": {"android": "https://dc.lft.to/lastmile_qr_scan", "ios": "https://dc.lft.to/lastmile_qr_scan"}, "lat": 38.956148666666664, "type": "electric_bike", "name": "c202d01ee989bd364043f0b566a238e3", "fusion_lon": 0.0, "fusion_lat": 0.0, "is_reserved": 0, "bike_id": "c202d01ee989bd364043f0b566a238e3", "lon": -76.962663, "is_disabled": 0}, {"rental_uris": {"android": "https://dc.lft.to/lastmile_qr_scan", "ios": "https://dc.lft.to/lastmile_qr_scan"}, "lat": 38.898531, "type": "electric_bike", "name": "dd4d2bab5a1706afda925d8d38750530", "fusion_lon": 0.0, "fusion_lat": 0.0, "is_reserved": 0, "bike_id": "dd4d2bab5a1706afda925d8d38750530", "lon": -76.9318495, "is_disabled": 0}, {"rental_uris": {"android": "https://dc.lft.to/lastmile_qr_scan", "ios": "https://dc.lft.to/lastmile_qr_scan"}, "lat": 38.89226033333333, "type": "electric_scooter", "name": "c62913c8fc1f0608bd433cfb73f99199", "fusion_lon": 0.0, "fusion_lat": 0.0, "is_reserved": 0, "bike_id": "c62913c8fc1f0608bd433cfb73f99199", "lon": -77.02408666666666, "is_disabled": 0}, {"rental_uris": {"android": "https://dc.lft.to/lastmile_qr_scan", "ios": "https://dc.lft.to/lastmile_qr_scan"}, "lat": 38.8922355, "type": "electric_scooter", "name": "9d639c88ba292a17c099ff1b932772e4", "fusion_lon": 0.0, "fusion_lat": 0.0, "is_reserved": 0, "bike_id": "9d639c88ba292a17c099ff1b932772e4", "lon": -77.04498066666666, "is_disabled": 0}, {"rental_uris": {"android": "https://dc.lft.to/lastmile_qr_scan", "ios": "https://dc.lft.to/lastmile_qr_scan"}, "lat": 38.923098833333334, "type": "electric_scooter", "name": "59c82cfd4be5d683629e2fc8d09b2b7e", "fusion_lon": 0.0, "fusion_lat": 0.0, "is_reserved": 0, "bike_id": "59c82cfd4be5d683629e2fc8d09b2b7e", "lon": -77.0311345, "is_disabled": 0}, {"rental_uris": {"android": "https://dc.lft.to/lastmile_qr_scan", "ios": "https://dc.lft.to/lastmile_qr_scan"}, "lat": 38.88790383333333, "type": "electric_scooter", "name": "b894b5993b818ff4652e4e33ebd3ae10", "fusion_lon": 0.0, "fusion_lat": 0.0, "is_reserved": 0, "bike_id": "b894b5993b818ff4652e4e33ebd3ae10", "lon": -77.01597483333333, "is_disabled": 0}, {"rental_uris": {"android": "https://dc.lft.to/lastmile_qr_scan", "ios": "https://dc.lft.to/lastmile_qr_scan"}, "lat": 38.8935555, "type": "electric_scooter", "name": "de1dcf119048dc7afa74bd4473102b56", "fusion_lon": 0.0, "fusion_lat": 0.0, "is_reserved": 0, "bike_id": "de1dcf119048dc7afa74bd4473102b56", "lon": -77.0033205, "is_disabled": 0}, {"rental_uris": {"android": "https://dc.lft.to/lastmile_qr_scan", "ios": "https://dc.lft.to/lastmile_qr_scan"}, "lat": 38.922227, "type": "electric_scooter", "name": "c2478704eb1431feff896928ae984571", "fusion_lon": 0.0, "fusion_lat": 0.0, "is_reserved": 0, "bike_id": "c2478704eb1431feff896928ae984571", "lon": -77.04234916666667, "is_disabled": 0}, {"rental_uris": {"android": "https://dc.lft.to/lastmile_qr_scan", "ios": "https://dc.lft.to/lastmile_qr_scan"}, "lat": 38.8813625, "type": "electric_scooter", "name": "7658c870c6b74ce676f53e4412245c7e", "fusion_lon": 0.0, "fusion_lat": 0.0, "is_reserved": 0, "bike_id": "7658c870c6b74ce676f53e4412245c7e", "lon": -77.0227135, "is_disabled": 0}, {"rental_uris": {"android": "https://dc.lft.to/lastmile_qr_scan", "ios": "https://dc.lft.to/lastmile_qr_scan"}, "lat": 38.92443083333333, "type": "electric_scooter", "name": "1d4a8baae056f389df6bd78056699ac0", "fusion_lon": 0.0, "fusion_lat": 0.0, "is_reserved": 0, "bike_id": "1d4a8baae056f389df6bd78056699ac0", "lon": -77.033624, "is_disabled": 0}, {"rental_uris": {"android": "https://dc.lft.to/lastmile_qr_scan", "ios": "https://dc.lft.to/lastmile_qr_scan"}, "lat": 38.90261366666667, "type": "electric_scooter", "name": "ac54d4e7880c942e3c08647d53a77cbf", "fusion_lon": 0.0, "fusion_lat": 0.0, "is_reserved": 0, "bike_id": "ac54d4e7880c942e3c08647d53a77cbf", "lon": -77.0294205, "is_disabled": 0}, {"rental_uris": {"android": "https://dc.lft.to/lastmile_qr_scan", "ios": "https://dc.lft.to/lastmile_qr_scan"}, "lat": 38.924881666666664, "type": "electric_scooter", "name": "f4a112aa3de2f09586c7669b831d3bb6", "fusion_lon": 0.0, "fusion_lat": 0.0, "is_reserved": 0, "bike_id": "f4a112aa3de2f09586c7669b831d3bb6", "lon": -77.052125, "is_disabled": 0}, {"rental_uris": {"android": "https://dc.lft.to/lastmile_qr_scan", "ios": "https://dc.lft.to/lastmile_qr_scan"}, "lat": 38.931118, "type": "electric_scooter", "name": "9e8c40c9556c1d5844cd650c87e0ea02", "fusion_lon": 0.0, "fusion_lat": 0.0, "is_reserved": 0, "bike_id": "9e8c40c9556c1d5844cd650c87e0ea02", "lon": -77.03027, "is_disabled": 0}, {"rental_uris": {"android": "https://dc.lft.to/lastmile_qr_scan", "ios": "https://dc.lft.to/lastmile_qr_scan"}, "lat": 38.902142166666664, "type": "electric_scooter", "name": "21fd1ae93176f480862e68b16e7cc428", "fusion_lon": 0.0, "fusion_lat": 0.0, "is_reserved": 0, "bike_id": "21fd1ae93176f480862e68b16e7cc428", "lon": -77.06241716666666, "is_disabled": 0}, {"rental_uris": {"android": "https://dc.lft.to/lastmile_qr_scan", "ios": "https://dc.lft.to/lastmile_qr_scan"}, "lat": 38.8931615, "type": "electric_scooter", "name": "afe5dad4ec3d83a4c7ec7a4268416a51", "fusion_lon": 0.0, "fusion_lat": 0.0, "is_reserved": 0, "bike_id": "afe5dad4ec3d83a4c7ec7a4268416a51", "lon": -76.93967833333333, "is_disabled": 0}, {"rental_uris": {"android": "https://dc.lft.to/lastmile_qr_scan", "ios": "https://dc.lft.to/lastmile_qr_scan"}, "lat": 38.90179283333333, "type": "electric_scooter", "name": "b8416a2a8497db048f9c63daee980cfe", "fusion_lon": 0.0, "fusion_lat": 0.0, "is_reserved": 0, "bike_id": "b8416a2a8497db048f9c63daee980cfe", "lon": -76.94157866666667, "is_disabled": 0}, {"rental_uris": {"android": "https://dc.lft.to/lastmile_qr_scan", "ios": "https://dc.lft.to/lastmile_qr_scan"}, "lat": 38.920721, "type": "electric_scooter", "name": "f5b03fb7aeea709acf473802e5d82016", "fusion_lon": 0.0, "fusion_lat": 0.0, "is_reserved": 0, "bike_id": "f5b03fb7aeea709acf473802e5d82016", "lon": -77.03988466666667, "is_disabled": 0}, {"rental_uris": {"android": "https://dc.lft.to/lastmile_qr_scan", "ios": "https://dc.lft.to/lastmile_qr_scan"}, "lat": 38.907119333333334, "type": "electric_scooter", "name": "037c122522f089f94468faa0337eb861", "fusion_lon": 0.0, "fusion_lat": 0.0, "is_reserved": 0, "bike_id": "037c122522f089f94468faa0337eb861", "lon": -77.00329583333334, "is_disabled": 0}, {"rental_uris": {"android": "https://dc.lft.to/lastmile_qr_scan", "ios": "https://dc.lft.to/lastmile_qr_scan"}, "lat": 38.90475083333333, "type": "electric_scooter", "name": "75eb0175ad91fa0b7028e7fcc577c46d", "fusion_lon": 0.0, "fusion_lat": 0.0, "is_reserved": 0, "bike_id": "75eb0175ad91fa0b7028e7fcc577c46d", "lon": -77.035544, "is_disabled": 0}, {"rental_uris": {"android": "https://dc.lft.to/lastmile_qr_scan", "ios": "https://dc.lft.to/lastmile_qr_scan"}, "lat": 38.84757883333333, "type": "electric_bike", "name": "66b7e627ad1fe7382e2edd85dc0d3c15", "fusion_lon": 0.0, "fusion_lat": 0.0, "is_reserved": 0, "bike_id": "66b7e627ad1fe7382e2edd85dc0d3c15", "lon": -77.05368983333334, "is_disabled": 0}, {"rental_uris": {"android": "https://dc.lft.to/lastmile_qr_scan", "ios": "https://dc.lft.to/lastmile_qr_scan"}, "lat": 38.8922365, "type": "electric_scooter", "name": "28ac98f1a036b359bef29ccf7101b3dd", "fusion_lon": 0.0, "fusion_lat": 0.0, "is_reserved": 0, "bike_id": "28ac98f1a036b359bef29ccf7101b3dd", "lon": -77.0313695, "is_disabled": 0}, {"rental_uris": {"android": "https://dc.lft.to/lastmile_qr_scan", "ios": "https://dc.lft.to/lastmile_qr_scan"}, "lat": 38.906243333333336, "type": "electric_scooter", "name": "47fe8bd97adfe91648463eb6ccde9c08", "fusion_lon": 0.0, "fusion_lat": 0.0, "is_reserved": 0, "bike_id": "47fe8bd97adfe91648463eb6ccde9c08", "lon": -77.06263316666667, "is_disabled": 0}, {"rental_uris": {"android": "https://dc.lft.to/lastmile_qr_scan", "ios": "https://dc.lft.to/lastmile_qr_scan"}, "lat": 38.89491566666667, "type": "electric_scooter", "name": "8b404fe4220b7af96878a8750e25e07d", "fusion_lon": 0.0, "fusion_lat": 0.0, "is_reserved": 0, "bike_id": "8b404fe4220b7af96878a8750e25e07d", "lon": -76.94891966666667, "is_disabled": 0}, {"rental_uris": {"android": "https://dc.lft.to/lastmile_qr_scan", "ios": "https://dc.lft.to/lastmile_qr_scan"}, "lat": 38.89657566666666, "type": "electric_scooter", "name": "3b845011c7b685629a03c508d8083923", "fusion_lon": 0.0, "fusion_lat": 0.0, "is_reserved": 0, "bike_id": "3b845011c7b685629a03c508d8083923", "lon": -77.02721533333333, "is_disabled": 0}, {"rental_uris": {"android": "https://dc.lft.to/lastmile_qr_scan", "ios": "https://dc.lft.to/lastmile_qr_scan"}, "lat": 38.887189666666664, "type": "electric_scooter", "name": "cc791ae15bf0b4edd063bb0da173b96e", "fusion_lon": 0.0, "fusion_lat": 0.0, "is_reserved": 0, "bike_id": "cc791ae15bf0b4edd063bb0da173b96e", "lon": -77.02830583333333, "is_disabled": 0}, {"rental_uris": {"android": "https://dc.lft.to/lastmile_qr_scan", "ios": "https://dc.lft.to/lastmile_qr_scan"}, "lat": 38.9240675, "type": "electric_scooter", "name": "9bf06d61df624e8a304d217c674247a7", "fusion_lon": 0.0, "fusion_lat": 0.0, "is_reserved": 0, "bike_id": "9bf06d61df624e8a304d217c674247a7", "lon": -77.0222465, "is_disabled": 0}, {"rental_uris": {"android": "https://dc.lft.to/lastmile_qr_scan", "ios": "https://dc.lft.to/lastmile_qr_scan"}, "lat": 38.921641666666666, "type": "electric_scooter", "name": "6f63fa097eb9700fa743f332788a86cf", "fusion_lon": 0.0, "fusion_lat": 0.0, "is_reserved": 0, "bike_id": "6f63fa097eb9700fa743f332788a86cf", "lon": -77.033207, "is_disabled": 0}, {"rental_uris": {"android": "https://dc.lft.to/lastmile_qr_scan", "ios": "https://dc.lft.to/lastmile_qr_scan"}, "lat": 38.9429865, "type": "electric_scooter", "name": "f68a507fd6ac3ccd5e9cdcc8af67a894", "fusion_lon": 0.0, "fusion_lat": 0.0, "is_reserved": 0, "bike_id": "f68a507fd6ac3ccd5e9cdcc8af67a894", "lon": -77.02794216666666, "is_disabled": 0}, {"rental_uris": {"android": "https://dc.lft.to/lastmile_qr_scan", "ios": "https://dc.lft.to/lastmile_qr_scan"}, "lat": 38.89008366666667, "type": "electric_scooter", "name": "eaeaf99e9a83b9a46a161950800e50d5", "fusion_lon": 0.0, "fusion_lat": 0.0, "is_reserved": 0, "bike_id": "eaeaf99e9a83b9a46a161950800e50d5", "lon": -76.937434, "is_disabled": 0}, {"rental_uris": {"android": "https://dc.lft.to/lastmile_qr_scan", "ios": "https://dc.lft.to/lastmile_qr_scan"}, "lat": 38.905196333333336, "type": "electric_scooter", "name": "23158a206d7dc26f8f9f088bd25b0db7", "fusion_lon": 0.0, "fusion_lat": 0.0, "is_reserved": 0, "bike_id": "23158a206d7dc26f8f9f088bd25b0db7", "lon": -77.04156166666667, "is_disabled": 0}, {"rental_uris": {"android": "https://dc.lft.to/lastmile_qr_scan", "ios": "https://dc.lft.to/lastmile_qr_scan"}, "lat": 38.907248333333335, "type": "electric_scooter", "name": "311fad5da779545db4e84cf695eb76fb", "fusion_lon": 0.0, "fusion_lat": 0.0, "is_reserved": 0, "bike_id": "311fad5da779545db4e84cf695eb76fb", "lon": -77.04046083333333, "is_disabled": 0}, {"rental_uris": {"android": "https://dc.lft.to/lastmile_qr_scan", "ios": "https://dc.lft.to/lastmile_qr_scan"}, "lat": 38.90379466666667, "type": "electric_scooter", "name": "03192f84c177b6a553131d30df789388", "fusion_lon": 0.0, "fusion_lat": 0.0, "is_reserved": 0, "bike_id": "03192f84c177b6a553131d30df789388", "lon": -77.038517, "is_disabled": 0}, {"rental_uris": {"android": "https://dc.lft.to/lastmile_qr_scan", "ios": "https://dc.lft.to/lastmile_qr_scan"}, "lat": 38.893732, "type": "electric_scooter", "name": "da9bd620cb9c814dc0fc62b3b45b4795", "fusion_lon": 0.0, "fusion_lat": 0.0, "is_reserved": 0, "bike_id": "da9bd620cb9c814dc0fc62b3b45b4795", "lon": -77.00345883333334, "is_disabled": 0}, {"rental_uris": {"android": "https://dc.lft.to/lastmile_qr_scan", "ios": "https://dc.lft.to/lastmile_qr_scan"}, "lat": 38.897224666666666, "type": "electric_scooter", "name": "f9000162390d8f715de84b5080e0fe71", "fusion_lon": 0.0, "fusion_lat": 0.0, "is_reserved": 0, "bike_id": "f9000162390d8f715de84b5080e0fe71", "lon": -77.0244465, "is_disabled": 0}, {"rental_uris": {"android": "https://dc.lft.to/lastmile_qr_scan", "ios": "https://dc.lft.to/lastmile_qr_scan"}, "lat": 39.00535416666666, "type": "electric_bike", "name": "66b0c0f62a1fadd982ff10358929123f", "fusion_lon": 0.0, "fusion_lat": 0.0, "is_reserved": 0, "bike_id": "66b0c0f62a1fadd982ff10358929123f", "lon": -77.1040415, "is_disabled": 0}, {"rental_uris": {"android": "https://dc.lft.to/lastmile_qr_scan", "ios": "https://dc.lft.to/lastmile_qr_scan"}, "lat": 38.90523916666667, "type": "electric_scooter", "name": "e6cc6824d5ab241f31f19c10ac525ea3", "fusion_lon": 0.0, "fusion_lat": 0.0, "is_reserved": 0, "bike_id": "e6cc6824d5ab241f31f19c10ac525ea3", "lon": -77.04738633333334, "is_disabled": 0}, {"rental_uris": {"android": "https://dc.lft.to/lastmile_qr_scan", "ios": "https://dc.lft.to/lastmile_qr_scan"}, "lat": 38.878509, "type": "electric_bike", "name": "1aeb96e3ddbf7516cd6878b821d1a388", "fusion_lon": 0.0, "fusion_lat": 0.0, "is_reserved": 0, "bike_id": "1aeb96e3ddbf7516cd6878b821d1a388", "lon": -77.007776, "is_disabled": 0}, {"rental_uris": {"android": "https://dc.lft.to/lastmile_qr_scan", "ios": "https://dc.lft.to/lastmile_qr_scan"}, "lat": 38.920624, "type": "electric_scooter", "name": "e6d57636368ac510e82e26afd0847bc9", "fusion_lon": 0.0, "fusion_lat": 0.0, "is_reserved": 0, "bike_id": "e6d57636368ac510e82e26afd0847bc9", "lon": -77.0294675, "is_disabled": 0}, {"rental_uris": {"android": "https://dc.lft.to/lastmile_qr_scan", "ios": "https://dc.lft.to/lastmile_qr_scan"}, "lat": 38.89723583333333, "type": "electric_scooter", "name": "8743c54533bb502d824476bb0736a56d", "fusion_lon": 0.0, "fusion_lat": 0.0, "is_reserved": 0, "bike_id": "8743c54533bb502d824476bb0736a56d", "lon": -77.04357833333333, "is_disabled": 0}, {"rental_uris": {"android": "https://dc.lft.to/lastmile_qr_scan", "ios": "https://dc.lft.to/lastmile_qr_scan"}, "lat": 38.920602833333334, "type": "electric_scooter", "name": "077bb3247de1079826e0f1ad3f6a6248", "fusion_lon": 0.0, "fusion_lat": 0.0, "is_reserved": 0, "bike_id": "077bb3247de1079826e0f1ad3f6a6248", "lon": -77.022991, "is_disabled": 0}, {"rental_uris": {"android": "https://dc.lft.to/lastmile_qr_scan", "ios": "https://dc.lft.to/lastmile_qr_scan"}, "lat": 38.89188033333333, "type": "electric_scooter", "name": "3e9075caec9f9416ca27d4074b97f75a", "fusion_lon": 0.0, "fusion_lat": 0.0, "is_reserved": 0, "bike_id": "3e9075caec9f9416ca27d4074b97f75a", "lon": -76.99853316666666, "is_disabled": 0}, {"rental_uris": {"android": "https://dc.lft.to/lastmile_qr_scan", "ios": "https://dc.lft.to/lastmile_qr_scan"}, "lat": 38.892213166666664, "type": "electric_scooter", "name": "70304d741e4fb18a5d27b14158314af4", "fusion_lon": 0.0, "fusion_lat": 0.0, "is_reserved": 0, "bike_id": "70304d741e4fb18a5d27b14158314af4", "lon": -77.02221983333334, "is_disabled": 0}, {"rental_uris": {"android": "https://dc.lft.to/lastmile_qr_scan", "ios": "https://dc.lft.to/lastmile_qr_scan"}, "lat": 38.902770333333336, "type": "electric_scooter", "name": "85bd49ebf89b8843f9247ff6ec9f56a8", "fusion_lon": 0.0, "fusion_lat": 0.0, "is_reserved": 0, "bike_id": "85bd49ebf89b8843f9247ff6ec9f56a8", "lon": -77.03846083333333, "is_disabled": 0}, {"rental_uris": {"android": "https://dc.lft.to/lastmile_qr_scan", "ios": "https://dc.lft.to/lastmile_qr_scan"}, "lat": 38.8959505, "type": "electric_scooter", "name": "08000d32d17e97ed7fe782f16f0c362c", "fusion_lon": 0.0, "fusion_lat": 0.0, "is_reserved": 0, "bike_id": "08000d32d17e97ed7fe782f16f0c362c", "lon": -77.048078, "is_disabled": 0}, {"rental_uris": {"android": "https://dc.lft.to/lastmile_qr_scan", "ios": "https://dc.lft.to/lastmile_qr_scan"}, "lat": 38.8563975, "type": "electric_bike", "name": "db03a83e6a196e004a52587708fd9a6a", "fusion_lon": 0.0, "fusion_lat": 0.0, "is_reserved": 0, "bike_id": "db03a83e6a196e004a52587708fd9a6a", "lon": -77.06834933333333, "is_disabled": 0}, {"rental_uris": {"android": "https://dc.lft.to/lastmile_qr_scan", "ios": "https://dc.lft.to/lastmile_qr_scan"}, "lat": 38.8989745, "type": "electric_scooter", "name": "a6625c99fdf2208cb24100d64275fe4e", "fusion_lon": 0.0, "fusion_lat": 0.0, "is_reserved": 0, "bike_id": "a6625c99fdf2208cb24100d64275fe4e", "lon": -77.03927483333334, "is_disabled": 0}, {"rental_uris": {"android": "https://dc.lft.to/lastmile_qr_scan", "ios": "https://dc.lft.to/lastmile_qr_scan"}, "lat": 38.89604383333333, "type": "electric_scooter", "name": "472e6065502e482825445e3c5852216a", "fusion_lon": 0.0, "fusion_lat": 0.0, "is_reserved": 0, "bike_id": "472e6065502e482825445e3c5852216a", "lon": -77.02990583333333, "is_disabled": 0}, {"rental_uris": {"android": "https://dc.lft.to/lastmile_qr_scan", "ios": "https://dc.lft.to/lastmile_qr_scan"}, "lat": 38.89840233333334, "type": "electric_scooter", "name": "2234ce4e9e4bd6e64fe7b83f71e346b1", "fusion_lon": 0.0, "fusion_lat": 0.0, "is_reserved": 0, "bike_id": "2234ce4e9e4bd6e64fe7b83f71e346b1", "lon": -77.0262395, "is_disabled": 0}, {"rental_uris": {"android": "https://dc.lft.to/lastmile_qr_scan", "ios": "https://dc.lft.to/lastmile_qr_scan"}, "lat": 38.88218216666667, "type": "electric_scooter", "name": "b468337ce38088937d6dc7886daff454", "fusion_lon": 0.0, "fusion_lat": 0.0, "is_reserved": 0, "bike_id": "b468337ce38088937d6dc7886daff454", "lon": -76.997403, "is_disabled": 0}, {"rental_uris": {"android": "https://dc.lft.to/lastmile_qr_scan", "ios": "https://dc.lft.to/lastmile_qr_scan"}, "lat": 38.93403583333333, "type": "electric_scooter", "name": "76b3d8f54cdb6ef62445b8df2c03cb26", "fusion_lon": 0.0, "fusion_lat": 0.0, "is_reserved": 0, "bike_id": "76b3d8f54cdb6ef62445b8df2c03cb26", "lon": -77.04132083333333, "is_disabled": 0}, {"rental_uris": {"android": "https://dc.lft.to/lastmile_qr_scan", "ios": "https://dc.lft.to/lastmile_qr_scan"}, "lat": 38.912586833333336, "type": "electric_scooter", "name": "c42adf636eb0cf17dbfb1827cebff67d", "fusion_lon": 0.0, "fusion_lat": 0.0, "is_reserved": 0, "bike_id": "c42adf636eb0cf17dbfb1827cebff67d", "lon": -77.03279333333333, "is_disabled": 0}, {"rental_uris": {"android": "https://dc.lft.to/lastmile_qr_scan", "ios": "https://dc.lft.to/lastmile_qr_scan"}, "lat": 38.902788, "type": "electric_scooter", "name": "dd24f09b6cc9586990bd9c2a179e4c3a", "fusion_lon": 0.0, "fusion_lat": 0.0, "is_reserved": 0, "bike_id": "dd24f09b6cc9586990bd9c2a179e4c3a", "lon": -77.01773183333333, "is_disabled": 0}, {"rental_uris": {"android": "https://dc.lft.to/lastmile_qr_scan", "ios": "https://dc.lft.to/lastmile_qr_scan"}, "lat": 38.824350333333335, "type": "electric_bike", "name": "80bdf95659974ba2a2fec9c01d388db9", "fusion_lon": 0.0, "fusion_lat": 0.0, "is_reserved": 0, "bike_id": "80bdf95659974ba2a2fec9c01d388db9", "lon": -77.12036033333334, "is_disabled": 0}, {"rental_uris": {"android": "https://dc.lft.to/lastmile_qr_scan", "ios": "https://dc.lft.to/lastmile_qr_scan"}, "lat": 38.872566, "type": "electric_scooter", "name": "ffc0ce413dab207930bcaee6c2440eab", "fusion_lon": 0.0, "fusion_lat": 0.0, "is_reserved": 0, "bike_id": "ffc0ce413dab207930bcaee6c2440eab", "lon": -77.0107585, "is_disabled": 0}, {"rental_uris": {"android": "https://dc.lft.to/lastmile_qr_scan", "ios": "https://dc.lft.to/lastmile_qr_scan"}, "lat": 38.865609, "type": "electric_bike", "name": "c3aa815c558aeea87e8067e285f290c9", "fusion_lon": 0.0, "fusion_lat": 0.0, "is_reserved": 0, "bike_id": "c3aa815c558aeea87e8067e285f290c9", "lon": -76.974728, "is_disabled": 0}, {"rental_uris": {"android": "https://dc.lft.to/lastmile_qr_scan", "ios": "https://dc.lft.to/lastmile_qr_scan"}, "lat": 38.95731933333333, "type": "electric_scooter", "name": "729746ba25d59a5e221ed4cb0060175b", "fusion_lon": 0.0, "fusion_lat": 0.0, "is_reserved": 0, "bike_id": "729746ba25d59a5e221ed4cb0060175b", "lon": -77.02404183333333, "is_disabled": 0}, {"rental_uris": {"android": "https://dc.lft.to/lastmile_qr_scan", "ios": "https://dc.lft.to/lastmile_qr_scan"}, "lat": 38.8329575, "type": "electric_bike", "name": "072779baeb3873909397fd3aa200f0e2", "fusion_lon": 0.0, "fusion_lat": 0.0, "is_reserved": 0, "bike_id": "072779baeb3873909397fd3aa200f0e2", "lon": -77.08419183333334, "is_disabled": 0}, {"rental_uris": {"android": "https://dc.lft.to/lastmile_qr_scan", "ios": "https://dc.lft.to/lastmile_qr_scan"}, "lat": 38.85846266666667, "type": "electric_scooter", "name": "0a576dddde20842e397cc48b1f0385ec", "fusion_lon": 0.0, "fusion_lat": 0.0, "is_reserved": 0, "bike_id": "0a576dddde20842e397cc48b1f0385ec", "lon": -76.9905, "is_disabled": 0}, {"rental_uris": {"android": "https://dc.lft.to/lastmile_qr_scan", "ios": "https://dc.lft.to/lastmile_qr_scan"}, "lat": 38.90247516666667, "type": "electric_bike", "name": "0f439fd2721bb6d2b0e8c299447e1528", "fusion_lon": 0.0, "fusion_lat": 0.0, "is_reserved": 0, "bike_id": "0f439fd2721bb6d2b0e8c299447e1528", "lon": -77.04505833333333, "is_disabled": 0}, {"rental_uris": {"android": "https://dc.lft.to/lastmile_qr_scan", "ios": "https://dc.lft.to/lastmile_qr_scan"}, "lat": 38.905718, "type": "electric_scooter", "name": "66ab7d568c3da2ec35f0026435a580d4", "fusion_lon": 0.0, "fusion_lat": 0.0, "is_reserved": 0, "bike_id": "66ab7d568c3da2ec35f0026435a580d4", "lon": -77.03822966666667, "is_disabled": 0}, {"rental_uris": {"android": "https://dc.lft.to/lastmile_qr_scan", "ios": "https://dc.lft.to/lastmile_qr_scan"}, "lat": 38.956821, "type": "electric_scooter", "name": "e805ffc3cbe460708496b3363b4ccb59", "fusion_lon": 0.0, "fusion_lat": 0.0, "is_reserved": 0, "bike_id": "e805ffc3cbe460708496b3363b4ccb59", "lon": -77.0224245, "is_disabled": 0}, {"rental_uris": {"android": "https://dc.lft.to/lastmile_qr_scan", "ios": "https://dc.lft.to/lastmile_qr_scan"}, "lat": 38.893578, "type": "electric_scooter", "name": "8c03fb6d2e402bc794b8e387ed0c5082", "fusion_lon": 0.0, "fusion_lat": 0.0, "is_reserved": 0, "bike_id": "8c03fb6d2e402bc794b8e387ed0c5082", "lon": -77.00339316666667, "is_disabled": 0}, {"rental_uris": {"android": "https://dc.lft.to/lastmile_qr_scan", "ios": "https://dc.lft.to/lastmile_qr_scan"}, "lat": 38.8788875, "type": "electric_scooter", "name": "8adfb8294a60e8413d9543e9dca53d23", "fusion_lon": 0.0, "fusion_lat": 0.0, "is_reserved": 0, "bike_id": "8adfb8294a60e8413d9543e9dca53d23", "lon": -76.96543116666666, "is_disabled": 0}, {"rental_uris": {"android": "https://dc.lft.to/lastmile_qr_scan", "ios": "https://dc.lft.to/lastmile_qr_scan"}, "lat": 38.8990945, "type": "electric_scooter", "name": "cca1b0bdb288ffeb7d4b3367e12029d3", "fusion_lon": 0.0, "fusion_lat": 0.0, "is_reserved": 0, "bike_id": "cca1b0bdb288ffeb7d4b3367e12029d3", "lon": -77.02457566666666, "is_disabled": 0}, {"rental_uris": {"android": "https://dc.lft.to/lastmile_qr_scan", "ios": "https://dc.lft.to/lastmile_qr_scan"}, "lat": 38.924865, "type": "electric_scooter", "name": "b072affcf69716cc76b23f71cf918f05", "fusion_lon": 0.0, "fusion_lat": 0.0, "is_reserved": 0, "bike_id": "b072affcf69716cc76b23f71cf918f05", "lon": -77.0228505, "is_disabled": 0}, {"rental_uris": {"android": "https://dc.lft.to/lastmile_qr_scan", "ios": "https://dc.lft.to/lastmile_qr_scan"}, "lat": 38.884955833333336, "type": "electric_scooter", "name": "fc233f9479498d2f82333f4a6ba69238", "fusion_lon": 0.0, "fusion_lat": 0.0, "is_reserved": 0, "bike_id": "fc233f9479498d2f82333f4a6ba69238", "lon": -77.01985783333333, "is_disabled": 0}, {"rental_uris": {"android": "https://dc.lft.to/lastmile_qr_scan", "ios": "https://dc.lft.to/lastmile_qr_scan"}, "lat": 38.9222905, "type": "electric_scooter", "name": "c432dd80b14ab6512d7c8e5a031291a1", "fusion_lon": 0.0, "fusion_lat": 0.0, "is_reserved": 0, "bike_id": "c432dd80b14ab6512d7c8e5a031291a1", "lon": -77.02694483333333, "is_disabled": 0}, {"rental_uris": {"android": "https://dc.lft.to/lastmile_qr_scan", "ios": "https://dc.lft.to/lastmile_qr_scan"}, "lat": 38.87682933333333, "type": "electric_scooter", "name": "af36d09dad66b49c7f8d45c47471069a", "fusion_lon": 0.0, "fusion_lat": 0.0, "is_reserved": 0, "bike_id": "af36d09dad66b49c7f8d45c47471069a", "lon": -77.00069966666666, "is_disabled": 0}, {"rental_uris": {"android": "https://dc.lft.to/lastmile_qr_scan", "ios": "https://dc.lft.to/lastmile_qr_scan"}, "lat": 38.89226133333333, "type": "electric_scooter", "name": "f43f94303a41e46b68a29b68395de01c", "fusion_lon": 0.0, "fusion_lat": 0.0, "is_reserved": 0, "bike_id": "f43f94303a41e46b68a29b68395de01c", "lon": -77.04185333333334, "is_disabled": 0}, {"rental_uris": {"android": "https://dc.lft.to/lastmile_qr_scan", "ios": "https://dc.lft.to/lastmile_qr_scan"}, "lat": 38.892235666666664, "type": "electric_scooter", "name": "f92c2898276e381e890de8a911483724", "fusion_lon": 0.0, "fusion_lat": 0.0, "is_reserved": 0, "bike_id": "f92c2898276e381e890de8a911483724", "lon": -77.0449875, "is_disabled": 0}, {"rental_uris": {"android": "https://dc.lft.to/lastmile_qr_scan", "ios": "https://dc.lft.to/lastmile_qr_scan"}, "lat": 38.93184266666667, "type": "electric_scooter", "name": "8ec1090132ed34060c8f7015748806f7", "fusion_lon": 0.0, "fusion_lat": 0.0, "is_reserved": 0, "bike_id": "8ec1090132ed34060c8f7015748806f7", "lon": -77.03843666666667, "is_disabled": 0}, {"rental_uris": {"android": "https://dc.lft.to/lastmile_qr_scan", "ios": "https://dc.lft.to/lastmile_qr_scan"}, "lat": 38.90052033333333, "type": "electric_scooter", "name": "a078bfaf7d8d59cc6470cfae45979404", "fusion_lon": 0.0, "fusion_lat": 0.0, "is_reserved": 0, "bike_id": "a078bfaf7d8d59cc6470cfae45979404", "lon": -77.01518833333333, "is_disabled": 0}, {"rental_uris": {"android": "https://dc.lft.to/lastmile_qr_scan", "ios": "https://dc.lft.to/lastmile_qr_scan"}, "lat": 38.88440083333333, "type": "electric_scooter", "name": "4fd2a57847afef079b727b2f56c93ff2", "fusion_lon": 0.0, "fusion_lat": 0.0, "is_reserved": 0, "bike_id": "4fd2a57847afef079b727b2f56c93ff2", "lon": -76.95766233333333, "is_disabled": 0}, {"rental_uris": {"android": "https://dc.lft.to/lastmile_qr_scan", "ios": "https://dc.lft.to/lastmile_qr_scan"}, "lat": 38.94643116666667, "type": "electric_bike", "name": "bf8c81b1086be1da34716d9d026ec9d6", "fusion_lon": 0.0, "fusion_lat": 0.0, "is_reserved": 0, "bike_id": "bf8c81b1086be1da34716d9d026ec9d6", "lon": -77.06455433333333, "is_disabled": 0}, {"rental_uris": {"android": "https://dc.lft.to/lastmile_qr_scan", "ios": "https://dc.lft.to/lastmile_qr_scan"}, "lat": 38.90254483333333, "type": "electric_scooter", "name": "1853a3d07d28124ca76325b7c2815349", "fusion_lon": 0.0, "fusion_lat": 0.0, "is_reserved": 0, "bike_id": "1853a3d07d28124ca76325b7c2815349", "lon": -77.02818966666666, "is_disabled": 0}, {"rental_uris": {"android": "https://dc.lft.to/lastmile_qr_scan", "ios": "https://dc.lft.to/lastmile_qr_scan"}, "lat": 38.930861, "type": "electric_scooter", "name": "5cf3a2daa969d7c83bc903d8fb0a1935", "fusion_lon": 0.0, "fusion_lat": 0.0, "is_reserved": 0, "bike_id": "5cf3a2daa969d7c83bc903d8fb0a1935", "lon": -77.02793083333333, "is_disabled": 0}, {"rental_uris": {"android": "https://dc.lft.to/lastmile_qr_scan", "ios": "https://dc.lft.to/lastmile_qr_scan"}, "lat": 38.896338, "type": "electric_scooter", "name": "62c5b90275602b8cecbae4cdafb5430e", "fusion_lon": 0.0, "fusion_lat": 0.0, "is_reserved": 0, "bike_id": "62c5b90275602b8cecbae4cdafb5430e", "lon": -77.04006816666667, "is_disabled": 0}, {"rental_uris": {"android": "https://dc.lft.to/lastmile_qr_scan", "ios": "https://dc.lft.to/lastmile_qr_scan"}, "lat": 38.90569383333333, "type": "electric_scooter", "name": "b0f3320a3757e8e240043bf5b4b4fd6e", "fusion_lon": 0.0, "fusion_lat": 0.0, "is_reserved": 0, "bike_id": "b0f3320a3757e8e240043bf5b4b4fd6e", "lon": -77.00595766666666, "is_disabled": 0}, {"rental_uris": {"android": "https://dc.lft.to/lastmile_qr_scan", "ios": "https://dc.lft.to/lastmile_qr_scan"}, "lat": 38.92165516666667, "type": "electric_scooter", "name": "361858fc08819ae3e86743045ebf573f", "fusion_lon": 0.0, "fusion_lat": 0.0, "is_reserved": 0, "bike_id": "361858fc08819ae3e86743045ebf573f", "lon": -77.03837566666667, "is_disabled": 0}, {"rental_uris": {"android": "https://dc.lft.to/lastmile_qr_scan", "ios": "https://dc.lft.to/lastmile_qr_scan"}, "lat": 38.88688283333333, "type": "electric_scooter", "name": "10fe71e3b95129fbb3c0485dc4430694", "fusion_lon": 0.0, "fusion_lat": 0.0, "is_reserved": 0, "bike_id": "10fe71e3b95129fbb3c0485dc4430694", "lon": -76.9764035, "is_disabled": 0}, {"rental_uris": {"android": "https://dc.lft.to/lastmile_qr_scan", "ios": "https://dc.lft.to/lastmile_qr_scan"}, "lat": 38.90297183333333, "type": "electric_scooter", "name": "62a06f28cf9f42a355c7bf64ab069963", "fusion_lon": 0.0, "fusion_lat": 0.0, "is_reserved": 0, "bike_id": "62a06f28cf9f42a355c7bf64ab069963", "lon": -77.042758, "is_disabled": 0}, {"rental_uris": {"android": "https://dc.lft.to/lastmile_qr_scan", "ios": "https://dc.lft.to/lastmile_qr_scan"}, "lat": 38.9029745, "type": "electric_scooter", "name": "a8e86dd7c27076bfb5c65ccb18c6a52f", "fusion_lon": 0.0, "fusion_lat": 0.0, "is_reserved": 0, "bike_id": "a8e86dd7c27076bfb5c65ccb18c6a52f", "lon": -77.04673133333333, "is_disabled": 0}, {"rental_uris": {"android": "https://dc.lft.to/lastmile_qr_scan", "ios": "https://dc.lft.to/lastmile_qr_scan"}, "lat": 38.924377166666666, "type": "electric_scooter", "name": "24dafe7229aef87f9561533ea5d35347", "fusion_lon": 0.0, "fusion_lat": 0.0, "is_reserved": 0, "bike_id": "24dafe7229aef87f9561533ea5d35347", "lon": -77.0194925, "is_disabled": 0}, {"rental_uris": {"android": "https://dc.lft.to/lastmile_qr_scan", "ios": "https://dc.lft.to/lastmile_qr_scan"}, "lat": 38.8922395, "type": "electric_scooter", "name": "1e7a81d3389e6b84b1e00b0ba0de84e7", "fusion_lon": 0.0, "fusion_lat": 0.0, "is_reserved": 0, "bike_id": "1e7a81d3389e6b84b1e00b0ba0de84e7", "lon": -77.04641466666666, "is_disabled": 0}, {"rental_uris": {"android": "https://dc.lft.to/lastmile_qr_scan", "ios": "https://dc.lft.to/lastmile_qr_scan"}, "lat": 38.8989625, "type": "electric_scooter", "name": "f1a44738b860ecbd66d51a01092011e1", "fusion_lon": 0.0, "fusion_lat": 0.0, "is_reserved": 0, "bike_id": "f1a44738b860ecbd66d51a01092011e1", "lon": -77.032857, "is_disabled": 0}, {"rental_uris": {"android": "https://dc.lft.to/lastmile_qr_scan", "ios": "https://dc.lft.to/lastmile_qr_scan"}, "lat": 38.89985516666667, "type": "electric_scooter", "name": "8a804f76a3c4276991594199dd5efb99", "fusion_lon": 0.0, "fusion_lat": 0.0, "is_reserved": 0, "bike_id": "8a804f76a3c4276991594199dd5efb99", "lon": -77.04831816666666, "is_disabled": 0}, {"rental_uris": {"android": "https://dc.lft.to/lastmile_qr_scan", "ios": "https://dc.lft.to/lastmile_qr_scan"}, "lat": 38.809807, "type": "electric_bike", "name": "b6ac5f2f5bfbc757a86a35953576cbeb", "fusion_lon": 0.0, "fusion_lat": 0.0, "is_reserved": 0, "bike_id": "b6ac5f2f5bfbc757a86a35953576cbeb", "lon": -77.07657566666667, "is_disabled": 0}, {"rental_uris": {"android": "https://dc.lft.to/lastmile_qr_scan", "ios": "https://dc.lft.to/lastmile_qr_scan"}, "lat": 38.92467966666667, "type": "electric_scooter", "name": "2a5745a00c786c6fd975f281342af9df", "fusion_lon": 0.0, "fusion_lat": 0.0, "is_reserved": 0, "bike_id": "2a5745a00c786c6fd975f281342af9df", "lon": -77.02242966666667, "is_disabled": 0}, {"rental_uris": {"android": "https://dc.lft.to/lastmile_qr_scan", "ios": "https://dc.lft.to/lastmile_qr_scan"}, "lat": 38.9137095, "type": "electric_scooter", "name": "6719f5d586fe48a2740a2d08190ade5b", "fusion_lon": 0.0, "fusion_lat": 0.0, "is_reserved": 0, "bike_id": "6719f5d586fe48a2740a2d08190ade5b", "lon": -77.0449025, "is_disabled": 0}, {"rental_uris": {"android": "https://dc.lft.to/lastmile_qr_scan", "ios": "https://dc.lft.to/lastmile_qr_scan"}, "lat": 38.92016516666666, "type": "electric_scooter", "name": "798494f69582d5b48ebcc04f3253d6b9", "fusion_lon": 0.0, "fusion_lat": 0.0, "is_reserved": 0, "bike_id": "798494f69582d5b48ebcc04f3253d6b9", "lon": -77.04191166666666, "is_disabled": 0}, {"rental_uris": {"android": "https://dc.lft.to/lastmile_qr_scan", "ios": "https://dc.lft.to/lastmile_qr_scan"}, "lat": 38.9014155, "type": "electric_scooter", "name": "09c1136709f8e1ef0978c58f3142bd88", "fusion_lon": 0.0, "fusion_lat": 0.0, "is_reserved": 0, "bike_id": "09c1136709f8e1ef0978c58f3142bd88", "lon": -77.03209383333333, "is_disabled": 0}, {"rental_uris": {"android": "https://dc.lft.to/lastmile_qr_scan", "ios": "https://dc.lft.to/lastmile_qr_scan"}, "lat": 38.892254666666666, "type": "electric_scooter", "name": "311813b9d102be9d1d9fdf1334b7d687", "fusion_lon": 0.0, "fusion_lat": 0.0, "is_reserved": 0, "bike_id": "311813b9d102be9d1d9fdf1334b7d687", "lon": -77.0251145, "is_disabled": 0}, {"rental_uris": {"android": "https://dc.lft.to/lastmile_qr_scan", "ios": "https://dc.lft.to/lastmile_qr_scan"}, "lat": 38.9102755, "type": "electric_scooter", "name": "aab86a127b5762442dcabcb78bafe31d", "fusion_lon": 0.0, "fusion_lat": 0.0, "is_reserved": 0, "bike_id": "aab86a127b5762442dcabcb78bafe31d", "lon": -77.04501916666666, "is_disabled": 0}, {"rental_uris": {"android": "https://dc.lft.to/lastmile_qr_scan", "ios": "https://dc.lft.to/lastmile_qr_scan"}, "lat": 38.908353166666664, "type": "electric_scooter", "name": "4ed577f5b1132d792dc6de6951edf650", "fusion_lon": 0.0, "fusion_lat": 0.0, "is_reserved": 0, "bike_id": "4ed577f5b1132d792dc6de6951edf650", "lon": -77.0730365, "is_disabled": 0}, {"rental_uris": {"android": "https://dc.lft.to/lastmile_qr_scan", "ios": "https://dc.lft.to/lastmile_qr_scan"}, "lat": 38.913731, "type": "electric_scooter", "name": "f385363875ee2e8d660ba1fbe899293a", "fusion_lon": 0.0, "fusion_lat": 0.0, "is_reserved": 0, "bike_id": "f385363875ee2e8d660ba1fbe899293a", "lon": -77.03201983333334, "is_disabled": 0}, {"rental_uris": {"android": "https://dc.lft.to/lastmile_qr_scan", "ios": "https://dc.lft.to/lastmile_qr_scan"}, "lat": 38.91057266666667, "type": "electric_scooter", "name": "f8aef59bad83aa36c1d2956d4734d530", "fusion_lon": 0.0, "fusion_lat": 0.0, "is_reserved": 0, "bike_id": "f8aef59bad83aa36c1d2956d4734d530", "lon": -77.04369783333334, "is_disabled": 0}, {"rental_uris": {"android": "https://dc.lft.to/lastmile_qr_scan", "ios": "https://dc.lft.to/lastmile_qr_scan"},