{"data": {"bikes": [{"rental_uris": {"ios": "https://dc.lft.to/lastmile_qr_scan", "android": "https://dc.lft.to/lastmile_qr_scan"}, "lon": -77.034779, "type": "electric_scooter", "fusion_lat": 0.0, "lat": 38.91986716666667, "name": "94d3241964e95b25cb5bfbb0669d5df2", "fusion_lon": 0.0, "bike_id": "94d3241964e95b25cb5bfbb0669d5df2", "is_disabled": 0, "is_reserved": 0}, {"rental_uris": {"ios": "https://dc.lft.to/lastmile_qr_scan", "android": "https://dc.lft.to/lastmile_qr_scan"}, "lon": -77.016484, "type": "electric_scooter", "fusion_lat": 0.0, "lat": 38.953337, "name": "5c9bca4d784374413c633a0563b4a4ff", "fusion_lon": 0.0, "bike_id": "5c9bca4d784374413c633a0563b4a4ff", "is_disabled": 0, "is_reserved": 0}, {"rental_uris": {"ios": "https://dc.lft.to/lastmile_qr_scan", "android": "https://dc.lft.to/lastmile_qr_scan"}, "lon": -77.04010866666667, "type": "electric_scooter", "fusion_lat": 0.0, "lat": 38.9325045, "name": "f9144d89d0c007b77826efa766021f1c", "fusion_lon": 0.0, "bike_id": "f9144d89d0c007b77826efa766021f1c", "is_disabled": 0, "is_reserved": 0}, {"rental_uris": {"ios": "https://dc.lft.to/lastmile_qr_scan", "android": "https://dc.lft.to/lastmile_qr_scan"}, "lon": -76.99373516666667, "type": "electric_scooter", "fusion_lat": 0.0, "lat": 38.89748083333333, "name": "412bcde4c6304d8eef0bbe69674380c2", "fusion_lon": 0.0, "bike_id": "412bcde4c6304d8eef0bbe69674380c2", "is_disabled": 0, "is_reserved": 0}, {"rental_uris": {"ios": "https://dc.lft.to/lastmile_qr_scan", "android": "https://dc.lft.to/lastmile_qr_scan"}, "lon": -77.02021066666667, "type": "electric_scooter", "fusion_lat": 0.0, "lat": 38.916511, "name": "b2baf4b228f0d40072971cffd5b41c43", "fusion_lon": 0.0, "bike_id": "b2baf4b228f0d40072971cffd5b41c43", "is_disabled": 0, "is_reserved": 0}, {"rental_uris": {"ios": "https://dc.lft.to/lastmile_qr_scan", "android": "https://dc.lft.to/lastmile_qr_scan"}, "lon": -76.98261683333334, "type": "electric_scooter", "fusion_lat": 0.0, "lat": 38.86359616666667, "name": "35077530f787d6f62cd424895f8432db", "fusion_lon": 0.0, "bike_id": "35077530f787d6f62cd424895f8432db", "is_disabled": 0, "is_reserved": 0}, {"rental_uris": {"ios": "https://dc.lft.to/lastmile_qr_scan", "android": "https://dc.lft.to/lastmile_qr_scan"}, "lon": -77.0441775, "type": "electric_scooter", "fusion_lat": 0.0, "lat": 38.905779, "name": "12c085074e3548ac898ef0a856d77ab3", "fusion_lon": 0.0, "bike_id": "12c085074e3548ac898ef0a856d77ab3", "is_disabled": 0, "is_reserved": 0}, {"rental_uris": {"ios": "https://dc.lft.to/lastmile_qr_scan", "android": "https://dc.lft.to/lastmile_qr_scan"}, "lon": -77.01097816666666, "type": "electric_scooter", "fusion_lat": 0.0, "lat": 38.89993883333333, "name": "2688ffc8e8de1efcff250b09aea1fbcc", "fusion_lon": 0.0, "bike_id": "2688ffc8e8de1efcff250b09aea1fbcc", "is_disabled": 0, "is_reserved": 0}, {"rental_uris": {"ios": "https://dc.lft.to/lastmile_qr_scan", "android": "https://dc.lft.to/lastmile_qr_scan"}, "lon": -77.054378, "type": "electric_scooter", "fusion_lat": 0.0, "lat": 38.896073333333334, "name": "d9f6b4c1e5b575e71a123e5e3a53422e", "fusion_lon": 0.0, "bike_id": "d9f6b4c1e5b575e71a123e5e3a53422e", "is_disabled": 0, "is_reserved": 0}, {"rental_uris": {"ios": "https://dc.lft.to/lastmile_qr_scan", "android": "https://dc.lft.to/lastmile_qr_scan"}, "lon": -77.0386275, "type": "electric_scooter", "fusion_lat": 0.0, "lat": 38.9156425, "name": "16b6a6cc8d77e8257653de7a2bc3b28d", "fusion_lon": 0.0, "bike_id": "16b6a6cc8d77e8257653de7a2bc3b28d", "is_disabled": 0, "is_reserved": 0}, {"rental_uris": {"ios": "https://dc.lft.to/lastmile_qr_scan", "android": "https://dc.lft.to/lastmile_qr_scan"}, "lon": -77.047975, "type": "electric_scooter", "fusion_lat": 0.0, "lat": 38.893654833333336, "name": "05513f63fff49c7d80351aa010221bf2", "fusion_lon": 0.0, "bike_id": "05513f63fff49c7d80351aa010221bf2", "is_disabled": 0, "is_reserved": 0}, {"rental_uris": {"ios": "https://dc.lft.to/lastmile_qr_scan", "android": "https://dc.lft.to/lastmile_qr_scan"}, "lon": -77.0367495, "type": "electric_scooter", "fusion_lat": 0.0, "lat": 38.902764166666664, "name": "f7ec6329240ddeb25a2da15c52064473", "fusion_lon": 0.0, "bike_id": "f7ec6329240ddeb25a2da15c52064473", "is_disabled": 0, "is_reserved": 0}, {"rental_uris": {"ios": "https://dc.lft.to/lastmile_qr_scan", "android": "https://dc.lft.to/lastmile_qr_scan"}, "lon": -77.0715975, "type": "electric_scooter", "fusion_lat": 0.0, "lat": 38.91454783333333, "name": "b023f56d13ef598746cbaf956333f2a8", "fusion_lon": 0.0, "bike_id": "b023f56d13ef598746cbaf956333f2a8", "is_disabled": 0, "is_reserved": 0}, {"rental_uris": {"ios": "https://dc.lft.to/lastmile_qr_scan", "android": "https://dc.lft.to/lastmile_qr_scan"}, "lon": -77.0334695, "type": "electric_scooter", "fusion_lat": 0.0, "lat": 38.89890716666667, "name": "8b76775ffe9586f9a42de0c042c03991", "fusion_lon": 0.0, "bike_id": "8b76775ffe9586f9a42de0c042c03991", "is_disabled": 0, "is_reserved": 0}, {"rental_uris": {"ios": "https://dc.lft.to/lastmile_qr_scan", "android": "https://dc.lft.to/lastmile_qr_scan"}, "lon": -77.02901366666667, "type": "electric_scooter", "fusion_lat": 0.0, "lat": 38.8856695, "name": "b15ea98788f3da886bb3f8b652202e59", "fusion_lon": 0.0, "bike_id": "b15ea98788f3da886bb3f8b652202e59", "is_disabled": 0, "is_reserved": 0}, {"rental_uris": {"ios": "https://dc.lft.to/lastmile_qr_scan", "android": "https://dc.lft.to/lastmile_qr_scan"}, "lon": -77.007927, "type": "electric_scooter", "fusion_lat": 0.0, "lat": 38.906324833333336, "name": "6f635a7a706042111378996df3837d56", "fusion_lon": 0.0, "bike_id": "6f635a7a706042111378996df3837d56", "is_disabled": 0, "is_reserved": 0}, {"rental_uris": {"ios": "https://dc.lft.to/lastmile_qr_scan", "android": "https://dc.lft.to/lastmile_qr_scan"}, "lon": -77.01364733333334, "type": "electric_scooter", "fusion_lat": 0.0, "lat": 38.86369716666667, "name": "e9fef1ed96e5dee3344f9478ce7a2358", "fusion_lon": 0.0, "bike_id": "e9fef1ed96e5dee3344f9478ce7a2358", "is_disabled": 0, "is_reserved": 0}, {"rental_uris": {"ios": "https://dc.lft.to/lastmile_qr_scan", "android": "https://dc.lft.to/lastmile_qr_scan"}, "lon": -77.0694285, "type": "electric_scooter", "fusion_lat": 0.0, "lat": 38.90505433333333, "name": "0301754ddb49db1ca969ada174ede242", "fusion_lon": 0.0, "bike_id": "0301754ddb49db1ca969ada174ede242", "is_disabled": 0, "is_reserved": 0}, {"rental_uris": {"ios": "https://dc.lft.to/lastmile_qr_scan", "android": "https://dc.lft.to/lastmile_qr_scan"}, "lon": -77.043645, "type": "electric_scooter", "fusion_lat": 0.0, "lat": 38.89647716666666, "name": "3510b0b38f7194f13b3a82bc74833a2f", "fusion_lon": 0.0, "bike_id": "3510b0b38f7194f13b3a82bc74833a2f", "is_disabled": 0, "is_reserved": 0}, {"rental_uris": {"ios": "https://dc.lft.to/lastmile_qr_scan", "android": "https://dc.lft.to/lastmile_qr_scan"}, "lon": -77.035685, "type": "electric_scooter", "fusion_lat": 0.0, "lat": 38.918008, "name": "7403379eaa00e7ae6aa7cb3a1af09afb", "fusion_lon": 0.0, "bike_id": "7403379eaa00e7ae6aa7cb3a1af09afb", "is_disabled": 0, "is_reserved": 0}, {"rental_uris": {"ios": "https://dc.lft.to/lastmile_qr_scan", "android": "https://dc.lft.to/lastmile_qr_scan"}, "lon": -77.0271455, "type": "electric_scooter", "fusion_lat": 0.0, "lat": 38.93456483333333, "name": "bb59a275adb5dff62ce4730631945515", "fusion_lon": 0.0, "bike_id": "bb59a275adb5dff62ce4730631945515", "is_disabled": 0, "is_reserved": 0}, {"rental_uris": {"ios": "https://dc.lft.to/lastmile_qr_scan", "android": "https://dc.lft.to/lastmile_qr_scan"}, "lon": -77.03241116666666, "type": "electric_scooter", "fusion_lat": 0.0, "lat": 38.927697, "name": "92d12d85c158011b3561a155ac67b425", "fusion_lon": 0.0, "bike_id": "92d12d85c158011b3561a155ac67b425", "is_disabled": 0, "is_reserved": 0}, {"rental_uris": {"ios": "https://dc.lft.to/lastmile_qr_scan", "android": "https://dc.lft.to/lastmile_qr_scan"}, "lon": -77.023355, "type": "electric_scooter", "fusion_lat": 0.0, "lat": 38.93784216666667, "name": "d47ffd14810796344955cae0c54cb7ed", "fusion_lon": 0.0, "bike_id": "d47ffd14810796344955cae0c54cb7ed", "is_disabled": 0, "is_reserved": 0}, {"rental_uris": {"ios": "https://dc.lft.to/lastmile_qr_scan", "android": "https://dc.lft.to/lastmile_qr_scan"}, "lon": -77.02458183333333, "type": "electric_scooter", "fusion_lat": 0.0, "lat": 38.938181666666665, "name": "b942ed62c5de145fbe0af029836144fa", "fusion_lon": 0.0, "bike_id": "b942ed62c5de145fbe0af029836144fa", "is_disabled": 0, "is_reserved": 0}, {"rental_uris": {"ios": "https://dc.lft.to/lastmile_qr_scan", "android": "https://dc.lft.to/lastmile_qr_scan"}, "lon": -76.96526666666666, "type": "electric_scooter", "fusion_lat": 0.0, "lat": 38.87629033333333, "name": "04d7dbb19d96cba1d925e39ce2b467d7", "fusion_lon": 0.0, "bike_id": "04d7dbb19d96cba1d925e39ce2b467d7", "is_disabled": 0, "is_reserved": 0}, {"rental_uris": {"ios": "https://dc.lft.to/lastmile_qr_scan", "android": "https://dc.lft.to/lastmile_qr_scan"}, "lon": -76.94754116666667, "type": "electric_scooter", "fusion_lat": 0.0, "lat": 38.90053416666667, "name": "5ddb8a3f95fde08fc097fc5f23d8ad5c", "fusion_lon": 0.0, "bike_id": "5ddb8a3f95fde08fc097fc5f23d8ad5c", "is_disabled": 0, "is_reserved": 0}, {"rental_uris": {"ios": "https://dc.lft.to/lastmile_qr_scan", "android": "https://dc.lft.to/lastmile_qr_scan"}, "lon": -77.02792633333334, "type": "electric_scooter", "fusion_lat": 0.0, "lat": 38.91806866666667, "name": "dc0efe9314532ffb7845f0a7d52c4901", "fusion_lon": 0.0, "bike_id": "dc0efe9314532ffb7845f0a7d52c4901", "is_disabled": 0, "is_reserved": 0}, {"rental_uris": {"ios": "https://dc.lft.to/lastmile_qr_scan", "android": "https://dc.lft.to/lastmile_qr_scan"}, "lon": -77.0109555, "type": "electric_scooter", "fusion_lat": 0.0, "lat": 38.903597833333336, "name": "23b17347505eaabc2e3492d7fc33cf6b", "fusion_lon": 0.0, "bike_id": "23b17347505eaabc2e3492d7fc33cf6b", "is_disabled": 0, "is_reserved": 0}, {"rental_uris": {"ios": "https://dc.lft.to/lastmile_qr_scan", "android": "https://dc.lft.to/lastmile_qr_scan"}, "lon": -77.032227, "type": "electric_scooter", "fusion_lat": 0.0, "lat": 38.92590466666667, "name": "4cfc802affda02cc228c195974d76b4c", "fusion_lon": 0.0, "bike_id": "4cfc802affda02cc228c195974d76b4c", "is_disabled": 0, "is_reserved": 0}, {"rental_uris": {"ios": "https://dc.lft.to/lastmile_qr_scan", "android": "https://dc.lft.to/lastmile_qr_scan"}, "lon": -77.04486083333333, "type": "electric_bike", "fusion_lat": 0.0, "lat": 38.912895166666665, "name": "cdb66cabcefbe7b57f4e48b004ea1efa", "fusion_lon": 0.0, "bike_id": "cdb66cabcefbe7b57f4e48b004ea1efa", "is_disabled": 0, "is_reserved": 0}, {"rental_uris": {"ios": "https://dc.lft.to/lastmile_qr_scan", "android": "https://dc.lft.to/lastmile_qr_scan"}, "lon": -77.03645116666667, "type": "electric_scooter", "fusion_lat": 0.0, "lat": 38.9172975, "name": "4cc78f496bb14e94974e3e4c2984209d", "fusion_lon": 0.0, "bike_id": "4cc78f496bb14e94974e3e4c2984209d", "is_disabled": 0, "is_reserved": 0}, {"rental_uris": {"ios": "https://dc.lft.to/lastmile_qr_scan", "android": "https://dc.lft.to/lastmile_qr_scan"}, "lon": -77.03513083333333, "type": "electric_scooter", "fusion_lat": 0.0, "lat": 38.921518166666665, "name": "49768c1d6db104841c626a008c8f7479", "fusion_lon": 0.0, "bike_id": "49768c1d6db104841c626a008c8f7479", "is_disabled": 0, "is_reserved": 0}, {"rental_uris": {"ios": "https://dc.lft.to/lastmile_qr_scan", "android": "https://dc.lft.to/lastmile_qr_scan"}, "lon": -77.02761716666667, "type": "electric_scooter", "fusion_lat": 0.0, "lat": 38.9231185, "name": "a9be851eddd860b3d5a2fca8f536f481", "fusion_lon": 0.0, "bike_id": "a9be851eddd860b3d5a2fca8f536f481", "is_disabled": 0, "is_reserved": 0}, {"rental_uris": {"ios": "https://dc.lft.to/lastmile_qr_scan", "android": "https://dc.lft.to/lastmile_qr_scan"}, "lon": -77.04352766666666, "type": "electric_scooter", "fusion_lat": 0.0, "lat": 38.926794, "name": "c94d6e149ce11df2acb8822ddeeddd45", "fusion_lon": 0.0, "bike_id": "c94d6e149ce11df2acb8822ddeeddd45", "is_disabled": 0, "is_reserved": 0}, {"rental_uris": {"ios": "https://dc.lft.to/lastmile_qr_scan", "android": "https://dc.lft.to/lastmile_qr_scan"}, "lon": -77.03032333333333, "type": "electric_scooter", "fusion_lat": 0.0, "lat": 38.89753666666667, "name": "2f17367814fa83a9953bbc75d447b8e7", "fusion_lon": 0.0, "bike_id": "2f17367814fa83a9953bbc75d447b8e7", "is_disabled": 0, "is_reserved": 0}, {"rental_uris": {"ios": "https://dc.lft.to/lastmile_qr_scan", "android": "https://dc.lft.to/lastmile_qr_scan"}, "lon": -77.02840683333334, "type": "electric_scooter", "fusion_lat": 0.0, "lat": 38.925856333333336, "name": "52c7fbd33ce222638fe56381e1474316", "fusion_lon": 0.0, "bike_id": "52c7fbd33ce222638fe56381e1474316", "is_disabled": 0, "is_reserved": 0}, {"rental_uris": {"ios": "https://dc.lft.to/lastmile_qr_scan", "android": "https://dc.lft.to/lastmile_qr_scan"}, "lon": -77.02851866666667, "type": "electric_scooter", "fusion_lat": 0.0, "lat": 38.95084683333333, "name": "b815a285e56f5750ef2634b72bd6ec5d", "fusion_lon": 0.0, "bike_id": "b815a285e56f5750ef2634b72bd6ec5d", "is_disabled": 0, "is_reserved": 0}, {"rental_uris": {"ios": "https://dc.lft.to/lastmile_qr_scan", "android": "https://dc.lft.to/lastmile_qr_scan"}, "lon": -77.0042465, "type": "electric_scooter", "fusion_lat": 0.0, "lat": 38.90397466666667, "name": "f2fa6d4194677509c14ab5c4af545b2e", "fusion_lon": 0.0, "bike_id": "f2fa6d4194677509c14ab5c4af545b2e", "is_disabled": 0, "is_reserved": 0}, {"rental_uris": {"ios": "https://dc.lft.to/lastmile_qr_scan", "android": "https://dc.lft.to/lastmile_qr_scan"}, "lon": -77.048762, "type": "electric_scooter", "fusion_lat": 0.0, "lat": 38.905327666666665, "name": "49815c09368460cbb6a7522d3d511aab", "fusion_lon": 0.0, "bike_id": "49815c09368460cbb6a7522d3d511aab", "is_disabled": 0, "is_reserved": 0}, {"rental_uris": {"ios": "https://dc.lft.to/lastmile_qr_scan", "android": "https://dc.lft.to/lastmile_qr_scan"}, "lon": -76.96506283333333, "type": "electric_scooter", "fusion_lat": 0.0, "lat": 38.8764685, "name": "7e44f77ceb5e108eff3280aa9e2dcfa3", "fusion_lon": 0.0, "bike_id": "7e44f77ceb5e108eff3280aa9e2dcfa3", "is_disabled": 0, "is_reserved": 0}, {"rental_uris": {"ios": "https://dc.lft.to/lastmile_qr_scan", "android": "https://dc.lft.to/lastmile_qr_scan"}, "lon": -77.04865166666667, "type": "electric_scooter", "fusion_lat": 0.0, "lat": 38.9008165, "name": "52da31ab3326656e4879adf17e9cad9f", "fusion_lon": 0.0, "bike_id": "52da31ab3326656e4879adf17e9cad9f", "is_disabled": 0, "is_reserved": 0}, {"rental_uris": {"ios": "https://dc.lft.to/lastmile_qr_scan", "android": "https://dc.lft.to/lastmile_qr_scan"}, "lon": -76.938311, "type": "electric_scooter", "fusion_lat": 0.0, "lat": 38.89756366666667, "name": "a820e55f236c4ef0b93ccfdb1bb9cada", "fusion_lon": 0.0, "bike_id": "a820e55f236c4ef0b93ccfdb1bb9cada", "is_disabled": 0, "is_reserved": 0}, {"rental_uris": {"ios": "https://dc.lft.to/lastmile_qr_scan", "android": "https://dc.lft.to/lastmile_qr_scan"}, "lon": -76.97881316666667, "type": "electric_scooter", "fusion_lat": 0.0, "lat": 38.88510733333333, "name": "9ad98b0cf9b5b565aa40af625524a617", "fusion_lon": 0.0, "bike_id": "9ad98b0cf9b5b565aa40af625524a617", "is_disabled": 0, "is_reserved": 0}, {"rental_uris": {"ios": "https://dc.lft.to/lastmile_qr_scan", "android": "https://dc.lft.to/lastmile_qr_scan"}, "lon": -76.98702766666666, "type": "electric_scooter", "fusion_lat": 0.0, "lat": 38.907066, "name": "22875d56cba55fe5efcf2745727736f6", "fusion_lon": 0.0, "bike_id": "22875d56cba55fe5efcf2745727736f6", "is_disabled": 0, "is_reserved": 0}, {"rental_uris": {"ios": "https://dc.lft.to/lastmile_qr_scan", "android": "https://dc.lft.to/lastmile_qr_scan"}, "lon": -77.02615616666667, "type": "electric_scooter", "fusion_lat": 0.0, "lat": 38.905600166666666, "name": "77025f7ae06e10d19a5cbf6dfbcc576b", "fusion_lon": 0.0, "bike_id": "77025f7ae06e10d19a5cbf6dfbcc576b", "is_disabled": 0, "is_reserved": 0}, {"rental_uris": {"ios": "https://dc.lft.to/lastmile_qr_scan", "android": "https://dc.lft.to/lastmile_qr_scan"}, "lon": -77.01479883333333, "type": "electric_scooter", "fusion_lat": 0.0, "lat": 38.8812265, "name": "c74b6a6eca773f4268ae39011ef7b6bb", "fusion_lon": 0.0, "bike_id": "c74b6a6eca773f4268ae39011ef7b6bb", "is_disabled": 0, "is_reserved": 0}, {"rental_uris": {"ios": "https://dc.lft.to/lastmile_qr_scan", "android": "https://dc.lft.to/lastmile_qr_scan"}, "lon": -77.000589, "type": "electric_scooter", "fusion_lat": 0.0, "lat": 38.90729966666667, "name": "3b5ecef3ae71c10b764c8a7279c49fa8", "fusion_lon": 0.0, "bike_id": "3b5ecef3ae71c10b764c8a7279c49fa8", "is_disabled": 0, "is_reserved": 0}, {"rental_uris": {"ios": "https://dc.lft.to/lastmile_qr_scan", "android": "https://dc.lft.to/lastmile_qr_scan"}, "lon": -77.0108645, "type": "electric_scooter", "fusion_lat": 0.0, "lat": 38.8949335, "name": "e2e4ceddf49882789205fd32c1f03c20", "fusion_lon": 0.0, "bike_id": "e2e4ceddf49882789205fd32c1f03c20", "is_disabled": 0, "is_reserved": 0}, {"rental_uris": {"ios": "https://dc.lft.to/lastmile_qr_scan", "android": "https://dc.lft.to/lastmile_qr_scan"}, "lon": -77.04065066666666, "type": "electric_scooter", "fusion_lat": 0.0, "lat": 38.902842666666665, "name": "2d1fe9f75b2f75ae58766128619dab92", "fusion_lon": 0.0, "bike_id": "2d1fe9f75b2f75ae58766128619dab92", "is_disabled": 0, "is_reserved": 0}, {"rental_uris": {"ios": "https://dc.lft.to/lastmile_qr_scan", "android": "https://dc.lft.to/lastmile_qr_scan"}, "lon": -77.035115, "type": "electric_bike", "fusion_lat": 0.0, "lat": 38.965250833333336, "name": "c150b700ec0d42f5b5edc17f58a6d2b2", "fusion_lon": 0.0, "bike_id": "c150b700ec0d42f5b5edc17f58a6d2b2", "is_disabled": 0, "is_reserved": 0}, {"rental_uris": {"ios": "https://dc.lft.to/lastmile_qr_scan", "android": "https://dc.lft.to/lastmile_qr_scan"}, "lon": -77.03620966666666, "type": "electric_scooter", "fusion_lat": 0.0, "lat": 38.923152333333334, "name": "75a65d7e91eeb913b3a09c502f29934e", "fusion_lon": 0.0, "bike_id": "75a65d7e91eeb913b3a09c502f29934e", "is_disabled": 0, "is_reserved": 0}, {"rental_uris": {"ios": "https://dc.lft.to/lastmile_qr_scan", "android": "https://dc.lft.to/lastmile_qr_scan"}, "lon": -77.0386355, "type": "electric_scooter", "fusion_lat": 0.0, "lat": 38.92023, "name": "f733de86b9912d3471558705cede2195", "fusion_lon": 0.0, "bike_id": "f733de86b9912d3471558705cede2195", "is_disabled": 0, "is_reserved": 0}, {"rental_uris": {"ios": "https://dc.lft.to/lastmile_qr_scan", "android": "https://dc.lft.to/lastmile_qr_scan"}, "lon": -77.03810883333334, "type": "electric_scooter", "fusion_lat": 0.0, "lat": 38.93583866666667, "name": "9f173c90a2573409a184e85a3914d550", "fusion_lon": 0.0, "bike_id": "9f173c90a2573409a184e85a3914d550", "is_disabled": 0, "is_reserved": 0}, {"rental_uris": {"ios": "https://dc.lft.to/lastmile_qr_scan", "android": "https://dc.lft.to/lastmile_qr_scan"}, "lon": -77.03227266666667, "type": "electric_scooter", "fusion_lat": 0.0, "lat": 38.92673633333333, "name": "7633be7a72bc71b10469fe2d0c4e1038", "fusion_lon": 0.0, "bike_id": "7633be7a72bc71b10469fe2d0c4e1038", "is_disabled": 0, "is_reserved": 0}, {"rental_uris": {"ios": "https://dc.lft.to/lastmile_qr_scan", "android": "https://dc.lft.to/lastmile_qr_scan"}, "lon": -76.97193216666666, "type": "electric_scooter", "fusion_lat": 0.0, "lat": 38.91759916666667, "name": "30d05d077c2b2a5f484025090a90e62d", "fusion_lon": 0.0, "bike_id": "30d05d077c2b2a5f484025090a90e62d", "is_disabled": 0, "is_reserved": 0}, {"rental_uris": {"ios": "https://dc.lft.to/lastmile_qr_scan", "android": "https://dc.lft.to/lastmile_qr_scan"}, "lon": -77.05302233333333, "type": "electric_scooter", "fusion_lat": 0.0, "lat": 38.927781, "name": "bde21feababd0f9c54d92d7d9be7e07b", "fusion_lon": 0.0, "bike_id": "bde21feababd0f9c54d92d7d9be7e07b", "is_disabled": 0, "is_reserved": 0}, {"rental_uris": {"ios": "https://dc.lft.to/lastmile_qr_scan", "android": "https://dc.lft.to/lastmile_qr_scan"}, "lon": -77.12899383333334, "type": "electric_bike", "fusion_lat": 0.0, "lat": 38.86380066666667, "name": "7cf4fff586cf146aae8981781fbf7560", "fusion_lon": 0.0, "bike_id": "7cf4fff586cf146aae8981781fbf7560", "is_disabled": 0, "is_reserved": 0}, {"rental_uris": {"ios": "https://dc.lft.to/lastmile_qr_scan", "android": "https://dc.lft.to/lastmile_qr_scan"}, "lon": -77.03271333333333, "type": "electric_scooter", "fusion_lat": 0.0, "lat": 38.93238733333333, "name": "a88c1300b276d3f8f244afdd89f3c885", "fusion_lon": 0.0, "bike_id": "a88c1300b276d3f8f244afdd89f3c885", "is_disabled": 0, "is_reserved": 0}, {"rental_uris": {"ios": "https://dc.lft.to/lastmile_qr_scan", "android": "https://dc.lft.to/lastmile_qr_scan"}, "lon": -77.00628466666667, "type": "electric_scooter", "fusion_lat": 0.0, "lat": 38.90579, "name": "bd767c8d09d6d2a6930eb53b7028b621", "fusion_lon": 0.0, "bike_id": "bd767c8d09d6d2a6930eb53b7028b621", "is_disabled": 0, "is_reserved": 0}, {"rental_uris": {"ios": "https://dc.lft.to/lastmile_qr_scan", "android": "https://dc.lft.to/lastmile_qr_scan"}, "lon": -76.98958433333334, "type": "electric_scooter", "fusion_lat": 0.0, "lat": 38.900212833333335, "name": "9fd9ec150ef3d45f0c7a8208b25a4097", "fusion_lon": 0.0, "bike_id": "9fd9ec150ef3d45f0c7a8208b25a4097", "is_disabled": 0, "is_reserved": 0}, {"rental_uris": {"ios": "https://dc.lft.to/lastmile_qr_scan", "android": "https://dc.lft.to/lastmile_qr_scan"}, "lon": -77.03788866666666, "type": "electric_scooter", "fusion_lat": 0.0, "lat": 38.90558266666667, "name": "f8d6a75ad2609ae636c97f4745a3f813", "fusion_lon": 0.0, "bike_id": "f8d6a75ad2609ae636c97f4745a3f813", "is_disabled": 0, "is_reserved": 0}, {"rental_uris": {"ios": "https://dc.lft.to/lastmile_qr_scan", "android": "https://dc.lft.to/lastmile_qr_scan"}, "lon": -77.0366595, "type": "electric_bike", "fusion_lat": 0.0, "lat": 38.936361166666664, "name": "8db070d9dea14b952438d4d360d68c65", "fusion_lon": 0.0, "bike_id": "8db070d9dea14b952438d4d360d68c65", "is_disabled": 0, "is_reserved": 0}, {"rental_uris": {"ios": "https://dc.lft.to/lastmile_qr_scan", "android": "https://dc.lft.to/lastmile_qr_scan"}, "lon": -76.98655083333334, "type": "electric_scooter", "fusion_lat": 0.0, "lat": 38.8580715, "name": "0fa075675603f81ca591725d7d157edb", "fusion_lon": 0.0, "bike_id": "0fa075675603f81ca591725d7d157edb", "is_disabled": 0, "is_reserved": 0}, {"rental_uris": {"ios": "https://dc.lft.to/lastmile_qr_scan", "android": "https://dc.lft.to/lastmile_qr_scan"}, "lon": -77.10026833333333, "type": "electric_bike", "fusion_lat": 0.0, "lat": 38.99065683333333, "name": "b54f32c93db3f207ab2f4b6ad2a298da", "fusion_lon": 0.0, "bike_id": "b54f32c93db3f207ab2f4b6ad2a298da", "is_disabled": 0, "is_reserved": 0}, {"rental_uris": {"ios": "https://dc.lft.to/lastmile_qr_scan", "android": "https://dc.lft.to/lastmile_qr_scan"}, "lon": -76.9792405, "type": "electric_scooter", "fusion_lat": 0.0, "lat": 38.90496233333333, "name": "665280784bb99d8a8e258773a80fbbc0", "fusion_lon": 0.0, "bike_id": "665280784bb99d8a8e258773a80fbbc0", "is_disabled": 0, "is_reserved": 0}, {"rental_uris": {"ios": "https://dc.lft.to/lastmile_qr_scan", "android": "https://dc.lft.to/lastmile_qr_scan"}, "lon": -77.03660433333333, "type": "electric_scooter", "fusion_lat": 0.0, "lat": 38.92211366666667, "name": "17189a74b8da5f1faa94053096f2cc6e", "fusion_lon": 0.0, "bike_id": "17189a74b8da5f1faa94053096f2cc6e", "is_disabled": 0, "is_reserved": 0}, {"rental_uris": {"ios": "https://dc.lft.to/lastmile_qr_scan", "android": "https://dc.lft.to/lastmile_qr_scan"}, "lon": -76.99993883333333, "type": "electric_scooter", "fusion_lat": 0.0, "lat": 38.90012016666667, "name": "e44e7b3bc21d9256ddad4f70e34926e2", "fusion_lon": 0.0, "bike_id": "e44e7b3bc21d9256ddad4f70e34926e2", "is_disabled": 0, "is_reserved": 0}, {"rental_uris": {"ios": "https://dc.lft.to/lastmile_qr_scan", "android": "https://dc.lft.to/lastmile_qr_scan"}, "lon": -77.04899766666666, "type": "electric_bike", "fusion_lat": 0.0, "lat": 38.874940333333335, "name": "805d29d9c04141440a7145ee332cd3a4", "fusion_lon": 0.0, "bike_id": "805d29d9c04141440a7145ee332cd3a4", "is_disabled": 0, "is_reserved": 0}, {"rental_uris": {"ios": "https://dc.lft.to/lastmile_qr_scan", "android": "https://dc.lft.to/lastmile_qr_scan"}, "lon": -77.02231133333333, "type": "electric_scooter", "fusion_lat": 0.0, "lat": 38.91422983333333, "name": "88af9492880f9e82ceb25a99c9e6b338", "fusion_lon": 0.0, "bike_id": "88af9492880f9e82ceb25a99c9e6b338", "is_disabled": 0, "is_reserved": 0}, {"rental_uris": {"ios": "https://dc.lft.to/lastmile_qr_scan", "android": "https://dc.lft.to/lastmile_qr_scan"}, "lon": -76.98561133333334, "type": "electric_scooter", "fusion_lat": 0.0, "lat": 38.85605733333333, "name": "4017b1678c001d243467b926b5670334", "fusion_lon": 0.0, "bike_id": "4017b1678c001d243467b926b5670334", "is_disabled": 0, "is_reserved": 0}, {"rental_uris": {"ios": "https://dc.lft.to/lastmile_qr_scan", "android": "https://dc.lft.to/lastmile_qr_scan"}, "lon": -77.0034635, "type": "electric_scooter", "fusion_lat": 0.0, "lat": 38.897663666666666, "name": "905405ba8b12df8182d9e5563b954c3b", "fusion_lon": 0.0, "bike_id": "905405ba8b12df8182d9e5563b954c3b", "is_disabled": 0, "is_reserved": 0}, {"rental_uris": {"ios": "https://dc.lft.to/lastmile_qr_scan", "android": "https://dc.lft.to/lastmile_qr_scan"}, "lon": -77.07330316666666, "type": "electric_scooter", "fusion_lat": 0.0, "lat": 38.92520116666667, "name": "7f071bfc5ff27868ce848aa90d6cbb80", "fusion_lon": 0.0, "bike_id": "7f071bfc5ff27868ce848aa90d6cbb80", "is_disabled": 0, "is_reserved": 0}, {"rental_uris": {"ios": "https://dc.lft.to/lastmile_qr_scan", "android": "https://dc.lft.to/lastmile_qr_scan"}, "lon": -76.98571216666667, "type": "electric_scooter", "fusion_lat": 0.0, "lat": 38.89890116666667, "name": "97ef410b1d82a374fc95746cf62032c5", "fusion_lon": 0.0, "bike_id": "97ef410b1d82a374fc95746cf62032c5", "is_disabled": 0, "is_reserved": 0}, {"rental_uris": {"ios": "https://dc.lft.to/lastmile_qr_scan", "android": "https://dc.lft.to/lastmile_qr_scan"}, "lon": -77.02331166666667, "type": "electric_scooter", "fusion_lat": 0.0, "lat": 38.930534, "name": "1cd083e188204a910f14ded6e9119828", "fusion_lon": 0.0, "bike_id": "1cd083e188204a910f14ded6e9119828", "is_disabled": 0, "is_reserved": 0}, {"rental_uris": {"ios": "https://dc.lft.to/lastmile_qr_scan", "android": "https://dc.lft.to/lastmile_qr_scan"}, "lon": -76.9865295, "type": "electric_scooter", "fusion_lat": 0.0, "lat": 38.85806566666667, "name": "e4298a0db011605aa16d3f3fafc8fed0", "fusion_lon": 0.0, "bike_id": "e4298a0db011605aa16d3f3fafc8fed0", "is_disabled": 0, "is_reserved": 0}, {"rental_uris": {"ios": "https://dc.lft.to/lastmile_qr_scan", "android": "https://dc.lft.to/lastmile_qr_scan"}, "lon": -76.94650783333333, "type": "electric_scooter", "fusion_lat": 0.0, "lat": 38.8982695, "name": "c4e477a3d770140effc6cb96f9a8c580", "fusion_lon": 0.0, "bike_id": "c4e477a3d770140effc6cb96f9a8c580", "is_disabled": 0, "is_reserved": 0}, {"rental_uris": {"ios": "https://dc.lft.to/lastmile_qr_scan", "android": "https://dc.lft.to/lastmile_qr_scan"}, "lon": -76.98004133333333, "type": "electric_scooter", "fusion_lat": 0.0, "lat": 38.85321866666666, "name": "cf6e39e8a97834bf688a43eac36a47bd", "fusion_lon": 0.0, "bike_id": "cf6e39e8a97834bf688a43eac36a47bd", "is_disabled": 0, "is_reserved": 0}, {"rental_uris": {"ios": "https://dc.lft.to/lastmile_qr_scan", "android": "https://dc.lft.to/lastmile_qr_scan"}, "lon": -77.03125633333333, "type": "electric_scooter", "fusion_lat": 0.0, "lat": 38.963096666666665, "name": "00ce0df45bf2666a4e0698145f0034af", "fusion_lon": 0.0, "bike_id": "00ce0df45bf2666a4e0698145f0034af", "is_disabled": 0, "is_reserved": 0}, {"rental_uris": {"ios": "https://dc.lft.to/lastmile_qr_scan", "android": "https://dc.lft.to/lastmile_qr_scan"}, "lon": -77.034734, "type": "electric_scooter", "fusion_lat": 0.0, "lat": 38.93039433333333, "name": "d508449e76417955de25fb46871d01b3", "fusion_lon": 0.0, "bike_id": "d508449e76417955de25fb46871d01b3", "is_disabled": 0, "is_reserved": 0}, {"rental_uris": {"ios": "https://dc.lft.to/lastmile_qr_scan", "android": "https://dc.lft.to/lastmile_qr_scan"}, "lon": -77.0455455, "type": "electric_scooter", "fusion_lat": 0.0, "lat": 38.903708, "name": "d8313d7b1acae4c4d25a3b0a76f4f2e6", "fusion_lon": 0.0, "bike_id": "d8313d7b1acae4c4d25a3b0a76f4f2e6", "is_disabled": 0, "is_reserved": 0}, {"rental_uris": {"ios": "https://dc.lft.to/lastmile_qr_scan", "android": "https://dc.lft.to/lastmile_qr_scan"}, "lon": -76.9605045, "type": "electric_bike", "fusion_lat": 0.0, "lat": 38.884061333333335, "name": "29eb653f6d13b9d7b0436742784d4a34", "fusion_lon": 0.0, "bike_id": "29eb653f6d13b9d7b0436742784d4a34", "is_disabled": 0, "is_reserved": 0}, {"rental_uris": {"ios": "https://dc.lft.to/lastmile_qr_scan", "android": "https://dc.lft.to/lastmile_qr_scan"}, "lon": -77.00564916666667, "type": "electric_scooter", "fusion_lat": 0.0, "lat": 38.9035415, "name": "83c261dd057600b45d664e56e69b49ba", "fusion_lon": 0.0, "bike_id": "83c261dd057600b45d664e56e69b49ba", "is_disabled": 0, "is_reserved": 0}, {"rental_uris": {"ios": "https://dc.lft.to/lastmile_qr_scan", "android": "https://dc.lft.to/lastmile_qr_scan"}, "lon": -77.0269855, "type": "electric_scooter", "fusion_lat": 0.0, "lat": 38.9259585, "name": "91945e3b11cda2f3a8c594d2aad287c2", "fusion_lon": 0.0, "bike_id": "91945e3b11cda2f3a8c594d2aad287c2", "is_disabled": 0, "is_reserved": 0}, {"rental_uris": {"ios": "https://dc.lft.to/lastmile_qr_scan", "android": "https://dc.lft.to/lastmile_qr_scan"}, "lon": -77.02473766666667, "type": "electric_scooter", "fusion_lat": 0.0, "lat": 38.9308805, "name": "aecdbe0728913cf6bc96208bedc5f037", "fusion_lon": 0.0, "bike_id": "aecdbe0728913cf6bc96208bedc5f037", "is_disabled": 0, "is_reserved": 0}, {"rental_uris": {"ios": "https://dc.lft.to/lastmile_qr_scan", "android": "https://dc.lft.to/lastmile_qr_scan"}, "lon": -77.02831583333334, "type": "electric_scooter", "fusion_lat": 0.0, "lat": 38.93187066666667, "name": "005df7e7155939e7be5dffdcbacb3682", "fusion_lon": 0.0, "bike_id": "005df7e7155939e7be5dffdcbacb3682", "is_disabled": 0, "is_reserved": 0}, {"rental_uris": {"ios": "https://dc.lft.to/lastmile_qr_scan", "android": "https://dc.lft.to/lastmile_qr_scan"}, "lon": -76.908163, "type": "electric_bike", "fusion_lat": 0.0, "lat": 38.994564, "name": "27542c1f66b49143b56da3ae589be90f", "fusion_lon": 0.0, "bike_id": "27542c1f66b49143b56da3ae589be90f", "is_disabled": 0, "is_reserved": 0}, {"rental_uris": {"ios": "https://dc.lft.to/lastmile_qr_scan", "android": "https://dc.lft.to/lastmile_qr_scan"}, "lon": -77.01113266666667, "type": "electric_scooter", "fusion_lat": 0.0, "lat": 38.89549016666667, "name": "2011de1631f96b665437ab1aeb97db53", "fusion_lon": 0.0, "bike_id": "2011de1631f96b665437ab1aeb97db53", "is_disabled": 0, "is_reserved": 0}, {"rental_uris": {"ios": "https://dc.lft.to/lastmile_qr_scan", "android": "https://dc.lft.to/lastmile_qr_scan"}, "lon": -77.08202883333334, "type": "electric_scooter", "fusion_lat": 0.0, "lat": 38.94924433333333, "name": "e73807829785bf407c97bf2c4de0f1be", "fusion_lon": 0.0, "bike_id": "e73807829785bf407c97bf2c4de0f1be", "is_disabled": 0, "is_reserved": 0}, {"rental_uris": {"ios": "https://dc.lft.to/lastmile_qr_scan", "android": "https://dc.lft.to/lastmile_qr_scan"}, "lon": -77.04815316666667, "type": "electric_scooter", "fusion_lat": 0.0, "lat": 38.913350333333334, "name": "8d968b01b69b3e046655d4fce548c452", "fusion_lon": 0.0, "bike_id": "8d968b01b69b3e046655d4fce548c452", "is_disabled": 0, "is_reserved": 0}, {"rental_uris": {"ios": "https://dc.lft.to/lastmile_qr_scan", "android": "https://dc.lft.to/lastmile_qr_scan"}, "lon": -77.10334766666666, "type": "electric_bike", "fusion_lat": 0.0, "lat": 38.852242, "name": "d0fe8c871e065419376242484493d9e2", "fusion_lon": 0.0, "bike_id": "d0fe8c871e065419376242484493d9e2", "is_disabled": 0, "is_reserved": 0}, {"rental_uris": {"ios": "https://dc.lft.to/lastmile_qr_scan", "android": "https://dc.lft.to/lastmile_qr_scan"}, "lon": -77.038516, "type": "electric_scooter", "fusion_lat": 0.0, "lat": 38.913197, "name": "edf30f84fa84d007ec7cd5b340931fcc", "fusion_lon": 0.0, "bike_id": "edf30f84fa84d007ec7cd5b340931fcc", "is_disabled": 0, "is_reserved": 0}, {"rental_uris": {"ios": "https://dc.lft.to/lastmile_qr_scan", "android": "https://dc.lft.to/lastmile_qr_scan"}, "lon": -77.03200166666667, "type": "electric_scooter", "fusion_lat": 0.0, "lat": 38.907398, "name": "ee5298914a3ac5b7d3680ac65ebc5b42", "fusion_lon": 0.0, "bike_id": "ee5298914a3ac5b7d3680ac65ebc5b42", "is_disabled": 0, "is_reserved": 0}, {"rental_uris": {"ios": "https://dc.lft.to/lastmile_qr_scan", "android": "https://dc.lft.to/lastmile_qr_scan"}, "lon": -77.02715883333333, "type": "electric_scooter", "fusion_lat": 0.0, "lat": 38.881007833333335, "name": "4c1aab1369b382bfacabe9cebf1a546a", "fusion_lon": 0.0, "bike_id": "4c1aab1369b382bfacabe9cebf1a546a", "is_disabled": 0, "is_reserved": 0}, {"rental_uris": {"ios": "https://dc.lft.to/lastmile_qr_scan", "android": "https://dc.lft.to/lastmile_qr_scan"}, "lon": -77.04715833333333, "type": "electric_scooter", "fusion_lat": 0.0, "lat": 38.90575966666667, "name": "3216a94a6f6be5f4fc9b7b9ad17a69b5", "fusion_lon": 0.0, "bike_id": "3216a94a6f6be5f4fc9b7b9ad17a69b5", "is_disabled": 0, "is_reserved": 0}, {"rental_uris": {"ios": "https://dc.lft.to/lastmile_qr_scan", "android": "https://dc.lft.to/lastmile_qr_scan"}, "lon": -77.02975016666667, "type": "electric_scooter", "fusion_lat": 0.0, "lat": 38.96227066666667, "name": "e5e519349285ec0895c83809b4c15cbf", "fusion_lon": 0.0, "bike_id": "e5e519349285ec0895c83809b4c15cbf", "is_disabled": 0, "is_reserved": 0}, {"rental_uris": {"ios": "https://dc.lft.to/lastmile_qr_scan", "android": "https://dc.lft.to/lastmile_qr_scan"}, "lon": -77.0127815, "type": "electric_bike", "fusion_lat": 0.0, "lat": 38.88124, "name": "630622c25861fb3b264fe7c27e125d82", "fusion_lon": 0.0, "bike_id": "630622c25861fb3b264fe7c27e125d82", "is_disabled": 0, "is_reserved": 0}, {"rental_uris": {"ios": "https://dc.lft.to/lastmile_qr_scan", "android": "https://dc.lft.to/lastmile_qr_scan"}, "lon": -77.00880883333333, "type": "electric_scooter", "fusion_lat": 0.0, "lat": 38.9140645, "name": "fd0f6ba4704a784c339b1200321287c6", "fusion_lon": 0.0, "bike_id": "fd0f6ba4704a784c339b1200321287c6", "is_disabled": 0, "is_reserved": 0}, {"rental_uris": {"ios": "https://dc.lft.to/lastmile_qr_scan", "android": "https://dc.lft.to/lastmile_qr_scan"}, "lon": -77.00134566666667, "type": "electric_scooter", "fusion_lat": 0.0, "lat": 38.90408516666667, "name": "bb28e535d4e2b457fd941fb3c33509f5", "fusion_lon": 0.0, "bike_id": "bb28e535d4e2b457fd941fb3c33509f5", "is_disabled": 0, "is_reserved": 0}, {"rental_uris": {"ios": "https://dc.lft.to/lastmile_qr_scan", "android": "https://dc.lft.to/lastmile_qr_scan"}, "lon": -76.92716683333333, "type": "electric_scooter", "fusion_lat": 0.0, "lat": 38.880407, "name": "8fd996713161a6d8eaffb23f94a437f0", "fusion_lon": 0.0, "bike_id": "8fd996713161a6d8eaffb23f94a437f0", "is_disabled": 0, "is_reserved": 0}, {"rental_uris": {"ios": "https://dc.lft.to/lastmile_qr_scan", "android": "https://dc.lft.to/lastmile_qr_scan"}, "lon": -76.9466435, "type": "electric_scooter", "fusion_lat": 0.0, "lat": 38.8980235, "name": "b4d0171bec73d7837432f524c028d341", "fusion_lon": 0.0, "bike_id": "b4d0171bec73d7837432f524c028d341", "is_disabled": 0, "is_reserved": 0}, {"rental_uris": {"ios": "https://dc.lft.to/lastmile_qr_scan", "android": "https://dc.lft.to/lastmile_qr_scan"}, "lon": -77.00503483333334, "type": "electric_scooter", "fusion_lat": 0.0, "lat": 38.878552666666664, "name": "b3396b365add49c23e74e23d4a5e9a2e", "fusion_lon": 0.0, "bike_id": "b3396b365add49c23e74e23d4a5e9a2e", "is_disabled": 0, "is_reserved": 0}, {"rental_uris": {"ios": "https://dc.lft.to/lastmile_qr_scan", "android": "https://dc.lft.to/lastmile_qr_scan"}, "lon": -77.044605, "type": "electric_scooter", "fusion_lat": 0.0, "lat": 38.91877866666667, "name": "578320b445b0411ac258817cd52abf3f", "fusion_lon": 0.0, "bike_id": "578320b445b0411ac258817cd52abf3f", "is_disabled": 0, "is_reserved": 0}, {"rental_uris": {"ios": "https://dc.lft.to/lastmile_qr_scan", "android": "https://dc.lft.to/lastmile_qr_scan"}, "lon": -77.02692166666667, "type": "electric_scooter", "fusion_lat": 0.0, "lat": 38.8991695, "name": "a52a57683c610e196cbad9bbc4943ca7", "fusion_lon": 0.0, "bike_id": "a52a57683c610e196cbad9bbc4943ca7", "is_disabled": 0, "is_reserved": 0}, {"rental_uris": {"ios": "https://dc.lft.to/lastmile_qr_scan", "android": "https://dc.lft.to/lastmile_qr_scan"}, "lon": -77.00216483333334, "type": "electric_bike", "fusion_lat": 0.0, "lat": 38.8238085, "name": "52590ecfd2b45876a5edf301f8dd2ede", "fusion_lon": 0.0, "bike_id": "52590ecfd2b45876a5edf301f8dd2ede", "is_disabled": 0, "is_reserved": 0}, {"rental_uris": {"ios": "https://dc.lft.to/lastmile_qr_scan", "android": "https://dc.lft.to/lastmile_qr_scan"}, "lon": -76.976701, "type": "electric_bike", "fusion_lat": 0.0, "lat": 38.966241, "name": "7259f9e308b02f5e9be1f997d6527e4e", "fusion_lon": 0.0, "bike_id": "7259f9e308b02f5e9be1f997d6527e4e", "is_disabled": 0, "is_reserved": 0}, {"rental_uris": {"ios": "https://dc.lft.to/lastmile_qr_scan", "android": "https://dc.lft.to/lastmile_qr_scan"}, "lon": -77.0806455, "type": "electric_scooter", "fusion_lat": 0.0, "lat": 38.95914366666667, "name": "089ab2c862d5174e18c1e6aaa6d2b30e", "fusion_lon": 0.0, "bike_id": "089ab2c862d5174e18c1e6aaa6d2b30e", "is_disabled": 0, "is_reserved": 0}, {"rental_uris": {"ios": "https://dc.lft.to/lastmile_qr_scan", "android": "https://dc.lft.to/lastmile_qr_scan"}, "lon": -77.01104816666667, "type": "electric_scooter", "fusion_lat": 0.0, "lat": 38.89541283333333, "name": "979133eee8055d6a90da13810b5089b6", "fusion_lon": 0.0, "bike_id": "979133eee8055d6a90da13810b5089b6", "is_disabled": 0, "is_reserved": 0}, {"rental_uris": {"ios": "https://dc.lft.to/lastmile_qr_scan", "android": "https://dc.lft.to/lastmile_qr_scan"}, "lon": -77.02961216666667, "type": "electric_scooter", "fusion_lat": 0.0, "lat": 38.90031533333333, "name": "55720574b779cc93e6a12e6fc7c37987", "fusion_lon": 0.0, "bike_id": "55720574b779cc93e6a12e6fc7c37987", "is_disabled": 0, "is_reserved": 0}, {"rental_uris": {"ios": "https://dc.lft.to/lastmile_qr_scan", "android": "https://dc.lft.to/lastmile_qr_scan"}, "lon": -77.03173383333333, "type": "electric_scooter", "fusion_lat": 0.0, "lat": 38.91555733333333, "name": "ac90480927de24806cfdfb0daa68ef90", "fusion_lon": 0.0, "bike_id": "ac90480927de24806cfdfb0daa68ef90", "is_disabled": 0, "is_reserved": 0}, {"rental_uris": {"ios": "https://dc.lft.to/lastmile_qr_scan", "android": "https://dc.lft.to/lastmile_qr_scan"}, "lon": -77.01787066666667, "type": "electric_scooter", "fusion_lat": 0.0, "lat": 38.90819616666667, "name": "3eb53ef1821f0fa7c28eba196b7f943b", "fusion_lon": 0.0, "bike_id": "3eb53ef1821f0fa7c28eba196b7f943b", "is_disabled": 0, "is_reserved": 0}, {"rental_uris": {"ios": "https://dc.lft.to/lastmile_qr_scan", "android": "https://dc.lft.to/lastmile_qr_scan"}, "lon": -77.032021, "type": "electric_scooter", "fusion_lat": 0.0, "lat": 38.937653, "name": "c670e09ab372bb7ff51e83eac851c3d2", "fusion_lon": 0.0, "bike_id": "c670e09ab372bb7ff51e83eac851c3d2", "is_disabled": 0, "is_reserved": 0}, {"rental_uris": {"ios": "https://dc.lft.to/lastmile_qr_scan", "android": "https://dc.lft.to/lastmile_qr_scan"}, "lon": -76.94654783333333, "type": "electric_scooter", "fusion_lat": 0.0, "lat": 38.8982285, "name": "18001107192da89906100fb8665cee23", "fusion_lon": 0.0, "bike_id": "18001107192da89906100fb8665cee23", "is_disabled": 0, "is_reserved": 0}, {"rental_uris": {"ios": "https://dc.lft.to/lastmile_qr_scan", "android": "https://dc.lft.to/lastmile_qr_scan"}, "lon": -77.01997516666667, "type": "electric_scooter", "fusion_lat": 0.0, "lat": 38.90555766666667, "name": "8797d494e1cb99935cd1412ed472a2f9", "fusion_lon": 0.0, "bike_id": "8797d494e1cb99935cd1412ed472a2f9", "is_disabled": 0, "is_reserved": 0}, {"rental_uris": {"ios": "https://dc.lft.to/lastmile_qr_scan", "android": "https://dc.lft.to/lastmile_qr_scan"}, "lon": -77.034034, "type": "electric_scooter", "fusion_lat": 0.0, "lat": 38.92316116666667, "name": "c74736e0536d321e2b49bc279273270a", "fusion_lon": 0.0, "bike_id": "c74736e0536d321e2b49bc279273270a", "is_disabled": 0, "is_reserved": 0}, {"rental_uris": {"ios": "https://dc.lft.to/lastmile_qr_scan", "android": "https://dc.lft.to/lastmile_qr_scan"}, "lon": -77.0336815, "type": "electric_scooter", "fusion_lat": 0.0, "lat": 38.906086333333334, "name": "f2e0f9b25d110e02fe333fad749171a2", "fusion_lon": 0.0, "bike_id": "f2e0f9b25d110e02fe333fad749171a2", "is_disabled": 0, "is_reserved": 0}, {"rental_uris": {"ios": "https://dc.lft.to/lastmile_qr_scan", "android": "https://dc.lft.to/lastmile_qr_scan"}, "lon": -77.12623516666666, "type": "electric_bike", "fusion_lat": 0.0, "lat": 39.0581575, "name": "e78a76a93a66a007fbca1f47e5454410", "fusion_lon": 0.0, "bike_id": "e78a76a93a66a007fbca1f47e5454410", "is_disabled": 0, "is_reserved": 0}, {"rental_uris": {"ios": "https://dc.lft.to/lastmile_qr_scan", "android": "https://dc.lft.to/lastmile_qr_scan"}, "lon": -76.97829583333333, "type": "electric_bike", "fusion_lat": 0.0, "lat": 38.846121833333335, "name": "8ce5f47351243704b39e937307086dd0", "fusion_lon": 0.0, "bike_id": "8ce5f47351243704b39e937307086dd0", "is_disabled": 0, "is_reserved": 0}, {"rental_uris": {"ios": "https://dc.lft.to/lastmile_qr_scan", "android": "https://dc.lft.to/lastmile_qr_scan"}, "lon": -77.03924716666667, "type": "electric_scooter", "fusion_lat": 0.0, "lat": 38.92110983333333, "name": "046ecb5834605f4f3e62d21ff57ebd86", "fusion_lon": 0.0, "bike_id": "046ecb5834605f4f3e62d21ff57ebd86", "is_disabled": 0, "is_reserved": 0}, {"rental_uris": {"ios": "https://dc.lft.to/lastmile_qr_scan", "android": "https://dc.lft.to/lastmile_qr_scan"}, "lon": -77.014151, "type": "electric_scooter", "fusion_lat": 0.0, "lat": 38.92839383333333, "name": "a34ce98aa2b87d23d720e1d724dde6ee", "fusion_lon": 0.0, "bike_id": "a34ce98aa2b87d23d720e1d724dde6ee", "is_disabled": 0, "is_reserved": 0}, {"rental_uris": {"ios": "https://dc.lft.to/lastmile_qr_scan", "android": "https://dc.lft.to/lastmile_qr_scan"}, "lon": -77.17845066666666, "type": "electric_bike", "fusion_lat": 0.0, "lat": 39.08898516666667, "name": "012c4223e8cfd818da6e242a6572022d", "fusion_lon": 0.0, "bike_id": "012c4223e8cfd818da6e242a6572022d", "is_disabled": 0, "is_reserved": 0}, {"rental_uris": {"ios": "https://dc.lft.to/lastmile_qr_scan", "android": "https://dc.lft.to/lastmile_qr_scan"}, "lon": -77.008018, "type": "electric_bike", "fusion_lat": 0.0, "lat": 38.949148666666666, "name": "e5469ba47f447af537b9bd122c43e429", "fusion_lon": 0.0, "bike_id": "e5469ba47f447af537b9bd122c43e429", "is_disabled": 0, "is_reserved": 0}, {"rental_uris": {"ios": "https://dc.lft.to/lastmile_qr_scan", "android": "https://dc.lft.to/lastmile_qr_scan"}, "lon": -77.04155783333333, "type": "electric_scooter", "fusion_lat": 0.0, "lat": 38.91484466666667, "name": "20aec45460eac81b7e37dabf6a284699", "fusion_lon": 0.0, "bike_id": "20aec45460eac81b7e37dabf6a284699", "is_disabled": 0, "is_reserved": 0}, {"rental_uris": {"ios": "https://dc.lft.to/lastmile_qr_scan", "android": "https://dc.lft.to/lastmile_qr_scan"}, "lon": -77.03190116666667, "type": "electric_scooter", "fusion_lat": 0.0, "lat": 38.907598666666665, "name": "919a0a2746ec6dbbb5446741a71fc01a", "fusion_lon": 0.0, "bike_id": "919a0a2746ec6dbbb5446741a71fc01a", "is_disabled": 0, "is_reserved": 0}, {"rental_uris": {"ios": "https://dc.lft.to/lastmile_qr_scan", "android": "https://dc.lft.to/lastmile_qr_scan"}, "lon": -77.027168, "type": "electric_scooter", "fusion_lat": 0.0, "lat": 38.90687966666667, "name": "22e0c3e63002551361e9ca013a6233d9", "fusion_lon": 0.0, "bike_id": "22e0c3e63002551361e9ca013a6233d9", "is_disabled": 0, "is_reserved": 0}, {"rental_uris": {"ios": "https://dc.lft.to/lastmile_qr_scan", "android": "https://dc.lft.to/lastmile_qr_scan"}, "lon": -77.07788233333333, "type": "electric_scooter", "fusion_lat": 0.0, "lat": 38.940849, "name": "73b3bcf40ef8d82ef363f8bd43feec17", "fusion_lon": 0.0, "bike_id": "73b3bcf40ef8d82ef363f8bd43feec17", "is_disabled": 0, "is_reserved": 0}, {"rental_uris": {"ios": "https://dc.lft.to/lastmile_qr_scan", "android": "https://dc.lft.to/lastmile_qr_scan"}, "lon": -77.03280333333333, "type": "electric_scooter", "fusion_lat": 0.0, "lat": 38.937726, "name": "9106c46a9d8994642047ffc84a793464", "fusion_lon": 0.0, "bike_id": "9106c46a9d8994642047ffc84a793464", "is_disabled": 0, "is_reserved": 0}, {"rental_uris": {"ios": "https://dc.lft.to/lastmile_qr_scan", "android": "https://dc.lft.to/lastmile_qr_scan"}, "lon": -77.00714216666667, "type": "electric_scooter", "fusion_lat": 0.0, "lat": 38.91349366666667, "name": "9273469bd5e0f23d2aa06c26d1fa3cf2", "fusion_lon": 0.0, "bike_id": "9273469bd5e0f23d2aa06c26d1fa3cf2", "is_disabled": 0, "is_reserved": 0}, {"rental_uris": {"ios": "https://dc.lft.to/lastmile_qr_scan", "android": "https://dc.lft.to/lastmile_qr_scan"}, "lon": -77.01602933333334, "type": "electric_scooter", "fusion_lat": 0.0, "lat": 38.896103, "name": "6e3d58f9e502dfe03f4fe66468e2d590", "fusion_lon": 0.0, "bike_id": "6e3d58f9e502dfe03f4fe66468e2d590", "is_disabled": 0, "is_reserved": 0}, {"rental_uris": {"ios": "https://dc.lft.to/lastmile_qr_scan", "android": "https://dc.lft.to/lastmile_qr_scan"}, "lon": -77.05267216666667, "type": "electric_scooter", "fusion_lat": 0.0, "lat": 38.91005833333333, "name": "5a6aedfd18dfdab57c3b66b8122b8174", "fusion_lon": 0.0, "bike_id": "5a6aedfd18dfdab57c3b66b8122b8174", "is_disabled": 0, "is_reserved": 0}, {"rental_uris": {"ios": "https://dc.lft.to/lastmile_qr_scan", "android": "https://dc.lft.to/lastmile_qr_scan"}, "lon": -76.92995766666667, "type": "electric_bike", "fusion_lat": 0.0, "lat": 38.8879675, "name": "cb0ff937f199b9d9436009616a45cd34", "fusion_lon": 0.0, "bike_id": "cb0ff937f199b9d9436009616a45cd34", "is_disabled": 0, "is_reserved": 0}, {"rental_uris": {"ios": "https://dc.lft.to/lastmile_qr_scan", "android": "https://dc.lft.to/lastmile_qr_scan"}, "lon": -76.93953416666666, "type": "electric_scooter", "fusion_lat": 0.0, "lat": 38.89419983333333, "name": "329fd08f8e16666da5870014ed37398c", "fusion_lon": 0.0, "bike_id": "329fd08f8e16666da5870014ed37398c", "is_disabled": 0, "is_reserved": 0}, {"rental_uris": {"ios": "https://dc.lft.to/lastmile_qr_scan", "android": "https://dc.lft.to/lastmile_qr_scan"}, "lon": -77.04928016666666, "type": "electric_scooter", "fusion_lat": 0.0, "lat": 38.896087666666666, "name": "cb2d562978572c1cbf04a09b2de36a38", "fusion_lon": 0.0, "bike_id": "cb2d562978572c1cbf04a09b2de36a38", "is_disabled": 0, "is_reserved": 0}, {"rental_uris": {"ios": "https://dc.lft.to/lastmile_qr_scan", "android": "https://dc.lft.to/lastmile_qr_scan"}, "lon": -77.01994533333334, "type": "electric_scooter", "fusion_lat": 0.0, "lat": 38.8857715, "name": "f421b559a46632259b5ce4fb48092e1f", "fusion_lon": 0.0, "bike_id": "f421b559a46632259b5ce4fb48092e1f", "is_disabled": 0, "is_reserved": 0}, {"rental_uris": {"ios": "https://dc.lft.to/lastmile_qr_scan", "android": "https://dc.lft.to/lastmile_qr_scan"}, "lon": -77.00199716666667, "type": "electric_scooter", "fusion_lat": 0.0, "lat": 38.89970133333333, "name": "94e395ce7a6f12fd795ed4bbc0a281ef", "fusion_lon": 0.0, "bike_id": "94e395ce7a6f12fd795ed4bbc0a281ef", "is_disabled": 0, "is_reserved": 0}, {"rental_uris": {"ios": "https://dc.lft.to/lastmile_qr_scan", "android": "https://dc.lft.to/lastmile_qr_scan"}, "lon": -77.0318905, "type": "electric_scooter", "fusion_lat": 0.0, "lat": 38.91680566666667, "name": "eb5b3ffaacb9c5c0a4737006d8b5dcc4", "fusion_lon": 0.0, "bike_id": "eb5b3ffaacb9c5c0a4737006d8b5dcc4", "is_disabled": 0, "is_reserved": 0}, {"rental_uris": {"ios": "https://dc.lft.to/lastmile_qr_scan", "android": "https://dc.lft.to/lastmile_qr_scan"}, "lon": -77.055052, "type": "electric_scooter", "fusion_lat": 0.0, "lat": 38.899271, "name": "7fa3638252774a0bdbd697471a760e5f", "fusion_lon": 0.0, "bike_id": "7fa3638252774a0bdbd697471a760e5f", "is_disabled": 0, "is_reserved": 0}, {"rental_uris": {"ios": "https://dc.lft.to/lastmile_qr_scan", "android": "https://dc.lft.to/lastmile_qr_scan"}, "lon": -77.02797016666666, "type": "electric_scooter", "fusion_lat": 0.0, "lat": 38.89610866666666, "name": "d096b9fe4bbcf6c8f13a65f3a3d51572", "fusion_lon": 0.0, "bike_id": "d096b9fe4bbcf6c8f13a65f3a3d51572", "is_disabled": 0, "is_reserved": 0}, {"rental_uris": {"ios": "https://dc.lft.to/lastmile_qr_scan", "android": "https://dc.lft.to/lastmile_qr_scan"}, "lon": -77.024173, "type": "electric_scooter", "fusion_lat": 0.0, "lat": 38.91824166666667, "name": "362fb2813edd35c1334ce54ef9c1def5", "fusion_lon": 0.0, "bike_id": "362fb2813edd35c1334ce54ef9c1def5", "is_disabled": 0, "is_reserved": 0}, {"rental_uris": {"ios": "https://dc.lft.to/lastmile_qr_scan", "android": "https://dc.lft.to/lastmile_qr_scan"}, "lon": -77.03458916666666, "type": "electric_scooter", "fusion_lat": 0.0, "lat": 38.90725116666667, "name": "f83452f30440165478db184118d1286e", "fusion_lon": 0.0, "bike_id": "f83452f30440165478db184118d1286e", "is_disabled": 0, "is_reserved": 0}, {"rental_uris": {"ios": "https://dc.lft.to/lastmile_qr_scan", "android": "https://dc.lft.to/lastmile_qr_scan"}, "lon": -77.03236066666666, "type": "electric_scooter", "fusion_lat": 0.0, "lat": 38.92757833333334, "name": "9a5e335bd38bbb1eba8c003111700337", "fusion_lon": 0.0, "bike_id": "9a5e335bd38bbb1eba8c003111700337", "is_disabled": 0, "is_reserved": 0}, {"rental_uris": {"ios": "https://dc.lft.to/lastmile_qr_scan", "android": "https://dc.lft.to/lastmile_qr_scan"}, "lon": -77.0143305, "type": "electric_scooter", "fusion_lat": 0.0, "lat": 38.929911, "name": "f5dc2f590438020d50139cd254f8aee5", "fusion_lon": 0.0, "bike_id": "f5dc2f590438020d50139cd254f8aee5", "is_disabled": 0, "is_reserved": 0}, {"rental_uris": {"ios": "https://dc.lft.to/lastmile_qr_scan", "android": "https://dc.lft.to/lastmile_qr_scan"}, "lon": -77.01164133333333, "type": "electric_scooter", "fusion_lat": 0.0, "lat": 38.900274, "name": "8c24d6ef402142537e01ff9eae395494", "fusion_lon": 0.0, "bike_id": "8c24d6ef402142537e01ff9eae395494", "is_disabled": 0, "is_reserved": 0}, {"rental_uris": {"ios": "https://dc.lft.to/lastmile_qr_scan", "android": "https://dc.lft.to/lastmile_qr_scan"}, "lon": -77.02223366666666, "type": "electric_scooter", "fusion_lat": 0.0, "lat": 38.89221766666667, "name": "b42f820fa8a684c4f2eb6a82e29f5066", "fusion_lon": 0.0, "bike_id": "b42f820fa8a684c4f2eb6a82e29f5066", "is_disabled": 0, "is_reserved": 0}, {"rental_uris": {"ios": "https://dc.lft.to/lastmile_qr_scan", "android": "https://dc.lft.to/lastmile_qr_scan"}, "lon": -77.03829133333333, "type": "electric_scooter", "fusion_lat": 0.0, "lat": 38.908376833333335, "name": "f31092af4c5abd732c58c218efbea15c", "fusion_lon": 0.0, "bike_id": "f31092af4c5abd732c58c218efbea15c", "is_disabled": 0, "is_reserved": 0}, {"rental_uris": {"ios": "https://dc.lft.to/lastmile_qr_scan", "android": "https://dc.lft.to/lastmile_qr_scan"}, "lon": -77.085415, "type": "electric_bike", "fusion_lat": 0.0, "lat": 38.85625616666667, "name": "6a49233dd3f4817d01393d2435ddb78e", "fusion_lon": 0.0, "bike_id": "6a49233dd3f4817d01393d2435ddb78e", "is_disabled": 0, "is_reserved": 0}, {"rental_uris": {"ios": "https://dc.lft.to/lastmile_qr_scan", "android": "https://dc.lft.to/lastmile_qr_scan"}, "lon": -77.02978483333334, "type": "electric_scooter", "fusion_lat": 0.0, "lat": 38.9623245, "name": "920cdcb11ad6dc23b5adfd62d2a606d1", "fusion_lon": 0.0, "bike_id": "920cdcb11ad6dc23b5adfd62d2a606d1", "is_disabled": 0, "is_reserved": 0}, {"rental_uris": {"ios": "https://dc.lft.to/lastmile_qr_scan", "android": "https://dc.lft.to/lastmile_qr_scan"}, "lon": -76.988856, "type": "electric_scooter", "fusion_lat": 0.0, "lat": 38.86660916666666, "name": "255d0bfb00764e722acba85fb194ccb7", "fusion_lon": 0.0, "bike_id": "255d0bfb00764e722acba85fb194ccb7", "is_disabled": 0, "is_reserved": 0}, {"rental_uris": {"ios": "https://dc.lft.to/lastmile_qr_scan", "android": "https://dc.lft.to/lastmile_qr_scan"}, "lon": -77.04161166666667, "type": "electric_scooter", "fusion_lat": 0.0, "lat": 38.914171333333336, "name": "59597cd08bd3c4c2cbc573aa13d98816", "fusion_lon": 0.0, "bike_id": "59597cd08bd3c4c2cbc573aa13d98816", "is_disabled": 0, "is_reserved": 0}, {"rental_uris": {"ios": "https://dc.lft.to/lastmile_qr_scan", "android": "https://dc.lft.to/lastmile_qr_scan"}, "lon": -76.98194366666667, "type": "electric_scooter", "fusion_lat": 0.0, "lat": 38.90389416666667, "name": "ec9a6c1ac5b31831e87539489858c2ab", "fusion_lon": 0.0, "bike_id": "ec9a6c1ac5b31831e87539489858c2ab", "is_disabled": 0, "is_reserved": 0}, {"rental_uris": {"ios": "https://dc.lft.to/lastmile_qr_scan", "android": "https://dc.lft.to/lastmile_qr_scan"}, "lon": -77.00718383333333, "type": "electric_scooter", "fusion_lat": 0.0, "lat": 38.87845683333333, "name": "6f8b48c484aabd7bfebf01cdb4b02236", "fusion_lon": 0.0, "bike_id": "6f8b48c484aabd7bfebf01cdb4b02236", "is_disabled": 0, "is_reserved": 0}, {"rental_uris": {"ios": "https://dc.lft.to/lastmile_qr_scan", "android": "https://dc.lft.to/lastmile_qr_scan"}, "lon": -77.01771083333334, "type": "electric_scooter", "fusion_lat": 0.0, "lat": 38.90390266666667, "name": "7e8dd3855f0e3ae7111e4a3df416619f", "fusion_lon": 0.0, "bike_id": "7e8dd3855f0e3ae7111e4a3df416619f", "is_disabled": 0, "is_reserved": 0}, {"rental_uris": {"ios": "https://dc.lft.to/lastmile_qr_scan", "android": "https://dc.lft.to/lastmile_qr_scan"}, "lon": -76.99257866666667, "type": "electric_scooter", "fusion_lat": 0.0, "lat": 38.91970716666667, "name": "2f17396d93b2496958978d45e2a043b3", "fusion_lon": 0.0, "bike_id": "2f17396d93b2496958978d45e2a043b3", "is_disabled": 0, "is_reserved": 0}, {"rental_uris": {"ios": "https://dc.lft.to/lastmile_qr_scan", "android": "https://dc.lft.to/lastmile_qr_scan"}, "lon": -77.11523433333333, "type": "electric_bike", "fusion_lat": 0.0, "lat": 38.85492133333333, "name": "eb031591dab96384445406581dcdde50", "fusion_lon": 0.0, "bike_id": "eb031591dab96384445406581dcdde50", "is_disabled": 0, "is_reserved": 0}, {"rental_uris": {"ios": "https://dc.lft.to/lastmile_qr_scan", "android": "https://dc.lft.to/lastmile_qr_scan"}, "lon": -77.02387083333333, "type": "electric_scooter", "fusion_lat": 0.0, "lat": 38.937629666666666, "name": "e866a7252bb2a22ba6a50b457cb3a089", "fusion_lon": 0.0, "bike_id": "e866a7252bb2a22ba6a50b457cb3a089", "is_disabled": 0, "is_reserved": 0}, {"rental_uris": {"ios": "https://dc.lft.to/lastmile_qr_scan", "android": "https://dc.lft.to/lastmile_qr_scan"}, "lon": -77.01208516666667, "type": "electric_scooter", "fusion_lat": 0.0, "lat": 38.92120333333333, "name": "4ba96459c3bc567236fbd5a0a4b29744", "fusion_lon": 0.0, "bike_id": "4ba96459c3bc567236fbd5a0a4b29744", "is_disabled": 0, "is_reserved": 0}, {"rental_uris": {"ios": "https://dc.lft.to/lastmile_qr_scan", "android": "https://dc.lft.to/lastmile_qr_scan"}, "lon": -77.03185433333333, "type": "electric_scooter", "fusion_lat": 0.0, "lat": 38.914860166666664, "name": "58c55893fb5dfcd6176e5dbeb1bb2a93", "fusion_lon": 0.0, "bike_id": "58c55893fb5dfcd6176e5dbeb1bb2a93", "is_disabled": 0, "is_reserved": 0}, {"rental_uris": {"ios": "https://dc.lft.to/lastmile_qr_scan", "android": "https://dc.lft.to/lastmile_qr_scan"}, "lon": -77.05739533333333, "type": "electric_scooter", "fusion_lat": 0.0, "lat": 38.93399866666667, "name": "126b1c28355804178b673b6de04b28a5", "fusion_lon": 0.0, "bike_id": "126b1c28355804178b673b6de04b28a5", "is_disabled": 0, "is_reserved": 0}, {"rental_uris": {"ios": "https://dc.lft.to/lastmile_qr_scan", "android": "https://dc.lft.to/lastmile_qr_scan"}, "lon": -77.0321435, "type": "electric_scooter", "fusion_lat": 0.0, "lat": 38.91999766666667, "name": "ec3ea59a6fd11864aa5a89f92a8253cb", "fusion_lon": 0.0, "bike_id": "ec3ea59a6fd11864aa5a89f92a8253cb", "is_disabled": 0, "is_reserved": 0}, {"rental_uris": {"ios": "https://dc.lft.to/lastmile_qr_scan", "android": "https://dc.lft.to/lastmile_qr_scan"}, "lon": -77.03188783333333, "type": "electric_scooter", "fusion_lat": 0.0, "lat": 38.88569666666667, "name": "f8e86ad18e00eadfdee34c105bb6de3d", "fusion_lon": 0.0, "bike_id": "f8e86ad18e00eadfdee34c105bb6de3d", "is_disabled": 0, "is_reserved": 0}, {"rental_uris": {"ios": "https://dc.lft.to/lastmile_qr_scan", "android": "https://dc.lft.to/lastmile_qr_scan"}, "lon": -77.04803416666667, "type": "electric_scooter", "fusion_lat": 0.0, "lat": 38.916502333333334, "name": "81fe52f738df1f8169cac0b52b5af2d7", "fusion_lon": 0.0, "bike_id": "81fe52f738df1f8169cac0b52b5af2d7", "is_disabled": 0, "is_reserved": 0}, {"rental_uris": {"ios": "https://dc.lft.to/lastmile_qr_scan", "android": "https://dc.lft.to/lastmile_qr_scan"}, "lon": -77.03859066666666, "type": "electric_scooter", "fusion_lat": 0.0, "lat": 38.907794, "name": "91338a5aafeca32889fa5ddb96175b1e", "fusion_lon": 0.0, "bike_id": "91338a5aafeca32889fa5ddb96175b1e", "is_disabled": 0, "is_reserved": 0}, {"rental_uris": {"ios": "https://dc.lft.to/lastmile_qr_scan", "android": "https://dc.lft.to/lastmile_qr_scan"}, "lon": -77.03191933333333, "type": "electric_scooter", "fusion_lat": 0.0, "lat": 38.91922, "name": "4bd0b0cd6d0468de2996b46ce635cd65", "fusion_lon": 0.0, "bike_id": "4bd0b0cd6d0468de2996b46ce635cd65", "is_disabled": 0, "is_reserved": 0}, {"rental_uris": {"ios": "https://dc.lft.to/lastmile_qr_scan", "android": "https://dc.lft.to/lastmile_qr_scan"}, "lon": -77.04333316666667, "type": "electric_scooter", "fusion_lat": 0.0, "lat": 38.895866, "name": "f7a1c7ba89dbbccb6458f6690e9b7ea1", "fusion_lon": 0.0, "bike_id": "f7a1c7ba89dbbccb6458f6690e9b7ea1", "is_disabled": 0, "is_reserved": 0}, {"rental_uris": {"ios": "https://dc.lft.to/lastmile_qr_scan", "android": "https://dc.lft.to/lastmile_qr_scan"}, "lon": -77.0326495, "type": "electric_scooter", "fusion_lat": 0.0, "lat": 38.925459333333336, "name": "2aaf59e6ff25be515e708fe9154ea956", "fusion_lon": 0.0, "bike_id": "2aaf59e6ff25be515e708fe9154ea956", "is_disabled": 0, "is_reserved": 0}, {"rental_uris": {"ios": "https://dc.lft.to/lastmile_qr_scan", "android": "https://dc.lft.to/lastmile_qr_scan"}, "lon": -77.03467866666666, "type": "electric_scooter", "fusion_lat": 0.0, "lat": 38.916839333333336, "name": "f8d923a3d660d33d6935b5956e5dbdff", "fusion_lon": 0.0, "bike_id": "f8d923a3d660d33d6935b5956e5dbdff", "is_disabled": 0, "is_reserved": 0}, {"rental_uris": {"ios": "https://dc.lft.to/lastmile_qr_scan", "android": "https://dc.lft.to/lastmile_qr_scan"}, "lon": -77.04672033333334, "type": "electric_scooter", "fusion_lat": 0.0, "lat": 38.91480983333334, "name": "9f33daf1cf43313f0c087088848043a6", "fusion_lon": 0.0, "bike_id": "9f33daf1cf43313f0c087088848043a6", "is_disabled": 0, "is_reserved": 0}, {"rental_uris": {"ios": "https://dc.lft.to/lastmile_qr_scan", "android": "https://dc.lft.to/lastmile_qr_scan"}, "lon": -77.1068235, "type": "electric_bike", "fusion_lat": 0.0, "lat": 38.93584716666667, "name": "056f421184542ea0267e54c9b16aa03c", "fusion_lon": 0.0, "bike_id": "056f421184542ea0267e54c9b16aa03c", "is_disabled": 0, "is_reserved": 0}, {"rental_uris": {"ios": "https://dc.lft.to/lastmile_qr_scan", "android": "https://dc.lft.to/lastmile_qr_scan"}, "lon": -77.091866, "type": "electric_scooter", "fusion_lat": 0.0, "lat": 38.913672, "name": "79ed3e827e562a08e9511f199f5b25e2", "fusion_lon": 0.0, "bike_id": "79ed3e827e562a08e9511f199f5b25e2", "is_disabled": 0, "is_reserved": 0}, {"rental_uris": {"ios": "https://dc.lft.to/lastmile_qr_scan", "android": "https://dc.lft.to/lastmile_qr_scan"}, "lon": -76.9487685, "type": "electric_scooter", "fusion_lat": 0.0, "lat": 38.895014333333336, "name": "13935356ea65f637d0a764d778bf02a7", "fusion_lon": 0.0, "bike_id": "13935356ea65f637d0a764d778bf02a7", "is_disabled": 0, "is_reserved": 0}, {"rental_uris": {"ios": "https://dc.lft.to/lastmile_qr_scan", "android": "https://dc.lft.to/lastmile_qr_scan"}, "lon": -77.04270533333333, "type": "electric_scooter", "fusion_lat": 0.0, "lat": 38.902932, "name": "ca99903bc5d71410240914bb428465c0", "fusion_lon": 0.0, "bike_id": "ca99903bc5d71410240914bb428465c0", "is_disabled": 0, "is_reserved": 0}, {"rental_uris": {"ios": "https://dc.lft.to/lastmile_qr_scan", "android": "https://dc.lft.to/lastmile_qr_scan"}, "lon": -77.0295165, "type": "electric_scooter", "fusion_lat": 0.0, "lat": 38.90524283333333, "name": "55ffb172097172cfc3eafd0111fd77ef", "fusion_lon": 0.0, "bike_id": "55ffb172097172cfc3eafd0111fd77ef", "is_disabled": 0, "is_reserved": 0}, {"rental_uris": {"ios": "https://dc.lft.to/lastmile_qr_scan", "android": "https://dc.lft.to/lastmile_qr_scan"}, "lon": -77.00657883333334, "type": "electric_scooter", "fusion_lat": 0.0, "lat": 38.9446285, "name": "9c1546ac18fdcd5309a790a0a879c4a0", "fusion_lon": 0.0, "bike_id": "9c1546ac18fdcd5309a790a0a879c4a0", "is_disabled": 0, "is_reserved": 0}, {"rental_uris": {"ios": "https://dc.lft.to/lastmile_qr_scan", "android": "https://dc.lft.to/lastmile_qr_scan"}, "lon": -77.02716116666667, "type": "electric_scooter", "fusion_lat": 0.0, "lat": 38.90907633333333, "name": "6d59d269c50d85d42eb0d188f3e29f05", "fusion_lon": 0.0, "bike_id": "6d59d269c50d85d42eb0d188f3e29f05", "is_disabled": 0, "is_reserved": 0}, {"rental_uris": {"ios": "https://dc.lft.to/lastmile_qr_scan", "android": "https://dc.lft.to/lastmile_qr_scan"}, "lon": -77.00367466666667, "type": "electric_scooter", "fusion_lat": 0.0, "lat": 38.8380345, "name": "83c51d3f4471f507d2a4e3dc0e2e0ca6", "fusion_lon": 0.0, "bike_id": "83c51d3f4471f507d2a4e3dc0e2e0ca6", "is_disabled": 0, "is_reserved": 0}, {"rental_uris": {"ios": "https://dc.lft.to/lastmile_qr_scan", "android": "https://dc.lft.to/lastmile_qr_scan"}, "lon": -77.00371783333334, "type": "electric_bike", "fusion_lat": 0.0, "lat": 38.83603683333333, "name": "4dacccff67bdc3510ee64458a78bb25d", "fusion_lon": 0.0, "bike_id": "4dacccff67bdc3510ee64458a78bb25d", "is_disabled": 0, "is_reserved": 0}, {"rental_uris": {"ios": "https://dc.lft.to/lastmile_qr_scan", "android": "https://dc.lft.to/lastmile_qr_scan"}, "lon": -77.09548433333333, "type": "electric_bike", "fusion_lat": 0.0, "lat": 38.837326833333336, "name": "8ab6b9c602304aed1d216e21d469bd9c", "fusion_lon": 0.0, "bike_id": "8ab6b9c602304aed1d216e21d469bd9c", "is_disabled": 0, "is_reserved": 0}, {"rental_uris": {"ios": "https://dc.lft.to/lastmile_qr_scan", "android": "https://dc.lft.to/lastmile_qr_scan"}, "lon": -76.94141433333333, "type": "electric_scooter", "fusion_lat": 0.0, "lat": 38.89676383333333, "name": "8e8097eb7e42dbab7ab289b0ea643422", "fusion_lon": 0.0, "bike_id": "8e8097eb7e42dbab7ab289b0ea643422", "is_disabled": 0, "is_reserved": 0}, {"rental_uris": {"ios": "https://dc.lft.to/lastmile_qr_scan", "android": "https://dc.lft.to/lastmile_qr_scan"}, "lon": -77.028938, "type": "electric_scooter", "fusion_lat": 0.0, "lat": 38.90724866666667, "name": "7b4b8e2d824543e8b48095e7ffb86c4e", "fusion_lon": 0.0, "bike_id": "7b4b8e2d824543e8b48095e7ffb86c4e", "is_disabled": 0, "is_reserved": 0}, {"rental_uris": {"ios": "https://dc.lft.to/lastmile_qr_scan", "android": "https://dc.lft.to/lastmile_qr_scan"}, "lon": -76.99051933333334, "type": "electric_scooter", "fusion_lat": 0.0, "lat": 38.86351416666667, "name": "78994ebf87010d27acb4939f81e48da8", "fusion_lon": 0.0, "bike_id": "78994ebf87010d27acb4939f81e48da8", "is_disabled": 0, "is_reserved": 0}, {"rental_uris": {"ios": "https://dc.lft.to/lastmile_qr_scan", "android": "https://dc.lft.to/lastmile_qr_scan"}, "lon": -77.0532065, "type": "electric_scooter", "fusion_lat": 0.0, "lat": 38.90458566666667, "name": "22b3ce5572f48cc178648acc5fb504b9", "fusion_lon": 0.0, "bike_id": "22b3ce5572f48cc178648acc5fb504b9", "is_disabled": 0, "is_reserved": 0}, {"rental_uris": {"ios": "https://dc.lft.to/lastmile_qr_scan", "android": "https://dc.lft.to/lastmile_qr_scan"}, "lon": -77.02327583333333, "type": "electric_scooter", "fusion_lat": 0.0, "lat": 38.927050666666666, "name": "d3537c6457415a2fd379c8b326d6c593", "fusion_lon": 0.0, "bike_id": "d3537c6457415a2fd379c8b326d6c593", "is_disabled": 0, "is_reserved": 0}, {"rental_uris": {"ios": "https://dc.lft.to/lastmile_qr_scan", "android": "https://dc.lft.to/lastmile_qr_scan"}, "lon": -76.931618, "type": "electric_bike", "fusion_lat": 0.0, "lat": 38.908636333333334, "name": "fd72b4727a215ce3a9810acd5a7f49aa", "fusion_lon": 0.0, "bike_id": "fd72b4727a215ce3a9810acd5a7f49aa", "is_disabled": 0, "is_reserved": 0}, {"rental_uris": {"ios": "https://dc.lft.to/lastmile_qr_scan", "android": "https://dc.lft.to/lastmile_qr_scan"}, "lon": -77.0276135, "type": "electric_scooter", "fusion_lat": 0.0, "lat": 38.95611916666667, "name": "c24d5dca18e56cadfae036b42479ddbe", "fusion_lon": 0.0, "bike_id": "c24d5dca18e56cadfae036b42479ddbe", "is_disabled": 0, "is_reserved": 0}, {"rental_uris": {"ios": "https://dc.lft.to/lastmile_qr_scan", "android": "https://dc.lft.to/lastmile_qr_scan"}, "lon": -77.06937733333334, "type": "electric_scooter", "fusion_lat": 0.0, "lat": 38.905037166666666, "name": "2a349472c2da0feaf67a1b91151e27a4", "fusion_lon": 0.0, "bike_id": "2a349472c2da0feaf67a1b91151e27a4", "is_disabled": 0, "is_reserved": 0}, {"rental_uris": {"ios": "https://dc.lft.to/lastmile_qr_scan", "android": "https://dc.lft.to/lastmile_qr_scan"}, "lon": -77.0441855, "type": "electric_scooter", "fusion_lat": 0.0, "lat": 38.911318, "name": "aa68862f650187aff3d9570616dbc0a7", "fusion_lon": 0.0, "bike_id": "aa68862f650187aff3d9570616dbc0a7", "is_disabled": 0, "is_reserved": 0}, {"rental_uris": {"ios": "https://dc.lft.to/lastmile_qr_scan", "android": "https://dc.lft.to/lastmile_qr_scan"}, "lon": -77.04621716666666, "type": "electric_scooter", "fusion_lat": 0.0, "lat": 38.915173, "name": "a29fe510c5e9ea2f4d6dbc44d652fdd5", "fusion_lon": 0.0, "bike_id": "a29fe510c5e9ea2f4d6dbc44d652fdd5", "is_disabled": 0, "is_reserved": 0}, {"rental_uris": {"ios": "https://dc.lft.to/lastmile_qr_scan", "android": "https://dc.lft.to/lastmile_qr_scan"}, "lon": -77.01640133333333, "type": "electric_scooter", "fusion_lat": 0.0, "lat": 38.929390166666664, "name": "d56e4924ab3517abb55c0b350ff29da1", "fusion_lon": 0.0, "bike_id": "d56e4924ab3517abb55c0b350ff29da1", "is_disabled": 0, "is_reserved": 0}, {"rental_uris": {"ios": "https://dc.lft.to/lastmile_qr_scan", "android": "https://dc.lft.to/lastmile_qr_scan"}, "lon": -77.01541083333333, "type": "electric_scooter", "fusion_lat": 0.0, "lat": 38.872672666666666, "name": "be9c74bb87c32b87ab059545dbdac0af", "fusion_lon": 0.0, "bike_id": "be9c74bb87c32b87ab059545dbdac0af", "is_disabled": 0, "is_reserved": 0}, {"rental_uris": {"ios": "https://dc.lft.to/lastmile_qr_scan", "android": "https://dc.lft.to/lastmile_qr_scan"}, "lon": -77.048547, "type": "electric_scooter", "fusion_lat": 0.0, "lat": 38.9071735, "name": "6d7787cf6740c3976ea547aa12a3a05d", "fusion_lon": 0.0, "bike_id": "6d7787cf6740c3976ea547aa12a3a05d", "is_disabled": 0, "is_reserved": 0}, {"rental_uris": {"ios": "https://dc.lft.to/lastmile_qr_scan", "android": "https://dc.lft.to/lastmile_qr_scan"}, "lon": -77.03977283333333, "type": "electric_scooter", "fusion_lat": 0.0, "lat": 38.9231665, "name": "6a9e962bc6454d3a2da9a2eb5fcbe41e", "fusion_lon": 0.0, "bike_id": "6a9e962bc6454d3a2da9a2eb5fcbe41e", "is_disabled": 0, "is_reserved": 0}, {"rental_uris": {"ios": "https://dc.lft.to/lastmile_qr_scan", "android": "https://dc.lft.to/lastmile_qr_scan"}, "lon": -77.06878966666666, "type": "electric_scooter", "fusion_lat": 0.0, "lat": 38.905098, "name": "15bdc03276fd373f67db7b9726c9d061", "fusion_lon": 0.0, "bike_id": "15bdc03276fd373f67db7b9726c9d061", "is_disabled": 0, "is_reserved": 0}, {"rental_uris": {"ios": "https://dc.lft.to/lastmile_qr_scan", "android": "https://dc.lft.to/lastmile_qr_scan"}, "lon": -77.03094333333334, "type": "electric_bike", "fusion_lat": 0.0, "lat": 38.940795, "name": "24ec4a3e9d0bdbf9260385360adea131", "fusion_lon": 0.0, "bike_id": "24ec4a3e9d0bdbf9260385360adea131", "is_disabled": 0, "is_reserved": 0}, {"rental_uris": {"ios": "https://dc.lft.to/lastmile_qr_scan", "android": "https://dc.lft.to/lastmile_qr_scan"}, "lon": -77.0240645, "type": "electric_scooter", "fusion_lat": 0.0, "lat": 38.909606833333335, "name": "3a5acfdde6488f28b971a1fcd2704855", "fusion_lon": 0.0, "bike_id": "3a5acfdde6488f28b971a1fcd2704855", "is_disabled": 0, "is_reserved": 0}, {"rental_uris": {"ios": "https://dc.lft.to/lastmile_qr_scan", "android": "https://dc.lft.to/lastmile_qr_scan"}, "lon": -76.99481983333334, "type": "electric_scooter", "fusion_lat": 0.0, "lat": 38.902300333333336, "name": "fc7b3ad271c9cc03da9614fabd45790e", "fusion_lon": 0.0, "bike_id": "fc7b3ad271c9cc03da9614fabd45790e", "is_disabled": 0, "is_reserved": 0}, {"rental_uris": {"ios": "https://dc.lft.to/lastmile_qr_scan", "android": "https://dc.lft.to/lastmile_qr_scan"}, "lon": -77.04029183333333, "type": "electric_scooter", "fusion_lat": 0.0, "lat": 38.92440583333333, "name": "dc964f1b45a863c618cffcbc3d3c7563", "fusion_lon": 0.0, "bike_id": "dc964f1b45a863c618cffcbc3d3c7563", "is_disabled": 0, "is_reserved": 0}, {"rental_uris": {"ios": "https://dc.lft.to/lastmile_qr_scan", "android": "https://dc.lft.to/lastmile_qr_scan"}, "lon": -77.03861916666666, "type": "electric_scooter", "fusion_lat": 0.0, "lat": 38.907754, "name": "5884a93ce7474fefc44ab1d8f8d746d4", "fusion_lon": 0.0, "bike_id": "5884a93ce7474fefc44ab1d8f8d746d4", "is_disabled": 0, "is_reserved": 0}, {"rental_uris": {"ios": "https://dc.lft.to/lastmile_qr_scan", "android": "https://dc.lft.to/lastmile_qr_scan"}, "lon": -77.02502116666666, "type": "electric_scooter", "fusion_lat": 0.0, "lat": 38.9072905, "name": "008f460d7e9e51c3330e3101ced4a9ab", "fusion_lon": 0.0, "bike_id": "008f460d7e9e51c3330e3101ced4a9ab", "is_disabled": 0, "is_reserved": 0}, {"rental_uris": {"ios": "https://dc.lft.to/lastmile_qr_scan", "android": "https://dc.lft.to/lastmile_qr_scan"}, "lon": -77.01215816666667, "type": "electric_scooter", "fusion_lat": 0.0, "lat": 38.914181166666665, "name": "932050f939a3e2aa1d3f6e3881ed58de", "fusion_lon": 0.0, "bike_id": "932050f939a3e2aa1d3f6e3881ed58de", "is_disabled": 0, "is_reserved": 0}, {"rental_uris": {"ios": "https://dc.lft.to/lastmile_qr_scan", "android": "https://dc.lft.to/lastmile_qr_scan"}, "lon": -76.94997683333334, "type": "electric_scooter", "fusion_lat": 0.0, "lat": 38.89376566666667, "name": "fd988ee2141609a3f3cf4cc8a458db45", "fusion_lon": 0.0, "bike_id": "fd988ee2141609a3f3cf4cc8a458db45", "is_disabled": 0, "is_reserved": 0}, {"rental_uris": {"ios": "https://dc.lft.to/lastmile_qr_scan", "android": "https://dc.lft.to/lastmile_qr_scan"}, "lon": -77.03864483333334, "type": "electric_scooter", "fusion_lat": 0.0, "lat": 38.90303333333333, "name": "bacfc3567cefa091b1dbe36f259ab7ae", "fusion_lon": 0.0, "bike_id": "bacfc3567cefa091b1dbe36f259ab7ae", "is_disabled": 0, "is_reserved": 0}, {"rental_uris": {"ios": "https://dc.lft.to/lastmile_qr_scan", "android": "https://dc.lft.to/lastmile_qr_scan"}, "lon": -77.08264866666667, "type": "electric_scooter", "fusion_lat": 0.0, "lat": 38.9303445, "name": "d2c7a8ef4da026d0cd40850744e99e11", "fusion_lon": 0.0, "bike_id": "d2c7a8ef4da026d0cd40850744e99e11", "is_disabled": 0, "is_reserved": 0}, {"rental_uris": {"ios": "https://dc.lft.to/lastmile_qr_scan", "android": "https://dc.lft.to/lastmile_qr_scan"}, "lon": -77.07196683333333, "type": "electric_scooter", "fusion_lat": 0.0, "lat": 38.931899, "name": "57708684550d3d4437349cd832117bac", "fusion_lon": 0.0, "bike_id": "57708684550d3d4437349cd832117bac", "is_disabled": 0, "is_reserved": 0}, {"rental_uris": {"ios": "https://dc.lft.to/lastmile_qr_scan", "android": "https://dc.lft.to/lastmile_qr_scan"}, "lon": -77.050618, "type": "electric_scooter", "fusion_lat": 0.0, "lat": 38.900771166666665, "name": "c7b4b82b6a85a30785252fcd25987099", "fusion_lon": 0.0, "bike_id": "c7b4b82b6a85a30785252fcd25987099", "is_disabled": 0, "is_reserved": 0}, {"rental_uris": {"ios": "https://dc.lft.to/lastmile_qr_scan", "android": "https://dc.lft.to/lastmile_qr_scan"}, "lon": -77.03812383333333, "type": "electric_bike", "fusion_lat": 0.0, "lat": 38.91818966666666, "name": "ab9ed23beb46f7c7c37f8b04037b50c1", "fusion_lon": 0.0, "bike_id": "ab9ed23beb46f7c7c37f8b04037b50c1", "is_disabled": 0, "is_reserved": 0}, {"rental_uris": {"ios": "https://dc.lft.to/lastmile_qr_scan", "android": "https://dc.lft.to/lastmile_qr_scan"}, "lon": -77.02468283333333, "type": "electric_scooter", "fusion_lat": 0.0, "lat": 38.9309325, "name": "8b03ab3c412ca4bdc26787cab3d3a92f", "fusion_lon": 0.0, "bike_id": "8b03ab3c412ca4bdc26787cab3d3a92f", "is_disabled": 0, "is_reserved": 0}, {"rental_uris": {"ios": "https://dc.lft.to/lastmile_qr_scan", "android": "https://dc.lft.to/lastmile_qr_scan"}, "lon": -77.182891, "type": "electric_bike", "fusion_lat": 0.0, "lat": 38.883425833333334, "name": "7113029a82b7c30f0bc4e584d2a63559", "fusion_lon": 0.0, "bike_id": "7113029a82b7c30f0bc4e584d2a63559", "is_disabled": 0, "is_reserved": 0}, {"rental_uris": {"ios": "https://dc.lft.to/lastmile_qr_scan", "android": "https://dc.lft.to/lastmile_qr_scan"}, "lon": -77.017873, "type": "electric_scooter", "fusion_lat": 0.0, "lat": 38.900512666666664, "name": "73f534f4447daad09706bf6e457e447a", "fusion_lon": 0.0, "bike_id": "73f534f4447daad09706bf6e457e447a", "is_disabled": 0, "is_reserved": 0}, {"rental_uris": {"ios": "https://dc.lft.to/lastmile_qr_scan", "android": "https://dc.lft.to/lastmile_qr_scan"}, "lon": -76.97818366666667, "type": "electric_scooter", "fusion_lat": 0.0, "lat": 38.89515266666667, "name": "04d5d2185b26ee3d389f16889f8d1692", "fusion_lon": 0.0, "bike_id": "04d5d2185b26ee3d389f16889f8d1692", "is_disabled": 0, "is_reserved": 0}, {"rental_uris": {"ios": "https://dc.lft.to/lastmile_qr_scan", "android": "https://dc.lft.to/lastmile_qr_scan"}, "lon": -77.03323883333333, "type": "electric_scooter", "fusion_lat": 0.0, "lat": 38.90156866666667, "name": "6cd66eb0e22528f0c7389dff91c2394d", "fusion_lon": 0.0, "bike_id": "6cd66eb0e22528f0c7389dff91c2394d", "is_disabled": 0, "is_reserved": 0}, {"rental_uris": {"ios": "https://dc.lft.to/lastmile_qr_scan", "android": "https://dc.lft.to/lastmile_qr_scan"}, "lon": -77.03465166666666, "type": "electric_scooter", "fusion_lat": 0.0, "lat": 38.90767783333333, "name": "aa5e730f014bc92df4acc23d3f204769", "fusion_lon": 0.0, "bike_id": "aa5e730f014bc92df4acc23d3f204769", "is_disabled": 0, "is_reserved": 0}, {"rental_uris": {"ios": "https://dc.lft.to/lastmile_qr_scan", "android": "https://dc.lft.to/lastmile_qr_scan"}, "lon": -77.00769666666666, "type": "electric_scooter", "fusion_lat": 0.0, "lat": 38.911151333333336, "name": "049642122ea96ba31efc6136725593b4", "fusion_lon": 0.0, "bike_id": "049642122ea96ba31efc6136725593b4", "is_disabled": 0, "is_reserved": 0}, {"rental_uris": {"ios": "https://dc.lft.to/lastmile_qr_scan", "android": "https://dc.lft.to/lastmile_qr_scan"}, "lon": -77.03280366666667, "type": "electric_scooter", "fusion_lat": 0.0, "lat": 38.9285125, "name": "e7a5601f75e6d441eeeafcba9dce8c8a", "fusion_lon": 0.0, "bike_id": "e7a5601f75e6d441eeeafcba9dce8c8a", "is_disabled": 0, "is_reserved": 0}, {"rental_uris": {"ios": "https://dc.lft.to/lastmile_qr_scan", "android": "https://dc.lft.to/lastmile_qr_scan"}, "lon": -76.98005566666667, "type": "electric_bike", "fusion_lat": 0.0, "lat": 38.8629165, "name": "c4f58beb2c1b29662edb70ba7d9bdb9f", "fusion_lon": 0.0, "bike_id": "c4f58beb2c1b29662edb70ba7d9bdb9f", "is_disabled": 0, "is_reserved": 0}, {"rental_uris": {"ios": "https://dc.lft.to/lastmile_qr_scan", "android": "https://dc.lft.to/lastmile_qr_scan"}, "lon": -77.07241566666667, "type": "electric_scooter", "fusion_lat": 0.0, "lat": 38.934025, "name": "0ff9f27f15644d39413e72cbc3f973f0", "fusion_lon": 0.0, "bike_id": "0ff9f27f15644d39413e72cbc3f973f0", "is_disabled": 0, "is_reserved": 0}, {"rental_uris": {"ios": "https://dc.lft.to/lastmile_qr_scan", "android": "https://dc.lft.to/lastmile_qr_scan"}, "lon": -76.930974, "type": "electric_scooter", "fusion_lat": 0.0, "lat": 38.90139633333333, "name": "a233a6a9ba29bb8394d21486ca113f8a", "fusion_lon": 0.0, "bike_id": "a233a6a9ba29bb8394d21486ca113f8a", "is_disabled": 0, "is_reserved": 0}, {"rental_uris": {"ios": "https://dc.lft.to/lastmile_qr_scan", "android": "https://dc.lft.to/lastmile_qr_scan"}, "lon": -77.05349616666666, "type": "electric_scooter", "fusion_lat": 0.0, "lat": 38.90247033333333, "name": "925630d7b9578bec679de4ee27ba01bf", "fusion_lon": 0.0, "bike_id": "925630d7b9578bec679de4ee27ba01bf", "is_disabled": 0, "is_reserved": 0}, {"rental_uris": {"ios": "https://dc.lft.to/lastmile_qr_scan", "android": "https://dc.lft.to/lastmile_qr_scan"}, "lon": -76.98551833333333, "type": "electric_scooter", "fusion_lat": 0.0, "lat": 38.897678666666664, "name": "94c4b6b9cc8de87cb9fe43f64cb73ab0", "fusion_lon": 0.0, "bike_id": "94c4b6b9cc8de87cb9fe43f64cb73ab0", "is_disabled": 0, "is_reserved": 0}, {"rental_uris": {"ios": "https://dc.lft.to/lastmile_qr_scan", "android": "https://dc.lft.to/lastmile_qr_scan"}, "lon": -77.02589066666667, "type": "electric_scooter", "fusion_lat": 0.0, "lat": 38.929861, "name": "587bd5aba597a4f32639b6be6fa06cc0", "fusion_lon": 0.0, "bike_id": "587bd5aba597a4f32639b6be6fa06cc0", "is_disabled": 0, "is_reserved": 0}, {"rental_uris": {"ios": "https://dc.lft.to/lastmile_qr_scan", "android": "https://dc.lft.to/lastmile_qr_scan"}, "lon": -77.04240466666667, "type": "electric_scooter", "fusion_lat": 0.0, "lat": 38.92161466666667, "name": "3dc8034503a69d206abe62dea3d337e2", "fusion_lon": 0.0, "bike_id": "3dc8034503a69d206abe62dea3d337e2", "is_disabled": 0, "is_reserved": 0}, {"rental_uris": {"ios": "https://dc.lft.to/lastmile_qr_scan", "android": "https://dc.lft.to/lastmile_qr_scan"}, "lon": -77.04543683333333, "type": "electric_scooter", "fusion_lat": 0.0, "lat": 38.934076, "name": "ce464ec675a76304c3cac0a010589a0f", "fusion_lon": 0.0, "bike_id": "ce464ec675a76304c3cac0a010589a0f", "is_disabled": 0, "is_reserved": 0}, {"rental_uris": {"ios": "https://dc.lft.to/lastmile_qr_scan", "android": "https://dc.lft.to/lastmile_qr_scan"}, "lon": -77.03289183333334, "type": "electric_scooter", "fusion_lat": 0.0, "lat": 38.92349766666667, "name": "b264f156dc27a907c54d2f53ea25aa33", "fusion_lon": 0.0, "bike_id": "b264f156dc27a907c54d2f53ea25aa33", "is_disabled": 0, "is_reserved": 0}, {"rental_uris": {"ios": "https://dc.lft.to/lastmile_qr_scan", "android": "https://dc.lft.to/lastmile_qr_scan"}, "lon": -76.946337, "type": "electric_scooter", "fusion_lat": 0.0, "lat": 38.89832066666666, "name": "b4d2890ac5ce2a1a9c9cc9b9103a5f1b", "fusion_lon": 0.0, "bike_id": "b4d2890ac5ce2a1a9c9cc9b9103a5f1b", "is_disabled": 0, "is_reserved": 0}, {"rental_uris": {"ios": "https://dc.lft.to/lastmile_qr_scan", "android": "https://dc.lft.to/lastmile_qr_scan"}, "lon": -77.10456683333334, "type": "electric_bike", "fusion_lat": 0.0, "lat": 38.89638516666667, "name": "57db2363febdeecb38a5b3c7da27cced", "fusion_lon": 0.0, "bike_id": "57db2363febdeecb38a5b3c7da27cced", "is_disabled": 0, "is_reserved": 0}, {"rental_uris": {"ios": "https://dc.lft.to/lastmile_qr_scan", "android": "https://dc.lft.to/lastmile_qr_scan"}, "lon": -77.00116333333334, "type": "electric_scooter", "fusion_lat": 0.0, "lat": 38.908469, "name": "79206ec2fbcd8df38656531483526978", "fusion_lon": 0.0, "bike_id": "79206ec2fbcd8df38656531483526978", "is_disabled": 0, "is_reserved": 0}, {"rental_uris": {"ios": "https://dc.lft.to/lastmile_qr_scan", "android": "https://dc.lft.to/lastmile_qr_scan"}, "lon": -77.02201316666667, "type": "electric_scooter", "fusion_lat": 0.0, "lat": 38.910464, "name": "9894378b77227c3792c6063e9eecf42a", "fusion_lon": 0.0, "bike_id": "9894378b77227c3792c6063e9eecf42a", "is_disabled": 0, "is_reserved": 0}, {"rental_uris": {"ios": "https://dc.lft.to/lastmile_qr_scan", "android": "https://dc.lft.to/lastmile_qr_scan"}, "lon": -77.027038, "type": "electric_scooter", "fusion_lat": 0.0, "lat": 38.949993166666665, "name": "b57ca6c2ae63968d9379641686c5f674", "fusion_lon": 0.0, "bike_id": "b57ca6c2ae63968d9379641686c5f674", "is_disabled": 0, "is_reserved": 0}, {"rental_uris": {"ios": "https://dc.lft.to/lastmile_qr_scan", "android": "https://dc.lft.to/lastmile_qr_scan"}, "lon": -77.04438216666667, "type": "electric_scooter", "fusion_lat": 0.0, "lat": 38.91013866666667, "name": "37e60517404ed02b76c67389bed7f6fb", "fusion_lon": 0.0, "bike_id": "37e60517404ed02b76c67389bed7f6fb", "is_disabled": 0, "is_reserved": 0}, {"rental_uris": {"ios": "https://dc.lft.to/lastmile_qr_scan", "android": "https://dc.lft.to/lastmile_qr_scan"}, "lon": -77.07907466666667, "type": "electric_bike", "fusion_lat": 0.0, "lat": 38.83936583333333, "name": "ab302f955861b1265a7ae075ffb0097b", "fusion_lon": 0.0, "bike_id": "ab302f955861b1265a7ae075ffb0097b", "is_disabled": 0, "is_reserved": 0}, {"rental_uris": {"ios": "https://dc.lft.to/lastmile_qr_scan", "android": "https://dc.lft.to/lastmile_qr_scan"}, "lon": -77.0033945, "type": "electric_scooter", "fusion_lat": 0.0, "lat": 38.9134335, "name": "d1a98a6b2accd3da696a0f1abeb1ce4b", "fusion_lon": 0.0, "bike_id": "d1a98a6b2accd3da696a0f1abeb1ce4b", "is_disabled": 0, "is_reserved": 0}, {"rental_uris": {"ios": "https://dc.lft.to/lastmile_qr_scan", "android": "https://dc.lft.to/lastmile_qr_scan"}, "lon": -76.93616483333334, "type": "electric_bike", "fusion_lat": 0.0, "lat": 38.970653, "name": "16e4c4a9e55de1ef64adb11dc448585b", "fusion_lon": 0.0, "bike_id": "16e4c4a9e55de1ef64adb11dc448585b", "is_disabled": 0, "is_reserved": 0}, {"rental_uris": {"ios": "https://dc.lft.to/lastmile_qr_scan", "android": "https://dc.lft.to/lastmile_qr_scan"}, "lon": -77.00656583333334, "type": "electric_scooter", "fusion_lat": 0.0, "lat": 38.8764095, "name": "4431c3a41ccbdfd78075706a5d127b39", "fusion_lon": 0.0, "bike_id": "4431c3a41ccbdfd78075706a5d127b39", "is_disabled": 0, "is_reserved": 0}, {"rental_uris": {"ios": "https://dc.lft.to/lastmile_qr_scan", "android": "https://dc.lft.to/lastmile_qr_scan"}, "lon": -77.0020185, "type": "electric_scooter", "fusion_lat": 0.0, "lat": 38.911948833333334, "name": "0236bed804f83302d82fac033eeac8de", "fusion_lon": 0.0, "bike_id": "0236bed804f83302d82fac033eeac8de", "is_disabled": 0, "is_reserved": 0}, {"rental_uris": {"ios": "https://dc.lft.to/lastmile_qr_scan", "android": "https://dc.lft.to/lastmile_qr_scan"}, "lon": -77.02474616666667, "type": "electric_scooter", "fusion_lat": 0.0, "lat": 38.9385005, "name": "b579316551ddb496780a0f55a3d996c6", "fusion_lon": 0.0, "bike_id": "b579316551ddb496780a0f55a3d996c6", "is_disabled": 0, "is_reserved": 0}, {"rental_uris": {"ios": "https://dc.lft.to/lastmile_qr_scan", "android": "https://dc.lft.to/lastmile_qr_scan"}, "lon": -76.9809255, "type": "electric_bike", "fusion_lat": 0.0, "lat": 38.902831, "name": "cdbb439fd8cf649c4ba9d0d8eb8e658c", "fusion_lon": 0.0, "bike_id": "cdbb439fd8cf649c4ba9d0d8eb8e658c", "is_disabled": 0, "is_reserved": 0}, {"rental_uris": {"ios": "https://dc.lft.to/lastmile_qr_scan", "android": "https://dc.lft.to/lastmile_qr_scan"}, "lon": -77.02351883333333, "type": "electric_scooter", "fusion_lat": 0.0, "lat": 38.933904166666665, "name": "9a125ba5a2debe301992b2e9edc0807f", "fusion_lon": 0.0, "bike_id": "9a125ba5a2debe301992b2e9edc0807f", "is_disabled": 0, "is_reserved": 0}, {"rental_uris": {"ios": "https://dc.lft.to/lastmile_qr_scan", "android": "https://dc.lft.to/lastmile_qr_scan"}, "lon": -77.01989, "type": "electric_scooter", "fusion_lat": 0.0, "lat": 38.9378255, "name": "2159411b7b93782aea2def22e2ca903e", "fusion_lon": 0.0, "bike_id": "2159411b7b93782aea2def22e2ca903e", "is_disabled": 0, "is_reserved": 0}, {"rental_uris": {"ios": "https://dc.lft.to/lastmile_qr_scan", "android": "https://dc.lft.to/lastmile_qr_scan"}, "lon": -77.02837966666667, "type": "electric_scooter", "fusion_lat": 0.0, "lat": 38.928641999999996, "name": "fad2ea26743a6e6228a63ae417e1bb17", "fusion_lon": 0.0, "bike_id": "fad2ea26743a6e6228a63ae417e1bb17", "is_disabled": 0, "is_reserved": 0}, {"rental_uris": {"ios": "https://dc.lft.to/lastmile_qr_scan", "android": "https://dc.lft.to/lastmile_qr_scan"}, "lon": -77.01019816666667, "type": "electric_scooter", "fusion_lat": 0.0, "lat": 38.91818383333333, "name": "369955ca04e31f722ec2c4985a3c34f3", "fusion_lon": 0.0, "bike_id": "369955ca04e31f722ec2c4985a3c34f3", "is_disabled": 0, "is_reserved": 0}, {"rental_uris": {"ios": "https://dc.lft.to/lastmile_qr_scan", "android": "https://dc.lft.to/lastmile_qr_scan"}, "lon": -77.05925433333333, "type": "electric_scooter", "fusion_lat": 0.0, "lat": 38.909527, "name": "800764634f8e27ebcfa62d90389541c1", "fusion_lon": 0.0, "bike_id": "800764634f8e27ebcfa62d90389541c1", "is_disabled": 0, "is_reserved": 0}, {"rental_uris": {"ios": "https://dc.lft.to/lastmile_qr_scan", "android": "https://dc.lft.to/lastmile_qr_scan"}, "lon": -76.99000833333334, "type": "electric_scooter", "fusion_lat": 0.0, "lat": 38.90387333333334, "name": "7c93a54990a4ce17d40487786f1d02af", "fusion_lon": 0.0, "bike_id": "7c93a54990a4ce17d40487786f1d02af", "is_disabled": 0, "is_reserved": 0}, {"rental_uris": {"ios": "https://dc.lft.to/lastmile_qr_scan", "android": "https://dc.lft.to/lastmile_qr_scan"}, "lon": -76.995517, "type": "electric_scooter", "fusion_lat": 0.0, "lat": 38.86235933333333, "name": "2a4af2427d85761fa22b6e45855157ae", "fusion_lon": 0.0, "bike_id": "2a4af2427d85761fa22b6e45855157ae", "is_disabled": 0, "is_reserved": 0}, {"rental_uris": {"ios": "https://dc.lft.to/lastmile_qr_scan", "android": "https://dc.lft.to/lastmile_qr_scan"}, "lon": -77.03571816666667, "type": "electric_scooter", "fusion_lat": 0.0, "lat": 38.927432833333334, "name": "8a503ed89111ccc3cd7f771cc67c2ffb", "fusion_lon": 0.0, "bike_id": "8a503ed89111ccc3cd7f771cc67c2ffb", "is_disabled": 0, "is_reserved": 0}, {"rental_uris": {"ios": "https://dc.lft.to/lastmile_qr_scan", "android": "https://dc.lft.to/lastmile_qr_scan"}, "lon": -77.033162, "type": "electric_scooter", "fusion_lat": 0.0, "lat": 38.920587, "name": "f1f8afa1f8f9db7dfa7e4b60d7bc8c32", "fusion_lon": 0.0, "bike_id": "f1f8afa1f8f9db7dfa7e4b60d7bc8c32", "is_disabled": 0, "is_reserved": 0}, {"rental_uris": {"ios": "https://dc.lft.to/lastmile_qr_scan", "android": "https://dc.lft.to/lastmile_qr_scan"}, "lon": -77.11204333333333, "type": "electric_bike", "fusion_lat": 0.0, "lat": 38.81307266666666, "name": "983ba40667c0ca419cb5bda12c049a4d", "fusion_lon": 0.0, "bike_id": "983ba40667c0ca419cb5bda12c049a4d", "is_disabled": 0, "is_reserved": 0}, {"rental_uris": {"ios": "https://dc.lft.to/lastmile_qr_scan", "android": "https://dc.lft.to/lastmile_qr_scan"}, "lon": -77.04385616666667, "type": "electric_scooter", "fusion_lat": 0.0, "lat": 38.92065933333333, "name": "4bd4bba1efb7708ffaebd2bbbf18cd0e", "fusion_lon": 0.0, "bike_id": "4bd4bba1efb7708ffaebd2bbbf18cd0e", "is_disabled": 0, "is_reserved": 0}, {"rental_uris": {"ios": "https://dc.lft.to/lastmile_qr_scan", "android": "https://dc.lft.to/lastmile_qr_scan"}, "lon": -77.04315333333334, "type": "electric_scooter", "fusion_lat": 0.0, "lat": 38.91484966666667, "name": "5428ddbb6ae02de8ed9e02b9769b1bfa", "fusion_lon": 0.0, "bike_id": "5428ddbb6ae02de8ed9e02b9769b1bfa", "is_disabled": 0, "is_reserved": 0}, {"rental_uris": {"ios": "https://dc.lft.to/lastmile_qr_scan", "android": "https://dc.lft.to/lastmile_qr_scan"}, "lon": -76.93524166666667, "type": "electric_bike", "fusion_lat": 0.0, "lat": 38.955483666666666, "name": "67d3c482941b9a1ddb1f0f3c8096aa97", "fusion_lon": 0.0, "bike_id": "67d3c482941b9a1ddb1f0f3c8096aa97", "is_disabled": 0, "is_reserved": 0}, {"rental_uris": {"ios": "https://dc.lft.to/lastmile_qr_scan", "android": "https://dc.lft.to/lastmile_qr_scan"}, "lon": -77.04805066666667, "type": "electric_scooter", "fusion_lat": 0.0, "lat": 38.896103, "name": "b6edf28d733bb558de62944c0e2d428d", "fusion_lon": 0.0, "bike_id": "b6edf28d733bb558de62944c0e2d428d", "is_disabled": 0, "is_reserved": 0}, {"rental_uris": {"ios": "https://dc.lft.to/lastmile_qr_scan", "android": "https://dc.lft.to/lastmile_qr_scan"}, "lon": -77.12260983333333, "type": "electric_bike", "fusion_lat": 0.0, "lat": 38.891894, "name": "9e1524aa9f65341e2b1b7126fd04c6ef", "fusion_lon": 0.0, "bike_id": "9e1524aa9f65341e2b1b7126fd04c6ef", "is_disabled": 0, "is_reserved": 0}, {"rental_uris": {"ios": "https://dc.lft.to/lastmile_qr_scan", "android": "https://dc.lft.to/lastmile_qr_scan"}, "lon": -77.0352735, "type": "electric_scooter", "fusion_lat": 0.0, "lat": 38.923334, "name": "ce2a07f275815234d7a52a3750b4231f", "fusion_lon": 0.0, "bike_id": "ce2a07f275815234d7a52a3750b4231f", "is_disabled": 0, "is_reserved": 0}, {"rental_uris": {"ios": "https://dc.lft.to/lastmile_qr_scan", "android": "https://dc.lft.to/lastmile_qr_scan"}, "lon": -77.047295, "type": "electric_scooter", "fusion_lat": 0.0, "lat": 38.902382333333335, "name": "ae3d887c32b6b38d3e40c50aef8ffb22", "fusion_lon": 0.0, "bike_id": "ae3d887c32b6b38d3e40c50aef8ffb22", "is_disabled": 0, "is_reserved": 0}, {"rental_uris": {"ios": "https://dc.lft.to/lastmile_qr_scan", "android": "https://dc.lft.to/lastmile_qr_scan"}, "lon": -77.07682533333333, "type": "electric_bike", "fusion_lat": 0.0, "lat": 38.83194266666667, "name": "254bb0c37747534cd4d50c5a018a1247", "fusion_lon": 0.0, "bike_id": "254bb0c37747534cd4d50c5a018a1247", "is_disabled": 0, "is_reserved": 0}, {"rental_uris": {"ios": "https://dc.lft.to/lastmile_qr_scan", "android": "https://dc.lft.to/lastmile_qr_scan"}, "lon": -77.02961916666666, "type": "electric_scooter", "fusion_lat": 0.0, "lat": 38.88439266666666, "name": "cdb90fa74d8e0783feb38c03373ddf3b", "fusion_lon": 0.0, "bike_id": "cdb90fa74d8e0783feb38c03373ddf3b", "is_disabled": 0, "is_reserved": 0}, {"rental_uris": {"ios": "https://dc.lft.to/lastmile_qr_scan", "android": "https://dc.lft.to/lastmile_qr_scan"}, "lon": -77.03720933333334, "type": "electric_scooter", "fusion_lat": 0.0, "lat": 38.933629, "name": "6011fbb138a7a9a9d167fffaf2c778e0", "fusion_lon": 0.0, "bike_id": "6011fbb138a7a9a9d167fffaf2c778e0", "is_disabled": 0, "is_reserved": 0}, {"rental_uris": {"ios": "https://dc.lft.to/lastmile_qr_scan", "android": "https://dc.lft.to/lastmile_qr_scan"}, "lon": -76.97808633333334, "type": "electric_scooter", "fusion_lat": 0.0, "lat": 38.9067495, "name": "ae63b7fa0cde2eaf41baea0bff0de629", "fusion_lon": 0.0, "bike_id": "ae63b7fa0cde2eaf41baea0bff0de629", "is_disabled": 0, "is_reserved": 0}, {"rental_uris": {"ios": "https://dc.lft.to/lastmile_qr_scan", "android": "https://dc.lft.to/lastmile_qr_scan"}, "lon": -77.03229283333333, "type": "electric_scooter", "fusion_lat": 0.0, "lat": 38.92581533333333, "name": "c493886db8ce08cf696b4898f73516c9", "fusion_lon": 0.0, "bike_id": "c493886db8ce08cf696b4898f73516c9", "is_disabled": 0, "is_reserved": 0}, {"rental_uris": {"ios": "https://dc.lft.to/lastmile_qr_scan", "android": "https://dc.lft.to/lastmile_qr_scan"}, "lon": -77.03213466666666, "type": "electric_scooter", "fusion_lat": 0.0, "lat": 38.919997333333335, "name": "8134941ad9cbb8a665b447c5b2c4baba", "fusion_lon": 0.0, "bike_id": "8134941ad9cbb8a665b447c5b2c4baba", "is_disabled": 0, "is_reserved": 0}, {"rental_uris": {"ios": "https://dc.lft.to/lastmile_qr_scan", "android": "https://dc.lft.to/lastmile_qr_scan"}, "lon": -77.02963916666667, "type": "electric_scooter", "fusion_lat": 0.0, "lat": 38.9072255, "name": "e9ef8d5465eea35016ed4e9ea6f0ea57", "fusion_lon": 0.0, "bike_id": "e9ef8d5465eea35016ed4e9ea6f0ea57", "is_disabled": 0, "is_reserved": 0}, {"rental_uris": {"ios": "https://dc.lft.to/lastmile_qr_scan", "android": "https://dc.lft.to/lastmile_qr_scan"}, "lon": -76.9967715, "type": "electric_scooter", "fusion_lat": 0.0, "lat": 38.91009533333333, "name": "22dbca6cb04ce60e9237a6d45e9d123d", "fusion_lon": 0.0, "bike_id": "22dbca6cb04ce60e9237a6d45e9d123d", "is_disabled": 0, "is_reserved": 0}, {"rental_uris": {"ios": "https://dc.lft.to/lastmile_qr_scan", "android": "https://dc.lft.to/lastmile_qr_scan"}, "lon": -77.06102666666666, "type": "electric_scooter", "fusion_lat": 0.0, "lat": 38.937192833333334, "name": "b863c55a11d3a93c853ce548d49358f2", "fusion_lon": 0.0, "bike_id": "b863c55a11d3a93c853ce548d49358f2", "is_disabled": 0, "is_reserved": 0}, {"rental_uris": {"ios": "https://dc.lft.to/lastmile_qr_scan", "android": "https://dc.lft.to/lastmile_qr_scan"}, "lon": -76.99515283333334, "type": "electric_scooter", "fusion_lat": 0.0, "lat": 38.89485033333333, "name": "6319a7cfd269166287e5e61e6410de14", "fusion_lon": 0.0, "bike_id": "6319a7cfd269166287e5e61e6410de14", "is_disabled": 0, "is_reserved": 0}, {"rental_uris": {"ios": "https://dc.lft.to/lastmile_qr_scan", "android": "https://dc.lft.to/lastmile_qr_scan"}, "lon": -76.99554116666667, "type": "electric_scooter", "fusion_lat": 0.0, "lat": 38.92885, "name": "98c56236736c6226d6d497630f2a43eb", "fusion_lon": 0.0, "bike_id": "98c56236736c6226d6d497630f2a43eb", "is_disabled": 0, "is_reserved": 0}, {"rental_uris": {"ios": "https://dc.lft.to/lastmile_qr_scan", "android": "https://dc.lft.to/lastmile_qr_scan"}, "lon": -76.93885533333334, "type": "electric_scooter", "fusion_lat": 0.0, "lat": 38.90086016666667, "name": "4f0c11eb6e15e982a119648bce7c2631", "fusion_lon": 0.0, "bike_id": "4f0c11eb6e15e982a119648bce7c2631", "is_disabled": 0, "is_reserved": 0}, {"rental_uris": {"ios": "https://dc.lft.to/lastmile_qr_scan", "android": "https://dc.lft.to/lastmile_qr_scan"}, "lon": -76.98653383333334, "type": "electric_scooter", "fusion_lat": 0.0, "lat": 38.85806983333333, "name": "2c37913f7f5a93da08e3986e0f9232c7", "fusion_lon": 0.0, "bike_id": "2c37913f7f5a93da08e3986e0f9232c7", "is_disabled": 0, "is_reserved": 0}, {"rental_uris": {"ios": "https://dc.lft.to/lastmile_qr_scan", "android": "https://dc.lft.to/lastmile_qr_scan"}, "lon": -76.99614266666667, "type": "electric_scooter", "fusion_lat": 0.0, "lat": 38.897450666666664, "name": "62071c505241861e7e67dcd59577506f", "fusion_lon": 0.0, "bike_id": "62071c505241861e7e67dcd59577506f", "is_disabled": 0, "is_reserved": 0}, {"rental_uris": {"ios": "https://dc.lft.to/lastmile_qr_scan", "android": "https://dc.lft.to/lastmile_qr_scan"}, "lon": -77.044974, "type": "electric_scooter", "fusion_lat": 0.0, "lat": 38.900205666666665, "name": "83581e6c649b92e3a7a6504741323d12", "fusion_lon": 0.0, "bike_id": "83581e6c649b92e3a7a6504741323d12", "is_disabled": 0, "is_reserved": 0}, {"rental_uris": {"ios": "https://dc.lft.to/lastmile_qr_scan", "android": "https://dc.lft.to/lastmile_qr_scan"}, "lon": -77.04657616666667, "type": "electric_scooter", "fusion_lat": 0.0, "lat": 38.907569333333335, "name": "340084a1207ee2a06de1eaacbbdb9525", "fusion_lon": 0.0, "bike_id": "340084a1207ee2a06de1eaacbbdb9525", "is_disabled": 0, "is_reserved": 0}, {"rental_uris": {"ios": "https://dc.lft.to/lastmile_qr_scan", "android": "https://dc.lft.to/lastmile_qr_scan"}, "lon": -77.039994, "type": "electric_scooter", "fusion_lat": 0.0, "lat": 38.908384833333336, "name": "eb2b2c377d7fc20529d08204686a4b5c", "fusion_lon": 0.0, "bike_id": "eb2b2c377d7fc20529d08204686a4b5c", "is_disabled": 0, "is_reserved": 0}, {"rental_uris": {"ios": "https://dc.lft.to/lastmile_qr_scan", "android": "https://dc.lft.to/lastmile_qr_scan"}, "lon": -77.00660233333333, "type": "electric_scooter", "fusion_lat": 0.0, "lat": 38.91197983333333, "name": "55ca5f7354f0a76e3c75a240f6c972a6", "fusion_lon": 0.0, "bike_id": "55ca5f7354f0a76e3c75a240f6c972a6", "is_disabled": 0, "is_reserved": 0}, {"rental_uris": {"ios": "https://dc.lft.to/lastmile_qr_scan", "android": "https://dc.lft.to/lastmile_qr_scan"}, "lon": -77.022893, "type": "electric_scooter", "fusion_lat": 0.0, "lat": 38.92763516666667, "name": "c7f4ad6e3f6d3d80a54bc552f8cb5008", "fusion_lon": 0.0, "bike_id": "c7f4ad6e3f6d3d80a54bc552f8cb5008", "is_disabled": 0, "is_reserved": 0}, {"rental_uris": {"ios": "https://dc.lft.to/lastmile_qr_scan", "android": "https://dc.lft.to/lastmile_qr_scan"}, "lon": -77.05879966666667, "type": "electric_scooter", "fusion_lat": 0.0, "lat": 38.93638716666667, "name": "148d77be5ec62dc1c2c2b2ac9762304c", "fusion_lon": 0.0, "bike_id": "148d77be5ec62dc1c2c2b2ac9762304c", "is_disabled": 0, "is_reserved": 0}, {"rental_uris": {"ios": "https://dc.lft.to/lastmile_qr_scan", "android": "https://dc.lft.to/lastmile_qr_scan"}, "lon": -77.04816183333334, "type": "electric_scooter", "fusion_lat": 0.0, "lat": 38.896255333333336, "name": "72df5ccbec0a3b5b7ddcbe297cc910b7", "fusion_lon": 0.0, "bike_id": "72df5ccbec0a3b5b7ddcbe297cc910b7", "is_disabled": 0, "is_reserved": 0}, {"rental_uris": {"ios": "https://dc.lft.to/lastmile_qr_scan", "android": "https://dc.lft.to/lastmile_qr_scan"}, "lon": -76.98711983333334, "type": "electric_scooter", "fusion_lat": 0.0, "lat": 38.86701933333333, "name": "b56a36ccd800b252ba4c583dbe9a89cc", "fusion_lon": 0.0, "bike_id": "b56a36ccd800b252ba4c583dbe9a89cc", "is_disabled": 0, "is_reserved": 0}, {"rental_uris": {"ios": "https://dc.lft.to/lastmile_qr_scan", "android": "https://dc.lft.to/lastmile_qr_scan"}, "lon": -77.03793816666666, "type": "electric_scooter", "fusion_lat": 0.0, "lat": 38.905604833333335, "name": "662e4b54cbd30f95265ad40a484399e9", "fusion_lon": 0.0, "bike_id": "662e4b54cbd30f95265ad40a484399e9", "is_disabled": 0, "is_reserved": 0}, {"rental_uris": {"ios": "https://dc.lft.to/lastmile_qr_scan", "android": "https://dc.lft.to/lastmile_qr_scan"}, "lon": -77.022331, "type": "electric_scooter", "fusion_lat": 0.0, "lat": 38.91426516666667, "name": "34be2aa992cf3bd90ee1ea0e63d32bed", "fusion_lon": 0.0, "bike_id": "34be2aa992cf3bd90ee1ea0e63d32bed", "is_disabled": 0, "is_reserved": 0}, {"rental_uris": {"ios": "https://dc.lft.to/lastmile_qr_scan", "android": "https://dc.lft.to/lastmile_qr_scan"}, "lon": -77.021631, "type": "electric_scooter", "fusion_lat": 0.0, "lat": 38.92609133333333, "name": "2f16baf5883aab02fcb00a5658a167e1", "fusion_lon": 0.0, "bike_id": "2f16baf5883aab02fcb00a5658a167e1", "is_disabled": 0, "is_reserved": 0}, {"rental_uris": {"ios": "https://dc.lft.to/lastmile_qr_scan", "android": "https://dc.lft.to/lastmile_qr_scan"}, "lon": -77.0301845, "type": "electric_scooter", "fusion_lat": 0.0, "lat": 38.92045066666667, "name": "2824f0f2fb0d5a35b14730fc8cfc13e3", "fusion_lon": 0.0, "bike_id": "2824f0f2fb0d5a35b14730fc8cfc13e3", "is_disabled": 0, "is_reserved": 0}, {"rental_uris": {"ios": "https://dc.lft.to/lastmile_qr_scan", "android": "https://dc.lft.to/lastmile_qr_scan"}, "lon": -77.03787983333334, "type": "electric_scooter", "fusion_lat": 0.0, "lat": 38.93025083333333, "name": "45dbc62ddc05c4524584d6bfdc8fdada", "fusion_lon": 0.0, "bike_id": "45dbc62ddc05c4524584d6bfdc8fdada", "is_disabled": 0, "is_reserved": 0}, {"rental_uris": {"ios": "https://dc.lft.to/lastmile_qr_scan", "android": "https://dc.lft.to/lastmile_qr_scan"}, "lon": -77.00214766666667, "type": "electric_scooter", "fusion_lat": 0.0, "lat": 38.911060166666665, "name": "8b0e41f1ee05dd09544a359b61bed75a", "fusion_lon": 0.0, "bike_id": "8b0e41f1ee05dd09544a359b61bed75a", "is_disabled": 0, "is_reserved": 0}, {"rental_uris": {"ios": "https://dc.lft.to/lastmile_qr_scan", "android": "https://dc.lft.to/lastmile_qr_scan"}, "lon": -77.03205416666667, "type": "electric_scooter", "fusion_lat": 0.0, "lat": 38.916941333333334, "name": "5efaad9ed5aaa736a28b7f52d1ef0ba3", "fusion_lon": 0.0, "bike_id": "5efaad9ed5aaa736a28b7f52d1ef0ba3", "is_disabled": 0, "is_reserved": 0}, {"rental_uris": {"ios": "https://dc.lft.to/lastmile_qr_scan", "android": "https://dc.lft.to/lastmile_qr_scan"}, "lon": -77.022215, "type": "electric_scooter", "fusion_lat": 0.0, "lat": 38.938722, "name": "31fb7a626d8a9e1f337bc8695d47dd2f", "fusion_lon": 0.0, "bike_id": "31fb7a626d8a9e1f337bc8695d47dd2f", "is_disabled": 0, "is_reserved": 0}, {"rental_uris": {"ios": "https://dc.lft.to/lastmile_qr_scan", "android": "https://dc.lft.to/lastmile_qr_scan"}, "lon": -77.04253583333333, "type": "electric_scooter", "fusion_lat": 0.0, "lat": 38.915905333333335, "name": "a4493f551e9c1a418aa5f780c86993dc", "fusion_lon": 0.0, "bike_id": "a4493f551e9c1a418aa5f780c86993dc", "is_disabled": 0, "is_reserved": 0}, {"rental_uris": {"ios": "https://dc.lft.to/lastmile_qr_scan", "android": "https://dc.lft.to/lastmile_qr_scan"},