{"data": {"bikes": [{"is_disabled": 0, "is_reserved": 0, "fusion_lat": 0.0, "lat": 38.903206, "fusion_lon": 0.0, "rental_uris": {"ios": "https://dc.lft.to/lastmile_qr_scan", "android": "https://dc.lft.to/lastmile_qr_scan"}, "lon": -77.032122, "bike_id": "1c5d7618ffbfd0b9a34a1770e85c76e0", "type": "electric_scooter", "name": "1c5d7618ffbfd0b9a34a1770e85c76e0"}, {"is_disabled": 0, "is_reserved": 0, "fusion_lat": 0.0, "lat": 38.89970683333333, "fusion_lon": 0.0, "rental_uris": {"ios": "https://dc.lft.to/lastmile_qr_scan", "android": "https://dc.lft.to/lastmile_qr_scan"}, "lon": -76.926294, "bike_id": "af4642205214db59f5d1b5cd94cc1f33", "type": "electric_scooter", "name": "af4642205214db59f5d1b5cd94cc1f33"}, {"is_disabled": 0, "is_reserved": 0, "fusion_lat": 0.0, "lat": 39.03475783333333, "fusion_lon": 0.0, "rental_uris": {"ios": "https://dc.lft.to/lastmile_qr_scan", "android": "https://dc.lft.to/lastmile_qr_scan"}, "lon": -77.01657933333334, "bike_id": "088877ca0798170bcf45ad52e218e7e1", "type": "electric_bike", "name": "088877ca0798170bcf45ad52e218e7e1"}, {"is_disabled": 0, "is_reserved": 0, "fusion_lat": 0.0, "lat": 38.900169166666664, "fusion_lon": 0.0, "rental_uris": {"ios": "https://dc.lft.to/lastmile_qr_scan", "android": "https://dc.lft.to/lastmile_qr_scan"}, "lon": -76.998651, "bike_id": "0a6caa0abd1a10e041da66dd1b79d157", "type": "electric_scooter", "name": "0a6caa0abd1a10e041da66dd1b79d157"}, {"is_disabled": 0, "is_reserved": 0, "fusion_lat": 0.0, "lat": 39.084708166666665, "fusion_lon": 0.0, "rental_uris": {"ios": "https://dc.lft.to/lastmile_qr_scan", "android": "https://dc.lft.to/lastmile_qr_scan"}, "lon": -76.95066883333334, "bike_id": "a67c684e34b8eeeb2cfda054ee1f1a55", "type": "electric_bike", "name": "a67c684e34b8eeeb2cfda054ee1f1a55"}, {"is_disabled": 0, "is_reserved": 0, "fusion_lat": 0.0, "lat": 38.89202083333333, "fusion_lon": 0.0, "rental_uris": {"ios": "https://dc.lft.to/lastmile_qr_scan", "android": "https://dc.lft.to/lastmile_qr_scan"}, "lon": -77.02473133333334, "bike_id": "3d188ef5f66f94cee2b7350d598fca08", "type": "electric_scooter", "name": "3d188ef5f66f94cee2b7350d598fca08"}, {"is_disabled": 0, "is_reserved": 0, "fusion_lat": 0.0, "lat": 38.95340366666667, "fusion_lon": 0.0, "rental_uris": {"ios": "https://dc.lft.to/lastmile_qr_scan", "android": "https://dc.lft.to/lastmile_qr_scan"}, "lon": -77.08138183333334, "bike_id": "946de8a0a8eae59fe3fd70ce7153f6a5", "type": "electric_scooter", "name": "946de8a0a8eae59fe3fd70ce7153f6a5"}, {"is_disabled": 0, "is_reserved": 0, "fusion_lat": 0.0, "lat": 38.905738, "fusion_lon": 0.0, "rental_uris": {"ios": "https://dc.lft.to/lastmile_qr_scan", "android": "https://dc.lft.to/lastmile_qr_scan"}, "lon": -77.03267483333333, "bike_id": "fc2ccfa57c4d07078a38f294e4680da9", "type": "electric_scooter", "name": "fc2ccfa57c4d07078a38f294e4680da9"}, {"is_disabled": 0, "is_reserved": 0, "fusion_lat": 0.0, "lat": 38.9234815, "fusion_lon": 0.0, "rental_uris": {"ios": "https://dc.lft.to/lastmile_qr_scan", "android": "https://dc.lft.to/lastmile_qr_scan"}, "lon": -76.97205683333334, "bike_id": "752da24d63d6d4c82dab0eacadb7be5b", "type": "electric_scooter", "name": "752da24d63d6d4c82dab0eacadb7be5b"}, {"is_disabled": 0, "is_reserved": 0, "fusion_lat": 0.0, "lat": 38.914151833333335, "fusion_lon": 0.0, "rental_uris": {"ios": "https://dc.lft.to/lastmile_qr_scan", "android": "https://dc.lft.to/lastmile_qr_scan"}, "lon": -77.02234966666667, "bike_id": "63e0873d20c074823bfeab32195f163e", "type": "electric_scooter", "name": "63e0873d20c074823bfeab32195f163e"}, {"is_disabled": 0, "is_reserved": 0, "fusion_lat": 0.0, "lat": 38.92058633333333, "fusion_lon": 0.0, "rental_uris": {"ios": "https://dc.lft.to/lastmile_qr_scan", "android": "https://dc.lft.to/lastmile_qr_scan"}, "lon": -77.02436966666667, "bike_id": "5e544d10eb66bdb1896f7e72dfcc0473", "type": "electric_scooter", "name": "5e544d10eb66bdb1896f7e72dfcc0473"}, {"is_disabled": 0, "is_reserved": 0, "fusion_lat": 0.0, "lat": 38.920900333333336, "fusion_lon": 0.0, "rental_uris": {"ios": "https://dc.lft.to/lastmile_qr_scan", "android": "https://dc.lft.to/lastmile_qr_scan"}, "lon": -77.02314916666667, "bike_id": "073e3a1e027269eabbe6d07e5e9039a3", "type": "electric_scooter", "name": "073e3a1e027269eabbe6d07e5e9039a3"}, {"is_disabled": 0, "is_reserved": 0, "fusion_lat": 0.0, "lat": 38.910650833333335, "fusion_lon": 0.0, "rental_uris": {"ios": "https://dc.lft.to/lastmile_qr_scan", "android": "https://dc.lft.to/lastmile_qr_scan"}, "lon": -77.05284966666666, "bike_id": "927e4396b459acc3e4fb48f3bdcf2836", "type": "electric_bike", "name": "927e4396b459acc3e4fb48f3bdcf2836"}, {"is_disabled": 0, "is_reserved": 0, "fusion_lat": 0.0, "lat": 38.95925366666667, "fusion_lon": 0.0, "rental_uris": {"ios": "https://dc.lft.to/lastmile_qr_scan", "android": "https://dc.lft.to/lastmile_qr_scan"}, "lon": -76.92524533333334, "bike_id": "9640746a540b1886c90b03db05719322", "type": "electric_bike", "name": "9640746a540b1886c90b03db05719322"}, {"is_disabled": 0, "is_reserved": 0, "fusion_lat": 0.0, "lat": 38.86375966666667, "fusion_lon": 0.0, "rental_uris": {"ios": "https://dc.lft.to/lastmile_qr_scan", "android": "https://dc.lft.to/lastmile_qr_scan"}, "lon": -77.01363916666666, "bike_id": "78ec5989daa232fa7fce0d08a00f486e", "type": "electric_scooter", "name": "78ec5989daa232fa7fce0d08a00f486e"}, {"is_disabled": 0, "is_reserved": 0, "fusion_lat": 0.0, "lat": 38.92722216666667, "fusion_lon": 0.0, "rental_uris": {"ios": "https://dc.lft.to/lastmile_qr_scan", "android": "https://dc.lft.to/lastmile_qr_scan"}, "lon": -77.0512845, "bike_id": "d5577ce32e830833aae9503cde1216ff", "type": "electric_scooter", "name": "d5577ce32e830833aae9503cde1216ff"}, {"is_disabled": 0, "is_reserved": 0, "fusion_lat": 0.0, "lat": 38.92734433333333, "fusion_lon": 0.0, "rental_uris": {"ios": "https://dc.lft.to/lastmile_qr_scan", "android": "https://dc.lft.to/lastmile_qr_scan"}, "lon": -77.02307983333333, "bike_id": "ed9e7054478e3ecd5419e0abae914072", "type": "electric_scooter", "name": "ed9e7054478e3ecd5419e0abae914072"}, {"is_disabled": 0, "is_reserved": 0, "fusion_lat": 0.0, "lat": 38.8988135, "fusion_lon": 0.0, "rental_uris": {"ios": "https://dc.lft.to/lastmile_qr_scan", "android": "https://dc.lft.to/lastmile_qr_scan"}, "lon": -76.93178616666667, "bike_id": "e9166b5fb6abb5d58245a032bd3ca062", "type": "electric_scooter", "name": "e9166b5fb6abb5d58245a032bd3ca062"}, {"is_disabled": 0, "is_reserved": 0, "fusion_lat": 0.0, "lat": 38.855096333333336, "fusion_lon": 0.0, "rental_uris": {"ios": "https://dc.lft.to/lastmile_qr_scan", "android": "https://dc.lft.to/lastmile_qr_scan"}, "lon": -77.101546, "bike_id": "8bcd4de0bb4282163b52e7c15e52527b", "type": "electric_bike", "name": "8bcd4de0bb4282163b52e7c15e52527b"}, {"is_disabled": 0, "is_reserved": 0, "fusion_lat": 0.0, "lat": 38.8927435, "fusion_lon": 0.0, "rental_uris": {"ios": "https://dc.lft.to/lastmile_qr_scan", "android": "https://dc.lft.to/lastmile_qr_scan"}, "lon": -77.04655033333333, "bike_id": "4bccd676d52c51a86a53d41143114e10", "type": "electric_scooter", "name": "4bccd676d52c51a86a53d41143114e10"}, {"is_disabled": 0, "is_reserved": 0, "fusion_lat": 0.0, "lat": 38.86966366666667, "fusion_lon": 0.0, "rental_uris": {"ios": "https://dc.lft.to/lastmile_qr_scan", "android": "https://dc.lft.to/lastmile_qr_scan"}, "lon": -77.01376616666667, "bike_id": "7b5dbf0258ed6eed0eb099b194107414", "type": "electric_scooter", "name": "7b5dbf0258ed6eed0eb099b194107414"}, {"is_disabled": 0, "is_reserved": 0, "fusion_lat": 0.0, "lat": 38.882176666666666, "fusion_lon": 0.0, "rental_uris": {"ios": "https://dc.lft.to/lastmile_qr_scan", "android": "https://dc.lft.to/lastmile_qr_scan"}, "lon": -76.99738616666667, "bike_id": "cd5b29d57f8d2546e32fb4e05ff29c4a", "type": "electric_scooter", "name": "cd5b29d57f8d2546e32fb4e05ff29c4a"}, {"is_disabled": 0, "is_reserved": 0, "fusion_lat": 0.0, "lat": 38.90076633333334, "fusion_lon": 0.0, "rental_uris": {"ios": "https://dc.lft.to/lastmile_qr_scan", "android": "https://dc.lft.to/lastmile_qr_scan"}, "lon": -77.0383775, "bike_id": "573e0c88e63f237f28650d6bfc19efac", "type": "electric_scooter", "name": "573e0c88e63f237f28650d6bfc19efac"}, {"is_disabled": 0, "is_reserved": 0, "fusion_lat": 0.0, "lat": 38.856390166666664, "fusion_lon": 0.0, "rental_uris": {"ios": "https://dc.lft.to/lastmile_qr_scan", "android": "https://dc.lft.to/lastmile_qr_scan"}, "lon": -77.06833333333333, "bike_id": "c95c0a92fc52570b002a06e082dca060", "type": "electric_bike", "name": "c95c0a92fc52570b002a06e082dca060"}, {"is_disabled": 0, "is_reserved": 0, "fusion_lat": 0.0, "lat": 38.9217155, "fusion_lon": 0.0, "rental_uris": {"ios": "https://dc.lft.to/lastmile_qr_scan", "android": "https://dc.lft.to/lastmile_qr_scan"}, "lon": -77.04232833333333, "bike_id": "aabc38298d6ceec3c8e468b5e831c472", "type": "electric_scooter", "name": "aabc38298d6ceec3c8e468b5e831c472"}, {"is_disabled": 0, "is_reserved": 0, "fusion_lat": 0.0, "lat": 38.86561733333333, "fusion_lon": 0.0, "rental_uris": {"ios": "https://dc.lft.to/lastmile_qr_scan", "android": "https://dc.lft.to/lastmile_qr_scan"}, "lon": -76.97473933333333, "bike_id": "bdf1f2fd73b1dccdbb252d2f5509b4f9", "type": "electric_bike", "name": "bdf1f2fd73b1dccdbb252d2f5509b4f9"}, {"is_disabled": 0, "is_reserved": 0, "fusion_lat": 0.0, "lat": 38.82429283333333, "fusion_lon": 0.0, "rental_uris": {"ios": "https://dc.lft.to/lastmile_qr_scan", "android": "https://dc.lft.to/lastmile_qr_scan"}, "lon": -77.12040716666667, "bike_id": "3688558f696ab180c2dfb46fddb7a809", "type": "electric_bike", "name": "3688558f696ab180c2dfb46fddb7a809"}, {"is_disabled": 0, "is_reserved": 0, "fusion_lat": 0.0, "lat": 38.897400166666664, "fusion_lon": 0.0, "rental_uris": {"ios": "https://dc.lft.to/lastmile_qr_scan", "android": "https://dc.lft.to/lastmile_qr_scan"}, "lon": -77.02695583333333, "bike_id": "ee22888b2d9a6aec1eb20291fbc4135e", "type": "electric_scooter", "name": "ee22888b2d9a6aec1eb20291fbc4135e"}, {"is_disabled": 0, "is_reserved": 0, "fusion_lat": 0.0, "lat": 39.026193, "fusion_lon": 0.0, "rental_uris": {"ios": "https://dc.lft.to/lastmile_qr_scan", "android": "https://dc.lft.to/lastmile_qr_scan"}, "lon": -77.03877833333334, "bike_id": "b50a06d9b8dbb881b9bc632c087684d3", "type": "electric_bike", "name": "b50a06d9b8dbb881b9bc632c087684d3"}, {"is_disabled": 0, "is_reserved": 0, "fusion_lat": 0.0, "lat": 38.91109433333333, "fusion_lon": 0.0, "rental_uris": {"ios": "https://dc.lft.to/lastmile_qr_scan", "android": "https://dc.lft.to/lastmile_qr_scan"}, "lon": -77.00213116666667, "bike_id": "ae8cf63858fbba9430f65ad5d8e7bfd2", "type": "electric_scooter", "name": "ae8cf63858fbba9430f65ad5d8e7bfd2"}, {"is_disabled": 0, "is_reserved": 0, "fusion_lat": 0.0, "lat": 38.92235183333333, "fusion_lon": 0.0, "rental_uris": {"ios": "https://dc.lft.to/lastmile_qr_scan", "android": "https://dc.lft.to/lastmile_qr_scan"}, "lon": -77.018211, "bike_id": "b4e61912f6be3d47fc3de0061403cd9b", "type": "electric_scooter", "name": "b4e61912f6be3d47fc3de0061403cd9b"}, {"is_disabled": 0, "is_reserved": 0, "fusion_lat": 0.0, "lat": 38.92243883333333, "fusion_lon": 0.0, "rental_uris": {"ios": "https://dc.lft.to/lastmile_qr_scan", "android": "https://dc.lft.to/lastmile_qr_scan"}, "lon": -77.0401275, "bike_id": "3c249a18064aa6479648112718036834", "type": "electric_scooter", "name": "3c249a18064aa6479648112718036834"}, {"is_disabled": 0, "is_reserved": 0, "fusion_lat": 0.0, "lat": 38.89963316666667, "fusion_lon": 0.0, "rental_uris": {"ios": "https://dc.lft.to/lastmile_qr_scan", "android": "https://dc.lft.to/lastmile_qr_scan"}, "lon": -77.01605866666667, "bike_id": "789152d85c728c256adaa69083d025d3", "type": "electric_scooter", "name": "789152d85c728c256adaa69083d025d3"}, {"is_disabled": 0, "is_reserved": 0, "fusion_lat": 0.0, "lat": 38.93462316666667, "fusion_lon": 0.0, "rental_uris": {"ios": "https://dc.lft.to/lastmile_qr_scan", "android": "https://dc.lft.to/lastmile_qr_scan"}, "lon": -77.02841783333334, "bike_id": "de8fa2718fad404aaa549d6a63228edf", "type": "electric_scooter", "name": "de8fa2718fad404aaa549d6a63228edf"}, {"is_disabled": 0, "is_reserved": 0, "fusion_lat": 0.0, "lat": 38.904677666666664, "fusion_lon": 0.0, "rental_uris": {"ios": "https://dc.lft.to/lastmile_qr_scan", "android": "https://dc.lft.to/lastmile_qr_scan"}, "lon": -76.984227, "bike_id": "7c2edb84426543244638472514a5efe9", "type": "electric_bike", "name": "7c2edb84426543244638472514a5efe9"}, {"is_disabled": 0, "is_reserved": 0, "fusion_lat": 0.0, "lat": 38.8922495, "fusion_lon": 0.0, "rental_uris": {"ios": "https://dc.lft.to/lastmile_qr_scan", "android": "https://dc.lft.to/lastmile_qr_scan"}, "lon": -77.04681966666666, "bike_id": "1846fab2ed7841be6837e92487227691", "type": "electric_scooter", "name": "1846fab2ed7841be6837e92487227691"}, {"is_disabled": 0, "is_reserved": 0, "fusion_lat": 0.0, "lat": 38.857954, "fusion_lon": 0.0, "rental_uris": {"ios": "https://dc.lft.to/lastmile_qr_scan", "android": "https://dc.lft.to/lastmile_qr_scan"}, "lon": -76.98752416666666, "bike_id": "168d4b84828b1d1fa02f899b44ca6a9d", "type": "electric_bike", "name": "168d4b84828b1d1fa02f899b44ca6a9d"}, {"is_disabled": 0, "is_reserved": 0, "fusion_lat": 0.0, "lat": 38.8694485, "fusion_lon": 0.0, "rental_uris": {"ios": "https://dc.lft.to/lastmile_qr_scan", "android": "https://dc.lft.to/lastmile_qr_scan"}, "lon": -77.01281433333334, "bike_id": "8571b4fad14d1ae65fed5951ce93056f", "type": "electric_bike", "name": "8571b4fad14d1ae65fed5951ce93056f"}, {"is_disabled": 0, "is_reserved": 0, "fusion_lat": 0.0, "lat": 38.927757666666665, "fusion_lon": 0.0, "rental_uris": {"ios": "https://dc.lft.to/lastmile_qr_scan", "android": "https://dc.lft.to/lastmile_qr_scan"}, "lon": -77.02308733333334, "bike_id": "95570cbf177f2f01ff838d754d83bfa3", "type": "electric_scooter", "name": "95570cbf177f2f01ff838d754d83bfa3"}, {"is_disabled": 0, "is_reserved": 0, "fusion_lat": 0.0, "lat": 38.90289333333333, "fusion_lon": 0.0, "rental_uris": {"ios": "https://dc.lft.to/lastmile_qr_scan", "android": "https://dc.lft.to/lastmile_qr_scan"}, "lon": -76.99037616666666, "bike_id": "ce2320eed3f1820f4bc8ec104742484f", "type": "electric_scooter", "name": "ce2320eed3f1820f4bc8ec104742484f"}, {"is_disabled": 0, "is_reserved": 0, "fusion_lat": 0.0, "lat": 38.8668985, "fusion_lon": 0.0, "rental_uris": {"ios": "https://dc.lft.to/lastmile_qr_scan", "android": "https://dc.lft.to/lastmile_qr_scan"}, "lon": -76.98951666666666, "bike_id": "1360f2ec6a4dd33d39410274228feef2", "type": "electric_bike", "name": "1360f2ec6a4dd33d39410274228feef2"}, {"is_disabled": 0, "is_reserved": 0, "fusion_lat": 0.0, "lat": 38.90662416666667, "fusion_lon": 0.0, "rental_uris": {"ios": "https://dc.lft.to/lastmile_qr_scan", "android": "https://dc.lft.to/lastmile_qr_scan"}, "lon": -77.046149, "bike_id": "4832942327293f6ca9ebc8f526d9b62e", "type": "electric_scooter", "name": "4832942327293f6ca9ebc8f526d9b62e"}, {"is_disabled": 0, "is_reserved": 0, "fusion_lat": 0.0, "lat": 38.919574, "fusion_lon": 0.0, "rental_uris": {"ios": "https://dc.lft.to/lastmile_qr_scan", "android": "https://dc.lft.to/lastmile_qr_scan"}, "lon": -77.07869183333334, "bike_id": "4734283f9b89e45c2e690f6955e43e1e", "type": "electric_scooter", "name": "4734283f9b89e45c2e690f6955e43e1e"}, {"is_disabled": 0, "is_reserved": 0, "fusion_lat": 0.0, "lat": 38.913683166666665, "fusion_lon": 0.0, "rental_uris": {"ios": "https://dc.lft.to/lastmile_qr_scan", "android": "https://dc.lft.to/lastmile_qr_scan"}, "lon": -77.029692, "bike_id": "3dca912cec6b8bb5933a34dd8f6b4ab8", "type": "electric_scooter", "name": "3dca912cec6b8bb5933a34dd8f6b4ab8"}, {"is_disabled": 0, "is_reserved": 0, "fusion_lat": 0.0, "lat": 38.95610166666667, "fusion_lon": 0.0, "rental_uris": {"ios": "https://dc.lft.to/lastmile_qr_scan", "android": "https://dc.lft.to/lastmile_qr_scan"}, "lon": -77.010173, "bike_id": "66bf949666e32f58ed7220431a73d763", "type": "electric_bike", "name": "66bf949666e32f58ed7220431a73d763"}, {"is_disabled": 0, "is_reserved": 0, "fusion_lat": 0.0, "lat": 38.84860783333333, "fusion_lon": 0.0, "rental_uris": {"ios": "https://dc.lft.to/lastmile_qr_scan", "android": "https://dc.lft.to/lastmile_qr_scan"}, "lon": -77.06828916666667, "bike_id": "025a6ebcb693bbf3b881aece43da3a26", "type": "electric_bike", "name": "025a6ebcb693bbf3b881aece43da3a26"}, {"is_disabled": 0, "is_reserved": 0, "fusion_lat": 0.0, "lat": 38.917765833333334, "fusion_lon": 0.0, "rental_uris": {"ios": "https://dc.lft.to/lastmile_qr_scan", "android": "https://dc.lft.to/lastmile_qr_scan"}, "lon": -77.0409925, "bike_id": "99381d9aecbbc785357875f7f18b8876", "type": "electric_scooter", "name": "99381d9aecbbc785357875f7f18b8876"}, {"is_disabled": 0, "is_reserved": 0, "fusion_lat": 0.0, "lat": 38.90524583333333, "fusion_lon": 0.0, "rental_uris": {"ios": "https://dc.lft.to/lastmile_qr_scan", "android": "https://dc.lft.to/lastmile_qr_scan"}, "lon": -77.06110533333333, "bike_id": "5a2eb2a9658cdb2168af5c6ce9ab6bef", "type": "electric_scooter", "name": "5a2eb2a9658cdb2168af5c6ce9ab6bef"}, {"is_disabled": 0, "is_reserved": 0, "fusion_lat": 0.0, "lat": 38.935885666666664, "fusion_lon": 0.0, "rental_uris": {"ios": "https://dc.lft.to/lastmile_qr_scan", "android": "https://dc.lft.to/lastmile_qr_scan"}, "lon": -77.02858716666667, "bike_id": "67bfdeaf0bbb9ef86c1cf873d3b5ad2a", "type": "electric_scooter", "name": "67bfdeaf0bbb9ef86c1cf873d3b5ad2a"}, {"is_disabled": 0, "is_reserved": 0, "fusion_lat": 0.0, "lat": 38.90732766666667, "fusion_lon": 0.0, "rental_uris": {"ios": "https://dc.lft.to/lastmile_qr_scan", "android": "https://dc.lft.to/lastmile_qr_scan"}, "lon": -77.03208433333333, "bike_id": "76ded809a28c0d6f646f463dfa79828b", "type": "electric_scooter", "name": "76ded809a28c0d6f646f463dfa79828b"}, {"is_disabled": 0, "is_reserved": 0, "fusion_lat": 0.0, "lat": 38.928439, "fusion_lon": 0.0, "rental_uris": {"ios": "https://dc.lft.to/lastmile_qr_scan", "android": "https://dc.lft.to/lastmile_qr_scan"}, "lon": -77.03732933333333, "bike_id": "ccdc4827ce0681c3885c1ce82ddc80cd", "type": "electric_scooter", "name": "ccdc4827ce0681c3885c1ce82ddc80cd"}, {"is_disabled": 0, "is_reserved": 0, "fusion_lat": 0.0, "lat": 38.897126, "fusion_lon": 0.0, "rental_uris": {"ios": "https://dc.lft.to/lastmile_qr_scan", "android": "https://dc.lft.to/lastmile_qr_scan"}, "lon": -77.02789666666666, "bike_id": "137a347ac1c9dfaf6bf8042198ffa432", "type": "electric_scooter", "name": "137a347ac1c9dfaf6bf8042198ffa432"}, {"is_disabled": 0, "is_reserved": 0, "fusion_lat": 0.0, "lat": 38.904064, "fusion_lon": 0.0, "rental_uris": {"ios": "https://dc.lft.to/lastmile_qr_scan", "android": "https://dc.lft.to/lastmile_qr_scan"}, "lon": -77.06956616666666, "bike_id": "13f915068ff89814f707cd7ae6bf483b", "type": "electric_scooter", "name": "13f915068ff89814f707cd7ae6bf483b"}, {"is_disabled": 0, "is_reserved": 0, "fusion_lat": 0.0, "lat": 38.87936283333333, "fusion_lon": 0.0, "rental_uris": {"ios": "https://dc.lft.to/lastmile_qr_scan", "android": "https://dc.lft.to/lastmile_qr_scan"}, "lon": -77.00588316666666, "bike_id": "9a05281a9d9b34cf81c3a020efcb3d62", "type": "electric_scooter", "name": "9a05281a9d9b34cf81c3a020efcb3d62"}, {"is_disabled": 0, "is_reserved": 0, "fusion_lat": 0.0, "lat": 38.90012433333333, "fusion_lon": 0.0, "rental_uris": {"ios": "https://dc.lft.to/lastmile_qr_scan", "android": "https://dc.lft.to/lastmile_qr_scan"}, "lon": -77.0067915, "bike_id": "203e94a9026a58d98b07d3b24fd4ed75", "type": "electric_scooter", "name": "203e94a9026a58d98b07d3b24fd4ed75"}, {"is_disabled": 0, "is_reserved": 0, "fusion_lat": 0.0, "lat": 38.94836933333333, "fusion_lon": 0.0, "rental_uris": {"ios": "https://dc.lft.to/lastmile_qr_scan", "android": "https://dc.lft.to/lastmile_qr_scan"}, "lon": -77.07982933333334, "bike_id": "90d8adf15422dbd69ca58626f815b2fc", "type": "electric_scooter", "name": "90d8adf15422dbd69ca58626f815b2fc"}, {"is_disabled": 0, "is_reserved": 0, "fusion_lat": 0.0, "lat": 38.94258116666666, "fusion_lon": 0.0, "rental_uris": {"ios": "https://dc.lft.to/lastmile_qr_scan", "android": "https://dc.lft.to/lastmile_qr_scan"}, "lon": -76.98455266666667, "bike_id": "5d17014e006788dd7bb8764d9ba68864", "type": "electric_scooter", "name": "5d17014e006788dd7bb8764d9ba68864"}, {"is_disabled": 0, "is_reserved": 0, "fusion_lat": 0.0, "lat": 38.883597333333334, "fusion_lon": 0.0, "rental_uris": {"ios": "https://dc.lft.to/lastmile_qr_scan", "android": "https://dc.lft.to/lastmile_qr_scan"}, "lon": -76.957656, "bike_id": "7e2456cd65b0923a868ece42a31be9c2", "type": "electric_scooter", "name": "7e2456cd65b0923a868ece42a31be9c2"}, {"is_disabled": 0, "is_reserved": 0, "fusion_lat": 0.0, "lat": 38.91995266666667, "fusion_lon": 0.0, "rental_uris": {"ios": "https://dc.lft.to/lastmile_qr_scan", "android": "https://dc.lft.to/lastmile_qr_scan"}, "lon": -77.04747916666666, "bike_id": "3269d2571f3e3ed3db14fc77a97400e1", "type": "electric_scooter", "name": "3269d2571f3e3ed3db14fc77a97400e1"}, {"is_disabled": 0, "is_reserved": 0, "fusion_lat": 0.0, "lat": 38.9175945, "fusion_lon": 0.0, "rental_uris": {"ios": "https://dc.lft.to/lastmile_qr_scan", "android": "https://dc.lft.to/lastmile_qr_scan"}, "lon": -77.03905316666666, "bike_id": "248b7d8b23af8b267c5ef845d2796a44", "type": "electric_scooter", "name": "248b7d8b23af8b267c5ef845d2796a44"}, {"is_disabled": 0, "is_reserved": 0, "fusion_lat": 0.0, "lat": 38.892300666666664, "fusion_lon": 0.0, "rental_uris": {"ios": "https://dc.lft.to/lastmile_qr_scan", "android": "https://dc.lft.to/lastmile_qr_scan"}, "lon": -77.05002516666667, "bike_id": "df8d214d9e3b95228c1edba52f2b7468", "type": "electric_scooter", "name": "df8d214d9e3b95228c1edba52f2b7468"}, {"is_disabled": 0, "is_reserved": 0, "fusion_lat": 0.0, "lat": 38.871859666666666, "fusion_lon": 0.0, "rental_uris": {"ios": "https://dc.lft.to/lastmile_qr_scan", "android": "https://dc.lft.to/lastmile_qr_scan"}, "lon": -77.00586883333334, "bike_id": "58db0ede8e9a58adbf021a16b82072d6", "type": "electric_scooter", "name": "58db0ede8e9a58adbf021a16b82072d6"}, {"is_disabled": 0, "is_reserved": 0, "fusion_lat": 0.0, "lat": 38.885329666666664, "fusion_lon": 0.0, "rental_uris": {"ios": "https://dc.lft.to/lastmile_qr_scan", "android": "https://dc.lft.to/lastmile_qr_scan"}, "lon": -76.99797583333333, "bike_id": "a1cdb313dec952f2a96a58dc60366faa", "type": "electric_scooter", "name": "a1cdb313dec952f2a96a58dc60366faa"}, {"is_disabled": 0, "is_reserved": 0, "fusion_lat": 0.0, "lat": 38.9119585, "fusion_lon": 0.0, "rental_uris": {"ios": "https://dc.lft.to/lastmile_qr_scan", "android": "https://dc.lft.to/lastmile_qr_scan"}, "lon": -77.029765, "bike_id": "223d504f6e5d8f4e2c1b9d9e29794194", "type": "electric_scooter", "name": "223d504f6e5d8f4e2c1b9d9e29794194"}, {"is_disabled": 0, "is_reserved": 0, "fusion_lat": 0.0, "lat": 38.8936775, "fusion_lon": 0.0, "rental_uris": {"ios": "https://dc.lft.to/lastmile_qr_scan", "android": "https://dc.lft.to/lastmile_qr_scan"}, "lon": -76.94109416666667, "bike_id": "b43d299f7c8ee903cd1634e1b804a16f", "type": "electric_scooter", "name": "b43d299f7c8ee903cd1634e1b804a16f"}, {"is_disabled": 0, "is_reserved": 0, "fusion_lat": 0.0, "lat": 38.920077166666665, "fusion_lon": 0.0, "rental_uris": {"ios": "https://dc.lft.to/lastmile_qr_scan", "android": "https://dc.lft.to/lastmile_qr_scan"}, "lon": -77.04178283333333, "bike_id": "09c9bfb7f6f17531f33a75d9d8d85e9a", "type": "electric_scooter", "name": "09c9bfb7f6f17531f33a75d9d8d85e9a"}, {"is_disabled": 0, "is_reserved": 0, "fusion_lat": 0.0, "lat": 38.99986766666667, "fusion_lon": 0.0, "rental_uris": {"ios": "https://dc.lft.to/lastmile_qr_scan", "android": "https://dc.lft.to/lastmile_qr_scan"}, "lon": -76.92493183333333, "bike_id": "558e9ca7cb90d15f4741de58b8118928", "type": "electric_bike", "name": "558e9ca7cb90d15f4741de58b8118928"}, {"is_disabled": 0, "is_reserved": 0, "fusion_lat": 0.0, "lat": 38.807415, "fusion_lon": 0.0, "rental_uris": {"ios": "https://dc.lft.to/lastmile_qr_scan", "android": "https://dc.lft.to/lastmile_qr_scan"}, "lon": -77.09687416666667, "bike_id": "b06d02434f196b63e25445bf72663730", "type": "electric_bike", "name": "b06d02434f196b63e25445bf72663730"}, {"is_disabled": 0, "is_reserved": 0, "fusion_lat": 0.0, "lat": 38.92410483333333, "fusion_lon": 0.0, "rental_uris": {"ios": "https://dc.lft.to/lastmile_qr_scan", "android": "https://dc.lft.to/lastmile_qr_scan"}, "lon": -77.02716366666667, "bike_id": "0550c3464fe27142c7bfa1c24111165d", "type": "electric_scooter", "name": "0550c3464fe27142c7bfa1c24111165d"}, {"is_disabled": 0, "is_reserved": 0, "fusion_lat": 0.0, "lat": 38.87173466666667, "fusion_lon": 0.0, "rental_uris": {"ios": "https://dc.lft.to/lastmile_qr_scan", "android": "https://dc.lft.to/lastmile_qr_scan"}, "lon": -77.233973, "bike_id": "5c6862c76f0ea7306e3bcb2078c7c4c0", "type": "electric_bike", "name": "5c6862c76f0ea7306e3bcb2078c7c4c0"}, {"is_disabled": 0, "is_reserved": 0, "fusion_lat": 0.0, "lat": 38.95316483333333, "fusion_lon": 0.0, "rental_uris": {"ios": "https://dc.lft.to/lastmile_qr_scan", "android": "https://dc.lft.to/lastmile_qr_scan"}, "lon": -76.99456383333333, "bike_id": "565f2999ed98ad2296f09c5b8aa8a37a", "type": "electric_scooter", "name": "565f2999ed98ad2296f09c5b8aa8a37a"}, {"is_disabled": 0, "is_reserved": 0, "fusion_lat": 0.0, "lat": 38.919851666666666, "fusion_lon": 0.0, "rental_uris": {"ios": "https://dc.lft.to/lastmile_qr_scan", "android": "https://dc.lft.to/lastmile_qr_scan"}, "lon": -77.02498516666667, "bike_id": "e3234fe493eda627a107da4182efb55d", "type": "electric_scooter", "name": "e3234fe493eda627a107da4182efb55d"}, {"is_disabled": 0, "is_reserved": 0, "fusion_lat": 0.0, "lat": 38.90101466666667, "fusion_lon": 0.0, "rental_uris": {"ios": "https://dc.lft.to/lastmile_qr_scan", "android": "https://dc.lft.to/lastmile_qr_scan"}, "lon": -77.04937283333334, "bike_id": "5d3add7cefdb8ffa2801e68c7ee3f1d0", "type": "electric_scooter", "name": "5d3add7cefdb8ffa2801e68c7ee3f1d0"}, {"is_disabled": 0, "is_reserved": 0, "fusion_lat": 0.0, "lat": 38.899924166666665, "fusion_lon": 0.0, "rental_uris": {"ios": "https://dc.lft.to/lastmile_qr_scan", "android": "https://dc.lft.to/lastmile_qr_scan"}, "lon": -77.00909983333334, "bike_id": "452f4c2ad0eaca18eb5371ac0185060e", "type": "electric_scooter", "name": "452f4c2ad0eaca18eb5371ac0185060e"}, {"is_disabled": 0, "is_reserved": 0, "fusion_lat": 0.0, "lat": 38.921338, "fusion_lon": 0.0, "rental_uris": {"ios": "https://dc.lft.to/lastmile_qr_scan", "android": "https://dc.lft.to/lastmile_qr_scan"}, "lon": -77.00186283333333, "bike_id": "bc64de2fa67e6b016af95d1b46f2f2a7", "type": "electric_bike", "name": "bc64de2fa67e6b016af95d1b46f2f2a7"}, {"is_disabled": 0, "is_reserved": 0, "fusion_lat": 0.0, "lat": 38.9371015, "fusion_lon": 0.0, "rental_uris": {"ios": "https://dc.lft.to/lastmile_qr_scan", "android": "https://dc.lft.to/lastmile_qr_scan"}, "lon": -77.05599533333333, "bike_id": "d3c315f080acd7f00cc8f92151f0f853", "type": "electric_scooter", "name": "d3c315f080acd7f00cc8f92151f0f853"}, {"is_disabled": 0, "is_reserved": 0, "fusion_lat": 0.0, "lat": 38.86679266666667, "fusion_lon": 0.0, "rental_uris": {"ios": "https://dc.lft.to/lastmile_qr_scan", "android": "https://dc.lft.to/lastmile_qr_scan"}, "lon": -77.0102815, "bike_id": "bfb0b156b13d56de2c00082c3211ace9", "type": "electric_scooter", "name": "bfb0b156b13d56de2c00082c3211ace9"}, {"is_disabled": 0, "is_reserved": 0, "fusion_lat": 0.0, "lat": 38.91807133333333, "fusion_lon": 0.0, "rental_uris": {"ios": "https://dc.lft.to/lastmile_qr_scan", "android": "https://dc.lft.to/lastmile_qr_scan"}, "lon": -77.03981566666667, "bike_id": "b872f5466fbe8211d47b7a09178a52c4", "type": "electric_scooter", "name": "b872f5466fbe8211d47b7a09178a52c4"}, {"is_disabled": 0, "is_reserved": 0, "fusion_lat": 0.0, "lat": 38.88871283333334, "fusion_lon": 0.0, "rental_uris": {"ios": "https://dc.lft.to/lastmile_qr_scan", "android": "https://dc.lft.to/lastmile_qr_scan"}, "lon": -76.990334, "bike_id": "caff5dfdd25de232c835806b00d5286d", "type": "electric_scooter", "name": "caff5dfdd25de232c835806b00d5286d"}, {"is_disabled": 0, "is_reserved": 0, "fusion_lat": 0.0, "lat": 38.927448, "fusion_lon": 0.0, "rental_uris": {"ios": "https://dc.lft.to/lastmile_qr_scan", "android": "https://dc.lft.to/lastmile_qr_scan"}, "lon": -77.03307783333334, "bike_id": "46bcd70e360f187bc142784bb94d2f41", "type": "electric_scooter", "name": "46bcd70e360f187bc142784bb94d2f41"}, {"is_disabled": 0, "is_reserved": 0, "fusion_lat": 0.0, "lat": 38.914137333333336, "fusion_lon": 0.0, "rental_uris": {"ios": "https://dc.lft.to/lastmile_qr_scan", "android": "https://dc.lft.to/lastmile_qr_scan"}, "lon": -77.02953783333334, "bike_id": "ad155a8606a724b51bc4f0b18d959cb9", "type": "electric_scooter", "name": "ad155a8606a724b51bc4f0b18d959cb9"}, {"is_disabled": 0, "is_reserved": 0, "fusion_lat": 0.0, "lat": 38.9286725, "fusion_lon": 0.0, "rental_uris": {"ios": "https://dc.lft.to/lastmile_qr_scan", "android": "https://dc.lft.to/lastmile_qr_scan"}, "lon": -77.039896, "bike_id": "a451829316b18c698dc343d34d757e00", "type": "electric_scooter", "name": "a451829316b18c698dc343d34d757e00"}, {"is_disabled": 0, "is_reserved": 0, "fusion_lat": 0.0, "lat": 38.93525416666667, "fusion_lon": 0.0, "rental_uris": {"ios": "https://dc.lft.to/lastmile_qr_scan", "android": "https://dc.lft.to/lastmile_qr_scan"}, "lon": -77.03265833333333, "bike_id": "9d157c0eeb014fe7bb61f1db299910b1", "type": "electric_scooter", "name": "9d157c0eeb014fe7bb61f1db299910b1"}, {"is_disabled": 0, "is_reserved": 0, "fusion_lat": 0.0, "lat": 38.90038533333333, "fusion_lon": 0.0, "rental_uris": {"ios": "https://dc.lft.to/lastmile_qr_scan", "android": "https://dc.lft.to/lastmile_qr_scan"}, "lon": -77.033234, "bike_id": "3cc646a4c92c5790f1aed5548da34e84", "type": "electric_scooter", "name": "3cc646a4c92c5790f1aed5548da34e84"}, {"is_disabled": 0, "is_reserved": 0, "fusion_lat": 0.0, "lat": 38.895122, "fusion_lon": 0.0, "rental_uris": {"ios": "https://dc.lft.to/lastmile_qr_scan", "android": "https://dc.lft.to/lastmile_qr_scan"}, "lon": -77.02203866666666, "bike_id": "42fe523079cf6ec20a90f9c2a360c38c", "type": "electric_scooter", "name": "42fe523079cf6ec20a90f9c2a360c38c"}, {"is_disabled": 0, "is_reserved": 0, "fusion_lat": 0.0, "lat": 38.90504466666667, "fusion_lon": 0.0, "rental_uris": {"ios": "https://dc.lft.to/lastmile_qr_scan", "android": "https://dc.lft.to/lastmile_qr_scan"}, "lon": -77.0091475, "bike_id": "48245137d27c87ab2b3c83b74365587a", "type": "electric_scooter", "name": "48245137d27c87ab2b3c83b74365587a"}, {"is_disabled": 0, "is_reserved": 0, "fusion_lat": 0.0, "lat": 38.891677666666666, "fusion_lon": 0.0, "rental_uris": {"ios": "https://dc.lft.to/lastmile_qr_scan", "android": "https://dc.lft.to/lastmile_qr_scan"}, "lon": -77.01549116666666, "bike_id": "9b682315ba977b98dd78ef66334c3bf9", "type": "electric_scooter", "name": "9b682315ba977b98dd78ef66334c3bf9"}, {"is_disabled": 0, "is_reserved": 0, "fusion_lat": 0.0, "lat": 38.90674883333333, "fusion_lon": 0.0, "rental_uris": {"ios": "https://dc.lft.to/lastmile_qr_scan", "android": "https://dc.lft.to/lastmile_qr_scan"}, "lon": -76.97930666666667, "bike_id": "121ad88f594a6abbe7abc837fa28744f", "type": "electric_scooter", "name": "121ad88f594a6abbe7abc837fa28744f"}, {"is_disabled": 0, "is_reserved": 0, "fusion_lat": 0.0, "lat": 38.9035645, "fusion_lon": 0.0, "rental_uris": {"ios": "https://dc.lft.to/lastmile_qr_scan", "android": "https://dc.lft.to/lastmile_qr_scan"}, "lon": -77.0482585, "bike_id": "7e1b4179bc98af216ecd05b121a356e1", "type": "electric_scooter", "name": "7e1b4179bc98af216ecd05b121a356e1"}, {"is_disabled": 0, "is_reserved": 0, "fusion_lat": 0.0, "lat": 38.89191783333333, "fusion_lon": 0.0, "rental_uris": {"ios": "https://dc.lft.to/lastmile_qr_scan", "android": "https://dc.lft.to/lastmile_qr_scan"}, "lon": -77.02226716666667, "bike_id": "c9b772f4ef979594d05734c1d82053df", "type": "electric_scooter", "name": "c9b772f4ef979594d05734c1d82053df"}, {"is_disabled": 0, "is_reserved": 0, "fusion_lat": 0.0, "lat": 38.90422266666667, "fusion_lon": 0.0, "rental_uris": {"ios": "https://dc.lft.to/lastmile_qr_scan", "android": "https://dc.lft.to/lastmile_qr_scan"}, "lon": -77.06112183333333, "bike_id": "9e07bddcea76288ed6257ae02fa0100c", "type": "electric_scooter", "name": "9e07bddcea76288ed6257ae02fa0100c"}, {"is_disabled": 0, "is_reserved": 0, "fusion_lat": 0.0, "lat": 38.956165, "fusion_lon": 0.0, "rental_uris": {"ios": "https://dc.lft.to/lastmile_qr_scan", "android": "https://dc.lft.to/lastmile_qr_scan"}, "lon": -77.0331135, "bike_id": "9aecd2d9b5b4eda226a3bf209f987769", "type": "electric_scooter", "name": "9aecd2d9b5b4eda226a3bf209f987769"}, {"is_disabled": 0, "is_reserved": 0, "fusion_lat": 0.0, "lat": 38.904172833333334, "fusion_lon": 0.0, "rental_uris": {"ios": "https://dc.lft.to/lastmile_qr_scan", "android": "https://dc.lft.to/lastmile_qr_scan"}, "lon": -77.05321283333333, "bike_id": "13df29bd2d8a78c29cd74ca4a9b45eb4", "type": "electric_scooter", "name": "13df29bd2d8a78c29cd74ca4a9b45eb4"}, {"is_disabled": 0, "is_reserved": 0, "fusion_lat": 0.0, "lat": 38.9236875, "fusion_lon": 0.0, "rental_uris": {"ios": "https://dc.lft.to/lastmile_qr_scan", "android": "https://dc.lft.to/lastmile_qr_scan"}, "lon": -77.0409775, "bike_id": "9c321aa84b948fc2df3928284db26505", "type": "electric_bike", "name": "9c321aa84b948fc2df3928284db26505"}, {"is_disabled": 0, "is_reserved": 0, "fusion_lat": 0.0, "lat": 38.9195655, "fusion_lon": 0.0, "rental_uris": {"ios": "https://dc.lft.to/lastmile_qr_scan", "android": "https://dc.lft.to/lastmile_qr_scan"}, "lon": -77.023082, "bike_id": "79694c0622f800af89e231e9698597c3", "type": "electric_scooter", "name": "79694c0622f800af89e231e9698597c3"}, {"is_disabled": 0, "is_reserved": 0, "fusion_lat": 0.0, "lat": 38.9149555, "fusion_lon": 0.0, "rental_uris": {"ios": "https://dc.lft.to/lastmile_qr_scan", "android": "https://dc.lft.to/lastmile_qr_scan"}, "lon": -76.98372983333333, "bike_id": "be41def4d4615516043260e943b43b1b", "type": "electric_scooter", "name": "be41def4d4615516043260e943b43b1b"}, {"is_disabled": 0, "is_reserved": 0, "fusion_lat": 0.0, "lat": 38.91105116666667, "fusion_lon": 0.0, "rental_uris": {"ios": "https://dc.lft.to/lastmile_qr_scan", "android": "https://dc.lft.to/lastmile_qr_scan"}, "lon": -77.0187555, "bike_id": "e07fcb7f0cc21f5ff2bdf10dfef882ba", "type": "electric_scooter", "name": "e07fcb7f0cc21f5ff2bdf10dfef882ba"}, {"is_disabled": 0, "is_reserved": 0, "fusion_lat": 0.0, "lat": 38.891930333333335, "fusion_lon": 0.0, "rental_uris": {"ios": "https://dc.lft.to/lastmile_qr_scan", "android": "https://dc.lft.to/lastmile_qr_scan"}, "lon": -77.02474483333333, "bike_id": "f3d40aed381257f8d3178c9b2bfdf26b", "type": "electric_scooter", "name": "f3d40aed381257f8d3178c9b2bfdf26b"}, {"is_disabled": 0, "is_reserved": 0, "fusion_lat": 0.0, "lat": 38.921651, "fusion_lon": 0.0, "rental_uris": {"ios": "https://dc.lft.to/lastmile_qr_scan", "android": "https://dc.lft.to/lastmile_qr_scan"}, "lon": -77.03663616666667, "bike_id": "e36780b0a1a0060aafd7478ef63b310a", "type": "electric_scooter", "name": "e36780b0a1a0060aafd7478ef63b310a"}, {"is_disabled": 0, "is_reserved": 0, "fusion_lat": 0.0, "lat": 38.90722866666667, "fusion_lon": 0.0, "rental_uris": {"ios": "https://dc.lft.to/lastmile_qr_scan", "android": "https://dc.lft.to/lastmile_qr_scan"}, "lon": -77.053084, "bike_id": "7ce5bbe6be513dc03ae5683524528a4a", "type": "electric_scooter", "name": "7ce5bbe6be513dc03ae5683524528a4a"}, {"is_disabled": 0, "is_reserved": 0, "fusion_lat": 0.0, "lat": 38.8848435, "fusion_lon": 0.0, "rental_uris": {"ios": "https://dc.lft.to/lastmile_qr_scan", "android": "https://dc.lft.to/lastmile_qr_scan"}, "lon": -77.03349916666667, "bike_id": "fc48a8268202db8bb8952acc7efe142d", "type": "electric_scooter", "name": "fc48a8268202db8bb8952acc7efe142d"}, {"is_disabled": 0, "is_reserved": 0, "fusion_lat": 0.0, "lat": 38.931311666666666, "fusion_lon": 0.0, "rental_uris": {"ios": "https://dc.lft.to/lastmile_qr_scan", "android": "https://dc.lft.to/lastmile_qr_scan"}, "lon": -77.02806133333333, "bike_id": "8b3c38c5653cd78daf97a0a476a660f3", "type": "electric_scooter", "name": "8b3c38c5653cd78daf97a0a476a660f3"}, {"is_disabled": 0, "is_reserved": 0, "fusion_lat": 0.0, "lat": 38.90986083333333, "fusion_lon": 0.0, "rental_uris": {"ios": "https://dc.lft.to/lastmile_qr_scan", "android": "https://dc.lft.to/lastmile_qr_scan"}, "lon": -77.02208166666667, "bike_id": "6f414240403f75b410e230a0ea1648b2", "type": "electric_scooter", "name": "6f414240403f75b410e230a0ea1648b2"}, {"is_disabled": 0, "is_reserved": 0, "fusion_lat": 0.0, "lat": 38.897347833333335, "fusion_lon": 0.0, "rental_uris": {"ios": "https://dc.lft.to/lastmile_qr_scan", "android": "https://dc.lft.to/lastmile_qr_scan"}, "lon": -77.0213685, "bike_id": "84ed755ec78945cceab47ce39fdfaa6d", "type": "electric_scooter", "name": "84ed755ec78945cceab47ce39fdfaa6d"}, {"is_disabled": 0, "is_reserved": 0, "fusion_lat": 0.0, "lat": 38.91275533333334, "fusion_lon": 0.0, "rental_uris": {"ios": "https://dc.lft.to/lastmile_qr_scan", "android": "https://dc.lft.to/lastmile_qr_scan"}, "lon": -77.02267166666667, "bike_id": "417c15590fdc3f028f552b757b1282fc", "type": "electric_scooter", "name": "417c15590fdc3f028f552b757b1282fc"}, {"is_disabled": 0, "is_reserved": 0, "fusion_lat": 0.0, "lat": 38.93308583333334, "fusion_lon": 0.0, "rental_uris": {"ios": "https://dc.lft.to/lastmile_qr_scan", "android": "https://dc.lft.to/lastmile_qr_scan"}, "lon": -77.0318125, "bike_id": "82d2ba035640836d11936331aabfc833", "type": "electric_scooter", "name": "82d2ba035640836d11936331aabfc833"}, {"is_disabled": 0, "is_reserved": 0, "fusion_lat": 0.0, "lat": 38.93060766666667, "fusion_lon": 0.0, "rental_uris": {"ios": "https://dc.lft.to/lastmile_qr_scan", "android": "https://dc.lft.to/lastmile_qr_scan"}, "lon": -77.03163083333334, "bike_id": "6bc14a69e5c3cfeb5eb786675f770597", "type": "electric_scooter", "name": "6bc14a69e5c3cfeb5eb786675f770597"}, {"is_disabled": 0, "is_reserved": 0, "fusion_lat": 0.0, "lat": 38.89356683333333, "fusion_lon": 0.0, "rental_uris": {"ios": "https://dc.lft.to/lastmile_qr_scan", "android": "https://dc.lft.to/lastmile_qr_scan"}, "lon": -76.99214716666667, "bike_id": "e940a3cbb985ff37f35cf3bfe39125ae", "type": "electric_scooter", "name": "e940a3cbb985ff37f35cf3bfe39125ae"}, {"is_disabled": 0, "is_reserved": 0, "fusion_lat": 0.0, "lat": 38.91214883333333, "fusion_lon": 0.0, "rental_uris": {"ios": "https://dc.lft.to/lastmile_qr_scan", "android": "https://dc.lft.to/lastmile_qr_scan"}, "lon": -77.02097183333333, "bike_id": "2eff1f615405ce3782ad5cb3b7d67e69", "type": "electric_scooter", "name": "2eff1f615405ce3782ad5cb3b7d67e69"}, {"is_disabled": 0, "is_reserved": 0, "fusion_lat": 0.0, "lat": 38.933515166666666, "fusion_lon": 0.0, "rental_uris": {"ios": "https://dc.lft.to/lastmile_qr_scan", "android": "https://dc.lft.to/lastmile_qr_scan"}, "lon": -77.07290333333333, "bike_id": "0bc6c61d38d001fd499933707b13066e", "type": "electric_scooter", "name": "0bc6c61d38d001fd499933707b13066e"}, {"is_disabled": 0, "is_reserved": 0, "fusion_lat": 0.0, "lat": 38.97602533333333, "fusion_lon": 0.0, "rental_uris": {"ios": "https://dc.lft.to/lastmile_qr_scan", "android": "https://dc.lft.to/lastmile_qr_scan"}, "lon": -77.0187645, "bike_id": "af378ef05e21f2d0c20d033c9d1ed34b", "type": "electric_scooter", "name": "af378ef05e21f2d0c20d033c9d1ed34b"}, {"is_disabled": 0, "is_reserved": 0, "fusion_lat": 0.0, "lat": 38.908567833333336, "fusion_lon": 0.0, "rental_uris": {"ios": "https://dc.lft.to/lastmile_qr_scan", "android": "https://dc.lft.to/lastmile_qr_scan"}, "lon": -77.05479566666666, "bike_id": "87db02317dd660c8edf0e0f1867bbc7b", "type": "electric_bike", "name": "87db02317dd660c8edf0e0f1867bbc7b"}, {"is_disabled": 0, "is_reserved": 0, "fusion_lat": 0.0, "lat": 38.897420833333335, "fusion_lon": 0.0, "rental_uris": {"ios": "https://dc.lft.to/lastmile_qr_scan", "android": "https://dc.lft.to/lastmile_qr_scan"}, "lon": -77.04541266666666, "bike_id": "f6ae5eb4c146ad5db776afc6fc8c3c02", "type": "electric_scooter", "name": "f6ae5eb4c146ad5db776afc6fc8c3c02"}, {"is_disabled": 0, "is_reserved": 0, "fusion_lat": 0.0, "lat": 38.9871895, "fusion_lon": 0.0, "rental_uris": {"ios": "https://dc.lft.to/lastmile_qr_scan", "android": "https://dc.lft.to/lastmile_qr_scan"}, "lon": -77.037639, "bike_id": "77c7c40d7fda9339bc681cf21d245abf", "type": "electric_bike", "name": "77c7c40d7fda9339bc681cf21d245abf"}, {"is_disabled": 0, "is_reserved": 0, "fusion_lat": 0.0, "lat": 38.95087633333333, "fusion_lon": 0.0, "rental_uris": {"ios": "https://dc.lft.to/lastmile_qr_scan", "android": "https://dc.lft.to/lastmile_qr_scan"}, "lon": -77.01257816666667, "bike_id": "cb641ee430a91f76ea184120bb815aa0", "type": "electric_bike", "name": "cb641ee430a91f76ea184120bb815aa0"}, {"is_disabled": 0, "is_reserved": 0, "fusion_lat": 0.0, "lat": 38.89244583333333, "fusion_lon": 0.0, "rental_uris": {"ios": "https://dc.lft.to/lastmile_qr_scan", "android": "https://dc.lft.to/lastmile_qr_scan"}, "lon": -77.0320835, "bike_id": "49a81dceab0ae92e421f80b15755827b", "type": "electric_scooter", "name": "49a81dceab0ae92e421f80b15755827b"}, {"is_disabled": 0, "is_reserved": 0, "fusion_lat": 0.0, "lat": 38.91060433333333, "fusion_lon": 0.0, "rental_uris": {"ios": "https://dc.lft.to/lastmile_qr_scan", "android": "https://dc.lft.to/lastmile_qr_scan"}, "lon": -77.01994533333334, "bike_id": "01c20cdc922c3c1937e69364c20bac96", "type": "electric_scooter", "name": "01c20cdc922c3c1937e69364c20bac96"}, {"is_disabled": 0, "is_reserved": 0, "fusion_lat": 0.0, "lat": 38.84286316666667, "fusion_lon": 0.0, "rental_uris": {"ios": "https://dc.lft.to/lastmile_qr_scan", "android": "https://dc.lft.to/lastmile_qr_scan"}, "lon": -77.06379633333333, "bike_id": "726b17bfe73e31629333c6055c0e03d1", "type": "electric_bike", "name": "726b17bfe73e31629333c6055c0e03d1"}, {"is_disabled": 0, "is_reserved": 0, "fusion_lat": 0.0, "lat": 38.917367, "fusion_lon": 0.0, "rental_uris": {"ios": "https://dc.lft.to/lastmile_qr_scan", "android": "https://dc.lft.to/lastmile_qr_scan"}, "lon": -77.02394833333334, "bike_id": "814561430b1325c3437fb40fd552f816", "type": "electric_scooter", "name": "814561430b1325c3437fb40fd552f816"}, {"is_disabled": 0, "is_reserved": 0, "fusion_lat": 0.0, "lat": 38.89248116666667, "fusion_lon": 0.0, "rental_uris": {"ios": "https://dc.lft.to/lastmile_qr_scan", "android": "https://dc.lft.to/lastmile_qr_scan"}, "lon": -77.046597, "bike_id": "490e47972b10636b84feca23756636c7", "type": "electric_scooter", "name": "490e47972b10636b84feca23756636c7"}, {"is_disabled": 0, "is_reserved": 0, "fusion_lat": 0.0, "lat": 38.933789, "fusion_lon": 0.0, "rental_uris": {"ios": "https://dc.lft.to/lastmile_qr_scan", "android": "https://dc.lft.to/lastmile_qr_scan"}, "lon": -77.0239855, "bike_id": "dd0d286bfe95085c1d6076d13d7a17c4", "type": "electric_scooter", "name": "dd0d286bfe95085c1d6076d13d7a17c4"}, {"is_disabled": 0, "is_reserved": 0, "fusion_lat": 0.0, "lat": 38.91265683333334, "fusion_lon": 0.0, "rental_uris": {"ios": "https://dc.lft.to/lastmile_qr_scan", "android": "https://dc.lft.to/lastmile_qr_scan"}, "lon": -77.04479116666667, "bike_id": "a1021ab76b7aae0b2c8f7e7f8ee6584b", "type": "electric_scooter", "name": "a1021ab76b7aae0b2c8f7e7f8ee6584b"}, {"is_disabled": 0, "is_reserved": 0, "fusion_lat": 0.0, "lat": 38.92987733333333, "fusion_lon": 0.0, "rental_uris": {"ios": "https://dc.lft.to/lastmile_qr_scan", "android": "https://dc.lft.to/lastmile_qr_scan"}, "lon": -77.03476033333334, "bike_id": "f9ac99110293ce704c282c30ba80f43c", "type": "electric_scooter", "name": "f9ac99110293ce704c282c30ba80f43c"}, {"is_disabled": 0, "is_reserved": 0, "fusion_lat": 0.0, "lat": 38.91309483333333, "fusion_lon": 0.0, "rental_uris": {"ios": "https://dc.lft.to/lastmile_qr_scan", "android": "https://dc.lft.to/lastmile_qr_scan"}, "lon": -77.01447266666666, "bike_id": "6c7e81c939b8e1238b94ef13fa31e721", "type": "electric_scooter", "name": "6c7e81c939b8e1238b94ef13fa31e721"}, {"is_disabled": 0, "is_reserved": 0, "fusion_lat": 0.0, "lat": 38.91796333333333, "fusion_lon": 0.0, "rental_uris": {"ios": "https://dc.lft.to/lastmile_qr_scan", "android": "https://dc.lft.to/lastmile_qr_scan"}, "lon": -77.02711016666667, "bike_id": "b6dd33c13a6b833c515955020f2af071", "type": "electric_scooter", "name": "b6dd33c13a6b833c515955020f2af071"}, {"is_disabled": 0, "is_reserved": 0, "fusion_lat": 0.0, "lat": 38.9137685, "fusion_lon": 0.0, "rental_uris": {"ios": "https://dc.lft.to/lastmile_qr_scan", "android": "https://dc.lft.to/lastmile_qr_scan"}, "lon": -77.04587633333334, "bike_id": "e15ed9fd43e2dc678d0fb6dabcea1986", "type": "electric_scooter", "name": "e15ed9fd43e2dc678d0fb6dabcea1986"}, {"is_disabled": 0, "is_reserved": 0, "fusion_lat": 0.0, "lat": 38.90885133333333, "fusion_lon": 0.0, "rental_uris": {"ios": "https://dc.lft.to/lastmile_qr_scan", "android": "https://dc.lft.to/lastmile_qr_scan"}, "lon": -76.9982045, "bike_id": "f72caaf110faaa04a8826e5972bafd68", "type": "electric_scooter", "name": "f72caaf110faaa04a8826e5972bafd68"}, {"is_disabled": 0, "is_reserved": 0, "fusion_lat": 0.0, "lat": 38.93450466666667, "fusion_lon": 0.0, "rental_uris": {"ios": "https://dc.lft.to/lastmile_qr_scan", "android": "https://dc.lft.to/lastmile_qr_scan"}, "lon": -77.02987783333333, "bike_id": "129815532e7f36b39d1dc58122db5e26", "type": "electric_scooter", "name": "129815532e7f36b39d1dc58122db5e26"}, {"is_disabled": 0, "is_reserved": 0, "fusion_lat": 0.0, "lat": 38.94926266666667, "fusion_lon": 0.0, "rental_uris": {"ios": "https://dc.lft.to/lastmile_qr_scan", "android": "https://dc.lft.to/lastmile_qr_scan"}, "lon": -77.01939933333334, "bike_id": "704d7b801c318b22ae2742b438e0c301", "type": "electric_scooter", "name": "704d7b801c318b22ae2742b438e0c301"}, {"is_disabled": 0, "is_reserved": 0, "fusion_lat": 0.0, "lat": 38.948358666666664, "fusion_lon": 0.0, "rental_uris": {"ios": "https://dc.lft.to/lastmile_qr_scan", "android": "https://dc.lft.to/lastmile_qr_scan"}, "lon": -76.9823685, "bike_id": "54d7cf15e52eab26bb2df2881d4885f9", "type": "electric_scooter", "name": "54d7cf15e52eab26bb2df2881d4885f9"}, {"is_disabled": 0, "is_reserved": 0, "fusion_lat": 0.0, "lat": 38.919223833333334, "fusion_lon": 0.0, "rental_uris": {"ios": "https://dc.lft.to/lastmile_qr_scan", "android": "https://dc.lft.to/lastmile_qr_scan"}, "lon": -77.03427783333333, "bike_id": "64a3b98aeb563718548ca597a57a96e6", "type": "electric_scooter", "name": "64a3b98aeb563718548ca597a57a96e6"}, {"is_disabled": 0, "is_reserved": 0, "fusion_lat": 0.0, "lat": 38.90110983333334, "fusion_lon": 0.0, "rental_uris": {"ios": "https://dc.lft.to/lastmile_qr_scan", "android": "https://dc.lft.to/lastmile_qr_scan"}, "lon": -77.01816266666667, "bike_id": "22347d6742f40af15b54e7061396057b", "type": "electric_scooter", "name": "22347d6742f40af15b54e7061396057b"}, {"is_disabled": 0, "is_reserved": 0, "fusion_lat": 0.0, "lat": 38.9105245, "fusion_lon": 0.0, "rental_uris": {"ios": "https://dc.lft.to/lastmile_qr_scan", "android": "https://dc.lft.to/lastmile_qr_scan"}, "lon": -77.044924, "bike_id": "96c2f398853eeada2483991a9f52c805", "type": "electric_scooter", "name": "96c2f398853eeada2483991a9f52c805"}, {"is_disabled": 0, "is_reserved": 0, "fusion_lat": 0.0, "lat": 38.900346666666664, "fusion_lon": 0.0, "rental_uris": {"ios": "https://dc.lft.to/lastmile_qr_scan", "android": "https://dc.lft.to/lastmile_qr_scan"}, "lon": -76.98828783333333, "bike_id": "485d66202f827a96d23983332b1af633", "type": "electric_scooter", "name": "485d66202f827a96d23983332b1af633"}, {"is_disabled": 0, "is_reserved": 0, "fusion_lat": 0.0, "lat": 38.90363033333333, "fusion_lon": 0.0, "rental_uris": {"ios": "https://dc.lft.to/lastmile_qr_scan", "android": "https://dc.lft.to/lastmile_qr_scan"}, "lon": -77.027803, "bike_id": "d1f649ee731b3cf9438f2fb89ce7c973", "type": "electric_scooter", "name": "d1f649ee731b3cf9438f2fb89ce7c973"}, {"is_disabled": 0, "is_reserved": 0, "fusion_lat": 0.0, "lat": 38.90602, "fusion_lon": 0.0, "rental_uris": {"ios": "https://dc.lft.to/lastmile_qr_scan", "android": "https://dc.lft.to/lastmile_qr_scan"}, "lon": -77.12895783333333, "bike_id": "66e21a47e655d46b336d5f5038df8d66", "type": "electric_bike", "name": "66e21a47e655d46b336d5f5038df8d66"}, {"is_disabled": 0, "is_reserved": 0, "fusion_lat": 0.0, "lat": 38.8921935, "fusion_lon": 0.0, "rental_uris": {"ios": "https://dc.lft.to/lastmile_qr_scan", "android": "https://dc.lft.to/lastmile_qr_scan"}, "lon": -77.02423283333333, "bike_id": "4e1a220acfacf3de004d31f5b62ad698", "type": "electric_scooter", "name": "4e1a220acfacf3de004d31f5b62ad698"}, {"is_disabled": 0, "is_reserved": 0, "fusion_lat": 0.0, "lat": 38.8973855, "fusion_lon": 0.0, "rental_uris": {"ios": "https://dc.lft.to/lastmile_qr_scan", "android": "https://dc.lft.to/lastmile_qr_scan"}, "lon": -77.0271295, "bike_id": "06094f7bbf8c79ffa6d22db6d9cc7688", "type": "electric_scooter", "name": "06094f7bbf8c79ffa6d22db6d9cc7688"}, {"is_disabled": 0, "is_reserved": 0, "fusion_lat": 0.0, "lat": 38.923143833333334, "fusion_lon": 0.0, "rental_uris": {"ios": "https://dc.lft.to/lastmile_qr_scan", "android": "https://dc.lft.to/lastmile_qr_scan"}, "lon": -77.028059, "bike_id": "c04a386c72a30b111215a3034fbafbb6", "type": "electric_scooter", "name": "c04a386c72a30b111215a3034fbafbb6"}, {"is_disabled": 0, "is_reserved": 0, "fusion_lat": 0.0, "lat": 38.8873915, "fusion_lon": 0.0, "rental_uris": {"ios": "https://dc.lft.to/lastmile_qr_scan", "android": "https://dc.lft.to/lastmile_qr_scan"}, "lon": -77.02201966666667, "bike_id": "9a3490e1f9d709fdc707181f2fd8c2da", "type": "electric_scooter", "name": "9a3490e1f9d709fdc707181f2fd8c2da"}, {"is_disabled": 0, "is_reserved": 0, "fusion_lat": 0.0, "lat": 38.85783683333333, "fusion_lon": 0.0, "rental_uris": {"ios": "https://dc.lft.to/lastmile_qr_scan", "android": "https://dc.lft.to/lastmile_qr_scan"}, "lon": -76.98755016666667, "bike_id": "6e626bd9f1ff3ba309e335c85abe9b28", "type": "electric_bike", "name": "6e626bd9f1ff3ba309e335c85abe9b28"}, {"is_disabled": 0, "is_reserved": 0, "fusion_lat": 0.0, "lat": 38.91811466666667, "fusion_lon": 0.0, "rental_uris": {"ios": "https://dc.lft.to/lastmile_qr_scan", "android": "https://dc.lft.to/lastmile_qr_scan"}, "lon": -77.0400245, "bike_id": "041024a0eb0f0e0d6fcb84c7a1b2dfe3", "type": "electric_scooter", "name": "041024a0eb0f0e0d6fcb84c7a1b2dfe3"}, {"is_disabled": 0, "is_reserved": 0, "fusion_lat": 0.0, "lat": 38.89254233333333, "fusion_lon": 0.0, "rental_uris": {"ios": "https://dc.lft.to/lastmile_qr_scan", "android": "https://dc.lft.to/lastmile_qr_scan"}, "lon": -77.04654516666666, "bike_id": "9dbf3c731db981233af9b953b67c6f44", "type": "electric_scooter", "name": "9dbf3c731db981233af9b953b67c6f44"}, {"is_disabled": 0, "is_reserved": 0, "fusion_lat": 0.0, "lat": 38.919217833333335, "fusion_lon": 0.0, "rental_uris": {"ios": "https://dc.lft.to/lastmile_qr_scan", "android": "https://dc.lft.to/lastmile_qr_scan"}, "lon": -77.03095783333333, "bike_id": "1720a58a29c6d699243e5a0de401347d", "type": "electric_scooter", "name": "1720a58a29c6d699243e5a0de401347d"}, {"is_disabled": 0, "is_reserved": 0, "fusion_lat": 0.0, "lat": 38.924075, "fusion_lon": 0.0, "rental_uris": {"ios": "https://dc.lft.to/lastmile_qr_scan", "android": "https://dc.lft.to/lastmile_qr_scan"}, "lon": -77.027112, "bike_id": "7d684b9a80d6dfa91ca15792e914ee4b", "type": "electric_scooter", "name": "7d684b9a80d6dfa91ca15792e914ee4b"}, {"is_disabled": 0, "is_reserved": 0, "fusion_lat": 0.0, "lat": 38.858393166666666, "fusion_lon": 0.0, "rental_uris": {"ios": "https://dc.lft.to/lastmile_qr_scan", "android": "https://dc.lft.to/lastmile_qr_scan"}, "lon": -76.98818416666667, "bike_id": "aa45f7d3f3796ec636a7c9121ba490d7", "type": "electric_scooter", "name": "aa45f7d3f3796ec636a7c9121ba490d7"}, {"is_disabled": 0, "is_reserved": 0, "fusion_lat": 0.0, "lat": 38.93863, "fusion_lon": 0.0, "rental_uris": {"ios": "https://dc.lft.to/lastmile_qr_scan", "android": "https://dc.lft.to/lastmile_qr_scan"}, "lon": -77.026285, "bike_id": "0785ca7f01481033956be406e56b8d5e", "type": "electric_bike", "name": "0785ca7f01481033956be406e56b8d5e"}, {"is_disabled": 0, "is_reserved": 0, "fusion_lat": 0.0, "lat": 38.919156666666666, "fusion_lon": 0.0, "rental_uris": {"ios": "https://dc.lft.to/lastmile_qr_scan", "android": "https://dc.lft.to/lastmile_qr_scan"}, "lon": -77.033393, "bike_id": "df54844c02782a11ee65f971b7fc5c7e", "type": "electric_scooter", "name": "df54844c02782a11ee65f971b7fc5c7e"}, {"is_disabled": 0, "is_reserved": 0, "fusion_lat": 0.0, "lat": 38.894994833333335, "fusion_lon": 0.0, "rental_uris": {"ios": "https://dc.lft.to/lastmile_qr_scan", "android": "https://dc.lft.to/lastmile_qr_scan"}, "lon": -77.02300633333333, "bike_id": "07e61629a14cc37ffced644b8b0976d9", "type": "electric_scooter", "name": "07e61629a14cc37ffced644b8b0976d9"}, {"is_disabled": 0, "is_reserved": 0, "fusion_lat": 0.0, "lat": 38.8649235, "fusion_lon": 0.0, "rental_uris": {"ios": "https://dc.lft.to/lastmile_qr_scan", "android": "https://dc.lft.to/lastmile_qr_scan"}, "lon": -76.96984783333333, "bike_id": "eec25930e2193752965454c6ddd18e0b", "type": "electric_bike", "name": "eec25930e2193752965454c6ddd18e0b"}, {"is_disabled": 0, "is_reserved": 0, "fusion_lat": 0.0, "lat": 38.9196175, "fusion_lon": 0.0, "rental_uris": {"ios": "https://dc.lft.to/lastmile_qr_scan", "android": "https://dc.lft.to/lastmile_qr_scan"}, "lon": -77.0189605, "bike_id": "3346474907347614e2796447be0d612f", "type": "electric_scooter", "name": "3346474907347614e2796447be0d612f"}, {"is_disabled": 0, "is_reserved": 0, "fusion_lat": 0.0, "lat": 38.921341, "fusion_lon": 0.0, "rental_uris": {"ios": "https://dc.lft.to/lastmile_qr_scan", "android": "https://dc.lft.to/lastmile_qr_scan"}, "lon": -77.01798716666667, "bike_id": "adaa8a45690c4a69cd771d5931f445c7", "type": "electric_scooter", "name": "adaa8a45690c4a69cd771d5931f445c7"}, {"is_disabled": 0, "is_reserved": 0, "fusion_lat": 0.0, "lat": 38.92218716666667, "fusion_lon": 0.0, "rental_uris": {"ios": "https://dc.lft.to/lastmile_qr_scan", "android": "https://dc.lft.to/lastmile_qr_scan"}, "lon": -77.03902483333333, "bike_id": "63fb79379edece02fdf4309d0b90cb94", "type": "electric_scooter", "name": "63fb79379edece02fdf4309d0b90cb94"}, {"is_disabled": 0, "is_reserved": 0, "fusion_lat": 0.0, "lat": 38.9143495, "fusion_lon": 0.0, "rental_uris": {"ios": "https://dc.lft.to/lastmile_qr_scan", "android": "https://dc.lft.to/lastmile_qr_scan"}, "lon": -76.9843395, "bike_id": "61219cdd3630c9e869b28f3a2877138b", "type": "electric_scooter", "name": "61219cdd3630c9e869b28f3a2877138b"}, {"is_disabled": 0, "is_reserved": 0, "fusion_lat": 0.0, "lat": 38.878910166666664, "fusion_lon": 0.0, "rental_uris": {"ios": "https://dc.lft.to/lastmile_qr_scan", "android": "https://dc.lft.to/lastmile_qr_scan"}, "lon": -76.935252, "bike_id": "b2a3efdf638745868916893004bb21d9", "type": "electric_scooter", "name": "b2a3efdf638745868916893004bb21d9"}, {"is_disabled": 0, "is_reserved": 0, "fusion_lat": 0.0, "lat": 38.8960145, "fusion_lon": 0.0, "rental_uris": {"ios": "https://dc.lft.to/lastmile_qr_scan", "android": "https://dc.lft.to/lastmile_qr_scan"}, "lon": -77.02650533333333, "bike_id": "5d2c33dd45849e4537578e31d2663dec", "type": "electric_scooter", "name": "5d2c33dd45849e4537578e31d2663dec"}, {"is_disabled": 0, "is_reserved": 0, "fusion_lat": 0.0, "lat": 38.911326, "fusion_lon": 0.0, "rental_uris": {"ios": "https://dc.lft.to/lastmile_qr_scan", "android": "https://dc.lft.to/lastmile_qr_scan"}, "lon": -77.031985, "bike_id": "3e7c8bb6d598a55f278ef52a898e8c4a", "type": "electric_scooter", "name": "3e7c8bb6d598a55f278ef52a898e8c4a"}, {"is_disabled": 0, "is_reserved": 0, "fusion_lat": 0.0, "lat": 38.914693166666666, "fusion_lon": 0.0, "rental_uris": {"ios": "https://dc.lft.to/lastmile_qr_scan", "android": "https://dc.lft.to/lastmile_qr_scan"}, "lon": -77.0318865, "bike_id": "400616c04d2f44359fec85ea775c2071", "type": "electric_scooter", "name": "400616c04d2f44359fec85ea775c2071"}, {"is_disabled": 0, "is_reserved": 0, "fusion_lat": 0.0, "lat": 38.893258333333335, "fusion_lon": 0.0, "rental_uris": {"ios": "https://dc.lft.to/lastmile_qr_scan", "android": "https://dc.lft.to/lastmile_qr_scan"}, "lon": -77.01209233333333, "bike_id": "575095684847b72a6878fdc066ac9453", "type": "electric_scooter", "name": "575095684847b72a6878fdc066ac9453"}, {"is_disabled": 0, "is_reserved": 0, "fusion_lat": 0.0, "lat": 38.911774, "fusion_lon": 0.0, "rental_uris": {"ios": "https://dc.lft.to/lastmile_qr_scan", "android": "https://dc.lft.to/lastmile_qr_scan"}, "lon": -77.01209916666667, "bike_id": "0577a7347a373f28dd1099e3a7ecbdbe", "type": "electric_scooter", "name": "0577a7347a373f28dd1099e3a7ecbdbe"}, {"is_disabled": 0, "is_reserved": 0, "fusion_lat": 0.0, "lat": 38.898868, "fusion_lon": 0.0, "rental_uris": {"ios": "https://dc.lft.to/lastmile_qr_scan", "android": "https://dc.lft.to/lastmile_qr_scan"}, "lon": -76.98682366666667, "bike_id": "f62c16becd5a11780dac05fa8841d8cc", "type": "electric_scooter", "name": "f62c16becd5a11780dac05fa8841d8cc"}, {"is_disabled": 0, "is_reserved": 0, "fusion_lat": 0.0, "lat": 38.916433833333336, "fusion_lon": 0.0, "rental_uris": {"ios": "https://dc.lft.to/lastmile_qr_scan", "android": "https://dc.lft.to/lastmile_qr_scan"}, "lon": -77.04662866666666, "bike_id": "8b9bfc0b1d9762f3662f25afa80a32af", "type": "electric_scooter", "name": "8b9bfc0b1d9762f3662f25afa80a32af"}, {"is_disabled": 0, "is_reserved": 0, "fusion_lat": 0.0, "lat": 38.93450583333333, "fusion_lon": 0.0, "rental_uris": {"ios": "https://dc.lft.to/lastmile_qr_scan", "android": "https://dc.lft.to/lastmile_qr_scan"}, "lon": -77.02915016666667, "bike_id": "d75a1cb5411e4796550d3a615958b64e", "type": "electric_scooter", "name": "d75a1cb5411e4796550d3a615958b64e"}, {"is_disabled": 0, "is_reserved": 0, "fusion_lat": 0.0, "lat": 38.899427333333335, "fusion_lon": 0.0, "rental_uris": {"ios": "https://dc.lft.to/lastmile_qr_scan", "android": "https://dc.lft.to/lastmile_qr_scan"}, "lon": -76.93761533333333, "bike_id": "f582de44a79e4f0fad6c5958a4434833", "type": "electric_scooter", "name": "f582de44a79e4f0fad6c5958a4434833"}, {"is_disabled": 0, "is_reserved": 0, "fusion_lat": 0.0, "lat": 38.928300166666666, "fusion_lon": 0.0, "rental_uris": {"ios": "https://dc.lft.to/lastmile_qr_scan", "android": "https://dc.lft.to/lastmile_qr_scan"}, "lon": -77.05968583333333, "bike_id": "6a70368a4721c52cdf704c0493bc7e30", "type": "electric_bike", "name": "6a70368a4721c52cdf704c0493bc7e30"}, {"is_disabled": 0, "is_reserved": 0, "fusion_lat": 0.0, "lat": 38.892259, "fusion_lon": 0.0, "rental_uris": {"ios": "https://dc.lft.to/lastmile_qr_scan", "android": "https://dc.lft.to/lastmile_qr_scan"}, "lon": -77.03151316666667, "bike_id": "8ca1b3563a9936f8c9af58d440aaf4e6", "type": "electric_scooter", "name": "8ca1b3563a9936f8c9af58d440aaf4e6"}, {"is_disabled": 0, "is_reserved": 0, "fusion_lat": 0.0, "lat": 38.8897145, "fusion_lon": 0.0, "rental_uris": {"ios": "https://dc.lft.to/lastmile_qr_scan", "android": "https://dc.lft.to/lastmile_qr_scan"}, "lon": -76.98178833333333, "bike_id": "09feda6af182ae9898c7f152964843c8", "type": "electric_scooter", "name": "09feda6af182ae9898c7f152964843c8"}, {"is_disabled": 0, "is_reserved": 0, "fusion_lat": 0.0, "lat": 38.9181315, "fusion_lon": 0.0, "rental_uris": {"ios": "https://dc.lft.to/lastmile_qr_scan", "android": "https://dc.lft.to/lastmile_qr_scan"}, "lon": -77.00006016666667, "bike_id": "81c84e461fff16fc354969efbbb202a7", "type": "electric_scooter", "name": "81c84e461fff16fc354969efbbb202a7"}, {"is_disabled": 0, "is_reserved": 0, "fusion_lat": 0.0, "lat": 38.827587333333334, "fusion_lon": 0.0, "rental_uris": {"ios": "https://dc.lft.to/lastmile_qr_scan", "android": "https://dc.lft.to/lastmile_qr_scan"}, "lon": -77.05028483333334, "bike_id": "b62e7ff512d3659c6fdabe447880fb6b", "type": "electric_bike", "name": "b62e7ff512d3659c6fdabe447880fb6b"}, {"is_disabled": 0, "is_reserved": 0, "fusion_lat": 0.0, "lat": 38.91409016666667, "fusion_lon": 0.0, "rental_uris": {"ios": "https://dc.lft.to/lastmile_qr_scan", "android": "https://dc.lft.to/lastmile_qr_scan"}, "lon": -77.03221283333333, "bike_id": "7828b0259039760ba977a53187f3b885", "type": "electric_scooter", "name": "7828b0259039760ba977a53187f3b885"}, {"is_disabled": 0, "is_reserved": 0, "fusion_lat": 0.0, "lat": 38.93172166666667, "fusion_lon": 0.0, "rental_uris": {"ios": "https://dc.lft.to/lastmile_qr_scan", "android": "https://dc.lft.to/lastmile_qr_scan"}, "lon": -77.02812183333333, "bike_id": "def888701cbb0aad193ae6e9d82cded1", "type": "electric_scooter", "name": "def888701cbb0aad193ae6e9d82cded1"}, {"is_disabled": 0, "is_reserved": 0, "fusion_lat": 0.0, "lat": 38.915314, "fusion_lon": 0.0, "rental_uris": {"ios": "https://dc.lft.to/lastmile_qr_scan", "android": "https://dc.lft.to/lastmile_qr_scan"}, "lon": -77.04618916666666, "bike_id": "31404d9a95704c5b838cceadef5ca6d2", "type": "electric_scooter", "name": "31404d9a95704c5b838cceadef5ca6d2"}, {"is_disabled": 0, "is_reserved": 0, "fusion_lat": 0.0, "lat": 38.917050833333334, "fusion_lon": 0.0, "rental_uris": {"ios": "https://dc.lft.to/lastmile_qr_scan", "android": "https://dc.lft.to/lastmile_qr_scan"}, "lon": -77.0118615, "bike_id": "274b65893a52b5a17931dd22ef19dca9", "type": "electric_scooter", "name": "274b65893a52b5a17931dd22ef19dca9"}, {"is_disabled": 0, "is_reserved": 0, "fusion_lat": 0.0, "lat": 38.86261416666667, "fusion_lon": 0.0, "rental_uris": {"ios": "https://dc.lft.to/lastmile_qr_scan", "android": "https://dc.lft.to/lastmile_qr_scan"}, "lon": -76.983624, "bike_id": "47adc930372e1070634aa41988115bf4", "type": "electric_bike", "name": "47adc930372e1070634aa41988115bf4"}, {"is_disabled": 0, "is_reserved": 0, "fusion_lat": 0.0, "lat": 38.89221416666667, "fusion_lon": 0.0, "rental_uris": {"ios": "https://dc.lft.to/lastmile_qr_scan", "android": "https://dc.lft.to/lastmile_qr_scan"}, "lon": -77.043643, "bike_id": "faafdc1cb358778c918d2aebf88d359f", "type": "electric_scooter", "name": "faafdc1cb358778c918d2aebf88d359f"}, {"is_disabled": 0, "is_reserved": 0, "fusion_lat": 0.0, "lat": 38.922374833333336, "fusion_lon": 0.0, "rental_uris": {"ios": "https://dc.lft.to/lastmile_qr_scan", "android": "https://dc.lft.to/lastmile_qr_scan"}, "lon": -77.03518516666666, "bike_id": "cc23604ef3809540a26d5784c1841be5", "type": "electric_scooter", "name": "cc23604ef3809540a26d5784c1841be5"}, {"is_disabled": 0, "is_reserved": 0, "fusion_lat": 0.0, "lat": 38.891974833333336, "fusion_lon": 0.0, "rental_uris": {"ios": "https://dc.lft.to/lastmile_qr_scan", "android": "https://dc.lft.to/lastmile_qr_scan"}, "lon": -77.04385566666667, "bike_id": "d228eaf80baabf7948bdab503ac27368", "type": "electric_scooter", "name": "d228eaf80baabf7948bdab503ac27368"}, {"is_disabled": 0, "is_reserved": 0, "fusion_lat": 0.0, "lat": 38.927415833333335, "fusion_lon": 0.0, "rental_uris": {"ios": "https://dc.lft.to/lastmile_qr_scan", "android": "https://dc.lft.to/lastmile_qr_scan"}, "lon": -77.03302183333334, "bike_id": "bcd019f2f711f0c113df96c43b4e2018", "type": "electric_scooter", "name": "bcd019f2f711f0c113df96c43b4e2018"}, {"is_disabled": 0, "is_reserved": 0, "fusion_lat": 0.0, "lat": 38.869667, "fusion_lon": 0.0, "rental_uris": {"ios": "https://dc.lft.to/lastmile_qr_scan", "android": "https://dc.lft.to/lastmile_qr_scan"}, "lon": -77.01360583333333, "bike_id": "c65bdc50039c70cca306028631849305", "type": "electric_scooter", "name": "c65bdc50039c70cca306028631849305"}, {"is_disabled": 0, "is_reserved": 0, "fusion_lat": 0.0, "lat": 38.923619333333335, "fusion_lon": 0.0, "rental_uris": {"ios": "https://dc.lft.to/lastmile_qr_scan", "android": "https://dc.lft.to/lastmile_qr_scan"}, "lon": -77.0206215, "bike_id": "e66ae853d25d3712abb12d664ee73e2c", "type": "electric_scooter", "name": "e66ae853d25d3712abb12d664ee73e2c"}, {"is_disabled": 0, "is_reserved": 0, "fusion_lat": 0.0, "lat": 38.9084355, "fusion_lon": 0.0, "rental_uris": {"ios": "https://dc.lft.to/lastmile_qr_scan", "android": "https://dc.lft.to/lastmile_qr_scan"}, "lon": -76.93445233333334, "bike_id": "b64ab067df8561cb66d5583cad38c056", "type": "electric_scooter", "name": "b64ab067df8561cb66d5583cad38c056"}, {"is_disabled": 0, "is_reserved": 0, "fusion_lat": 0.0, "lat": 38.92747816666667, "fusion_lon": 0.0, "rental_uris": {"ios": "https://dc.lft.to/lastmile_qr_scan", "android": "https://dc.lft.to/lastmile_qr_scan"}, "lon": -77.033081, "bike_id": "0afdbacc069553e2b74bed4600a32e8a", "type": "electric_scooter", "name": "0afdbacc069553e2b74bed4600a32e8a"}, {"is_disabled": 0, "is_reserved": 0, "fusion_lat": 0.0, "lat": 38.92457533333334, "fusion_lon": 0.0, "rental_uris": {"ios": "https://dc.lft.to/lastmile_qr_scan", "android": "https://dc.lft.to/lastmile_qr_scan"}, "lon": -77.03643733333334, "bike_id": "d0931277d0f05d26379e555aa3d7e729", "type": "electric_scooter", "name": "d0931277d0f05d26379e555aa3d7e729"}, {"is_disabled": 0, "is_reserved": 0, "fusion_lat": 0.0, "lat": 38.968016666666664, "fusion_lon": 0.0, "rental_uris": {"ios": "https://dc.lft.to/lastmile_qr_scan", "android": "https://dc.lft.to/lastmile_qr_scan"}, "lon": -77.02427716666666, "bike_id": "2856956f56217e220533c77fe625519c", "type": "electric_scooter", "name": "2856956f56217e220533c77fe625519c"}, {"is_disabled": 0, "is_reserved": 0, "fusion_lat": 0.0, "lat": 38.89540183333333, "fusion_lon": 0.0, "rental_uris": {"ios": "https://dc.lft.to/lastmile_qr_scan", "android": "https://dc.lft.to/lastmile_qr_scan"}, "lon": -77.01123216666667, "bike_id": "cb329affe7cbaff426633332e8e21314", "type": "electric_scooter", "name": "cb329affe7cbaff426633332e8e21314"}, {"is_disabled": 0, "is_reserved": 0, "fusion_lat": 0.0, "lat": 38.929592166666666, "fusion_lon": 0.0, "rental_uris": {"ios": "https://dc.lft.to/lastmile_qr_scan", "android": "https://dc.lft.to/lastmile_qr_scan"}, "lon": -77.02867366666666, "bike_id": "9e44d2ed4cbc8deae1ac1c289df63a86", "type": "electric_bike", "name": "9e44d2ed4cbc8deae1ac1c289df63a86"}, {"is_disabled": 0, "is_reserved": 0, "fusion_lat": 0.0, "lat": 38.92383816666667, "fusion_lon": 0.0, "rental_uris": {"ios": "https://dc.lft.to/lastmile_qr_scan", "android": "https://dc.lft.to/lastmile_qr_scan"}, "lon": -77.03098566666667, "bike_id": "84fee3cdc27faba0d418e6a0ba5db29b", "type": "electric_scooter", "name": "84fee3cdc27faba0d418e6a0ba5db29b"}, {"is_disabled": 0, "is_reserved": 0, "fusion_lat": 0.0, "lat": 38.90268183333333, "fusion_lon": 0.0, "rental_uris": {"ios": "https://dc.lft.to/lastmile_qr_scan", "android": "https://dc.lft.to/lastmile_qr_scan"}, "lon": -77.01549216666666, "bike_id": "675651c0daaadff7cf2412ee157c96b2", "type": "electric_scooter", "name": "675651c0daaadff7cf2412ee157c96b2"}, {"is_disabled": 0, "is_reserved": 0, "fusion_lat": 0.0, "lat": 38.919917, "fusion_lon": 0.0, "rental_uris": {"ios": "https://dc.lft.to/lastmile_qr_scan", "android": "https://dc.lft.to/lastmile_qr_scan"}, "lon": -77.03245583333333, "bike_id": "725f27d8c8988b21d11b02ee40108b9e", "type": "electric_scooter", "name": "725f27d8c8988b21d11b02ee40108b9e"}, {"is_disabled": 0, "is_reserved": 0, "fusion_lat": 0.0, "lat": 38.962226, "fusion_lon": 0.0, "rental_uris": {"ios": "https://dc.lft.to/lastmile_qr_scan", "android": "https://dc.lft.to/lastmile_qr_scan"}, "lon": -77.02623366666667, "bike_id": "34373fb7fd78a1ac4591e7bfb8256d66", "type": "electric_bike", "name": "34373fb7fd78a1ac4591e7bfb8256d66"}, {"is_disabled": 0, "is_reserved": 0, "fusion_lat": 0.0, "lat": 38.923981166666664, "fusion_lon": 0.0, "rental_uris": {"ios": "https://dc.lft.to/lastmile_qr_scan", "android": "https://dc.lft.to/lastmile_qr_scan"}, "lon": -77.03557183333334, "bike_id": "9c965175e415c0262bfb3a340bfbd62a", "type": "electric_scooter", "name": "9c965175e415c0262bfb3a340bfbd62a"}, {"is_disabled": 0, "is_reserved": 0, "fusion_lat": 0.0, "lat": 38.924491333333336, "fusion_lon": 0.0, "rental_uris": {"ios": "https://dc.lft.to/lastmile_qr_scan", "android": "https://dc.lft.to/lastmile_qr_scan"}, "lon": -77.0203755, "bike_id": "ce07e5cb2ab2d7f04407cdc906a22204", "type": "electric_scooter", "name": "ce07e5cb2ab2d7f04407cdc906a22204"}, {"is_disabled": 0, "is_reserved": 0, "fusion_lat": 0.0, "lat": 38.8716385, "fusion_lon": 0.0, "rental_uris": {"ios": "https://dc.lft.to/lastmile_qr_scan", "android": "https://dc.lft.to/lastmile_qr_scan"}, "lon": -77.01165783333333, "bike_id": "5badf3a46771c5b6db4ca9995e661c02", "type": "electric_scooter", "name": "5badf3a46771c5b6db4ca9995e661c02"}, {"is_disabled": 0, "is_reserved": 0, "fusion_lat": 0.0, "lat": 38.92351033333333, "fusion_lon": 0.0, "rental_uris": {"ios": "https://dc.lft.to/lastmile_qr_scan", "android": "https://dc.lft.to/lastmile_qr_scan"}, "lon": -77.00196683333333, "bike_id": "72a9e604210990a45b86f0bcff4fbf74", "type": "electric_scooter", "name": "72a9e604210990a45b86f0bcff4fbf74"}, {"is_disabled": 0, "is_reserved": 0, "fusion_lat": 0.0, "lat": 38.892388, "fusion_lon": 0.0, "rental_uris": {"ios": "https://dc.lft.to/lastmile_qr_scan", "android": "https://dc.lft.to/lastmile_qr_scan"}, "lon": -77.02610966666667, "bike_id": "f00222ca5f7b1f0d679d5241f75228fd", "type": "electric_scooter", "name": "f00222ca5f7b1f0d679d5241f75228fd"}, {"is_disabled": 0, "is_reserved": 0, "fusion_lat": 0.0, "lat": 38.9076165, "fusion_lon": 0.0, "rental_uris": {"ios": "https://dc.lft.to/lastmile_qr_scan", "android": "https://dc.lft.to/lastmile_qr_scan"}, "lon": -77.04525916666667, "bike_id": "bb0b2b2b0bf62ca7c7aab0466b6a614d", "type": "electric_scooter", "name": "bb0b2b2b0bf62ca7c7aab0466b6a614d"}, {"is_disabled": 0, "is_reserved": 0, "fusion_lat": 0.0, "lat": 38.8072795, "fusion_lon": 0.0, "rental_uris": {"ios": "https://dc.lft.to/lastmile_qr_scan", "android": "https://dc.lft.to/lastmile_qr_scan"}, "lon": -76.99258933333333, "bike_id": "87a49820f6b07f92a4cdc78f78bd5e29", "type": "electric_bike", "name": "87a49820f6b07f92a4cdc78f78bd5e29"}, {"is_disabled": 0, "is_reserved": 0, "fusion_lat": 0.0, "lat": 38.89749183333333, "fusion_lon": 0.0, "rental_uris": {"ios": "https://dc.lft.to/lastmile_qr_scan", "android": "https://dc.lft.to/lastmile_qr_scan"}, "lon": -77.05487316666667, "bike_id": "5b01ad28152b226237f9080896d82459", "type": "electric_scooter", "name": "5b01ad28152b226237f9080896d82459"}, {"is_disabled": 0, "is_reserved": 0, "fusion_lat": 0.0, "lat": 38.90934633333333, "fusion_lon": 0.0, "rental_uris": {"ios": "https://dc.lft.to/lastmile_qr_scan", "android": "https://dc.lft.to/lastmile_qr_scan"}, "lon": -77.01837866666666, "bike_id": "1f488a9409806bd4ba8b93e0318c2fc6", "type": "electric_scooter", "name": "1f488a9409806bd4ba8b93e0318c2fc6"}, {"is_disabled": 0, "is_reserved": 0, "fusion_lat": 0.0, "lat": 38.8968405, "fusion_lon": 0.0, "rental_uris": {"ios": "https://dc.lft.to/lastmile_qr_scan", "android": "https://dc.lft.to/lastmile_qr_scan"}, "lon": -76.93904833333333, "bike_id": "09953b50798b967bebe5c29b2ff3e24c", "type": "electric_scooter", "name": "09953b50798b967bebe5c29b2ff3e24c"}, {"is_disabled": 0, "is_reserved": 0, "fusion_lat": 0.0, "lat": 38.859354833333335, "fusion_lon": 0.0, "rental_uris": {"ios": "https://dc.lft.to/lastmile_qr_scan", "android": "https://dc.lft.to/lastmile_qr_scan"}, "lon": -76.98679066666666, "bike_id": "b85bbae606dbed9befd5b2584262ef38", "type": "electric_scooter", "name": "b85bbae606dbed9befd5b2584262ef38"}, {"is_disabled": 0, "is_reserved": 0, "fusion_lat": 0.0, "lat": 38.905339833333336, "fusion_lon": 0.0, "rental_uris": {"ios": "https://dc.lft.to/lastmile_qr_scan", "android": "https://dc.lft.to/lastmile_qr_scan"}, "lon": -77.062023, "bike_id": "e87133e86e452958686bc32491c0dd41", "type": "electric_scooter", "name": "e87133e86e452958686bc32491c0dd41"}, {"is_disabled": 0, "is_reserved": 0, "fusion_lat": 0.0, "lat": 38.913392, "fusion_lon": 0.0, "rental_uris": {"ios": "https://dc.lft.to/lastmile_qr_scan", "android": "https://dc.lft.to/lastmile_qr_scan"}, "lon": -77.04580316666667, "bike_id": "a65c5bab97b9b883269ef0bcd6b9313a", "type": "electric_scooter", "name": "a65c5bab97b9b883269ef0bcd6b9313a"}, {"is_disabled": 0, "is_reserved": 0, "fusion_lat": 0.0, "lat": 38.9533515, "fusion_lon": 0.0, "rental_uris": {"ios": "https://dc.lft.to/lastmile_qr_scan", "android": "https://dc.lft.to/lastmile_qr_scan"}, "lon": -76.98256966666666, "bike_id": "0682f9c2b4c8bb4bf3f5e7ca771237ea", "type": "electric_bike", "name": "0682f9c2b4c8bb4bf3f5e7ca771237ea"}, {"is_disabled": 0, "is_reserved": 0, "fusion_lat": 0.0, "lat": 38.88769, "fusion_lon": 0.0, "rental_uris": {"ios": "https://dc.lft.to/lastmile_qr_scan", "android": "https://dc.lft.to/lastmile_qr_scan"}, "lon": -77.01463016666666, "bike_id": "71ad9711d07358d61702f4ddf61f5942", "type": "electric_scooter", "name": "71ad9711d07358d61702f4ddf61f5942"}, {"is_disabled": 0, "is_reserved": 0, "fusion_lat": 0.0, "lat": 38.9180505, "fusion_lon": 0.0, "rental_uris": {"ios": "https://dc.lft.to/lastmile_qr_scan", "android": "https://dc.lft.to/lastmile_qr_scan"}, "lon": -77.03438683333333, "bike_id": "d306bb092d7da5af90e2ed8a86b97074", "type": "electric_scooter", "name": "d306bb092d7da5af90e2ed8a86b97074"}, {"is_disabled": 0, "is_reserved": 0, "fusion_lat": 0.0, "lat": 38.936143333333334, "fusion_lon": 0.0, "rental_uris": {"ios": "https://dc.lft.to/lastmile_qr_scan", "android": "https://dc.lft.to/lastmile_qr_scan"}, "lon": -76.949954, "bike_id": "6ff8f0a18b8466a1f1c30fa658cd01cd", "type": "electric_bike", "name": "6ff8f0a18b8466a1f1c30fa658cd01cd"}, {"is_disabled": 0, "is_reserved": 0, "fusion_lat": 0.0, "lat": 38.91258166666667, "fusion_lon": 0.0, "rental_uris": {"ios": "https://dc.lft.to/lastmile_qr_scan", "android": "https://dc.lft.to/lastmile_qr_scan"}, "lon": -77.03300033333333, "bike_id": "cf95fd7e736224eec6ff6c8d26b52eb4", "type": "electric_scooter", "name": "cf95fd7e736224eec6ff6c8d26b52eb4"}, {"is_disabled": 0, "is_reserved": 0, "fusion_lat": 0.0, "lat": 38.8688915, "fusion_lon": 0.0, "rental_uris": {"ios": "https://dc.lft.to/lastmile_qr_scan", "android": "https://dc.lft.to/lastmile_qr_scan"}, "lon": -76.99000716666667, "bike_id": "e62071c6d939a1d7d38e91ecf845c4f8", "type": "electric_scooter", "name": "e62071c6d939a1d7d38e91ecf845c4f8"}, {"is_disabled": 0, "is_reserved": 0, "fusion_lat": 0.0, "lat": 38.89597766666667, "fusion_lon": 0.0, "rental_uris": {"ios": "https://dc.lft.to/lastmile_qr_scan", "android": "https://dc.lft.to/lastmile_qr_scan"}, "lon": -76.98326483333334, "bike_id": "77d206dd6f1497337129458e60e19e69", "type": "electric_scooter", "name": "77d206dd6f1497337129458e60e19e69"}, {"is_disabled": 0, "is_reserved": 0, "fusion_lat": 0.0, "lat": 38.918432, "fusion_lon": 0.0, "rental_uris": {"ios": "https://dc.lft.to/lastmile_qr_scan", "android": "https://dc.lft.to/lastmile_qr_scan"}, "lon": -77.0320545, "bike_id": "07e39a420242c99d4f0c5efb9f16fbbd", "type": "electric_scooter", "name": "07e39a420242c99d4f0c5efb9f16fbbd"}, {"is_disabled": 0, "is_reserved": 0, "fusion_lat": 0.0, "lat": 38.869777, "fusion_lon": 0.0, "rental_uris": {"ios": "https://dc.lft.to/lastmile_qr_scan", "android": "https://dc.lft.to/lastmile_qr_scan"}, "lon": -77.013711, "bike_id": "2e96f15c3ed433d37e89aa075dc59e0b", "type": "electric_scooter", "name": "2e96f15c3ed433d37e89aa075dc59e0b"}, {"is_disabled": 0, "is_reserved": 0, "fusion_lat": 0.0, "lat": 38.915747833333334, "fusion_lon": 0.0, "rental_uris": {"ios": "https://dc.lft.to/lastmile_qr_scan", "android": "https://dc.lft.to/lastmile_qr_scan"}, "lon": -77.05044816666667, "bike_id": "7cdb480aa666e9c93e159a97f345f269", "type": "electric_scooter", "name": "7cdb480aa666e9c93e159a97f345f269"}, {"is_disabled": 0, "is_reserved": 0, "fusion_lat": 0.0, "lat": 38.93115, "fusion_lon": 0.0, "rental_uris": {"ios": "https://dc.lft.to/lastmile_qr_scan", "android": "https://dc.lft.to/lastmile_qr_scan"}, "lon": -77.0207005, "bike_id": "28e2a78247853767a1fcea1deea99256", "type": "electric_scooter", "name": "28e2a78247853767a1fcea1deea99256"}, {"is_disabled": 0, "is_reserved": 0, "fusion_lat": 0.0, "lat": 38.88261983333334, "fusion_lon": 0.0, "rental_uris": {"ios": "https://dc.lft.to/lastmile_qr_scan", "android": "https://dc.lft.to/lastmile_qr_scan"}, "lon": -77.0007315, "bike_id": "23b93c239d066dbe18e1445b768fbe97", "type": "electric_scooter", "name": "23b93c239d066dbe18e1445b768fbe97"}, {"is_disabled": 0, "is_reserved": 0, "fusion_lat": 0.0, "lat": 38.920535, "fusion_lon": 0.0, "rental_uris": {"ios": "https://dc.lft.to/lastmile_qr_scan", "android": "https://dc.lft.to/lastmile_qr_scan"}, "lon": -77.0438135, "bike_id": "40c2c393e16fe8959e6854e2579b168e", "type": "electric_scooter", "name": "40c2c393e16fe8959e6854e2579b168e"}, {"is_disabled": 0, "is_reserved": 0, "fusion_lat": 0.0, "lat": 38.930551666666666, "fusion_lon": 0.0, "rental_uris": {"ios": "https://dc.lft.to/lastmile_qr_scan", "android": "https://dc.lft.to/lastmile_qr_scan"}, "lon": -77.04026016666667, "bike_id": "ff3f1f09ce32e58952e44bf9287ed977", "type": "electric_scooter", "name": "ff3f1f09ce32e58952e44bf9287ed977"}, {"is_disabled": 0, "is_reserved": 0, "fusion_lat": 0.0, "lat": 38.923180333333335, "fusion_lon": 0.0, "rental_uris": {"ios": "https://dc.lft.to/lastmile_qr_scan", "android": "https://dc.lft.to/lastmile_qr_scan"}, "lon": -77.04182733333333, "bike_id": "3fdcb1df38aa4415b193edb025bd9cdb", "type": "electric_scooter", "name": "3fdcb1df38aa4415b193edb025bd9cdb"}, {"is_disabled": 0, "is_reserved": 0, "fusion_lat": 0.0, "lat": 38.925521833333335, "fusion_lon": 0.0, "rental_uris": {"ios": "https://dc.lft.to/lastmile_qr_scan", "android": "https://dc.lft.to/lastmile_qr_scan"}, "lon": -77.00323783333333, "bike_id": "435c90ec82191b7b6e028e34c3e74cef", "type": "electric_scooter", "name": "435c90ec82191b7b6e028e34c3e74cef"}, {"is_disabled": 0, "is_reserved": 0, "fusion_lat": 0.0, "lat": 38.916307333333336, "fusion_lon": 0.0, "rental_uris": {"ios": "https://dc.lft.to/lastmile_qr_scan", "android": "https://dc.lft.to/lastmile_qr_scan"}, "lon": -77.008494, "bike_id": "c2189dfc5647f1a996a3bf2da3054176", "type": "electric_scooter", "name": "c2189dfc5647f1a996a3bf2da3054176"}, {"is_disabled": 0, "is_reserved": 0, "fusion_lat": 0.0, "lat": 38.87469466666667, "fusion_lon": 0.0, "rental_uris": {"ios": "https://dc.lft.to/lastmile_qr_scan", "android": "https://dc.lft.to/lastmile_qr_scan"}, "lon": -77.01071316666666, "bike_id": "b60b4f6983aab03090feed4ea7eaa59d", "type": "electric_scooter", "name": "b60b4f6983aab03090feed4ea7eaa59d"}, {"is_disabled": 0, "is_reserved": 0, "fusion_lat": 0.0, "lat": 38.9095835, "fusion_lon": 0.0, "rental_uris": {"ios": "https://dc.lft.to/lastmile_qr_scan", "android": "https://dc.lft.to/lastmile_qr_scan"}, "lon": -77.02307683333333, "bike_id": "b8d087d1840a77a1db614b374d728b79", "type": "electric_scooter", "name": "b8d087d1840a77a1db614b374d728b79"}, {"is_disabled": 0, "is_reserved": 0, "fusion_lat": 0.0, "lat": 38.8873235, "fusion_lon": 0.0, "rental_uris": {"ios": "https://dc.lft.to/lastmile_qr_scan", "android": "https://dc.lft.to/lastmile_qr_scan"}, "lon": -77.02199133333333, "bike_id": "40b5b8babff02276b88fadc228982e0e", "type": "electric_scooter", "name": "40b5b8babff02276b88fadc228982e0e"}, {"is_disabled": 0, "is_reserved": 0, "fusion_lat": 0.0, "lat": 38.93659566666667, "fusion_lon": 0.0, "rental_uris": {"ios": "https://dc.lft.to/lastmile_qr_scan", "android": "https://dc.lft.to/lastmile_qr_scan"}, "lon": -77.06604433333334, "bike_id": "2e9cabebecbf04198581e2134523e52d", "type": "electric_scooter", "name": "2e9cabebecbf04198581e2134523e52d"}, {"is_disabled": 0, "is_reserved": 0, "fusion_lat": 0.0, "lat": 38.9005985, "fusion_lon": 0.0, "rental_uris": {"ios": "https://dc.lft.to/lastmile_qr_scan", "android": "https://dc.lft.to/lastmile_qr_scan"}, "lon": -76.9870545, "bike_id": "2cbc27c8747820f76fbec91ee29bb255", "type": "electric_scooter", "name": "2cbc27c8747820f76fbec91ee29bb255"}, {"is_disabled": 0, "is_reserved": 0, "fusion_lat": 0.0, "lat": 38.905090666666666, "fusion_lon": 0.0, "rental_uris": {"ios": "https://dc.lft.to/lastmile_qr_scan", "android": "https://dc.lft.to/lastmile_qr_scan"}, "lon": -77.041666, "bike_id": "e4be4e9e1b6c96f8e31eb03d783e161e", "type": "electric_scooter", "name": "e4be4e9e1b6c96f8e31eb03d783e161e"}, {"is_disabled": 0, "is_reserved": 0, "fusion_lat": 0.0, "lat": 38.9142075, "fusion_lon": 0.0, "rental_uris": {"ios": "https://dc.lft.to/lastmile_qr_scan", "android": "https://dc.lft.to/lastmile_qr_scan"}, "lon": -77.03188866666666, "bike_id": "4cebc9c6319380ca9379c2907b3713c5", "type": "electric_scooter", "name": "4cebc9c6319380ca9379c2907b3713c5"}, {"is_disabled": 0, "is_reserved": 0, "fusion_lat": 0.0, "lat": 38.915510833333336, "fusion_lon": 0.0, "rental_uris": {"ios": "https://dc.lft.to/lastmile_qr_scan", "android": "https://dc.lft.to/lastmile_qr_scan"}, "lon": -77.03173116666666, "bike_id": "1086dc75ea7345d6adf2124096c64d05", "type": "electric_scooter", "name": "1086dc75ea7345d6adf2124096c64d05"}, {"is_disabled": 0, "is_reserved": 0, "fusion_lat": 0.0, "lat": 38.899083, "fusion_lon": 0.0, "rental_uris": {"ios": "https://dc.lft.to/lastmile_qr_scan", "android": "https://dc.lft.to/lastmile_qr_scan"}, "lon": -77.032142, "bike_id": "73c54b6c2d3e7c146996d038638665b1", "type": "electric_scooter", "name": "73c54b6c2d3e7c146996d038638665b1"}, {"is_disabled": 0, "is_reserved": 0, "fusion_lat": 0.0, "lat": 38.86183, "fusion_lon": 0.0, "rental_uris": {"ios": "https://dc.lft.to/lastmile_qr_scan", "android": "https://dc.lft.to/lastmile_qr_scan"}, "lon": -77.08823183333334, "bike_id": "ad4c7889d60b215bf96dd9b534c4fe77", "type": "electric_bike", "name": "ad4c7889d60b215bf96dd9b534c4fe77"}, {"is_disabled": 0, "is_reserved": 0, "fusion_lat": 0.0, "lat": 38.912214, "fusion_lon": 0.0, "rental_uris": {"ios": "https://dc.lft.to/lastmile_qr_scan", "android": "https://dc.lft.to/lastmile_qr_scan"}, "lon": -77.00657566666666, "bike_id": "79b37be3aa21be5511d874b273ed17fc", "type": "electric_scooter", "name": "79b37be3aa21be5511d874b273ed17fc"}, {"is_disabled": 0, "is_reserved": 0, "fusion_lat": 0.0, "lat": 38.884856, "fusion_lon": 0.0, "rental_uris": {"ios": "https://dc.lft.to/lastmile_qr_scan", "android": "https://dc.lft.to/lastmile_qr_scan"}, "lon": -77.03475366666666, "bike_id": "acee963a6e9455354e0723ea47e64021", "type": "electric_scooter", "name": "acee963a6e9455354e0723ea47e64021"}, {"is_disabled": 0, "is_reserved": 0, "fusion_lat": 0.0, "lat": 38.910931833333336, "fusion_lon": 0.0, "rental_uris": {"ios": "https://dc.lft.to/lastmile_qr_scan", "android": "https://dc.lft.to/lastmile_qr_scan"}, "lon": -77.0319615, "bike_id": "dd9f75977a3799048abdb5f7f97d754f", "type": "electric_scooter", "name": "dd9f75977a3799048abdb5f7f97d754f"}, {"is_disabled": 0, "is_reserved": 0, "fusion_lat": 0.0, "lat": 38.91688966666667, "fusion_lon": 0.0, "rental_uris": {"ios": "https://dc.lft.to/lastmile_qr_scan", "android": "https://dc.lft.to/lastmile_qr_scan"}, "lon": -77.02717383333334, "bike_id": "92d8221bd7a242200bcb0539139055b8", "type": "electric_scooter", "name": "92d8221bd7a242200bcb0539139055b8"}, {"is_disabled": 0, "is_reserved": 0, "fusion_lat": 0.0, "lat": 38.90476566666667, "fusion_lon": 0.0, "rental_uris": {"ios": "https://dc.lft.to/lastmile_qr_scan", "android": "https://dc.lft.to/lastmile_qr_scan"}, "lon": -76.95057633333333, "bike_id": "538f44075decf509593c3cd760ca280a", "type": "electric_scooter", "name": "538f44075decf509593c3cd760ca280a"}, {"is_disabled": 0, "is_reserved": 0, "fusion_lat": 0.0, "lat": 38.930809833333335, "fusion_lon": 0.0, "rental_uris": {"ios": "https://dc.lft.to/lastmile_qr_scan", "android": "https://dc.lft.to/lastmile_qr_scan"}, "lon": -77.028073, "bike_id": "70e7c35438dce2db4af478c0fa0e078a", "type": "electric_scooter", "name": "70e7c35438dce2db4af478c0fa0e078a"}, {"is_disabled": 0, "is_reserved": 0, "fusion_lat": 0.0, "lat": 38.90124516666667, "fusion_lon": 0.0, "rental_uris": {"ios": "https://dc.lft.to/lastmile_qr_scan", "android": "https://dc.lft.to/lastmile_qr_scan"}, "lon": -77.0028565, "bike_id": "b9b94cfc796214a176839fb8caecb6e3", "type": "electric_scooter", "name": "b9b94cfc796214a176839fb8caecb6e3"}, {"is_disabled": 0, "is_reserved": 0, "fusion_lat": 0.0, "lat": 38.89238783333333, "fusion_lon": 0.0, "rental_uris": {"ios": "https://dc.lft.to/lastmile_qr_scan", "android": "https://dc.lft.to/lastmile_qr_scan"}, "lon": -77.031267, "bike_id": "8d46d8daa645e22190a9d1515f3b5be8", "type": "electric_scooter", "name": "8d46d8daa645e22190a9d1515f3b5be8"}, {"is_disabled": 0, "is_reserved": 0, "fusion_lat": 0.0, "lat": 38.855140666666664, "fusion_lon": 0.0, "rental_uris": {"ios": "https://dc.lft.to/lastmile_qr_scan", "android": "https://dc.lft.to/lastmile_qr_scan"}, "lon": -76.99182316666666, "bike_id": "c75f2f6d51e66366fc5de7b0bced665a", "type": "electric_scooter", "name": "c75f2f6d51e66366fc5de7b0bced665a"}, {"is_disabled": 0, "is_reserved": 0, "fusion_lat": 0.0, "lat": 38.89808983333333, "fusion_lon": 0.0, "rental_uris": {"ios": "https://dc.lft.to/lastmile_qr_scan", "android": "https://dc.lft.to/lastmile_qr_scan"}, "lon": -77.02934683333334, "bike_id": "89a6ba7592664d9a723dcba4cefff83f", "type": "electric_scooter", "name": "89a6ba7592664d9a723dcba4cefff83f"}, {"is_disabled": 0, "is_reserved": 0, "fusion_lat": 0.0, "lat": 38.90467733333333, "fusion_lon": 0.0, "rental_uris": {"ios": "https://dc.lft.to/lastmile_qr_scan", "android": "https://dc.lft.to/lastmile_qr_scan"}, "lon": -77.04856816666667, "bike_id": "b630750ee1da0914f89e5f1597be0348", "type": "electric_scooter", "name": "b630750ee1da0914f89e5f1597be0348"}, {"is_disabled": 0, "is_reserved": 0, "fusion_lat": 0.0, "lat": 38.898643166666666, "fusion_lon": 0.0, "rental_uris": {"ios": "https://dc.lft.to/lastmile_qr_scan", "android": "https://dc.lft.to/lastmile_qr_scan"}, "lon": -77.0487755, "bike_id": "67e58bc83f49594ad17030820ec806ce", "type": "electric_scooter", "name": "67e58bc83f49594ad17030820ec806ce"}, {"is_disabled": 0, "is_reserved": 0, "fusion_lat": 0.0, "lat": 39.00530666666667, "fusion_lon": 0.0, "rental_uris": {"ios": "https://dc.lft.to/lastmile_qr_scan", "android": "https://dc.lft.to/lastmile_qr_scan"}, "lon": -77.10400016666667, "bike_id": "04532667f33d22f166035c3570d97fc7", "type": "electric_bike", "name": "04532667f33d22f166035c3570d97fc7"}, {"is_disabled": 0, "is_reserved": 0, "fusion_lat": 0.0, "lat": 38.89199883333333, "fusion_lon": 0.0, "rental_uris": {"ios": "https://dc.lft.to/lastmile_qr_scan", "android": "https://dc.lft.to/lastmile_qr_scan"}, "lon": -77.04391533333333, "bike_id": "ab44df5bdde3d0635b1ee8e1d84550ec", "type": "electric_scooter", "name": "ab44df5bdde3d0635b1ee8e1d84550ec"}, {"is_disabled": 0, "is_reserved": 0, "fusion_lat": 0.0, "lat": 38.910576166666665, "fusion_lon": 0.0, "rental_uris": {"ios": "https://dc.lft.to/lastmile_qr_scan", "android": "https://dc.lft.to/lastmile_qr_scan"}, "lon": -77.01981616666667, "bike_id": "59876c45ea34ccf720f61950adf550f8", "type": "electric_bike", "name": "59876c45ea34ccf720f61950adf550f8"}, {"is_disabled": 0, "is_reserved": 0, "fusion_lat": 0.0, "lat": 38.90676583333333, "fusion_lon": 0.0, "rental_uris": {"ios": "https://dc.lft.to/lastmile_qr_scan", "android": "https://dc.lft.to/lastmile_qr_scan"}, "lon": -77.009704, "bike_id": "5623369d71cb7ba6435c9735d08b817a", "type": "electric_scooter", "name": "5623369d71cb7ba6435c9735d08b817a"}, {"is_disabled": 0, "is_reserved": 0, "fusion_lat": 0.0, "lat": 38.9737485, "fusion_lon": 0.0, "rental_uris": {"ios": "https://dc.lft.to/lastmile_qr_scan", "android": "https://dc.lft.to/lastmile_qr_scan"}, "lon": -77.018703, "bike_id": "203d6eed8d9511bd6efd40efaaefcef1", "type": "electric_scooter", "name": "203d6eed8d9511bd6efd40efaaefcef1"}, {"is_disabled": 0, "is_reserved": 0, "fusion_lat": 0.0, "lat": 38.87736816666666, "fusion_lon": 0.0, "rental_uris": {"ios": "https://dc.lft.to/lastmile_qr_scan", "android": "https://dc.lft.to/lastmile_qr_scan"}, "lon": -77.14874433333334, "bike_id": "4c30369e15b2bc634698d978813ad7aa", "type": "electric_bike", "name": "4c30369e15b2bc634698d978813ad7aa"}, {"is_disabled": 0, "is_reserved": 0, "fusion_lat": 0.0, "lat": 38.885213666666665, "fusion_lon": 0.0, "rental_uris": {"ios": "https://dc.lft.to/lastmile_qr_scan", "android": "https://dc.lft.to/lastmile_qr_scan"}, "lon": -76.99617, "bike_id": "f43836adea497e4a5a506b313598b5d3", "type": "electric_scooter", "name": "f43836adea497e4a5a506b313598b5d3"}, {"is_disabled": 0, "is_reserved": 0, "fusion_lat": 0.0, "lat": 38.88106066666667, "fusion_lon": 0.0, "rental_uris": {"ios": "https://dc.lft.to/lastmile_qr_scan", "android": "https://dc.lft.to/lastmile_qr_scan"}, "lon": -77.01235116666666, "bike_id": "e1023f94fda1357888d1f4c53984b4e7", "type": "electric_scooter", "name": "e1023f94fda1357888d1f4c53984b4e7"}, {"is_disabled": 0, "is_reserved": 0, "fusion_lat": 0.0, "lat": 38.92785966666667, "fusion_lon": 0.0, "rental_uris": {"ios": "https://dc.lft.to/lastmile_qr_scan", "android": "https://dc.lft.to/lastmile_qr_scan"}, "lon": -77.05264383333333, "bike_id": "9c1e1339675a8bbf716cc1f9ef3e0053", "type": "electric_scooter", "name": "9c1e1339675a8bbf716cc1f9ef3e0053"}, {"is_disabled": 0, "is_reserved": 0, "fusion_lat": 0.0, "lat": 38.93605483333333, "fusion_lon": 0.0, "rental_uris": {"ios": "https://dc.lft.to/lastmile_qr_scan", "android": "https://dc.lft.to/lastmile_qr_scan"}, "lon": -77.05600733333333, "bike_id": "8c177190e1ad4951e739c431a30dc601", "type": "electric_scooter", "name": "8c177190e1ad4951e739c431a30dc601"}, {"is_disabled": 0, "is_reserved": 0, "fusion_lat": 0.0, "lat": 38.92147533333333, "fusion_lon": 0.0, "rental_uris": {"ios": "https://dc.lft.to/lastmile_qr_scan", "android": "https://dc.lft.to/lastmile_qr_scan"}, "lon": -77.03654533333334, "bike_id": "783bceaf55719f8b063720aa647f33d3", "type": "electric_scooter", "name": "783bceaf55719f8b063720aa647f33d3"}, {"is_disabled": 0, "is_reserved": 0, "fusion_lat": 0.0, "lat": 38.898882666666665, "fusion_lon": 0.0, "rental_uris": {"ios": "https://dc.lft.to/lastmile_qr_scan", "android": "https://dc.lft.to/lastmile_qr_scan"}, "lon": -76.98682733333334, "bike_id": "7c8a8c1255310b065b4d578bf6ed4dad", "type": "electric_scooter", "name": "7c8a8c1255310b065b4d578bf6ed4dad"}, {"is_disabled": 0, "is_reserved": 0, "fusion_lat": 0.0, "lat": 38.871037333333334, "fusion_lon": 0.0, "rental_uris": {"ios": "https://dc.lft.to/lastmile_qr_scan", "android": "https://dc.lft.to/lastmile_qr_scan"}, "lon": -77.0079425, "bike_id": "b48147569c1544521f055d2abb0f8ee8", "type": "electric_scooter", "name": "b48147569c1544521f055d2abb0f8ee8"}, {"is_disabled": 0, "is_reserved": 0, "fusion_lat": 0.0, "lat": 38.92612583333333, "fusion_lon": 0.0, "rental_uris": {"ios": "https://dc.lft.to/lastmile_qr_scan", "android": "https://dc.lft.to/lastmile_qr_scan"}, "lon": -77.00652866666667, "bike_id": "5409b774aee36abaaca0740d69fd4a1b", "type": "electric_scooter", "name": "5409b774aee36abaaca0740d69fd4a1b"}, {"is_disabled": 0, "is_reserved": 0, "fusion_lat": 0.0, "lat": 38.92320866666667, "fusion_lon": 0.0, "rental_uris": {"ios": "https://dc.lft.to/lastmile_qr_scan", "android": "https://dc.lft.to/lastmile_qr_scan"}, "lon": -77.04411166666667, "bike_id": "a0b9bb059c9ee9a857aa1bf93cdda22e", "type": "electric_scooter", "name": "a0b9bb059c9ee9a857aa1bf93cdda22e"}, {"is_disabled": 0, "is_reserved": 0, "fusion_lat": 0.0, "lat": 38.9820725, "fusion_lon": 0.0, "rental_uris": {"ios": "https://dc.lft.to/lastmile_qr_scan", "android": "https://dc.lft.to/lastmile_qr_scan"}, "lon": -76.9781495, "bike_id": "67a6513f46943ea4d3670bafdb37eae7", "type": "electric_bike", "name": "67a6513f46943ea4d3670bafdb37eae7"}, {"is_disabled": 0, "is_reserved": 0, "fusion_lat": 0.0, "lat": 38.91558466666667, "fusion_lon": 0.0, "rental_uris": {"ios": "https://dc.lft.to/lastmile_qr_scan", "android": "https://dc.lft.to/lastmile_qr_scan"}, "lon": -77.05099766666666, "bike_id": "6404f1376c824752152ee6de53196324", "type": "electric_scooter", "name": "6404f1376c824752152ee6de53196324"}, {"is_disabled": 0, "is_reserved": 0, "fusion_lat": 0.0, "lat": 38.91121916666667, "fusion_lon": 0.0, "rental_uris": {"ios": "https://dc.lft.to/lastmile_qr_scan", "android": "https://dc.lft.to/lastmile_qr_scan"}, "lon": -77.02193783333334, "bike_id": "c60ccfbdd789c1a15e23ee1c60d5c06b", "type": "electric_scooter", "name": "c60ccfbdd789c1a15e23ee1c60d5c06b"}, {"is_disabled": 0, "is_reserved": 0, "fusion_lat": 0.0, "lat": 38.91505466666667, "fusion_lon": 0.0, "rental_uris": {"ios": "https://dc.lft.to/lastmile_qr_scan", "android": "https://dc.lft.to/lastmile_qr_scan"}, "lon": -77.01904633333334, "bike_id": "60c09033ca87f2776fa0ae3b91688715", "type": "electric_scooter", "name": "60c09033ca87f2776fa0ae3b91688715"}, {"is_disabled": 0, "is_reserved": 0, "fusion_lat": 0.0, "lat": 38.9192405, "fusion_lon": 0.0, "rental_uris": {"ios": "https://dc.lft.to/lastmile_qr_scan", "android": "https://dc.lft.to/lastmile_qr_scan"}, "lon": -77.03091516666667, "bike_id": "d8521c9eaf27a6515248d0dfdc401e25", "type": "electric_scooter", "name": "d8521c9eaf27a6515248d0dfdc401e25"}, {"is_disabled": 0, "is_reserved": 0, "fusion_lat": 0.0, "lat": 38.9326985, "fusion_lon": 0.0, "rental_uris": {"ios": "https://dc.lft.to/lastmile_qr_scan", "android": "https://dc.lft.to/lastmile_qr_scan"}, "lon": -77.0209465, "bike_id": "a73a3c5c2f87a19bacd24422a8cc619a", "type": "electric_scooter", "name": "a73a3c5c2f87a19bacd24422a8cc619a"}, {"is_disabled": 0, "is_reserved": 0, "fusion_lat": 0.0, "lat": 38.889652, "fusion_lon": 0.0, "rental_uris": {"ios": "https://dc.lft.to/lastmile_qr_scan", "android": "https://dc.lft.to/lastmile_qr_scan"}, "lon": -76.98033433333333, "bike_id": "2ffdf85fa2da4b755c1a6f269857c17e", "type": "electric_scooter", "name": "2ffdf85fa2da4b755c1a6f269857c17e"}, {"is_disabled": 0, "is_reserved": 0, "fusion_lat": 0.0, "lat": 38.88489083333333, "fusion_lon": 0.0, "rental_uris": {"ios": "https://dc.lft.to/lastmile_qr_scan", "android": "https://dc.lft.to/lastmile_qr_scan"}, "lon": -77.0347595, "bike_id": "93313de0f455d514cc64b11f16e3261a", "type": "electric_scooter", "name": "93313de0f455d514cc64b11f16e3261a"}, {"is_disabled": 0, "is_reserved": 0, "fusion_lat": 0.0, "lat": 38.84672116666667, "fusion_lon": 0.0, "rental_uris": {"ios": "https://dc.lft.to/lastmile_qr_scan", "android": "https://dc.lft.to/lastmile_qr_scan"}, "lon": -77.13929516666667, "bike_id": "29cc41e0e30803fcb2a6f903cf6c34d5", "type": "electric_bike", "name": "29cc41e0e30803fcb2a6f903cf6c34d5"}, {"is_disabled": 0, "is_reserved": 0, "fusion_lat": 0.0, "lat": 38.91116066666667, "fusion_lon": 0.0, "rental_uris": {"ios": "https://dc.lft.to/lastmile_qr_scan", "android": "https://dc.lft.to/lastmile_qr_scan"}, "lon": -77.0315605, "bike_id": "3a5c482745a1a0763ed9c0723a835c49", "type": "electric_scooter", "name": "3a5c482745a1a0763ed9c0723a835c49"}, {"is_disabled": 0, "is_reserved": 0, "fusion_lat": 0.0, "lat": 38.920379, "fusion_lon": 0.0, "rental_uris": {"ios": "https://dc.lft.to/lastmile_qr_scan", "android": "https://dc.lft.to/lastmile_qr_scan"}, "lon": -77.03150116666667, "bike_id": "82a897e29e862c62cb00c40ae60f2386", "type": "electric_scooter", "name": "82a897e29e862c62cb00c40ae60f2386"}, {"is_disabled": 0, "is_reserved": 0, "fusion_lat": 0.0, "lat": 38.900410666666666, "fusion_lon": 0.0, "rental_uris": {"ios": "https://dc.lft.to/lastmile_qr_scan", "android": "https://dc.lft.to/lastmile_qr_scan"}, "lon": -76.9915755, "bike_id": "b5ddc965c6adaf81d8d0427758c1200c", "type": "electric_scooter", "name": "b5ddc965c6adaf81d8d0427758c1200c"}, {"is_disabled": 0, "is_reserved": 0, "fusion_lat": 0.0, "lat": 38.97440183333333, "fusion_lon": 0.0, "rental_uris": {"ios": "https://dc.lft.to/lastmile_qr_scan", "android": "https://dc.lft.to/lastmile_qr_scan"}, "lon": -77.095841, "bike_id": "b3e02a92f488d55397ee7011680b9568", "type": "electric_bike", "name": "b3e02a92f488d55397ee7011680b9568"}, {"is_disabled": 0, "is_reserved": 0, "fusion_lat": 0.0, "lat": 38.923001, "fusion_lon": 0.0, "rental_uris": {"ios": "https://dc.lft.to/lastmile_qr_scan", "android": "https://dc.lft.to/lastmile_qr_scan"}, "lon": -77.03412216666666, "bike_id": "fe1dd8811b3707c4b21b849c6d02eaac", "type": "electric_scooter", "name": "fe1dd8811b3707c4b21b849c6d02eaac"}, {"is_disabled": 0, "is_reserved": 0, "fusion_lat": 0.0, "lat": 38.8765485, "fusion_lon": 0.0, "rental_uris": {"ios": "https://dc.lft.to/lastmile_qr_scan", "android": "https://dc.lft.to/lastmile_qr_scan"}, "lon": -77.008793, "bike_id": "cd91757b3f1ce8ddfce69da95d937adb", "type": "electric_scooter", "name": "cd91757b3f1ce8ddfce69da95d937adb"}, {"is_disabled": 0, "is_reserved": 0, "fusion_lat": 0.0, "lat": 38.896665166666665, "fusion_lon": 0.0, "rental_uris": {"ios": "https://dc.lft.to/lastmile_qr_scan", "android": "https://dc.lft.to/lastmile_qr_scan"}, "lon": -76.93206116666667, "bike_id": "480c6acd516d905558f14efcbea41a2e", "type": "electric_bike", "name": "480c6acd516d905558f14efcbea41a2e"}, {"is_disabled": 0, "is_reserved": 0, "fusion_lat": 0.0, "lat": 38.92222683333333, "fusion_lon": 0.0, "rental_uris": {"ios": "https://dc.lft.to/lastmile_qr_scan", "android": "https://dc.lft.to/lastmile_qr_scan"}, "lon": -77.04246066666667, "bike_id": "54d7b6a193697c7e660f28c7ff9d728d", "type": "electric_scooter", "name": "54d7b6a193697c7e660f28c7ff9d728d"}, {"is_disabled": 0, "is_reserved": 0, "fusion_lat": 0.0, "lat": 38.905623166666665, "fusion_lon": 0.0, "rental_uris": {"ios": "https://dc.lft.to/lastmile_qr_scan", "android": "https://dc.lft.to/lastmile_qr_scan"}, "lon": -77.00290883333334, "bike_id": "4a207f006074fd5b7a2c26308553b2f3", "type": "electric_scooter", "name": "4a207f006074fd5b7a2c26308553b2f3"}, {"is_disabled": 0, "is_reserved": 0, "fusion_lat": 0.0, "lat": 38.87636366666667, "fusion_lon": 0.0, "rental_uris": {"ios": "https://dc.lft.to/lastmile_qr_scan", "android": "https://dc.lft.to/lastmile_qr_scan"}, "lon": -77.01477583333333, "bike_id": "902f8aec9865dcc38c9d02722c56a54a", "type": "electric_scooter", "name": "902f8aec9865dcc38c9d02722c56a54a"}, {"is_disabled": 0, "is_reserved": 0, "fusion_lat": 0.0, "lat": 38.926610833333335, "fusion_lon": 0.0, "rental_uris": {"ios": "https://dc.lft.to/lastmile_qr_scan", "android": "https://dc.lft.to/lastmile_qr_scan"}, "lon": -77.05199783333333, "bike_id": "0799d5489af002963afa0a00d723e20e", "type": "electric_scooter", "name": "0799d5489af002963afa0a00d723e20e"}, {"is_disabled": 0, "is_reserved": 0, "fusion_lat": 0.0, "lat": 38.918046833333335, "fusion_lon": 0.0, "rental_uris": {"ios": "https://dc.lft.to/lastmile_qr_scan", "android": "https://dc.lft.to/lastmile_qr_scan"}, "lon": -77.0249065, "bike_id": "4d91658dc559f15af4a6d8432db85423", "type": "electric_scooter", "name": "4d91658dc559f15af4a6d8432db85423"}, {"is_disabled": 0, "is_reserved": 0, "fusion_lat": 0.0, "lat": 38.879886, "fusion_lon": 0.0, "rental_uris": {"ios": "https://dc.lft.to/lastmile_qr_scan", "android": "https://dc.lft.to/lastmile_qr_scan"}, "lon": -77.02404783333333, "bike_id": "bc2eb1de95df1c2b18525f0afd8516a4", "type": "electric_scooter", "name": "bc2eb1de95df1c2b18525f0afd8516a4"}, {"is_disabled": 0, "is_reserved": 0, "fusion_lat": 0.0, "lat": 38.88254083333333, "fusion_lon": 0.0, "rental_uris": {"ios": "https://dc.lft.to/lastmile_qr_scan", "android": "https://dc.lft.to/lastmile_qr_scan"}, "lon": -77.11035333333334, "bike_id": "d523eb08d3bce01ad262c93273d175d0", "type": "electric_bike", "name": "d523eb08d3bce01ad262c93273d175d0"}, {"is_disabled": 0, "is_reserved": 0, "fusion_lat": 0.0, "lat": 38.896688, "fusion_lon": 0.0, "rental_uris": {"ios": "https://dc.lft.to/lastmile_qr_scan", "android": "https://dc.lft.to/lastmile_qr_scan"}, "lon": -76.93210733333333, "bike_id": "b98a69f5877db80773a165d8bbb81a0c", "type": "electric_scooter", "name": "b98a69f5877db80773a165d8bbb81a0c"}, {"is_disabled": 0, "is_reserved": 0, "fusion_lat": 0.0, "lat": 38.90515033333333, "fusion_lon": 0.0, "rental_uris": {"ios": "https://dc.lft.to/lastmile_qr_scan", "android": "https://dc.lft.to/lastmile_qr_scan"}, "lon": -76.95193983333333, "bike_id": "612584a875dc6ffd4a16b54bb1e264fc", "type": "electric_scooter", "name": "612584a875dc6ffd4a16b54bb1e264fc"},