{"data": {"bikes": [{"lon": -77.02422983333334, "bike_id": "46140eeb9cc07cf87720737dba76e63e", "lat": 38.92654266666667, "fusion_lon": 0.0, "fusion_lat": 0.0, "type": "electric_scooter", "name": "46140eeb9cc07cf87720737dba76e63e", "is_disabled": 0, "rental_uris": {"ios": "https://dc.lft.to/lastmile_qr_scan", "android": "https://dc.lft.to/lastmile_qr_scan"}, "is_reserved": 0}, {"lon": -77.0185615, "bike_id": "36d161e1c4041b2e9e70ba554899f5b7", "lat": 38.90368933333333, "fusion_lon": 0.0, "fusion_lat": 0.0, "type": "electric_scooter", "name": "36d161e1c4041b2e9e70ba554899f5b7", "is_disabled": 0, "rental_uris": {"ios": "https://dc.lft.to/lastmile_qr_scan", "android": "https://dc.lft.to/lastmile_qr_scan"}, "is_reserved": 0}, {"lon": -77.09067516666667, "bike_id": "628892abe86f3442e1f0466c36bd9350", "lat": 38.9784695, "fusion_lon": 0.0, "fusion_lat": 0.0, "type": "electric_bike", "name": "628892abe86f3442e1f0466c36bd9350", "is_disabled": 0, "rental_uris": {"ios": "https://dc.lft.to/lastmile_qr_scan", "android": "https://dc.lft.to/lastmile_qr_scan"}, "is_reserved": 0}, {"lon": -77.067545, "bike_id": "f8d30381b298f73cb9b95257382d63fb", "lat": 38.904989, "fusion_lon": 0.0, "fusion_lat": 0.0, "type": "electric_scooter", "name": "f8d30381b298f73cb9b95257382d63fb", "is_disabled": 0, "rental_uris": {"ios": "https://dc.lft.to/lastmile_qr_scan", "android": "https://dc.lft.to/lastmile_qr_scan"}, "is_reserved": 0}, {"lon": -77.0326455, "bike_id": "f6ed79a1341f075d68bec358d63d2383", "lat": 38.92535816666667, "fusion_lon": 0.0, "fusion_lat": 0.0, "type": "electric_scooter", "name": "f6ed79a1341f075d68bec358d63d2383", "is_disabled": 0, "rental_uris": {"ios": "https://dc.lft.to/lastmile_qr_scan", "android": "https://dc.lft.to/lastmile_qr_scan"}, "is_reserved": 0}, {"lon": -77.04174616666667, "bike_id": "7f63018c0f1a3c6534689a8454d836ba", "lat": 38.917899, "fusion_lon": 0.0, "fusion_lat": 0.0, "type": "electric_scooter", "name": "7f63018c0f1a3c6534689a8454d836ba", "is_disabled": 0, "rental_uris": {"ios": "https://dc.lft.to/lastmile_qr_scan", "android": "https://dc.lft.to/lastmile_qr_scan"}, "is_reserved": 0}, {"lon": -77.0192455, "bike_id": "cf8062809417cb3c9ebb0eac87f5bd92", "lat": 38.92218033333333, "fusion_lon": 0.0, "fusion_lat": 0.0, "type": "electric_scooter", "name": "cf8062809417cb3c9ebb0eac87f5bd92", "is_disabled": 0, "rental_uris": {"ios": "https://dc.lft.to/lastmile_qr_scan", "android": "https://dc.lft.to/lastmile_qr_scan"}, "is_reserved": 0}, {"lon": -77.130996, "bike_id": "3206f2da5fa87ffd545e711a1938510e", "lat": 39.02433583333333, "fusion_lon": 0.0, "fusion_lat": 0.0, "type": "electric_bike", "name": "3206f2da5fa87ffd545e711a1938510e", "is_disabled": 0, "rental_uris": {"ios": "https://dc.lft.to/lastmile_qr_scan", "android": "https://dc.lft.to/lastmile_qr_scan"}, "is_reserved": 0}, {"lon": -77.02720733333334, "bike_id": "0d2acc193b3046ab71caa30b99e8172d", "lat": 38.91676133333333, "fusion_lon": 0.0, "fusion_lat": 0.0, "type": "electric_scooter", "name": "0d2acc193b3046ab71caa30b99e8172d", "is_disabled": 0, "rental_uris": {"ios": "https://dc.lft.to/lastmile_qr_scan", "android": "https://dc.lft.to/lastmile_qr_scan"}, "is_reserved": 0}, {"lon": -77.058094, "bike_id": "49154a214232286ddd99bf2a3dce47a0", "lat": 38.90494066666667, "fusion_lon": 0.0, "fusion_lat": 0.0, "type": "electric_scooter", "name": "49154a214232286ddd99bf2a3dce47a0", "is_disabled": 0, "rental_uris": {"ios": "https://dc.lft.to/lastmile_qr_scan", "android": "https://dc.lft.to/lastmile_qr_scan"}, "is_reserved": 0}, {"lon": -77.01533133333334, "bike_id": "9b356665347c1229ede4b858176ca4a7", "lat": 38.902682666666664, "fusion_lon": 0.0, "fusion_lat": 0.0, "type": "electric_scooter", "name": "9b356665347c1229ede4b858176ca4a7", "is_disabled": 0, "rental_uris": {"ios": "https://dc.lft.to/lastmile_qr_scan", "android": "https://dc.lft.to/lastmile_qr_scan"}, "is_reserved": 0}, {"lon": -76.98374033333333, "bike_id": "24549d0fa2a4e915714a65fe5c441f20", "lat": 38.899726666666666, "fusion_lon": 0.0, "fusion_lat": 0.0, "type": "electric_scooter", "name": "24549d0fa2a4e915714a65fe5c441f20", "is_disabled": 0, "rental_uris": {"ios": "https://dc.lft.to/lastmile_qr_scan", "android": "https://dc.lft.to/lastmile_qr_scan"}, "is_reserved": 0}, {"lon": -77.02507216666666, "bike_id": "b0b28a60d2e770f314998a26174949f1", "lat": 38.919167, "fusion_lon": 0.0, "fusion_lat": 0.0, "type": "electric_scooter", "name": "b0b28a60d2e770f314998a26174949f1", "is_disabled": 0, "rental_uris": {"ios": "https://dc.lft.to/lastmile_qr_scan", "android": "https://dc.lft.to/lastmile_qr_scan"}, "is_reserved": 0}, {"lon": -77.00371816666667, "bike_id": "a8b2af3cb06b56b1a6816cd787586492", "lat": 38.89729466666667, "fusion_lon": 0.0, "fusion_lat": 0.0, "type": "electric_scooter", "name": "a8b2af3cb06b56b1a6816cd787586492", "is_disabled": 0, "rental_uris": {"ios": "https://dc.lft.to/lastmile_qr_scan", "android": "https://dc.lft.to/lastmile_qr_scan"}, "is_reserved": 0}, {"lon": -77.0307635, "bike_id": "afec8dc7fcbdb783229be12abf05814f", "lat": 38.880367666666665, "fusion_lon": 0.0, "fusion_lat": 0.0, "type": "electric_scooter", "name": "afec8dc7fcbdb783229be12abf05814f", "is_disabled": 0, "rental_uris": {"ios": "https://dc.lft.to/lastmile_qr_scan", "android": "https://dc.lft.to/lastmile_qr_scan"}, "is_reserved": 0}, {"lon": -77.02691933333334, "bike_id": "525a2cd5fcebaa1f4fff6ec18f8c3353", "lat": 38.912276166666665, "fusion_lon": 0.0, "fusion_lat": 0.0, "type": "electric_scooter", "name": "525a2cd5fcebaa1f4fff6ec18f8c3353", "is_disabled": 0, "rental_uris": {"ios": "https://dc.lft.to/lastmile_qr_scan", "android": "https://dc.lft.to/lastmile_qr_scan"}, "is_reserved": 0}, {"lon": -77.04276566666667, "bike_id": "8fd9712f4a8dc18cb61952741631a48a", "lat": 38.934127833333335, "fusion_lon": 0.0, "fusion_lat": 0.0, "type": "electric_scooter", "name": "8fd9712f4a8dc18cb61952741631a48a", "is_disabled": 0, "rental_uris": {"ios": "https://dc.lft.to/lastmile_qr_scan", "android": "https://dc.lft.to/lastmile_qr_scan"}, "is_reserved": 0}, {"lon": -77.000367, "bike_id": "d455be5fa28b600fceb9dc8fb0295aa2", "lat": 38.90805366666667, "fusion_lon": 0.0, "fusion_lat": 0.0, "type": "electric_scooter", "name": "d455be5fa28b600fceb9dc8fb0295aa2", "is_disabled": 0, "rental_uris": {"ios": "https://dc.lft.to/lastmile_qr_scan", "android": "https://dc.lft.to/lastmile_qr_scan"}, "is_reserved": 0}, {"lon": -77.03130716666666, "bike_id": "b87f047d788ff06ae8f8c8c089b0da43", "lat": 38.929655, "fusion_lon": 0.0, "fusion_lat": 0.0, "type": "electric_scooter", "name": "b87f047d788ff06ae8f8c8c089b0da43", "is_disabled": 0, "rental_uris": {"ios": "https://dc.lft.to/lastmile_qr_scan", "android": "https://dc.lft.to/lastmile_qr_scan"}, "is_reserved": 0}, {"lon": -77.0120575, "bike_id": "e1dab3cd66ad3b0ad7410ed945cb6a67", "lat": 38.885517666666665, "fusion_lon": 0.0, "fusion_lat": 0.0, "type": "electric_scooter", "name": "e1dab3cd66ad3b0ad7410ed945cb6a67", "is_disabled": 0, "rental_uris": {"ios": "https://dc.lft.to/lastmile_qr_scan", "android": "https://dc.lft.to/lastmile_qr_scan"}, "is_reserved": 0}, {"lon": -77.005248, "bike_id": "3c26493b857aa40f223c82b0f6593f2b", "lat": 38.9147875, "fusion_lon": 0.0, "fusion_lat": 0.0, "type": "electric_bike", "name": "3c26493b857aa40f223c82b0f6593f2b", "is_disabled": 0, "rental_uris": {"ios": "https://dc.lft.to/lastmile_qr_scan", "android": "https://dc.lft.to/lastmile_qr_scan"}, "is_reserved": 0}, {"lon": -77.03261016666667, "bike_id": "72a0c871b3a004492a4d62f2069f58f8", "lat": 38.93920416666667, "fusion_lon": 0.0, "fusion_lat": 0.0, "type": "electric_scooter", "name": "72a0c871b3a004492a4d62f2069f58f8", "is_disabled": 0, "rental_uris": {"ios": "https://dc.lft.to/lastmile_qr_scan", "android": "https://dc.lft.to/lastmile_qr_scan"}, "is_reserved": 0}, {"lon": -77.03829633333334, "bike_id": "1896944d254483f4bf17838b6a15aed9", "lat": 38.90886483333333, "fusion_lon": 0.0, "fusion_lat": 0.0, "type": "electric_scooter", "name": "1896944d254483f4bf17838b6a15aed9", "is_disabled": 0, "rental_uris": {"ios": "https://dc.lft.to/lastmile_qr_scan", "android": "https://dc.lft.to/lastmile_qr_scan"}, "is_reserved": 0}, {"lon": -76.98880633333333, "bike_id": "28929c2d338c6721d0dd6449a8440985", "lat": 38.86656216666667, "fusion_lon": 0.0, "fusion_lat": 0.0, "type": "electric_scooter", "name": "28929c2d338c6721d0dd6449a8440985", "is_disabled": 0, "rental_uris": {"ios": "https://dc.lft.to/lastmile_qr_scan", "android": "https://dc.lft.to/lastmile_qr_scan"}, "is_reserved": 0}, {"lon": -77.031146, "bike_id": "cea855b0cb495b1929f009f0a1f066e7", "lat": 38.91903833333333, "fusion_lon": 0.0, "fusion_lat": 0.0, "type": "electric_scooter", "name": "cea855b0cb495b1929f009f0a1f066e7", "is_disabled": 0, "rental_uris": {"ios": "https://dc.lft.to/lastmile_qr_scan", "android": "https://dc.lft.to/lastmile_qr_scan"}, "is_reserved": 0}, {"lon": -77.03279216666667, "bike_id": "471106ffab7e2e4177b3e8f146c9cc1f", "lat": 38.90129366666667, "fusion_lon": 0.0, "fusion_lat": 0.0, "type": "electric_scooter", "name": "471106ffab7e2e4177b3e8f146c9cc1f", "is_disabled": 0, "rental_uris": {"ios": "https://dc.lft.to/lastmile_qr_scan", "android": "https://dc.lft.to/lastmile_qr_scan"}, "is_reserved": 0}, {"lon": -77.0503535, "bike_id": "3f076fa39b338a0e0655c177529161b7", "lat": 38.905359, "fusion_lon": 0.0, "fusion_lat": 0.0, "type": "electric_scooter", "name": "3f076fa39b338a0e0655c177529161b7", "is_disabled": 0, "rental_uris": {"ios": "https://dc.lft.to/lastmile_qr_scan", "android": "https://dc.lft.to/lastmile_qr_scan"}, "is_reserved": 0}, {"lon": -77.0325465, "bike_id": "3eb75583b819779a2b8d1ec8ae77326f", "lat": 38.9097215, "fusion_lon": 0.0, "fusion_lat": 0.0, "type": "electric_scooter", "name": "3eb75583b819779a2b8d1ec8ae77326f", "is_disabled": 0, "rental_uris": {"ios": "https://dc.lft.to/lastmile_qr_scan", "android": "https://dc.lft.to/lastmile_qr_scan"}, "is_reserved": 0}, {"lon": -77.02699316666667, "bike_id": "739312fe3af5218d4876ea2c923cc1f2", "lat": 38.906703, "fusion_lon": 0.0, "fusion_lat": 0.0, "type": "electric_scooter", "name": "739312fe3af5218d4876ea2c923cc1f2", "is_disabled": 0, "rental_uris": {"ios": "https://dc.lft.to/lastmile_qr_scan", "android": "https://dc.lft.to/lastmile_qr_scan"}, "is_reserved": 0}, {"lon": -77.01174683333333, "bike_id": "6e942184b2c67e2710b3fa2bd2fc0c7d", "lat": 38.90028216666666, "fusion_lon": 0.0, "fusion_lat": 0.0, "type": "electric_scooter", "name": "6e942184b2c67e2710b3fa2bd2fc0c7d", "is_disabled": 0, "rental_uris": {"ios": "https://dc.lft.to/lastmile_qr_scan", "android": "https://dc.lft.to/lastmile_qr_scan"}, "is_reserved": 0}, {"lon": -77.04151666666667, "bike_id": "f3626c8564fa39bfa061193e444a8111", "lat": 38.899200666666665, "fusion_lon": 0.0, "fusion_lat": 0.0, "type": "electric_scooter", "name": "f3626c8564fa39bfa061193e444a8111", "is_disabled": 0, "rental_uris": {"ios": "https://dc.lft.to/lastmile_qr_scan", "android": "https://dc.lft.to/lastmile_qr_scan"}, "is_reserved": 0}, {"lon": -77.03558633333333, "bike_id": "0ff65024c42c785a603a65dfc49bcf58", "lat": 38.933799, "fusion_lon": 0.0, "fusion_lat": 0.0, "type": "electric_scooter", "name": "0ff65024c42c785a603a65dfc49bcf58", "is_disabled": 0, "rental_uris": {"ios": "https://dc.lft.to/lastmile_qr_scan", "android": "https://dc.lft.to/lastmile_qr_scan"}, "is_reserved": 0}, {"lon": -76.97856933333334, "bike_id": "e5c4fa7609d71187501082645f4f4037", "lat": 38.90721716666667, "fusion_lon": 0.0, "fusion_lat": 0.0, "type": "electric_scooter", "name": "e5c4fa7609d71187501082645f4f4037", "is_disabled": 0, "rental_uris": {"ios": "https://dc.lft.to/lastmile_qr_scan", "android": "https://dc.lft.to/lastmile_qr_scan"}, "is_reserved": 0}, {"lon": -76.97556216666666, "bike_id": "599f6fea5672428be0453dd4144525c5", "lat": 38.924576, "fusion_lon": 0.0, "fusion_lat": 0.0, "type": "electric_bike", "name": "599f6fea5672428be0453dd4144525c5", "is_disabled": 0, "rental_uris": {"ios": "https://dc.lft.to/lastmile_qr_scan", "android": "https://dc.lft.to/lastmile_qr_scan"}, "is_reserved": 0}, {"lon": -77.03848666666667, "bike_id": "859515a980f8ec558e2b25b7f9583ce3", "lat": 38.9324445, "fusion_lon": 0.0, "fusion_lat": 0.0, "type": "electric_scooter", "name": "859515a980f8ec558e2b25b7f9583ce3", "is_disabled": 0, "rental_uris": {"ios": "https://dc.lft.to/lastmile_qr_scan", "android": "https://dc.lft.to/lastmile_qr_scan"}, "is_reserved": 0}, {"lon": -77.02089583333333, "bike_id": "fe90ed1d701d969e20c1e61cc4098173", "lat": 38.929139666666664, "fusion_lon": 0.0, "fusion_lat": 0.0, "type": "electric_scooter", "name": "fe90ed1d701d969e20c1e61cc4098173", "is_disabled": 0, "rental_uris": {"ios": "https://dc.lft.to/lastmile_qr_scan", "android": "https://dc.lft.to/lastmile_qr_scan"}, "is_reserved": 0}, {"lon": -76.94995433333334, "bike_id": "eae036507a66153e1abb3fb9c0331c43", "lat": 38.89379133333333, "fusion_lon": 0.0, "fusion_lat": 0.0, "type": "electric_scooter", "name": "eae036507a66153e1abb3fb9c0331c43", "is_disabled": 0, "rental_uris": {"ios": "https://dc.lft.to/lastmile_qr_scan", "android": "https://dc.lft.to/lastmile_qr_scan"}, "is_reserved": 0}, {"lon": -76.99596483333333, "bike_id": "ecc0d067241f8db52f693ddd59fd1245", "lat": 38.95073683333333, "fusion_lon": 0.0, "fusion_lat": 0.0, "type": "electric_bike", "name": "ecc0d067241f8db52f693ddd59fd1245", "is_disabled": 0, "rental_uris": {"ios": "https://dc.lft.to/lastmile_qr_scan", "android": "https://dc.lft.to/lastmile_qr_scan"}, "is_reserved": 0}, {"lon": -77.0326195, "bike_id": "eb9a5acf8d13d3b435d0ddfef176ce2a", "lat": 38.93774883333333, "fusion_lon": 0.0, "fusion_lat": 0.0, "type": "electric_scooter", "name": "eb9a5acf8d13d3b435d0ddfef176ce2a", "is_disabled": 0, "rental_uris": {"ios": "https://dc.lft.to/lastmile_qr_scan", "android": "https://dc.lft.to/lastmile_qr_scan"}, "is_reserved": 0}, {"lon": -77.032557, "bike_id": "bbbee4062ad38ac453d9a45d7a0a2f42", "lat": 38.93137, "fusion_lon": 0.0, "fusion_lat": 0.0, "type": "electric_scooter", "name": "bbbee4062ad38ac453d9a45d7a0a2f42", "is_disabled": 0, "rental_uris": {"ios": "https://dc.lft.to/lastmile_qr_scan", "android": "https://dc.lft.to/lastmile_qr_scan"}, "is_reserved": 0}, {"lon": -77.0157885, "bike_id": "f2ba4c732c6a6ac5f830287ad37ebc24", "lat": 38.882849666666665, "fusion_lon": 0.0, "fusion_lat": 0.0, "type": "electric_scooter", "name": "f2ba4c732c6a6ac5f830287ad37ebc24", "is_disabled": 0, "rental_uris": {"ios": "https://dc.lft.to/lastmile_qr_scan", "android": "https://dc.lft.to/lastmile_qr_scan"}, "is_reserved": 0}, {"lon": -77.041772, "bike_id": "85f3743a81b42483eacf70b08773d092", "lat": 38.91963166666667, "fusion_lon": 0.0, "fusion_lat": 0.0, "type": "electric_scooter", "name": "85f3743a81b42483eacf70b08773d092", "is_disabled": 0, "rental_uris": {"ios": "https://dc.lft.to/lastmile_qr_scan", "android": "https://dc.lft.to/lastmile_qr_scan"}, "is_reserved": 0}, {"lon": -77.1178015, "bike_id": "9034beb578066b9b55224e68a059cbf2", "lat": 39.054931833333335, "fusion_lon": 0.0, "fusion_lat": 0.0, "type": "electric_bike", "name": "9034beb578066b9b55224e68a059cbf2", "is_disabled": 0, "rental_uris": {"ios": "https://dc.lft.to/lastmile_qr_scan", "android": "https://dc.lft.to/lastmile_qr_scan"}, "is_reserved": 0}, {"lon": -77.06333066666667, "bike_id": "e177779727f3c2e1baf17aaace847108", "lat": 38.90684616666667, "fusion_lon": 0.0, "fusion_lat": 0.0, "type": "electric_bike", "name": "e177779727f3c2e1baf17aaace847108", "is_disabled": 0, "rental_uris": {"ios": "https://dc.lft.to/lastmile_qr_scan", "android": "https://dc.lft.to/lastmile_qr_scan"}, "is_reserved": 0}, {"lon": -77.01664733333334, "bike_id": "d7b846a139b08a54ac867b9be20fdfbb", "lat": 38.917404833333336, "fusion_lon": 0.0, "fusion_lat": 0.0, "type": "electric_scooter", "name": "d7b846a139b08a54ac867b9be20fdfbb", "is_disabled": 0, "rental_uris": {"ios": "https://dc.lft.to/lastmile_qr_scan", "android": "https://dc.lft.to/lastmile_qr_scan"}, "is_reserved": 0}, {"lon": -77.032851, "bike_id": "5f994319662244c7ada166cc95bc8bf1", "lat": 38.956474166666666, "fusion_lon": 0.0, "fusion_lat": 0.0, "type": "electric_scooter", "name": "5f994319662244c7ada166cc95bc8bf1", "is_disabled": 0, "rental_uris": {"ios": "https://dc.lft.to/lastmile_qr_scan", "android": "https://dc.lft.to/lastmile_qr_scan"}, "is_reserved": 0}, {"lon": -77.032864, "bike_id": "1c8c6dd658eca8c3167e6343ac226a77", "lat": 38.92915633333333, "fusion_lon": 0.0, "fusion_lat": 0.0, "type": "electric_scooter", "name": "1c8c6dd658eca8c3167e6343ac226a77", "is_disabled": 0, "rental_uris": {"ios": "https://dc.lft.to/lastmile_qr_scan", "android": "https://dc.lft.to/lastmile_qr_scan"}, "is_reserved": 0}, {"lon": -77.01461033333334, "bike_id": "132c7e3440b802b71a981af2baf6e67c", "lat": 38.9147465, "fusion_lon": 0.0, "fusion_lat": 0.0, "type": "electric_scooter", "name": "132c7e3440b802b71a981af2baf6e67c", "is_disabled": 0, "rental_uris": {"ios": "https://dc.lft.to/lastmile_qr_scan", "android": "https://dc.lft.to/lastmile_qr_scan"}, "is_reserved": 0}, {"lon": -77.06121766666666, "bike_id": "6e0409888eee8b3b2063e4a1d5e91efc", "lat": 38.94367583333333, "fusion_lon": 0.0, "fusion_lat": 0.0, "type": "electric_scooter", "name": "6e0409888eee8b3b2063e4a1d5e91efc", "is_disabled": 0, "rental_uris": {"ios": "https://dc.lft.to/lastmile_qr_scan", "android": "https://dc.lft.to/lastmile_qr_scan"}, "is_reserved": 0}, {"lon": -77.046827, "bike_id": "609c1b84fee6513c9946128c0061d319", "lat": 38.897391, "fusion_lon": 0.0, "fusion_lat": 0.0, "type": "electric_scooter", "name": "609c1b84fee6513c9946128c0061d319", "is_disabled": 0, "rental_uris": {"ios": "https://dc.lft.to/lastmile_qr_scan", "android": "https://dc.lft.to/lastmile_qr_scan"}, "is_reserved": 0}, {"lon": -77.0318415, "bike_id": "86ec8286b91cc886e41c0de15e90d6ea", "lat": 38.93606883333333, "fusion_lon": 0.0, "fusion_lat": 0.0, "type": "electric_scooter", "name": "86ec8286b91cc886e41c0de15e90d6ea", "is_disabled": 0, "rental_uris": {"ios": "https://dc.lft.to/lastmile_qr_scan", "android": "https://dc.lft.to/lastmile_qr_scan"}, "is_reserved": 0}, {"lon": -77.03334833333334, "bike_id": "d91728bfc61f2ea1d1bc089923247864", "lat": 38.9191835, "fusion_lon": 0.0, "fusion_lat": 0.0, "type": "electric_scooter", "name": "d91728bfc61f2ea1d1bc089923247864", "is_disabled": 0, "rental_uris": {"ios": "https://dc.lft.to/lastmile_qr_scan", "android": "https://dc.lft.to/lastmile_qr_scan"}, "is_reserved": 0}, {"lon": -77.042341, "bike_id": "bc0337763290d4cc9638dfb59396bda3", "lat": 38.91635016666667, "fusion_lon": 0.0, "fusion_lat": 0.0, "type": "electric_scooter", "name": "bc0337763290d4cc9638dfb59396bda3", "is_disabled": 0, "rental_uris": {"ios": "https://dc.lft.to/lastmile_qr_scan", "android": "https://dc.lft.to/lastmile_qr_scan"}, "is_reserved": 0}, {"lon": -77.0299725, "bike_id": "7bc998875221915d4cd87eb7554ea0c6", "lat": 38.91699366666667, "fusion_lon": 0.0, "fusion_lat": 0.0, "type": "electric_scooter", "name": "7bc998875221915d4cd87eb7554ea0c6", "is_disabled": 0, "rental_uris": {"ios": "https://dc.lft.to/lastmile_qr_scan", "android": "https://dc.lft.to/lastmile_qr_scan"}, "is_reserved": 0}, {"lon": -77.0210395, "bike_id": "b7cce227d2f32487f7d7e31e946bf824", "lat": 38.92257583333333, "fusion_lon": 0.0, "fusion_lat": 0.0, "type": "electric_scooter", "name": "b7cce227d2f32487f7d7e31e946bf824", "is_disabled": 0, "rental_uris": {"ios": "https://dc.lft.to/lastmile_qr_scan", "android": "https://dc.lft.to/lastmile_qr_scan"}, "is_reserved": 0}, {"lon": -77.0037525, "bike_id": "02532d8356cd95ec0737d1aa15e48b2e", "lat": 38.895238166666665, "fusion_lon": 0.0, "fusion_lat": 0.0, "type": "electric_scooter", "name": "02532d8356cd95ec0737d1aa15e48b2e", "is_disabled": 0, "rental_uris": {"ios": "https://dc.lft.to/lastmile_qr_scan", "android": "https://dc.lft.to/lastmile_qr_scan"}, "is_reserved": 0}, {"lon": -76.99474083333334, "bike_id": "260ff5012266872548a1f8c6d3d325c8", "lat": 38.862188333333336, "fusion_lon": 0.0, "fusion_lat": 0.0, "type": "electric_scooter", "name": "260ff5012266872548a1f8c6d3d325c8", "is_disabled": 0, "rental_uris": {"ios": "https://dc.lft.to/lastmile_qr_scan", "android": "https://dc.lft.to/lastmile_qr_scan"}, "is_reserved": 0}, {"lon": -76.98835533333333, "bike_id": "b255e5f3a3051eff95302a2dc6003cb1", "lat": 38.90073666666667, "fusion_lon": 0.0, "fusion_lat": 0.0, "type": "electric_scooter", "name": "b255e5f3a3051eff95302a2dc6003cb1", "is_disabled": 0, "rental_uris": {"ios": "https://dc.lft.to/lastmile_qr_scan", "android": "https://dc.lft.to/lastmile_qr_scan"}, "is_reserved": 0}, {"lon": -77.03833033333333, "bike_id": "9ee39f1e48ac882146f9391ffed0b75d", "lat": 38.90411316666667, "fusion_lon": 0.0, "fusion_lat": 0.0, "type": "electric_scooter", "name": "9ee39f1e48ac882146f9391ffed0b75d", "is_disabled": 0, "rental_uris": {"ios": "https://dc.lft.to/lastmile_qr_scan", "android": "https://dc.lft.to/lastmile_qr_scan"}, "is_reserved": 0}, {"lon": -77.0560545, "bike_id": "3ee8b4e2462059356c124a51a876a712", "lat": 38.931625833333335, "fusion_lon": 0.0, "fusion_lat": 0.0, "type": "electric_scooter", "name": "3ee8b4e2462059356c124a51a876a712", "is_disabled": 0, "rental_uris": {"ios": "https://dc.lft.to/lastmile_qr_scan", "android": "https://dc.lft.to/lastmile_qr_scan"}, "is_reserved": 0}, {"lon": -77.01443366666666, "bike_id": "75ecc798262d86ff4310033501d6c5c0", "lat": 38.920703, "fusion_lon": 0.0, "fusion_lat": 0.0, "type": "electric_scooter", "name": "75ecc798262d86ff4310033501d6c5c0", "is_disabled": 0, "rental_uris": {"ios": "https://dc.lft.to/lastmile_qr_scan", "android": "https://dc.lft.to/lastmile_qr_scan"}, "is_reserved": 0}, {"lon": -77.02366866666667, "bike_id": "2102dd13f255aedcb029612e6af63f4d", "lat": 38.884749166666666, "fusion_lon": 0.0, "fusion_lat": 0.0, "type": "electric_scooter", "name": "2102dd13f255aedcb029612e6af63f4d", "is_disabled": 0, "rental_uris": {"ios": "https://dc.lft.to/lastmile_qr_scan", "android": "https://dc.lft.to/lastmile_qr_scan"}, "is_reserved": 0}, {"lon": -77.03905466666667, "bike_id": "161e1b8988f72c400f9c5e899e361b78", "lat": 38.92322633333333, "fusion_lon": 0.0, "fusion_lat": 0.0, "type": "electric_scooter", "name": "161e1b8988f72c400f9c5e899e361b78", "is_disabled": 0, "rental_uris": {"ios": "https://dc.lft.to/lastmile_qr_scan", "android": "https://dc.lft.to/lastmile_qr_scan"}, "is_reserved": 0}, {"lon": -77.05809416666666, "bike_id": "64758516a35ab13d7eb53e57e1496740", "lat": 38.90507266666667, "fusion_lon": 0.0, "fusion_lat": 0.0, "type": "electric_scooter", "name": "64758516a35ab13d7eb53e57e1496740", "is_disabled": 0, "rental_uris": {"ios": "https://dc.lft.to/lastmile_qr_scan", "android": "https://dc.lft.to/lastmile_qr_scan"}, "is_reserved": 0}, {"lon": -77.04374783333333, "bike_id": "6dc59f138c915b4641ba8961bdcec4f6", "lat": 38.9215895, "fusion_lon": 0.0, "fusion_lat": 0.0, "type": "electric_scooter", "name": "6dc59f138c915b4641ba8961bdcec4f6", "is_disabled": 0, "rental_uris": {"ios": "https://dc.lft.to/lastmile_qr_scan", "android": "https://dc.lft.to/lastmile_qr_scan"}, "is_reserved": 0}, {"lon": -77.01635316666666, "bike_id": "6edd46f377a559ba737dd3c7f59c5f41", "lat": 38.903707833333335, "fusion_lon": 0.0, "fusion_lat": 0.0, "type": "electric_scooter", "name": "6edd46f377a559ba737dd3c7f59c5f41", "is_disabled": 0, "rental_uris": {"ios": "https://dc.lft.to/lastmile_qr_scan", "android": "https://dc.lft.to/lastmile_qr_scan"}, "is_reserved": 0}, {"lon": -77.02977033333333, "bike_id": "02daccb8a8b1544b1937a061ffb7ad4c", "lat": 38.9324755, "fusion_lon": 0.0, "fusion_lat": 0.0, "type": "electric_scooter", "name": "02daccb8a8b1544b1937a061ffb7ad4c", "is_disabled": 0, "rental_uris": {"ios": "https://dc.lft.to/lastmile_qr_scan", "android": "https://dc.lft.to/lastmile_qr_scan"}, "is_reserved": 0}, {"lon": -77.02119283333333, "bike_id": "33d06eaa4251c30b74cc76b1fb6abdc1", "lat": 38.93699, "fusion_lon": 0.0, "fusion_lat": 0.0, "type": "electric_scooter", "name": "33d06eaa4251c30b74cc76b1fb6abdc1", "is_disabled": 0, "rental_uris": {"ios": "https://dc.lft.to/lastmile_qr_scan", "android": "https://dc.lft.to/lastmile_qr_scan"}, "is_reserved": 0}, {"lon": -77.0417345, "bike_id": "20879809d3508b7ede3c88b46c5061c3", "lat": 38.91794016666667, "fusion_lon": 0.0, "fusion_lat": 0.0, "type": "electric_scooter", "name": "20879809d3508b7ede3c88b46c5061c3", "is_disabled": 0, "rental_uris": {"ios": "https://dc.lft.to/lastmile_qr_scan", "android": "https://dc.lft.to/lastmile_qr_scan"}, "is_reserved": 0}, {"lon": -77.00841483333333, "bike_id": "2027322f0490c799e69b271c8147c078", "lat": 38.879045, "fusion_lon": 0.0, "fusion_lat": 0.0, "type": "electric_scooter", "name": "2027322f0490c799e69b271c8147c078", "is_disabled": 0, "rental_uris": {"ios": "https://dc.lft.to/lastmile_qr_scan", "android": "https://dc.lft.to/lastmile_qr_scan"}, "is_reserved": 0}, {"lon": -77.02447383333333, "bike_id": "c019318ed48a035f71c57578ca582213", "lat": 38.914126333333336, "fusion_lon": 0.0, "fusion_lat": 0.0, "type": "electric_scooter", "name": "c019318ed48a035f71c57578ca582213", "is_disabled": 0, "rental_uris": {"ios": "https://dc.lft.to/lastmile_qr_scan", "android": "https://dc.lft.to/lastmile_qr_scan"}, "is_reserved": 0}, {"lon": -77.03025316666667, "bike_id": "2ea21ad0f3e51fa1af2bab91830d0527", "lat": 38.884445666666664, "fusion_lon": 0.0, "fusion_lat": 0.0, "type": "electric_scooter", "name": "2ea21ad0f3e51fa1af2bab91830d0527", "is_disabled": 0, "rental_uris": {"ios": "https://dc.lft.to/lastmile_qr_scan", "android": "https://dc.lft.to/lastmile_qr_scan"}, "is_reserved": 0}, {"lon": -77.032029, "bike_id": "c893cd54c7dbf9d0dc486d5611c2cb90", "lat": 38.90682183333333, "fusion_lon": 0.0, "fusion_lat": 0.0, "type": "electric_scooter", "name": "c893cd54c7dbf9d0dc486d5611c2cb90", "is_disabled": 0, "rental_uris": {"ios": "https://dc.lft.to/lastmile_qr_scan", "android": "https://dc.lft.to/lastmile_qr_scan"}, "is_reserved": 0}, {"lon": -77.04045366666666, "bike_id": "d0009fe897a43815808d3a893f07c403", "lat": 38.9287815, "fusion_lon": 0.0, "fusion_lat": 0.0, "type": "electric_scooter", "name": "d0009fe897a43815808d3a893f07c403", "is_disabled": 0, "rental_uris": {"ios": "https://dc.lft.to/lastmile_qr_scan", "android": "https://dc.lft.to/lastmile_qr_scan"}, "is_reserved": 0}, {"lon": -76.99808166666666, "bike_id": "2a6aa4fcc4049752f51f369d2c9c3ed2", "lat": 38.829168, "fusion_lon": 0.0, "fusion_lat": 0.0, "type": "electric_bike", "name": "2a6aa4fcc4049752f51f369d2c9c3ed2", "is_disabled": 0, "rental_uris": {"ios": "https://dc.lft.to/lastmile_qr_scan", "android": "https://dc.lft.to/lastmile_qr_scan"}, "is_reserved": 0}, {"lon": -77.02311533333334, "bike_id": "7a0575de41ef1c1c4ee71cb71fa9d861", "lat": 38.8948965, "fusion_lon": 0.0, "fusion_lat": 0.0, "type": "electric_scooter", "name": "7a0575de41ef1c1c4ee71cb71fa9d861", "is_disabled": 0, "rental_uris": {"ios": "https://dc.lft.to/lastmile_qr_scan", "android": "https://dc.lft.to/lastmile_qr_scan"}, "is_reserved": 0}, {"lon": -77.02702633333334, "bike_id": "d871615d2deded069b506e46d857a930", "lat": 38.926641333333336, "fusion_lon": 0.0, "fusion_lat": 0.0, "type": "electric_scooter", "name": "d871615d2deded069b506e46d857a930", "is_disabled": 0, "rental_uris": {"ios": "https://dc.lft.to/lastmile_qr_scan", "android": "https://dc.lft.to/lastmile_qr_scan"}, "is_reserved": 0}, {"lon": -77.01753083333334, "bike_id": "78e2c281aee39e627152f06cb785a6a3", "lat": 38.90398783333333, "fusion_lon": 0.0, "fusion_lat": 0.0, "type": "electric_scooter", "name": "78e2c281aee39e627152f06cb785a6a3", "is_disabled": 0, "rental_uris": {"ios": "https://dc.lft.to/lastmile_qr_scan", "android": "https://dc.lft.to/lastmile_qr_scan"}, "is_reserved": 0}, {"lon": -76.95749116666667, "bike_id": "a5cd03678a9fe16f41da879b22fd5972", "lat": 38.8843065, "fusion_lon": 0.0, "fusion_lat": 0.0, "type": "electric_scooter", "name": "a5cd03678a9fe16f41da879b22fd5972", "is_disabled": 0, "rental_uris": {"ios": "https://dc.lft.to/lastmile_qr_scan", "android": "https://dc.lft.to/lastmile_qr_scan"}, "is_reserved": 0}, {"lon": -77.04200866666666, "bike_id": "aa7a2ee42a2f156f88aa6091194dd590", "lat": 38.89973666666667, "fusion_lon": 0.0, "fusion_lat": 0.0, "type": "electric_scooter", "name": "aa7a2ee42a2f156f88aa6091194dd590", "is_disabled": 0, "rental_uris": {"ios": "https://dc.lft.to/lastmile_qr_scan", "android": "https://dc.lft.to/lastmile_qr_scan"}, "is_reserved": 0}, {"lon": -77.0229095, "bike_id": "31975056ef72da194c047c9c891936aa", "lat": 38.90967633333333, "fusion_lon": 0.0, "fusion_lat": 0.0, "type": "electric_scooter", "name": "31975056ef72da194c047c9c891936aa", "is_disabled": 0, "rental_uris": {"ios": "https://dc.lft.to/lastmile_qr_scan", "android": "https://dc.lft.to/lastmile_qr_scan"}, "is_reserved": 0}, {"lon": -77.1171065, "bike_id": "c9a8d2a47ebdb75904b10da40a9d4680", "lat": 38.86745666666667, "fusion_lon": 0.0, "fusion_lat": 0.0, "type": "electric_bike", "name": "c9a8d2a47ebdb75904b10da40a9d4680", "is_disabled": 0, "rental_uris": {"ios": "https://dc.lft.to/lastmile_qr_scan", "android": "https://dc.lft.to/lastmile_qr_scan"}, "is_reserved": 0}, {"lon": -77.02358683333334, "bike_id": "90cb10b917d9b1faea33cd8b058fce8c", "lat": 38.922243333333334, "fusion_lon": 0.0, "fusion_lat": 0.0, "type": "electric_scooter", "name": "90cb10b917d9b1faea33cd8b058fce8c", "is_disabled": 0, "rental_uris": {"ios": "https://dc.lft.to/lastmile_qr_scan", "android": "https://dc.lft.to/lastmile_qr_scan"}, "is_reserved": 0}, {"lon": -77.00052783333334, "bike_id": "15410a5876f7dd0cfd17d51ee611b4f6", "lat": 38.92398216666667, "fusion_lon": 0.0, "fusion_lat": 0.0, "type": "electric_scooter", "name": "15410a5876f7dd0cfd17d51ee611b4f6", "is_disabled": 0, "rental_uris": {"ios": "https://dc.lft.to/lastmile_qr_scan", "android": "https://dc.lft.to/lastmile_qr_scan"}, "is_reserved": 0}, {"lon": -76.98384683333333, "bike_id": "508bc793ada3c4d8ed6074045a5513f6", "lat": 38.89887483333333, "fusion_lon": 0.0, "fusion_lat": 0.0, "type": "electric_bike", "name": "508bc793ada3c4d8ed6074045a5513f6", "is_disabled": 0, "rental_uris": {"ios": "https://dc.lft.to/lastmile_qr_scan", "android": "https://dc.lft.to/lastmile_qr_scan"}, "is_reserved": 0}, {"lon": -77.0224755, "bike_id": "1eaf02be8bbacc04b52f73fbda875694", "lat": 38.927345833333334, "fusion_lon": 0.0, "fusion_lat": 0.0, "type": "electric_scooter", "name": "1eaf02be8bbacc04b52f73fbda875694", "is_disabled": 0, "rental_uris": {"ios": "https://dc.lft.to/lastmile_qr_scan", "android": "https://dc.lft.to/lastmile_qr_scan"}, "is_reserved": 0}, {"lon": -76.94068183333333, "bike_id": "644aa2943ee129379121e5ee97c22298", "lat": 38.89318883333333, "fusion_lon": 0.0, "fusion_lat": 0.0, "type": "electric_scooter", "name": "644aa2943ee129379121e5ee97c22298", "is_disabled": 0, "rental_uris": {"ios": "https://dc.lft.to/lastmile_qr_scan", "android": "https://dc.lft.to/lastmile_qr_scan"}, "is_reserved": 0}, {"lon": -77.04546416666666, "bike_id": "d0ed0357d165050a3e7cc65943e8a764", "lat": 38.91314916666666, "fusion_lon": 0.0, "fusion_lat": 0.0, "type": "electric_scooter", "name": "d0ed0357d165050a3e7cc65943e8a764", "is_disabled": 0, "rental_uris": {"ios": "https://dc.lft.to/lastmile_qr_scan", "android": "https://dc.lft.to/lastmile_qr_scan"}, "is_reserved": 0}, {"lon": -76.94122216666666, "bike_id": "4e2666048637fbdcda13e06c9ec9c601", "lat": 38.908253, "fusion_lon": 0.0, "fusion_lat": 0.0, "type": "electric_scooter", "name": "4e2666048637fbdcda13e06c9ec9c601", "is_disabled": 0, "rental_uris": {"ios": "https://dc.lft.to/lastmile_qr_scan", "android": "https://dc.lft.to/lastmile_qr_scan"}, "is_reserved": 0}, {"lon": -77.0179505, "bike_id": "6df281614e982a2303dcbf2ea8ccb741", "lat": 38.941153666666665, "fusion_lon": 0.0, "fusion_lat": 0.0, "type": "electric_scooter", "name": "6df281614e982a2303dcbf2ea8ccb741", "is_disabled": 0, "rental_uris": {"ios": "https://dc.lft.to/lastmile_qr_scan", "android": "https://dc.lft.to/lastmile_qr_scan"}, "is_reserved": 0}, {"lon": -77.00012966666667, "bike_id": "fdb199c741cbbec198b1efc94a1b82eb", "lat": 38.890914333333335, "fusion_lon": 0.0, "fusion_lat": 0.0, "type": "electric_scooter", "name": "fdb199c741cbbec198b1efc94a1b82eb", "is_disabled": 0, "rental_uris": {"ios": "https://dc.lft.to/lastmile_qr_scan", "android": "https://dc.lft.to/lastmile_qr_scan"}, "is_reserved": 0}, {"lon": -77.02055633333333, "bike_id": "82128aaa862845f6b976873b7aa85016", "lat": 38.9291485, "fusion_lon": 0.0, "fusion_lat": 0.0, "type": "electric_scooter", "name": "82128aaa862845f6b976873b7aa85016", "is_disabled": 0, "rental_uris": {"ios": "https://dc.lft.to/lastmile_qr_scan", "android": "https://dc.lft.to/lastmile_qr_scan"}, "is_reserved": 0}, {"lon": -76.99054933333333, "bike_id": "a1816b33c56cf46f6a0777fb4256d5c0", "lat": 38.86382033333334, "fusion_lon": 0.0, "fusion_lat": 0.0, "type": "electric_scooter", "name": "a1816b33c56cf46f6a0777fb4256d5c0", "is_disabled": 0, "rental_uris": {"ios": "https://dc.lft.to/lastmile_qr_scan", "android": "https://dc.lft.to/lastmile_qr_scan"}, "is_reserved": 0}, {"lon": -77.0006235, "bike_id": "ea477e4e84090706b9d68821aab13fe1", "lat": 38.90086766666667, "fusion_lon": 0.0, "fusion_lat": 0.0, "type": "electric_scooter", "name": "ea477e4e84090706b9d68821aab13fe1", "is_disabled": 0, "rental_uris": {"ios": "https://dc.lft.to/lastmile_qr_scan", "android": "https://dc.lft.to/lastmile_qr_scan"}, "is_reserved": 0}, {"lon": -77.03076533333333, "bike_id": "a82e92fbd586a3954725c72c23978164", "lat": 38.90066766666666, "fusion_lon": 0.0, "fusion_lat": 0.0, "type": "electric_scooter", "name": "a82e92fbd586a3954725c72c23978164", "is_disabled": 0, "rental_uris": {"ios": "https://dc.lft.to/lastmile_qr_scan", "android": "https://dc.lft.to/lastmile_qr_scan"}, "is_reserved": 0}, {"lon": -77.03216466666667, "bike_id": "1d66f0cb569b2659bf60bba8a24c6102", "lat": 38.91265766666667, "fusion_lon": 0.0, "fusion_lat": 0.0, "type": "electric_scooter", "name": "1d66f0cb569b2659bf60bba8a24c6102", "is_disabled": 0, "rental_uris": {"ios": "https://dc.lft.to/lastmile_qr_scan", "android": "https://dc.lft.to/lastmile_qr_scan"}, "is_reserved": 0}, {"lon": -77.00550366666667, "bike_id": "3129c5a4cc4b5eb16915058274330e39", "lat": 38.91183566666667, "fusion_lon": 0.0, "fusion_lat": 0.0, "type": "electric_scooter", "name": "3129c5a4cc4b5eb16915058274330e39", "is_disabled": 0, "rental_uris": {"ios": "https://dc.lft.to/lastmile_qr_scan", "android": "https://dc.lft.to/lastmile_qr_scan"}, "is_reserved": 0}, {"lon": -77.02751766666667, "bike_id": "dfad4af880fb5f3fa6124ae049a473ab", "lat": 38.957826, "fusion_lon": 0.0, "fusion_lat": 0.0, "type": "electric_scooter", "name": "dfad4af880fb5f3fa6124ae049a473ab", "is_disabled": 0, "rental_uris": {"ios": "https://dc.lft.to/lastmile_qr_scan", "android": "https://dc.lft.to/lastmile_qr_scan"}, "is_reserved": 0}, {"lon": -76.948816, "bike_id": "c3bda5aa6056017015655de493f41c77", "lat": 38.89426666666667, "fusion_lon": 0.0, "fusion_lat": 0.0, "type": "electric_scooter", "name": "c3bda5aa6056017015655de493f41c77", "is_disabled": 0, "rental_uris": {"ios": "https://dc.lft.to/lastmile_qr_scan", "android": "https://dc.lft.to/lastmile_qr_scan"}, "is_reserved": 0}, {"lon": -77.02695383333334, "bike_id": "66ab062cd14037cefb6c3f33d1006c93", "lat": 38.908434, "fusion_lon": 0.0, "fusion_lat": 0.0, "type": "electric_scooter", "name": "66ab062cd14037cefb6c3f33d1006c93", "is_disabled": 0, "rental_uris": {"ios": "https://dc.lft.to/lastmile_qr_scan", "android": "https://dc.lft.to/lastmile_qr_scan"}, "is_reserved": 0}, {"lon": -77.00681583333333, "bike_id": "f35896da84e5cff24234c5ce31421e79", "lat": 38.8349205, "fusion_lon": 0.0, "fusion_lat": 0.0, "type": "electric_scooter", "name": "f35896da84e5cff24234c5ce31421e79", "is_disabled": 0, "rental_uris": {"ios": "https://dc.lft.to/lastmile_qr_scan", "android": "https://dc.lft.to/lastmile_qr_scan"}, "is_reserved": 0}, {"lon": -77.02770133333334, "bike_id": "8dc969e80843c9a3d474975a0c7be866", "lat": 38.8922015, "fusion_lon": 0.0, "fusion_lat": 0.0, "type": "electric_scooter", "name": "8dc969e80843c9a3d474975a0c7be866", "is_disabled": 0, "rental_uris": {"ios": "https://dc.lft.to/lastmile_qr_scan", "android": "https://dc.lft.to/lastmile_qr_scan"}, "is_reserved": 0}, {"lon": -77.01986633333334, "bike_id": "0cddabf2e0ab77c33c9633f23dab59c1", "lat": 38.92544266666667, "fusion_lon": 0.0, "fusion_lat": 0.0, "type": "electric_bike", "name": "0cddabf2e0ab77c33c9633f23dab59c1", "is_disabled": 0, "rental_uris": {"ios": "https://dc.lft.to/lastmile_qr_scan", "android": "https://dc.lft.to/lastmile_qr_scan"}, "is_reserved": 0}, {"lon": -77.04482333333333, "bike_id": "edb3f71069698ed7f351fdf0b6c14a27", "lat": 38.91935766666667, "fusion_lon": 0.0, "fusion_lat": 0.0, "type": "electric_scooter", "name": "edb3f71069698ed7f351fdf0b6c14a27", "is_disabled": 0, "rental_uris": {"ios": "https://dc.lft.to/lastmile_qr_scan", "android": "https://dc.lft.to/lastmile_qr_scan"}, "is_reserved": 0}, {"lon": -77.03315833333333, "bike_id": "fd266f6cfc7155a5bd1803137f09ad47", "lat": 38.92158466666667, "fusion_lon": 0.0, "fusion_lat": 0.0, "type": "electric_scooter", "name": "fd266f6cfc7155a5bd1803137f09ad47", "is_disabled": 0, "rental_uris": {"ios": "https://dc.lft.to/lastmile_qr_scan", "android": "https://dc.lft.to/lastmile_qr_scan"}, "is_reserved": 0}, {"lon": -76.99368233333334, "bike_id": "7d5be48ced8bd1af701c5c2faf65516d", "lat": 38.89381733333333, "fusion_lon": 0.0, "fusion_lat": 0.0, "type": "electric_scooter", "name": "7d5be48ced8bd1af701c5c2faf65516d", "is_disabled": 0, "rental_uris": {"ios": "https://dc.lft.to/lastmile_qr_scan", "android": "https://dc.lft.to/lastmile_qr_scan"}, "is_reserved": 0}, {"lon": -77.07762616666666, "bike_id": "f215315a76bc84296c720eb75652298c", "lat": 38.95769933333333, "fusion_lon": 0.0, "fusion_lat": 0.0, "type": "electric_scooter", "name": "f215315a76bc84296c720eb75652298c", "is_disabled": 0, "rental_uris": {"ios": "https://dc.lft.to/lastmile_qr_scan", "android": "https://dc.lft.to/lastmile_qr_scan"}, "is_reserved": 0}, {"lon": -77.12428666666666, "bike_id": "97d3b72fdaf6f4f7064d5708c21bb8c9", "lat": 38.853797166666666, "fusion_lon": 0.0, "fusion_lat": 0.0, "type": "electric_bike", "name": "97d3b72fdaf6f4f7064d5708c21bb8c9", "is_disabled": 0, "rental_uris": {"ios": "https://dc.lft.to/lastmile_qr_scan", "android": "https://dc.lft.to/lastmile_qr_scan"}, "is_reserved": 0}, {"lon": -76.97207583333334, "bike_id": "4fd2c7379ebe425e698e6008e1bf76d7", "lat": 38.89288966666667, "fusion_lon": 0.0, "fusion_lat": 0.0, "type": "electric_bike", "name": "4fd2c7379ebe425e698e6008e1bf76d7", "is_disabled": 0, "rental_uris": {"ios": "https://dc.lft.to/lastmile_qr_scan", "android": "https://dc.lft.to/lastmile_qr_scan"}, "is_reserved": 0}, {"lon": -76.99500883333333, "bike_id": "8ed7c1c51fa93ea1d071f402ccc03b75", "lat": 38.86248783333333, "fusion_lon": 0.0, "fusion_lat": 0.0, "type": "electric_scooter", "name": "8ed7c1c51fa93ea1d071f402ccc03b75", "is_disabled": 0, "rental_uris": {"ios": "https://dc.lft.to/lastmile_qr_scan", "android": "https://dc.lft.to/lastmile_qr_scan"}, "is_reserved": 0}, {"lon": -77.13924233333333, "bike_id": "c18c730cebddf88e2e48271c801101ec", "lat": 38.87303466666667, "fusion_lon": 0.0, "fusion_lat": 0.0, "type": "electric_bike", "name": "c18c730cebddf88e2e48271c801101ec", "is_disabled": 0, "rental_uris": {"ios": "https://dc.lft.to/lastmile_qr_scan", "android": "https://dc.lft.to/lastmile_qr_scan"}, "is_reserved": 0}, {"lon": -77.0097265, "bike_id": "b60ac393fb884be72f26964d2d6a50e6", "lat": 38.870731666666664, "fusion_lon": 0.0, "fusion_lat": 0.0, "type": "electric_scooter", "name": "b60ac393fb884be72f26964d2d6a50e6", "is_disabled": 0, "rental_uris": {"ios": "https://dc.lft.to/lastmile_qr_scan", "android": "https://dc.lft.to/lastmile_qr_scan"}, "is_reserved": 0}, {"lon": -77.00877366666667, "bike_id": "bc2c05862f330191b6e9bee0d8edcf48", "lat": 38.82541416666667, "fusion_lon": 0.0, "fusion_lat": 0.0, "type": "electric_scooter", "name": "bc2c05862f330191b6e9bee0d8edcf48", "is_disabled": 0, "rental_uris": {"ios": "https://dc.lft.to/lastmile_qr_scan", "android": "https://dc.lft.to/lastmile_qr_scan"}, "is_reserved": 0}, {"lon": -76.9920825, "bike_id": "b19b2bf606454e9caa00d2d05d2f7dba", "lat": 38.9224515, "fusion_lon": 0.0, "fusion_lat": 0.0, "type": "electric_scooter", "name": "b19b2bf606454e9caa00d2d05d2f7dba", "is_disabled": 0, "rental_uris": {"ios": "https://dc.lft.to/lastmile_qr_scan", "android": "https://dc.lft.to/lastmile_qr_scan"}, "is_reserved": 0}, {"lon": -77.055728, "bike_id": "daf893d5b0e8987899c78a71926d7c97", "lat": 38.930546666666665, "fusion_lon": 0.0, "fusion_lat": 0.0, "type": "electric_scooter", "name": "daf893d5b0e8987899c78a71926d7c97", "is_disabled": 0, "rental_uris": {"ios": "https://dc.lft.to/lastmile_qr_scan", "android": "https://dc.lft.to/lastmile_qr_scan"}, "is_reserved": 0}, {"lon": -77.044953, "bike_id": "f8a58a37c1a53f5dd74a60d541ded969", "lat": 38.91325916666667, "fusion_lon": 0.0, "fusion_lat": 0.0, "type": "electric_scooter", "name": "f8a58a37c1a53f5dd74a60d541ded969", "is_disabled": 0, "rental_uris": {"ios": "https://dc.lft.to/lastmile_qr_scan", "android": "https://dc.lft.to/lastmile_qr_scan"}, "is_reserved": 0}, {"lon": -76.988381, "bike_id": "beaaca15de256dc78c24dcffc6d9af45", "lat": 38.89667766666667, "fusion_lon": 0.0, "fusion_lat": 0.0, "type": "electric_scooter", "name": "beaaca15de256dc78c24dcffc6d9af45", "is_disabled": 0, "rental_uris": {"ios": "https://dc.lft.to/lastmile_qr_scan", "android": "https://dc.lft.to/lastmile_qr_scan"}, "is_reserved": 0}, {"lon": -77.02207633333333, "bike_id": "3fa4f9028e4f3589eb4b4dc15a20fa2a", "lat": 38.893512666666666, "fusion_lon": 0.0, "fusion_lat": 0.0, "type": "electric_scooter", "name": "3fa4f9028e4f3589eb4b4dc15a20fa2a", "is_disabled": 0, "rental_uris": {"ios": "https://dc.lft.to/lastmile_qr_scan", "android": "https://dc.lft.to/lastmile_qr_scan"}, "is_reserved": 0}, {"lon": -77.04083116666666, "bike_id": "37932c124783453f796a62db63c2297f", "lat": 38.917056, "fusion_lon": 0.0, "fusion_lat": 0.0, "type": "electric_scooter", "name": "37932c124783453f796a62db63c2297f", "is_disabled": 0, "rental_uris": {"ios": "https://dc.lft.to/lastmile_qr_scan", "android": "https://dc.lft.to/lastmile_qr_scan"}, "is_reserved": 0}, {"lon": -77.02245233333333, "bike_id": "9ea0573b161c74db09ea2298ac72c482", "lat": 38.908587, "fusion_lon": 0.0, "fusion_lat": 0.0, "type": "electric_scooter", "name": "9ea0573b161c74db09ea2298ac72c482", "is_disabled": 0, "rental_uris": {"ios": "https://dc.lft.to/lastmile_qr_scan", "android": "https://dc.lft.to/lastmile_qr_scan"}, "is_reserved": 0}, {"lon": -77.0201025, "bike_id": "a209b2eb47a54ffe7066229ca2496105", "lat": 38.924169666666664, "fusion_lon": 0.0, "fusion_lat": 0.0, "type": "electric_scooter", "name": "a209b2eb47a54ffe7066229ca2496105", "is_disabled": 0, "rental_uris": {"ios": "https://dc.lft.to/lastmile_qr_scan", "android": "https://dc.lft.to/lastmile_qr_scan"}, "is_reserved": 0}, {"lon": -77.02703616666666, "bike_id": "1a3545c6047e3267002d3863c9f3bf1d", "lat": 38.9067105, "fusion_lon": 0.0, "fusion_lat": 0.0, "type": "electric_scooter", "name": "1a3545c6047e3267002d3863c9f3bf1d", "is_disabled": 0, "rental_uris": {"ios": "https://dc.lft.to/lastmile_qr_scan", "android": "https://dc.lft.to/lastmile_qr_scan"}, "is_reserved": 0}, {"lon": -76.9977705, "bike_id": "a3d99061badba3e650486c4fad3c57e3", "lat": 38.84427316666667, "fusion_lon": 0.0, "fusion_lat": 0.0, "type": "electric_scooter", "name": "a3d99061badba3e650486c4fad3c57e3", "is_disabled": 0, "rental_uris": {"ios": "https://dc.lft.to/lastmile_qr_scan", "android": "https://dc.lft.to/lastmile_qr_scan"}, "is_reserved": 0}, {"lon": -77.02618683333333, "bike_id": "7363812f45d2f6b796c318abfb0dce3d", "lat": 38.90074583333333, "fusion_lon": 0.0, "fusion_lat": 0.0, "type": "electric_scooter", "name": "7363812f45d2f6b796c318abfb0dce3d", "is_disabled": 0, "rental_uris": {"ios": "https://dc.lft.to/lastmile_qr_scan", "android": "https://dc.lft.to/lastmile_qr_scan"}, "is_reserved": 0}, {"lon": -76.94724283333333, "bike_id": "d5f463a68b11501742c6b85eb87027a2", "lat": 38.8973785, "fusion_lon": 0.0, "fusion_lat": 0.0, "type": "electric_scooter", "name": "d5f463a68b11501742c6b85eb87027a2", "is_disabled": 0, "rental_uris": {"ios": "https://dc.lft.to/lastmile_qr_scan", "android": "https://dc.lft.to/lastmile_qr_scan"}, "is_reserved": 0}, {"lon": -77.0215555, "bike_id": "8bb22aba50d497f307567faf6d262202", "lat": 38.92606116666666, "fusion_lon": 0.0, "fusion_lat": 0.0, "type": "electric_scooter", "name": "8bb22aba50d497f307567faf6d262202", "is_disabled": 0, "rental_uris": {"ios": "https://dc.lft.to/lastmile_qr_scan", "android": "https://dc.lft.to/lastmile_qr_scan"}, "is_reserved": 0}, {"lon": -77.34406583333333, "bike_id": "e194831f20693c6afa93c8a86dd8445b", "lat": 38.945941833333336, "fusion_lon": 0.0, "fusion_lat": 0.0, "type": "electric_bike", "name": "e194831f20693c6afa93c8a86dd8445b", "is_disabled": 0, "rental_uris": {"ios": "https://dc.lft.to/lastmile_qr_scan", "android": "https://dc.lft.to/lastmile_qr_scan"}, "is_reserved": 0}, {"lon": -77.02645166666667, "bike_id": "28f35646d488c96187a0eb8cee60f3b5", "lat": 38.92615116666666, "fusion_lon": 0.0, "fusion_lat": 0.0, "type": "electric_scooter", "name": "28f35646d488c96187a0eb8cee60f3b5", "is_disabled": 0, "rental_uris": {"ios": "https://dc.lft.to/lastmile_qr_scan", "android": "https://dc.lft.to/lastmile_qr_scan"}, "is_reserved": 0}, {"lon": -77.03282366666667, "bike_id": "5f253ae540efea9b588eddd7bbbce001", "lat": 38.9397975, "fusion_lon": 0.0, "fusion_lat": 0.0, "type": "electric_scooter", "name": "5f253ae540efea9b588eddd7bbbce001", "is_disabled": 0, "rental_uris": {"ios": "https://dc.lft.to/lastmile_qr_scan", "android": "https://dc.lft.to/lastmile_qr_scan"}, "is_reserved": 0}, {"lon": -77.01201716666667, "bike_id": "d18a39d723fcf80263cd33735865f712", "lat": 38.88552716666667, "fusion_lon": 0.0, "fusion_lat": 0.0, "type": "electric_scooter", "name": "d18a39d723fcf80263cd33735865f712", "is_disabled": 0, "rental_uris": {"ios": "https://dc.lft.to/lastmile_qr_scan", "android": "https://dc.lft.to/lastmile_qr_scan"}, "is_reserved": 0}, {"lon": -77.05304, "bike_id": "7b3d763f106d6c3274df78a8de4e6508", "lat": 38.898838833333336, "fusion_lon": 0.0, "fusion_lat": 0.0, "type": "electric_scooter", "name": "7b3d763f106d6c3274df78a8de4e6508", "is_disabled": 0, "rental_uris": {"ios": "https://dc.lft.to/lastmile_qr_scan", "android": "https://dc.lft.to/lastmile_qr_scan"}, "is_reserved": 0}, {"lon": -76.97701333333333, "bike_id": "f52a4a84dfda3463b5194d9b28d858ce", "lat": 38.94916116666667, "fusion_lon": 0.0, "fusion_lat": 0.0, "type": "electric_bike", "name": "f52a4a84dfda3463b5194d9b28d858ce", "is_disabled": 0, "rental_uris": {"ios": "https://dc.lft.to/lastmile_qr_scan", "android": "https://dc.lft.to/lastmile_qr_scan"}, "is_reserved": 0}, {"lon": -77.0453525, "bike_id": "ba9b253ae53de321df9a0021070c1c4d", "lat": 38.918231166666665, "fusion_lon": 0.0, "fusion_lat": 0.0, "type": "electric_scooter", "name": "ba9b253ae53de321df9a0021070c1c4d", "is_disabled": 0, "rental_uris": {"ios": "https://dc.lft.to/lastmile_qr_scan", "android": "https://dc.lft.to/lastmile_qr_scan"}, "is_reserved": 0}, {"lon": -77.03469533333333, "bike_id": "b0ed442c75cc86a2d0c39301a0508fc8", "lat": 38.917137833333335, "fusion_lon": 0.0, "fusion_lat": 0.0, "type": "electric_scooter", "name": "b0ed442c75cc86a2d0c39301a0508fc8", "is_disabled": 0, "rental_uris": {"ios": "https://dc.lft.to/lastmile_qr_scan", "android": "https://dc.lft.to/lastmile_qr_scan"}, "is_reserved": 0}, {"lon": -77.03895233333333, "bike_id": "0f1f14b15c569c26ae5f7c45aca2cffb", "lat": 38.923373166666664, "fusion_lon": 0.0, "fusion_lat": 0.0, "type": "electric_scooter", "name": "0f1f14b15c569c26ae5f7c45aca2cffb", "is_disabled": 0, "rental_uris": {"ios": "https://dc.lft.to/lastmile_qr_scan", "android": "https://dc.lft.to/lastmile_qr_scan"}, "is_reserved": 0}, {"lon": -77.0386525, "bike_id": "fcc893375da95133b3301e74b5e66540", "lat": 38.90973733333333, "fusion_lon": 0.0, "fusion_lat": 0.0, "type": "electric_scooter", "name": "fcc893375da95133b3301e74b5e66540", "is_disabled": 0, "rental_uris": {"ios": "https://dc.lft.to/lastmile_qr_scan", "android": "https://dc.lft.to/lastmile_qr_scan"}, "is_reserved": 0}, {"lon": -77.04872466666667, "bike_id": "f2ea532ed09ad685b714d30a75b2b447", "lat": 38.89233983333333, "fusion_lon": 0.0, "fusion_lat": 0.0, "type": "electric_scooter", "name": "f2ea532ed09ad685b714d30a75b2b447", "is_disabled": 0, "rental_uris": {"ios": "https://dc.lft.to/lastmile_qr_scan", "android": "https://dc.lft.to/lastmile_qr_scan"}, "is_reserved": 0}, {"lon": -77.02309133333333, "bike_id": "22c146ea1f5d8bb6d970c889ceb625a4", "lat": 38.90865066666667, "fusion_lon": 0.0, "fusion_lat": 0.0, "type": "electric_scooter", "name": "22c146ea1f5d8bb6d970c889ceb625a4", "is_disabled": 0, "rental_uris": {"ios": "https://dc.lft.to/lastmile_qr_scan", "android": "https://dc.lft.to/lastmile_qr_scan"}, "is_reserved": 0}, {"lon": -77.0271175, "bike_id": "c0b5c324c085e497fe2b62f7347842ee", "lat": 38.897303, "fusion_lon": 0.0, "fusion_lat": 0.0, "type": "electric_scooter", "name": "c0b5c324c085e497fe2b62f7347842ee", "is_disabled": 0, "rental_uris": {"ios": "https://dc.lft.to/lastmile_qr_scan", "android": "https://dc.lft.to/lastmile_qr_scan"}, "is_reserved": 0}, {"lon": -77.04356966666667, "bike_id": "ed58dbd9d9cc2867ab4442eb57a08789", "lat": 39.015395, "fusion_lon": 0.0, "fusion_lat": 0.0, "type": "electric_bike", "name": "ed58dbd9d9cc2867ab4442eb57a08789", "is_disabled": 0, "rental_uris": {"ios": "https://dc.lft.to/lastmile_qr_scan", "android": "https://dc.lft.to/lastmile_qr_scan"}, "is_reserved": 0}, {"lon": -76.97838033333333, "bike_id": "c51726b3494b7dfdfbe53180f7e49c4d", "lat": 38.8656865, "fusion_lon": 0.0, "fusion_lat": 0.0, "type": "electric_scooter", "name": "c51726b3494b7dfdfbe53180f7e49c4d", "is_disabled": 0, "rental_uris": {"ios": "https://dc.lft.to/lastmile_qr_scan", "android": "https://dc.lft.to/lastmile_qr_scan"}, "is_reserved": 0}, {"lon": -76.97325033333334, "bike_id": "10d2ec5b6b4d040f7a1afd443c87d528", "lat": 38.904127333333335, "fusion_lon": 0.0, "fusion_lat": 0.0, "type": "electric_scooter", "name": "10d2ec5b6b4d040f7a1afd443c87d528", "is_disabled": 0, "rental_uris": {"ios": "https://dc.lft.to/lastmile_qr_scan", "android": "https://dc.lft.to/lastmile_qr_scan"}, "is_reserved": 0}, {"lon": -76.94190483333334, "bike_id": "38febe77d40078b49d8a7124e58ebcc2", "lat": 38.89313716666667, "fusion_lon": 0.0, "fusion_lat": 0.0, "type": "electric_bike", "name": "38febe77d40078b49d8a7124e58ebcc2", "is_disabled": 0, "rental_uris": {"ios": "https://dc.lft.to/lastmile_qr_scan", "android": "https://dc.lft.to/lastmile_qr_scan"}, "is_reserved": 0}, {"lon": -77.02705166666667, "bike_id": "3885cea026cd95e6741b31b86c159358", "lat": 38.90534666666667, "fusion_lon": 0.0, "fusion_lat": 0.0, "type": "electric_scooter", "name": "3885cea026cd95e6741b31b86c159358", "is_disabled": 0, "rental_uris": {"ios": "https://dc.lft.to/lastmile_qr_scan", "android": "https://dc.lft.to/lastmile_qr_scan"}, "is_reserved": 0}, {"lon": -77.04153783333334, "bike_id": "42343518ed5af327f0fddce4439904d6", "lat": 38.918140666666666, "fusion_lon": 0.0, "fusion_lat": 0.0, "type": "electric_scooter", "name": "42343518ed5af327f0fddce4439904d6", "is_disabled": 0, "rental_uris": {"ios": "https://dc.lft.to/lastmile_qr_scan", "android": "https://dc.lft.to/lastmile_qr_scan"}, "is_reserved": 0}, {"lon": -77.03478033333333, "bike_id": "b952bbc8f4cf240bc8c722d3f1a1d0f5", "lat": 38.90727783333333, "fusion_lon": 0.0, "fusion_lat": 0.0, "type": "electric_scooter", "name": "b952bbc8f4cf240bc8c722d3f1a1d0f5", "is_disabled": 0, "rental_uris": {"ios": "https://dc.lft.to/lastmile_qr_scan", "android": "https://dc.lft.to/lastmile_qr_scan"}, "is_reserved": 0}, {"lon": -77.03878466666667, "bike_id": "9b41c0ef4a711ba951f26749672a46ca", "lat": 38.931886666666664, "fusion_lon": 0.0, "fusion_lat": 0.0, "type": "electric_scooter", "name": "9b41c0ef4a711ba951f26749672a46ca", "is_disabled": 0, "rental_uris": {"ios": "https://dc.lft.to/lastmile_qr_scan", "android": "https://dc.lft.to/lastmile_qr_scan"}, "is_reserved": 0}, {"lon": -77.023696, "bike_id": "a8cb78f3571efbc35150da847288b845", "lat": 38.91546483333333, "fusion_lon": 0.0, "fusion_lat": 0.0, "type": "electric_scooter", "name": "a8cb78f3571efbc35150da847288b845", "is_disabled": 0, "rental_uris": {"ios": "https://dc.lft.to/lastmile_qr_scan", "android": "https://dc.lft.to/lastmile_qr_scan"}, "is_reserved": 0}, {"lon": -77.01329916666667, "bike_id": "cea13e2b178e5a247fabc97e61c3eb6a", "lat": 38.900277833333334, "fusion_lon": 0.0, "fusion_lat": 0.0, "type": "electric_scooter", "name": "cea13e2b178e5a247fabc97e61c3eb6a", "is_disabled": 0, "rental_uris": {"ios": "https://dc.lft.to/lastmile_qr_scan", "android": "https://dc.lft.to/lastmile_qr_scan"}, "is_reserved": 0}, {"lon": -77.03572733333333, "bike_id": "75a7bb5a852525920cf5753f38cc29db", "lat": 38.9178175, "fusion_lon": 0.0, "fusion_lat": 0.0, "type": "electric_scooter", "name": "75a7bb5a852525920cf5753f38cc29db", "is_disabled": 0, "rental_uris": {"ios": "https://dc.lft.to/lastmile_qr_scan", "android": "https://dc.lft.to/lastmile_qr_scan"}, "is_reserved": 0}, {"lon": -77.031741, "bike_id": "ad4ed745be6a45ceb7b504f3bf3721e5", "lat": 38.91117366666667, "fusion_lon": 0.0, "fusion_lat": 0.0, "type": "electric_scooter", "name": "ad4ed745be6a45ceb7b504f3bf3721e5", "is_disabled": 0, "rental_uris": {"ios": "https://dc.lft.to/lastmile_qr_scan", "android": "https://dc.lft.to/lastmile_qr_scan"}, "is_reserved": 0}, {"lon": -77.03219233333333, "bike_id": "8498716c6d23570ab35c78a80098f836", "lat": 38.89661133333333, "fusion_lon": 0.0, "fusion_lat": 0.0, "type": "electric_scooter", "name": "8498716c6d23570ab35c78a80098f836", "is_disabled": 0, "rental_uris": {"ios": "https://dc.lft.to/lastmile_qr_scan", "android": "https://dc.lft.to/lastmile_qr_scan"}, "is_reserved": 0}, {"lon": -76.929977, "bike_id": "a2b22f877f3b036aa00c83f6529798f6", "lat": 38.90185566666667, "fusion_lon": 0.0, "fusion_lat": 0.0, "type": "electric_scooter", "name": "a2b22f877f3b036aa00c83f6529798f6", "is_disabled": 0, "rental_uris": {"ios": "https://dc.lft.to/lastmile_qr_scan", "android": "https://dc.lft.to/lastmile_qr_scan"}, "is_reserved": 0}, {"lon": -77.01421416666666, "bike_id": "2eb4ab45c0bb5f25e8acad241b7f88d7", "lat": 38.92845833333333, "fusion_lon": 0.0, "fusion_lat": 0.0, "type": "electric_scooter", "name": "2eb4ab45c0bb5f25e8acad241b7f88d7", "is_disabled": 0, "rental_uris": {"ios": "https://dc.lft.to/lastmile_qr_scan", "android": "https://dc.lft.to/lastmile_qr_scan"}, "is_reserved": 0}, {"lon": -77.04026183333333, "bike_id": "eabc5f0d1d639dd39b46659782f68542", "lat": 38.9110625, "fusion_lon": 0.0, "fusion_lat": 0.0, "type": "electric_scooter", "name": "eabc5f0d1d639dd39b46659782f68542", "is_disabled": 0, "rental_uris": {"ios": "https://dc.lft.to/lastmile_qr_scan", "android": "https://dc.lft.to/lastmile_qr_scan"}, "is_reserved": 0}, {"lon": -77.027152, "bike_id": "33fafa1cfe617cf7473683b88caeb255", "lat": 38.92589616666667, "fusion_lon": 0.0, "fusion_lat": 0.0, "type": "electric_scooter", "name": "33fafa1cfe617cf7473683b88caeb255", "is_disabled": 0, "rental_uris": {"ios": "https://dc.lft.to/lastmile_qr_scan", "android": "https://dc.lft.to/lastmile_qr_scan"}, "is_reserved": 0}, {"lon": -77.02004416666666, "bike_id": "8ef37c41d98110f38302cffcdcfc5b45", "lat": 38.900924333333336, "fusion_lon": 0.0, "fusion_lat": 0.0, "type": "electric_scooter", "name": "8ef37c41d98110f38302cffcdcfc5b45", "is_disabled": 0, "rental_uris": {"ios": "https://dc.lft.to/lastmile_qr_scan", "android": "https://dc.lft.to/lastmile_qr_scan"}, "is_reserved": 0}, {"lon": -77.04681283333333, "bike_id": "ab5b617037da18a7e474624f1297f449", "lat": 38.89742916666667, "fusion_lon": 0.0, "fusion_lat": 0.0, "type": "electric_scooter", "name": "ab5b617037da18a7e474624f1297f449", "is_disabled": 0, "rental_uris": {"ios": "https://dc.lft.to/lastmile_qr_scan", "android": "https://dc.lft.to/lastmile_qr_scan"}, "is_reserved": 0}, {"lon": -77.07270033333333, "bike_id": "a74e0a2b2e4dc67934a00fce7ae74a26", "lat": 38.914328166666664, "fusion_lon": 0.0, "fusion_lat": 0.0, "type": "electric_scooter", "name": "a74e0a2b2e4dc67934a00fce7ae74a26", "is_disabled": 0, "rental_uris": {"ios": "https://dc.lft.to/lastmile_qr_scan", "android": "https://dc.lft.to/lastmile_qr_scan"}, "is_reserved": 0}, {"lon": -77.0252555, "bike_id": "138722e0daf4d234fffe072f89d7a930", "lat": 38.928957833333335, "fusion_lon": 0.0, "fusion_lat": 0.0, "type": "electric_scooter", "name": "138722e0daf4d234fffe072f89d7a930", "is_disabled": 0, "rental_uris": {"ios": "https://dc.lft.to/lastmile_qr_scan", "android": "https://dc.lft.to/lastmile_qr_scan"}, "is_reserved": 0}, {"lon": -77.0376625, "bike_id": "bc8d0dc785c649ddc201666d4a0da964", "lat": 38.907771333333336, "fusion_lon": 0.0, "fusion_lat": 0.0, "type": "electric_scooter", "name": "bc8d0dc785c649ddc201666d4a0da964", "is_disabled": 0, "rental_uris": {"ios": "https://dc.lft.to/lastmile_qr_scan", "android": "https://dc.lft.to/lastmile_qr_scan"}, "is_reserved": 0}, {"lon": -76.98507733333334, "bike_id": "c5278a97f61a40f72bf01b2fbffae566", "lat": 38.88082816666667, "fusion_lon": 0.0, "fusion_lat": 0.0, "type": "electric_scooter", "name": "c5278a97f61a40f72bf01b2fbffae566", "is_disabled": 0, "rental_uris": {"ios": "https://dc.lft.to/lastmile_qr_scan", "android": "https://dc.lft.to/lastmile_qr_scan"}, "is_reserved": 0}, {"lon": -77.02869983333333, "bike_id": "f6a46d02dabac22d0f953acdef5ad81c", "lat": 38.916964166666666, "fusion_lon": 0.0, "fusion_lat": 0.0, "type": "electric_scooter", "name": "f6a46d02dabac22d0f953acdef5ad81c", "is_disabled": 0, "rental_uris": {"ios": "https://dc.lft.to/lastmile_qr_scan", "android": "https://dc.lft.to/lastmile_qr_scan"}, "is_reserved": 0}, {"lon": -77.02847616666666, "bike_id": "3217916be6e112bef14786580c64044e", "lat": 38.93414633333333, "fusion_lon": 0.0, "fusion_lat": 0.0, "type": "electric_scooter", "name": "3217916be6e112bef14786580c64044e", "is_disabled": 0, "rental_uris": {"ios": "https://dc.lft.to/lastmile_qr_scan", "android": "https://dc.lft.to/lastmile_qr_scan"}, "is_reserved": 0}, {"lon": -77.02973, "bike_id": "c7850989836c4fb87368df0517d45438", "lat": 38.914576, "fusion_lon": 0.0, "fusion_lat": 0.0, "type": "electric_scooter", "name": "c7850989836c4fb87368df0517d45438", "is_disabled": 0, "rental_uris": {"ios": "https://dc.lft.to/lastmile_qr_scan", "android": "https://dc.lft.to/lastmile_qr_scan"}, "is_reserved": 0}, {"lon": -77.01343133333333, "bike_id": "013dcca42d75d7e8306a7cd07cf1c5e4", "lat": 38.87814483333333, "fusion_lon": 0.0, "fusion_lat": 0.0, "type": "electric_scooter", "name": "013dcca42d75d7e8306a7cd07cf1c5e4", "is_disabled": 0, "rental_uris": {"ios": "https://dc.lft.to/lastmile_qr_scan", "android": "https://dc.lft.to/lastmile_qr_scan"}, "is_reserved": 0}, {"lon": -77.0228745, "bike_id": "8312f1367cedcbf14933dabcb9499816", "lat": 38.907868666666666, "fusion_lon": 0.0, "fusion_lat": 0.0, "type": "electric_scooter", "name": "8312f1367cedcbf14933dabcb9499816", "is_disabled": 0, "rental_uris": {"ios": "https://dc.lft.to/lastmile_qr_scan", "android": "https://dc.lft.to/lastmile_qr_scan"}, "is_reserved": 0}, {"lon": -77.02080083333334, "bike_id": "a17abb9618dd45f04e493c8852ef63a9", "lat": 38.88181566666667, "fusion_lon": 0.0, "fusion_lat": 0.0, "type": "electric_scooter", "name": "a17abb9618dd45f04e493c8852ef63a9", "is_disabled": 0, "rental_uris": {"ios": "https://dc.lft.to/lastmile_qr_scan", "android": "https://dc.lft.to/lastmile_qr_scan"}, "is_reserved": 0}, {"lon": -77.00199983333333, "bike_id": "c35b7cd7f9ac366d2d91054c32454a4b", "lat": 38.902401, "fusion_lon": 0.0, "fusion_lat": 0.0, "type": "electric_scooter", "name": "c35b7cd7f9ac366d2d91054c32454a4b", "is_disabled": 0, "rental_uris": {"ios": "https://dc.lft.to/lastmile_qr_scan", "android": "https://dc.lft.to/lastmile_qr_scan"}, "is_reserved": 0}, {"lon": -77.0209755, "bike_id": "10498f44910998606e00d9be414a4688", "lat": 38.91486883333334, "fusion_lon": 0.0, "fusion_lat": 0.0, "type": "electric_scooter", "name": "10498f44910998606e00d9be414a4688", "is_disabled": 0, "rental_uris": {"ios": "https://dc.lft.to/lastmile_qr_scan", "android": "https://dc.lft.to/lastmile_qr_scan"}, "is_reserved": 0}, {"lon": -77.0271545, "bike_id": "4e8de0bb8181f7e388faf39a1c546ad5", "lat": 38.909516333333336, "fusion_lon": 0.0, "fusion_lat": 0.0, "type": "electric_scooter", "name": "4e8de0bb8181f7e388faf39a1c546ad5", "is_disabled": 0, "rental_uris": {"ios": "https://dc.lft.to/lastmile_qr_scan", "android": "https://dc.lft.to/lastmile_qr_scan"}, "is_reserved": 0}, {"lon": -76.99774766666667, "bike_id": "bfffadc542a60ab4c31effe3a6f5f686", "lat": 38.961539333333334, "fusion_lon": 0.0, "fusion_lat": 0.0, "type": "electric_bike", "name": "bfffadc542a60ab4c31effe3a6f5f686", "is_disabled": 0, "rental_uris": {"ios": "https://dc.lft.to/lastmile_qr_scan", "android": "https://dc.lft.to/lastmile_qr_scan"}, "is_reserved": 0}, {"lon": -77.03335816666667, "bike_id": "e076d8d92bf2fb1a49add032219a9a11", "lat": 38.93897583333333, "fusion_lon": 0.0, "fusion_lat": 0.0, "type": "electric_scooter", "name": "e076d8d92bf2fb1a49add032219a9a11", "is_disabled": 0, "rental_uris": {"ios": "https://dc.lft.to/lastmile_qr_scan", "android": "https://dc.lft.to/lastmile_qr_scan"}, "is_reserved": 0}, {"lon": -77.03262583333333, "bike_id": "199e7529432923b3776594515e88ddd2", "lat": 38.9389815, "fusion_lon": 0.0, "fusion_lat": 0.0, "type": "electric_scooter", "name": "199e7529432923b3776594515e88ddd2", "is_disabled": 0, "rental_uris": {"ios": "https://dc.lft.to/lastmile_qr_scan", "android": "https://dc.lft.to/lastmile_qr_scan"}, "is_reserved": 0}, {"lon": -77.041333, "bike_id": "ae25e32ec0b8dc764326c8d924c810db", "lat": 38.921273666666664, "fusion_lon": 0.0, "fusion_lat": 0.0, "type": "electric_scooter", "name": "ae25e32ec0b8dc764326c8d924c810db", "is_disabled": 0, "rental_uris": {"ios": "https://dc.lft.to/lastmile_qr_scan", "android": "https://dc.lft.to/lastmile_qr_scan"}, "is_reserved": 0}, {"lon": -77.03256583333334, "bike_id": "4583f3d2419b089eb5fc4261576dee38", "lat": 38.909646, "fusion_lon": 0.0, "fusion_lat": 0.0, "type": "electric_scooter", "name": "4583f3d2419b089eb5fc4261576dee38", "is_disabled": 0, "rental_uris": {"ios": "https://dc.lft.to/lastmile_qr_scan", "android": "https://dc.lft.to/lastmile_qr_scan"}, "is_reserved": 0}, {"lon": -77.03297416666666, "bike_id": "c2970f493b74c7c110a8f5749d18e04f", "lat": 38.90961433333333, "fusion_lon": 0.0, "fusion_lat": 0.0, "type": "electric_scooter", "name": "c2970f493b74c7c110a8f5749d18e04f", "is_disabled": 0, "rental_uris": {"ios": "https://dc.lft.to/lastmile_qr_scan", "android": "https://dc.lft.to/lastmile_qr_scan"}, "is_reserved": 0}, {"lon": -77.0339615, "bike_id": "89638d5549b0327e274ae7485da3c9f3", "lat": 38.905492, "fusion_lon": 0.0, "fusion_lat": 0.0, "type": "electric_scooter", "name": "89638d5549b0327e274ae7485da3c9f3", "is_disabled": 0, "rental_uris": {"ios": "https://dc.lft.to/lastmile_qr_scan", "android": "https://dc.lft.to/lastmile_qr_scan"}, "is_reserved": 0}, {"lon": -77.0435705, "bike_id": "879dcd6a21151c47ca19d190e772dcd0", "lat": 38.910552333333335, "fusion_lon": 0.0, "fusion_lat": 0.0, "type": "electric_scooter", "name": "879dcd6a21151c47ca19d190e772dcd0", "is_disabled": 0, "rental_uris": {"ios": "https://dc.lft.to/lastmile_qr_scan", "android": "https://dc.lft.to/lastmile_qr_scan"}, "is_reserved": 0}, {"lon": -77.03516966666666, "bike_id": "dfe05049a6315ff4e5a96226d0de49b9", "lat": 38.915987, "fusion_lon": 0.0, "fusion_lat": 0.0, "type": "electric_scooter", "name": "dfe05049a6315ff4e5a96226d0de49b9", "is_disabled": 0, "rental_uris": {"ios": "https://dc.lft.to/lastmile_qr_scan", "android": "https://dc.lft.to/lastmile_qr_scan"}, "is_reserved": 0}, {"lon": -77.03848966666666, "bike_id": "375b271f9bc512e52e28a8509a7216ce", "lat": 38.916906, "fusion_lon": 0.0, "fusion_lat": 0.0, "type": "electric_scooter", "name": "375b271f9bc512e52e28a8509a7216ce", "is_disabled": 0, "rental_uris": {"ios": "https://dc.lft.to/lastmile_qr_scan", "android": "https://dc.lft.to/lastmile_qr_scan"}, "is_reserved": 0}, {"lon": -77.01959366666667, "bike_id": "b9bd11cebe7008ac59acf3afac96e9f7", "lat": 38.88389866666667, "fusion_lon": 0.0, "fusion_lat": 0.0, "type": "electric_scooter", "name": "b9bd11cebe7008ac59acf3afac96e9f7", "is_disabled": 0, "rental_uris": {"ios": "https://dc.lft.to/lastmile_qr_scan", "android": "https://dc.lft.to/lastmile_qr_scan"}, "is_reserved": 0}, {"lon": -77.025586, "bike_id": "91b68e5f09f6d4551b31d7251fc16fd5", "lat": 38.91816933333333, "fusion_lon": 0.0, "fusion_lat": 0.0, "type": "electric_scooter", "name": "91b68e5f09f6d4551b31d7251fc16fd5", "is_disabled": 0, "rental_uris": {"ios": "https://dc.lft.to/lastmile_qr_scan", "android": "https://dc.lft.to/lastmile_qr_scan"}, "is_reserved": 0}, {"lon": -77.023713, "bike_id": "c3df3fd549dd1a26c10da31397c8f1a4", "lat": 38.91785216666667, "fusion_lon": 0.0, "fusion_lat": 0.0, "type": "electric_scooter", "name": "c3df3fd549dd1a26c10da31397c8f1a4", "is_disabled": 0, "rental_uris": {"ios": "https://dc.lft.to/lastmile_qr_scan", "android": "https://dc.lft.to/lastmile_qr_scan"}, "is_reserved": 0}, {"lon": -77.0278855, "bike_id": "19b34a03093c21048454c400413172fd", "lat": 38.92022466666667, "fusion_lon": 0.0, "fusion_lat": 0.0, "type": "electric_scooter", "name": "19b34a03093c21048454c400413172fd", "is_disabled": 0, "rental_uris": {"ios": "https://dc.lft.to/lastmile_qr_scan", "android": "https://dc.lft.to/lastmile_qr_scan"}, "is_reserved": 0}, {"lon": -77.04540383333334, "bike_id": "fede2c8f4ef6480a46646a53d4a4741b", "lat": 38.92054366666667, "fusion_lon": 0.0, "fusion_lat": 0.0, "type": "electric_scooter", "name": "fede2c8f4ef6480a46646a53d4a4741b", "is_disabled": 0, "rental_uris": {"ios": "https://dc.lft.to/lastmile_qr_scan", "android": "https://dc.lft.to/lastmile_qr_scan"}, "is_reserved": 0}, {"lon": -77.02732533333334, "bike_id": "b5e5647bec50cde3cc416b67b3653d53", "lat": 38.932085, "fusion_lon": 0.0, "fusion_lat": 0.0, "type": "electric_scooter", "name": "b5e5647bec50cde3cc416b67b3653d53", "is_disabled": 0, "rental_uris": {"ios": "https://dc.lft.to/lastmile_qr_scan", "android": "https://dc.lft.to/lastmile_qr_scan"}, "is_reserved": 0}, {"lon": -77.02077816666667, "bike_id": "fd939af6af45e0d32d405a885ec77cf6", "lat": 38.93117633333333, "fusion_lon": 0.0, "fusion_lat": 0.0, "type": "electric_scooter", "name": "fd939af6af45e0d32d405a885ec77cf6", "is_disabled": 0, "rental_uris": {"ios": "https://dc.lft.to/lastmile_qr_scan", "android": "https://dc.lft.to/lastmile_qr_scan"}, "is_reserved": 0}, {"lon": -77.03333483333333, "bike_id": "ca5b4ffb861c9f4f3b3f25650370a69b", "lat": 38.909732, "fusion_lon": 0.0, "fusion_lat": 0.0, "type": "electric_scooter", "name": "ca5b4ffb861c9f4f3b3f25650370a69b", "is_disabled": 0, "rental_uris": {"ios": "https://dc.lft.to/lastmile_qr_scan", "android": "https://dc.lft.to/lastmile_qr_scan"}, "is_reserved": 0}, {"lon": -76.98036, "bike_id": "3b6e9d98ed98dad05281127c05f4efa2", "lat": 38.88967566666667, "fusion_lon": 0.0, "fusion_lat": 0.0, "type": "electric_scooter", "name": "3b6e9d98ed98dad05281127c05f4efa2", "is_disabled": 0, "rental_uris": {"ios": "https://dc.lft.to/lastmile_qr_scan", "android": "https://dc.lft.to/lastmile_qr_scan"}, "is_reserved": 0}, {"lon": -76.9834015, "bike_id": "f9be6815c91fe48eb8a2fc4da99908fc", "lat": 38.866395833333335, "fusion_lon": 0.0, "fusion_lat": 0.0, "type": "electric_scooter", "name": "f9be6815c91fe48eb8a2fc4da99908fc", "is_disabled": 0, "rental_uris": {"ios": "https://dc.lft.to/lastmile_qr_scan", "android": "https://dc.lft.to/lastmile_qr_scan"}, "is_reserved": 0}, {"lon": -76.93187566666667, "bike_id": "f35baf9412a5466621bffa4a1b750568", "lat": 38.8987675, "fusion_lon": 0.0, "fusion_lat": 0.0, "type": "electric_scooter", "name": "f35baf9412a5466621bffa4a1b750568", "is_disabled": 0, "rental_uris": {"ios": "https://dc.lft.to/lastmile_qr_scan", "android": "https://dc.lft.to/lastmile_qr_scan"}, "is_reserved": 0}, {"lon": -77.077514, "bike_id": "3d46d60a8c0361845f02559a2c92e4f9", "lat": 38.8419175, "fusion_lon": 0.0, "fusion_lat": 0.0, "type": "electric_bike", "name": "3d46d60a8c0361845f02559a2c92e4f9", "is_disabled": 0, "rental_uris": {"ios": "https://dc.lft.to/lastmile_qr_scan", "android": "https://dc.lft.to/lastmile_qr_scan"}, "is_reserved": 0}, {"lon": -77.0328355, "bike_id": "62e97185c7259ddc993a2c2645ac5f06", "lat": 38.90706816666667, "fusion_lon": 0.0, "fusion_lat": 0.0, "type": "electric_scooter", "name": "62e97185c7259ddc993a2c2645ac5f06", "is_disabled": 0, "rental_uris": {"ios": "https://dc.lft.to/lastmile_qr_scan", "android": "https://dc.lft.to/lastmile_qr_scan"}, "is_reserved": 0}, {"lon": -77.080017, "bike_id": "4fcc73f505192f61529d5b40107b4958", "lat": 38.964889166666666, "fusion_lon": 0.0, "fusion_lat": 0.0, "type": "electric_scooter", "name": "4fcc73f505192f61529d5b40107b4958", "is_disabled": 0, "rental_uris": {"ios": "https://dc.lft.to/lastmile_qr_scan", "android": "https://dc.lft.to/lastmile_qr_scan"}, "is_reserved": 0}, {"lon": -77.00374766666667, "bike_id": "67dbd56aeff5d8b0e675e821876b0bdf", "lat": 38.89729366666667, "fusion_lon": 0.0, "fusion_lat": 0.0, "type": "electric_scooter", "name": "67dbd56aeff5d8b0e675e821876b0bdf", "is_disabled": 0, "rental_uris": {"ios": "https://dc.lft.to/lastmile_qr_scan", "android": "https://dc.lft.to/lastmile_qr_scan"}, "is_reserved": 0}, {"lon": -77.01493916666666, "bike_id": "a264e22f7e3bd2c6373370ccb38fb3d7", "lat": 38.91754916666667, "fusion_lon": 0.0, "fusion_lat": 0.0, "type": "electric_scooter", "name": "a264e22f7e3bd2c6373370ccb38fb3d7", "is_disabled": 0, "rental_uris": {"ios": "https://dc.lft.to/lastmile_qr_scan", "android": "https://dc.lft.to/lastmile_qr_scan"}, "is_reserved": 0}, {"lon": -76.99014166666667, "bike_id": "9f6e3b2cd36b41bfa369f08306143ab6", "lat": 38.88268766666667, "fusion_lon": 0.0, "fusion_lat": 0.0, "type": "electric_scooter", "name": "9f6e3b2cd36b41bfa369f08306143ab6", "is_disabled": 0, "rental_uris": {"ios": "https://dc.lft.to/lastmile_qr_scan", "android": "https://dc.lft.to/lastmile_qr_scan"}, "is_reserved": 0}, {"lon": -77.07902116666666, "bike_id": "282254d7c9feca37f98a010fc65299c0", "lat": 38.8393455, "fusion_lon": 0.0, "fusion_lat": 0.0, "type": "electric_bike", "name": "282254d7c9feca37f98a010fc65299c0", "is_disabled": 0, "rental_uris": {"ios": "https://dc.lft.to/lastmile_qr_scan", "android": "https://dc.lft.to/lastmile_qr_scan"}, "is_reserved": 0}, {"lon": -76.92204383333333, "bike_id": "0c5fc8e0d4be0070c8a789fdea2c89bc", "lat": 38.89498016666667, "fusion_lon": 0.0, "fusion_lat": 0.0, "type": "electric_bike", "name": "0c5fc8e0d4be0070c8a789fdea2c89bc", "is_disabled": 0, "rental_uris": {"ios": "https://dc.lft.to/lastmile_qr_scan", "android": "https://dc.lft.to/lastmile_qr_scan"}, "is_reserved": 0}, {"lon": -77.032448, "bike_id": "b62868eb168463201a628153ea57ea9f", "lat": 38.905472833333334, "fusion_lon": 0.0, "fusion_lat": 0.0, "type": "electric_scooter", "name": "b62868eb168463201a628153ea57ea9f", "is_disabled": 0, "rental_uris": {"ios": "https://dc.lft.to/lastmile_qr_scan", "android": "https://dc.lft.to/lastmile_qr_scan"}, "is_reserved": 0}, {"lon": -76.972424, "bike_id": "c596f6b1aa30257e0053f0f76b7b032c", "lat": 38.90343383333333, "fusion_lon": 0.0, "fusion_lat": 0.0, "type": "electric_scooter", "name": "c596f6b1aa30257e0053f0f76b7b032c", "is_disabled": 0, "rental_uris": {"ios": "https://dc.lft.to/lastmile_qr_scan", "android": "https://dc.lft.to/lastmile_qr_scan"}, "is_reserved": 0}, {"lon": -76.99070383333333, "bike_id": "b7d426b45762e87d9bc4f8b23fd7e0d0", "lat": 38.8981925, "fusion_lon": 0.0, "fusion_lat": 0.0, "type": "electric_bike", "name": "b7d426b45762e87d9bc4f8b23fd7e0d0", "is_disabled": 0, "rental_uris": {"ios": "https://dc.lft.to/lastmile_qr_scan", "android": "https://dc.lft.to/lastmile_qr_scan"}, "is_reserved": 0}, {"lon": -77.01705366666667, "bike_id": "e75428a8ac07e0f4a12981df47eb8438", "lat": 38.904474666666665, "fusion_lon": 0.0, "fusion_lat": 0.0, "type": "electric_scooter", "name": "e75428a8ac07e0f4a12981df47eb8438", "is_disabled": 0, "rental_uris": {"ios": "https://dc.lft.to/lastmile_qr_scan", "android": "https://dc.lft.to/lastmile_qr_scan"}, "is_reserved": 0}, {"lon": -77.04329016666667, "bike_id": "e92bee5e5f2be258c342aee2c86c8b3e", "lat": 38.90797883333333, "fusion_lon": 0.0, "fusion_lat": 0.0, "type": "electric_scooter", "name": "e92bee5e5f2be258c342aee2c86c8b3e", "is_disabled": 0, "rental_uris": {"ios": "https://dc.lft.to/lastmile_qr_scan", "android": "https://dc.lft.to/lastmile_qr_scan"}, "is_reserved": 0}, {"lon": -77.01835516666667, "bike_id": "ceadf8e481e9f711bab88d1df257b2ed", "lat": 38.90932, "fusion_lon": 0.0, "fusion_lat": 0.0, "type": "electric_scooter", "name": "ceadf8e481e9f711bab88d1df257b2ed", "is_disabled": 0, "rental_uris": {"ios": "https://dc.lft.to/lastmile_qr_scan", "android": "https://dc.lft.to/lastmile_qr_scan"}, "is_reserved": 0}, {"lon": -77.00745166666667, "bike_id": "2a65cb4e53bb061979d08a5d3a03ac05", "lat": 38.90363633333333, "fusion_lon": 0.0, "fusion_lat": 0.0, "type": "electric_bike", "name": "2a65cb4e53bb061979d08a5d3a03ac05", "is_disabled": 0, "rental_uris": {"ios": "https://dc.lft.to/lastmile_qr_scan", "android": "https://dc.lft.to/lastmile_qr_scan"}, "is_reserved": 0}, {"lon": -77.00657983333333, "bike_id": "45933376f2cde4af2ee25bc356b894e7", "lat": 38.900108333333336, "fusion_lon": 0.0, "fusion_lat": 0.0, "type": "electric_scooter", "name": "45933376f2cde4af2ee25bc356b894e7", "is_disabled": 0, "rental_uris": {"ios": "https://dc.lft.to/lastmile_qr_scan", "android": "https://dc.lft.to/lastmile_qr_scan"}, "is_reserved": 0}, {"lon": -77.02416066666666, "bike_id": "b7eb4cfac5f2cd2df1ac1e135f4be048", "lat": 38.91707, "fusion_lon": 0.0, "fusion_lat": 0.0, "type": "electric_scooter", "name": "b7eb4cfac5f2cd2df1ac1e135f4be048", "is_disabled": 0, "rental_uris": {"ios": "https://dc.lft.to/lastmile_qr_scan", "android": "https://dc.lft.to/lastmile_qr_scan"}, "is_reserved": 0}, {"lon": -77.0325205, "bike_id": "744f5539fce2bf01088007f5826a5de1", "lat": 38.9310935, "fusion_lon": 0.0, "fusion_lat": 0.0, "type": "electric_scooter", "name": "744f5539fce2bf01088007f5826a5de1", "is_disabled": 0, "rental_uris": {"ios": "https://dc.lft.to/lastmile_qr_scan", "android": "https://dc.lft.to/lastmile_qr_scan"}, "is_reserved": 0}, {"lon": -77.01987416666667, "bike_id": "9535cf0f369d4706900f361a43368eeb", "lat": 38.88611483333333, "fusion_lon": 0.0, "fusion_lat": 0.0, "type": "electric_scooter", "name": "9535cf0f369d4706900f361a43368eeb", "is_disabled": 0, "rental_uris": {"ios": "https://dc.lft.to/lastmile_qr_scan", "android": "https://dc.lft.to/lastmile_qr_scan"}, "is_reserved": 0}, {"lon": -76.9917315, "bike_id": "d18e162d481679d353756bacb8974ed7", "lat": 38.88990366666667, "fusion_lon": 0.0, "fusion_lat": 0.0, "type": "electric_scooter", "name": "d18e162d481679d353756bacb8974ed7", "is_disabled": 0, "rental_uris": {"ios": "https://dc.lft.to/lastmile_qr_scan", "android": "https://dc.lft.to/lastmile_qr_scan"}, "is_reserved": 0}, {"lon": -77.01837066666667, "bike_id": "c1b74f371e7af55269f38ba01bff7da8", "lat": 38.909598333333335, "fusion_lon": 0.0, "fusion_lat": 0.0, "type": "electric_scooter", "name": "c1b74f371e7af55269f38ba01bff7da8", "is_disabled": 0, "rental_uris": {"ios": "https://dc.lft.to/lastmile_qr_scan", "android": "https://dc.lft.to/lastmile_qr_scan"}, "is_reserved": 0}, {"lon": -77.03661, "bike_id": "3a21ee798d9bc8ae73e7f8f7b6a176d5", "lat": 38.936058, "fusion_lon": 0.0, "fusion_lat": 0.0, "type": "electric_scooter", "name": "3a21ee798d9bc8ae73e7f8f7b6a176d5", "is_disabled": 0, "rental_uris": {"ios": "https://dc.lft.to/lastmile_qr_scan", "android": "https://dc.lft.to/lastmile_qr_scan"}, "is_reserved": 0}, {"lon": -77.034429, "bike_id": "8156b28abf6184bf5ac911ba5ceb999d", "lat": 38.914928, "fusion_lon": 0.0, "fusion_lat": 0.0, "type": "electric_scooter", "name": "8156b28abf6184bf5ac911ba5ceb999d", "is_disabled": 0, "rental_uris": {"ios": "https://dc.lft.to/lastmile_qr_scan", "android": "https://dc.lft.to/lastmile_qr_scan"}, "is_reserved": 0}, {"lon": -76.98896266666667, "bike_id": "dd4f29058b441693e30fce240f5797b9", "lat": 38.91345366666667, "fusion_lon": 0.0, "fusion_lat": 0.0, "type": "electric_scooter", "name": "dd4f29058b441693e30fce240f5797b9", "is_disabled": 0, "rental_uris": {"ios": "https://dc.lft.to/lastmile_qr_scan", "android": "https://dc.lft.to/lastmile_qr_scan"}, "is_reserved": 0}, {"lon": -77.02508216666666, "bike_id": "c314ae9155dfc001f70db623bbfc3768", "lat": 38.90399633333333, "fusion_lon": 0.0, "fusion_lat": 0.0, "type": "electric_scooter", "name": "c314ae9155dfc001f70db623bbfc3768", "is_disabled": 0, "rental_uris": {"ios": "https://dc.lft.to/lastmile_qr_scan", "android": "https://dc.lft.to/lastmile_qr_scan"}, "is_reserved": 0}, {"lon": -77.020324, "bike_id": "c3df1106da962aad416fcbe2e8aa357a", "lat": 38.90250416666667, "fusion_lon": 0.0, "fusion_lat": 0.0, "type": "electric_scooter", "name": "c3df1106da962aad416fcbe2e8aa357a", "is_disabled": 0, "rental_uris": {"ios": "https://dc.lft.to/lastmile_qr_scan", "android": "https://dc.lft.to/lastmile_qr_scan"}, "is_reserved": 0}, {"lon": -77.00835183333334, "bike_id": "5d3f0cf15b31735e30959561b37a9688", "lat": 38.91623333333333, "fusion_lon": 0.0, "fusion_lat": 0.0, "type": "electric_scooter", "name": "5d3f0cf15b31735e30959561b37a9688", "is_disabled": 0, "rental_uris": {"ios": "https://dc.lft.to/lastmile_qr_scan", "android": "https://dc.lft.to/lastmile_qr_scan"}, "is_reserved": 0}, {"lon": -77.033814, "bike_id": "ae12c2600f51c296a4ccfb8bd210dd20", "lat": 38.9026445, "fusion_lon": 0.0, "fusion_lat": 0.0, "type": "electric_scooter", "name": "ae12c2600f51c296a4ccfb8bd210dd20", "is_disabled": 0, "rental_uris": {"ios": "https://dc.lft.to/lastmile_qr_scan", "android": "https://dc.lft.to/lastmile_qr_scan"}, "is_reserved": 0}, {"lon": -77.0403715, "bike_id": "1f05a634872ce18f54ab0b547980293a", "lat": 38.899966, "fusion_lon": 0.0, "fusion_lat": 0.0, "type": "electric_scooter", "name": "1f05a634872ce18f54ab0b547980293a", "is_disabled": 0, "rental_uris": {"ios": "https://dc.lft.to/lastmile_qr_scan", "android": "https://dc.lft.to/lastmile_qr_scan"}, "is_reserved": 0}, {"lon": -77.01351116666666, "bike_id": "98e2985fb12190e830fa667c3b7293f8", "lat": 38.912757666666664, "fusion_lon": 0.0, "fusion_lat": 0.0, "type": "electric_scooter", "name": "98e2985fb12190e830fa667c3b7293f8", "is_disabled": 0, "rental_uris": {"ios": "https://dc.lft.to/lastmile_qr_scan", "android": "https://dc.lft.to/lastmile_qr_scan"}, "is_reserved": 0}, {"lon": -77.04257616666666, "bike_id": "e327c65b8e91a98a6078743b2a301adb", "lat": 38.900146166666666, "fusion_lon": 0.0, "fusion_lat": 0.0, "type": "electric_scooter", "name": "e327c65b8e91a98a6078743b2a301adb", "is_disabled": 0, "rental_uris": {"ios": "https://dc.lft.to/lastmile_qr_scan", "android": "https://dc.lft.to/lastmile_qr_scan"}, "is_reserved": 0}, {"lon": -77.033443, "bike_id": "e035174ae3ace3e1dbe0bbbcba23ee8d", "lat": 38.91705483333333, "fusion_lon": 0.0, "fusion_lat": 0.0, "type": "electric_scooter", "name": "e035174ae3ace3e1dbe0bbbcba23ee8d", "is_disabled": 0, "rental_uris": {"ios": "https://dc.lft.to/lastmile_qr_scan", "android": "https://dc.lft.to/lastmile_qr_scan"}, "is_reserved": 0}, {"lon": -77.03827033333333, "bike_id": "19fc17dedccac559ffe3d44a671b17b1", "lat": 38.90671116666667, "fusion_lon": 0.0, "fusion_lat": 0.0, "type": "electric_scooter", "name": "19fc17dedccac559ffe3d44a671b17b1", "is_disabled": 0, "rental_uris": {"ios": "https://dc.lft.to/lastmile_qr_scan", "android": "https://dc.lft.to/lastmile_qr_scan"}, "is_reserved": 0}, {"lon": -77.025143, "bike_id": "fc1234164292fe0d74884dc555cfe186", "lat": 38.920814, "fusion_lon": 0.0, "fusion_lat": 0.0, "type": "electric_scooter", "name": "fc1234164292fe0d74884dc555cfe186", "is_disabled": 0, "rental_uris": {"ios": "https://dc.lft.to/lastmile_qr_scan", "android": "https://dc.lft.to/lastmile_qr_scan"}, "is_reserved": 0}, {"lon": -77.03447783333333, "bike_id": "10c342ff6d94bde8bf4fcff63d44550b", "lat": 38.905755666666664, "fusion_lon": 0.0, "fusion_lat": 0.0, "type": "electric_scooter", "name": "10c342ff6d94bde8bf4fcff63d44550b", "is_disabled": 0, "rental_uris": {"ios": "https://dc.lft.to/lastmile_qr_scan", "android": "https://dc.lft.to/lastmile_qr_scan"}, "is_reserved": 0}, {"lon": -77.00073216666667, "bike_id": "92ca02621f1fe7136a721e8c17a123d1", "lat": 38.873675166666665, "fusion_lon": 0.0, "fusion_lat": 0.0, "type": "electric_scooter", "name": "92ca02621f1fe7136a721e8c17a123d1", "is_disabled": 0, "rental_uris": {"ios": "https://dc.lft.to/lastmile_qr_scan", "android": "https://dc.lft.to/lastmile_qr_scan"}, "is_reserved": 0}, {"lon": -77.02626583333333, "bike_id": "a8fa619bd2ca9b31e6ef730050f06b24", "lat": 38.899544666666664, "fusion_lon": 0.0, "fusion_lat": 0.0, "type": "electric_scooter", "name": "a8fa619bd2ca9b31e6ef730050f06b24", "is_disabled": 0, "rental_uris": {"ios": "https://dc.lft.to/lastmile_qr_scan", "android": "https://dc.lft.to/lastmile_qr_scan"}, "is_reserved": 0}, {"lon": -76.98944683333333, "bike_id": "3c9fb84a898490fd28c92f0912351710", "lat": 38.86694683333333, "fusion_lon": 0.0, "fusion_lat": 0.0, "type": "electric_bike", "name": "3c9fb84a898490fd28c92f0912351710", "is_disabled": 0, "rental_uris": {"ios": "https://dc.lft.to/lastmile_qr_scan", "android": "https://dc.lft.to/lastmile_qr_scan"}, "is_reserved": 0}, {"lon": -76.9858765, "bike_id": "d9423dcfa08d15bed476049937a11c4e", "lat": 38.86684283333334, "fusion_lon": 0.0, "fusion_lat": 0.0, "type": "electric_scooter", "name": "d9423dcfa08d15bed476049937a11c4e", "is_disabled": 0, "rental_uris": {"ios": "https://dc.lft.to/lastmile_qr_scan", "android": "https://dc.lft.to/lastmile_qr_scan"}, "is_reserved": 0}, {"lon": -77.05440083333333, "bike_id": "7a5c5f290a3237730903a5762c39b2c3", "lat": 38.903711666666666, "fusion_lon": 0.0, "fusion_lat": 0.0, "type": "electric_scooter", "name": "7a5c5f290a3237730903a5762c39b2c3", "is_disabled": 0, "rental_uris": {"ios": "https://dc.lft.to/lastmile_qr_scan", "android": "https://dc.lft.to/lastmile_qr_scan"}, "is_reserved": 0}, {"lon": -76.95185116666667, "bike_id": "b5d263f1c2ab0e99c4628bde09329dad", "lat": 38.9073955, "fusion_lon": 0.0, "fusion_lat": 0.0, "type": "electric_scooter", "name": "b5d263f1c2ab0e99c4628bde09329dad", "is_disabled": 0, "rental_uris": {"ios": "https://dc.lft.to/lastmile_qr_scan", "android": "https://dc.lft.to/lastmile_qr_scan"}, "is_reserved": 0}, {"lon": -77.06222383333333, "bike_id": "c346a5a629f488b56bbfc79c7f9eeba9", "lat": 38.863051, "fusion_lon": 0.0, "fusion_lat": 0.0, "type": "electric_bike", "name": "c346a5a629f488b56bbfc79c7f9eeba9", "is_disabled": 0, "rental_uris": {"ios": "https://dc.lft.to/lastmile_qr_scan", "android": "https://dc.lft.to/lastmile_qr_scan"}, "is_reserved": 0}, {"lon": -76.98715516666667, "bike_id": "f4a86de5ba63f641c472cee054764d32", "lat": 38.866284, "fusion_lon": 0.0, "fusion_lat": 0.0, "type": "electric_scooter", "name": "f4a86de5ba63f641c472cee054764d32", "is_disabled": 0, "rental_uris": {"ios": "https://dc.lft.to/lastmile_qr_scan", "android": "https://dc.lft.to/lastmile_qr_scan"}, "is_reserved": 0}, {"lon": -76.98200583333333, "bike_id": "025068662494078f2775fe1aea8ee1dc", "lat": 38.89943433333333, "fusion_lon": 0.0, "fusion_lat": 0.0, "type": "electric_scooter", "name": "025068662494078f2775fe1aea8ee1dc", "is_disabled": 0, "rental_uris": {"ios": "https://dc.lft.to/lastmile_qr_scan", "android": "https://dc.lft.to/lastmile_qr_scan"}, "is_reserved": 0}, {"lon": -76.98261333333333, "bike_id": "863a14045285664a9aae55138c2bd6d0", "lat": 38.9085765, "fusion_lon": 0.0, "fusion_lat": 0.0, "type": "electric_scooter", "name": "863a14045285664a9aae55138c2bd6d0", "is_disabled": 0, "rental_uris": {"ios": "https://dc.lft.to/lastmile_qr_scan", "android": "https://dc.lft.to/lastmile_qr_scan"}, "is_reserved": 0}, {"lon": -77.0045835, "bike_id": "95771a87df3d33a854b851fef9727a89", "lat": 38.91441316666667, "fusion_lon": 0.0, "fusion_lat": 0.0, "type": "electric_scooter", "name": "95771a87df3d33a854b851fef9727a89", "is_disabled": 0, "rental_uris": {"ios": "https://dc.lft.to/lastmile_qr_scan", "android": "https://dc.lft.to/lastmile_qr_scan"}, "is_reserved": 0}, {"lon": -77.03853833333334, "bike_id": "75c44f8c99ee5948f5f8e71b7182dcdb", "lat": 38.911767166666664, "fusion_lon": 0.0, "fusion_lat": 0.0, "type": "electric_scooter", "name": "75c44f8c99ee5948f5f8e71b7182dcdb", "is_disabled": 0, "rental_uris": {"ios": "https://dc.lft.to/lastmile_qr_scan", "android": "https://dc.lft.to/lastmile_qr_scan"}, "is_reserved": 0}, {"lon": -77.02691816666666, "bike_id": "406187351ea2ab0eea1491fac47b5adc", "lat": 38.911716, "fusion_lon": 0.0, "fusion_lat": 0.0, "type": "electric_scooter", "name": "406187351ea2ab0eea1491fac47b5adc", "is_disabled": 0, "rental_uris": {"ios": "https://dc.lft.to/lastmile_qr_scan", "android": "https://dc.lft.to/lastmile_qr_scan"}, "is_reserved": 0}, {"lon": -77.02827066666667, "bike_id": "d23204c274257e6988cb25ad425c60ce", "lat": 38.93141716666667, "fusion_lon": 0.0, "fusion_lat": 0.0, "type": "electric_scooter", "name": "d23204c274257e6988cb25ad425c60ce", "is_disabled": 0, "rental_uris": {"ios": "https://dc.lft.to/lastmile_qr_scan", "android": "https://dc.lft.to/lastmile_qr_scan"}, "is_reserved": 0}, {"lon": -77.02404633333333, "bike_id": "8d223618113bb9eb91c1f59f7187cbb1", "lat": 38.87961516666667, "fusion_lon": 0.0, "fusion_lat": 0.0, "type": "electric_scooter", "name": "8d223618113bb9eb91c1f59f7187cbb1", "is_disabled": 0, "rental_uris": {"ios": "https://dc.lft.to/lastmile_qr_scan", "android": "https://dc.lft.to/lastmile_qr_scan"}, "is_reserved": 0}, {"lon": -77.02155316666666, "bike_id": "9433fb8d5f7309c5ab0dede232828b41", "lat": 38.9260595, "fusion_lon": 0.0, "fusion_lat": 0.0, "type": "electric_scooter", "name": "9433fb8d5f7309c5ab0dede232828b41", "is_disabled": 0, "rental_uris": {"ios": "https://dc.lft.to/lastmile_qr_scan", "android": "https://dc.lft.to/lastmile_qr_scan"}, "is_reserved": 0}, {"lon": -77.04239866666667, "bike_id": "f30e872435098dc8605d702f16fa2cc0", "lat": 38.922416, "fusion_lon": 0.0, "fusion_lat": 0.0, "type": "electric_scooter", "name": "f30e872435098dc8605d702f16fa2cc0", "is_disabled": 0, "rental_uris": {"ios": "https://dc.lft.to/lastmile_qr_scan", "android": "https://dc.lft.to/lastmile_qr_scan"}, "is_reserved": 0}, {"lon": -77.01970816666666, "bike_id": "328a12b77cf72be7c365666edbd320e0", "lat": 38.921802, "fusion_lon": 0.0, "fusion_lat": 0.0, "type": "electric_scooter", "name": "328a12b77cf72be7c365666edbd320e0", "is_disabled": 0, "rental_uris": {"ios": "https://dc.lft.to/lastmile_qr_scan", "android": "https://dc.lft.to/lastmile_qr_scan"}, "is_reserved": 0}, {"lon": -77.058102, "bike_id": "80330ba6c05b4c629c2473ab3f47de32", "lat": 38.935080166666665, "fusion_lon": 0.0, "fusion_lat": 0.0, "type": "electric_scooter", "name": "80330ba6c05b4c629c2473ab3f47de32", "is_disabled": 0, "rental_uris": {"ios": "https://dc.lft.to/lastmile_qr_scan", "android": "https://dc.lft.to/lastmile_qr_scan"}, "is_reserved": 0}, {"lon": -77.0219595, "bike_id": "3d5b4df499572abb5d9c255f726d7d50", "lat": 38.897504166666664, "fusion_lon": 0.0, "fusion_lat": 0.0, "type": "electric_scooter", "name": "3d5b4df499572abb5d9c255f726d7d50", "is_disabled": 0, "rental_uris": {"ios": "https://dc.lft.to/lastmile_qr_scan", "android": "https://dc.lft.to/lastmile_qr_scan"}, "is_reserved": 0}, {"lon": -77.0775965, "bike_id": "ea823263ebe73356e75df1b1c9c22d3b", "lat": 38.925558333333335, "fusion_lon": 0.0, "fusion_lat": 0.0, "type": "electric_scooter", "name": "ea823263ebe73356e75df1b1c9c22d3b", "is_disabled": 0, "rental_uris": {"ios": "https://dc.lft.to/lastmile_qr_scan", "android": "https://dc.lft.to/lastmile_qr_scan"}, "is_reserved": 0}, {"lon": -77.025913, "bike_id": "caa23e63e22f2787308764e1206496f1", "lat": 38.943039, "fusion_lon": 0.0, "fusion_lat": 0.0, "type": "electric_scooter", "name": "caa23e63e22f2787308764e1206496f1", "is_disabled": 0, "rental_uris": {"ios": "https://dc.lft.to/lastmile_qr_scan", "android": "https://dc.lft.to/lastmile_qr_scan"}, "is_reserved": 0}, {"lon": -77.04423266666667, "bike_id": "775b2c42784c472d55cc7fdc770bae2b", "lat": 38.921288, "fusion_lon": 0.0, "fusion_lat": 0.0, "type": "electric_scooter", "name": "775b2c42784c472d55cc7fdc770bae2b", "is_disabled": 0, "rental_uris": {"ios": "https://dc.lft.to/lastmile_qr_scan", "android": "https://dc.lft.to/lastmile_qr_scan"}, "is_reserved": 0}, {"lon": -77.01639716666666, "bike_id": "211d1157daa0bb5f121903a80deb8a7e", "lat": 38.92897883333333, "fusion_lon": 0.0, "fusion_lat": 0.0, "type": "electric_scooter", "name": "211d1157daa0bb5f121903a80deb8a7e", "is_disabled": 0, "rental_uris": {"ios": "https://dc.lft.to/lastmile_qr_scan", "android": "https://dc.lft.to/lastmile_qr_scan"}, "is_reserved": 0}, {"lon": -77.0415815, "bike_id": "128fc0e258c37a3fed0bf8f9721fb93a", "lat": 38.9125285, "fusion_lon": 0.0, "fusion_lat": 0.0, "type": "electric_scooter", "name": "128fc0e258c37a3fed0bf8f9721fb93a", "is_disabled": 0, "rental_uris": {"ios": "https://dc.lft.to/lastmile_qr_scan", "android": "https://dc.lft.to/lastmile_qr_scan"}, "is_reserved": 0}, {"lon": -77.0337115, "bike_id": "882334892592a4049e0da341613b1d31", "lat": 38.90006, "fusion_lon": 0.0, "fusion_lat": 0.0, "type": "electric_scooter", "name": "882334892592a4049e0da341613b1d31", "is_disabled": 0, "rental_uris": {"ios": "https://dc.lft.to/lastmile_qr_scan", "android": "https://dc.lft.to/lastmile_qr_scan"}, "is_reserved": 0}, {"lon": -77.0249645, "bike_id": "16b7995f4d71263469eddf0b19227254", "lat": 38.919136333333334, "fusion_lon": 0.0, "fusion_lat": 0.0, "type": "electric_scooter", "name": "16b7995f4d71263469eddf0b19227254", "is_disabled": 0, "rental_uris": {"ios": "https://dc.lft.to/lastmile_qr_scan", "android": "https://dc.lft.to/lastmile_qr_scan"}, "is_reserved": 0}, {"lon": -77.0216915, "bike_id": "73483a92a1d5049ffe6ddc4418aebc8a", "lat": 38.908527666666664, "fusion_lon": 0.0, "fusion_lat": 0.0, "type": "electric_scooter", "name": "73483a92a1d5049ffe6ddc4418aebc8a", "is_disabled": 0, "rental_uris": {"ios": "https://dc.lft.to/lastmile_qr_scan", "android": "https://dc.lft.to/lastmile_qr_scan"}, "is_reserved": 0}, {"lon": -77.06276616666666, "bike_id": "98e847c6b56b4825062b3fa40dfc6160", "lat": 38.905347166666665, "fusion_lon": 0.0, "fusion_lat": 0.0, "type": "electric_scooter", "name": "98e847c6b56b4825062b3fa40dfc6160", "is_disabled": 0, "rental_uris": {"ios": "https://dc.lft.to/lastmile_qr_scan", "android": "https://dc.lft.to/lastmile_qr_scan"}, "is_reserved": 0}, {"lon": -77.043779, "bike_id": "28830742b1202c2eaa4cee0bf5097f93", "lat": 38.920676666666665, "fusion_lon": 0.0, "fusion_lat": 0.0, "type": "electric_scooter", "name": "28830742b1202c2eaa4cee0bf5097f93", "is_disabled": 0, "rental_uris": {"ios": "https://dc.lft.to/lastmile_qr_scan", "android": "https://dc.lft.to/lastmile_qr_scan"}, "is_reserved": 0}, {"lon": -76.93134083333334, "bike_id": "d786ed671c760c0bd68d73ad0c0002f4", "lat": 38.87850733333333, "fusion_lon": 0.0, "fusion_lat": 0.0, "type": "electric_scooter", "name": "d786ed671c760c0bd68d73ad0c0002f4", "is_disabled": 0, "rental_uris": {"ios": "https://dc.lft.to/lastmile_qr_scan", "android": "https://dc.lft.to/lastmile_qr_scan"}, "is_reserved": 0}, {"lon": -77.101269, "bike_id": "227aec77f98d53adb2c704e5bb17bca1", "lat": 38.8521055, "fusion_lon": 0.0, "fusion_lat": 0.0, "type": "electric_bike", "name": "227aec77f98d53adb2c704e5bb17bca1", "is_disabled": 0, "rental_uris": {"ios": "https://dc.lft.to/lastmile_qr_scan", "android": "https://dc.lft.to/lastmile_qr_scan"}, "is_reserved": 0}, {"lon": -77.04862083333333, "bike_id": "dd93e44d6149a25edc4dde473496561d", "lat": 38.90959616666667, "fusion_lon": 0.0, "fusion_lat": 0.0, "type": "electric_scooter", "name": "dd93e44d6149a25edc4dde473496561d", "is_disabled": 0, "rental_uris": {"ios": "https://dc.lft.to/lastmile_qr_scan", "android": "https://dc.lft.to/lastmile_qr_scan"}, "is_reserved": 0}, {"lon": -77.02966, "bike_id": "bcb2b98becfce1772891086bbb7a0a65", "lat": 38.92489883333333, "fusion_lon": 0.0, "fusion_lat": 0.0, "type": "electric_scooter", "name": "bcb2b98becfce1772891086bbb7a0a65", "is_disabled": 0, "rental_uris": {"ios": "https://dc.lft.to/lastmile_qr_scan", "android": "https://dc.lft.to/lastmile_qr_scan"}, "is_reserved": 0}, {"lon": -77.0868035, "bike_id": "ee22bd18afb7ac8e56375d795aed108b", "lat": 38.87393766666667, "fusion_lon": 0.0, "fusion_lat": 0.0, "type": "electric_bike", "name": "ee22bd18afb7ac8e56375d795aed108b", "is_disabled": 0, "rental_uris": {"ios": "https://dc.lft.to/lastmile_qr_scan", "android": "https://dc.lft.to/lastmile_qr_scan"}, "is_reserved": 0}, {"lon": -76.9575595, "bike_id": "797eecebb6b5af77a935be99bedb551d", "lat": 38.884313166666665, "fusion_lon": 0.0, "fusion_lat": 0.0, "type": "electric_scooter", "name": "797eecebb6b5af77a935be99bedb551d", "is_disabled": 0, "rental_uris": {"ios": "https://dc.lft.to/lastmile_qr_scan", "android": "https://dc.lft.to/lastmile_qr_scan"}, "is_reserved": 0}, {"lon": -77.0283865, "bike_id": "14f06439351364ba71f2a212ef624b5b", "lat": 38.925790166666665, "fusion_lon": 0.0, "fusion_lat": 0.0, "type": "electric_scooter", "name": "14f06439351364ba71f2a212ef624b5b", "is_disabled": 0, "rental_uris": {"ios": "https://dc.lft.to/lastmile_qr_scan", "android": "https://dc.lft.to/lastmile_qr_scan"}, "is_reserved": 0}, {"lon": -77.03912833333334, "bike_id": "38c197abcd06eb455d29cc794f61fa84", "lat": 38.9257395, "fusion_lon": 0.0, "fusion_lat": 0.0, "type": "electric_scooter", "name": "38c197abcd06eb455d29cc794f61fa84", "is_disabled": 0, "rental_uris": {"ios": "https://dc.lft.to/lastmile_qr_scan", "android": "https://dc.lft.to/lastmile_qr_scan"}, "is_reserved": 0}, {"lon": -77.025027, "bike_id": "2f249df1896930c8f27fdace5634c782", "lat": 38.92640183333334, "fusion_lon": 0.0, "fusion_lat": 0.0, "type": "electric_scooter", "name": "2f249df1896930c8f27fdace5634c782", "is_disabled": 0, "rental_uris": {"ios": "https://dc.lft.to/lastmile_qr_scan", "android": "https://dc.lft.to/lastmile_qr_scan"}, "is_reserved": 0}, {"lon": -77.03122216666667, "bike_id": "c8b4bf35ae9696c2e67593b9fab70926", "lat": 38.91488866666667, "fusion_lon": 0.0, "fusion_lat": 0.0, "type": "electric_scooter", "name": "c8b4bf35ae9696c2e67593b9fab70926", "is_disabled": 0, "rental_uris": {"ios": "https://dc.lft.to/lastmile_qr_scan", "android": "https://dc.lft.to/lastmile_qr_scan"}, "is_reserved": 0}, {"lon": -77.02766, "bike_id": "b3885eb9d8a962b4bb5b1a0e47e0bb91", "lat": 38.9346075, "fusion_lon": 0.0, "fusion_lat": 0.0, "type": "electric_scooter", "name": "b3885eb9d8a962b4bb5b1a0e47e0bb91", "is_disabled": 0, "rental_uris": {"ios": "https://dc.lft.to/lastmile_qr_scan", "android": "https://dc.lft.to/lastmile_qr_scan"}, "is_reserved": 0}, {"lon": -77.02510533333333, "bike_id": "23fc68e98e25625893385d44eb02fef0", "lat": 38.930924, "fusion_lon": 0.0, "fusion_lat": 0.0, "type": "electric_scooter", "name": "23fc68e98e25625893385d44eb02fef0", "is_disabled": 0, "rental_uris": {"ios": "https://dc.lft.to/lastmile_qr_scan", "android": "https://dc.lft.to/lastmile_qr_scan"}, "is_reserved": 0}, {"lon": -76.93176616666666, "bike_id": "8c7c31fcf42e6ce6f849e8f27cf9938c", "lat": 38.9037035, "fusion_lon": 0.0, "fusion_lat": 0.0, "type": "electric_scooter", "name": "8c7c31fcf42e6ce6f849e8f27cf9938c", "is_disabled": 0, "rental_uris": {"ios": "https://dc.lft.to/lastmile_qr_scan", "android": "https://dc.lft.to/lastmile_qr_scan"}, "is_reserved": 0}, {"lon": -76.933581, "bike_id": "d871644a61dd9fb1c84bb448874ceb76", "lat": 38.88798116666667, "fusion_lon": 0.0, "fusion_lat": 0.0, "type": "electric_scooter", "name": "d871644a61dd9fb1c84bb448874ceb76", "is_disabled": 0, "rental_uris": {"ios": "https://dc.lft.to/lastmile_qr_scan", "android": "https://dc.lft.to/lastmile_qr_scan"}, "is_reserved": 0}, {"lon": -77.01001816666667, "bike_id": "fb3baf701c107274797868ce40174c24", "lat": 38.91924266666667, "fusion_lon": 0.0, "fusion_lat": 0.0, "type": "electric_scooter", "name": "fb3baf701c107274797868ce40174c24", "is_disabled": 0, "rental_uris": {"ios": "https://dc.lft.to/lastmile_qr_scan", "android": "https://dc.lft.to/lastmile_qr_scan"}, "is_reserved": 0}, {"lon": -77.04806683333334, "bike_id": "041daffa132f6be0a0d550fff09b6dad", "lat": 38.9095255, "fusion_lon": 0.0, "fusion_lat": 0.0, "type": "electric_scooter", "name": "041daffa132f6be0a0d550fff09b6dad", "is_disabled": 0, "rental_uris": {"ios": "https://dc.lft.to/lastmile_qr_scan", "android": "https://dc.lft.to/lastmile_qr_scan"}, "is_reserved": 0}, {"lon": -77.02709066666667, "bike_id": "11a09d0a693d41b99425b825ce33927f", "lat": 38.8977505, "fusion_lon": 0.0, "fusion_lat": 0.0, "type": "electric_scooter", "name": "11a09d0a693d41b99425b825ce33927f", "is_disabled": 0, "rental_uris": {"ios": "https://dc.lft.to/lastmile_qr_scan", "android": "https://dc.lft.to/lastmile_qr_scan"}, "is_reserved": 0}, {"lon": -77.022275, "bike_id": "86c4b709c1005a464e1e559c5f284fde", "lat": 38.905640166666664, "fusion_lon": 0.0, "fusion_lat": 0.0, "type": "electric_scooter", "name": "86c4b709c1005a464e1e559c5f284fde", "is_disabled": 0, "rental_uris": {"ios": "https://dc.lft.to/lastmile_qr_scan", "android": "https://dc.lft.to/lastmile_qr_scan"}, "is_reserved": 0}, {"lon": -77.02574766666666, "bike_id": "d572b005bef05cd3aafe439c9e2e9523", "lat": 38.8807705, "fusion_lon": 0.0, "fusion_lat": 0.0, "type": "electric_scooter", "name": "d572b005bef05cd3aafe439c9e2e9523", "is_disabled": 0, "rental_uris": {"ios": "https://dc.lft.to/lastmile_qr_scan", "android": "https://dc.lft.to/lastmile_qr_scan"}, "is_reserved": 0}, {"lon": -77.02965483333334, "bike_id": "6003dd60bcfc39e9a87c9d984566a044", "lat": 38.91667833333333, "fusion_lon": 0.0, "fusion_lat": 0.0, "type": "electric_scooter", "name": "6003dd60bcfc39e9a87c9d984566a044", "is_disabled": 0, "rental_uris": {"ios": "https://dc.lft.to/lastmile_qr_scan", "android": "https://dc.lft.to/lastmile_qr_scan"}, "is_reserved": 0}, {"lon": -77.03471383333333, "bike_id": "b9497ac1c4286b0a6fa09ad6645b90c1", "lat": 38.917095333333336, "fusion_lon": 0.0, "fusion_lat": 0.0, "type": "electric_scooter", "name": "b9497ac1c4286b0a6fa09ad6645b90c1", "is_disabled": 0, "rental_uris": {"ios": "https://dc.lft.to/lastmile_qr_scan", "android": "https://dc.lft.to/lastmile_qr_scan"}, "is_reserved": 0}, {"lon": -76.982941, "bike_id": "2f705cf7a019a093834047eb1238bc78", "lat": 38.901108, "fusion_lon": 0.0, "fusion_lat": 0.0, "type": "electric_scooter", "name": "2f705cf7a019a093834047eb1238bc78", "is_disabled": 0, "rental_uris": {"ios": "https://dc.lft.to/lastmile_qr_scan", "android": "https://dc.lft.to/lastmile_qr_scan"}, "is_reserved": 0}, {"lon": -77.02114983333334, "bike_id": "e5e195bfb839100ddf363eeade9261b7", "lat": 38.93702783333333, "fusion_lon": 0.0, "fusion_lat": 0.0, "type": "electric_scooter", "name": "e5e195bfb839100ddf363eeade9261b7", "is_disabled": 0, "rental_uris": {"ios": "https://dc.lft.to/lastmile_qr_scan", "android": "https://dc.lft.to/lastmile_qr_scan"}, "is_reserved": 0}, {"lon": -77.024847, "bike_id": "9763485c0e792008d7db52e13acda45b", "lat": 38.905604, "fusion_lon": 0.0, "fusion_lat": 0.0, "type": "electric_scooter", "name": "9763485c0e792008d7db52e13acda45b", "is_disabled": 0, "rental_uris": {"ios": "https://dc.lft.to/lastmile_qr_scan", "android": "https://dc.lft.to/lastmile_qr_scan"}, "is_reserved": 0}, {"lon": -77.009184, "bike_id": "5de104b9aa80cfca38a0455902965a51", "lat": 38.827853166666664, "fusion_lon": 0.0, "fusion_lat": 0.0, "type": "electric_bike", "name": "5de104b9aa80cfca38a0455902965a51", "is_disabled": 0, "rental_uris": {"ios": "https://dc.lft.to/lastmile_qr_scan", "android": "https://dc.lft.to/lastmile_qr_scan"}, "is_reserved": 0},