{"data": {"bikes": [{"bike_id": "e7c9c1674ca231b3e9fa9a0d968fac0e", "is_reserved": 0, "fusion_lon": 0.0, "lat": 38.927855, "is_disabled": 0, "name": "e7c9c1674ca231b3e9fa9a0d968fac0e", "fusion_lat": 0.0, "rental_uris": {"ios": "https://dc.lft.to/lastmile_qr_scan", "android": "https://dc.lft.to/lastmile_qr_scan"}, "lon": -77.03202383333333, "type": "electric_scooter"}, {"bike_id": "abfcca0e9ca2edb60ff20a83fab23124", "is_reserved": 0, "fusion_lon": 0.0, "lat": 38.910553666666665, "is_disabled": 0, "name": "abfcca0e9ca2edb60ff20a83fab23124", "fusion_lat": 0.0, "rental_uris": {"ios": "https://dc.lft.to/lastmile_qr_scan", "android": "https://dc.lft.to/lastmile_qr_scan"}, "lon": -77.05401133333334, "type": "electric_scooter"}, {"bike_id": "bb4ba180d52a570a6d317d6dcd7a15d4", "is_reserved": 0, "fusion_lon": 0.0, "lat": 38.909172, "is_disabled": 0, "name": "bb4ba180d52a570a6d317d6dcd7a15d4", "fusion_lat": 0.0, "rental_uris": {"ios": "https://dc.lft.to/lastmile_qr_scan", "android": "https://dc.lft.to/lastmile_qr_scan"}, "lon": -77.02300216666667, "type": "electric_scooter"}, {"bike_id": "7e0ba96e59df08eba22cee5db6c879b3", "is_reserved": 0, "fusion_lon": 0.0, "lat": 38.902763666666665, "is_disabled": 0, "name": "7e0ba96e59df08eba22cee5db6c879b3", "fusion_lat": 0.0, "rental_uris": {"ios": "https://dc.lft.to/lastmile_qr_scan", "android": "https://dc.lft.to/lastmile_qr_scan"}, "lon": -77.0591925, "type": "electric_scooter"}, {"bike_id": "11a4048e1af0bbda27c080e756c8911f", "is_reserved": 0, "fusion_lon": 0.0, "lat": 38.92895433333333, "is_disabled": 0, "name": "11a4048e1af0bbda27c080e756c8911f", "fusion_lat": 0.0, "rental_uris": {"ios": "https://dc.lft.to/lastmile_qr_scan", "android": "https://dc.lft.to/lastmile_qr_scan"}, "lon": -77.03184466666667, "type": "electric_scooter"}, {"bike_id": "c8e8517b35686b384e3ecd9d38a6132d", "is_reserved": 0, "fusion_lon": 0.0, "lat": 38.892233833333336, "is_disabled": 0, "name": "c8e8517b35686b384e3ecd9d38a6132d", "fusion_lat": 0.0, "rental_uris": {"ios": "https://dc.lft.to/lastmile_qr_scan", "android": "https://dc.lft.to/lastmile_qr_scan"}, "lon": -77.04193116666667, "type": "electric_scooter"}, {"bike_id": "fd46ac7677e1be38432dbd321a599585", "is_reserved": 0, "fusion_lon": 0.0, "lat": 38.910307833333334, "is_disabled": 0, "name": "fd46ac7677e1be38432dbd321a599585", "fusion_lat": 0.0, "rental_uris": {"ios": "https://dc.lft.to/lastmile_qr_scan", "android": "https://dc.lft.to/lastmile_qr_scan"}, "lon": -77.03437233333334, "type": "electric_scooter"}, {"bike_id": "3396471d33feb6678b1d3abe117a1ff2", "is_reserved": 0, "fusion_lon": 0.0, "lat": 38.898438666666664, "is_disabled": 0, "name": "3396471d33feb6678b1d3abe117a1ff2", "fusion_lat": 0.0, "rental_uris": {"ios": "https://dc.lft.to/lastmile_qr_scan", "android": "https://dc.lft.to/lastmile_qr_scan"}, "lon": -77.0332925, "type": "electric_scooter"}, {"bike_id": "8f5952bc39e6ecbbe8b2cf962cc56e73", "is_reserved": 0, "fusion_lon": 0.0, "lat": 38.896221, "is_disabled": 0, "name": "8f5952bc39e6ecbbe8b2cf962cc56e73", "fusion_lat": 0.0, "rental_uris": {"ios": "https://dc.lft.to/lastmile_qr_scan", "android": "https://dc.lft.to/lastmile_qr_scan"}, "lon": -76.9985155, "type": "electric_scooter"}, {"bike_id": "c905aa477fdd56154b331832c2cc8730", "is_reserved": 0, "fusion_lon": 0.0, "lat": 38.93431233333333, "is_disabled": 0, "name": "c905aa477fdd56154b331832c2cc8730", "fusion_lat": 0.0, "rental_uris": {"ios": "https://dc.lft.to/lastmile_qr_scan", "android": "https://dc.lft.to/lastmile_qr_scan"}, "lon": -77.04314383333333, "type": "electric_scooter"}, {"bike_id": "49e1fb7b6272c172450ac40752fff54d", "is_reserved": 0, "fusion_lon": 0.0, "lat": 38.8937045, "is_disabled": 0, "name": "49e1fb7b6272c172450ac40752fff54d", "fusion_lat": 0.0, "rental_uris": {"ios": "https://dc.lft.to/lastmile_qr_scan", "android": "https://dc.lft.to/lastmile_qr_scan"}, "lon": -76.949623, "type": "electric_scooter"}, {"bike_id": "2fcd494c1fcb40bd6efa80640aab011c", "is_reserved": 0, "fusion_lon": 0.0, "lat": 38.918381, "is_disabled": 0, "name": "2fcd494c1fcb40bd6efa80640aab011c", "fusion_lat": 0.0, "rental_uris": {"ios": "https://dc.lft.to/lastmile_qr_scan", "android": "https://dc.lft.to/lastmile_qr_scan"}, "lon": -77.04162766666667, "type": "electric_scooter"}, {"bike_id": "66fa5053c759d1566a7aac99751f36fb", "is_reserved": 0, "fusion_lon": 0.0, "lat": 38.919086166666666, "is_disabled": 0, "name": "66fa5053c759d1566a7aac99751f36fb", "fusion_lat": 0.0, "rental_uris": {"ios": "https://dc.lft.to/lastmile_qr_scan", "android": "https://dc.lft.to/lastmile_qr_scan"}, "lon": -77.01967816666667, "type": "electric_scooter"}, {"bike_id": "911039e3013e46e430f1606d205cb480", "is_reserved": 0, "fusion_lon": 0.0, "lat": 38.89197333333333, "is_disabled": 0, "name": "911039e3013e46e430f1606d205cb480", "fusion_lat": 0.0, "rental_uris": {"ios": "https://dc.lft.to/lastmile_qr_scan", "android": "https://dc.lft.to/lastmile_qr_scan"}, "lon": -77.0298175, "type": "electric_scooter"}, {"bike_id": "26f1a9a83406d29cadf13e2407b35802", "is_reserved": 0, "fusion_lon": 0.0, "lat": 38.8947185, "is_disabled": 0, "name": "26f1a9a83406d29cadf13e2407b35802", "fusion_lat": 0.0, "rental_uris": {"ios": "https://dc.lft.to/lastmile_qr_scan", "android": "https://dc.lft.to/lastmile_qr_scan"}, "lon": -77.02263833333333, "type": "electric_scooter"}, {"bike_id": "8bcd2fc0e785eacd81185fca590c915d", "is_reserved": 0, "fusion_lon": 0.0, "lat": 38.892259833333334, "is_disabled": 0, "name": "8bcd2fc0e785eacd81185fca590c915d", "fusion_lat": 0.0, "rental_uris": {"ios": "https://dc.lft.to/lastmile_qr_scan", "android": "https://dc.lft.to/lastmile_qr_scan"}, "lon": -77.04370116666666, "type": "electric_scooter"}, {"bike_id": "7a2c0e511f4ee9fbb6dc7a4c13a8cb79", "is_reserved": 0, "fusion_lon": 0.0, "lat": 38.869086833333334, "is_disabled": 0, "name": "7a2c0e511f4ee9fbb6dc7a4c13a8cb79", "fusion_lat": 0.0, "rental_uris": {"ios": "https://dc.lft.to/lastmile_qr_scan", "android": "https://dc.lft.to/lastmile_qr_scan"}, "lon": -77.13178833333333, "type": "electric_bike"}, {"bike_id": "cd0ae5661e38bf1aa43a0de15fbed749", "is_reserved": 0, "fusion_lon": 0.0, "lat": 38.895604166666665, "is_disabled": 0, "name": "cd0ae5661e38bf1aa43a0de15fbed749", "fusion_lat": 0.0, "rental_uris": {"ios": "https://dc.lft.to/lastmile_qr_scan", "android": "https://dc.lft.to/lastmile_qr_scan"}, "lon": -77.0467605, "type": "electric_scooter"}, {"bike_id": "6bf6cd8e3cfd72e2299f6ef6f41f0d07", "is_reserved": 0, "fusion_lon": 0.0, "lat": 38.9058655, "is_disabled": 0, "name": "6bf6cd8e3cfd72e2299f6ef6f41f0d07", "fusion_lat": 0.0, "rental_uris": {"ios": "https://dc.lft.to/lastmile_qr_scan", "android": "https://dc.lft.to/lastmile_qr_scan"}, "lon": -77.03834383333333, "type": "electric_scooter"}, {"bike_id": "f7f790afef263d05f222df2377243e85", "is_reserved": 0, "fusion_lon": 0.0, "lat": 38.928435666666665, "is_disabled": 0, "name": "f7f790afef263d05f222df2377243e85", "fusion_lat": 0.0, "rental_uris": {"ios": "https://dc.lft.to/lastmile_qr_scan", "android": "https://dc.lft.to/lastmile_qr_scan"}, "lon": -77.05427733333333, "type": "electric_scooter"}, {"bike_id": "a010c66dc6038a7b64398fd6ced18444", "is_reserved": 0, "fusion_lon": 0.0, "lat": 38.87110466666667, "is_disabled": 0, "name": "a010c66dc6038a7b64398fd6ced18444", "fusion_lat": 0.0, "rental_uris": {"ios": "https://dc.lft.to/lastmile_qr_scan", "android": "https://dc.lft.to/lastmile_qr_scan"}, "lon": -76.97745083333334, "type": "electric_scooter"}, {"bike_id": "58e2f5417e1b800cba2bc54cded760a4", "is_reserved": 0, "fusion_lon": 0.0, "lat": 38.86378283333333, "is_disabled": 0, "name": "58e2f5417e1b800cba2bc54cded760a4", "fusion_lat": 0.0, "rental_uris": {"ios": "https://dc.lft.to/lastmile_qr_scan", "android": "https://dc.lft.to/lastmile_qr_scan"}, "lon": -76.99057183333333, "type": "electric_scooter"}, {"bike_id": "897aeeb3a28922e127d2fab756568be1", "is_reserved": 0, "fusion_lon": 0.0, "lat": 38.865207166666664, "is_disabled": 0, "name": "897aeeb3a28922e127d2fab756568be1", "fusion_lat": 0.0, "rental_uris": {"ios": "https://dc.lft.to/lastmile_qr_scan", "android": "https://dc.lft.to/lastmile_qr_scan"}, "lon": -76.99039883333333, "type": "electric_scooter"}, {"bike_id": "2926e928a53f4cd6a46cba43de94ea4e", "is_reserved": 0, "fusion_lon": 0.0, "lat": 38.9002145, "is_disabled": 0, "name": "2926e928a53f4cd6a46cba43de94ea4e", "fusion_lat": 0.0, "rental_uris": {"ios": "https://dc.lft.to/lastmile_qr_scan", "android": "https://dc.lft.to/lastmile_qr_scan"}, "lon": -76.99836633333334, "type": "electric_scooter"}, {"bike_id": "dfb84e9b8385995cf2492581a1a3266d", "is_reserved": 0, "fusion_lon": 0.0, "lat": 38.9182175, "is_disabled": 0, "name": "dfb84e9b8385995cf2492581a1a3266d", "fusion_lat": 0.0, "rental_uris": {"ios": "https://dc.lft.to/lastmile_qr_scan", "android": "https://dc.lft.to/lastmile_qr_scan"}, "lon": -77.0319225, "type": "electric_scooter"}, {"bike_id": "988719c95a8ba71174b0a5af2520ac51", "is_reserved": 0, "fusion_lon": 0.0, "lat": 38.91031783333333, "is_disabled": 0, "name": "988719c95a8ba71174b0a5af2520ac51", "fusion_lat": 0.0, "rental_uris": {"ios": "https://dc.lft.to/lastmile_qr_scan", "android": "https://dc.lft.to/lastmile_qr_scan"}, "lon": -77.03857983333333, "type": "electric_scooter"}, {"bike_id": "66cbf704e8f45bf6826fad86d45b07cb", "is_reserved": 0, "fusion_lon": 0.0, "lat": 38.883737333333336, "is_disabled": 0, "name": "66cbf704e8f45bf6826fad86d45b07cb", "fusion_lat": 0.0, "rental_uris": {"ios": "https://dc.lft.to/lastmile_qr_scan", "android": "https://dc.lft.to/lastmile_qr_scan"}, "lon": -76.995204, "type": "electric_scooter"}, {"bike_id": "c2314984dc98438b517143f7c94cebc0", "is_reserved": 0, "fusion_lon": 0.0, "lat": 38.95645783333333, "is_disabled": 0, "name": "c2314984dc98438b517143f7c94cebc0", "fusion_lat": 0.0, "rental_uris": {"ios": "https://dc.lft.to/lastmile_qr_scan", "android": "https://dc.lft.to/lastmile_qr_scan"}, "lon": -77.02258833333333, "type": "electric_scooter"}, {"bike_id": "e69deda364aa799a1d2ed8258c11d83b", "is_reserved": 0, "fusion_lon": 0.0, "lat": 38.924731333333334, "is_disabled": 0, "name": "e69deda364aa799a1d2ed8258c11d83b", "fusion_lat": 0.0, "rental_uris": {"ios": "https://dc.lft.to/lastmile_qr_scan", "android": "https://dc.lft.to/lastmile_qr_scan"}, "lon": -77.052016, "type": "electric_scooter"}, {"bike_id": "cf8023990ae01fdabe4bc81e3801d049", "is_reserved": 0, "fusion_lon": 0.0, "lat": 38.9255865, "is_disabled": 0, "name": "cf8023990ae01fdabe4bc81e3801d049", "fusion_lat": 0.0, "rental_uris": {"ios": "https://dc.lft.to/lastmile_qr_scan", "android": "https://dc.lft.to/lastmile_qr_scan"}, "lon": -77.07329833333333, "type": "electric_bike"}, {"bike_id": "3abd91aaea4a85b6da8487b0a7e26932", "is_reserved": 0, "fusion_lon": 0.0, "lat": 38.852918333333335, "is_disabled": 0, "name": "3abd91aaea4a85b6da8487b0a7e26932", "fusion_lat": 0.0, "rental_uris": {"ios": "https://dc.lft.to/lastmile_qr_scan", "android": "https://dc.lft.to/lastmile_qr_scan"}, "lon": -77.05276833333333, "type": "electric_bike"}, {"bike_id": "c04bae01bfa17abb0be1ef28e5b59d8d", "is_reserved": 0, "fusion_lon": 0.0, "lat": 38.856843833333336, "is_disabled": 0, "name": "c04bae01bfa17abb0be1ef28e5b59d8d", "fusion_lat": 0.0, "rental_uris": {"ios": "https://dc.lft.to/lastmile_qr_scan", "android": "https://dc.lft.to/lastmile_qr_scan"}, "lon": -77.08570283333333, "type": "electric_bike"}, {"bike_id": "693de0e9aaef696c1b98ee33a597436e", "is_reserved": 0, "fusion_lon": 0.0, "lat": 38.90520583333333, "is_disabled": 0, "name": "693de0e9aaef696c1b98ee33a597436e", "fusion_lat": 0.0, "rental_uris": {"ios": "https://dc.lft.to/lastmile_qr_scan", "android": "https://dc.lft.to/lastmile_qr_scan"}, "lon": -77.0435815, "type": "electric_scooter"}, {"bike_id": "c046d3e8e8d43ab3daccab0221c70df7", "is_reserved": 0, "fusion_lon": 0.0, "lat": 38.94437, "is_disabled": 0, "name": "c046d3e8e8d43ab3daccab0221c70df7", "fusion_lat": 0.0, "rental_uris": {"ios": "https://dc.lft.to/lastmile_qr_scan", "android": "https://dc.lft.to/lastmile_qr_scan"}, "lon": -77.06352316666667, "type": "electric_scooter"}, {"bike_id": "b8ac76a4f3a4004bfde29592f98d9371", "is_reserved": 0, "fusion_lon": 0.0, "lat": 38.92688283333333, "is_disabled": 0, "name": "b8ac76a4f3a4004bfde29592f98d9371", "fusion_lat": 0.0, "rental_uris": {"ios": "https://dc.lft.to/lastmile_qr_scan", "android": "https://dc.lft.to/lastmile_qr_scan"}, "lon": -77.0664995, "type": "electric_scooter"}, {"bike_id": "2d15b7451d63937bbbe05a379b0c0f15", "is_reserved": 0, "fusion_lon": 0.0, "lat": 38.8987795, "is_disabled": 0, "name": "2d15b7451d63937bbbe05a379b0c0f15", "fusion_lat": 0.0, "rental_uris": {"ios": "https://dc.lft.to/lastmile_qr_scan", "android": "https://dc.lft.to/lastmile_qr_scan"}, "lon": -76.93162466666666, "type": "electric_scooter"}, {"bike_id": "9e60936c2587d06a8be6490be13faff0", "is_reserved": 0, "fusion_lon": 0.0, "lat": 38.9249845, "is_disabled": 0, "name": "9e60936c2587d06a8be6490be13faff0", "fusion_lat": 0.0, "rental_uris": {"ios": "https://dc.lft.to/lastmile_qr_scan", "android": "https://dc.lft.to/lastmile_qr_scan"}, "lon": -77.00889266666667, "type": "electric_scooter"}, {"bike_id": "4c8e9dd51f40bc6239089aa84adbb526", "is_reserved": 0, "fusion_lon": 0.0, "lat": 38.900356, "is_disabled": 0, "name": "4c8e9dd51f40bc6239089aa84adbb526", "fusion_lat": 0.0, "rental_uris": {"ios": "https://dc.lft.to/lastmile_qr_scan", "android": "https://dc.lft.to/lastmile_qr_scan"}, "lon": -76.99874666666666, "type": "electric_scooter"}, {"bike_id": "5b4ac33a5b30fb1bbf99e9f676f2feaf", "is_reserved": 0, "fusion_lon": 0.0, "lat": 38.961758333333336, "is_disabled": 0, "name": "5b4ac33a5b30fb1bbf99e9f676f2feaf", "fusion_lat": 0.0, "rental_uris": {"ios": "https://dc.lft.to/lastmile_qr_scan", "android": "https://dc.lft.to/lastmile_qr_scan"}, "lon": -76.9958895, "type": "electric_bike"}, {"bike_id": "e9de8d58b9f6151e068d91a0557b442c", "is_reserved": 0, "fusion_lon": 0.0, "lat": 38.9343005, "is_disabled": 0, "name": "e9de8d58b9f6151e068d91a0557b442c", "fusion_lat": 0.0, "rental_uris": {"ios": "https://dc.lft.to/lastmile_qr_scan", "android": "https://dc.lft.to/lastmile_qr_scan"}, "lon": -77.0345165, "type": "electric_scooter"}, {"bike_id": "2c2004d0691030dc76fc9abd1f4690e1", "is_reserved": 0, "fusion_lon": 0.0, "lat": 38.89539333333333, "is_disabled": 0, "name": "2c2004d0691030dc76fc9abd1f4690e1", "fusion_lat": 0.0, "rental_uris": {"ios": "https://dc.lft.to/lastmile_qr_scan", "android": "https://dc.lft.to/lastmile_qr_scan"}, "lon": -76.94894633333334, "type": "electric_scooter"}, {"bike_id": "c75ecd872c776180f14918fc4d666fea", "is_reserved": 0, "fusion_lon": 0.0, "lat": 38.91560883333333, "is_disabled": 0, "name": "c75ecd872c776180f14918fc4d666fea", "fusion_lat": 0.0, "rental_uris": {"ios": "https://dc.lft.to/lastmile_qr_scan", "android": "https://dc.lft.to/lastmile_qr_scan"}, "lon": -77.031917, "type": "electric_bike"}, {"bike_id": "53159f673962bc0f9b33efa9c7e86ba5", "is_reserved": 0, "fusion_lon": 0.0, "lat": 38.89952016666667, "is_disabled": 0, "name": "53159f673962bc0f9b33efa9c7e86ba5", "fusion_lat": 0.0, "rental_uris": {"ios": "https://dc.lft.to/lastmile_qr_scan", "android": "https://dc.lft.to/lastmile_qr_scan"}, "lon": -77.033434, "type": "electric_scooter"}, {"bike_id": "4e03cf3d86a2669a8062162b28b0cda1", "is_reserved": 0, "fusion_lon": 0.0, "lat": 38.99178283333333, "is_disabled": 0, "name": "4e03cf3d86a2669a8062162b28b0cda1", "fusion_lat": 0.0, "rental_uris": {"ios": "https://dc.lft.to/lastmile_qr_scan", "android": "https://dc.lft.to/lastmile_qr_scan"}, "lon": -77.025774, "type": "electric_bike"}, {"bike_id": "f455e21faef0f4412bbdcb122d85ffc4", "is_reserved": 0, "fusion_lon": 0.0, "lat": 38.927519333333336, "is_disabled": 0, "name": "f455e21faef0f4412bbdcb122d85ffc4", "fusion_lat": 0.0, "rental_uris": {"ios": "https://dc.lft.to/lastmile_qr_scan", "android": "https://dc.lft.to/lastmile_qr_scan"}, "lon": -77.0327575, "type": "electric_scooter"}, {"bike_id": "9dab450e8a45477750ef5087db004cea", "is_reserved": 0, "fusion_lon": 0.0, "lat": 38.96480866666667, "is_disabled": 0, "name": "9dab450e8a45477750ef5087db004cea", "fusion_lat": 0.0, "rental_uris": {"ios": "https://dc.lft.to/lastmile_qr_scan", "android": "https://dc.lft.to/lastmile_qr_scan"}, "lon": -77.08769116666667, "type": "electric_bike"}, {"bike_id": "b11b10c78d9487524c8fca6e07425e16", "is_reserved": 0, "fusion_lon": 0.0, "lat": 38.90050383333333, "is_disabled": 0, "name": "b11b10c78d9487524c8fca6e07425e16", "fusion_lat": 0.0, "rental_uris": {"ios": "https://dc.lft.to/lastmile_qr_scan", "android": "https://dc.lft.to/lastmile_qr_scan"}, "lon": -77.00739833333333, "type": "electric_scooter"}, {"bike_id": "ffa6daa8ad4482cf0b280b87bef5f58a", "is_reserved": 0, "fusion_lon": 0.0, "lat": 38.95652366666667, "is_disabled": 0, "name": "ffa6daa8ad4482cf0b280b87bef5f58a", "fusion_lat": 0.0, "rental_uris": {"ios": "https://dc.lft.to/lastmile_qr_scan", "android": "https://dc.lft.to/lastmile_qr_scan"}, "lon": -77.0329065, "type": "electric_scooter"}, {"bike_id": "2bd16d47ee6ba5b1ca1dac04fb047c48", "is_reserved": 0, "fusion_lon": 0.0, "lat": 38.892258166666664, "is_disabled": 0, "name": "2bd16d47ee6ba5b1ca1dac04fb047c48", "fusion_lat": 0.0, "rental_uris": {"ios": "https://dc.lft.to/lastmile_qr_scan", "android": "https://dc.lft.to/lastmile_qr_scan"}, "lon": -77.03165433333334, "type": "electric_scooter"}, {"bike_id": "36c3f55e6bdead793a690af761f23877", "is_reserved": 0, "fusion_lon": 0.0, "lat": 38.891979, "is_disabled": 0, "name": "36c3f55e6bdead793a690af761f23877", "fusion_lat": 0.0, "rental_uris": {"ios": "https://dc.lft.to/lastmile_qr_scan", "android": "https://dc.lft.to/lastmile_qr_scan"}, "lon": -77.02838533333333, "type": "electric_scooter"}, {"bike_id": "2d9b743bf634bc2a3e57a09ac38c9225", "is_reserved": 0, "fusion_lon": 0.0, "lat": 38.827882, "is_disabled": 0, "name": "2d9b743bf634bc2a3e57a09ac38c9225", "fusion_lat": 0.0, "rental_uris": {"ios": "https://dc.lft.to/lastmile_qr_scan", "android": "https://dc.lft.to/lastmile_qr_scan"}, "lon": -77.0091965, "type": "electric_bike"}, {"bike_id": "5659ac878479932a5d65af003d12250e", "is_reserved": 0, "fusion_lon": 0.0, "lat": 38.899116666666664, "is_disabled": 0, "name": "5659ac878479932a5d65af003d12250e", "fusion_lat": 0.0, "rental_uris": {"ios": "https://dc.lft.to/lastmile_qr_scan", "android": "https://dc.lft.to/lastmile_qr_scan"}, "lon": -77.03293033333334, "type": "electric_scooter"}, {"bike_id": "1948228acdbc7e001ada120ded6c1385", "is_reserved": 0, "fusion_lon": 0.0, "lat": 38.90085533333333, "is_disabled": 0, "name": "1948228acdbc7e001ada120ded6c1385", "fusion_lat": 0.0, "rental_uris": {"ios": "https://dc.lft.to/lastmile_qr_scan", "android": "https://dc.lft.to/lastmile_qr_scan"}, "lon": -77.04803066666666, "type": "electric_scooter"}, {"bike_id": "87011bbc4e892776d07b3c545cf190d4", "is_reserved": 0, "fusion_lon": 0.0, "lat": 39.001408166666664, "is_disabled": 0, "name": "87011bbc4e892776d07b3c545cf190d4", "fusion_lat": 0.0, "rental_uris": {"ios": "https://dc.lft.to/lastmile_qr_scan", "android": "https://dc.lft.to/lastmile_qr_scan"}, "lon": -77.0569035, "type": "electric_bike"}, {"bike_id": "0bb93221ca3f7618894f4860c6e69f4d", "is_reserved": 0, "fusion_lon": 0.0, "lat": 38.98433466666667, "is_disabled": 0, "name": "0bb93221ca3f7618894f4860c6e69f4d", "fusion_lat": 0.0, "rental_uris": {"ios": "https://dc.lft.to/lastmile_qr_scan", "android": "https://dc.lft.to/lastmile_qr_scan"}, "lon": -77.0267455, "type": "electric_scooter"}, {"bike_id": "73604d292494ee15fc3c21442d69c4eb", "is_reserved": 0, "fusion_lon": 0.0, "lat": 38.884875, "is_disabled": 0, "name": "73604d292494ee15fc3c21442d69c4eb", "fusion_lat": 0.0, "rental_uris": {"ios": "https://dc.lft.to/lastmile_qr_scan", "android": "https://dc.lft.to/lastmile_qr_scan"}, "lon": -77.00720416666667, "type": "electric_scooter"}, {"bike_id": "8122f85f0b725937d6114675cba83edd", "is_reserved": 0, "fusion_lon": 0.0, "lat": 38.8664235, "is_disabled": 0, "name": "8122f85f0b725937d6114675cba83edd", "fusion_lat": 0.0, "rental_uris": {"ios": "https://dc.lft.to/lastmile_qr_scan", "android": "https://dc.lft.to/lastmile_qr_scan"}, "lon": -77.23200666666666, "type": "electric_bike"}, {"bike_id": "1e0fe0e9281bb01f631a3ee42372746c", "is_reserved": 0, "fusion_lon": 0.0, "lat": 38.9732655, "is_disabled": 0, "name": "1e0fe0e9281bb01f631a3ee42372746c", "fusion_lat": 0.0, "rental_uris": {"ios": "https://dc.lft.to/lastmile_qr_scan", "android": "https://dc.lft.to/lastmile_qr_scan"}, "lon": -77.02150016666667, "type": "electric_bike"}, {"bike_id": "387f0b8571297c75be6e93d6b9a76c98", "is_reserved": 0, "fusion_lon": 0.0, "lat": 38.95918, "is_disabled": 0, "name": "387f0b8571297c75be6e93d6b9a76c98", "fusion_lat": 0.0, "rental_uris": {"ios": "https://dc.lft.to/lastmile_qr_scan", "android": "https://dc.lft.to/lastmile_qr_scan"}, "lon": -76.924998, "type": "electric_bike"}, {"bike_id": "7aa360e525c5cbcf5689d3185fc6161f", "is_reserved": 0, "fusion_lon": 0.0, "lat": 38.9032015, "is_disabled": 0, "name": "7aa360e525c5cbcf5689d3185fc6161f", "fusion_lat": 0.0, "rental_uris": {"ios": "https://dc.lft.to/lastmile_qr_scan", "android": "https://dc.lft.to/lastmile_qr_scan"}, "lon": -77.0382785, "type": "electric_scooter"}, {"bike_id": "7f5b04dd812487fc7ea5727a1d926911", "is_reserved": 0, "fusion_lon": 0.0, "lat": 38.900634333333336, "is_disabled": 0, "name": "7f5b04dd812487fc7ea5727a1d926911", "fusion_lat": 0.0, "rental_uris": {"ios": "https://dc.lft.to/lastmile_qr_scan", "android": "https://dc.lft.to/lastmile_qr_scan"}, "lon": -76.99849833333333, "type": "electric_scooter"}, {"bike_id": "04ca2a8ccfa8e98e0a8e327d2aca359c", "is_reserved": 0, "fusion_lon": 0.0, "lat": 38.91802916666666, "is_disabled": 0, "name": "04ca2a8ccfa8e98e0a8e327d2aca359c", "fusion_lat": 0.0, "rental_uris": {"ios": "https://dc.lft.to/lastmile_qr_scan", "android": "https://dc.lft.to/lastmile_qr_scan"}, "lon": -77.010182, "type": "electric_scooter"}, {"bike_id": "ab95eb6f0cd8f5e6cc709e165611989e", "is_reserved": 0, "fusion_lon": 0.0, "lat": 38.89225, "is_disabled": 0, "name": "ab95eb6f0cd8f5e6cc709e165611989e", "fusion_lat": 0.0, "rental_uris": {"ios": "https://dc.lft.to/lastmile_qr_scan", "android": "https://dc.lft.to/lastmile_qr_scan"}, "lon": -77.04873533333334, "type": "electric_scooter"}, {"bike_id": "c10374e49bb2c6c5a7c5eaf3c99ba483", "is_reserved": 0, "fusion_lon": 0.0, "lat": 38.909614166666664, "is_disabled": 0, "name": "c10374e49bb2c6c5a7c5eaf3c99ba483", "fusion_lat": 0.0, "rental_uris": {"ios": "https://dc.lft.to/lastmile_qr_scan", "android": "https://dc.lft.to/lastmile_qr_scan"}, "lon": -76.98542416666666, "type": "electric_scooter"}, {"bike_id": "39d67495e00ad69df97275418ff76cb6", "is_reserved": 0, "fusion_lon": 0.0, "lat": 38.906401333333335, "is_disabled": 0, "name": "39d67495e00ad69df97275418ff76cb6", "fusion_lat": 0.0, "rental_uris": {"ios": "https://dc.lft.to/lastmile_qr_scan", "android": "https://dc.lft.to/lastmile_qr_scan"}, "lon": -77.05125833333334, "type": "electric_scooter"}, {"bike_id": "eae1b5cd62db2df33062fab330a6d2bc", "is_reserved": 0, "fusion_lon": 0.0, "lat": 38.91117116666667, "is_disabled": 0, "name": "eae1b5cd62db2df33062fab330a6d2bc", "fusion_lat": 0.0, "rental_uris": {"ios": "https://dc.lft.to/lastmile_qr_scan", "android": "https://dc.lft.to/lastmile_qr_scan"}, "lon": -77.00373816666666, "type": "electric_scooter"}, {"bike_id": "0ef28c79e5889f6139ce0bed40a724f9", "is_reserved": 0, "fusion_lon": 0.0, "lat": 38.9025945, "is_disabled": 0, "name": "0ef28c79e5889f6139ce0bed40a724f9", "fusion_lat": 0.0, "rental_uris": {"ios": "https://dc.lft.to/lastmile_qr_scan", "android": "https://dc.lft.to/lastmile_qr_scan"}, "lon": -77.03440616666667, "type": "electric_scooter"}, {"bike_id": "02656ce229abcf5c3720dbe6f9c74687", "is_reserved": 0, "fusion_lon": 0.0, "lat": 38.928748166666665, "is_disabled": 0, "name": "02656ce229abcf5c3720dbe6f9c74687", "fusion_lat": 0.0, "rental_uris": {"ios": "https://dc.lft.to/lastmile_qr_scan", "android": "https://dc.lft.to/lastmile_qr_scan"}, "lon": -77.02732066666667, "type": "electric_scooter"}, {"bike_id": "5b30af7af2ca6d54e9ef34f6726f806f", "is_reserved": 0, "fusion_lon": 0.0, "lat": 38.90236483333333, "is_disabled": 0, "name": "5b30af7af2ca6d54e9ef34f6726f806f", "fusion_lat": 0.0, "rental_uris": {"ios": "https://dc.lft.to/lastmile_qr_scan", "android": "https://dc.lft.to/lastmile_qr_scan"}, "lon": -77.03446283333334, "type": "electric_scooter"}, {"bike_id": "2dc43c659e3e5720bc8dfe9329ad4e5f", "is_reserved": 0, "fusion_lon": 0.0, "lat": 38.920372666666665, "is_disabled": 0, "name": "2dc43c659e3e5720bc8dfe9329ad4e5f", "fusion_lat": 0.0, "rental_uris": {"ios": "https://dc.lft.to/lastmile_qr_scan", "android": "https://dc.lft.to/lastmile_qr_scan"}, "lon": -76.99942366666667, "type": "electric_scooter"}, {"bike_id": "69ec7eb4968fb71cd80401d33491e90a", "is_reserved": 0, "fusion_lon": 0.0, "lat": 38.9053885, "is_disabled": 0, "name": "69ec7eb4968fb71cd80401d33491e90a", "fusion_lat": 0.0, "rental_uris": {"ios": "https://dc.lft.to/lastmile_qr_scan", "android": "https://dc.lft.to/lastmile_qr_scan"}, "lon": -77.022088, "type": "electric_scooter"}, {"bike_id": "baf0a1fc55ec21be78c005cef9f6c933", "is_reserved": 0, "fusion_lon": 0.0, "lat": 38.921627, "is_disabled": 0, "name": "baf0a1fc55ec21be78c005cef9f6c933", "fusion_lat": 0.0, "rental_uris": {"ios": "https://dc.lft.to/lastmile_qr_scan", "android": "https://dc.lft.to/lastmile_qr_scan"}, "lon": -77.0384895, "type": "electric_scooter"}, {"bike_id": "00ba740c8a959fdc8295571a3fbcefa2", "is_reserved": 0, "fusion_lon": 0.0, "lat": 38.90401216666667, "is_disabled": 0, "name": "00ba740c8a959fdc8295571a3fbcefa2", "fusion_lat": 0.0, "rental_uris": {"ios": "https://dc.lft.to/lastmile_qr_scan", "android": "https://dc.lft.to/lastmile_qr_scan"}, "lon": -77.04520666666667, "type": "electric_scooter"}, {"bike_id": "632620dee27803fbc14ec4d75781a607", "is_reserved": 0, "fusion_lon": 0.0, "lat": 38.862429, "is_disabled": 0, "name": "632620dee27803fbc14ec4d75781a607", "fusion_lat": 0.0, "rental_uris": {"ios": "https://dc.lft.to/lastmile_qr_scan", "android": "https://dc.lft.to/lastmile_qr_scan"}, "lon": -76.99493716666667, "type": "electric_scooter"}, {"bike_id": "1c9469b082c0290c28195aa2c080b6c1", "is_reserved": 0, "fusion_lon": 0.0, "lat": 38.923644, "is_disabled": 0, "name": "1c9469b082c0290c28195aa2c080b6c1", "fusion_lat": 0.0, "rental_uris": {"ios": "https://dc.lft.to/lastmile_qr_scan", "android": "https://dc.lft.to/lastmile_qr_scan"}, "lon": -77.051291, "type": "electric_scooter"}, {"bike_id": "8ae77f232589e2a3c18045e8c2c45ac8", "is_reserved": 0, "fusion_lon": 0.0, "lat": 38.90281483333333, "is_disabled": 0, "name": "8ae77f232589e2a3c18045e8c2c45ac8", "fusion_lat": 0.0, "rental_uris": {"ios": "https://dc.lft.to/lastmile_qr_scan", "android": "https://dc.lft.to/lastmile_qr_scan"}, "lon": -77.036609, "type": "electric_scooter"}, {"bike_id": "c6a5c1b25e436455629fb976c2682044", "is_reserved": 0, "fusion_lon": 0.0, "lat": 38.89197133333333, "is_disabled": 0, "name": "c6a5c1b25e436455629fb976c2682044", "fusion_lat": 0.0, "rental_uris": {"ios": "https://dc.lft.to/lastmile_qr_scan", "android": "https://dc.lft.to/lastmile_qr_scan"}, "lon": -77.022205, "type": "electric_scooter"}, {"bike_id": "f4c9ecd8af6b7b761ddcf540ec9e69cc", "is_reserved": 0, "fusion_lon": 0.0, "lat": 38.90743666666667, "is_disabled": 0, "name": "f4c9ecd8af6b7b761ddcf540ec9e69cc", "fusion_lat": 0.0, "rental_uris": {"ios": "https://dc.lft.to/lastmile_qr_scan", "android": "https://dc.lft.to/lastmile_qr_scan"}, "lon": -77.04386183333334, "type": "electric_scooter"}, {"bike_id": "8ba8f88a549ab6f243a1ed0656e301de", "is_reserved": 0, "fusion_lon": 0.0, "lat": 38.878871833333335, "is_disabled": 0, "name": "8ba8f88a549ab6f243a1ed0656e301de", "fusion_lat": 0.0, "rental_uris": {"ios": "https://dc.lft.to/lastmile_qr_scan", "android": "https://dc.lft.to/lastmile_qr_scan"}, "lon": -76.9915225, "type": "electric_scooter"}, {"bike_id": "0fdde262c1c932e12f49d9cb35616714", "is_reserved": 0, "fusion_lon": 0.0, "lat": 38.88502416666667, "is_disabled": 0, "name": "0fdde262c1c932e12f49d9cb35616714", "fusion_lat": 0.0, "rental_uris": {"ios": "https://dc.lft.to/lastmile_qr_scan", "android": "https://dc.lft.to/lastmile_qr_scan"}, "lon": -77.00893383333333, "type": "electric_scooter"}, {"bike_id": "a5a3b93867849e030302e5b29ef74d39", "is_reserved": 0, "fusion_lon": 0.0, "lat": 38.92212633333333, "is_disabled": 0, "name": "a5a3b93867849e030302e5b29ef74d39", "fusion_lat": 0.0, "rental_uris": {"ios": "https://dc.lft.to/lastmile_qr_scan", "android": "https://dc.lft.to/lastmile_qr_scan"}, "lon": -77.04245116666667, "type": "electric_scooter"}, {"bike_id": "c691e82a840cd9619f961d31ce696d17", "is_reserved": 0, "fusion_lon": 0.0, "lat": 38.8922285, "is_disabled": 0, "name": "c691e82a840cd9619f961d31ce696d17", "fusion_lat": 0.0, "rental_uris": {"ios": "https://dc.lft.to/lastmile_qr_scan", "android": "https://dc.lft.to/lastmile_qr_scan"}, "lon": -77.03099633333333, "type": "electric_scooter"}, {"bike_id": "cab83cfe02dbce1a94ba684d443fd362", "is_reserved": 0, "fusion_lon": 0.0, "lat": 38.903736, "is_disabled": 0, "name": "cab83cfe02dbce1a94ba684d443fd362", "fusion_lat": 0.0, "rental_uris": {"ios": "https://dc.lft.to/lastmile_qr_scan", "android": "https://dc.lft.to/lastmile_qr_scan"}, "lon": -77.03658966666667, "type": "electric_scooter"}, {"bike_id": "d3e8ee03c955eb399f9afd66f0d280a3", "is_reserved": 0, "fusion_lon": 0.0, "lat": 38.892124833333334, "is_disabled": 0, "name": "d3e8ee03c955eb399f9afd66f0d280a3", "fusion_lat": 0.0, "rental_uris": {"ios": "https://dc.lft.to/lastmile_qr_scan", "android": "https://dc.lft.to/lastmile_qr_scan"}, "lon": -77.03165383333334, "type": "electric_scooter"}, {"bike_id": "0f407f62c3782fefaf4f296b0e8a4aa2", "is_reserved": 0, "fusion_lon": 0.0, "lat": 38.91210566666667, "is_disabled": 0, "name": "0f407f62c3782fefaf4f296b0e8a4aa2", "fusion_lat": 0.0, "rental_uris": {"ios": "https://dc.lft.to/lastmile_qr_scan", "android": "https://dc.lft.to/lastmile_qr_scan"}, "lon": -77.07606866666667, "type": "electric_scooter"}, {"bike_id": "a6bc341116416e3398620427657b47c8", "is_reserved": 0, "fusion_lon": 0.0, "lat": 38.94050716666667, "is_disabled": 0, "name": "a6bc341116416e3398620427657b47c8", "fusion_lat": 0.0, "rental_uris": {"ios": "https://dc.lft.to/lastmile_qr_scan", "android": "https://dc.lft.to/lastmile_qr_scan"}, "lon": -77.092706, "type": "electric_scooter"}, {"bike_id": "d9bc32449786029c8fc73804f787c644", "is_reserved": 0, "fusion_lon": 0.0, "lat": 38.9236565, "is_disabled": 0, "name": "d9bc32449786029c8fc73804f787c644", "fusion_lat": 0.0, "rental_uris": {"ios": "https://dc.lft.to/lastmile_qr_scan", "android": "https://dc.lft.to/lastmile_qr_scan"}, "lon": -77.0195555, "type": "electric_scooter"}, {"bike_id": "c7cd1c3d1ffa5fa5b2591ffd3010a6f1", "is_reserved": 0, "fusion_lon": 0.0, "lat": 38.905519, "is_disabled": 0, "name": "c7cd1c3d1ffa5fa5b2591ffd3010a6f1", "fusion_lat": 0.0, "rental_uris": {"ios": "https://dc.lft.to/lastmile_qr_scan", "android": "https://dc.lft.to/lastmile_qr_scan"}, "lon": -77.04745383333334, "type": "electric_scooter"}, {"bike_id": "a45e3eb9257529485bf002f25bc0658e", "is_reserved": 0, "fusion_lon": 0.0, "lat": 38.97424083333333, "is_disabled": 0, "name": "a45e3eb9257529485bf002f25bc0658e", "fusion_lat": 0.0, "rental_uris": {"ios": "https://dc.lft.to/lastmile_qr_scan", "android": "https://dc.lft.to/lastmile_qr_scan"}, "lon": -77.0152035, "type": "electric_scooter"}, {"bike_id": "5b72650804591b3ed36b7d36d511fe80", "is_reserved": 0, "fusion_lon": 0.0, "lat": 38.908503333333336, "is_disabled": 0, "name": "5b72650804591b3ed36b7d36d511fe80", "fusion_lat": 0.0, "rental_uris": {"ios": "https://dc.lft.to/lastmile_qr_scan", "android": "https://dc.lft.to/lastmile_qr_scan"}, "lon": -76.9915645, "type": "electric_scooter"}, {"bike_id": "65da1a6e7a284e21a181f037bf92f93b", "is_reserved": 0, "fusion_lon": 0.0, "lat": 38.91746933333334, "is_disabled": 0, "name": "65da1a6e7a284e21a181f037bf92f93b", "fusion_lat": 0.0, "rental_uris": {"ios": "https://dc.lft.to/lastmile_qr_scan", "android": "https://dc.lft.to/lastmile_qr_scan"}, "lon": -77.0075685, "type": "electric_scooter"}, {"bike_id": "9a1ca41672f4c81ec087edb3ea6018fe", "is_reserved": 0, "fusion_lon": 0.0, "lat": 38.86710816666667, "is_disabled": 0, "name": "9a1ca41672f4c81ec087edb3ea6018fe", "fusion_lat": 0.0, "rental_uris": {"ios": "https://dc.lft.to/lastmile_qr_scan", "android": "https://dc.lft.to/lastmile_qr_scan"}, "lon": -76.98720116666667, "type": "electric_scooter"}, {"bike_id": "2bf3739a3d3ee815e849fd30b9af0d46", "is_reserved": 0, "fusion_lon": 0.0, "lat": 38.8962625, "is_disabled": 0, "name": "2bf3739a3d3ee815e849fd30b9af0d46", "fusion_lat": 0.0, "rental_uris": {"ios": "https://dc.lft.to/lastmile_qr_scan", "android": "https://dc.lft.to/lastmile_qr_scan"}, "lon": -77.0405565, "type": "electric_scooter"}, {"bike_id": "6d7902a46f0754e3fb4e4d0df7322086", "is_reserved": 0, "fusion_lon": 0.0, "lat": 38.8968095, "is_disabled": 0, "name": "6d7902a46f0754e3fb4e4d0df7322086", "fusion_lat": 0.0, "rental_uris": {"ios": "https://dc.lft.to/lastmile_qr_scan", "android": "https://dc.lft.to/lastmile_qr_scan"}, "lon": -76.996224, "type": "electric_scooter"}, {"bike_id": "0d4e158ba5026b95007470f28c92a56d", "is_reserved": 0, "fusion_lon": 0.0, "lat": 38.918208666666665, "is_disabled": 0, "name": "0d4e158ba5026b95007470f28c92a56d", "fusion_lat": 0.0, "rental_uris": {"ios": "https://dc.lft.to/lastmile_qr_scan", "android": "https://dc.lft.to/lastmile_qr_scan"}, "lon": -77.03528483333334, "type": "electric_scooter"}, {"bike_id": "282c8cc7d31e26e7da19ac0ad397e39b", "is_reserved": 0, "fusion_lon": 0.0, "lat": 38.842926166666665, "is_disabled": 0, "name": "282c8cc7d31e26e7da19ac0ad397e39b", "fusion_lat": 0.0, "rental_uris": {"ios": "https://dc.lft.to/lastmile_qr_scan", "android": "https://dc.lft.to/lastmile_qr_scan"}, "lon": -76.99949066666667, "type": "electric_scooter"}, {"bike_id": "72d242ce2ddf5d49a196fe981a988208", "is_reserved": 0, "fusion_lon": 0.0, "lat": 38.907727333333334, "is_disabled": 0, "name": "72d242ce2ddf5d49a196fe981a988208", "fusion_lat": 0.0, "rental_uris": {"ios": "https://dc.lft.to/lastmile_qr_scan", "android": "https://dc.lft.to/lastmile_qr_scan"}, "lon": -77.0009795, "type": "electric_scooter"}, {"bike_id": "ddac94962364557adc7a75c2a853b23d", "is_reserved": 0, "fusion_lon": 0.0, "lat": 38.903095666666665, "is_disabled": 0, "name": "ddac94962364557adc7a75c2a853b23d", "fusion_lat": 0.0, "rental_uris": {"ios": "https://dc.lft.to/lastmile_qr_scan", "android": "https://dc.lft.to/lastmile_qr_scan"}, "lon": -77.03816766666667, "type": "electric_scooter"}, {"bike_id": "f6e3f613a22335ab916c5ff967b3b02a", "is_reserved": 0, "fusion_lon": 0.0, "lat": 38.8938875, "is_disabled": 0, "name": "f6e3f613a22335ab916c5ff967b3b02a", "fusion_lat": 0.0, "rental_uris": {"ios": "https://dc.lft.to/lastmile_qr_scan", "android": "https://dc.lft.to/lastmile_qr_scan"}, "lon": -77.00600816666666, "type": "electric_scooter"}, {"bike_id": "57071eff10ee1468864286adff701619", "is_reserved": 0, "fusion_lon": 0.0, "lat": 38.86250183333333, "is_disabled": 0, "name": "57071eff10ee1468864286adff701619", "fusion_lat": 0.0, "rental_uris": {"ios": "https://dc.lft.to/lastmile_qr_scan", "android": "https://dc.lft.to/lastmile_qr_scan"}, "lon": -76.99479183333334, "type": "electric_scooter"}, {"bike_id": "fd2d65d692f6ab1369574a3e7aa7f6e4", "is_reserved": 0, "fusion_lon": 0.0, "lat": 38.822711, "is_disabled": 0, "name": "fd2d65d692f6ab1369574a3e7aa7f6e4", "fusion_lat": 0.0, "rental_uris": {"ios": "https://dc.lft.to/lastmile_qr_scan", "android": "https://dc.lft.to/lastmile_qr_scan"}, "lon": -77.0580925, "type": "electric_bike"}, {"bike_id": "37d10ab955afd55dd253cf7924339399", "is_reserved": 0, "fusion_lon": 0.0, "lat": 38.80621816666667, "is_disabled": 0, "name": "37d10ab955afd55dd253cf7924339399", "fusion_lat": 0.0, "rental_uris": {"ios": "https://dc.lft.to/lastmile_qr_scan", "android": "https://dc.lft.to/lastmile_qr_scan"}, "lon": -77.06349516666667, "type": "electric_bike"}, {"bike_id": "b9149e3eeb3bddd31c293e08a1347671", "is_reserved": 0, "fusion_lon": 0.0, "lat": 38.92338566666667, "is_disabled": 0, "name": "b9149e3eeb3bddd31c293e08a1347671", "fusion_lat": 0.0, "rental_uris": {"ios": "https://dc.lft.to/lastmile_qr_scan", "android": "https://dc.lft.to/lastmile_qr_scan"}, "lon": -77.04192416666666, "type": "electric_scooter"}, {"bike_id": "3bd0ffc1c2fecc1c55a4a8cbd43d49d9", "is_reserved": 0, "fusion_lon": 0.0, "lat": 38.91788566666666, "is_disabled": 0, "name": "3bd0ffc1c2fecc1c55a4a8cbd43d49d9", "fusion_lat": 0.0, "rental_uris": {"ios": "https://dc.lft.to/lastmile_qr_scan", "android": "https://dc.lft.to/lastmile_qr_scan"}, "lon": -77.0231865, "type": "electric_scooter"}, {"bike_id": "8308359cf1139567e50c15d98a092354", "is_reserved": 0, "fusion_lon": 0.0, "lat": 38.892214333333335, "is_disabled": 0, "name": "8308359cf1139567e50c15d98a092354", "fusion_lat": 0.0, "rental_uris": {"ios": "https://dc.lft.to/lastmile_qr_scan", "android": "https://dc.lft.to/lastmile_qr_scan"}, "lon": -77.04869266666667, "type": "electric_scooter"}, {"bike_id": "5c572eeb82517d71771f4ea043fb41bd", "is_reserved": 0, "fusion_lon": 0.0, "lat": 38.89736283333333, "is_disabled": 0, "name": "5c572eeb82517d71771f4ea043fb41bd", "fusion_lat": 0.0, "rental_uris": {"ios": "https://dc.lft.to/lastmile_qr_scan", "android": "https://dc.lft.to/lastmile_qr_scan"}, "lon": -77.01756216666666, "type": "electric_scooter"}, {"bike_id": "ff8193acf55db3b934595bc48b039eeb", "is_reserved": 0, "fusion_lon": 0.0, "lat": 38.89226816666667, "is_disabled": 0, "name": "ff8193acf55db3b934595bc48b039eeb", "fusion_lat": 0.0, "rental_uris": {"ios": "https://dc.lft.to/lastmile_qr_scan", "android": "https://dc.lft.to/lastmile_qr_scan"}, "lon": -77.04651, "type": "electric_scooter"}, {"bike_id": "278ce53e0cd14ab3b3ebd4959f980175", "is_reserved": 0, "fusion_lon": 0.0, "lat": 38.904628833333334, "is_disabled": 0, "name": "278ce53e0cd14ab3b3ebd4959f980175", "fusion_lat": 0.0, "rental_uris": {"ios": "https://dc.lft.to/lastmile_qr_scan", "android": "https://dc.lft.to/lastmile_qr_scan"}, "lon": -77.043649, "type": "electric_scooter"}, {"bike_id": "d4c0d515886ab2e0ebd7fe5ae8c2f7f5", "is_reserved": 0, "fusion_lon": 0.0, "lat": 38.98503916666667, "is_disabled": 0, "name": "d4c0d515886ab2e0ebd7fe5ae8c2f7f5", "fusion_lat": 0.0, "rental_uris": {"ios": "https://dc.lft.to/lastmile_qr_scan", "android": "https://dc.lft.to/lastmile_qr_scan"}, "lon": -76.98208416666667, "type": "electric_bike"}, {"bike_id": "9c0c1592ef4cbe1ee60a04e75f7385c0", "is_reserved": 0, "fusion_lon": 0.0, "lat": 38.86996883333333, "is_disabled": 0, "name": "9c0c1592ef4cbe1ee60a04e75f7385c0", "fusion_lat": 0.0, "rental_uris": {"ios": "https://dc.lft.to/lastmile_qr_scan", "android": "https://dc.lft.to/lastmile_qr_scan"}, "lon": -76.95991266666667, "type": "electric_bike"}, {"bike_id": "14e4e86b7bac40bcccbd722811dca966", "is_reserved": 0, "fusion_lon": 0.0, "lat": 38.9078655, "is_disabled": 0, "name": "14e4e86b7bac40bcccbd722811dca966", "fusion_lat": 0.0, "rental_uris": {"ios": "https://dc.lft.to/lastmile_qr_scan", "android": "https://dc.lft.to/lastmile_qr_scan"}, "lon": -77.0367995, "type": "electric_scooter"}, {"bike_id": "78923ab928eabd9839f771cef6b946b0", "is_reserved": 0, "fusion_lon": 0.0, "lat": 38.90150033333333, "is_disabled": 0, "name": "78923ab928eabd9839f771cef6b946b0", "fusion_lat": 0.0, "rental_uris": {"ios": "https://dc.lft.to/lastmile_qr_scan", "android": "https://dc.lft.to/lastmile_qr_scan"}, "lon": -77.05922916666667, "type": "electric_bike"}, {"bike_id": "7e1783e5cc042f2724c41d622804a4cd", "is_reserved": 0, "fusion_lon": 0.0, "lat": 38.87672633333333, "is_disabled": 0, "name": "7e1783e5cc042f2724c41d622804a4cd", "fusion_lat": 0.0, "rental_uris": {"ios": "https://dc.lft.to/lastmile_qr_scan", "android": "https://dc.lft.to/lastmile_qr_scan"}, "lon": -77.00443083333333, "type": "electric_scooter"}, {"bike_id": "e7d156ed8e8c7fb594666ea14fa67897", "is_reserved": 0, "fusion_lon": 0.0, "lat": 38.916668, "is_disabled": 0, "name": "e7d156ed8e8c7fb594666ea14fa67897", "fusion_lat": 0.0, "rental_uris": {"ios": "https://dc.lft.to/lastmile_qr_scan", "android": "https://dc.lft.to/lastmile_qr_scan"}, "lon": -77.0271435, "type": "electric_scooter"}, {"bike_id": "e6d32bddf567dd5ca61aa77bebe80b02", "is_reserved": 0, "fusion_lon": 0.0, "lat": 38.9084165, "is_disabled": 0, "name": "e6d32bddf567dd5ca61aa77bebe80b02", "fusion_lat": 0.0, "rental_uris": {"ios": "https://dc.lft.to/lastmile_qr_scan", "android": "https://dc.lft.to/lastmile_qr_scan"}, "lon": -77.05492566666666, "type": "electric_scooter"}, {"bike_id": "ac9f551c2ba039720b84fdeca4f7e540", "is_reserved": 0, "fusion_lon": 0.0, "lat": 38.8763495, "is_disabled": 0, "name": "ac9f551c2ba039720b84fdeca4f7e540", "fusion_lat": 0.0, "rental_uris": {"ios": "https://dc.lft.to/lastmile_qr_scan", "android": "https://dc.lft.to/lastmile_qr_scan"}, "lon": -76.9652865, "type": "electric_scooter"}, {"bike_id": "727557e62a34485964985c2a0ea86690", "is_reserved": 0, "fusion_lon": 0.0, "lat": 38.89197083333333, "is_disabled": 0, "name": "727557e62a34485964985c2a0ea86690", "fusion_lat": 0.0, "rental_uris": {"ios": "https://dc.lft.to/lastmile_qr_scan", "android": "https://dc.lft.to/lastmile_qr_scan"}, "lon": -77.01539766666667, "type": "electric_scooter"}, {"bike_id": "c109379771f3621af67eb14e79ea45b1", "is_reserved": 0, "fusion_lon": 0.0, "lat": 38.94176216666666, "is_disabled": 0, "name": "c109379771f3621af67eb14e79ea45b1", "fusion_lat": 0.0, "rental_uris": {"ios": "https://dc.lft.to/lastmile_qr_scan", "android": "https://dc.lft.to/lastmile_qr_scan"}, "lon": -77.02503, "type": "electric_scooter"}, {"bike_id": "64613a744d1c35750201e7d647d6a912", "is_reserved": 0, "fusion_lon": 0.0, "lat": 38.902947, "is_disabled": 0, "name": "64613a744d1c35750201e7d647d6a912", "fusion_lat": 0.0, "rental_uris": {"ios": "https://dc.lft.to/lastmile_qr_scan", "android": "https://dc.lft.to/lastmile_qr_scan"}, "lon": -76.99859333333333, "type": "electric_scooter"}, {"bike_id": "3fbdf37634f3e78d95cca9a598829e32", "is_reserved": 0, "fusion_lon": 0.0, "lat": 38.893679666666664, "is_disabled": 0, "name": "3fbdf37634f3e78d95cca9a598829e32", "fusion_lat": 0.0, "rental_uris": {"ios": "https://dc.lft.to/lastmile_qr_scan", "android": "https://dc.lft.to/lastmile_qr_scan"}, "lon": -76.94967066666666, "type": "electric_scooter"}, {"bike_id": "c271ab8f2f5f84705d31d12addf612ce", "is_reserved": 0, "fusion_lon": 0.0, "lat": 38.921246, "is_disabled": 0, "name": "c271ab8f2f5f84705d31d12addf612ce", "fusion_lat": 0.0, "rental_uris": {"ios": "https://dc.lft.to/lastmile_qr_scan", "android": "https://dc.lft.to/lastmile_qr_scan"}, "lon": -77.0092545, "type": "electric_scooter"}, {"bike_id": "37487294e5bdefc35dd2baa13864619e", "is_reserved": 0, "fusion_lon": 0.0, "lat": 38.87838766666667, "is_disabled": 0, "name": "37487294e5bdefc35dd2baa13864619e", "fusion_lat": 0.0, "rental_uris": {"ios": "https://dc.lft.to/lastmile_qr_scan", "android": "https://dc.lft.to/lastmile_qr_scan"}, "lon": -76.990409, "type": "electric_scooter"}, {"bike_id": "14721e1fd87df3adcfd206a4dd23e98d", "is_reserved": 0, "fusion_lon": 0.0, "lat": 38.904469166666665, "is_disabled": 0, "name": "14721e1fd87df3adcfd206a4dd23e98d", "fusion_lat": 0.0, "rental_uris": {"ios": "https://dc.lft.to/lastmile_qr_scan", "android": "https://dc.lft.to/lastmile_qr_scan"}, "lon": -76.99619, "type": "electric_scooter"}, {"bike_id": "e8c7dbab239501e2414198e7badf1451", "is_reserved": 0, "fusion_lon": 0.0, "lat": 38.90272616666667, "is_disabled": 0, "name": "e8c7dbab239501e2414198e7badf1451", "fusion_lat": 0.0, "rental_uris": {"ios": "https://dc.lft.to/lastmile_qr_scan", "android": "https://dc.lft.to/lastmile_qr_scan"}, "lon": -77.03371016666667, "type": "electric_scooter"}, {"bike_id": "c7a0ac2aea6fdfbdc8f002d74c681804", "is_reserved": 0, "fusion_lon": 0.0, "lat": 38.922677, "is_disabled": 0, "name": "c7a0ac2aea6fdfbdc8f002d74c681804", "fusion_lat": 0.0, "rental_uris": {"ios": "https://dc.lft.to/lastmile_qr_scan", "android": "https://dc.lft.to/lastmile_qr_scan"}, "lon": -77.0182895, "type": "electric_scooter"}, {"bike_id": "48a26ed4fde1b0ecf11471b2ea771492", "is_reserved": 0, "fusion_lon": 0.0, "lat": 38.920313166666666, "is_disabled": 0, "name": "48a26ed4fde1b0ecf11471b2ea771492", "fusion_lat": 0.0, "rental_uris": {"ios": "https://dc.lft.to/lastmile_qr_scan", "android": "https://dc.lft.to/lastmile_qr_scan"}, "lon": -77.04805666666667, "type": "electric_scooter"}, {"bike_id": "97795309f98ae7acbc310909a8abb320", "is_reserved": 0, "fusion_lon": 0.0, "lat": 38.91816333333333, "is_disabled": 0, "name": "97795309f98ae7acbc310909a8abb320", "fusion_lat": 0.0, "rental_uris": {"ios": "https://dc.lft.to/lastmile_qr_scan", "android": "https://dc.lft.to/lastmile_qr_scan"}, "lon": -77.045254, "type": "electric_scooter"}, {"bike_id": "de078c21955427ad84ffdaeaaa56f895", "is_reserved": 0, "fusion_lon": 0.0, "lat": 38.842914, "is_disabled": 0, "name": "de078c21955427ad84ffdaeaaa56f895", "fusion_lat": 0.0, "rental_uris": {"ios": "https://dc.lft.to/lastmile_qr_scan", "android": "https://dc.lft.to/lastmile_qr_scan"}, "lon": -76.99945283333334, "type": "electric_scooter"}, {"bike_id": "cf6911596947d35da2b0e1a5b9db40d3", "is_reserved": 0, "fusion_lon": 0.0, "lat": 38.900308833333334, "is_disabled": 0, "name": "cf6911596947d35da2b0e1a5b9db40d3", "fusion_lat": 0.0, "rental_uris": {"ios": "https://dc.lft.to/lastmile_qr_scan", "android": "https://dc.lft.to/lastmile_qr_scan"}, "lon": -76.99533133333334, "type": "electric_scooter"}, {"bike_id": "f3ffcd5f4e3e26856434b7ecdf45119e", "is_reserved": 0, "fusion_lon": 0.0, "lat": 38.907668, "is_disabled": 0, "name": "f3ffcd5f4e3e26856434b7ecdf45119e", "fusion_lat": 0.0, "rental_uris": {"ios": "https://dc.lft.to/lastmile_qr_scan", "android": "https://dc.lft.to/lastmile_qr_scan"}, "lon": -77.06917616666667, "type": "electric_scooter"}, {"bike_id": "1ce0a29089af166134c0257d54a336b6", "is_reserved": 0, "fusion_lon": 0.0, "lat": 38.916661833333336, "is_disabled": 0, "name": "1ce0a29089af166134c0257d54a336b6", "fusion_lat": 0.0, "rental_uris": {"ios": "https://dc.lft.to/lastmile_qr_scan", "android": "https://dc.lft.to/lastmile_qr_scan"}, "lon": -77.0271615, "type": "electric_scooter"}, {"bike_id": "93e3f9eb6f20c106f18bcd13a6786c5b", "is_reserved": 0, "fusion_lon": 0.0, "lat": 38.921934666666665, "is_disabled": 0, "name": "93e3f9eb6f20c106f18bcd13a6786c5b", "fusion_lat": 0.0, "rental_uris": {"ios": "https://dc.lft.to/lastmile_qr_scan", "android": "https://dc.lft.to/lastmile_qr_scan"}, "lon": -77.0183155, "type": "electric_scooter"}, {"bike_id": "a7c583d24720c8de7223be13093ab01d", "is_reserved": 0, "fusion_lon": 0.0, "lat": 39.030468666666664, "is_disabled": 0, "name": "a7c583d24720c8de7223be13093ab01d", "fusion_lat": 0.0, "rental_uris": {"ios": "https://dc.lft.to/lastmile_qr_scan", "android": "https://dc.lft.to/lastmile_qr_scan"}, "lon": -77.094845, "type": "electric_bike"}, {"bike_id": "feb17052601adf7b0d2af202390fa69f", "is_reserved": 0, "fusion_lon": 0.0, "lat": 38.92477916666667, "is_disabled": 0, "name": "feb17052601adf7b0d2af202390fa69f", "fusion_lat": 0.0, "rental_uris": {"ios": "https://dc.lft.to/lastmile_qr_scan", "android": "https://dc.lft.to/lastmile_qr_scan"}, "lon": -77.05210966666667, "type": "electric_scooter"}, {"bike_id": "6b68f6854dc7f2dbb3b99b4cde3776c7", "is_reserved": 0, "fusion_lon": 0.0, "lat": 38.90469483333333, "is_disabled": 0, "name": "6b68f6854dc7f2dbb3b99b4cde3776c7", "fusion_lat": 0.0, "rental_uris": {"ios": "https://dc.lft.to/lastmile_qr_scan", "android": "https://dc.lft.to/lastmile_qr_scan"}, "lon": -77.06006033333334, "type": "electric_scooter"}, {"bike_id": "ef4006b7c16a74163dc04625a262c84f", "is_reserved": 0, "fusion_lon": 0.0, "lat": 38.90138616666667, "is_disabled": 0, "name": "ef4006b7c16a74163dc04625a262c84f", "fusion_lat": 0.0, "rental_uris": {"ios": "https://dc.lft.to/lastmile_qr_scan", "android": "https://dc.lft.to/lastmile_qr_scan"}, "lon": -76.997978, "type": "electric_scooter"}, {"bike_id": "71b7c8378c5396bbb2eb95e555206f07", "is_reserved": 0, "fusion_lon": 0.0, "lat": 38.922968, "is_disabled": 0, "name": "71b7c8378c5396bbb2eb95e555206f07", "fusion_lat": 0.0, "rental_uris": {"ios": "https://dc.lft.to/lastmile_qr_scan", "android": "https://dc.lft.to/lastmile_qr_scan"}, "lon": -77.04206366666666, "type": "electric_scooter"}, {"bike_id": "70bd13cfc877204905e1d2a83b3a74f7", "is_reserved": 0, "fusion_lon": 0.0, "lat": 38.9308545, "is_disabled": 0, "name": "70bd13cfc877204905e1d2a83b3a74f7", "fusion_lat": 0.0, "rental_uris": {"ios": "https://dc.lft.to/lastmile_qr_scan", "android": "https://dc.lft.to/lastmile_qr_scan"}, "lon": -76.96716283333333, "type": "electric_scooter"}, {"bike_id": "dee02fb492aaf680d9b36e640a557e59", "is_reserved": 0, "fusion_lon": 0.0, "lat": 38.904845, "is_disabled": 0, "name": "dee02fb492aaf680d9b36e640a557e59", "fusion_lat": 0.0, "rental_uris": {"ios": "https://dc.lft.to/lastmile_qr_scan", "android": "https://dc.lft.to/lastmile_qr_scan"}, "lon": -77.06009583333334, "type": "electric_scooter"}, {"bike_id": "ba46cdb1ded01fdc1390dddc371bfb10", "is_reserved": 0, "fusion_lon": 0.0, "lat": 38.90798316666667, "is_disabled": 0, "name": "ba46cdb1ded01fdc1390dddc371bfb10", "fusion_lat": 0.0, "rental_uris": {"ios": "https://dc.lft.to/lastmile_qr_scan", "android": "https://dc.lft.to/lastmile_qr_scan"}, "lon": -77.01108633333334, "type": "electric_scooter"}, {"bike_id": "e451705a4287dfeb51c6a15f2cae044b", "is_reserved": 0, "fusion_lon": 0.0, "lat": 38.91702733333333, "is_disabled": 0, "name": "e451705a4287dfeb51c6a15f2cae044b", "fusion_lat": 0.0, "rental_uris": {"ios": "https://dc.lft.to/lastmile_qr_scan", "android": "https://dc.lft.to/lastmile_qr_scan"}, "lon": -77.02892916666667, "type": "electric_scooter"}, {"bike_id": "8471e404fede3ea2218829a5fdbff0c8", "is_reserved": 0, "fusion_lon": 0.0, "lat": 38.924381333333336, "is_disabled": 0, "name": "8471e404fede3ea2218829a5fdbff0c8", "fusion_lat": 0.0, "rental_uris": {"ios": "https://dc.lft.to/lastmile_qr_scan", "android": "https://dc.lft.to/lastmile_qr_scan"}, "lon": -77.03377433333333, "type": "electric_scooter"}, {"bike_id": "de58288f0f664c56db241da0cae69cbc", "is_reserved": 0, "fusion_lon": 0.0, "lat": 38.895431333333335, "is_disabled": 0, "name": "de58288f0f664c56db241da0cae69cbc", "fusion_lat": 0.0, "rental_uris": {"ios": "https://dc.lft.to/lastmile_qr_scan", "android": "https://dc.lft.to/lastmile_qr_scan"}, "lon": -77.02958016666666, "type": "electric_scooter"}, {"bike_id": "15930cb71791ba76237e448cdb9613fd", "is_reserved": 0, "fusion_lon": 0.0, "lat": 38.897382, "is_disabled": 0, "name": "15930cb71791ba76237e448cdb9613fd", "fusion_lat": 0.0, "rental_uris": {"ios": "https://dc.lft.to/lastmile_qr_scan", "android": "https://dc.lft.to/lastmile_qr_scan"}, "lon": -76.9472145, "type": "electric_scooter"}, {"bike_id": "1a3feab2e6c7ef1066cf52541bc7731f", "is_reserved": 0, "fusion_lon": 0.0, "lat": 38.910062, "is_disabled": 0, "name": "1a3feab2e6c7ef1066cf52541bc7731f", "fusion_lat": 0.0, "rental_uris": {"ios": "https://dc.lft.to/lastmile_qr_scan", "android": "https://dc.lft.to/lastmile_qr_scan"}, "lon": -77.020959, "type": "electric_scooter"}, {"bike_id": "ce59d569c8faac0059e6ab3df2b7800b", "is_reserved": 0, "fusion_lon": 0.0, "lat": 38.87481316666667, "is_disabled": 0, "name": "ce59d569c8faac0059e6ab3df2b7800b", "fusion_lat": 0.0, "rental_uris": {"ios": "https://dc.lft.to/lastmile_qr_scan", "android": "https://dc.lft.to/lastmile_qr_scan"}, "lon": -76.965255, "type": "electric_bike"}, {"bike_id": "11d558d8835cf7d210dd6ddf5a5847e3", "is_reserved": 0, "fusion_lon": 0.0, "lat": 38.9238615, "is_disabled": 0, "name": "11d558d8835cf7d210dd6ddf5a5847e3", "fusion_lat": 0.0, "rental_uris": {"ios": "https://dc.lft.to/lastmile_qr_scan", "android": "https://dc.lft.to/lastmile_qr_scan"}, "lon": -77.035356, "type": "electric_scooter"}, {"bike_id": "f219fec9166389165c8e3fb7549a20da", "is_reserved": 0, "fusion_lon": 0.0, "lat": 38.901924666666666, "is_disabled": 0, "name": "f219fec9166389165c8e3fb7549a20da", "fusion_lat": 0.0, "rental_uris": {"ios": "https://dc.lft.to/lastmile_qr_scan", "android": "https://dc.lft.to/lastmile_qr_scan"}, "lon": -77.039531, "type": "electric_scooter"}, {"bike_id": "407ffc580113639cdbac455c25240fc1", "is_reserved": 0, "fusion_lon": 0.0, "lat": 38.9592955, "is_disabled": 0, "name": "407ffc580113639cdbac455c25240fc1", "fusion_lat": 0.0, "rental_uris": {"ios": "https://dc.lft.to/lastmile_qr_scan", "android": "https://dc.lft.to/lastmile_qr_scan"}, "lon": -77.03127033333334, "type": "electric_bike"}, {"bike_id": "be476474ee36dea54be8789946726d5d", "is_reserved": 0, "fusion_lon": 0.0, "lat": 38.96475616666667, "is_disabled": 0, "name": "be476474ee36dea54be8789946726d5d", "fusion_lat": 0.0, "rental_uris": {"ios": "https://dc.lft.to/lastmile_qr_scan", "android": "https://dc.lft.to/lastmile_qr_scan"}, "lon": -77.03564316666667, "type": "electric_bike"}, {"bike_id": "1090e0b637f5c0703d6d0bb480f8d51c", "is_reserved": 0, "fusion_lon": 0.0, "lat": 38.9170365, "is_disabled": 0, "name": "1090e0b637f5c0703d6d0bb480f8d51c", "fusion_lat": 0.0, "rental_uris": {"ios": "https://dc.lft.to/lastmile_qr_scan", "android": "https://dc.lft.to/lastmile_qr_scan"}, "lon": -77.03485666666667, "type": "electric_scooter"}, {"bike_id": "fa1aae7a32dd57c2b3d1ab06099ef5e3", "is_reserved": 0, "fusion_lon": 0.0, "lat": 38.90395483333333, "is_disabled": 0, "name": "fa1aae7a32dd57c2b3d1ab06099ef5e3", "fusion_lat": 0.0, "rental_uris": {"ios": "https://dc.lft.to/lastmile_qr_scan", "android": "https://dc.lft.to/lastmile_qr_scan"}, "lon": -77.0399085, "type": "electric_scooter"}, {"bike_id": "2d87b121cdfec9728f25750f4328fe33", "is_reserved": 0, "fusion_lon": 0.0, "lat": 38.90414233333333, "is_disabled": 0, "name": "2d87b121cdfec9728f25750f4328fe33", "fusion_lat": 0.0, "rental_uris": {"ios": "https://dc.lft.to/lastmile_qr_scan", "android": "https://dc.lft.to/lastmile_qr_scan"}, "lon": -77.04653766666667, "type": "electric_scooter"}, {"bike_id": "8766cc5e9ae230383e8fb3b7facdc47d", "is_reserved": 0, "fusion_lon": 0.0, "lat": 38.891991833333336, "is_disabled": 0, "name": "8766cc5e9ae230383e8fb3b7facdc47d", "fusion_lat": 0.0, "rental_uris": {"ios": "https://dc.lft.to/lastmile_qr_scan", "android": "https://dc.lft.to/lastmile_qr_scan"}, "lon": -77.02382016666667, "type": "electric_scooter"}, {"bike_id": "c181036f18206e0f8fd3da9acc761688", "is_reserved": 0, "fusion_lon": 0.0, "lat": 38.94014283333333, "is_disabled": 0, "name": "c181036f18206e0f8fd3da9acc761688", "fusion_lat": 0.0, "rental_uris": {"ios": "https://dc.lft.to/lastmile_qr_scan", "android": "https://dc.lft.to/lastmile_qr_scan"}, "lon": -77.07158983333333, "type": "electric_scooter"}, {"bike_id": "42998363bfa0e5534f6c35b1c8e01dfa", "is_reserved": 0, "fusion_lon": 0.0, "lat": 38.90482883333333, "is_disabled": 0, "name": "42998363bfa0e5534f6c35b1c8e01dfa", "fusion_lat": 0.0, "rental_uris": {"ios": "https://dc.lft.to/lastmile_qr_scan", "android": "https://dc.lft.to/lastmile_qr_scan"}, "lon": -77.05999016666667, "type": "electric_scooter"}, {"bike_id": "2e34592c01dfb4640e7c19b3f795b648", "is_reserved": 0, "fusion_lon": 0.0, "lat": 38.899082, "is_disabled": 0, "name": "2e34592c01dfb4640e7c19b3f795b648", "fusion_lat": 0.0, "rental_uris": {"ios": "https://dc.lft.to/lastmile_qr_scan", "android": "https://dc.lft.to/lastmile_qr_scan"}, "lon": -76.9335015, "type": "electric_scooter"}, {"bike_id": "17d252667c72f0e78127f6b43316fd97", "is_reserved": 0, "fusion_lon": 0.0, "lat": 38.87501616666667, "is_disabled": 0, "name": "17d252667c72f0e78127f6b43316fd97", "fusion_lat": 0.0, "rental_uris": {"ios": "https://dc.lft.to/lastmile_qr_scan", "android": "https://dc.lft.to/lastmile_qr_scan"}, "lon": -76.9980235, "type": "electric_scooter"}, {"bike_id": "888ae82e178b6726dea0ac4342f73337", "is_reserved": 0, "fusion_lon": 0.0, "lat": 38.8581425, "is_disabled": 0, "name": "888ae82e178b6726dea0ac4342f73337", "fusion_lat": 0.0, "rental_uris": {"ios": "https://dc.lft.to/lastmile_qr_scan", "android": "https://dc.lft.to/lastmile_qr_scan"}, "lon": -76.9899645, "type": "electric_scooter"}, {"bike_id": "6c6f4ec0132e72b7b2b9fe0adfdc57a8", "is_reserved": 0, "fusion_lon": 0.0, "lat": 38.885195333333336, "is_disabled": 0, "name": "6c6f4ec0132e72b7b2b9fe0adfdc57a8", "fusion_lat": 0.0, "rental_uris": {"ios": "https://dc.lft.to/lastmile_qr_scan", "android": "https://dc.lft.to/lastmile_qr_scan"}, "lon": -77.033467, "type": "electric_scooter"}, {"bike_id": "5efc49405c9baf58af57948bf8273a71", "is_reserved": 0, "fusion_lon": 0.0, "lat": 38.90390266666667, "is_disabled": 0, "name": "5efc49405c9baf58af57948bf8273a71", "fusion_lat": 0.0, "rental_uris": {"ios": "https://dc.lft.to/lastmile_qr_scan", "android": "https://dc.lft.to/lastmile_qr_scan"}, "lon": -77.04213333333334, "type": "electric_scooter"}, {"bike_id": "28966c27b2e667e2477eeae8cff1c74d", "is_reserved": 0, "fusion_lon": 0.0, "lat": 38.904079833333334, "is_disabled": 0, "name": "28966c27b2e667e2477eeae8cff1c74d", "fusion_lat": 0.0, "rental_uris": {"ios": "https://dc.lft.to/lastmile_qr_scan", "android": "https://dc.lft.to/lastmile_qr_scan"}, "lon": -77.04515283333333, "type": "electric_scooter"}, {"bike_id": "9e773b409156fe945d810636c9ed4058", "is_reserved": 0, "fusion_lon": 0.0, "lat": 38.910674666666665, "is_disabled": 0, "name": "9e773b409156fe945d810636c9ed4058", "fusion_lat": 0.0, "rental_uris": {"ios": "https://dc.lft.to/lastmile_qr_scan", "android": "https://dc.lft.to/lastmile_qr_scan"}, "lon": -77.03662833333334, "type": "electric_scooter"}, {"bike_id": "2b8f47fcd44448545562405f57ab3239", "is_reserved": 0, "fusion_lon": 0.0, "lat": 38.903872166666666, "is_disabled": 0, "name": "2b8f47fcd44448545562405f57ab3239", "fusion_lat": 0.0, "rental_uris": {"ios": "https://dc.lft.to/lastmile_qr_scan", "android": "https://dc.lft.to/lastmile_qr_scan"}, "lon": -77.04025683333333, "type": "electric_scooter"}, {"bike_id": "885d7d2c95922ec787648cf74fd704d6", "is_reserved": 0, "fusion_lon": 0.0, "lat": 38.905561, "is_disabled": 0, "name": "885d7d2c95922ec787648cf74fd704d6", "fusion_lat": 0.0, "rental_uris": {"ios": "https://dc.lft.to/lastmile_qr_scan", "android": "https://dc.lft.to/lastmile_qr_scan"}, "lon": -77.0029765, "type": "electric_scooter"}, {"bike_id": "11b81db917cc43e947370fd3f329e986", "is_reserved": 0, "fusion_lon": 0.0, "lat": 38.92878616666667, "is_disabled": 0, "name": "11b81db917cc43e947370fd3f329e986", "fusion_lat": 0.0, "rental_uris": {"ios": "https://dc.lft.to/lastmile_qr_scan", "android": "https://dc.lft.to/lastmile_qr_scan"}, "lon": -77.04051683333333, "type": "electric_scooter"}, {"bike_id": "9c96b4f57cbfcba9399506b3f6293e82", "is_reserved": 0, "fusion_lon": 0.0, "lat": 38.880453833333334, "is_disabled": 0, "name": "9c96b4f57cbfcba9399506b3f6293e82", "fusion_lat": 0.0, "rental_uris": {"ios": "https://dc.lft.to/lastmile_qr_scan", "android": "https://dc.lft.to/lastmile_qr_scan"}, "lon": -77.01936666666667, "type": "electric_scooter"}, {"bike_id": "df8abadd4e6ef2ac4d5eafc96fddd9ce", "is_reserved": 0, "fusion_lon": 0.0, "lat": 38.9002085, "is_disabled": 0, "name": "df8abadd4e6ef2ac4d5eafc96fddd9ce", "fusion_lat": 0.0, "rental_uris": {"ios": "https://dc.lft.to/lastmile_qr_scan", "android": "https://dc.lft.to/lastmile_qr_scan"}, "lon": -76.9977555, "type": "electric_scooter"}, {"bike_id": "700c74db72b24be2203d959305297b0d", "is_reserved": 0, "fusion_lon": 0.0, "lat": 38.936726166666666, "is_disabled": 0, "name": "700c74db72b24be2203d959305297b0d", "fusion_lat": 0.0, "rental_uris": {"ios": "https://dc.lft.to/lastmile_qr_scan", "android": "https://dc.lft.to/lastmile_qr_scan"}, "lon": -76.95227983333334, "type": "electric_bike"}, {"bike_id": "da13c3ebefea68f717e435eb38e84b42", "is_reserved": 0, "fusion_lon": 0.0, "lat": 38.904586, "is_disabled": 0, "name": "da13c3ebefea68f717e435eb38e84b42", "fusion_lat": 0.0, "rental_uris": {"ios": "https://dc.lft.to/lastmile_qr_scan", "android": "https://dc.lft.to/lastmile_qr_scan"}, "lon": -77.053339, "type": "electric_scooter"}, {"bike_id": "9a0edc2cc8f1872ea43c2ecc5abc9353", "is_reserved": 0, "fusion_lon": 0.0, "lat": 38.934947, "is_disabled": 0, "name": "9a0edc2cc8f1872ea43c2ecc5abc9353", "fusion_lat": 0.0, "rental_uris": {"ios": "https://dc.lft.to/lastmile_qr_scan", "android": "https://dc.lft.to/lastmile_qr_scan"}, "lon": -77.058022, "type": "electric_scooter"}, {"bike_id": "5198304330e6d3ef9982f8c752006f7f", "is_reserved": 0, "fusion_lon": 0.0, "lat": 38.89618866666667, "is_disabled": 0, "name": "5198304330e6d3ef9982f8c752006f7f", "fusion_lat": 0.0, "rental_uris": {"ios": "https://dc.lft.to/lastmile_qr_scan", "android": "https://dc.lft.to/lastmile_qr_scan"}, "lon": -77.0026475, "type": "electric_scooter"}, {"bike_id": "d765dacaf7c53faca6436bd5c29cd5f5", "is_reserved": 0, "fusion_lon": 0.0, "lat": 38.898294166666666, "is_disabled": 0, "name": "d765dacaf7c53faca6436bd5c29cd5f5", "fusion_lat": 0.0, "rental_uris": {"ios": "https://dc.lft.to/lastmile_qr_scan", "android": "https://dc.lft.to/lastmile_qr_scan"}, "lon": -76.980367, "type": "electric_scooter"}, {"bike_id": "e1fd0273136a670e462c9220f9734cb3", "is_reserved": 0, "fusion_lon": 0.0, "lat": 38.923086833333336, "is_disabled": 0, "name": "e1fd0273136a670e462c9220f9734cb3", "fusion_lat": 0.0, "rental_uris": {"ios": "https://dc.lft.to/lastmile_qr_scan", "android": "https://dc.lft.to/lastmile_qr_scan"}, "lon": -77.02118983333334, "type": "electric_scooter"}, {"bike_id": "9d2b7fd28afea113ec1d9706531bf364", "is_reserved": 0, "fusion_lon": 0.0, "lat": 38.91550316666667, "is_disabled": 0, "name": "9d2b7fd28afea113ec1d9706531bf364", "fusion_lat": 0.0, "rental_uris": {"ios": "https://dc.lft.to/lastmile_qr_scan", "android": "https://dc.lft.to/lastmile_qr_scan"}, "lon": -77.035166, "type": "electric_scooter"}, {"bike_id": "6bd1a204c67a3daa73a5b2c1583fece5", "is_reserved": 0, "fusion_lon": 0.0, "lat": 38.933454166666664, "is_disabled": 0, "name": "6bd1a204c67a3daa73a5b2c1583fece5", "fusion_lat": 0.0, "rental_uris": {"ios": "https://dc.lft.to/lastmile_qr_scan", "android": "https://dc.lft.to/lastmile_qr_scan"}, "lon": -77.0571135, "type": "electric_scooter"}, {"bike_id": "cf68b9805637a85f0b2e061b12d47b66", "is_reserved": 0, "fusion_lon": 0.0, "lat": 38.93001066666667, "is_disabled": 0, "name": "cf68b9805637a85f0b2e061b12d47b66", "fusion_lat": 0.0, "rental_uris": {"ios": "https://dc.lft.to/lastmile_qr_scan", "android": "https://dc.lft.to/lastmile_qr_scan"}, "lon": -77.03790483333333, "type": "electric_scooter"}, {"bike_id": "0b40a3963d18fc8234a4cfe6084bf0b0", "is_reserved": 0, "fusion_lon": 0.0, "lat": 38.901475, "is_disabled": 0, "name": "0b40a3963d18fc8234a4cfe6084bf0b0", "fusion_lat": 0.0, "rental_uris": {"ios": "https://dc.lft.to/lastmile_qr_scan", "android": "https://dc.lft.to/lastmile_qr_scan"}, "lon": -77.03324483333333, "type": "electric_scooter"}, {"bike_id": "7fc1cf8bac76c7bf08e6fbbc0736affb", "is_reserved": 0, "fusion_lon": 0.0, "lat": 38.88706766666667, "is_disabled": 0, "name": "7fc1cf8bac76c7bf08e6fbbc0736affb", "fusion_lat": 0.0, "rental_uris": {"ios": "https://dc.lft.to/lastmile_qr_scan", "android": "https://dc.lft.to/lastmile_qr_scan"}, "lon": -77.00152316666667, "type": "electric_scooter"}, {"bike_id": "d35608e7ac11117666348c32d92ef263", "is_reserved": 0, "fusion_lon": 0.0, "lat": 39.03050316666667, "is_disabled": 0, "name": "d35608e7ac11117666348c32d92ef263", "fusion_lat": 0.0, "rental_uris": {"ios": "https://dc.lft.to/lastmile_qr_scan", "android": "https://dc.lft.to/lastmile_qr_scan"}, "lon": -77.0948445, "type": "electric_bike"}, {"bike_id": "1f7574965045e7a7d638114d2486166a", "is_reserved": 0, "fusion_lon": 0.0, "lat": 38.917769666666665, "is_disabled": 0, "name": "1f7574965045e7a7d638114d2486166a", "fusion_lat": 0.0, "rental_uris": {"ios": "https://dc.lft.to/lastmile_qr_scan", "android": "https://dc.lft.to/lastmile_qr_scan"}, "lon": -76.973347, "type": "electric_scooter"}, {"bike_id": "f472db5982337985928694e84e964389", "is_reserved": 0, "fusion_lon": 0.0, "lat": 38.892305666666665, "is_disabled": 0, "name": "f472db5982337985928694e84e964389", "fusion_lat": 0.0, "rental_uris": {"ios": "https://dc.lft.to/lastmile_qr_scan", "android": "https://dc.lft.to/lastmile_qr_scan"}, "lon": -77.00305683333333, "type": "electric_scooter"}, {"bike_id": "87fd4372fb7ffa305dac524967b06fd3", "is_reserved": 0, "fusion_lon": 0.0, "lat": 38.905217, "is_disabled": 0, "name": "87fd4372fb7ffa305dac524967b06fd3", "fusion_lat": 0.0, "rental_uris": {"ios": "https://dc.lft.to/lastmile_qr_scan", "android": "https://dc.lft.to/lastmile_qr_scan"}, "lon": -77.0653585, "type": "electric_scooter"}, {"bike_id": "9f1b9f4458154e55b7ba360a9642ac66", "is_reserved": 0, "fusion_lon": 0.0, "lat": 38.90833333333333, "is_disabled": 0, "name": "9f1b9f4458154e55b7ba360a9642ac66", "fusion_lat": 0.0, "rental_uris": {"ios": "https://dc.lft.to/lastmile_qr_scan", "android": "https://dc.lft.to/lastmile_qr_scan"}, "lon": -76.99689866666667, "type": "electric_scooter"}, {"bike_id": "d11ff5a6d21bcc8a818445310d32cb8d", "is_reserved": 0, "fusion_lon": 0.0, "lat": 38.889662333333334, "is_disabled": 0, "name": "d11ff5a6d21bcc8a818445310d32cb8d", "fusion_lat": 0.0, "rental_uris": {"ios": "https://dc.lft.to/lastmile_qr_scan", "android": "https://dc.lft.to/lastmile_qr_scan"}, "lon": -76.980341, "type": "electric_scooter"}, {"bike_id": "b746eb552e6e0b9c2729648131856eb8", "is_reserved": 0, "fusion_lon": 0.0, "lat": 38.8987705, "is_disabled": 0, "name": "b746eb552e6e0b9c2729648131856eb8", "fusion_lat": 0.0, "rental_uris": {"ios": "https://dc.lft.to/lastmile_qr_scan", "android": "https://dc.lft.to/lastmile_qr_scan"}, "lon": -76.9316065, "type": "electric_scooter"}, {"bike_id": "83809abc0f11cffd5184befc21465a14", "is_reserved": 0, "fusion_lon": 0.0, "lat": 38.928964, "is_disabled": 0, "name": "83809abc0f11cffd5184befc21465a14", "fusion_lat": 0.0, "rental_uris": {"ios": "https://dc.lft.to/lastmile_qr_scan", "android": "https://dc.lft.to/lastmile_qr_scan"}, "lon": -77.05458116666667, "type": "electric_scooter"}, {"bike_id": "5391448ec5bb47b8042efbfeabb38595", "is_reserved": 0, "fusion_lon": 0.0, "lat": 38.90687666666667, "is_disabled": 0, "name": "5391448ec5bb47b8042efbfeabb38595", "fusion_lat": 0.0, "rental_uris": {"ios": "https://dc.lft.to/lastmile_qr_scan", "android": "https://dc.lft.to/lastmile_qr_scan"}, "lon": -77.06275483333333, "type": "electric_bike"}, {"bike_id": "5e55c3162ad10e7651645955ed690d71", "is_reserved": 0, "fusion_lon": 0.0, "lat": 38.90866783333333, "is_disabled": 0, "name": "5e55c3162ad10e7651645955ed690d71", "fusion_lat": 0.0, "rental_uris": {"ios": "https://dc.lft.to/lastmile_qr_scan", "android": "https://dc.lft.to/lastmile_qr_scan"}, "lon": -77.04501016666667, "type": "electric_scooter"}, {"bike_id": "b40992d4eed5dcb0ec423490ce61bc7b", "is_reserved": 0, "fusion_lon": 0.0, "lat": 38.92149083333334, "is_disabled": 0, "name": "b40992d4eed5dcb0ec423490ce61bc7b", "fusion_lat": 0.0, "rental_uris": {"ios": "https://dc.lft.to/lastmile_qr_scan", "android": "https://dc.lft.to/lastmile_qr_scan"}, "lon": -77.03492283333334, "type": "electric_scooter"}, {"bike_id": "3ce56e22f54ca387419c5ac6d336d8c8", "is_reserved": 0, "fusion_lon": 0.0, "lat": 38.89221883333333, "is_disabled": 0, "name": "3ce56e22f54ca387419c5ac6d336d8c8", "fusion_lat": 0.0, "rental_uris": {"ios": "https://dc.lft.to/lastmile_qr_scan", "android": "https://dc.lft.to/lastmile_qr_scan"}, "lon": -77.04361016666667, "type": "electric_scooter"}, {"bike_id": "8b2a117e002d961346d0264e3fd903cf", "is_reserved": 0, "fusion_lon": 0.0, "lat": 38.91017016666667, "is_disabled": 0, "name": "8b2a117e002d961346d0264e3fd903cf", "fusion_lat": 0.0, "rental_uris": {"ios": "https://dc.lft.to/lastmile_qr_scan", "android": "https://dc.lft.to/lastmile_qr_scan"}, "lon": -77.03419983333333, "type": "electric_scooter"}, {"bike_id": "6a8330d7e3dcbb2af9463f699b4d4f03", "is_reserved": 0, "fusion_lon": 0.0, "lat": 38.9038285, "is_disabled": 0, "name": "6a8330d7e3dcbb2af9463f699b4d4f03", "fusion_lat": 0.0, "rental_uris": {"ios": "https://dc.lft.to/lastmile_qr_scan", "android": "https://dc.lft.to/lastmile_qr_scan"}, "lon": -77.01097616666667, "type": "electric_scooter"}, {"bike_id": "86937454378770c4cf8671ae7c52a151", "is_reserved": 0, "fusion_lon": 0.0, "lat": 38.898524333333334, "is_disabled": 0, "name": "86937454378770c4cf8671ae7c52a151", "fusion_lat": 0.0, "rental_uris": {"ios": "https://dc.lft.to/lastmile_qr_scan", "android": "https://dc.lft.to/lastmile_qr_scan"}, "lon": -77.00750883333333, "type": "electric_scooter"}, {"bike_id": "3efe9b0314798886afcd482617bd3db9", "is_reserved": 0, "fusion_lon": 0.0, "lat": 38.9034095, "is_disabled": 0, "name": "3efe9b0314798886afcd482617bd3db9", "fusion_lat": 0.0, "rental_uris": {"ios": "https://dc.lft.to/lastmile_qr_scan", "android": "https://dc.lft.to/lastmile_qr_scan"}, "lon": -77.066518, "type": "electric_scooter"}, {"bike_id": "d6c098c934ffd09869eb832a882afd6f", "is_reserved": 0, "fusion_lon": 0.0, "lat": 38.94169, "is_disabled": 0, "name": "d6c098c934ffd09869eb832a882afd6f", "fusion_lat": 0.0, "rental_uris": {"ios": "https://dc.lft.to/lastmile_qr_scan", "android": "https://dc.lft.to/lastmile_qr_scan"}, "lon": -77.04129633333334, "type": "electric_scooter"}, {"bike_id": "9c720ca96db7fdf7a92448a3117ebe2e", "is_reserved": 0, "fusion_lon": 0.0, "lat": 38.95783, "is_disabled": 0, "name": "9c720ca96db7fdf7a92448a3117ebe2e", "fusion_lat": 0.0, "rental_uris": {"ios": "https://dc.lft.to/lastmile_qr_scan", "android": "https://dc.lft.to/lastmile_qr_scan"}, "lon": -76.9767085, "type": "electric_bike"}, {"bike_id": "c7d840e9b352ab3fbf54373c71a241e9", "is_reserved": 0, "fusion_lon": 0.0, "lat": 38.8638855, "is_disabled": 0, "name": "c7d840e9b352ab3fbf54373c71a241e9", "fusion_lat": 0.0, "rental_uris": {"ios": "https://dc.lft.to/lastmile_qr_scan", "android": "https://dc.lft.to/lastmile_qr_scan"}, "lon": -76.98990733333333, "type": "electric_bike"}, {"bike_id": "71295440f54ef91f5d53281dfea18e2f", "is_reserved": 0, "fusion_lon": 0.0, "lat": 38.898337166666664, "is_disabled": 0, "name": "71295440f54ef91f5d53281dfea18e2f", "fusion_lat": 0.0, "rental_uris": {"ios": "https://dc.lft.to/lastmile_qr_scan", "android": "https://dc.lft.to/lastmile_qr_scan"}, "lon": -77.00753433333334, "type": "electric_scooter"}, {"bike_id": "06c3678001e8092c8dfcdec00bd9d031", "is_reserved": 0, "fusion_lon": 0.0, "lat": 38.9371465, "is_disabled": 0, "name": "06c3678001e8092c8dfcdec00bd9d031", "fusion_lat": 0.0, "rental_uris": {"ios": "https://dc.lft.to/lastmile_qr_scan", "android": "https://dc.lft.to/lastmile_qr_scan"}, "lon": -77.02936766666667, "type": "electric_scooter"}, {"bike_id": "bd59f0a349350f972713f47a1610bf5a", "is_reserved": 0, "fusion_lon": 0.0, "lat": 38.919149166666664, "is_disabled": 0, "name": "bd59f0a349350f972713f47a1610bf5a", "fusion_lat": 0.0, "rental_uris": {"ios": "https://dc.lft.to/lastmile_qr_scan", "android": "https://dc.lft.to/lastmile_qr_scan"}, "lon": -77.03202933333333, "type": "electric_scooter"}, {"bike_id": "815abfb241948c69fbe572f7206170b5", "is_reserved": 0, "fusion_lon": 0.0, "lat": 38.9286205, "is_disabled": 0, "name": "815abfb241948c69fbe572f7206170b5", "fusion_lat": 0.0, "rental_uris": {"ios": "https://dc.lft.to/lastmile_qr_scan", "android": "https://dc.lft.to/lastmile_qr_scan"}, "lon": -77.01406233333333, "type": "electric_scooter"}, {"bike_id": "0221c2e506e6b0e749ecf791bac85bc9", "is_reserved": 0, "fusion_lon": 0.0, "lat": 38.904575333333334, "is_disabled": 0, "name": "0221c2e506e6b0e749ecf791bac85bc9", "fusion_lat": 0.0, "rental_uris": {"ios": "https://dc.lft.to/lastmile_qr_scan", "android": "https://dc.lft.to/lastmile_qr_scan"}, "lon": -77.0402975, "type": "electric_scooter"}, {"bike_id": "36bc63f88e374f522328a0bcf545b9c9", "is_reserved": 0, "fusion_lon": 0.0, "lat": 38.902484, "is_disabled": 0, "name": "36bc63f88e374f522328a0bcf545b9c9", "fusion_lat": 0.0, "rental_uris": {"ios": "https://dc.lft.to/lastmile_qr_scan", "android": "https://dc.lft.to/lastmile_qr_scan"}, "lon": -77.00718483333333, "type": "electric_scooter"}, {"bike_id": "3572c5aaf42304519766fc5f4d6ffc56", "is_reserved": 0, "fusion_lon": 0.0, "lat": 38.950845, "is_disabled": 0, "name": "3572c5aaf42304519766fc5f4d6ffc56", "fusion_lat": 0.0, "rental_uris": {"ios": "https://dc.lft.to/lastmile_qr_scan", "android": "https://dc.lft.to/lastmile_qr_scan"}, "lon": -77.01236966666667, "type": "electric_bike"}, {"bike_id": "e5021d486f18714d462568466064ee6f", "is_reserved": 0, "fusion_lon": 0.0, "lat": 38.894116833333335, "is_disabled": 0, "name": "e5021d486f18714d462568466064ee6f", "fusion_lat": 0.0, "rental_uris": {"ios": "https://dc.lft.to/lastmile_qr_scan", "android": "https://dc.lft.to/lastmile_qr_scan"}, "lon": -77.02262, "type": "electric_scooter"}, {"bike_id": "e10abbe678a329ce427f779264e2b4ea", "is_reserved": 0, "fusion_lon": 0.0, "lat": 38.939653666666665, "is_disabled": 0, "name": "e10abbe678a329ce427f779264e2b4ea", "fusion_lat": 0.0, "rental_uris": {"ios": "https://dc.lft.to/lastmile_qr_scan", "android": "https://dc.lft.to/lastmile_qr_scan"}, "lon": -77.03252933333333, "type": "electric_scooter"}, {"bike_id": "55d14bf1f5bd6d81853632bbaa3eba0f", "is_reserved": 0, "fusion_lon": 0.0, "lat": 38.924840833333334, "is_disabled": 0, "name": "55d14bf1f5bd6d81853632bbaa3eba0f", "fusion_lat": 0.0, "rental_uris": {"ios": "https://dc.lft.to/lastmile_qr_scan", "android": "https://dc.lft.to/lastmile_qr_scan"}, "lon": -77.02654983333333, "type": "electric_scooter"}, {"bike_id": "e4075f229b5f91e3a3c8ddc0b0c4cdf6", "is_reserved": 0, "fusion_lon": 0.0, "lat": 38.88513433333333, "is_disabled": 0, "name": "e4075f229b5f91e3a3c8ddc0b0c4cdf6", "fusion_lat": 0.0, "rental_uris": {"ios": "https://dc.lft.to/lastmile_qr_scan", "android": "https://dc.lft.to/lastmile_qr_scan"}, "lon": -77.0057255, "type": "electric_scooter"}, {"bike_id": "c1415c873778aea3b06d62293433fe13", "is_reserved": 0, "fusion_lon": 0.0, "lat": 38.83728416666667, "is_disabled": 0, "name": "c1415c873778aea3b06d62293433fe13", "fusion_lat": 0.0, "rental_uris": {"ios": "https://dc.lft.to/lastmile_qr_scan", "android": "https://dc.lft.to/lastmile_qr_scan"}, "lon": -76.99778583333334, "type": "electric_bike"}, {"bike_id": "d2597d99a1dcfa37ebaa729241ce2b3e", "is_reserved": 0, "fusion_lon": 0.0, "lat": 38.88993216666667, "is_disabled": 0, "name": "d2597d99a1dcfa37ebaa729241ce2b3e", "fusion_lat": 0.0, "rental_uris": {"ios": "https://dc.lft.to/lastmile_qr_scan", "android": "https://dc.lft.to/lastmile_qr_scan"}, "lon": -76.938466, "type": "electric_scooter"}, {"bike_id": "3dc4a519d1a5a946fc10236668e6c67a", "is_reserved": 0, "fusion_lon": 0.0, "lat": 38.85519566666667, "is_disabled": 0, "name": "3dc4a519d1a5a946fc10236668e6c67a", "fusion_lat": 0.0, "rental_uris": {"ios": "https://dc.lft.to/lastmile_qr_scan", "android": "https://dc.lft.to/lastmile_qr_scan"}, "lon": -76.98435216666667, "type": "electric_bike"}, {"bike_id": "0805798b48fb023ddee2dfa31ab2a158", "is_reserved": 0, "fusion_lon": 0.0, "lat": 38.93430583333333, "is_disabled": 0, "name": "0805798b48fb023ddee2dfa31ab2a158", "fusion_lat": 0.0, "rental_uris": {"ios": "https://dc.lft.to/lastmile_qr_scan", "android": "https://dc.lft.to/lastmile_qr_scan"}, "lon": -77.03992316666667, "type": "electric_scooter"}, {"bike_id": "59208c5840d1cf01bce72ab9e71b79d4", "is_reserved": 0, "fusion_lon": 0.0, "lat": 38.91384883333333, "is_disabled": 0, "name": "59208c5840d1cf01bce72ab9e71b79d4", "fusion_lat": 0.0, "rental_uris": {"ios": "https://dc.lft.to/lastmile_qr_scan", "android": "https://dc.lft.to/lastmile_qr_scan"}, "lon": -77.017025, "type": "electric_scooter"}, {"bike_id": "ae90c6d8e8c0b743b385ac71f6a06fc2", "is_reserved": 0, "fusion_lon": 0.0, "lat": 38.884972833333336, "is_disabled": 0, "name": "ae90c6d8e8c0b743b385ac71f6a06fc2", "fusion_lat": 0.0, "rental_uris": {"ios": "https://dc.lft.to/lastmile_qr_scan", "android": "https://dc.lft.to/lastmile_qr_scan"}, "lon": -77.0034685, "type": "electric_scooter"}, {"bike_id": "6c37ac3dd6b371ac6e2fe023dca8c212", "is_reserved": 0, "fusion_lon": 0.0, "lat": 38.90202766666667, "is_disabled": 0, "name": "6c37ac3dd6b371ac6e2fe023dca8c212", "fusion_lat": 0.0, "rental_uris": {"ios": "https://dc.lft.to/lastmile_qr_scan", "android": "https://dc.lft.to/lastmile_qr_scan"}, "lon": -77.0056445, "type": "electric_scooter"}, {"bike_id": "cf36188cddcb0c21f463a1caf73f52b9", "is_reserved": 0, "fusion_lon": 0.0, "lat": 38.95086366666666, "is_disabled": 0, "name": "cf36188cddcb0c21f463a1caf73f52b9", "fusion_lat": 0.0, "rental_uris": {"ios": "https://dc.lft.to/lastmile_qr_scan", "android": "https://dc.lft.to/lastmile_qr_scan"}, "lon": -77.0282965, "type": "electric_scooter"}, {"bike_id": "df5e035dd29bdf67f0c9236a1788aea0", "is_reserved": 0, "fusion_lon": 0.0, "lat": 38.89840083333333, "is_disabled": 0, "name": "df5e035dd29bdf67f0c9236a1788aea0", "fusion_lat": 0.0, "rental_uris": {"ios": "https://dc.lft.to/lastmile_qr_scan", "android": "https://dc.lft.to/lastmile_qr_scan"}, "lon": -77.03345716666666, "type": "electric_scooter"}, {"bike_id": "9c5b702171bda700b11c27e8c0aff7a8", "is_reserved": 0, "fusion_lon": 0.0, "lat": 38.918261333333334, "is_disabled": 0, "name": "9c5b702171bda700b11c27e8c0aff7a8", "fusion_lat": 0.0, "rental_uris": {"ios": "https://dc.lft.to/lastmile_qr_scan", "android": "https://dc.lft.to/lastmile_qr_scan"}, "lon": -77.03525416666666, "type": "electric_scooter"}, {"bike_id": "c7f3b76884a6996e3da249c39c438d69", "is_reserved": 0, "fusion_lon": 0.0, "lat": 38.9409085, "is_disabled": 0, "name": "c7f3b76884a6996e3da249c39c438d69", "fusion_lat": 0.0, "rental_uris": {"ios": "https://dc.lft.to/lastmile_qr_scan", "android": "https://dc.lft.to/lastmile_qr_scan"}, "lon": -77.02720183333334, "type": "electric_scooter"}, {"bike_id": "6c2211a13ce91c3c3c7d74037c82b651", "is_reserved": 0, "fusion_lon": 0.0, "lat": 38.92190083333333, "is_disabled": 0, "name": "6c2211a13ce91c3c3c7d74037c82b651", "fusion_lat": 0.0, "rental_uris": {"ios": "https://dc.lft.to/lastmile_qr_scan", "android": "https://dc.lft.to/lastmile_qr_scan"}, "lon": -77.04231816666666, "type": "electric_scooter"}, {"bike_id": "1630dfb36c4620be993a5f9cf995ee99", "is_reserved": 0, "fusion_lon": 0.0, "lat": 38.820874, "is_disabled": 0, "name": "1630dfb36c4620be993a5f9cf995ee99", "fusion_lat": 0.0, "rental_uris": {"ios": "https://dc.lft.to/lastmile_qr_scan", "android": "https://dc.lft.to/lastmile_qr_scan"}, "lon": -77.0536665, "type": "electric_bike"}, {"bike_id": "4e49579937e37831ee445c714f8736b8", "is_reserved": 0, "fusion_lon": 0.0, "lat": 38.90919616666667, "is_disabled": 0, "name": "4e49579937e37831ee445c714f8736b8", "fusion_lat": 0.0, "rental_uris": {"ios": "https://dc.lft.to/lastmile_qr_scan", "android": "https://dc.lft.to/lastmile_qr_scan"}, "lon": -77.03140116666667, "type": "electric_scooter"}, {"bike_id": "3c4a845f2c9203286ec373a0af6b5af0", "is_reserved": 0, "fusion_lon": 0.0, "lat": 38.93537233333333, "is_disabled": 0, "name": "3c4a845f2c9203286ec373a0af6b5af0", "fusion_lat": 0.0, "rental_uris": {"ios": "https://dc.lft.to/lastmile_qr_scan", "android": "https://dc.lft.to/lastmile_qr_scan"}, "lon": -77.023574, "type": "electric_scooter"}, {"bike_id": "8ff333d0d450b9fafb3fd851c879573f", "is_reserved": 0, "fusion_lon": 0.0, "lat": 38.89639233333333, "is_disabled": 0, "name": "8ff333d0d450b9fafb3fd851c879573f", "fusion_lat": 0.0, "rental_uris": {"ios": "https://dc.lft.to/lastmile_qr_scan", "android": "https://dc.lft.to/lastmile_qr_scan"}, "lon": -77.04322283333333, "type": "electric_scooter"}, {"bike_id": "ea3095a98822c9ca6cc21df9d606336f", "is_reserved": 0, "fusion_lon": 0.0, "lat": 38.921823833333335, "is_disabled": 0, "name": "ea3095a98822c9ca6cc21df9d606336f", "fusion_lat": 0.0, "rental_uris": {"ios": "https://dc.lft.to/lastmile_qr_scan", "android": "https://dc.lft.to/lastmile_qr_scan"}, "lon": -77.04278133333334, "type": "electric_scooter"}, {"bike_id": "bb25821dfd40c9e6d148c72125673e4e", "is_reserved": 0, "fusion_lon": 0.0, "lat": 38.9037875, "is_disabled": 0, "name": "bb25821dfd40c9e6d148c72125673e4e", "fusion_lat": 0.0, "rental_uris": {"ios": "https://dc.lft.to/lastmile_qr_scan", "android": "https://dc.lft.to/lastmile_qr_scan"}, "lon": -77.02006933333334, "type": "electric_scooter"}, {"bike_id": "014dbaf2966e92ab3e0ade7ef70a2e18", "is_reserved": 0, "fusion_lon": 0.0, "lat": 38.90135983333333, "is_disabled": 0, "name": "014dbaf2966e92ab3e0ade7ef70a2e18", "fusion_lat": 0.0, "rental_uris": {"ios": "https://dc.lft.to/lastmile_qr_scan", "android": "https://dc.lft.to/lastmile_qr_scan"}, "lon": -77.0433865, "type": "electric_scooter"}, {"bike_id": "67e74aa18bee862e82430570899ce9e7", "is_reserved": 0, "fusion_lon": 0.0, "lat": 38.9011015, "is_disabled": 0, "name": "67e74aa18bee862e82430570899ce9e7", "fusion_lat": 0.0, "rental_uris": {"ios": "https://dc.lft.to/lastmile_qr_scan", "android": "https://dc.lft.to/lastmile_qr_scan"}, "lon": -77.03175966666667, "type": "electric_scooter"}, {"bike_id": "d2a3c7d24104f8f13928292acba88a2b", "is_reserved": 0, "fusion_lon": 0.0, "lat": 38.9171005, "is_disabled": 0, "name": "d2a3c7d24104f8f13928292acba88a2b", "fusion_lat": 0.0, "rental_uris": {"ios": "https://dc.lft.to/lastmile_qr_scan", "android": "https://dc.lft.to/lastmile_qr_scan"}, "lon": -77.03202866666666, "type": "electric_scooter"}, {"bike_id": "a8d048b3c3e877f688678d3ad76c254d", "is_reserved": 0, "fusion_lon": 0.0, "lat": 38.88046083333333, "is_disabled": 0, "name": "a8d048b3c3e877f688678d3ad76c254d", "fusion_lat": 0.0, "rental_uris": {"ios": "https://dc.lft.to/lastmile_qr_scan", "android": "https://dc.lft.to/lastmile_qr_scan"}, "lon": -77.013267, "type": "electric_bike"}, {"bike_id": "c3ea1e1fac6a932dfd62a78b863bb86d", "is_reserved": 0, "fusion_lon": 0.0, "lat": 38.84275383333333, "is_disabled": 0, "name": "c3ea1e1fac6a932dfd62a78b863bb86d", "fusion_lat": 0.0, "rental_uris": {"ios": "https://dc.lft.to/lastmile_qr_scan", "android": "https://dc.lft.to/lastmile_qr_scan"}, "lon": -76.988442, "type": "electric_bike"}, {"bike_id": "08f93f423ae0fd6475cecfe8409b1ac2", "is_reserved": 0, "fusion_lon": 0.0, "lat": 38.8985015, "is_disabled": 0, "name": "08f93f423ae0fd6475cecfe8409b1ac2", "fusion_lat": 0.0, "rental_uris": {"ios": "https://dc.lft.to/lastmile_qr_scan", "android": "https://dc.lft.to/lastmile_qr_scan"}, "lon": -77.0333175, "type": "electric_scooter"}, {"bike_id": "4479a2e3ac595935c059eeccad290cfc", "is_reserved": 0, "fusion_lon": 0.0, "lat": 38.91683233333333, "is_disabled": 0, "name": "4479a2e3ac595935c059eeccad290cfc", "fusion_lat": 0.0, "rental_uris": {"ios": "https://dc.lft.to/lastmile_qr_scan", "android": "https://dc.lft.to/lastmile_qr_scan"}, "lon": -77.03190733333334, "type": "electric_scooter"}, {"bike_id": "58300f5b2d44434bb99c47c32da434e1", "is_reserved": 0, "fusion_lon": 0.0, "lat": 38.898251, "is_disabled": 0, "name": "58300f5b2d44434bb99c47c32da434e1", "fusion_lat": 0.0, "rental_uris": {"ios": "https://dc.lft.to/lastmile_qr_scan", "android": "https://dc.lft.to/lastmile_qr_scan"}, "lon": -77.03351466666666, "type": "electric_scooter"}, {"bike_id": "18a313155254d1cc0ff80baf93a71656", "is_reserved": 0, "fusion_lon": 0.0, "lat": 38.884927, "is_disabled": 0, "name": "18a313155254d1cc0ff80baf93a71656", "fusion_lat": 0.0, "rental_uris": {"ios": "https://dc.lft.to/lastmile_qr_scan", "android": "https://dc.lft.to/lastmile_qr_scan"}, "lon": -77.00727916666666, "type": "electric_scooter"}, {"bike_id": "52c47e7cdb112ddf07480281c093c103", "is_reserved": 0, "fusion_lon": 0.0, "lat": 38.90311116666667, "is_disabled": 0, "name": "52c47e7cdb112ddf07480281c093c103", "fusion_lat": 0.0, "rental_uris": {"ios": "https://dc.lft.to/lastmile_qr_scan", "android": "https://dc.lft.to/lastmile_qr_scan"}, "lon": -77.03347033333333, "type": "electric_scooter"}, {"bike_id": "6c3e56a23313568be7a9d7e1bde4fce1", "is_reserved": 0, "fusion_lon": 0.0, "lat": 38.903571666666664, "is_disabled": 0, "name": "6c3e56a23313568be7a9d7e1bde4fce1", "fusion_lat": 0.0, "rental_uris": {"ios": "https://dc.lft.to/lastmile_qr_scan", "android": "https://dc.lft.to/lastmile_qr_scan"}, "lon": -77.03181, "type": "electric_scooter"}, {"bike_id": "90c96272dc625ea8e488b2a8ca99a119", "is_reserved": 0, "fusion_lon": 0.0, "lat": 38.83934566666667, "is_disabled": 0, "name": "90c96272dc625ea8e488b2a8ca99a119", "fusion_lat": 0.0, "rental_uris": {"ios": "https://dc.lft.to/lastmile_qr_scan", "android": "https://dc.lft.to/lastmile_qr_scan"}, "lon": -77.07910483333333, "type": "electric_bike"}, {"bike_id": "829498c97826d8eaab39cc531d8e1456", "is_reserved": 0, "fusion_lon": 0.0, "lat": 38.930828166666664, "is_disabled": 0, "name": "829498c97826d8eaab39cc531d8e1456", "fusion_lat": 0.0, "rental_uris": {"ios": "https://dc.lft.to/lastmile_qr_scan", "android": "https://dc.lft.to/lastmile_qr_scan"}, "lon": -77.02797166666667, "type": "electric_scooter"}, {"bike_id": "b42c6c83b084c360c88f311eff76bd96", "is_reserved": 0, "fusion_lon": 0.0, "lat": 38.866587833333334, "is_disabled": 0, "name": "b42c6c83b084c360c88f311eff76bd96", "fusion_lat": 0.0, "rental_uris": {"ios": "https://dc.lft.to/lastmile_qr_scan", "android": "https://dc.lft.to/lastmile_qr_scan"}, "lon": -76.990192, "type": "electric_scooter"}, {"bike_id": "0bca80072e6d2b21df65ab20760038c6", "is_reserved": 0, "fusion_lon": 0.0, "lat": 38.907735, "is_disabled": 0, "name": "0bca80072e6d2b21df65ab20760038c6", "fusion_lat": 0.0, "rental_uris": {"ios": "https://dc.lft.to/lastmile_qr_scan", "android": "https://dc.lft.to/lastmile_qr_scan"}, "lon": -77.02928933333334, "type": "electric_scooter"}, {"bike_id": "8aa176e0657f5849ff0c709411b21d99", "is_reserved": 0, "fusion_lon": 0.0, "lat": 38.901121333333336, "is_disabled": 0, "name": "8aa176e0657f5849ff0c709411b21d99", "fusion_lat": 0.0, "rental_uris": {"ios": "https://dc.lft.to/lastmile_qr_scan", "android": "https://dc.lft.to/lastmile_qr_scan"}, "lon": -77.05167716666666, "type": "electric_scooter"}, {"bike_id": "961e453bd042097e43c08def8758c22b", "is_reserved": 0, "fusion_lon": 0.0, "lat": 38.903637333333336, "is_disabled": 0, "name": "961e453bd042097e43c08def8758c22b", "fusion_lat": 0.0, "rental_uris": {"ios": "https://dc.lft.to/lastmile_qr_scan", "android": "https://dc.lft.to/lastmile_qr_scan"}, "lon": -77.02949383333333, "type": "electric_scooter"}, {"bike_id": "48f5cf2234e62a35a30debcf11bc7ecf", "is_reserved": 0, "fusion_lon": 0.0, "lat": 38.938659, "is_disabled": 0, "name": "48f5cf2234e62a35a30debcf11bc7ecf", "fusion_lat": 0.0, "rental_uris": {"ios": "https://dc.lft.to/lastmile_qr_scan", "android": "https://dc.lft.to/lastmile_qr_scan"}, "lon": -77.0245645, "type": "electric_scooter"}, {"bike_id": "e458f2726d3418e963d6bc544764cdb5", "is_reserved": 0, "fusion_lon": 0.0, "lat": 38.894697666666666, "is_disabled": 0, "name": "e458f2726d3418e963d6bc544764cdb5", "fusion_lat": 0.0, "rental_uris": {"ios": "https://dc.lft.to/lastmile_qr_scan", "android": "https://dc.lft.to/lastmile_qr_scan"}, "lon": -77.022738, "type": "electric_scooter"}, {"bike_id": "21bd90c5836ceba99e418ff842f58b19", "is_reserved": 0, "fusion_lon": 0.0, "lat": 38.839859833333335, "is_disabled": 0, "name": "21bd90c5836ceba99e418ff842f58b19", "fusion_lat": 0.0, "rental_uris": {"ios": "https://dc.lft.to/lastmile_qr_scan", "android": "https://dc.lft.to/lastmile_qr_scan"}, "lon": -77.00568133333333, "type": "electric_bike"}, {"bike_id": "2bf2ee5abd094bac62a147aa28fd9785", "is_reserved": 0, "fusion_lon": 0.0, "lat": 38.88135916666667, "is_disabled": 0, "name": "2bf2ee5abd094bac62a147aa28fd9785", "fusion_lat": 0.0, "rental_uris": {"ios": "https://dc.lft.to/lastmile_qr_scan", "android": "https://dc.lft.to/lastmile_qr_scan"}, "lon": -76.98094283333333, "type": "electric_bike"}, {"bike_id": "f010252515a617eb7d6eea1b7892a27f", "is_reserved": 0, "fusion_lon": 0.0, "lat": 38.900883666666665, "is_disabled": 0, "name": "f010252515a617eb7d6eea1b7892a27f", "fusion_lat": 0.0, "rental_uris": {"ios": "https://dc.lft.to/lastmile_qr_scan", "android": "https://dc.lft.to/lastmile_qr_scan"}, "lon": -77.05033033333333, "type": "electric_scooter"}, {"bike_id": "25a766e817f75306cfa903e35d183a1e", "is_reserved": 0, "fusion_lon": 0.0, "lat": 38.81935033333333, "is_disabled": 0, "name": "25a766e817f75306cfa903e35d183a1e", "fusion_lat": 0.0, "rental_uris": {"ios": "https://dc.lft.to/lastmile_qr_scan", "android": "https://dc.lft.to/lastmile_qr_scan"}, "lon": -77.00234416666666, "type": "electric_bike"}, {"bike_id": "8c11b84eb6900103a4aca822f9866bd0", "is_reserved": 0, "fusion_lon": 0.0, "lat": 38.8901845, "is_disabled": 0, "name": "8c11b84eb6900103a4aca822f9866bd0", "fusion_lat": 0.0, "rental_uris": {"ios": "https://dc.lft.to/lastmile_qr_scan", "android": "https://dc.lft.to/lastmile_qr_scan"}, "lon": -76.94109183333333, "type": "electric_scooter"}, {"bike_id": "3f513f96eb690ec6ae67c365cc009f39", "is_reserved": 0, "fusion_lon": 0.0, "lat": 38.85808733333333, "is_disabled": 0, "name": "3f513f96eb690ec6ae67c365cc009f39", "fusion_lat": 0.0, "rental_uris": {"ios": "https://dc.lft.to/lastmile_qr_scan", "android": "https://dc.lft.to/lastmile_qr_scan"}, "lon": -76.98654616666667, "type": "electric_scooter"}, {"bike_id": "385afe2b944cf4b7147019afb218b7f3", "is_reserved": 0, "fusion_lon": 0.0, "lat": 38.89191183333333, "is_disabled": 0, "name": "385afe2b944cf4b7147019afb218b7f3", "fusion_lat": 0.0, "rental_uris": {"ios": "https://dc.lft.to/lastmile_qr_scan", "android": "https://dc.lft.to/lastmile_qr_scan"}, "lon": -77.12262566666666, "type": "electric_bike"}, {"bike_id": "d6b395d9b451b7d65a48a1d06204fe40", "is_reserved": 0, "fusion_lon": 0.0, "lat": 38.9554885, "is_disabled": 0, "name": "d6b395d9b451b7d65a48a1d06204fe40", "fusion_lat": 0.0, "rental_uris": {"ios": "https://dc.lft.to/lastmile_qr_scan", "android": "https://dc.lft.to/lastmile_qr_scan"}, "lon": -76.93543416666667, "type": "electric_bike"}, {"bike_id": "d7cfdc464f6ab5e4480ba966916daf7e", "is_reserved": 0, "fusion_lon": 0.0, "lat": 38.91107216666666, "is_disabled": 0, "name": "d7cfdc464f6ab5e4480ba966916daf7e", "fusion_lat": 0.0, "rental_uris": {"ios": "https://dc.lft.to/lastmile_qr_scan", "android": "https://dc.lft.to/lastmile_qr_scan"}, "lon": -77.0122185, "type": "electric_scooter"}, {"bike_id": "7bc6503918f6a5137740b2453656571a", "is_reserved": 0, "fusion_lon": 0.0, "lat": 38.907162166666666, "is_disabled": 0, "name": "7bc6503918f6a5137740b2453656571a", "fusion_lat": 0.0, "rental_uris": {"ios": "https://dc.lft.to/lastmile_qr_scan", "android": "https://dc.lft.to/lastmile_qr_scan"}, "lon": -76.99801466666666, "type": "electric_scooter"}, {"bike_id": "fa29f1c3bbace70463b085a3f91b181a", "is_reserved": 0, "fusion_lon": 0.0, "lat": 38.88287116666667, "is_disabled": 0, "name": "fa29f1c3bbace70463b085a3f91b181a", "fusion_lat": 0.0, "rental_uris": {"ios": "https://dc.lft.to/lastmile_qr_scan", "android": "https://dc.lft.to/lastmile_qr_scan"}, "lon": -76.99143416666666, "type": "electric_scooter"}, {"bike_id": "d84e72f140d4db16e81596376f778c1b", "is_reserved": 0, "fusion_lon": 0.0, "lat": 38.925155833333335, "is_disabled": 0, "name": "d84e72f140d4db16e81596376f778c1b", "fusion_lat": 0.0, "rental_uris": {"ios": "https://dc.lft.to/lastmile_qr_scan", "android": "https://dc.lft.to/lastmile_qr_scan"}, "lon": -77.02358883333333, "type": "electric_scooter"}, {"bike_id": "e5e3016988271a7b8e8b9a7041989352", "is_reserved": 0, "fusion_lon": 0.0, "lat": 38.92890933333334, "is_disabled": 0, "name": "e5e3016988271a7b8e8b9a7041989352", "fusion_lat": 0.0, "rental_uris": {"ios": "https://dc.lft.to/lastmile_qr_scan", "android": "https://dc.lft.to/lastmile_qr_scan"}, "lon": -77.03330433333333, "type": "electric_scooter"}, {"bike_id": "4bbb4a05913d00764850eeae3df46bdd", "is_reserved": 0, "fusion_lon": 0.0, "lat": 38.9248355, "is_disabled": 0, "name": "4bbb4a05913d00764850eeae3df46bdd", "fusion_lat": 0.0, "rental_uris": {"ios": "https://dc.lft.to/lastmile_qr_scan", "android": "https://dc.lft.to/lastmile_qr_scan"}, "lon": -77.0521585, "type": "electric_scooter"}, {"bike_id": "3f023536994328fe40bb58edfdcf06f9", "is_reserved": 0, "fusion_lon": 0.0, "lat": 38.89809066666667, "is_disabled": 0, "name": "3f023536994328fe40bb58edfdcf06f9", "fusion_lat": 0.0, "rental_uris": {"ios": "https://dc.lft.to/lastmile_qr_scan", "android": "https://dc.lft.to/lastmile_qr_scan"}, "lon": -77.02804783333333, "type": "electric_scooter"}, {"bike_id": "6dad7e5911049acb4d6c3d050f12ffaf", "is_reserved": 0, "fusion_lon": 0.0, "lat": 38.909683666666666, "is_disabled": 0, "name": "6dad7e5911049acb4d6c3d050f12ffaf", "fusion_lat": 0.0, "rental_uris": {"ios": "https://dc.lft.to/lastmile_qr_scan", "android": "https://dc.lft.to/lastmile_qr_scan"}, "lon": -77.048262, "type": "electric_scooter"}, {"bike_id": "b0a257c62674d15377fbcdf307fff4f0", "is_reserved": 0, "fusion_lon": 0.0, "lat": 38.89790133333333, "is_disabled": 0, "name": "b0a257c62674d15377fbcdf307fff4f0", "fusion_lat": 0.0, "rental_uris": {"ios": "https://dc.lft.to/lastmile_qr_scan", "android": "https://dc.lft.to/lastmile_qr_scan"}, "lon": -76.99956266666666, "type": "electric_bike"}, {"bike_id": "6f4bc97c66662cc23980aadf1d6adb16", "is_reserved": 0, "fusion_lon": 0.0, "lat": 38.90280333333333, "is_disabled": 0, "name": "6f4bc97c66662cc23980aadf1d6adb16", "fusion_lat": 0.0, "rental_uris": {"ios": "https://dc.lft.to/lastmile_qr_scan", "android": "https://dc.lft.to/lastmile_qr_scan"}, "lon": -77.03467183333333, "type": "electric_scooter"}, {"bike_id": "22b1cf94f23a85294aa6cbde28ac4727", "is_reserved": 0, "fusion_lon": 0.0, "lat": 38.894259166666664, "is_disabled": 0, "name": "22b1cf94f23a85294aa6cbde28ac4727", "fusion_lat": 0.0, "rental_uris": {"ios": "https://dc.lft.to/lastmile_qr_scan", "android": "https://dc.lft.to/lastmile_qr_scan"}, "lon": -77.02419683333333, "type": "electric_scooter"}, {"bike_id": "677fd77bf49c03464d01a463f1f04e2b", "is_reserved": 0, "fusion_lon": 0.0, "lat": 38.93605616666667, "is_disabled": 0, "name": "677fd77bf49c03464d01a463f1f04e2b", "fusion_lat": 0.0, "rental_uris": {"ios": "https://dc.lft.to/lastmile_qr_scan", "android": "https://dc.lft.to/lastmile_qr_scan"}, "lon": -77.02337416666667, "type": "electric_scooter"}, {"bike_id": "29d7306b6598f4ff8418125ece22d5ec", "is_reserved": 0, "fusion_lon": 0.0, "lat": 38.902776333333335, "is_disabled": 0, "name": "29d7306b6598f4ff8418125ece22d5ec", "fusion_lat": 0.0, "rental_uris": {"ios": "https://dc.lft.to/lastmile_qr_scan", "android": "https://dc.lft.to/lastmile_qr_scan"}, "lon": -77.0411805, "type": "electric_scooter"}, {"bike_id": "10c9dc444fdb443d35cf80ed2d50bdba", "is_reserved": 0, "fusion_lon": 0.0, "lat": 38.934178833333334, "is_disabled": 0, "name": "10c9dc444fdb443d35cf80ed2d50bdba", "fusion_lat": 0.0, "rental_uris": {"ios": "https://dc.lft.to/lastmile_qr_scan", "android": "https://dc.lft.to/lastmile_qr_scan"}, "lon": -77.03410833333334, "type": "electric_scooter"}, {"bike_id": "f4cf5c3a283ed0bd99c9c07913b81d45", "is_reserved": 0, "fusion_lon": 0.0, "lat": 38.9409395, "is_disabled": 0, "name": "f4cf5c3a283ed0bd99c9c07913b81d45", "fusion_lat": 0.0, "rental_uris": {"ios": "https://dc.lft.to/lastmile_qr_scan", "android": "https://dc.lft.to/lastmile_qr_scan"}, "lon": -77.025522, "type": "electric_scooter"}, {"bike_id": "504c1abb9a65e5ce10934e1df5217bbf", "is_reserved": 0, "fusion_lon": 0.0, "lat": 39.05637616666667, "is_disabled": 0, "name": "504c1abb9a65e5ce10934e1df5217bbf", "fusion_lat": 0.0, "rental_uris": {"ios": "https://dc.lft.to/lastmile_qr_scan", "android": "https://dc.lft.to/lastmile_qr_scan"}, "lon": -77.12529983333333, "type": "electric_bike"}, {"bike_id": "c57ce99281167a2d1895030490f449d3", "is_reserved": 0, "fusion_lon": 0.0, "lat": 38.89623866666667, "is_disabled": 0, "name": "c57ce99281167a2d1895030490f449d3", "fusion_lat": 0.0, "rental_uris": {"ios": "https://dc.lft.to/lastmile_qr_scan", "android": "https://dc.lft.to/lastmile_qr_scan"}, "lon": -76.99847816666667, "type": "electric_scooter"}, {"bike_id": "bba794cd6e1913f106b480b3a5fb7c2c", "is_reserved": 0, "fusion_lon": 0.0, "lat": 38.917007, "is_disabled": 0, "name": "bba794cd6e1913f106b480b3a5fb7c2c", "fusion_lat": 0.0, "rental_uris": {"ios": "https://dc.lft.to/lastmile_qr_scan", "android": "https://dc.lft.to/lastmile_qr_scan"}, "lon": -77.03229366666666, "type": "electric_scooter"}, {"bike_id": "402dc1237efbc3505c5832b19c04f142", "is_reserved": 0, "fusion_lon": 0.0, "lat": 38.883906833333334, "is_disabled": 0, "name": "402dc1237efbc3505c5832b19c04f142", "fusion_lat": 0.0, "rental_uris": {"ios": "https://dc.lft.to/lastmile_qr_scan", "android": "https://dc.lft.to/lastmile_qr_scan"}, "lon": -77.026204, "type": "electric_scooter"}, {"bike_id": "88b57a4f3733accebf41d08a74a0cc71", "is_reserved": 0, "fusion_lon": 0.0, "lat": 38.90642483333333, "is_disabled": 0, "name": "88b57a4f3733accebf41d08a74a0cc71", "fusion_lat": 0.0, "rental_uris": {"ios": "https://dc.lft.to/lastmile_qr_scan", "android": "https://dc.lft.to/lastmile_qr_scan"}, "lon": -77.01137716666666, "type": "electric_scooter"}, {"bike_id": "67eef43055851562dc4bcd520f0deae3", "is_reserved": 0, "fusion_lon": 0.0, "lat": 38.9454795, "is_disabled": 0, "name": "67eef43055851562dc4bcd520f0deae3", "fusion_lat": 0.0, "rental_uris": {"ios": "https://dc.lft.to/lastmile_qr_scan", "android": "https://dc.lft.to/lastmile_qr_scan"}, "lon": -77.022151, "type": "electric_scooter"}, {"bike_id": "0622b61c4e84dee30b912aecce911011", "is_reserved": 0, "fusion_lon": 0.0, "lat": 38.9064085, "is_disabled": 0, "name": "0622b61c4e84dee30b912aecce911011", "fusion_lat": 0.0, "rental_uris": {"ios": "https://dc.lft.to/lastmile_qr_scan", "android": "https://dc.lft.to/lastmile_qr_scan"}, "lon": -77.0463935, "type": "electric_scooter"}, {"bike_id": "bdd2f825c4313fc33aec21ccbd48c89c", "is_reserved": 0, "fusion_lon": 0.0, "lat": 38.923708500000004, "is_disabled": 0, "name": "bdd2f825c4313fc33aec21ccbd48c89c", "fusion_lat": 0.0, "rental_uris": {"ios": "https://dc.lft.to/lastmile_qr_scan", "android": "https://dc.lft.to/lastmile_qr_scan"}, "lon": -77.04134083333334, "type": "electric_scooter"}, {"bike_id": "a24352d9dce08cd636486bd995609057", "is_reserved": 0, "fusion_lon": 0.0, "lat": 38.8952825, "is_disabled": 0, "name": "a24352d9dce08cd636486bd995609057", "fusion_lat": 0.0, "rental_uris": {"ios": "https://dc.lft.to/lastmile_qr_scan", "android": "https://dc.lft.to/lastmile_qr_scan"}, "lon": -77.033494, "type": "electric_scooter"}, {"bike_id": "58a02a2343256e7538600cfff2279c87", "is_reserved": 0, "fusion_lon": 0.0, "lat": 38.892262, "is_disabled": 0, "name": "58a02a2343256e7538600cfff2279c87", "fusion_lat": 0.0, "rental_uris": {"ios": "https://dc.lft.to/lastmile_qr_scan", "android": "https://dc.lft.to/lastmile_qr_scan"}, "lon": -77.02178883333333, "type": "electric_scooter"}, {"bike_id": "322816a50cedd8312d82723e7fdee2a0", "is_reserved": 0, "fusion_lon": 0.0, "lat": 38.88510466666666, "is_disabled": 0, "name": "322816a50cedd8312d82723e7fdee2a0", "fusion_lat": 0.0, "rental_uris": {"ios": "https://dc.lft.to/lastmile_qr_scan", "android": "https://dc.lft.to/lastmile_qr_scan"}, "lon": -77.005723, "type": "electric_scooter"}, {"bike_id": "d38bdc7650c1169c3a14b44e6aff6931", "is_reserved": 0, "fusion_lon": 0.0, "lat": 38.8442955, "is_disabled": 0, "name": "d38bdc7650c1169c3a14b44e6aff6931", "fusion_lat": 0.0, "rental_uris": {"ios": "https://dc.lft.to/lastmile_qr_scan", "android": "https://dc.lft.to/lastmile_qr_scan"}, "lon": -76.9977765, "type": "electric_scooter"}, {"bike_id": "d48b7ff4625c80cb78d12ceee4f4b707", "is_reserved": 0, "fusion_lon": 0.0, "lat": 38.898331, "is_disabled": 0, "name": "d48b7ff4625c80cb78d12ceee4f4b707", "fusion_lat": 0.0, "rental_uris": {"ios": "https://dc.lft.to/lastmile_qr_scan", "android": "https://dc.lft.to/lastmile_qr_scan"}, "lon": -76.9463745, "type": "electric_scooter"}, {"bike_id": "ce32c6f0067bbfd0a9787e2553a35db5", "is_reserved": 0, "fusion_lon": 0.0, "lat": 38.9024005, "is_disabled": 0, "name": "ce32c6f0067bbfd0a9787e2553a35db5", "fusion_lat": 0.0, "rental_uris": {"ios": "https://dc.lft.to/lastmile_qr_scan", "android": "https://dc.lft.to/lastmile_qr_scan"},