{"data": {"bikes": [{"bike_id": "12b79e0d6bf98a2134c5a7080cd485b4", "is_reserved": 0, "fusion_lon": 0.0, "lat": 38.901458166666664, "is_disabled": 0, "name": "12b79e0d6bf98a2134c5a7080cd485b4", "fusion_lat": 0.0, "rental_uris": {"ios": "https://dc.lft.to/lastmile_qr_scan", "android": "https://dc.lft.to/lastmile_qr_scan"}, "lon": -77.0332755, "type": "electric_scooter"}, {"bike_id": "08bb8881943e9bf2db254dea81eb241a", "is_reserved": 0, "fusion_lon": 0.0, "lat": 38.80230233333333, "is_disabled": 0, "name": "08bb8881943e9bf2db254dea81eb241a", "fusion_lat": 0.0, "rental_uris": {"ios": "https://dc.lft.to/lastmile_qr_scan", "android": "https://dc.lft.to/lastmile_qr_scan"}, "lon": -77.07909483333333, "type": "electric_bike"}, {"bike_id": "c68b120a3d9e21509d475adbcbee3a7b", "is_reserved": 0, "fusion_lon": 0.0, "lat": 38.93198833333334, "is_disabled": 0, "name": "c68b120a3d9e21509d475adbcbee3a7b", "fusion_lat": 0.0, "rental_uris": {"ios": "https://dc.lft.to/lastmile_qr_scan", "android": "https://dc.lft.to/lastmile_qr_scan"}, "lon": -77.03881633333333, "type": "electric_scooter"}, {"bike_id": "c913f7a96b01fa6c4182d61113d243a5", "is_reserved": 0, "fusion_lon": 0.0, "lat": 38.906883, "is_disabled": 0, "name": "c913f7a96b01fa6c4182d61113d243a5", "fusion_lat": 0.0, "rental_uris": {"ios": "https://dc.lft.to/lastmile_qr_scan", "android": "https://dc.lft.to/lastmile_qr_scan"}, "lon": -76.95187, "type": "electric_bike"}, {"bike_id": "8d1d62f29d2362d9ee873882eb93f711", "is_reserved": 0, "fusion_lon": 0.0, "lat": 38.958803333333336, "is_disabled": 0, "name": "8d1d62f29d2362d9ee873882eb93f711", "fusion_lat": 0.0, "rental_uris": {"ios": "https://dc.lft.to/lastmile_qr_scan", "android": "https://dc.lft.to/lastmile_qr_scan"}, "lon": -77.01033983333333, "type": "electric_bike"}, {"bike_id": "6632e9c890da8c4a1c34763597a5abe1", "is_reserved": 0, "fusion_lon": 0.0, "lat": 38.944120833333336, "is_disabled": 0, "name": "6632e9c890da8c4a1c34763597a5abe1", "fusion_lat": 0.0, "rental_uris": {"ios": "https://dc.lft.to/lastmile_qr_scan", "android": "https://dc.lft.to/lastmile_qr_scan"}, "lon": -77.05516716666666, "type": "electric_scooter"}, {"bike_id": "9b953e37df61193718d617cd3638b04d", "is_reserved": 0, "fusion_lon": 0.0, "lat": 38.904607, "is_disabled": 0, "name": "9b953e37df61193718d617cd3638b04d", "fusion_lat": 0.0, "rental_uris": {"ios": "https://dc.lft.to/lastmile_qr_scan", "android": "https://dc.lft.to/lastmile_qr_scan"}, "lon": -77.032464, "type": "electric_scooter"}, {"bike_id": "7c0e9d501d38580bfc5181c36a9ceb33", "is_reserved": 0, "fusion_lon": 0.0, "lat": 38.924844, "is_disabled": 0, "name": "7c0e9d501d38580bfc5181c36a9ceb33", "fusion_lat": 0.0, "rental_uris": {"ios": "https://dc.lft.to/lastmile_qr_scan", "android": "https://dc.lft.to/lastmile_qr_scan"}, "lon": -77.02709966666667, "type": "electric_scooter"}, {"bike_id": "653e4f468678d1f8104e411635cbed88", "is_reserved": 0, "fusion_lon": 0.0, "lat": 38.894834, "is_disabled": 0, "name": "653e4f468678d1f8104e411635cbed88", "fusion_lat": 0.0, "rental_uris": {"ios": "https://dc.lft.to/lastmile_qr_scan", "android": "https://dc.lft.to/lastmile_qr_scan"}, "lon": -77.0228835, "type": "electric_scooter"}, {"bike_id": "db02684b08fd10e6c664bc6072e2679d", "is_reserved": 0, "fusion_lon": 0.0, "lat": 38.917167, "is_disabled": 0, "name": "db02684b08fd10e6c664bc6072e2679d", "fusion_lat": 0.0, "rental_uris": {"ios": "https://dc.lft.to/lastmile_qr_scan", "android": "https://dc.lft.to/lastmile_qr_scan"}, "lon": -77.0120745, "type": "electric_scooter"}, {"bike_id": "343936fc6ea3c42c4cb69a2146d21abc", "is_reserved": 0, "fusion_lon": 0.0, "lat": 38.92950166666667, "is_disabled": 0, "name": "343936fc6ea3c42c4cb69a2146d21abc", "fusion_lat": 0.0, "rental_uris": {"ios": "https://dc.lft.to/lastmile_qr_scan", "android": "https://dc.lft.to/lastmile_qr_scan"}, "lon": -77.04401366666667, "type": "electric_scooter"}, {"bike_id": "a50618fcc771851dc15218fe59537a8e", "is_reserved": 0, "fusion_lon": 0.0, "lat": 38.89664466666667, "is_disabled": 0, "name": "a50618fcc771851dc15218fe59537a8e", "fusion_lat": 0.0, "rental_uris": {"ios": "https://dc.lft.to/lastmile_qr_scan", "android": "https://dc.lft.to/lastmile_qr_scan"}, "lon": -77.02950583333333, "type": "electric_scooter"}, {"bike_id": "75c5944106478fca6dda36c43898c6bf", "is_reserved": 0, "fusion_lon": 0.0, "lat": 38.8833005, "is_disabled": 0, "name": "75c5944106478fca6dda36c43898c6bf", "fusion_lat": 0.0, "rental_uris": {"ios": "https://dc.lft.to/lastmile_qr_scan", "android": "https://dc.lft.to/lastmile_qr_scan"}, "lon": -77.0175065, "type": "electric_scooter"}, {"bike_id": "98440cc35f9413fd0fa2b74a54149f2d", "is_reserved": 0, "fusion_lon": 0.0, "lat": 38.92568966666666, "is_disabled": 0, "name": "98440cc35f9413fd0fa2b74a54149f2d", "fusion_lat": 0.0, "rental_uris": {"ios": "https://dc.lft.to/lastmile_qr_scan", "android": "https://dc.lft.to/lastmile_qr_scan"}, "lon": -77.03899533333333, "type": "electric_scooter"}, {"bike_id": "77f8576cb02013ce5f086ba46934a97a", "is_reserved": 0, "fusion_lon": 0.0, "lat": 38.925743, "is_disabled": 0, "name": "77f8576cb02013ce5f086ba46934a97a", "fusion_lat": 0.0, "rental_uris": {"ios": "https://dc.lft.to/lastmile_qr_scan", "android": "https://dc.lft.to/lastmile_qr_scan"}, "lon": -77.03918616666667, "type": "electric_scooter"}, {"bike_id": "8b317a8d783a20025a9942c859facda0", "is_reserved": 0, "fusion_lon": 0.0, "lat": 38.916985333333336, "is_disabled": 0, "name": "8b317a8d783a20025a9942c859facda0", "fusion_lat": 0.0, "rental_uris": {"ios": "https://dc.lft.to/lastmile_qr_scan", "android": "https://dc.lft.to/lastmile_qr_scan"}, "lon": -77.031061, "type": "electric_scooter"}, {"bike_id": "0b12b9530c9780f978fefd9e873aadfc", "is_reserved": 0, "fusion_lon": 0.0, "lat": 38.91697, "is_disabled": 0, "name": "0b12b9530c9780f978fefd9e873aadfc", "fusion_lat": 0.0, "rental_uris": {"ios": "https://dc.lft.to/lastmile_qr_scan", "android": "https://dc.lft.to/lastmile_qr_scan"}, "lon": -77.02902816666666, "type": "electric_scooter"}, {"bike_id": "c7521aa805603df408ad0e23eb135ef9", "is_reserved": 0, "fusion_lon": 0.0, "lat": 38.90427533333333, "is_disabled": 0, "name": "c7521aa805603df408ad0e23eb135ef9", "fusion_lat": 0.0, "rental_uris": {"ios": "https://dc.lft.to/lastmile_qr_scan", "android": "https://dc.lft.to/lastmile_qr_scan"}, "lon": -77.02875083333333, "type": "electric_scooter"}, {"bike_id": "f0179e1da72363ecb1e437fdb2e4af51", "is_reserved": 0, "fusion_lon": 0.0, "lat": 38.91592766666667, "is_disabled": 0, "name": "f0179e1da72363ecb1e437fdb2e4af51", "fusion_lat": 0.0, "rental_uris": {"ios": "https://dc.lft.to/lastmile_qr_scan", "android": "https://dc.lft.to/lastmile_qr_scan"}, "lon": -76.98369566666666, "type": "electric_scooter"}, {"bike_id": "587bab38aec0ef92fc638abb29c21d7d", "is_reserved": 0, "fusion_lon": 0.0, "lat": 38.901316, "is_disabled": 0, "name": "587bab38aec0ef92fc638abb29c21d7d", "fusion_lat": 0.0, "rental_uris": {"ios": "https://dc.lft.to/lastmile_qr_scan", "android": "https://dc.lft.to/lastmile_qr_scan"}, "lon": -77.016087, "type": "electric_scooter"}, {"bike_id": "df6063e8c7c025bec62a5e0c7d3caab2", "is_reserved": 0, "fusion_lon": 0.0, "lat": 38.9128615, "is_disabled": 0, "name": "df6063e8c7c025bec62a5e0c7d3caab2", "fusion_lat": 0.0, "rental_uris": {"ios": "https://dc.lft.to/lastmile_qr_scan", "android": "https://dc.lft.to/lastmile_qr_scan"}, "lon": -77.038499, "type": "electric_scooter"}, {"bike_id": "a851a4b087ced11973fecb5ea6bc0e3d", "is_reserved": 0, "fusion_lon": 0.0, "lat": 38.9028765, "is_disabled": 0, "name": "a851a4b087ced11973fecb5ea6bc0e3d", "fusion_lat": 0.0, "rental_uris": {"ios": "https://dc.lft.to/lastmile_qr_scan", "android": "https://dc.lft.to/lastmile_qr_scan"}, "lon": -77.03937733333333, "type": "electric_scooter"}, {"bike_id": "c01ad98cc8af70d09d3089c2530c649b", "is_reserved": 0, "fusion_lon": 0.0, "lat": 38.8978715, "is_disabled": 0, "name": "c01ad98cc8af70d09d3089c2530c649b", "fusion_lat": 0.0, "rental_uris": {"ios": "https://dc.lft.to/lastmile_qr_scan", "android": "https://dc.lft.to/lastmile_qr_scan"}, "lon": -77.029613, "type": "electric_scooter"}, {"bike_id": "8701cbac6053ff41bc5857104324aabf", "is_reserved": 0, "fusion_lon": 0.0, "lat": 38.936933833333335, "is_disabled": 0, "name": "8701cbac6053ff41bc5857104324aabf", "fusion_lat": 0.0, "rental_uris": {"ios": "https://dc.lft.to/lastmile_qr_scan", "android": "https://dc.lft.to/lastmile_qr_scan"}, "lon": -77.06022983333334, "type": "electric_scooter"}, {"bike_id": "6e0612f6cd59877c719231ab0532fd8e", "is_reserved": 0, "fusion_lon": 0.0, "lat": 38.85535766666667, "is_disabled": 0, "name": "6e0612f6cd59877c719231ab0532fd8e", "fusion_lat": 0.0, "rental_uris": {"ios": "https://dc.lft.to/lastmile_qr_scan", "android": "https://dc.lft.to/lastmile_qr_scan"}, "lon": -77.1132915, "type": "electric_bike"}, {"bike_id": "8f72b05bfdf1409152c0a344fc6fdc5d", "is_reserved": 0, "fusion_lon": 0.0, "lat": 38.899141666666665, "is_disabled": 0, "name": "8f72b05bfdf1409152c0a344fc6fdc5d", "fusion_lat": 0.0, "rental_uris": {"ios": "https://dc.lft.to/lastmile_qr_scan", "android": "https://dc.lft.to/lastmile_qr_scan"}, "lon": -77.04043183333333, "type": "electric_scooter"}, {"bike_id": "21ab3fe4ece95292a330f00543365e26", "is_reserved": 0, "fusion_lon": 0.0, "lat": 38.89564166666667, "is_disabled": 0, "name": "21ab3fe4ece95292a330f00543365e26", "fusion_lat": 0.0, "rental_uris": {"ios": "https://dc.lft.to/lastmile_qr_scan", "android": "https://dc.lft.to/lastmile_qr_scan"}, "lon": -77.127398, "type": "electric_bike"}, {"bike_id": "cce5fc14bcebaf1dcd47c151376e8b16", "is_reserved": 0, "fusion_lon": 0.0, "lat": 38.92259333333333, "is_disabled": 0, "name": "cce5fc14bcebaf1dcd47c151376e8b16", "fusion_lat": 0.0, "rental_uris": {"ios": "https://dc.lft.to/lastmile_qr_scan", "android": "https://dc.lft.to/lastmile_qr_scan"}, "lon": -77.04144833333334, "type": "electric_scooter"}, {"bike_id": "93f4d1dbd97205cfa9df6b187f539e43", "is_reserved": 0, "fusion_lon": 0.0, "lat": 38.9021875, "is_disabled": 0, "name": "93f4d1dbd97205cfa9df6b187f539e43", "fusion_lat": 0.0, "rental_uris": {"ios": "https://dc.lft.to/lastmile_qr_scan", "android": "https://dc.lft.to/lastmile_qr_scan"}, "lon": -76.95051733333334, "type": "electric_bike"}, {"bike_id": "6c5e1cd7c5f9a6872acccf54b21e9b10", "is_reserved": 0, "fusion_lon": 0.0, "lat": 38.9167765, "is_disabled": 0, "name": "6c5e1cd7c5f9a6872acccf54b21e9b10", "fusion_lat": 0.0, "rental_uris": {"ios": "https://dc.lft.to/lastmile_qr_scan", "android": "https://dc.lft.to/lastmile_qr_scan"}, "lon": -77.03688466666667, "type": "electric_scooter"}, {"bike_id": "f750ceeda713c2bdc8ecb214704bfa53", "is_reserved": 0, "fusion_lon": 0.0, "lat": 38.898259833333334, "is_disabled": 0, "name": "f750ceeda713c2bdc8ecb214704bfa53", "fusion_lat": 0.0, "rental_uris": {"ios": "https://dc.lft.to/lastmile_qr_scan", "android": "https://dc.lft.to/lastmile_qr_scan"}, "lon": -77.05030433333333, "type": "electric_scooter"}, {"bike_id": "24558e4011bd8905cc5dbc98adefbb65", "is_reserved": 0, "fusion_lon": 0.0, "lat": 38.9227355, "is_disabled": 0, "name": "24558e4011bd8905cc5dbc98adefbb65", "fusion_lat": 0.0, "rental_uris": {"ios": "https://dc.lft.to/lastmile_qr_scan", "android": "https://dc.lft.to/lastmile_qr_scan"}, "lon": -77.0252515, "type": "electric_scooter"}, {"bike_id": "8c53678816a8adbdd78110abc1cc3596", "is_reserved": 0, "fusion_lon": 0.0, "lat": 38.901448, "is_disabled": 0, "name": "8c53678816a8adbdd78110abc1cc3596", "fusion_lat": 0.0, "rental_uris": {"ios": "https://dc.lft.to/lastmile_qr_scan", "android": "https://dc.lft.to/lastmile_qr_scan"}, "lon": -77.04299966666666, "type": "electric_scooter"}, {"bike_id": "1633791a988a37dc983b1fcc08b0064a", "is_reserved": 0, "fusion_lon": 0.0, "lat": 38.905582, "is_disabled": 0, "name": "1633791a988a37dc983b1fcc08b0064a", "fusion_lat": 0.0, "rental_uris": {"ios": "https://dc.lft.to/lastmile_qr_scan", "android": "https://dc.lft.to/lastmile_qr_scan"}, "lon": -77.036015, "type": "electric_scooter"}, {"bike_id": "e565836c95c9e758a09c6ce81ed29684", "is_reserved": 0, "fusion_lon": 0.0, "lat": 38.90798083333333, "is_disabled": 0, "name": "e565836c95c9e758a09c6ce81ed29684", "fusion_lat": 0.0, "rental_uris": {"ios": "https://dc.lft.to/lastmile_qr_scan", "android": "https://dc.lft.to/lastmile_qr_scan"}, "lon": -77.04817683333333, "type": "electric_scooter"}, {"bike_id": "808807e01a9094b9e0dc56639356ac9c", "is_reserved": 0, "fusion_lon": 0.0, "lat": 38.91329233333333, "is_disabled": 0, "name": "808807e01a9094b9e0dc56639356ac9c", "fusion_lat": 0.0, "rental_uris": {"ios": "https://dc.lft.to/lastmile_qr_scan", "android": "https://dc.lft.to/lastmile_qr_scan"}, "lon": -77.002239, "type": "electric_scooter"}, {"bike_id": "05a9634dc086475a51f6aca16e05f836", "is_reserved": 0, "fusion_lon": 0.0, "lat": 38.9206755, "is_disabled": 0, "name": "05a9634dc086475a51f6aca16e05f836", "fusion_lat": 0.0, "rental_uris": {"ios": "https://dc.lft.to/lastmile_qr_scan", "android": "https://dc.lft.to/lastmile_qr_scan"}, "lon": -77.04251366666666, "type": "electric_scooter"}, {"bike_id": "7179eaf57ab37cc96b424b7a71420299", "is_reserved": 0, "fusion_lon": 0.0, "lat": 38.95481783333334, "is_disabled": 0, "name": "7179eaf57ab37cc96b424b7a71420299", "fusion_lat": 0.0, "rental_uris": {"ios": "https://dc.lft.to/lastmile_qr_scan", "android": "https://dc.lft.to/lastmile_qr_scan"}, "lon": -77.08238183333333, "type": "electric_bike"}, {"bike_id": "0e5712cd59ebec4917b366881a9d5b93", "is_reserved": 0, "fusion_lon": 0.0, "lat": 38.92469916666667, "is_disabled": 0, "name": "0e5712cd59ebec4917b366881a9d5b93", "fusion_lat": 0.0, "rental_uris": {"ios": "https://dc.lft.to/lastmile_qr_scan", "android": "https://dc.lft.to/lastmile_qr_scan"}, "lon": -77.03551416666667, "type": "electric_scooter"}, {"bike_id": "4bb764a5a77a404cde6801c1f6537f93", "is_reserved": 0, "fusion_lon": 0.0, "lat": 38.92057783333333, "is_disabled": 0, "name": "4bb764a5a77a404cde6801c1f6537f93", "fusion_lat": 0.0, "rental_uris": {"ios": "https://dc.lft.to/lastmile_qr_scan", "android": "https://dc.lft.to/lastmile_qr_scan"}, "lon": -77.04260283333333, "type": "electric_scooter"}, {"bike_id": "60aca781261bd8ea6b42a01e89ff1d9b", "is_reserved": 0, "fusion_lon": 0.0, "lat": 38.920952, "is_disabled": 0, "name": "60aca781261bd8ea6b42a01e89ff1d9b", "fusion_lat": 0.0, "rental_uris": {"ios": "https://dc.lft.to/lastmile_qr_scan", "android": "https://dc.lft.to/lastmile_qr_scan"}, "lon": -77.02594533333334, "type": "electric_scooter"}, {"bike_id": "9b3e13bded796dc305bf57f11b7fe0a4", "is_reserved": 0, "fusion_lon": 0.0, "lat": 38.8975805, "is_disabled": 0, "name": "9b3e13bded796dc305bf57f11b7fe0a4", "fusion_lat": 0.0, "rental_uris": {"ios": "https://dc.lft.to/lastmile_qr_scan", "android": "https://dc.lft.to/lastmile_qr_scan"}, "lon": -76.941852, "type": "electric_scooter"}, {"bike_id": "affc808345910f228078ea8714edf556", "is_reserved": 0, "fusion_lon": 0.0, "lat": 38.904533666666666, "is_disabled": 0, "name": "affc808345910f228078ea8714edf556", "fusion_lat": 0.0, "rental_uris": {"ios": "https://dc.lft.to/lastmile_qr_scan", "android": "https://dc.lft.to/lastmile_qr_scan"}, "lon": -77.04899116666667, "type": "electric_scooter"}, {"bike_id": "ff129d5cb50478887161716b3b7bfcfb", "is_reserved": 0, "fusion_lon": 0.0, "lat": 38.9259045, "is_disabled": 0, "name": "ff129d5cb50478887161716b3b7bfcfb", "fusion_lat": 0.0, "rental_uris": {"ios": "https://dc.lft.to/lastmile_qr_scan", "android": "https://dc.lft.to/lastmile_qr_scan"}, "lon": -77.00561816666666, "type": "electric_scooter"}, {"bike_id": "0030f8e95fe4db554e986aeda585923b", "is_reserved": 0, "fusion_lon": 0.0, "lat": 38.884329, "is_disabled": 0, "name": "0030f8e95fe4db554e986aeda585923b", "fusion_lat": 0.0, "rental_uris": {"ios": "https://dc.lft.to/lastmile_qr_scan", "android": "https://dc.lft.to/lastmile_qr_scan"}, "lon": -76.9575095, "type": "electric_scooter"}, {"bike_id": "e4beaf30e0c78c8ff15f72fa73272b91", "is_reserved": 0, "fusion_lon": 0.0, "lat": 38.9125715, "is_disabled": 0, "name": "e4beaf30e0c78c8ff15f72fa73272b91", "fusion_lat": 0.0, "rental_uris": {"ios": "https://dc.lft.to/lastmile_qr_scan", "android": "https://dc.lft.to/lastmile_qr_scan"}, "lon": -77.03136233333333, "type": "electric_scooter"}, {"bike_id": "8bb3917c391c3673cd9ca98074e50ca2", "is_reserved": 0, "fusion_lon": 0.0, "lat": 38.916778666666666, "is_disabled": 0, "name": "8bb3917c391c3673cd9ca98074e50ca2", "fusion_lat": 0.0, "rental_uris": {"ios": "https://dc.lft.to/lastmile_qr_scan", "android": "https://dc.lft.to/lastmile_qr_scan"}, "lon": -77.02707666666667, "type": "electric_scooter"}, {"bike_id": "876e03211360986ecaebda49677a46bb", "is_reserved": 0, "fusion_lon": 0.0, "lat": 38.905575666666664, "is_disabled": 0, "name": "876e03211360986ecaebda49677a46bb", "fusion_lat": 0.0, "rental_uris": {"ios": "https://dc.lft.to/lastmile_qr_scan", "android": "https://dc.lft.to/lastmile_qr_scan"}, "lon": -77.00557016666667, "type": "electric_scooter"}, {"bike_id": "e720efa40d142067d368eaee1e0fe38c", "is_reserved": 0, "fusion_lon": 0.0, "lat": 38.92241766666667, "is_disabled": 0, "name": "e720efa40d142067d368eaee1e0fe38c", "fusion_lat": 0.0, "rental_uris": {"ios": "https://dc.lft.to/lastmile_qr_scan", "android": "https://dc.lft.to/lastmile_qr_scan"}, "lon": -77.0366285, "type": "electric_scooter"}, {"bike_id": "15d9bc907a511efd026f9c0d343ca390", "is_reserved": 0, "fusion_lon": 0.0, "lat": 38.91883333333333, "is_disabled": 0, "name": "15d9bc907a511efd026f9c0d343ca390", "fusion_lat": 0.0, "rental_uris": {"ios": "https://dc.lft.to/lastmile_qr_scan", "android": "https://dc.lft.to/lastmile_qr_scan"}, "lon": -77.04356983333334, "type": "electric_scooter"}, {"bike_id": "f99177a9328b93122359c19be185eaef", "is_reserved": 0, "fusion_lon": 0.0, "lat": 38.9388775, "is_disabled": 0, "name": "f99177a9328b93122359c19be185eaef", "fusion_lat": 0.0, "rental_uris": {"ios": "https://dc.lft.to/lastmile_qr_scan", "android": "https://dc.lft.to/lastmile_qr_scan"}, "lon": -77.0333665, "type": "electric_scooter"}, {"bike_id": "549427cdca58487c36ded364520a49f7", "is_reserved": 0, "fusion_lon": 0.0, "lat": 38.90325, "is_disabled": 0, "name": "549427cdca58487c36ded364520a49f7", "fusion_lat": 0.0, "rental_uris": {"ios": "https://dc.lft.to/lastmile_qr_scan", "android": "https://dc.lft.to/lastmile_qr_scan"}, "lon": -77.0376935, "type": "electric_scooter"}, {"bike_id": "e22b1cf36a90073d245a940666b811f6", "is_reserved": 0, "fusion_lon": 0.0, "lat": 38.921496833333336, "is_disabled": 0, "name": "e22b1cf36a90073d245a940666b811f6", "fusion_lat": 0.0, "rental_uris": {"ios": "https://dc.lft.to/lastmile_qr_scan", "android": "https://dc.lft.to/lastmile_qr_scan"}, "lon": -77.03530216666667, "type": "electric_scooter"}, {"bike_id": "3a3fd3623e2da88d10fd5a987ef5f769", "is_reserved": 0, "fusion_lon": 0.0, "lat": 38.92878816666666, "is_disabled": 0, "name": "3a3fd3623e2da88d10fd5a987ef5f769", "fusion_lat": 0.0, "rental_uris": {"ios": "https://dc.lft.to/lastmile_qr_scan", "android": "https://dc.lft.to/lastmile_qr_scan"}, "lon": -77.03758366666666, "type": "electric_scooter"}, {"bike_id": "60b5baa4d21ef1fe8e98f5f36227bd08", "is_reserved": 0, "fusion_lon": 0.0, "lat": 38.90966616666667, "is_disabled": 0, "name": "60b5baa4d21ef1fe8e98f5f36227bd08", "fusion_lat": 0.0, "rental_uris": {"ios": "https://dc.lft.to/lastmile_qr_scan", "android": "https://dc.lft.to/lastmile_qr_scan"}, "lon": -77.02722833333333, "type": "electric_scooter"}, {"bike_id": "bf64b131af5075ffeda5ab2504d15e7d", "is_reserved": 0, "fusion_lon": 0.0, "lat": 38.88503133333333, "is_disabled": 0, "name": "bf64b131af5075ffeda5ab2504d15e7d", "fusion_lat": 0.0, "rental_uris": {"ios": "https://dc.lft.to/lastmile_qr_scan", "android": "https://dc.lft.to/lastmile_qr_scan"}, "lon": -77.0056855, "type": "electric_scooter"}, {"bike_id": "adf39b6ca7d467d11374f0a77713cade", "is_reserved": 0, "fusion_lon": 0.0, "lat": 38.92039066666667, "is_disabled": 0, "name": "adf39b6ca7d467d11374f0a77713cade", "fusion_lat": 0.0, "rental_uris": {"ios": "https://dc.lft.to/lastmile_qr_scan", "android": "https://dc.lft.to/lastmile_qr_scan"}, "lon": -76.97907833333333, "type": "electric_scooter"}, {"bike_id": "a2fb3d8a1b0a561e6bf11af635dfb658", "is_reserved": 0, "fusion_lon": 0.0, "lat": 38.95913816666667, "is_disabled": 0, "name": "a2fb3d8a1b0a561e6bf11af635dfb658", "fusion_lat": 0.0, "rental_uris": {"ios": "https://dc.lft.to/lastmile_qr_scan", "android": "https://dc.lft.to/lastmile_qr_scan"}, "lon": -77.001507, "type": "electric_bike"}, {"bike_id": "6bf8185c2606b43441efd99e74bb1743", "is_reserved": 0, "fusion_lon": 0.0, "lat": 38.918367333333336, "is_disabled": 0, "name": "6bf8185c2606b43441efd99e74bb1743", "fusion_lat": 0.0, "rental_uris": {"ios": "https://dc.lft.to/lastmile_qr_scan", "android": "https://dc.lft.to/lastmile_qr_scan"}, "lon": -77.022954, "type": "electric_scooter"}, {"bike_id": "90a2332d0490e617273ce94cffd3d76f", "is_reserved": 0, "fusion_lon": 0.0, "lat": 38.90374516666667, "is_disabled": 0, "name": "90a2332d0490e617273ce94cffd3d76f", "fusion_lat": 0.0, "rental_uris": {"ios": "https://dc.lft.to/lastmile_qr_scan", "android": "https://dc.lft.to/lastmile_qr_scan"}, "lon": -77.03965116666667, "type": "electric_scooter"}, {"bike_id": "10a80d84f15b45b9a374caa2d8552bd2", "is_reserved": 0, "fusion_lon": 0.0, "lat": 38.936669, "is_disabled": 0, "name": "10a80d84f15b45b9a374caa2d8552bd2", "fusion_lat": 0.0, "rental_uris": {"ios": "https://dc.lft.to/lastmile_qr_scan", "android": "https://dc.lft.to/lastmile_qr_scan"}, "lon": -77.03636183333333, "type": "electric_scooter"}, {"bike_id": "0b1bba7713923478853cdc3bd272c3c7", "is_reserved": 0, "fusion_lon": 0.0, "lat": 38.88738983333333, "is_disabled": 0, "name": "0b1bba7713923478853cdc3bd272c3c7", "fusion_lat": 0.0, "rental_uris": {"ios": "https://dc.lft.to/lastmile_qr_scan", "android": "https://dc.lft.to/lastmile_qr_scan"}, "lon": -77.015355, "type": "electric_scooter"}, {"bike_id": "0c96e962ef3302f28f57bc89b5ad0641", "is_reserved": 0, "fusion_lon": 0.0, "lat": 38.897824166666666, "is_disabled": 0, "name": "0c96e962ef3302f28f57bc89b5ad0641", "fusion_lat": 0.0, "rental_uris": {"ios": "https://dc.lft.to/lastmile_qr_scan", "android": "https://dc.lft.to/lastmile_qr_scan"}, "lon": -77.00754916666666, "type": "electric_scooter"}, {"bike_id": "b0149a31b51c648844382d2822bf6b22", "is_reserved": 0, "fusion_lon": 0.0, "lat": 38.874597666666666, "is_disabled": 0, "name": "b0149a31b51c648844382d2822bf6b22", "fusion_lat": 0.0, "rental_uris": {"ios": "https://dc.lft.to/lastmile_qr_scan", "android": "https://dc.lft.to/lastmile_qr_scan"}, "lon": -77.005427, "type": "electric_scooter"}, {"bike_id": "25ae3ece6a2c9c297fe9da0b764c11b7", "is_reserved": 0, "fusion_lon": 0.0, "lat": 38.90623216666667, "is_disabled": 0, "name": "25ae3ece6a2c9c297fe9da0b764c11b7", "fusion_lat": 0.0, "rental_uris": {"ios": "https://dc.lft.to/lastmile_qr_scan", "android": "https://dc.lft.to/lastmile_qr_scan"}, "lon": -77.03954683333333, "type": "electric_scooter"}, {"bike_id": "1ddd84874fa05a655bf95ea1c8f60137", "is_reserved": 0, "fusion_lon": 0.0, "lat": 38.90030433333333, "is_disabled": 0, "name": "1ddd84874fa05a655bf95ea1c8f60137", "fusion_lat": 0.0, "rental_uris": {"ios": "https://dc.lft.to/lastmile_qr_scan", "android": "https://dc.lft.to/lastmile_qr_scan"}, "lon": -77.04366266666666, "type": "electric_scooter"}, {"bike_id": "4ed0fd56b6b84f7d8906aa47ade8fdb7", "is_reserved": 0, "fusion_lon": 0.0, "lat": 38.925860166666666, "is_disabled": 0, "name": "4ed0fd56b6b84f7d8906aa47ade8fdb7", "fusion_lat": 0.0, "rental_uris": {"ios": "https://dc.lft.to/lastmile_qr_scan", "android": "https://dc.lft.to/lastmile_qr_scan"}, "lon": -77.00462616666667, "type": "electric_scooter"}, {"bike_id": "ff546c72f519e61827b1521f212e2ba4", "is_reserved": 0, "fusion_lon": 0.0, "lat": 38.89223283333333, "is_disabled": 0, "name": "ff546c72f519e61827b1521f212e2ba4", "fusion_lat": 0.0, "rental_uris": {"ios": "https://dc.lft.to/lastmile_qr_scan", "android": "https://dc.lft.to/lastmile_qr_scan"}, "lon": -77.033415, "type": "electric_scooter"}, {"bike_id": "663f45ee21c40c02d8aa2c195c984169", "is_reserved": 0, "fusion_lon": 0.0, "lat": 38.91593016666667, "is_disabled": 0, "name": "663f45ee21c40c02d8aa2c195c984169", "fusion_lat": 0.0, "rental_uris": {"ios": "https://dc.lft.to/lastmile_qr_scan", "android": "https://dc.lft.to/lastmile_qr_scan"}, "lon": -77.041735, "type": "electric_scooter"}, {"bike_id": "941181470b5bba5590d49a1f6bfd4ff0", "is_reserved": 0, "fusion_lon": 0.0, "lat": 38.9375285, "is_disabled": 0, "name": "941181470b5bba5590d49a1f6bfd4ff0", "fusion_lat": 0.0, "rental_uris": {"ios": "https://dc.lft.to/lastmile_qr_scan", "android": "https://dc.lft.to/lastmile_qr_scan"}, "lon": -77.03575483333333, "type": "electric_scooter"}, {"bike_id": "f2561637b8c3259c5bf4ec2772fda595", "is_reserved": 0, "fusion_lon": 0.0, "lat": 38.861595333333334, "is_disabled": 0, "name": "f2561637b8c3259c5bf4ec2772fda595", "fusion_lat": 0.0, "rental_uris": {"ios": "https://dc.lft.to/lastmile_qr_scan", "android": "https://dc.lft.to/lastmile_qr_scan"}, "lon": -77.13094533333333, "type": "electric_bike"}, {"bike_id": "0bec599e777743ca35145ed93081ec73", "is_reserved": 0, "fusion_lon": 0.0, "lat": 38.905699166666665, "is_disabled": 0, "name": "0bec599e777743ca35145ed93081ec73", "fusion_lat": 0.0, "rental_uris": {"ios": "https://dc.lft.to/lastmile_qr_scan", "android": "https://dc.lft.to/lastmile_qr_scan"}, "lon": -77.01509716666666, "type": "electric_scooter"}, {"bike_id": "87ec122377eef7288bbe6b3094172a1b", "is_reserved": 0, "fusion_lon": 0.0, "lat": 38.90817116666667, "is_disabled": 0, "name": "87ec122377eef7288bbe6b3094172a1b", "fusion_lat": 0.0, "rental_uris": {"ios": "https://dc.lft.to/lastmile_qr_scan", "android": "https://dc.lft.to/lastmile_qr_scan"}, "lon": -77.03425133333333, "type": "electric_scooter"}, {"bike_id": "dbcfe7a6fcf98037ca1f2dc511bb9716", "is_reserved": 0, "fusion_lon": 0.0, "lat": 38.917257, "is_disabled": 0, "name": "dbcfe7a6fcf98037ca1f2dc511bb9716", "fusion_lat": 0.0, "rental_uris": {"ios": "https://dc.lft.to/lastmile_qr_scan", "android": "https://dc.lft.to/lastmile_qr_scan"}, "lon": -77.03660016666667, "type": "electric_scooter"}, {"bike_id": "8502d6374962df8e1d7319c00f03d329", "is_reserved": 0, "fusion_lon": 0.0, "lat": 38.904891166666665, "is_disabled": 0, "name": "8502d6374962df8e1d7319c00f03d329", "fusion_lat": 0.0, "rental_uris": {"ios": "https://dc.lft.to/lastmile_qr_scan", "android": "https://dc.lft.to/lastmile_qr_scan"}, "lon": -77.029228, "type": "electric_scooter"}, {"bike_id": "cfb923193d2af06ee7e1ff26c85b45a6", "is_reserved": 0, "fusion_lon": 0.0, "lat": 38.903283, "is_disabled": 0, "name": "cfb923193d2af06ee7e1ff26c85b45a6", "fusion_lat": 0.0, "rental_uris": {"ios": "https://dc.lft.to/lastmile_qr_scan", "android": "https://dc.lft.to/lastmile_qr_scan"}, "lon": -76.97536733333334, "type": "electric_bike"}, {"bike_id": "8709d3ad9bfed29312cde1fde50516ee", "is_reserved": 0, "fusion_lon": 0.0, "lat": 38.9095825, "is_disabled": 0, "name": "8709d3ad9bfed29312cde1fde50516ee", "fusion_lat": 0.0, "rental_uris": {"ios": "https://dc.lft.to/lastmile_qr_scan", "android": "https://dc.lft.to/lastmile_qr_scan"}, "lon": -76.9846825, "type": "electric_scooter"}, {"bike_id": "a4be916d44d6f850730c810d2c583d07", "is_reserved": 0, "fusion_lon": 0.0, "lat": 38.96762116666667, "is_disabled": 0, "name": "a4be916d44d6f850730c810d2c583d07", "fusion_lat": 0.0, "rental_uris": {"ios": "https://dc.lft.to/lastmile_qr_scan", "android": "https://dc.lft.to/lastmile_qr_scan"}, "lon": -77.091576, "type": "electric_bike"}, {"bike_id": "8a7de29002aec0a46d87cfae9c5130c8", "is_reserved": 0, "fusion_lon": 0.0, "lat": 38.9002355, "is_disabled": 0, "name": "8a7de29002aec0a46d87cfae9c5130c8", "fusion_lat": 0.0, "rental_uris": {"ios": "https://dc.lft.to/lastmile_qr_scan", "android": "https://dc.lft.to/lastmile_qr_scan"}, "lon": -76.9878855, "type": "electric_scooter"}, {"bike_id": "3db3c2d4c25bd8c666a134605da1def3", "is_reserved": 0, "fusion_lon": 0.0, "lat": 38.9097025, "is_disabled": 0, "name": "3db3c2d4c25bd8c666a134605da1def3", "fusion_lat": 0.0, "rental_uris": {"ios": "https://dc.lft.to/lastmile_qr_scan", "android": "https://dc.lft.to/lastmile_qr_scan"}, "lon": -77.02721416666667, "type": "electric_scooter"}, {"bike_id": "68be551e81037efe1b46c0d768b0b80f", "is_reserved": 0, "fusion_lon": 0.0, "lat": 38.902363666666666, "is_disabled": 0, "name": "68be551e81037efe1b46c0d768b0b80f", "fusion_lat": 0.0, "rental_uris": {"ios": "https://dc.lft.to/lastmile_qr_scan", "android": "https://dc.lft.to/lastmile_qr_scan"}, "lon": -76.97417566666667, "type": "electric_scooter"}, {"bike_id": "7857656a5b6dbe3051b4bd7b32ad61f9", "is_reserved": 0, "fusion_lon": 0.0, "lat": 38.941825, "is_disabled": 0, "name": "7857656a5b6dbe3051b4bd7b32ad61f9", "fusion_lat": 0.0, "rental_uris": {"ios": "https://dc.lft.to/lastmile_qr_scan", "android": "https://dc.lft.to/lastmile_qr_scan"}, "lon": -77.0170815, "type": "electric_scooter"}, {"bike_id": "7832070c643a9a49c002d124d58b78d7", "is_reserved": 0, "fusion_lon": 0.0, "lat": 38.9751495, "is_disabled": 0, "name": "7832070c643a9a49c002d124d58b78d7", "fusion_lat": 0.0, "rental_uris": {"ios": "https://dc.lft.to/lastmile_qr_scan", "android": "https://dc.lft.to/lastmile_qr_scan"}, "lon": -77.01746533333333, "type": "electric_scooter"}, {"bike_id": "b131b1d238f75c7070daf08e9e75d690", "is_reserved": 0, "fusion_lon": 0.0, "lat": 38.93507433333333, "is_disabled": 0, "name": "b131b1d238f75c7070daf08e9e75d690", "fusion_lat": 0.0, "rental_uris": {"ios": "https://dc.lft.to/lastmile_qr_scan", "android": "https://dc.lft.to/lastmile_qr_scan"}, "lon": -77.0330545, "type": "electric_scooter"}, {"bike_id": "e3323a8860693857b4eeb36bddbe68c3", "is_reserved": 0, "fusion_lon": 0.0, "lat": 38.91047066666667, "is_disabled": 0, "name": "e3323a8860693857b4eeb36bddbe68c3", "fusion_lat": 0.0, "rental_uris": {"ios": "https://dc.lft.to/lastmile_qr_scan", "android": "https://dc.lft.to/lastmile_qr_scan"}, "lon": -77.0219195, "type": "electric_scooter"}, {"bike_id": "18f274bbbbc4662ae9f3f98c5a760e1b", "is_reserved": 0, "fusion_lon": 0.0, "lat": 38.84297183333334, "is_disabled": 0, "name": "18f274bbbbc4662ae9f3f98c5a760e1b", "fusion_lat": 0.0, "rental_uris": {"ios": "https://dc.lft.to/lastmile_qr_scan", "android": "https://dc.lft.to/lastmile_qr_scan"}, "lon": -76.999468, "type": "electric_scooter"}, {"bike_id": "1340390a58d178c1d5ae3a0e4487245f", "is_reserved": 0, "fusion_lon": 0.0, "lat": 38.905655333333335, "is_disabled": 0, "name": "1340390a58d178c1d5ae3a0e4487245f", "fusion_lat": 0.0, "rental_uris": {"ios": "https://dc.lft.to/lastmile_qr_scan", "android": "https://dc.lft.to/lastmile_qr_scan"}, "lon": -77.01673433333333, "type": "electric_scooter"}, {"bike_id": "34b12f51dbe1b42ace30e2dfd5bbe6a0", "is_reserved": 0, "fusion_lon": 0.0, "lat": 38.88671733333334, "is_disabled": 0, "name": "34b12f51dbe1b42ace30e2dfd5bbe6a0", "fusion_lat": 0.0, "rental_uris": {"ios": "https://dc.lft.to/lastmile_qr_scan", "android": "https://dc.lft.to/lastmile_qr_scan"}, "lon": -77.01375616666667, "type": "electric_scooter"}, {"bike_id": "da821756ee9912438217440740d1a4d2", "is_reserved": 0, "fusion_lon": 0.0, "lat": 38.906847166666665, "is_disabled": 0, "name": "da821756ee9912438217440740d1a4d2", "fusion_lat": 0.0, "rental_uris": {"ios": "https://dc.lft.to/lastmile_qr_scan", "android": "https://dc.lft.to/lastmile_qr_scan"}, "lon": -77.009464, "type": "electric_scooter"}, {"bike_id": "d56e5848732dc741b25e5b68db297d0d", "is_reserved": 0, "fusion_lon": 0.0, "lat": 38.92130266666667, "is_disabled": 0, "name": "d56e5848732dc741b25e5b68db297d0d", "fusion_lat": 0.0, "rental_uris": {"ios": "https://dc.lft.to/lastmile_qr_scan", "android": "https://dc.lft.to/lastmile_qr_scan"}, "lon": -77.02197566666666, "type": "electric_scooter"}, {"bike_id": "01094000649580e03e3aebfcd842fe97", "is_reserved": 0, "fusion_lon": 0.0, "lat": 38.92735916666667, "is_disabled": 0, "name": "01094000649580e03e3aebfcd842fe97", "fusion_lat": 0.0, "rental_uris": {"ios": "https://dc.lft.to/lastmile_qr_scan", "android": "https://dc.lft.to/lastmile_qr_scan"}, "lon": -77.053704, "type": "electric_scooter"}, {"bike_id": "9d2e691634b5424103e3c3ceef183719", "is_reserved": 0, "fusion_lon": 0.0, "lat": 38.892185166666664, "is_disabled": 0, "name": "9d2e691634b5424103e3c3ceef183719", "fusion_lat": 0.0, "rental_uris": {"ios": "https://dc.lft.to/lastmile_qr_scan", "android": "https://dc.lft.to/lastmile_qr_scan"}, "lon": -77.03223633333333, "type": "electric_scooter"}, {"bike_id": "fa80cfa99b39179a087ca3fad6e2f32a", "is_reserved": 0, "fusion_lon": 0.0, "lat": 38.8524575, "is_disabled": 0, "name": "fa80cfa99b39179a087ca3fad6e2f32a", "fusion_lat": 0.0, "rental_uris": {"ios": "https://dc.lft.to/lastmile_qr_scan", "android": "https://dc.lft.to/lastmile_qr_scan"}, "lon": -77.11431866666666, "type": "electric_bike"}, {"bike_id": "8067084a0818428c0b0df247653cbc35", "is_reserved": 0, "fusion_lon": 0.0, "lat": 38.9024715, "is_disabled": 0, "name": "8067084a0818428c0b0df247653cbc35", "fusion_lat": 0.0, "rental_uris": {"ios": "https://dc.lft.to/lastmile_qr_scan", "android": "https://dc.lft.to/lastmile_qr_scan"}, "lon": -77.03963983333334, "type": "electric_scooter"}, {"bike_id": "071df136be1feeda7a3422a2b72615a0", "is_reserved": 0, "fusion_lon": 0.0, "lat": 38.902691833333336, "is_disabled": 0, "name": "071df136be1feeda7a3422a2b72615a0", "fusion_lat": 0.0, "rental_uris": {"ios": "https://dc.lft.to/lastmile_qr_scan", "android": "https://dc.lft.to/lastmile_qr_scan"}, "lon": -77.03858583333333, "type": "electric_scooter"}, {"bike_id": "1a72f3c5738aa0316b495825581c0804", "is_reserved": 0, "fusion_lon": 0.0, "lat": 38.91207933333333, "is_disabled": 0, "name": "1a72f3c5738aa0316b495825581c0804", "fusion_lat": 0.0, "rental_uris": {"ios": "https://dc.lft.to/lastmile_qr_scan", "android": "https://dc.lft.to/lastmile_qr_scan"}, "lon": -77.02966316666667, "type": "electric_scooter"}, {"bike_id": "b8cc67f6bef30ccc358caa071e9e6df1", "is_reserved": 0, "fusion_lon": 0.0, "lat": 38.911171, "is_disabled": 0, "name": "b8cc67f6bef30ccc358caa071e9e6df1", "fusion_lat": 0.0, "rental_uris": {"ios": "https://dc.lft.to/lastmile_qr_scan", "android": "https://dc.lft.to/lastmile_qr_scan"}, "lon": -77.03734033333333, "type": "electric_scooter"}, {"bike_id": "1ce5fadab3d32aeabd3079d4b721fea0", "is_reserved": 0, "fusion_lon": 0.0, "lat": 38.934998, "is_disabled": 0, "name": "1ce5fadab3d32aeabd3079d4b721fea0", "fusion_lat": 0.0, "rental_uris": {"ios": "https://dc.lft.to/lastmile_qr_scan", "android": "https://dc.lft.to/lastmile_qr_scan"}, "lon": -77.027215, "type": "electric_scooter"}, {"bike_id": "e186cd0927fdd2ea3aeeee10c7440ada", "is_reserved": 0, "fusion_lon": 0.0, "lat": 38.939775, "is_disabled": 0, "name": "e186cd0927fdd2ea3aeeee10c7440ada", "fusion_lat": 0.0, "rental_uris": {"ios": "https://dc.lft.to/lastmile_qr_scan", "android": "https://dc.lft.to/lastmile_qr_scan"}, "lon": -77.03591116666666, "type": "electric_scooter"}, {"bike_id": "521c8d9f3238bfcf4b0c213e1517876c", "is_reserved": 0, "fusion_lon": 0.0, "lat": 38.90453083333333, "is_disabled": 0, "name": "521c8d9f3238bfcf4b0c213e1517876c", "fusion_lat": 0.0, "rental_uris": {"ios": "https://dc.lft.to/lastmile_qr_scan", "android": "https://dc.lft.to/lastmile_qr_scan"}, "lon": -77.029001, "type": "electric_scooter"}, {"bike_id": "9fce734f20ef7b7b95ea125716b3b8b4", "is_reserved": 0, "fusion_lon": 0.0, "lat": 38.90028383333333, "is_disabled": 0, "name": "9fce734f20ef7b7b95ea125716b3b8b4", "fusion_lat": 0.0, "rental_uris": {"ios": "https://dc.lft.to/lastmile_qr_scan", "android": "https://dc.lft.to/lastmile_qr_scan"}, "lon": -77.0115985, "type": "electric_scooter"}, {"bike_id": "8850999c6bd226a45798c59afaa823cc", "is_reserved": 0, "fusion_lon": 0.0, "lat": 38.896218833333336, "is_disabled": 0, "name": "8850999c6bd226a45798c59afaa823cc", "fusion_lat": 0.0, "rental_uris": {"ios": "https://dc.lft.to/lastmile_qr_scan", "android": "https://dc.lft.to/lastmile_qr_scan"}, "lon": -77.00050883333333, "type": "electric_bike"}, {"bike_id": "82c473236e2f0f38e6a85ded5d7a577d", "is_reserved": 0, "fusion_lon": 0.0, "lat": 38.9155495, "is_disabled": 0, "name": "82c473236e2f0f38e6a85ded5d7a577d", "fusion_lat": 0.0, "rental_uris": {"ios": "https://dc.lft.to/lastmile_qr_scan", "android": "https://dc.lft.to/lastmile_qr_scan"}, "lon": -77.03869116666667, "type": "electric_scooter"}, {"bike_id": "e7ed68fc198523bed5768682a8496cb8", "is_reserved": 0, "fusion_lon": 0.0, "lat": 38.894752833333335, "is_disabled": 0, "name": "e7ed68fc198523bed5768682a8496cb8", "fusion_lat": 0.0, "rental_uris": {"ios": "https://dc.lft.to/lastmile_qr_scan", "android": "https://dc.lft.to/lastmile_qr_scan"}, "lon": -77.05005, "type": "electric_scooter"}, {"bike_id": "cc9318ef06c4064f0c5a4f108e5ea5f2", "is_reserved": 0, "fusion_lon": 0.0, "lat": 38.92373216666667, "is_disabled": 0, "name": "cc9318ef06c4064f0c5a4f108e5ea5f2", "fusion_lat": 0.0, "rental_uris": {"ios": "https://dc.lft.to/lastmile_qr_scan", "android": "https://dc.lft.to/lastmile_qr_scan"}, "lon": -77.02066033333334, "type": "electric_scooter"}, {"bike_id": "0d6e29869c5e06923d08e2a1a58a7609", "is_reserved": 0, "fusion_lon": 0.0, "lat": 38.897439166666665, "is_disabled": 0, "name": "0d6e29869c5e06923d08e2a1a58a7609", "fusion_lat": 0.0, "rental_uris": {"ios": "https://dc.lft.to/lastmile_qr_scan", "android": "https://dc.lft.to/lastmile_qr_scan"}, "lon": -77.046399, "type": "electric_scooter"}, {"bike_id": "133a9f50b4e004c58e21ca39d8504e35", "is_reserved": 0, "fusion_lon": 0.0, "lat": 38.9079625, "is_disabled": 0, "name": "133a9f50b4e004c58e21ca39d8504e35", "fusion_lat": 0.0, "rental_uris": {"ios": "https://dc.lft.to/lastmile_qr_scan", "android": "https://dc.lft.to/lastmile_qr_scan"}, "lon": -77.03466333333333, "type": "electric_scooter"}, {"bike_id": "8904e57b6d5f0f90777e9da937b7e276", "is_reserved": 0, "fusion_lon": 0.0, "lat": 38.877376, "is_disabled": 0, "name": "8904e57b6d5f0f90777e9da937b7e276", "fusion_lat": 0.0, "rental_uris": {"ios": "https://dc.lft.to/lastmile_qr_scan", "android": "https://dc.lft.to/lastmile_qr_scan"}, "lon": -76.9728145, "type": "electric_scooter"}, {"bike_id": "0e51b83ae109a7731fba72cb78a7744a", "is_reserved": 0, "fusion_lon": 0.0, "lat": 38.902872333333335, "is_disabled": 0, "name": "0e51b83ae109a7731fba72cb78a7744a", "fusion_lat": 0.0, "rental_uris": {"ios": "https://dc.lft.to/lastmile_qr_scan", "android": "https://dc.lft.to/lastmile_qr_scan"}, "lon": -77.01643316666667, "type": "electric_bike"}, {"bike_id": "9bd4e200b783ce32135affe1ee90257b", "is_reserved": 0, "fusion_lon": 0.0, "lat": 38.862028333333335, "is_disabled": 0, "name": "9bd4e200b783ce32135affe1ee90257b", "fusion_lat": 0.0, "rental_uris": {"ios": "https://dc.lft.to/lastmile_qr_scan", "android": "https://dc.lft.to/lastmile_qr_scan"}, "lon": -76.9946305, "type": "electric_scooter"}, {"bike_id": "330f4167aeeeba83bd879d36e7396d77", "is_reserved": 0, "fusion_lon": 0.0, "lat": 38.94047333333334, "is_disabled": 0, "name": "330f4167aeeeba83bd879d36e7396d77", "fusion_lat": 0.0, "rental_uris": {"ios": "https://dc.lft.to/lastmile_qr_scan", "android": "https://dc.lft.to/lastmile_qr_scan"}, "lon": -77.02976983333333, "type": "electric_scooter"}, {"bike_id": "acb6d42f17acd57b715a013705b54037", "is_reserved": 0, "fusion_lon": 0.0, "lat": 38.92260783333333, "is_disabled": 0, "name": "acb6d42f17acd57b715a013705b54037", "fusion_lat": 0.0, "rental_uris": {"ios": "https://dc.lft.to/lastmile_qr_scan", "android": "https://dc.lft.to/lastmile_qr_scan"}, "lon": -77.04136916666667, "type": "electric_scooter"}, {"bike_id": "5843274ff1afdf9041f1b69519291cf8", "is_reserved": 0, "fusion_lon": 0.0, "lat": 38.99069266666667, "is_disabled": 0, "name": "5843274ff1afdf9041f1b69519291cf8", "fusion_lat": 0.0, "rental_uris": {"ios": "https://dc.lft.to/lastmile_qr_scan", "android": "https://dc.lft.to/lastmile_qr_scan"}, "lon": -77.10027516666666, "type": "electric_bike"}, {"bike_id": "7052821b5f5e93b8dd98e91f5dcf4a75", "is_reserved": 0, "fusion_lon": 0.0, "lat": 38.920931833333334, "is_disabled": 0, "name": "7052821b5f5e93b8dd98e91f5dcf4a75", "fusion_lat": 0.0, "rental_uris": {"ios": "https://dc.lft.to/lastmile_qr_scan", "android": "https://dc.lft.to/lastmile_qr_scan"}, "lon": -76.99894516666667, "type": "electric_scooter"}, {"bike_id": "340346b88b2225bdaef7f921145708cd", "is_reserved": 0, "fusion_lon": 0.0, "lat": 38.872325333333336, "is_disabled": 0, "name": "340346b88b2225bdaef7f921145708cd", "fusion_lat": 0.0, "rental_uris": {"ios": "https://dc.lft.to/lastmile_qr_scan", "android": "https://dc.lft.to/lastmile_qr_scan"}, "lon": -77.01167366666667, "type": "electric_bike"}, {"bike_id": "53f408639e6c97621413be40fa2c0b1a", "is_reserved": 0, "fusion_lon": 0.0, "lat": 38.9187455, "is_disabled": 0, "name": "53f408639e6c97621413be40fa2c0b1a", "fusion_lat": 0.0, "rental_uris": {"ios": "https://dc.lft.to/lastmile_qr_scan", "android": "https://dc.lft.to/lastmile_qr_scan"}, "lon": -77.03505183333333, "type": "electric_scooter"}, {"bike_id": "d68e59eb8fb9c593d264dab516d24090", "is_reserved": 0, "fusion_lon": 0.0, "lat": 38.90790283333333, "is_disabled": 0, "name": "d68e59eb8fb9c593d264dab516d24090", "fusion_lat": 0.0, "rental_uris": {"ios": "https://dc.lft.to/lastmile_qr_scan", "android": "https://dc.lft.to/lastmile_qr_scan"}, "lon": -77.0346485, "type": "electric_scooter"}, {"bike_id": "d9115a264507212d1040a589bebb3f41", "is_reserved": 0, "fusion_lon": 0.0, "lat": 38.92044883333333, "is_disabled": 0, "name": "d9115a264507212d1040a589bebb3f41", "fusion_lat": 0.0, "rental_uris": {"ios": "https://dc.lft.to/lastmile_qr_scan", "android": "https://dc.lft.to/lastmile_qr_scan"}, "lon": -76.99823616666667, "type": "electric_scooter"}, {"bike_id": "9d3ccb8aa943268017ccd2f243054c40", "is_reserved": 0, "fusion_lon": 0.0, "lat": 38.924160666666666, "is_disabled": 0, "name": "9d3ccb8aa943268017ccd2f243054c40", "fusion_lat": 0.0, "rental_uris": {"ios": "https://dc.lft.to/lastmile_qr_scan", "android": "https://dc.lft.to/lastmile_qr_scan"}, "lon": -77.0354285, "type": "electric_scooter"}, {"bike_id": "787cb0a183b74a0833a958402971eb5f", "is_reserved": 0, "fusion_lon": 0.0, "lat": 38.918044333333334, "is_disabled": 0, "name": "787cb0a183b74a0833a958402971eb5f", "fusion_lat": 0.0, "rental_uris": {"ios": "https://dc.lft.to/lastmile_qr_scan", "android": "https://dc.lft.to/lastmile_qr_scan"}, "lon": -77.03439833333333, "type": "electric_scooter"}, {"bike_id": "d5833492879b43422e6d064e301af5e8", "is_reserved": 0, "fusion_lon": 0.0, "lat": 38.900317, "is_disabled": 0, "name": "d5833492879b43422e6d064e301af5e8", "fusion_lat": 0.0, "rental_uris": {"ios": "https://dc.lft.to/lastmile_qr_scan", "android": "https://dc.lft.to/lastmile_qr_scan"}, "lon": -77.00191716666667, "type": "electric_scooter"}, {"bike_id": "8bc960839471e61811fcf6e30b594fc5", "is_reserved": 0, "fusion_lon": 0.0, "lat": 38.9394915, "is_disabled": 0, "name": "8bc960839471e61811fcf6e30b594fc5", "fusion_lat": 0.0, "rental_uris": {"ios": "https://dc.lft.to/lastmile_qr_scan", "android": "https://dc.lft.to/lastmile_qr_scan"}, "lon": -77.03265816666666, "type": "electric_scooter"}, {"bike_id": "8aaca1f8e3d0fe29f34dfb4b1aa1cd25", "is_reserved": 0, "fusion_lon": 0.0, "lat": 38.89229, "is_disabled": 0, "name": "8aaca1f8e3d0fe29f34dfb4b1aa1cd25", "fusion_lat": 0.0, "rental_uris": {"ios": "https://dc.lft.to/lastmile_qr_scan", "android": "https://dc.lft.to/lastmile_qr_scan"}, "lon": -77.021793, "type": "electric_scooter"}, {"bike_id": "aa8e002c55cbc97973730bd925ecfbb7", "is_reserved": 0, "fusion_lon": 0.0, "lat": 38.899677833333335, "is_disabled": 0, "name": "aa8e002c55cbc97973730bd925ecfbb7", "fusion_lat": 0.0, "rental_uris": {"ios": "https://dc.lft.to/lastmile_qr_scan", "android": "https://dc.lft.to/lastmile_qr_scan"}, "lon": -77.01630316666666, "type": "electric_scooter"}, {"bike_id": "5baa08cab4f5ad7b9b9938bb428da208", "is_reserved": 0, "fusion_lon": 0.0, "lat": 38.9339745, "is_disabled": 0, "name": "5baa08cab4f5ad7b9b9938bb428da208", "fusion_lat": 0.0, "rental_uris": {"ios": "https://dc.lft.to/lastmile_qr_scan", "android": "https://dc.lft.to/lastmile_qr_scan"}, "lon": -77.02066283333333, "type": "electric_scooter"}, {"bike_id": "7b714a5ca80194d241e5a59e50134304", "is_reserved": 0, "fusion_lon": 0.0, "lat": 38.952790666666665, "is_disabled": 0, "name": "7b714a5ca80194d241e5a59e50134304", "fusion_lat": 0.0, "rental_uris": {"ios": "https://dc.lft.to/lastmile_qr_scan", "android": "https://dc.lft.to/lastmile_qr_scan"}, "lon": -77.00791416666667, "type": "electric_scooter"}, {"bike_id": "4852927218f57b3e7a2340f8097925a6", "is_reserved": 0, "fusion_lon": 0.0, "lat": 38.90012766666667, "is_disabled": 0, "name": "4852927218f57b3e7a2340f8097925a6", "fusion_lat": 0.0, "rental_uris": {"ios": "https://dc.lft.to/lastmile_qr_scan", "android": "https://dc.lft.to/lastmile_qr_scan"}, "lon": -76.9978325, "type": "electric_scooter"}, {"bike_id": "083a4fa63bf3e0357883d4bdcd7b0495", "is_reserved": 0, "fusion_lon": 0.0, "lat": 38.92439383333333, "is_disabled": 0, "name": "083a4fa63bf3e0357883d4bdcd7b0495", "fusion_lat": 0.0, "rental_uris": {"ios": "https://dc.lft.to/lastmile_qr_scan", "android": "https://dc.lft.to/lastmile_qr_scan"}, "lon": -77.03999833333333, "type": "electric_scooter"}, {"bike_id": "43109aa4adcf8750d0e8dc09ee7fa990", "is_reserved": 0, "fusion_lon": 0.0, "lat": 38.85323283333334, "is_disabled": 0, "name": "43109aa4adcf8750d0e8dc09ee7fa990", "fusion_lat": 0.0, "rental_uris": {"ios": "https://dc.lft.to/lastmile_qr_scan", "android": "https://dc.lft.to/lastmile_qr_scan"}, "lon": -76.980056, "type": "electric_scooter"}, {"bike_id": "4352ad77602e8bd398644bc5dcd7778f", "is_reserved": 0, "fusion_lon": 0.0, "lat": 38.91440716666666, "is_disabled": 0, "name": "4352ad77602e8bd398644bc5dcd7778f", "fusion_lat": 0.0, "rental_uris": {"ios": "https://dc.lft.to/lastmile_qr_scan", "android": "https://dc.lft.to/lastmile_qr_scan"}, "lon": -77.03463083333334, "type": "electric_scooter"}, {"bike_id": "af913d01d97fcbbdf9dd97bef243d57a", "is_reserved": 0, "fusion_lon": 0.0, "lat": 38.89801033333333, "is_disabled": 0, "name": "af913d01d97fcbbdf9dd97bef243d57a", "fusion_lat": 0.0, "rental_uris": {"ios": "https://dc.lft.to/lastmile_qr_scan", "android": "https://dc.lft.to/lastmile_qr_scan"}, "lon": -76.99164483333334, "type": "electric_scooter"}, {"bike_id": "cbf082ce6bb570361a83d1703cd7d59c", "is_reserved": 0, "fusion_lon": 0.0, "lat": 38.84426833333333, "is_disabled": 0, "name": "cbf082ce6bb570361a83d1703cd7d59c", "fusion_lat": 0.0, "rental_uris": {"ios": "https://dc.lft.to/lastmile_qr_scan", "android": "https://dc.lft.to/lastmile_qr_scan"}, "lon": -76.9977975, "type": "electric_scooter"}, {"bike_id": "3c2f7c8c10a61be735e34949dcde6182", "is_reserved": 0, "fusion_lon": 0.0, "lat": 38.91196216666667, "is_disabled": 0, "name": "3c2f7c8c10a61be735e34949dcde6182", "fusion_lat": 0.0, "rental_uris": {"ios": "https://dc.lft.to/lastmile_qr_scan", "android": "https://dc.lft.to/lastmile_qr_scan"}, "lon": -77.061015, "type": "electric_scooter"}, {"bike_id": "afe2abb08510dcd67e60e44ac9894f06", "is_reserved": 0, "fusion_lon": 0.0, "lat": 38.9349845, "is_disabled": 0, "name": "afe2abb08510dcd67e60e44ac9894f06", "fusion_lat": 0.0, "rental_uris": {"ios": "https://dc.lft.to/lastmile_qr_scan", "android": "https://dc.lft.to/lastmile_qr_scan"}, "lon": -77.02834116666666, "type": "electric_scooter"}, {"bike_id": "65d95a73b1433701bcea57ce2f3a1138", "is_reserved": 0, "fusion_lon": 0.0, "lat": 38.91186416666667, "is_disabled": 0, "name": "65d95a73b1433701bcea57ce2f3a1138", "fusion_lat": 0.0, "rental_uris": {"ios": "https://dc.lft.to/lastmile_qr_scan", "android": "https://dc.lft.to/lastmile_qr_scan"}, "lon": -77.0454845, "type": "electric_scooter"}, {"bike_id": "cc032afbbc1cab1e980499573c569ffa", "is_reserved": 0, "fusion_lon": 0.0, "lat": 38.903092, "is_disabled": 0, "name": "cc032afbbc1cab1e980499573c569ffa", "fusion_lat": 0.0, "rental_uris": {"ios": "https://dc.lft.to/lastmile_qr_scan", "android": "https://dc.lft.to/lastmile_qr_scan"}, "lon": -77.033195, "type": "electric_scooter"}, {"bike_id": "e3125dbff365cd86d455dd0c2e6a32f9", "is_reserved": 0, "fusion_lon": 0.0, "lat": 38.90030983333333, "is_disabled": 0, "name": "e3125dbff365cd86d455dd0c2e6a32f9", "fusion_lat": 0.0, "rental_uris": {"ios": "https://dc.lft.to/lastmile_qr_scan", "android": "https://dc.lft.to/lastmile_qr_scan"}, "lon": -76.99518833333333, "type": "electric_scooter"}, {"bike_id": "d25ebcfb31ad19e3d1ef0a48c457695e", "is_reserved": 0, "fusion_lon": 0.0, "lat": 38.94605333333333, "is_disabled": 0, "name": "d25ebcfb31ad19e3d1ef0a48c457695e", "fusion_lat": 0.0, "rental_uris": {"ios": "https://dc.lft.to/lastmile_qr_scan", "android": "https://dc.lft.to/lastmile_qr_scan"}, "lon": -77.02975883333333, "type": "electric_scooter"}, {"bike_id": "2c766a294a6a6c68fde7cccbc15fe2e7", "is_reserved": 0, "fusion_lon": 0.0, "lat": 38.810497833333336, "is_disabled": 0, "name": "2c766a294a6a6c68fde7cccbc15fe2e7", "fusion_lat": 0.0, "rental_uris": {"ios": "https://dc.lft.to/lastmile_qr_scan", "android": "https://dc.lft.to/lastmile_qr_scan"}, "lon": -77.08505466666666, "type": "electric_bike"}, {"bike_id": "8afa1dc6d6283f0345001e5dcaf55089", "is_reserved": 0, "fusion_lon": 0.0, "lat": 38.892224166666665, "is_disabled": 0, "name": "8afa1dc6d6283f0345001e5dcaf55089", "fusion_lat": 0.0, "rental_uris": {"ios": "https://dc.lft.to/lastmile_qr_scan", "android": "https://dc.lft.to/lastmile_qr_scan"}, "lon": -77.0398095, "type": "electric_scooter"}, {"bike_id": "0c0fbb9e60497cea219e5d12662ed3ad", "is_reserved": 0, "fusion_lon": 0.0, "lat": 38.89222316666667, "is_disabled": 0, "name": "0c0fbb9e60497cea219e5d12662ed3ad", "fusion_lat": 0.0, "rental_uris": {"ios": "https://dc.lft.to/lastmile_qr_scan", "android": "https://dc.lft.to/lastmile_qr_scan"}, "lon": -77.04861566666666, "type": "electric_scooter"}, {"bike_id": "3adaab474b87d051ad540177d3354846", "is_reserved": 0, "fusion_lon": 0.0, "lat": 38.85430183333333, "is_disabled": 0, "name": "3adaab474b87d051ad540177d3354846", "fusion_lat": 0.0, "rental_uris": {"ios": "https://dc.lft.to/lastmile_qr_scan", "android": "https://dc.lft.to/lastmile_qr_scan"}, "lon": -76.9097255, "type": "electric_bike"}, {"bike_id": "97d5a793520137a5602e0ec1cf668089", "is_reserved": 0, "fusion_lon": 0.0, "lat": 38.886044166666665, "is_disabled": 0, "name": "97d5a793520137a5602e0ec1cf668089", "fusion_lat": 0.0, "rental_uris": {"ios": "https://dc.lft.to/lastmile_qr_scan", "android": "https://dc.lft.to/lastmile_qr_scan"}, "lon": -77.0057275, "type": "electric_scooter"}, {"bike_id": "7fbfc94f3eda89d0973559f9400490f0", "is_reserved": 0, "fusion_lon": 0.0, "lat": 38.85291433333333, "is_disabled": 0, "name": "7fbfc94f3eda89d0973559f9400490f0", "fusion_lat": 0.0, "rental_uris": {"ios": "https://dc.lft.to/lastmile_qr_scan", "android": "https://dc.lft.to/lastmile_qr_scan"}, "lon": -77.05274733333333, "type": "electric_bike"}, {"bike_id": "a837c723a47bac4c972da263c6050634", "is_reserved": 0, "fusion_lon": 0.0, "lat": 38.90171316666667, "is_disabled": 0, "name": "a837c723a47bac4c972da263c6050634", "fusion_lat": 0.0, "rental_uris": {"ios": "https://dc.lft.to/lastmile_qr_scan", "android": "https://dc.lft.to/lastmile_qr_scan"}, "lon": -77.02181483333334, "type": "electric_scooter"}, {"bike_id": "e2472f77411b10840a5f598cbd516512", "is_reserved": 0, "fusion_lon": 0.0, "lat": 38.863756, "is_disabled": 0, "name": "e2472f77411b10840a5f598cbd516512", "fusion_lat": 0.0, "rental_uris": {"ios": "https://dc.lft.to/lastmile_qr_scan", "android": "https://dc.lft.to/lastmile_qr_scan"}, "lon": -76.9905595, "type": "electric_scooter"}, {"bike_id": "76f8f3b21842bf8b550457812754580d", "is_reserved": 0, "fusion_lon": 0.0, "lat": 38.88719966666667, "is_disabled": 0, "name": "76f8f3b21842bf8b550457812754580d", "fusion_lat": 0.0, "rental_uris": {"ios": "https://dc.lft.to/lastmile_qr_scan", "android": "https://dc.lft.to/lastmile_qr_scan"}, "lon": -77.02582233333334, "type": "electric_scooter"}, {"bike_id": "e7c139dff361f7aaa73d02c1ddf873e9", "is_reserved": 0, "fusion_lon": 0.0, "lat": 38.91126116666667, "is_disabled": 0, "name": "e7c139dff361f7aaa73d02c1ddf873e9", "fusion_lat": 0.0, "rental_uris": {"ios": "https://dc.lft.to/lastmile_qr_scan", "android": "https://dc.lft.to/lastmile_qr_scan"}, "lon": -77.02182966666666, "type": "electric_scooter"}, {"bike_id": "750e32c41cdff1c7677c05f3ffc7d4a9", "is_reserved": 0, "fusion_lon": 0.0, "lat": 38.919965166666664, "is_disabled": 0, "name": "750e32c41cdff1c7677c05f3ffc7d4a9", "fusion_lat": 0.0, "rental_uris": {"ios": "https://dc.lft.to/lastmile_qr_scan", "android": "https://dc.lft.to/lastmile_qr_scan"}, "lon": -77.03882583333333, "type": "electric_scooter"}, {"bike_id": "6225c50e71ae38678a7ea3a413b16164", "is_reserved": 0, "fusion_lon": 0.0, "lat": 38.9247735, "is_disabled": 0, "name": "6225c50e71ae38678a7ea3a413b16164", "fusion_lat": 0.0, "rental_uris": {"ios": "https://dc.lft.to/lastmile_qr_scan", "android": "https://dc.lft.to/lastmile_qr_scan"}, "lon": -77.0520895, "type": "electric_scooter"}, {"bike_id": "69acc4b1835629f8a282a9629fc6bb8e", "is_reserved": 0, "fusion_lon": 0.0, "lat": 38.92550516666667, "is_disabled": 0, "name": "69acc4b1835629f8a282a9629fc6bb8e", "fusion_lat": 0.0, "rental_uris": {"ios": "https://dc.lft.to/lastmile_qr_scan", "android": "https://dc.lft.to/lastmile_qr_scan"}, "lon": -77.07324633333333, "type": "electric_bike"}, {"bike_id": "2880e9ec1cf981a71fdce24648d24921", "is_reserved": 0, "fusion_lon": 0.0, "lat": 38.925087833333336, "is_disabled": 0, "name": "2880e9ec1cf981a71fdce24648d24921", "fusion_lat": 0.0, "rental_uris": {"ios": "https://dc.lft.to/lastmile_qr_scan", "android": "https://dc.lft.to/lastmile_qr_scan"}, "lon": -77.01933566666666, "type": "electric_scooter"}, {"bike_id": "c394461b0d2cbad0c5d8bb2835e46441", "is_reserved": 0, "fusion_lon": 0.0, "lat": 38.865264833333335, "is_disabled": 0, "name": "c394461b0d2cbad0c5d8bb2835e46441", "fusion_lat": 0.0, "rental_uris": {"ios": "https://dc.lft.to/lastmile_qr_scan", "android": "https://dc.lft.to/lastmile_qr_scan"}, "lon": -76.9902575, "type": "electric_scooter"}, {"bike_id": "3707f70d16c93cea53ab80a2fd6e3ac1", "is_reserved": 0, "fusion_lon": 0.0, "lat": 38.87135833333333, "is_disabled": 0, "name": "3707f70d16c93cea53ab80a2fd6e3ac1", "fusion_lat": 0.0, "rental_uris": {"ios": "https://dc.lft.to/lastmile_qr_scan", "android": "https://dc.lft.to/lastmile_qr_scan"}, "lon": -76.97745116666667, "type": "electric_scooter"}, {"bike_id": "5e9aac5af21b61b8ace50817bca0eb88", "is_reserved": 0, "fusion_lon": 0.0, "lat": 38.9056585, "is_disabled": 0, "name": "5e9aac5af21b61b8ace50817bca0eb88", "fusion_lat": 0.0, "rental_uris": {"ios": "https://dc.lft.to/lastmile_qr_scan", "android": "https://dc.lft.to/lastmile_qr_scan"}, "lon": -77.03078533333333, "type": "electric_scooter"}, {"bike_id": "cc1e6bc6f823b233c254bf492d9f31ab", "is_reserved": 0, "fusion_lon": 0.0, "lat": 38.858735333333335, "is_disabled": 0, "name": "cc1e6bc6f823b233c254bf492d9f31ab", "fusion_lat": 0.0, "rental_uris": {"ios": "https://dc.lft.to/lastmile_qr_scan", "android": "https://dc.lft.to/lastmile_qr_scan"}, "lon": -77.09557633333333, "type": "electric_bike"}, {"bike_id": "8f1732529eac42d35864477b3ae6631e", "is_reserved": 0, "fusion_lon": 0.0, "lat": 38.920829166666664, "is_disabled": 0, "name": "8f1732529eac42d35864477b3ae6631e", "fusion_lat": 0.0, "rental_uris": {"ios": "https://dc.lft.to/lastmile_qr_scan", "android": "https://dc.lft.to/lastmile_qr_scan"}, "lon": -77.02410933333333, "type": "electric_scooter"}, {"bike_id": "bf8089651c8cb1d5ca188de7f7e7ff7d", "is_reserved": 0, "fusion_lon": 0.0, "lat": 38.911204, "is_disabled": 0, "name": "bf8089651c8cb1d5ca188de7f7e7ff7d", "fusion_lat": 0.0, "rental_uris": {"ios": "https://dc.lft.to/lastmile_qr_scan", "android": "https://dc.lft.to/lastmile_qr_scan"}, "lon": -77.03841333333334, "type": "electric_scooter"}, {"bike_id": "c0c9d4d2d5a4e9243dfd293b4da0c79a", "is_reserved": 0, "fusion_lon": 0.0, "lat": 38.89854783333333, "is_disabled": 0, "name": "c0c9d4d2d5a4e9243dfd293b4da0c79a", "fusion_lat": 0.0, "rental_uris": {"ios": "https://dc.lft.to/lastmile_qr_scan", "android": "https://dc.lft.to/lastmile_qr_scan"}, "lon": -76.99036233333334, "type": "electric_scooter"}, {"bike_id": "dfcc40f037ed282c8029688e6ccd419b", "is_reserved": 0, "fusion_lon": 0.0, "lat": 38.9011375, "is_disabled": 0, "name": "dfcc40f037ed282c8029688e6ccd419b", "fusion_lat": 0.0, "rental_uris": {"ios": "https://dc.lft.to/lastmile_qr_scan", "android": "https://dc.lft.to/lastmile_qr_scan"}, "lon": -77.0319295, "type": "electric_scooter"}, {"bike_id": "93b32cac14ef97b9b5a406944ca284a8", "is_reserved": 0, "fusion_lon": 0.0, "lat": 38.9087565, "is_disabled": 0, "name": "93b32cac14ef97b9b5a406944ca284a8", "fusion_lat": 0.0, "rental_uris": {"ios": "https://dc.lft.to/lastmile_qr_scan", "android": "https://dc.lft.to/lastmile_qr_scan"}, "lon": -77.03290466666667, "type": "electric_scooter"}, {"bike_id": "d54ba271cfb783da93c1e3d7f521b95d", "is_reserved": 0, "fusion_lon": 0.0, "lat": 38.89223916666667, "is_disabled": 0, "name": "d54ba271cfb783da93c1e3d7f521b95d", "fusion_lat": 0.0, "rental_uris": {"ios": "https://dc.lft.to/lastmile_qr_scan", "android": "https://dc.lft.to/lastmile_qr_scan"}, "lon": -77.03340966666667, "type": "electric_scooter"}, {"bike_id": "6a53ebe424ac0e97634014a11f879767", "is_reserved": 0, "fusion_lon": 0.0, "lat": 38.863703666666666, "is_disabled": 0, "name": "6a53ebe424ac0e97634014a11f879767", "fusion_lat": 0.0, "rental_uris": {"ios": "https://dc.lft.to/lastmile_qr_scan", "android": "https://dc.lft.to/lastmile_qr_scan"}, "lon": -77.01360233333334, "type": "electric_scooter"}, {"bike_id": "656ca86de9ea4cca11cdf1e6f426c0c6", "is_reserved": 0, "fusion_lon": 0.0, "lat": 38.92962033333333, "is_disabled": 0, "name": "656ca86de9ea4cca11cdf1e6f426c0c6", "fusion_lat": 0.0, "rental_uris": {"ios": "https://dc.lft.to/lastmile_qr_scan", "android": "https://dc.lft.to/lastmile_qr_scan"}, "lon": -77.01147016666667, "type": "electric_scooter"}, {"bike_id": "9970e28a059d9b2fbada4e1a235aa75a", "is_reserved": 0, "fusion_lon": 0.0, "lat": 38.90532066666667, "is_disabled": 0, "name": "9970e28a059d9b2fbada4e1a235aa75a", "fusion_lat": 0.0, "rental_uris": {"ios": "https://dc.lft.to/lastmile_qr_scan", "android": "https://dc.lft.to/lastmile_qr_scan"}, "lon": -77.0576465, "type": "electric_scooter"}, {"bike_id": "c4d0dd91f7f2e6d3a3478869ef18f58f", "is_reserved": 0, "fusion_lon": 0.0, "lat": 38.91797616666667, "is_disabled": 0, "name": "c4d0dd91f7f2e6d3a3478869ef18f58f", "fusion_lat": 0.0, "rental_uris": {"ios": "https://dc.lft.to/lastmile_qr_scan", "android": "https://dc.lft.to/lastmile_qr_scan"}, "lon": -77.03440466666666, "type": "electric_scooter"}, {"bike_id": "82853a54e86150bc0dd0966c7a4e274e", "is_reserved": 0, "fusion_lon": 0.0, "lat": 38.84573683333333, "is_disabled": 0, "name": "82853a54e86150bc0dd0966c7a4e274e", "fusion_lat": 0.0, "rental_uris": {"ios": "https://dc.lft.to/lastmile_qr_scan", "android": "https://dc.lft.to/lastmile_qr_scan"}, "lon": -77.09622166666666, "type": "electric_bike"}, {"bike_id": "b4dc49ecde7053d9f48f820f9426d092", "is_reserved": 0, "fusion_lon": 0.0, "lat": 38.921626333333336, "is_disabled": 0, "name": "b4dc49ecde7053d9f48f820f9426d092", "fusion_lat": 0.0, "rental_uris": {"ios": "https://dc.lft.to/lastmile_qr_scan", "android": "https://dc.lft.to/lastmile_qr_scan"}, "lon": -77.04692816666666, "type": "electric_scooter"}, {"bike_id": "95a7cd522e6bc0a19c853f41fef65092", "is_reserved": 0, "fusion_lon": 0.0, "lat": 38.92743933333333, "is_disabled": 0, "name": "95a7cd522e6bc0a19c853f41fef65092", "fusion_lat": 0.0, "rental_uris": {"ios": "https://dc.lft.to/lastmile_qr_scan", "android": "https://dc.lft.to/lastmile_qr_scan"}, "lon": -77.0363615, "type": "electric_bike"}, {"bike_id": "735c19494769d960951cc04529c53fb9", "is_reserved": 0, "fusion_lon": 0.0, "lat": 38.923347666666665, "is_disabled": 0, "name": "735c19494769d960951cc04529c53fb9", "fusion_lat": 0.0, "rental_uris": {"ios": "https://dc.lft.to/lastmile_qr_scan", "android": "https://dc.lft.to/lastmile_qr_scan"}, "lon": -77.03512366666666, "type": "electric_scooter"}, {"bike_id": "0722d49551d5fdf26f484ab7367f1cbd", "is_reserved": 0, "fusion_lon": 0.0, "lat": 38.95074483333333, "is_disabled": 0, "name": "0722d49551d5fdf26f484ab7367f1cbd", "fusion_lat": 0.0, "rental_uris": {"ios": "https://dc.lft.to/lastmile_qr_scan", "android": "https://dc.lft.to/lastmile_qr_scan"}, "lon": -77.011979, "type": "electric_bike"}, {"bike_id": "866ff138f7fe2ee028c22371fbf96e04", "is_reserved": 0, "fusion_lon": 0.0, "lat": 38.924992, "is_disabled": 0, "name": "866ff138f7fe2ee028c22371fbf96e04", "fusion_lat": 0.0, "rental_uris": {"ios": "https://dc.lft.to/lastmile_qr_scan", "android": "https://dc.lft.to/lastmile_qr_scan"}, "lon": -77.00886266666667, "type": "electric_scooter"}, {"bike_id": "e83c6e2ab132e9d43d5b13819f37942b", "is_reserved": 0, "fusion_lon": 0.0, "lat": 38.9078135, "is_disabled": 0, "name": "e83c6e2ab132e9d43d5b13819f37942b", "fusion_lat": 0.0, "rental_uris": {"ios": "https://dc.lft.to/lastmile_qr_scan", "android": "https://dc.lft.to/lastmile_qr_scan"}, "lon": -77.03832633333333, "type": "electric_scooter"}, {"bike_id": "e60ae1acc605102a162faccab8e57ec7", "is_reserved": 0, "fusion_lon": 0.0, "lat": 38.89956316666667, "is_disabled": 0, "name": "e60ae1acc605102a162faccab8e57ec7", "fusion_lat": 0.0, "rental_uris": {"ios": "https://dc.lft.to/lastmile_qr_scan", "android": "https://dc.lft.to/lastmile_qr_scan"}, "lon": -77.03360083333334, "type": "electric_scooter"}, {"bike_id": "e0c7c96ba8d5e29d571d43db4c66028e", "is_reserved": 0, "fusion_lon": 0.0, "lat": 38.898760833333334, "is_disabled": 0, "name": "e0c7c96ba8d5e29d571d43db4c66028e", "fusion_lat": 0.0, "rental_uris": {"ios": "https://dc.lft.to/lastmile_qr_scan", "android": "https://dc.lft.to/lastmile_qr_scan"}, "lon": -76.93159616666667, "type": "electric_scooter"}, {"bike_id": "4a70c64fc79db8f2fa5f2f6271e8d82e", "is_reserved": 0, "fusion_lon": 0.0, "lat": 38.93439733333334, "is_disabled": 0, "name": "4a70c64fc79db8f2fa5f2f6271e8d82e", "fusion_lat": 0.0, "rental_uris": {"ios": "https://dc.lft.to/lastmile_qr_scan", "android": "https://dc.lft.to/lastmile_qr_scan"}, "lon": -77.03438783333333, "type": "electric_scooter"}, {"bike_id": "f0296d64c09a550d73f7206e81866237", "is_reserved": 0, "fusion_lon": 0.0, "lat": 38.89364033333333, "is_disabled": 0, "name": "f0296d64c09a550d73f7206e81866237", "fusion_lat": 0.0, "rental_uris": {"ios": "https://dc.lft.to/lastmile_qr_scan", "android": "https://dc.lft.to/lastmile_qr_scan"}, "lon": -76.98514216666666, "type": "electric_bike"}, {"bike_id": "6556cb28d50d14d831436ae8e131f07f", "is_reserved": 0, "fusion_lon": 0.0, "lat": 38.903312166666666, "is_disabled": 0, "name": "6556cb28d50d14d831436ae8e131f07f", "fusion_lat": 0.0, "rental_uris": {"ios": "https://dc.lft.to/lastmile_qr_scan", "android": "https://dc.lft.to/lastmile_qr_scan"}, "lon": -76.989804, "type": "electric_scooter"}, {"bike_id": "06df4347da07f535b6466c3652c22ac6", "is_reserved": 0, "fusion_lon": 0.0, "lat": 38.90276766666667, "is_disabled": 0, "name": "06df4347da07f535b6466c3652c22ac6", "fusion_lat": 0.0, "rental_uris": {"ios": "https://dc.lft.to/lastmile_qr_scan", "android": "https://dc.lft.to/lastmile_qr_scan"}, "lon": -77.03671866666667, "type": "electric_scooter"}, {"bike_id": "bcf42db8b0268f2570b2af017d8945d3", "is_reserved": 0, "fusion_lon": 0.0, "lat": 38.92762533333333, "is_disabled": 0, "name": "bcf42db8b0268f2570b2af017d8945d3", "fusion_lat": 0.0, "rental_uris": {"ios": "https://dc.lft.to/lastmile_qr_scan", "android": "https://dc.lft.to/lastmile_qr_scan"}, "lon": -77.03242683333333, "type": "electric_scooter"}, {"bike_id": "f9cd189111f2173c982f403c3d74d105", "is_reserved": 0, "fusion_lon": 0.0, "lat": 38.91585583333333, "is_disabled": 0, "name": "f9cd189111f2173c982f403c3d74d105", "fusion_lat": 0.0, "rental_uris": {"ios": "https://dc.lft.to/lastmile_qr_scan", "android": "https://dc.lft.to/lastmile_qr_scan"}, "lon": -77.04686, "type": "electric_scooter"}, {"bike_id": "957d3f5f5c6f3719d2674a2d9318097d", "is_reserved": 0, "fusion_lon": 0.0, "lat": 38.90263683333333, "is_disabled": 0, "name": "957d3f5f5c6f3719d2674a2d9318097d", "fusion_lat": 0.0, "rental_uris": {"ios": "https://dc.lft.to/lastmile_qr_scan", "android": "https://dc.lft.to/lastmile_qr_scan"}, "lon": -77.03415266666667, "type": "electric_scooter"}, {"bike_id": "5661064d0937b402238327b2eac778f3", "is_reserved": 0, "fusion_lon": 0.0, "lat": 38.911887, "is_disabled": 0, "name": "5661064d0937b402238327b2eac778f3", "fusion_lat": 0.0, "rental_uris": {"ios": "https://dc.lft.to/lastmile_qr_scan", "android": "https://dc.lft.to/lastmile_qr_scan"}, "lon": -77.00728233333334, "type": "electric_scooter"}, {"bike_id": "66b0c738fd3698d0959a8ace419a0df5", "is_reserved": 0, "fusion_lon": 0.0, "lat": 38.87892016666667, "is_disabled": 0, "name": "66b0c738fd3698d0959a8ace419a0df5", "fusion_lat": 0.0, "rental_uris": {"ios": "https://dc.lft.to/lastmile_qr_scan", "android": "https://dc.lft.to/lastmile_qr_scan"}, "lon": -76.99150583333333, "type": "electric_scooter"}, {"bike_id": "8d46d1436537af1160bd2dfb9ae4aaad", "is_reserved": 0, "fusion_lon": 0.0, "lat": 38.90471216666667, "is_disabled": 0, "name": "8d46d1436537af1160bd2dfb9ae4aaad", "fusion_lat": 0.0, "rental_uris": {"ios": "https://dc.lft.to/lastmile_qr_scan", "android": "https://dc.lft.to/lastmile_qr_scan"}, "lon": -77.02939216666667, "type": "electric_scooter"}, {"bike_id": "c79f712cce99880b639cccca7b58f385", "is_reserved": 0, "fusion_lon": 0.0, "lat": 38.88220716666667, "is_disabled": 0, "name": "c79f712cce99880b639cccca7b58f385", "fusion_lat": 0.0, "rental_uris": {"ios": "https://dc.lft.to/lastmile_qr_scan", "android": "https://dc.lft.to/lastmile_qr_scan"}, "lon": -76.94181366666666, "type": "electric_scooter"}, {"bike_id": "04ae0ef7fe536e6d70d8dc91bd31ee82", "is_reserved": 0, "fusion_lon": 0.0, "lat": 38.903059999999996, "is_disabled": 0, "name": "04ae0ef7fe536e6d70d8dc91bd31ee82", "fusion_lat": 0.0, "rental_uris": {"ios": "https://dc.lft.to/lastmile_qr_scan", "android": "https://dc.lft.to/lastmile_qr_scan"}, "lon": -77.03442833333334, "type": "electric_scooter"}, {"bike_id": "76bf6ae4f9bf2ed5aeccc8df49910fe6", "is_reserved": 0, "fusion_lon": 0.0, "lat": 38.898901, "is_disabled": 0, "name": "76bf6ae4f9bf2ed5aeccc8df49910fe6", "fusion_lat": 0.0, "rental_uris": {"ios": "https://dc.lft.to/lastmile_qr_scan", "android": "https://dc.lft.to/lastmile_qr_scan"}, "lon": -77.03314066666667, "type": "electric_scooter"}, {"bike_id": "9bf005b7c45cf5e67e3df8e91fc7c9d7", "is_reserved": 0, "fusion_lon": 0.0, "lat": 38.94038916666667, "is_disabled": 0, "name": "9bf005b7c45cf5e67e3df8e91fc7c9d7", "fusion_lat": 0.0, "rental_uris": {"ios": "https://dc.lft.to/lastmile_qr_scan", "android": "https://dc.lft.to/lastmile_qr_scan"}, "lon": -77.029091, "type": "electric_scooter"}, {"bike_id": "87ecdd53bde8f34b8e8f241900ce78f0", "is_reserved": 0, "fusion_lon": 0.0, "lat": 38.943657, "is_disabled": 0, "name": "87ecdd53bde8f34b8e8f241900ce78f0", "fusion_lat": 0.0, "rental_uris": {"ios": "https://dc.lft.to/lastmile_qr_scan", "android": "https://dc.lft.to/lastmile_qr_scan"}, "lon": -77.02180566666667, "type": "electric_scooter"}, {"bike_id": "9ecdc39d456a96fd1ced3bc6d2942633", "is_reserved": 0, "fusion_lon": 0.0, "lat": 38.895558666666666, "is_disabled": 0, "name": "9ecdc39d456a96fd1ced3bc6d2942633", "fusion_lat": 0.0, "rental_uris": {"ios": "https://dc.lft.to/lastmile_qr_scan", "android": "https://dc.lft.to/lastmile_qr_scan"}, "lon": -77.00913016666667, "type": "electric_scooter"}, {"bike_id": "79c7125cb1e425b0c96f02d245465bba", "is_reserved": 0, "fusion_lon": 0.0, "lat": 38.87320066666667, "is_disabled": 0, "name": "79c7125cb1e425b0c96f02d245465bba", "fusion_lat": 0.0, "rental_uris": {"ios": "https://dc.lft.to/lastmile_qr_scan", "android": "https://dc.lft.to/lastmile_qr_scan"}, "lon": -77.10608383333333, "type": "electric_bike"}, {"bike_id": "54f473f5e00f3a13df6e620b1aa83eda", "is_reserved": 0, "fusion_lon": 0.0, "lat": 38.887655333333335, "is_disabled": 0, "name": "54f473f5e00f3a13df6e620b1aa83eda", "fusion_lat": 0.0, "rental_uris": {"ios": "https://dc.lft.to/lastmile_qr_scan", "android": "https://dc.lft.to/lastmile_qr_scan"}, "lon": -76.98049166666667, "type": "electric_scooter"}, {"bike_id": "53bc7036345b7025bf80be28c113712b", "is_reserved": 0, "fusion_lon": 0.0, "lat": 38.9078325, "is_disabled": 0, "name": "53bc7036345b7025bf80be28c113712b", "fusion_lat": 0.0, "rental_uris": {"ios": "https://dc.lft.to/lastmile_qr_scan", "android": "https://dc.lft.to/lastmile_qr_scan"}, "lon": -77.042958, "type": "electric_scooter"}, {"bike_id": "f28bed6a11b1c3d177bcf70235f8d94c", "is_reserved": 0, "fusion_lon": 0.0, "lat": 38.935048, "is_disabled": 0, "name": "f28bed6a11b1c3d177bcf70235f8d94c", "fusion_lat": 0.0, "rental_uris": {"ios": "https://dc.lft.to/lastmile_qr_scan", "android": "https://dc.lft.to/lastmile_qr_scan"}, "lon": -77.01999266666667, "type": "electric_scooter"}, {"bike_id": "079a5d271134e5206c0027b6ef4fdc4d", "is_reserved": 0, "fusion_lon": 0.0, "lat": 38.919776, "is_disabled": 0, "name": "079a5d271134e5206c0027b6ef4fdc4d", "fusion_lat": 0.0, "rental_uris": {"ios": "https://dc.lft.to/lastmile_qr_scan", "android": "https://dc.lft.to/lastmile_qr_scan"}, "lon": -77.0444725, "type": "electric_scooter"}, {"bike_id": "d1ef584843722386fd90b06222f88d23", "is_reserved": 0, "fusion_lon": 0.0, "lat": 38.90381583333333, "is_disabled": 0, "name": "d1ef584843722386fd90b06222f88d23", "fusion_lat": 0.0, "rental_uris": {"ios": "https://dc.lft.to/lastmile_qr_scan", "android": "https://dc.lft.to/lastmile_qr_scan"}, "lon": -77.0445285, "type": "electric_scooter"}, {"bike_id": "ec0a66d03901c12731f7e14695402408", "is_reserved": 0, "fusion_lon": 0.0, "lat": 38.90248033333334, "is_disabled": 0, "name": "ec0a66d03901c12731f7e14695402408", "fusion_lat": 0.0, "rental_uris": {"ios": "https://dc.lft.to/lastmile_qr_scan", "android": "https://dc.lft.to/lastmile_qr_scan"}, "lon": -77.039324, "type": "electric_scooter"}, {"bike_id": "84dad8668967a702f13907326d4162f2", "is_reserved": 0, "fusion_lon": 0.0, "lat": 38.941785833333334, "is_disabled": 0, "name": "84dad8668967a702f13907326d4162f2", "fusion_lat": 0.0, "rental_uris": {"ios": "https://dc.lft.to/lastmile_qr_scan", "android": "https://dc.lft.to/lastmile_qr_scan"}, "lon": -77.03652666666666, "type": "electric_scooter"}, {"bike_id": "9c24c02edb44b31344cb33dfff726d7c", "is_reserved": 0, "fusion_lon": 0.0, "lat": 38.902442, "is_disabled": 0, "name": "9c24c02edb44b31344cb33dfff726d7c", "fusion_lat": 0.0, "rental_uris": {"ios": "https://dc.lft.to/lastmile_qr_scan", "android": "https://dc.lft.to/lastmile_qr_scan"}, "lon": -77.00201483333333, "type": "electric_scooter"}, {"bike_id": "9b91244c78d5ee074bcc3b43140c3bcb", "is_reserved": 0, "fusion_lon": 0.0, "lat": 38.936985666666665, "is_disabled": 0, "name": "9b91244c78d5ee074bcc3b43140c3bcb", "fusion_lat": 0.0, "rental_uris": {"ios": "https://dc.lft.to/lastmile_qr_scan", "android": "https://dc.lft.to/lastmile_qr_scan"}, "lon": -77.02980066666667, "type": "electric_bike"}, {"bike_id": "3a0546704fd0353575fa86367d750a31", "is_reserved": 0, "fusion_lon": 0.0, "lat": 38.913328, "is_disabled": 0, "name": "3a0546704fd0353575fa86367d750a31", "fusion_lat": 0.0, "rental_uris": {"ios": "https://dc.lft.to/lastmile_qr_scan", "android": "https://dc.lft.to/lastmile_qr_scan"}, "lon": -77.04816233333334, "type": "electric_scooter"}, {"bike_id": "3a791ad3aa5b0185c8368dcab477627c", "is_reserved": 0, "fusion_lon": 0.0, "lat": 38.90015983333333, "is_disabled": 0, "name": "3a791ad3aa5b0185c8368dcab477627c", "fusion_lat": 0.0, "rental_uris": {"ios": "https://dc.lft.to/lastmile_qr_scan", "android": "https://dc.lft.to/lastmile_qr_scan"}, "lon": -77.0330405, "type": "electric_scooter"}, {"bike_id": "9d82a5a6e7577aac222a7ef4a22df691", "is_reserved": 0, "fusion_lon": 0.0, "lat": 38.8985605, "is_disabled": 0, "name": "9d82a5a6e7577aac222a7ef4a22df691", "fusion_lat": 0.0, "rental_uris": {"ios": "https://dc.lft.to/lastmile_qr_scan", "android": "https://dc.lft.to/lastmile_qr_scan"}, "lon": -77.03208866666667, "type": "electric_scooter"}, {"bike_id": "5b9146661ee0cd2e63514912e1a39262", "is_reserved": 0, "fusion_lon": 0.0, "lat": 38.88292716666667, "is_disabled": 0, "name": "5b9146661ee0cd2e63514912e1a39262", "fusion_lat": 0.0, "rental_uris": {"ios": "https://dc.lft.to/lastmile_qr_scan", "android": "https://dc.lft.to/lastmile_qr_scan"}, "lon": -76.98609533333334, "type": "electric_scooter"}, {"bike_id": "2b94e0b5702e62b0d0758d902c4a7e70", "is_reserved": 0, "fusion_lon": 0.0, "lat": 38.91392716666667, "is_disabled": 0, "name": "2b94e0b5702e62b0d0758d902c4a7e70", "fusion_lat": 0.0, "rental_uris": {"ios": "https://dc.lft.to/lastmile_qr_scan", "android": "https://dc.lft.to/lastmile_qr_scan"}, "lon": -77.04617533333334, "type": "electric_scooter"}, {"bike_id": "b9822d77adf56d9b319feb0cd084d893", "is_reserved": 0, "fusion_lon": 0.0, "lat": 38.864266, "is_disabled": 0, "name": "b9822d77adf56d9b319feb0cd084d893", "fusion_lat": 0.0, "rental_uris": {"ios": "https://dc.lft.to/lastmile_qr_scan", "android": "https://dc.lft.to/lastmile_qr_scan"}, "lon": -76.985736, "type": "electric_scooter"}, {"bike_id": "b2ce1d05648c6c54ca7d97f472703d0e", "is_reserved": 0, "fusion_lon": 0.0, "lat": 38.82261066666667, "is_disabled": 0, "name": "b2ce1d05648c6c54ca7d97f472703d0e", "fusion_lat": 0.0, "rental_uris": {"ios": "https://dc.lft.to/lastmile_qr_scan", "android": "https://dc.lft.to/lastmile_qr_scan"}, "lon": -77.005531, "type": "electric_bike"}, {"bike_id": "e65eefdfdc779a1e9659d5055c4c053f", "is_reserved": 0, "fusion_lon": 0.0, "lat": 38.9336345, "is_disabled": 0, "name": "e65eefdfdc779a1e9659d5055c4c053f", "fusion_lat": 0.0, "rental_uris": {"ios": "https://dc.lft.to/lastmile_qr_scan", "android": "https://dc.lft.to/lastmile_qr_scan"}, "lon": -77.05725333333334, "type": "electric_scooter"}, {"bike_id": "60ddc3a3961dbc0d2f0b8d2573b2b9b0", "is_reserved": 0, "fusion_lon": 0.0, "lat": 38.885986, "is_disabled": 0, "name": "60ddc3a3961dbc0d2f0b8d2573b2b9b0", "fusion_lat": 0.0, "rental_uris": {"ios": "https://dc.lft.to/lastmile_qr_scan", "android": "https://dc.lft.to/lastmile_qr_scan"}, "lon": -77.01767366666667, "type": "electric_scooter"}, {"bike_id": "40e7ebabae3e9505f65947cd32462b35", "is_reserved": 0, "fusion_lon": 0.0, "lat": 38.914962833333334, "is_disabled": 0, "name": "40e7ebabae3e9505f65947cd32462b35", "fusion_lat": 0.0, "rental_uris": {"ios": "https://dc.lft.to/lastmile_qr_scan", "android": "https://dc.lft.to/lastmile_qr_scan"}, "lon": -76.9837825, "type": "electric_scooter"}, {"bike_id": "c8d7c5afb1146255a83a565b5f7e6d1d", "is_reserved": 0, "fusion_lon": 0.0, "lat": 38.91040683333333, "is_disabled": 0, "name": "c8d7c5afb1146255a83a565b5f7e6d1d", "fusion_lat": 0.0, "rental_uris": {"ios": "https://dc.lft.to/lastmile_qr_scan", "android": "https://dc.lft.to/lastmile_qr_scan"}, "lon": -77.03580266666667, "type": "electric_scooter"}, {"bike_id": "0d88cb1b9d68d1d85c7dcb34d090f6fc", "is_reserved": 0, "fusion_lon": 0.0, "lat": 38.907746333333336, "is_disabled": 0, "name": "0d88cb1b9d68d1d85c7dcb34d090f6fc", "fusion_lat": 0.0, "rental_uris": {"ios": "https://dc.lft.to/lastmile_qr_scan", "android": "https://dc.lft.to/lastmile_qr_scan"}, "lon": -77.03817916666667, "type": "electric_scooter"}, {"bike_id": "b01e0cd90c45c2fa2a00b90eeec1944a", "is_reserved": 0, "fusion_lon": 0.0, "lat": 38.93081083333333, "is_disabled": 0, "name": "b01e0cd90c45c2fa2a00b90eeec1944a", "fusion_lat": 0.0, "rental_uris": {"ios": "https://dc.lft.to/lastmile_qr_scan", "android": "https://dc.lft.to/lastmile_qr_scan"}, "lon": -77.03417216666666, "type": "electric_scooter"}, {"bike_id": "ee1e23800e97a953d85a4a5e432dc732", "is_reserved": 0, "fusion_lon": 0.0, "lat": 38.893688833333336, "is_disabled": 0, "name": "ee1e23800e97a953d85a4a5e432dc732", "fusion_lat": 0.0, "rental_uris": {"ios": "https://dc.lft.to/lastmile_qr_scan", "android": "https://dc.lft.to/lastmile_qr_scan"}, "lon": -77.0282655, "type": "electric_scooter"}, {"bike_id": "bbaddc4cd0fcd937220e1e072d182cea", "is_reserved": 0, "fusion_lon": 0.0, "lat": 38.907315, "is_disabled": 0, "name": "bbaddc4cd0fcd937220e1e072d182cea", "fusion_lat": 0.0, "rental_uris": {"ios": "https://dc.lft.to/lastmile_qr_scan", "android": "https://dc.lft.to/lastmile_qr_scan"}, "lon": -77.03220383333333, "type": "electric_scooter"}, {"bike_id": "6cf78212bcca2b4cc9db693ca20d5f41", "is_reserved": 0, "fusion_lon": 0.0, "lat": 38.8945475, "is_disabled": 0, "name": "6cf78212bcca2b4cc9db693ca20d5f41", "fusion_lat": 0.0, "rental_uris": {"ios": "https://dc.lft.to/lastmile_qr_scan", "android": "https://dc.lft.to/lastmile_qr_scan"}, "lon": -76.97036183333333, "type": "electric_bike"}, {"bike_id": "dcfb09c2af81a0a7ce905a4d72c8ede8", "is_reserved": 0, "fusion_lon": 0.0, "lat": 38.91839566666667, "is_disabled": 0, "name": "dcfb09c2af81a0a7ce905a4d72c8ede8", "fusion_lat": 0.0, "rental_uris": {"ios": "https://dc.lft.to/lastmile_qr_scan", "android": "https://dc.lft.to/lastmile_qr_scan"}, "lon": -77.02608116666667, "type": "electric_scooter"}, {"bike_id": "e1814defa28e900c207722e491997c28", "is_reserved": 0, "fusion_lon": 0.0, "lat": 38.900412833333334, "is_disabled": 0, "name": "e1814defa28e900c207722e491997c28", "fusion_lat": 0.0, "rental_uris": {"ios": "https://dc.lft.to/lastmile_qr_scan", "android": "https://dc.lft.to/lastmile_qr_scan"}, "lon": -77.03201916666667, "type": "electric_scooter"}, {"bike_id": "7718f44e47fa8660ba74d55ce54e0956", "is_reserved": 0, "fusion_lon": 0.0, "lat": 38.89731416666667, "is_disabled": 0, "name": "7718f44e47fa8660ba74d55ce54e0956", "fusion_lat": 0.0, "rental_uris": {"ios": "https://dc.lft.to/lastmile_qr_scan", "android": "https://dc.lft.to/lastmile_qr_scan"}, "lon": -77.05470716666666, "type": "electric_scooter"}, {"bike_id": "85cf1077aeb1d3a1c11c93c458e07048", "is_reserved": 0, "fusion_lon": 0.0, "lat": 38.94292316666667, "is_disabled": 0, "name": "85cf1077aeb1d3a1c11c93c458e07048", "fusion_lat": 0.0, "rental_uris": {"ios": "https://dc.lft.to/lastmile_qr_scan", "android": "https://dc.lft.to/lastmile_qr_scan"}, "lon": -77.021706, "type": "electric_scooter"}, {"bike_id": "aaa02326ad97c61215fb7b33edb121dd", "is_reserved": 0, "fusion_lon": 0.0, "lat": 38.9119295, "is_disabled": 0, "name": "aaa02326ad97c61215fb7b33edb121dd", "fusion_lat": 0.0, "rental_uris": {"ios": "https://dc.lft.to/lastmile_qr_scan", "android": "https://dc.lft.to/lastmile_qr_scan"}, "lon": -77.0326435, "type": "electric_scooter"}, {"bike_id": "47737c028a54f1548c454b0f1e999783", "is_reserved": 0, "fusion_lon": 0.0, "lat": 38.92762033333333, "is_disabled": 0, "name": "47737c028a54f1548c454b0f1e999783", "fusion_lat": 0.0, "rental_uris": {"ios": "https://dc.lft.to/lastmile_qr_scan", "android": "https://dc.lft.to/lastmile_qr_scan"}, "lon": -77.03242933333334, "type": "electric_scooter"}, {"bike_id": "678927d6a46c56e379a2195bf8bfac2d", "is_reserved": 0, "fusion_lon": 0.0, "lat": 38.912533833333335, "is_disabled": 0, "name": "678927d6a46c56e379a2195bf8bfac2d", "fusion_lat": 0.0, "rental_uris": {"ios": "https://dc.lft.to/lastmile_qr_scan", "android": "https://dc.lft.to/lastmile_qr_scan"}, "lon": -77.03640516666667, "type": "electric_scooter"}, {"bike_id": "05b89419c049e64e5e3052e1c0333ff9", "is_reserved": 0, "fusion_lon": 0.0, "lat": 38.9050745, "is_disabled": 0, "name": "05b89419c049e64e5e3052e1c0333ff9", "fusion_lat": 0.0, "rental_uris": {"ios": "https://dc.lft.to/lastmile_qr_scan", "android": "https://dc.lft.to/lastmile_qr_scan"}, "lon": -77.06755116666666, "type": "electric_scooter"}, {"bike_id": "a8f19e73974519eb54dbb12152fb8fb0", "is_reserved": 0, "fusion_lon": 0.0, "lat": 38.933001833333336, "is_disabled": 0, "name": "a8f19e73974519eb54dbb12152fb8fb0", "fusion_lat": 0.0, "rental_uris": {"ios": "https://dc.lft.to/lastmile_qr_scan", "android": "https://dc.lft.to/lastmile_qr_scan"}, "lon": -77.0284075, "type": "electric_scooter"}, {"bike_id": "3ae0a2d1f4f1b5fe76378ec1f5c49f8d", "is_reserved": 0, "fusion_lon": 0.0, "lat": 38.932396833333335, "is_disabled": 0, "name": "3ae0a2d1f4f1b5fe76378ec1f5c49f8d", "fusion_lat": 0.0, "rental_uris": {"ios": "https://dc.lft.to/lastmile_qr_scan", "android": "https://dc.lft.to/lastmile_qr_scan"}, "lon": -77.03895616666667, "type": "electric_scooter"}, {"bike_id": "fbc399fdff8941946fd5d75a82f2d544", "is_reserved": 0, "fusion_lon": 0.0, "lat": 38.908646, "is_disabled": 0, "name": "fbc399fdff8941946fd5d75a82f2d544", "fusion_lat": 0.0, "rental_uris": {"ios": "https://dc.lft.to/lastmile_qr_scan", "android": "https://dc.lft.to/lastmile_qr_scan"}, "lon": -77.0273335, "type": "electric_scooter"}, {"bike_id": "5e39b056a4603d1790ca73d1a5cbb0e0", "is_reserved": 0, "fusion_lon": 0.0, "lat": 38.933931, "is_disabled": 0, "name": "5e39b056a4603d1790ca73d1a5cbb0e0", "fusion_lat": 0.0, "rental_uris": {"ios": "https://dc.lft.to/lastmile_qr_scan", "android": "https://dc.lft.to/lastmile_qr_scan"}, "lon": -77.03582733333333, "type": "electric_scooter"}, {"bike_id": "8b3a12fb6de6b4a35cda47668ad47fae", "is_reserved": 0, "fusion_lon": 0.0, "lat": 38.907038166666666, "is_disabled": 0, "name": "8b3a12fb6de6b4a35cda47668ad47fae", "fusion_lat": 0.0, "rental_uris": {"ios": "https://dc.lft.to/lastmile_qr_scan", "android": "https://dc.lft.to/lastmile_qr_scan"}, "lon": -77.0448975, "type": "electric_scooter"}, {"bike_id": "575292df4770c500ea9da256642cce58", "is_reserved": 0, "fusion_lon": 0.0, "lat": 38.90912216666667, "is_disabled": 0, "name": "575292df4770c500ea9da256642cce58", "fusion_lat": 0.0, "rental_uris": {"ios": "https://dc.lft.to/lastmile_qr_scan", "android": "https://dc.lft.to/lastmile_qr_scan"}, "lon": -77.00923133333333, "type": "electric_scooter"}, {"bike_id": "9ded60611ecabd0047b2a446e2e2ac24", "is_reserved": 0, "fusion_lon": 0.0, "lat": 38.920237, "is_disabled": 0, "name": "9ded60611ecabd0047b2a446e2e2ac24", "fusion_lat": 0.0, "rental_uris": {"ios": "https://dc.lft.to/lastmile_qr_scan", "android": "https://dc.lft.to/lastmile_qr_scan"}, "lon": -77.0279485, "type": "electric_scooter"}, {"bike_id": "2742cc4c7e678c207ecec36ded28e430", "is_reserved": 0, "fusion_lon": 0.0, "lat": 38.8922945, "is_disabled": 0, "name": "2742cc4c7e678c207ecec36ded28e430", "fusion_lat": 0.0, "rental_uris": {"ios": "https://dc.lft.to/lastmile_qr_scan", "android": "https://dc.lft.to/lastmile_qr_scan"}, "lon": -77.02204666666667, "type": "electric_scooter"}, {"bike_id": "d6409ff90bc178ed83a8adfab734f174", "is_reserved": 0, "fusion_lon": 0.0, "lat": 38.892188166666664, "is_disabled": 0, "name": "d6409ff90bc178ed83a8adfab734f174", "fusion_lat": 0.0, "rental_uris": {"ios": "https://dc.lft.to/lastmile_qr_scan", "android": "https://dc.lft.to/lastmile_qr_scan"}, "lon": -77.10782666666667, "type": "electric_bike"}, {"bike_id": "7ade92816f988274951274c77b0743dd", "is_reserved": 0, "fusion_lon": 0.0, "lat": 38.869110666666664, "is_disabled": 0, "name": "7ade92816f988274951274c77b0743dd", "fusion_lat": 0.0, "rental_uris": {"ios": "https://dc.lft.to/lastmile_qr_scan", "android": "https://dc.lft.to/lastmile_qr_scan"}, "lon": -77.1318325, "type": "electric_bike"}, {"bike_id": "0bc4a6d17513265b0117ed61488ebbf7", "is_reserved": 0, "fusion_lon": 0.0, "lat": 38.9154115, "is_disabled": 0, "name": "0bc4a6d17513265b0117ed61488ebbf7", "fusion_lat": 0.0, "rental_uris": {"ios": "https://dc.lft.to/lastmile_qr_scan", "android": "https://dc.lft.to/lastmile_qr_scan"}, "lon": -77.03859066666666, "type": "electric_scooter"}, {"bike_id": "c3e78a8f2d30ebf49cadf90ba6c9f98e", "is_reserved": 0, "fusion_lon": 0.0, "lat": 38.906873, "is_disabled": 0, "name": "c3e78a8f2d30ebf49cadf90ba6c9f98e", "fusion_lat": 0.0, "rental_uris": {"ios": "https://dc.lft.to/lastmile_qr_scan", "android": "https://dc.lft.to/lastmile_qr_scan"}, "lon": -77.0134635, "type": "electric_scooter"}, {"bike_id": "c46f8c2e69851d9286d38a16c742a04a", "is_reserved": 0, "fusion_lon": 0.0, "lat": 38.927857833333334, "is_disabled": 0, "name": "c46f8c2e69851d9286d38a16c742a04a", "fusion_lat": 0.0, "rental_uris": {"ios": "https://dc.lft.to/lastmile_qr_scan", "android": "https://dc.lft.to/lastmile_qr_scan"}, "lon": -77.032005, "type": "electric_scooter"}, {"bike_id": "d66689a61634376f2ed0e8511d7a61cb", "is_reserved": 0, "fusion_lon": 0.0, "lat": 38.89002883333333, "is_disabled": 0, "name": "d66689a61634376f2ed0e8511d7a61cb", "fusion_lat": 0.0, "rental_uris": {"ios": "https://dc.lft.to/lastmile_qr_scan", "android": "https://dc.lft.to/lastmile_qr_scan"}, "lon": -77.0489225, "type": "electric_scooter"}, {"bike_id": "a94f10c4c8f164d328cf087531774bd3", "is_reserved": 0, "fusion_lon": 0.0, "lat": 38.90603683333333, "is_disabled": 0, "name": "a94f10c4c8f164d328cf087531774bd3", "fusion_lat": 0.0, "rental_uris": {"ios": "https://dc.lft.to/lastmile_qr_scan", "android": "https://dc.lft.to/lastmile_qr_scan"}, "lon": -77.01322583333334, "type": "electric_scooter"}, {"bike_id": "f002356de7ceff3a4fd5026d17a6b094", "is_reserved": 0, "fusion_lon": 0.0, "lat": 38.93426183333333, "is_disabled": 0, "name": "f002356de7ceff3a4fd5026d17a6b094", "fusion_lat": 0.0, "rental_uris": {"ios": "https://dc.lft.to/lastmile_qr_scan", "android": "https://dc.lft.to/lastmile_qr_scan"}, "lon": -77.04313916666666, "type": "electric_scooter"}, {"bike_id": "e30ccf0cdd58adb49ce7b0dfca87279e", "is_reserved": 0, "fusion_lon": 0.0, "lat": 38.892002, "is_disabled": 0, "name": "e30ccf0cdd58adb49ce7b0dfca87279e", "fusion_lat": 0.0, "rental_uris": {"ios": "https://dc.lft.to/lastmile_qr_scan", "android": "https://dc.lft.to/lastmile_qr_scan"}, "lon": -77.0024215, "type": "electric_bike"}, {"bike_id": "62221a7690acbcd2c5660cc4a6a180d1", "is_reserved": 0, "fusion_lon": 0.0, "lat": 38.89195683333333, "is_disabled": 0, "name": "62221a7690acbcd2c5660cc4a6a180d1", "fusion_lat": 0.0, "rental_uris": {"ios": "https://dc.lft.to/lastmile_qr_scan", "android": "https://dc.lft.to/lastmile_qr_scan"}, "lon": -77.02980083333334, "type": "electric_scooter"}, {"bike_id": "4fef72ca0c804f8299d7479403a557a2", "is_reserved": 0, "fusion_lon": 0.0, "lat": 38.91191533333333, "is_disabled": 0, "name": "4fef72ca0c804f8299d7479403a557a2", "fusion_lat": 0.0, "rental_uris": {"ios": "https://dc.lft.to/lastmile_qr_scan", "android": "https://dc.lft.to/lastmile_qr_scan"}, "lon": -77.002186, "type": "electric_scooter"}, {"bike_id": "bf258fa1e108d1bd9108a936624262c6", "is_reserved": 0, "fusion_lon": 0.0, "lat": 38.89828716666667, "is_disabled": 0, "name": "bf258fa1e108d1bd9108a936624262c6", "fusion_lat": 0.0, "rental_uris": {"ios": "https://dc.lft.to/lastmile_qr_scan", "android": "https://dc.lft.to/lastmile_qr_scan"}, "lon": -77.03315416666666, "type": "electric_scooter"}, {"bike_id": "b19cac67c4260f0697757a220416ee0c", "is_reserved": 0, "fusion_lon": 0.0, "lat": 38.922425, "is_disabled": 0, "name": "b19cac67c4260f0697757a220416ee0c", "fusion_lat": 0.0, "rental_uris": {"ios": "https://dc.lft.to/lastmile_qr_scan", "android": "https://dc.lft.to/lastmile_qr_scan"}, "lon": -77.01010666666667, "type": "electric_scooter"}, {"bike_id": "1b168f055b1b523b49779ec26a40c8bf", "is_reserved": 0, "fusion_lon": 0.0, "lat": 38.907235166666666, "is_disabled": 0, "name": "1b168f055b1b523b49779ec26a40c8bf", "fusion_lat": 0.0, "rental_uris": {"ios": "https://dc.lft.to/lastmile_qr_scan", "android": "https://dc.lft.to/lastmile_qr_scan"}, "lon": -77.04633833333334, "type": "electric_scooter"}, {"bike_id": "1a73c1b520ef75be624d9f33704cab20", "is_reserved": 0, "fusion_lon": 0.0, "lat": 38.928533333333334, "is_disabled": 0, "name": "1a73c1b520ef75be624d9f33704cab20", "fusion_lat": 0.0, "rental_uris": {"ios": "https://dc.lft.to/lastmile_qr_scan", "android": "https://dc.lft.to/lastmile_qr_scan"}, "lon": -77.054241, "type": "electric_scooter"}, {"bike_id": "57c1cf350961a3b071dc3130b28b1dc0", "is_reserved": 0, "fusion_lon": 0.0, "lat": 38.89626066666667, "is_disabled": 0, "name": "57c1cf350961a3b071dc3130b28b1dc0", "fusion_lat": 0.0, "rental_uris": {"ios": "https://dc.lft.to/lastmile_qr_scan", "android": "https://dc.lft.to/lastmile_qr_scan"}, "lon": -76.99847033333333, "type": "electric_scooter"}, {"bike_id": "f9aebe92b7283db7db3545ca6b74d670", "is_reserved": 0, "fusion_lon": 0.0, "lat": 38.894831, "is_disabled": 0, "name": "f9aebe92b7283db7db3545ca6b74d670", "fusion_lat": 0.0, "rental_uris": {"ios": "https://dc.lft.to/lastmile_qr_scan", "android": "https://dc.lft.to/lastmile_qr_scan"}, "lon": -77.02296666666666, "type": "electric_scooter"}, {"bike_id": "3341a189f5d19319b27af4471187e65c", "is_reserved": 0, "fusion_lon": 0.0, "lat": 38.90277483333333, "is_disabled": 0, "name": "3341a189f5d19319b27af4471187e65c", "fusion_lat": 0.0, "rental_uris": {"ios": "https://dc.lft.to/lastmile_qr_scan", "android": "https://dc.lft.to/lastmile_qr_scan"}, "lon": -77.0591285, "type": "electric_scooter"}, {"bike_id": "996aced59c2444f2805ad17f2ae94563", "is_reserved": 0, "fusion_lon": 0.0, "lat": 38.90724383333333, "is_disabled": 0, "name": "996aced59c2444f2805ad17f2ae94563", "fusion_lat": 0.0, "rental_uris": {"ios": "https://dc.lft.to/lastmile_qr_scan", "android": "https://dc.lft.to/lastmile_qr_scan"}, "lon": -77.04348683333333, "type": "electric_scooter"}, {"bike_id": "22f0c3e00b772800de751c9ffd9157e1", "is_reserved": 0, "fusion_lon": 0.0, "lat": 38.893873666666664, "is_disabled": 0, "name": "22f0c3e00b772800de751c9ffd9157e1", "fusion_lat": 0.0, "rental_uris": {"ios": "https://dc.lft.to/lastmile_qr_scan", "android": "https://dc.lft.to/lastmile_qr_scan"}, "lon": -77.02253066666667, "type": "electric_bike"}, {"bike_id": "cbfa22d5dfb58a4746a74053b913de9c", "is_reserved": 0, "fusion_lon": 0.0, "lat": 38.92908083333333, "is_disabled": 0, "name": "cbfa22d5dfb58a4746a74053b913de9c", "fusion_lat": 0.0, "rental_uris": {"ios": "https://dc.lft.to/lastmile_qr_scan", "android": "https://dc.lft.to/lastmile_qr_scan"}, "lon": -77.03170516666667, "type": "electric_scooter"}, {"bike_id": "280a9deaac95fced19ec5015972dc232", "is_reserved": 0, "fusion_lon": 0.0, "lat": 38.8962785, "is_disabled": 0, "name": "280a9deaac95fced19ec5015972dc232", "fusion_lat": 0.0, "rental_uris": {"ios": "https://dc.lft.to/lastmile_qr_scan", "android": "https://dc.lft.to/lastmile_qr_scan"}, "lon": -77.02818366666666, "type": "electric_scooter"}, {"bike_id": "290b8a4733b7218bf8c97c6dfa9d79c3", "is_reserved": 0, "fusion_lon": 0.0, "lat": 38.907847333333336, "is_disabled": 0, "name": "290b8a4733b7218bf8c97c6dfa9d79c3", "fusion_lat": 0.0, "rental_uris": {"ios": "https://dc.lft.to/lastmile_qr_scan", "android": "https://dc.lft.to/lastmile_qr_scan"}, "lon": -77.00971633333333, "type": "electric_scooter"}, {"bike_id": "b7702c1367cdfb1d6a2afcf6a8e12b1b", "is_reserved": 0, "fusion_lon": 0.0, "lat": 38.87219266666666, "is_disabled": 0, "name": "b7702c1367cdfb1d6a2afcf6a8e12b1b", "fusion_lat": 0.0, "rental_uris": {"ios": "https://dc.lft.to/lastmile_qr_scan", "android": "https://dc.lft.to/lastmile_qr_scan"}, "lon": -77.00564133333333, "type": "electric_scooter"}, {"bike_id": "bb1cefbe71fc776f2c28fabaad9534f5", "is_reserved": 0, "fusion_lon": 0.0, "lat": 38.92119483333333, "is_disabled": 0, "name": "bb1cefbe71fc776f2c28fabaad9534f5", "fusion_lat": 0.0, "rental_uris": {"ios": "https://dc.lft.to/lastmile_qr_scan", "android": "https://dc.lft.to/lastmile_qr_scan"}, "lon": -77.045849, "type": "electric_scooter"}, {"bike_id": "d13bec534d2f76da488a29e2be4a5501", "is_reserved": 0, "fusion_lon": 0.0, "lat": 38.91774233333334, "is_disabled": 0, "name": "d13bec534d2f76da488a29e2be4a5501", "fusion_lat": 0.0, "rental_uris": {"ios": "https://dc.lft.to/lastmile_qr_scan", "android": "https://dc.lft.to/lastmile_qr_scan"}, "lon": -77.04051883333334, "type": "electric_scooter"}, {"bike_id": "6e981cb3a4454afdb0c20eb9faad214b", "is_reserved": 0, "fusion_lon": 0.0, "lat": 38.91786416666667, "is_disabled": 0, "name": "6e981cb3a4454afdb0c20eb9faad214b", "fusion_lat": 0.0, "rental_uris": {"ios": "https://dc.lft.to/lastmile_qr_scan", "android": "https://dc.lft.to/lastmile_qr_scan"}, "lon": -77.02698383333333, "type": "electric_scooter"}, {"bike_id": "75c1483f5358a081b44e332d375ef020", "is_reserved": 0, "fusion_lon": 0.0, "lat": 38.8442445, "is_disabled": 0, "name": "75c1483f5358a081b44e332d375ef020", "fusion_lat": 0.0, "rental_uris": {"ios": "https://dc.lft.to/lastmile_qr_scan", "android": "https://dc.lft.to/lastmile_qr_scan"}, "lon": -76.99778833333333, "type": "electric_scooter"}, {"bike_id": "b928a19161dc0eee8931afdbeec0d172", "is_reserved": 0, "fusion_lon": 0.0, "lat": 38.91553016666667, "is_disabled": 0, "name": "b928a19161dc0eee8931afdbeec0d172", "fusion_lat": 0.0, "rental_uris": {"ios": "https://dc.lft.to/lastmile_qr_scan", "android": "https://dc.lft.to/lastmile_qr_scan"}, "lon": -77.01411983333334, "type": "electric_scooter"}, {"bike_id": "f691c50390d64682719aa36cad85f1b2", "is_reserved": 0, "fusion_lon": 0.0, "lat": 38.904079333333335, "is_disabled": 0, "name": "f691c50390d64682719aa36cad85f1b2", "fusion_lat": 0.0, "rental_uris": {"ios": "https://dc.lft.to/lastmile_qr_scan", "android": "https://dc.lft.to/lastmile_qr_scan"}, "lon": -77.03638383333333, "type": "electric_scooter"}, {"bike_id": "dec09755eddcf0797d4b82bb8036809f", "is_reserved": 0, "fusion_lon": 0.0, "lat": 38.869209, "is_disabled": 0, "name": "dec09755eddcf0797d4b82bb8036809f", "fusion_lat": 0.0, "rental_uris": {"ios": "https://dc.lft.to/lastmile_qr_scan", "android": "https://dc.lft.to/lastmile_qr_scan"}, "lon": -76.98305966666666, "type": "electric_scooter"}, {"bike_id": "bae492c52867cb0ed95c9e0cf38680f9", "is_reserved": 0, "fusion_lon": 0.0, "lat": 38.892998166666665, "is_disabled": 0, "name": "bae492c52867cb0ed95c9e0cf38680f9", "fusion_lat": 0.0, "rental_uris": {"ios": "https://dc.lft.to/lastmile_qr_scan", "android": "https://dc.lft.to/lastmile_qr_scan"}, "lon": -77.01236583333333, "type": "electric_scooter"}, {"bike_id": "33e8432bb5db8dde4350b3bf05bff1bf", "is_reserved": 0, "fusion_lon": 0.0, "lat": 38.888753333333334, "is_disabled": 0, "name": "33e8432bb5db8dde4350b3bf05bff1bf", "fusion_lat": 0.0, "rental_uris": {"ios": "https://dc.lft.to/lastmile_qr_scan", "android": "https://dc.lft.to/lastmile_qr_scan"}, "lon": -76.9903265, "type": "electric_scooter"}, {"bike_id": "9080f71f484537a0f68d7acc6298d5d9", "is_reserved": 0, "fusion_lon": 0.0, "lat": 38.921783833333336, "is_disabled": 0, "name": "9080f71f484537a0f68d7acc6298d5d9", "fusion_lat": 0.0, "rental_uris": {"ios": "https://dc.lft.to/lastmile_qr_scan", "android": "https://dc.lft.to/lastmile_qr_scan"}, "lon": -77.02544666666667, "type": "electric_scooter"}, {"bike_id": "ffc2878a97c4c57176473842053062d4", "is_reserved": 0, "fusion_lon": 0.0, "lat": 38.92052733333333, "is_disabled": 0, "name": "ffc2878a97c4c57176473842053062d4", "fusion_lat": 0.0, "rental_uris": {"ios": "https://dc.lft.to/lastmile_qr_scan", "android": "https://dc.lft.to/lastmile_qr_scan"}, "lon": -77.02434716666667, "type": "electric_scooter"}, {"bike_id": "5520f966dc3ceead3d1c71aa47af0d3b", "is_reserved": 0, "fusion_lon": 0.0, "lat": 38.90717683333333, "is_disabled": 0, "name": "5520f966dc3ceead3d1c71aa47af0d3b", "fusion_lat": 0.0, "rental_uris": {"ios": "https://dc.lft.to/lastmile_qr_scan", "android": "https://dc.lft.to/lastmile_qr_scan"}, "lon": -77.04349833333333, "type": "electric_scooter"}, {"bike_id": "5f2084b810b77e04d31c4e8b6989d10a", "is_reserved": 0, "fusion_lon": 0.0, "lat": 38.81308966666667, "is_disabled": 0, "name": "5f2084b810b77e04d31c4e8b6989d10a", "fusion_lat": 0.0, "rental_uris": {"ios": "https://dc.lft.to/lastmile_qr_scan", "android": "https://dc.lft.to/lastmile_qr_scan"}, "lon": -77.05095683333333, "type": "electric_bike"}, {"bike_id": "7fb7176364e4996a7033304e23dccfb9", "is_reserved": 0, "fusion_lon": 0.0, "lat": 38.907933166666666, "is_disabled": 0, "name": "7fb7176364e4996a7033304e23dccfb9", "fusion_lat": 0.0, "rental_uris": {"ios": "https://dc.lft.to/lastmile_qr_scan", "android": "https://dc.lft.to/lastmile_qr_scan"}, "lon": -77.04241033333334, "type": "electric_scooter"}, {"bike_id": "ab92c3fd137effaa29251021053792c9", "is_reserved": 0, "fusion_lon": 0.0, "lat": 38.939893833333336, "is_disabled": 0, "name": "ab92c3fd137effaa29251021053792c9", "fusion_lat": 0.0, "rental_uris": {"ios": "https://dc.lft.to/lastmile_qr_scan", "android": "https://dc.lft.to/lastmile_qr_scan"}, "lon": -77.02881583333334, "type": "electric_scooter"}, {"bike_id": "f6961ffd83363fd1199343c1f2154651", "is_reserved": 0, "fusion_lon": 0.0, "lat": 38.918142833333334, "is_disabled": 0, "name": "f6961ffd83363fd1199343c1f2154651", "fusion_lat": 0.0, "rental_uris": {"ios": "https://dc.lft.to/lastmile_qr_scan", "android": "https://dc.lft.to/lastmile_qr_scan"}, "lon": -77.03301783333333, "type": "electric_scooter"}, {"bike_id": "b0ecc3d86030e0b48ba938287c7924a9", "is_reserved": 0, "fusion_lon": 0.0, "lat": 38.91331, "is_disabled": 0, "name": "b0ecc3d86030e0b48ba938287c7924a9", "fusion_lat": 0.0, "rental_uris": {"ios": "https://dc.lft.to/lastmile_qr_scan", "android": "https://dc.lft.to/lastmile_qr_scan"}, "lon": -77.032666, "type": "electric_scooter"}, {"bike_id": "efa3e1e9152af06b3ce34f8915bd2d4a", "is_reserved": 0, "fusion_lon": 0.0, "lat": 38.936663833333334, "is_disabled": 0, "name": "efa3e1e9152af06b3ce34f8915bd2d4a", "fusion_lat": 0.0, "rental_uris": {"ios": "https://dc.lft.to/lastmile_qr_scan", "android": "https://dc.lft.to/lastmile_qr_scan"}, "lon": -77.0593265, "type": "electric_scooter"}, {"bike_id": "58453ec131d1f3bf4c449c5c59d8c8d9", "is_reserved": 0, "fusion_lon": 0.0, "lat": 38.894261166666666, "is_disabled": 0, "name": "58453ec131d1f3bf4c449c5c59d8c8d9", "fusion_lat": 0.0, "rental_uris": {"ios": "https://dc.lft.to/lastmile_qr_scan", "android": "https://dc.lft.to/lastmile_qr_scan"}, "lon": -77.02629083333333, "type": "electric_scooter"}, {"bike_id": "40e18bd2b8ec7edd5ce268423c69c3b7", "is_reserved": 0, "fusion_lon": 0.0, "lat": 38.9035135, "is_disabled": 0, "name": "40e18bd2b8ec7edd5ce268423c69c3b7", "fusion_lat": 0.0, "rental_uris": {"ios": "https://dc.lft.to/lastmile_qr_scan", "android": "https://dc.lft.to/lastmile_qr_scan"}, "lon": -77.04525333333333, "type": "electric_scooter"}, {"bike_id": "2e28f5bccfb71cc1d08f9a0eb0a77b03", "is_reserved": 0, "fusion_lon": 0.0, "lat": 38.89557383333333, "is_disabled": 0, "name": "2e28f5bccfb71cc1d08f9a0eb0a77b03", "fusion_lat": 0.0, "rental_uris": {"ios": "https://dc.lft.to/lastmile_qr_scan", "android": "https://dc.lft.to/lastmile_qr_scan"}, "lon": -76.95029216666667, "type": "electric_scooter"}, {"bike_id": "009910298a25184003f86caa70c702eb", "is_reserved": 0, "fusion_lon": 0.0, "lat": 38.85952783333333, "is_disabled": 0, "name": "009910298a25184003f86caa70c702eb", "fusion_lat": 0.0, "rental_uris": {"ios": "https://dc.lft.to/lastmile_qr_scan", "android": "https://dc.lft.to/lastmile_qr_scan"}, "lon": -76.99105983333334, "type": "electric_scooter"}, {"bike_id": "502768abb548aed40dd07153a7e860f7", "is_reserved": 0, "fusion_lon": 0.0, "lat": 38.90815383333333, "is_disabled": 0, "name": "502768abb548aed40dd07153a7e860f7", "fusion_lat": 0.0, "rental_uris": {"ios": "https://dc.lft.to/lastmile_qr_scan", "android": "https://dc.lft.to/lastmile_qr_scan"}, "lon": -77.03431533333334, "type": "electric_scooter"}, {"bike_id": "d1a4396fec041c1fff29275e6b0e6e8c", "is_reserved": 0, "fusion_lon": 0.0, "lat": 38.905698666666666, "is_disabled": 0, "name": "d1a4396fec041c1fff29275e6b0e6e8c", "fusion_lat": 0.0, "rental_uris": {"ios": "https://dc.lft.to/lastmile_qr_scan", "android": "https://dc.lft.to/lastmile_qr_scan"}, "lon": -77.02176283333333, "type": "electric_scooter"}, {"bike_id": "72a1082748f51a42d512dbf73d124b41", "is_reserved": 0, "fusion_lon": 0.0, "lat": 38.892193, "is_disabled": 0, "name": "72a1082748f51a42d512dbf73d124b41", "fusion_lat": 0.0, "rental_uris": {"ios": "https://dc.lft.to/lastmile_qr_scan", "android": "https://dc.lft.to/lastmile_qr_scan"}, "lon": -77.031646, "type": "electric_scooter"},