{"data": {"bikes": [{"lat": 38.93350233333334, "is_disabled": 0, "type": "electric_scooter", "lon": -77.07184533333333, "bike_id": "9c15cb156f136bce1240a26ff232f92a", "fusion_lat": 0.0, "name": "9c15cb156f136bce1240a26ff232f92a", "is_reserved": 0, "rental_uris": {"android": "https://dc.lft.to/lastmile_qr_scan", "ios": "https://dc.lft.to/lastmile_qr_scan"}, "fusion_lon": 0.0}, {"lat": 38.92211183333333, "is_disabled": 0, "type": "electric_scooter", "lon": -77.04016583333333, "bike_id": "60b85ab4868f6894dcaa54eefbbcb190", "fusion_lat": 0.0, "name": "60b85ab4868f6894dcaa54eefbbcb190", "is_reserved": 0, "rental_uris": {"android": "https://dc.lft.to/lastmile_qr_scan", "ios": "https://dc.lft.to/lastmile_qr_scan"}, "fusion_lon": 0.0}, {"lat": 38.91403966666667, "is_disabled": 0, "type": "electric_scooter", "lon": -77.03262716666667, "bike_id": "0b3d12f819afcb84e44dca865687950a", "fusion_lat": 0.0, "name": "0b3d12f819afcb84e44dca865687950a", "is_reserved": 0, "rental_uris": {"android": "https://dc.lft.to/lastmile_qr_scan", "ios": "https://dc.lft.to/lastmile_qr_scan"}, "fusion_lon": 0.0}, {"lat": 38.90100866666667, "is_disabled": 0, "type": "electric_scooter", "lon": -77.02215733333334, "bike_id": "b930598e326fc0bd1ef5a1dfcc5bdcdc", "fusion_lat": 0.0, "name": "b930598e326fc0bd1ef5a1dfcc5bdcdc", "is_reserved": 0, "rental_uris": {"android": "https://dc.lft.to/lastmile_qr_scan", "ios": "https://dc.lft.to/lastmile_qr_scan"}, "fusion_lon": 0.0}, {"lat": 38.923506, "is_disabled": 0, "type": "electric_bike", "lon": -76.9925, "bike_id": "5b2d12f7a996ac890fb32b6dd7cbb1d4", "fusion_lat": 0.0, "name": "5b2d12f7a996ac890fb32b6dd7cbb1d4", "is_reserved": 0, "rental_uris": {"android": "https://dc.lft.to/lastmile_qr_scan", "ios": "https://dc.lft.to/lastmile_qr_scan"}, "fusion_lon": 0.0}, {"lat": 38.9094545, "is_disabled": 0, "type": "electric_scooter", "lon": -77.04424583333333, "bike_id": "b3d4985b59c2199d82d7fdaf71b21097", "fusion_lat": 0.0, "name": "b3d4985b59c2199d82d7fdaf71b21097", "is_reserved": 0, "rental_uris": {"android": "https://dc.lft.to/lastmile_qr_scan", "ios": "https://dc.lft.to/lastmile_qr_scan"}, "fusion_lon": 0.0}, {"lat": 38.91496166666667, "is_disabled": 0, "type": "electric_scooter", "lon": -77.01999916666666, "bike_id": "9adbfa576b12d7532aaabf7ad8304c94", "fusion_lat": 0.0, "name": "9adbfa576b12d7532aaabf7ad8304c94", "is_reserved": 0, "rental_uris": {"android": "https://dc.lft.to/lastmile_qr_scan", "ios": "https://dc.lft.to/lastmile_qr_scan"}, "fusion_lon": 0.0}, {"lat": 38.91559816666667, "is_disabled": 0, "type": "electric_scooter", "lon": -77.03242016666667, "bike_id": "61f78040d49ee3ca1c123969dc2d690a", "fusion_lat": 0.0, "name": "61f78040d49ee3ca1c123969dc2d690a", "is_reserved": 0, "rental_uris": {"android": "https://dc.lft.to/lastmile_qr_scan", "ios": "https://dc.lft.to/lastmile_qr_scan"}, "fusion_lon": 0.0}, {"lat": 38.8865055, "is_disabled": 0, "type": "electric_scooter", "lon": -76.9822975, "bike_id": "57cab36f2f2455ecdb6f91de7efdc34f", "fusion_lat": 0.0, "name": "57cab36f2f2455ecdb6f91de7efdc34f", "is_reserved": 0, "rental_uris": {"android": "https://dc.lft.to/lastmile_qr_scan", "ios": "https://dc.lft.to/lastmile_qr_scan"}, "fusion_lon": 0.0}, {"lat": 38.906944333333335, "is_disabled": 0, "type": "electric_bike", "lon": -76.951859, "bike_id": "3718de2e7bf50f71895a14940440d98e", "fusion_lat": 0.0, "name": "3718de2e7bf50f71895a14940440d98e", "is_reserved": 0, "rental_uris": {"android": "https://dc.lft.to/lastmile_qr_scan", "ios": "https://dc.lft.to/lastmile_qr_scan"}, "fusion_lon": 0.0}, {"lat": 38.9094505, "is_disabled": 0, "type": "electric_scooter", "lon": -77.044317, "bike_id": "bfd372c546160bf50d86d2c5810c8123", "fusion_lat": 0.0, "name": "bfd372c546160bf50d86d2c5810c8123", "is_reserved": 0, "rental_uris": {"android": "https://dc.lft.to/lastmile_qr_scan", "ios": "https://dc.lft.to/lastmile_qr_scan"}, "fusion_lon": 0.0}, {"lat": 38.956660666666664, "is_disabled": 0, "type": "electric_bike", "lon": -77.027855, "bike_id": "6c4a6ba50b137e9ceb257776dbd1bb68", "fusion_lat": 0.0, "name": "6c4a6ba50b137e9ceb257776dbd1bb68", "is_reserved": 0, "rental_uris": {"android": "https://dc.lft.to/lastmile_qr_scan", "ios": "https://dc.lft.to/lastmile_qr_scan"}, "fusion_lon": 0.0}, {"lat": 38.922300666666665, "is_disabled": 0, "type": "electric_scooter", "lon": -77.03896666666667, "bike_id": "0ab501062e93de6bb27132a877b75cf8", "fusion_lat": 0.0, "name": "0ab501062e93de6bb27132a877b75cf8", "is_reserved": 0, "rental_uris": {"android": "https://dc.lft.to/lastmile_qr_scan", "ios": "https://dc.lft.to/lastmile_qr_scan"}, "fusion_lon": 0.0}, {"lat": 38.937590666666665, "is_disabled": 0, "type": "electric_scooter", "lon": -77.03285583333333, "bike_id": "cd1cc356912e65122bc1e6c949fb23c9", "fusion_lat": 0.0, "name": "cd1cc356912e65122bc1e6c949fb23c9", "is_reserved": 0, "rental_uris": {"android": "https://dc.lft.to/lastmile_qr_scan", "ios": "https://dc.lft.to/lastmile_qr_scan"}, "fusion_lon": 0.0}, {"lat": 38.953297166666665, "is_disabled": 0, "type": "electric_bike", "lon": -76.98821, "bike_id": "e1ba60820e575accb5a9e907b4de5dc3", "fusion_lat": 0.0, "name": "e1ba60820e575accb5a9e907b4de5dc3", "is_reserved": 0, "rental_uris": {"android": "https://dc.lft.to/lastmile_qr_scan", "ios": "https://dc.lft.to/lastmile_qr_scan"}, "fusion_lon": 0.0}, {"lat": 38.912699, "is_disabled": 0, "type": "electric_scooter", "lon": -77.02220466666667, "bike_id": "8da2a8d600d84688c85cb9d8b633e656", "fusion_lat": 0.0, "name": "8da2a8d600d84688c85cb9d8b633e656", "is_reserved": 0, "rental_uris": {"android": "https://dc.lft.to/lastmile_qr_scan", "ios": "https://dc.lft.to/lastmile_qr_scan"}, "fusion_lon": 0.0}, {"lat": 38.8625575, "is_disabled": 0, "type": "electric_scooter", "lon": -76.9870455, "bike_id": "0c097c6ac0139156a5d02cac48c28a05", "fusion_lat": 0.0, "name": "0c097c6ac0139156a5d02cac48c28a05", "is_reserved": 0, "rental_uris": {"android": "https://dc.lft.to/lastmile_qr_scan", "ios": "https://dc.lft.to/lastmile_qr_scan"}, "fusion_lon": 0.0}, {"lat": 38.885768666666664, "is_disabled": 0, "type": "electric_scooter", "lon": -77.01997433333334, "bike_id": "76cff896ffd94d58579106764cab2ad8", "fusion_lat": 0.0, "name": "76cff896ffd94d58579106764cab2ad8", "is_reserved": 0, "rental_uris": {"android": "https://dc.lft.to/lastmile_qr_scan", "ios": "https://dc.lft.to/lastmile_qr_scan"}, "fusion_lon": 0.0}, {"lat": 38.8443195, "is_disabled": 0, "type": "electric_scooter", "lon": -76.99778383333333, "bike_id": "66f4390658bb09ae7bf1528a552bc2e3", "fusion_lat": 0.0, "name": "66f4390658bb09ae7bf1528a552bc2e3", "is_reserved": 0, "rental_uris": {"android": "https://dc.lft.to/lastmile_qr_scan", "ios": "https://dc.lft.to/lastmile_qr_scan"}, "fusion_lon": 0.0}, {"lat": 38.86618466666667, "is_disabled": 0, "type": "electric_scooter", "lon": -76.986537, "bike_id": "83f72e360598840ab1afcaf211e61ff6", "fusion_lat": 0.0, "name": "83f72e360598840ab1afcaf211e61ff6", "is_reserved": 0, "rental_uris": {"android": "https://dc.lft.to/lastmile_qr_scan", "ios": "https://dc.lft.to/lastmile_qr_scan"}, "fusion_lon": 0.0}, {"lat": 38.90770416666667, "is_disabled": 0, "type": "electric_scooter", "lon": -77.0206815, "bike_id": "d88b0776e6fbdae6959a9d3435602381", "fusion_lat": 0.0, "name": "d88b0776e6fbdae6959a9d3435602381", "is_reserved": 0, "rental_uris": {"android": "https://dc.lft.to/lastmile_qr_scan", "ios": "https://dc.lft.to/lastmile_qr_scan"}, "fusion_lon": 0.0}, {"lat": 38.978576833333335, "is_disabled": 0, "type": "electric_bike", "lon": -77.026553, "bike_id": "89a37369fbdbd746accf6938ee28747f", "fusion_lat": 0.0, "name": "89a37369fbdbd746accf6938ee28747f", "is_reserved": 0, "rental_uris": {"android": "https://dc.lft.to/lastmile_qr_scan", "ios": "https://dc.lft.to/lastmile_qr_scan"}, "fusion_lon": 0.0}, {"lat": 38.83233766666667, "is_disabled": 0, "type": "electric_bike", "lon": -76.94628683333333, "bike_id": "5a1145cef74812ec713da0590d72144d", "fusion_lat": 0.0, "name": "5a1145cef74812ec713da0590d72144d", "is_reserved": 0, "rental_uris": {"android": "https://dc.lft.to/lastmile_qr_scan", "ios": "https://dc.lft.to/lastmile_qr_scan"}, "fusion_lon": 0.0}, {"lat": 38.929128666666664, "is_disabled": 0, "type": "electric_scooter", "lon": -77.03266183333334, "bike_id": "d772ab50018a729dd5b267c73a8217ed", "fusion_lat": 0.0, "name": "d772ab50018a729dd5b267c73a8217ed", "is_reserved": 0, "rental_uris": {"android": "https://dc.lft.to/lastmile_qr_scan", "ios": "https://dc.lft.to/lastmile_qr_scan"}, "fusion_lon": 0.0}, {"lat": 38.978833333333334, "is_disabled": 0, "type": "electric_scooter", "lon": -77.02549683333334, "bike_id": "4edacd48b74291514f8b9ab26c04ea6b", "fusion_lat": 0.0, "name": "4edacd48b74291514f8b9ab26c04ea6b", "is_reserved": 0, "rental_uris": {"android": "https://dc.lft.to/lastmile_qr_scan", "ios": "https://dc.lft.to/lastmile_qr_scan"}, "fusion_lon": 0.0}, {"lat": 38.896857, "is_disabled": 0, "type": "electric_scooter", "lon": -77.00781983333333, "bike_id": "0a7ccbd45eb31b4af2cd318e651d8c71", "fusion_lat": 0.0, "name": "0a7ccbd45eb31b4af2cd318e651d8c71", "is_reserved": 0, "rental_uris": {"android": "https://dc.lft.to/lastmile_qr_scan", "ios": "https://dc.lft.to/lastmile_qr_scan"}, "fusion_lon": 0.0}, {"lat": 38.9113275, "is_disabled": 0, "type": "electric_scooter", "lon": -77.03214783333334, "bike_id": "fe6a6d4299583e536353214fc114b07a", "fusion_lat": 0.0, "name": "fe6a6d4299583e536353214fc114b07a", "is_reserved": 0, "rental_uris": {"android": "https://dc.lft.to/lastmile_qr_scan", "ios": "https://dc.lft.to/lastmile_qr_scan"}, "fusion_lon": 0.0}, {"lat": 38.912753, "is_disabled": 0, "type": "electric_scooter", "lon": -77.04508633333333, "bike_id": "23e467f93704752ad4ceb7416bcc486f", "fusion_lat": 0.0, "name": "23e467f93704752ad4ceb7416bcc486f", "is_reserved": 0, "rental_uris": {"android": "https://dc.lft.to/lastmile_qr_scan", "ios": "https://dc.lft.to/lastmile_qr_scan"}, "fusion_lon": 0.0}, {"lat": 38.863866, "is_disabled": 0, "type": "electric_scooter", "lon": -76.9924975, "bike_id": "33d775600d514d52dac5a1fde5cad474", "fusion_lat": 0.0, "name": "33d775600d514d52dac5a1fde5cad474", "is_reserved": 0, "rental_uris": {"android": "https://dc.lft.to/lastmile_qr_scan", "ios": "https://dc.lft.to/lastmile_qr_scan"}, "fusion_lon": 0.0}, {"lat": 38.9430775, "is_disabled": 0, "type": "electric_scooter", "lon": -77.059297, "bike_id": "816abb34d118be832e3c69f9ef70958e", "fusion_lat": 0.0, "name": "816abb34d118be832e3c69f9ef70958e", "is_reserved": 0, "rental_uris": {"android": "https://dc.lft.to/lastmile_qr_scan", "ios": "https://dc.lft.to/lastmile_qr_scan"}, "fusion_lon": 0.0}, {"lat": 38.92448483333333, "is_disabled": 0, "type": "electric_scooter", "lon": -77.0203295, "bike_id": "ae8f9f3605969f52195e3267c056cb2e", "fusion_lat": 0.0, "name": "ae8f9f3605969f52195e3267c056cb2e", "is_reserved": 0, "rental_uris": {"android": "https://dc.lft.to/lastmile_qr_scan", "ios": "https://dc.lft.to/lastmile_qr_scan"}, "fusion_lon": 0.0}, {"lat": 38.922404666666665, "is_disabled": 0, "type": "electric_bike", "lon": -77.02240266666666, "bike_id": "cc0b71739e76e47574bbc745ef59b9c1", "fusion_lat": 0.0, "name": "cc0b71739e76e47574bbc745ef59b9c1", "is_reserved": 0, "rental_uris": {"android": "https://dc.lft.to/lastmile_qr_scan", "ios": "https://dc.lft.to/lastmile_qr_scan"}, "fusion_lon": 0.0}, {"lat": 38.89229866666667, "is_disabled": 0, "type": "electric_scooter", "lon": -77.02794466666667, "bike_id": "ccbb7b49bb4582985d37dceea1df7715", "fusion_lat": 0.0, "name": "ccbb7b49bb4582985d37dceea1df7715", "is_reserved": 0, "rental_uris": {"android": "https://dc.lft.to/lastmile_qr_scan", "ios": "https://dc.lft.to/lastmile_qr_scan"}, "fusion_lon": 0.0}, {"lat": 38.87652, "is_disabled": 0, "type": "electric_scooter", "lon": -77.01475383333333, "bike_id": "a6c7780ab2b0a6d3ae33a463130d2752", "fusion_lat": 0.0, "name": "a6c7780ab2b0a6d3ae33a463130d2752", "is_reserved": 0, "rental_uris": {"android": "https://dc.lft.to/lastmile_qr_scan", "ios": "https://dc.lft.to/lastmile_qr_scan"}, "fusion_lon": 0.0}, {"lat": 38.897227666666666, "is_disabled": 0, "type": "electric_scooter", "lon": -77.00802033333333, "bike_id": "e67bf31712f7d17c7d539fd34c209a6a", "fusion_lat": 0.0, "name": "e67bf31712f7d17c7d539fd34c209a6a", "is_reserved": 0, "rental_uris": {"android": "https://dc.lft.to/lastmile_qr_scan", "ios": "https://dc.lft.to/lastmile_qr_scan"}, "fusion_lon": 0.0}, {"lat": 38.903701, "is_disabled": 0, "type": "electric_scooter", "lon": -77.02014833333334, "bike_id": "2c803d763d6c02efe5b9983aeb6a5534", "fusion_lat": 0.0, "name": "2c803d763d6c02efe5b9983aeb6a5534", "is_reserved": 0, "rental_uris": {"android": "https://dc.lft.to/lastmile_qr_scan", "ios": "https://dc.lft.to/lastmile_qr_scan"}, "fusion_lon": 0.0}, {"lat": 38.87642433333333, "is_disabled": 0, "type": "electric_scooter", "lon": -77.00747916666667, "bike_id": "bde54f060bd24b4261b1e7eb84db7d27", "fusion_lat": 0.0, "name": "bde54f060bd24b4261b1e7eb84db7d27", "is_reserved": 0, "rental_uris": {"android": "https://dc.lft.to/lastmile_qr_scan", "ios": "https://dc.lft.to/lastmile_qr_scan"}, "fusion_lon": 0.0}, {"lat": 38.903118, "is_disabled": 0, "type": "electric_scooter", "lon": -77.034604, "bike_id": "9b2773a59bbe49c2494ee3eb8256bc83", "fusion_lat": 0.0, "name": "9b2773a59bbe49c2494ee3eb8256bc83", "is_reserved": 0, "rental_uris": {"android": "https://dc.lft.to/lastmile_qr_scan", "ios": "https://dc.lft.to/lastmile_qr_scan"}, "fusion_lon": 0.0}, {"lat": 38.923704666666666, "is_disabled": 0, "type": "electric_scooter", "lon": -77.05751816666667, "bike_id": "9403c9729476dd754aa6184d9e8e325f", "fusion_lat": 0.0, "name": "9403c9729476dd754aa6184d9e8e325f", "is_reserved": 0, "rental_uris": {"android": "https://dc.lft.to/lastmile_qr_scan", "ios": "https://dc.lft.to/lastmile_qr_scan"}, "fusion_lon": 0.0}, {"lat": 38.92928166666667, "is_disabled": 0, "type": "electric_scooter", "lon": -77.03265016666667, "bike_id": "7465f25cca4b303a483e2b0898b95cba", "fusion_lat": 0.0, "name": "7465f25cca4b303a483e2b0898b95cba", "is_reserved": 0, "rental_uris": {"android": "https://dc.lft.to/lastmile_qr_scan", "ios": "https://dc.lft.to/lastmile_qr_scan"}, "fusion_lon": 0.0}, {"lat": 38.90175416666666, "is_disabled": 0, "type": "electric_scooter", "lon": -76.999981, "bike_id": "b7569b230368ae5a9d6051ddbb4acc62", "fusion_lat": 0.0, "name": "b7569b230368ae5a9d6051ddbb4acc62", "is_reserved": 0, "rental_uris": {"android": "https://dc.lft.to/lastmile_qr_scan", "ios": "https://dc.lft.to/lastmile_qr_scan"}, "fusion_lon": 0.0}, {"lat": 38.88436033333333, "is_disabled": 0, "type": "electric_scooter", "lon": -77.03039116666666, "bike_id": "ac54ef9655d25eeea024dee64e08b611", "fusion_lat": 0.0, "name": "ac54ef9655d25eeea024dee64e08b611", "is_reserved": 0, "rental_uris": {"android": "https://dc.lft.to/lastmile_qr_scan", "ios": "https://dc.lft.to/lastmile_qr_scan"}, "fusion_lon": 0.0}, {"lat": 38.925801, "is_disabled": 0, "type": "electric_scooter", "lon": -77.0576945, "bike_id": "3ae5f2dd69ae0207b91556a3db6b4bc9", "fusion_lat": 0.0, "name": "3ae5f2dd69ae0207b91556a3db6b4bc9", "is_reserved": 0, "rental_uris": {"android": "https://dc.lft.to/lastmile_qr_scan", "ios": "https://dc.lft.to/lastmile_qr_scan"}, "fusion_lon": 0.0}, {"lat": 38.896240166666665, "is_disabled": 0, "type": "electric_scooter", "lon": -77.02964783333333, "bike_id": "cd58e65f4d37d7297d72ab7aee4cc9c6", "fusion_lat": 0.0, "name": "cd58e65f4d37d7297d72ab7aee4cc9c6", "is_reserved": 0, "rental_uris": {"android": "https://dc.lft.to/lastmile_qr_scan", "ios": "https://dc.lft.to/lastmile_qr_scan"}, "fusion_lon": 0.0}, {"lat": 38.91269283333333, "is_disabled": 0, "type": "electric_scooter", "lon": -77.0222495, "bike_id": "c9de08654d48cdb450dd5b0e4db224cc", "fusion_lat": 0.0, "name": "c9de08654d48cdb450dd5b0e4db224cc", "is_reserved": 0, "rental_uris": {"android": "https://dc.lft.to/lastmile_qr_scan", "ios": "https://dc.lft.to/lastmile_qr_scan"}, "fusion_lon": 0.0}, {"lat": 38.866158666666664, "is_disabled": 0, "type": "electric_scooter", "lon": -76.9866655, "bike_id": "0240ca56f23ddf0dbf9daaa580b7c746", "fusion_lat": 0.0, "name": "0240ca56f23ddf0dbf9daaa580b7c746", "is_reserved": 0, "rental_uris": {"android": "https://dc.lft.to/lastmile_qr_scan", "ios": "https://dc.lft.to/lastmile_qr_scan"}, "fusion_lon": 0.0}, {"lat": 38.880097166666665, "is_disabled": 0, "type": "electric_scooter", "lon": -77.005737, "bike_id": "03fb879c6f5c668df71892d1498c1f83", "fusion_lat": 0.0, "name": "03fb879c6f5c668df71892d1498c1f83", "is_reserved": 0, "rental_uris": {"android": "https://dc.lft.to/lastmile_qr_scan", "ios": "https://dc.lft.to/lastmile_qr_scan"}, "fusion_lon": 0.0}, {"lat": 38.928716, "is_disabled": 0, "type": "electric_scooter", "lon": -77.03523216666666, "bike_id": "4105edd6289f0e5b2332724dc6a092c2", "fusion_lat": 0.0, "name": "4105edd6289f0e5b2332724dc6a092c2", "is_reserved": 0, "rental_uris": {"android": "https://dc.lft.to/lastmile_qr_scan", "ios": "https://dc.lft.to/lastmile_qr_scan"}, "fusion_lon": 0.0}, {"lat": 38.905650333333334, "is_disabled": 0, "type": "electric_scooter", "lon": -77.022204, "bike_id": "c7deffd02f6765353d0492d67b9a5237", "fusion_lat": 0.0, "name": "c7deffd02f6765353d0492d67b9a5237", "is_reserved": 0, "rental_uris": {"android": "https://dc.lft.to/lastmile_qr_scan", "ios": "https://dc.lft.to/lastmile_qr_scan"}, "fusion_lon": 0.0}, {"lat": 38.845928, "is_disabled": 0, "type": "electric_bike", "lon": -77.0768295, "bike_id": "10b6ce839629a90e5b89003cf985129f", "fusion_lat": 0.0, "name": "10b6ce839629a90e5b89003cf985129f", "is_reserved": 0, "rental_uris": {"android": "https://dc.lft.to/lastmile_qr_scan", "ios": "https://dc.lft.to/lastmile_qr_scan"}, "fusion_lon": 0.0}, {"lat": 38.906354666666665, "is_disabled": 0, "type": "electric_scooter", "lon": -77.01382233333334, "bike_id": "f07f81fc535403dc80f604190db355ff", "fusion_lat": 0.0, "name": "f07f81fc535403dc80f604190db355ff", "is_reserved": 0, "rental_uris": {"android": "https://dc.lft.to/lastmile_qr_scan", "ios": "https://dc.lft.to/lastmile_qr_scan"}, "fusion_lon": 0.0}, {"lat": 38.812226, "is_disabled": 0, "type": "electric_bike", "lon": -77.10987433333334, "bike_id": "03f07ed2a808c47d6ad81f81b0de83b4", "fusion_lat": 0.0, "name": "03f07ed2a808c47d6ad81f81b0de83b4", "is_reserved": 0, "rental_uris": {"android": "https://dc.lft.to/lastmile_qr_scan", "ios": "https://dc.lft.to/lastmile_qr_scan"}, "fusion_lon": 0.0}, {"lat": 38.9170785, "is_disabled": 0, "type": "electric_scooter", "lon": -77.03887266666666, "bike_id": "ef93a00f5e72a72ff1ea83449f322f3f", "fusion_lat": 0.0, "name": "ef93a00f5e72a72ff1ea83449f322f3f", "is_reserved": 0, "rental_uris": {"android": "https://dc.lft.to/lastmile_qr_scan", "ios": "https://dc.lft.to/lastmile_qr_scan"}, "fusion_lon": 0.0}, {"lat": 38.9753505, "is_disabled": 0, "type": "electric_scooter", "lon": -77.0169005, "bike_id": "45f3a999222670fd9f057f8f3e2bd6be", "fusion_lat": 0.0, "name": "45f3a999222670fd9f057f8f3e2bd6be", "is_reserved": 0, "rental_uris": {"android": "https://dc.lft.to/lastmile_qr_scan", "ios": "https://dc.lft.to/lastmile_qr_scan"}, "fusion_lon": 0.0}, {"lat": 38.920233333333336, "is_disabled": 0, "type": "electric_scooter", "lon": -77.031438, "bike_id": "a10d9892bbdcd5c50a45e8ad6be0344b", "fusion_lat": 0.0, "name": "a10d9892bbdcd5c50a45e8ad6be0344b", "is_reserved": 0, "rental_uris": {"android": "https://dc.lft.to/lastmile_qr_scan", "ios": "https://dc.lft.to/lastmile_qr_scan"}, "fusion_lon": 0.0}, {"lat": 38.91468483333333, "is_disabled": 0, "type": "electric_scooter", "lon": -77.03221183333333, "bike_id": "bb73a6ac7b4e0e3042b1f8467222d333", "fusion_lat": 0.0, "name": "bb73a6ac7b4e0e3042b1f8467222d333", "is_reserved": 0, "rental_uris": {"android": "https://dc.lft.to/lastmile_qr_scan", "ios": "https://dc.lft.to/lastmile_qr_scan"}, "fusion_lon": 0.0}, {"lat": 38.91685716666667, "is_disabled": 0, "type": "electric_scooter", "lon": -77.0294935, "bike_id": "1083b0b9e039b92683c84deac7ceade3", "fusion_lat": 0.0, "name": "1083b0b9e039b92683c84deac7ceade3", "is_reserved": 0, "rental_uris": {"android": "https://dc.lft.to/lastmile_qr_scan", "ios": "https://dc.lft.to/lastmile_qr_scan"}, "fusion_lon": 0.0}, {"lat": 38.898217333333335, "is_disabled": 0, "type": "electric_scooter", "lon": -77.03298716666667, "bike_id": "13df5508d47dc54df6748412e07d44b7", "fusion_lat": 0.0, "name": "13df5508d47dc54df6748412e07d44b7", "is_reserved": 0, "rental_uris": {"android": "https://dc.lft.to/lastmile_qr_scan", "ios": "https://dc.lft.to/lastmile_qr_scan"}, "fusion_lon": 0.0}, {"lat": 38.91814316666667, "is_disabled": 0, "type": "electric_scooter", "lon": -77.00481933333333, "bike_id": "bdde871fa52a9dccb5d8f54abfb090a0", "fusion_lat": 0.0, "name": "bdde871fa52a9dccb5d8f54abfb090a0", "is_reserved": 0, "rental_uris": {"android": "https://dc.lft.to/lastmile_qr_scan", "ios": "https://dc.lft.to/lastmile_qr_scan"}, "fusion_lon": 0.0}, {"lat": 38.8753595, "is_disabled": 0, "type": "electric_scooter", "lon": -77.00506466666667, "bike_id": "6b024efb73fa8eccc87aaa2e6e3047e5", "fusion_lat": 0.0, "name": "6b024efb73fa8eccc87aaa2e6e3047e5", "is_reserved": 0, "rental_uris": {"android": "https://dc.lft.to/lastmile_qr_scan", "ios": "https://dc.lft.to/lastmile_qr_scan"}, "fusion_lon": 0.0}, {"lat": 38.85792983333333, "is_disabled": 0, "type": "electric_bike", "lon": -76.987444, "bike_id": "aef4123b26e86c138892d22541320702", "fusion_lat": 0.0, "name": "aef4123b26e86c138892d22541320702", "is_reserved": 0, "rental_uris": {"android": "https://dc.lft.to/lastmile_qr_scan", "ios": "https://dc.lft.to/lastmile_qr_scan"}, "fusion_lon": 0.0}, {"lat": 38.89883066666667, "is_disabled": 0, "type": "electric_scooter", "lon": -77.02302316666666, "bike_id": "e902c2ef0084e16e5091da12d05f3491", "fusion_lat": 0.0, "name": "e902c2ef0084e16e5091da12d05f3491", "is_reserved": 0, "rental_uris": {"android": "https://dc.lft.to/lastmile_qr_scan", "ios": "https://dc.lft.to/lastmile_qr_scan"}, "fusion_lon": 0.0}, {"lat": 38.91962, "is_disabled": 0, "type": "electric_scooter", "lon": -77.01443333333333, "bike_id": "fd50b7f45dc443157dbba67f210bd2bf", "fusion_lat": 0.0, "name": "fd50b7f45dc443157dbba67f210bd2bf", "is_reserved": 0, "rental_uris": {"android": "https://dc.lft.to/lastmile_qr_scan", "ios": "https://dc.lft.to/lastmile_qr_scan"}, "fusion_lon": 0.0}, {"lat": 39.0373285, "is_disabled": 0, "type": "electric_bike", "lon": -77.05643366666666, "bike_id": "a707aae97e113696e04362eddda5fce4", "fusion_lat": 0.0, "name": "a707aae97e113696e04362eddda5fce4", "is_reserved": 0, "rental_uris": {"android": "https://dc.lft.to/lastmile_qr_scan", "ios": "https://dc.lft.to/lastmile_qr_scan"}, "fusion_lon": 0.0}, {"lat": 38.898367666666665, "is_disabled": 0, "type": "electric_scooter", "lon": -77.03300083333333, "bike_id": "ed437cee885671481e3374fd07ce325f", "fusion_lat": 0.0, "name": "ed437cee885671481e3374fd07ce325f", "is_reserved": 0, "rental_uris": {"android": "https://dc.lft.to/lastmile_qr_scan", "ios": "https://dc.lft.to/lastmile_qr_scan"}, "fusion_lon": 0.0}, {"lat": 38.871992666666664, "is_disabled": 0, "type": "electric_scooter", "lon": -77.006104, "bike_id": "ca2d2da435e78da7a3a9dd8a78833792", "fusion_lat": 0.0, "name": "ca2d2da435e78da7a3a9dd8a78833792", "is_reserved": 0, "rental_uris": {"android": "https://dc.lft.to/lastmile_qr_scan", "ios": "https://dc.lft.to/lastmile_qr_scan"}, "fusion_lon": 0.0}, {"lat": 38.88715, "is_disabled": 0, "type": "electric_bike", "lon": -77.13305516666667, "bike_id": "3816447f49f200e36a16bc3daefc91ea", "fusion_lat": 0.0, "name": "3816447f49f200e36a16bc3daefc91ea", "is_reserved": 0, "rental_uris": {"android": "https://dc.lft.to/lastmile_qr_scan", "ios": "https://dc.lft.to/lastmile_qr_scan"}, "fusion_lon": 0.0}, {"lat": 38.88548633333333, "is_disabled": 0, "type": "electric_bike", "lon": -77.117857, "bike_id": "b0d57f78c1375b4614aa3363873a3010", "fusion_lat": 0.0, "name": "b0d57f78c1375b4614aa3363873a3010", "is_reserved": 0, "rental_uris": {"android": "https://dc.lft.to/lastmile_qr_scan", "ios": "https://dc.lft.to/lastmile_qr_scan"}, "fusion_lon": 0.0}, {"lat": 38.88445016666667, "is_disabled": 0, "type": "electric_scooter", "lon": -76.92955366666666, "bike_id": "3306c0aed13be1986011130cc65db6c0", "fusion_lat": 0.0, "name": "3306c0aed13be1986011130cc65db6c0", "is_reserved": 0, "rental_uris": {"android": "https://dc.lft.to/lastmile_qr_scan", "ios": "https://dc.lft.to/lastmile_qr_scan"}, "fusion_lon": 0.0}, {"lat": 38.909513833333335, "is_disabled": 0, "type": "electric_scooter", "lon": -77.03211083333333, "bike_id": "2a20bb3f92bc4284b5150cc17b3fa047", "fusion_lat": 0.0, "name": "2a20bb3f92bc4284b5150cc17b3fa047", "is_reserved": 0, "rental_uris": {"android": "https://dc.lft.to/lastmile_qr_scan", "ios": "https://dc.lft.to/lastmile_qr_scan"}, "fusion_lon": 0.0}, {"lat": 38.93757166666666, "is_disabled": 0, "type": "electric_scooter", "lon": -77.03293533333333, "bike_id": "10cb11d1ca8de4ae145167c64a1054e4", "fusion_lat": 0.0, "name": "10cb11d1ca8de4ae145167c64a1054e4", "is_reserved": 0, "rental_uris": {"android": "https://dc.lft.to/lastmile_qr_scan", "ios": "https://dc.lft.to/lastmile_qr_scan"}, "fusion_lon": 0.0}, {"lat": 38.93431783333333, "is_disabled": 0, "type": "electric_scooter", "lon": -76.9651, "bike_id": "5371468b2d4295eb71796204098f6077", "fusion_lat": 0.0, "name": "5371468b2d4295eb71796204098f6077", "is_reserved": 0, "rental_uris": {"android": "https://dc.lft.to/lastmile_qr_scan", "ios": "https://dc.lft.to/lastmile_qr_scan"}, "fusion_lon": 0.0}, {"lat": 38.9182035, "is_disabled": 0, "type": "electric_scooter", "lon": -77.02717816666667, "bike_id": "ffeaaabf96185eb082858c3dd74635d7", "fusion_lat": 0.0, "name": "ffeaaabf96185eb082858c3dd74635d7", "is_reserved": 0, "rental_uris": {"android": "https://dc.lft.to/lastmile_qr_scan", "ios": "https://dc.lft.to/lastmile_qr_scan"}, "fusion_lon": 0.0}, {"lat": 38.930967833333334, "is_disabled": 0, "type": "electric_scooter", "lon": -77.03763066666667, "bike_id": "82cfac6b8ad106a9af653b6db72163a8", "fusion_lat": 0.0, "name": "82cfac6b8ad106a9af653b6db72163a8", "is_reserved": 0, "rental_uris": {"android": "https://dc.lft.to/lastmile_qr_scan", "ios": "https://dc.lft.to/lastmile_qr_scan"}, "fusion_lon": 0.0}, {"lat": 38.9308245, "is_disabled": 0, "type": "electric_scooter", "lon": -77.02796833333333, "bike_id": "f909159bf78742065f4b406a784c421c", "fusion_lat": 0.0, "name": "f909159bf78742065f4b406a784c421c", "is_reserved": 0, "rental_uris": {"android": "https://dc.lft.to/lastmile_qr_scan", "ios": "https://dc.lft.to/lastmile_qr_scan"}, "fusion_lon": 0.0}, {"lat": 38.862858, "is_disabled": 0, "type": "electric_scooter", "lon": -76.99237866666667, "bike_id": "b18ec523377995d637e14a282a1b643c", "fusion_lat": 0.0, "name": "b18ec523377995d637e14a282a1b643c", "is_reserved": 0, "rental_uris": {"android": "https://dc.lft.to/lastmile_qr_scan", "ios": "https://dc.lft.to/lastmile_qr_scan"}, "fusion_lon": 0.0}, {"lat": 39.09437666666667, "is_disabled": 0, "type": "electric_bike", "lon": -77.13463683333333, "bike_id": "85c576111a67b60bb3f95553b6e50ae9", "fusion_lat": 0.0, "name": "85c576111a67b60bb3f95553b6e50ae9", "is_reserved": 0, "rental_uris": {"android": "https://dc.lft.to/lastmile_qr_scan", "ios": "https://dc.lft.to/lastmile_qr_scan"}, "fusion_lon": 0.0}, {"lat": 38.898459833333334, "is_disabled": 0, "type": "electric_scooter", "lon": -76.94474833333334, "bike_id": "5fa643f1629cb941c67a768a4c0c9d86", "fusion_lat": 0.0, "name": "5fa643f1629cb941c67a768a4c0c9d86", "is_reserved": 0, "rental_uris": {"android": "https://dc.lft.to/lastmile_qr_scan", "ios": "https://dc.lft.to/lastmile_qr_scan"}, "fusion_lon": 0.0}, {"lat": 38.912976, "is_disabled": 0, "type": "electric_scooter", "lon": -77.03203166666667, "bike_id": "7852d171c0a607c9920a7c2931526bf6", "fusion_lat": 0.0, "name": "7852d171c0a607c9920a7c2931526bf6", "is_reserved": 0, "rental_uris": {"android": "https://dc.lft.to/lastmile_qr_scan", "ios": "https://dc.lft.to/lastmile_qr_scan"}, "fusion_lon": 0.0}, {"lat": 38.876699, "is_disabled": 0, "type": "electric_bike", "lon": -77.01446616666667, "bike_id": "86cf483b7f978d47c85005e6d5540285", "fusion_lat": 0.0, "name": "86cf483b7f978d47c85005e6d5540285", "is_reserved": 0, "rental_uris": {"android": "https://dc.lft.to/lastmile_qr_scan", "ios": "https://dc.lft.to/lastmile_qr_scan"}, "fusion_lon": 0.0}, {"lat": 38.90522683333333, "is_disabled": 0, "type": "electric_scooter", "lon": -77.0474655, "bike_id": "c876cdd701da1f1bf28f7ae67e4da5f9", "fusion_lat": 0.0, "name": "c876cdd701da1f1bf28f7ae67e4da5f9", "is_reserved": 0, "rental_uris": {"android": "https://dc.lft.to/lastmile_qr_scan", "ios": "https://dc.lft.to/lastmile_qr_scan"}, "fusion_lon": 0.0}, {"lat": 38.906764333333335, "is_disabled": 0, "type": "electric_scooter", "lon": -77.03651733333334, "bike_id": "46a81d4cae6ec6e1c6e738add656cf3f", "fusion_lat": 0.0, "name": "46a81d4cae6ec6e1c6e738add656cf3f", "is_reserved": 0, "rental_uris": {"android": "https://dc.lft.to/lastmile_qr_scan", "ios": "https://dc.lft.to/lastmile_qr_scan"}, "fusion_lon": 0.0}, {"lat": 38.923379833333335, "is_disabled": 0, "type": "electric_scooter", "lon": -77.03524083333333, "bike_id": "16822859567b4d1a6619af72ae946500", "fusion_lat": 0.0, "name": "16822859567b4d1a6619af72ae946500", "is_reserved": 0, "rental_uris": {"android": "https://dc.lft.to/lastmile_qr_scan", "ios": "https://dc.lft.to/lastmile_qr_scan"}, "fusion_lon": 0.0}, {"lat": 38.91262066666667, "is_disabled": 0, "type": "electric_scooter", "lon": -77.0349665, "bike_id": "9c63fb12d3b098fafab676a711408efd", "fusion_lat": 0.0, "name": "9c63fb12d3b098fafab676a711408efd", "is_reserved": 0, "rental_uris": {"android": "https://dc.lft.to/lastmile_qr_scan", "ios": "https://dc.lft.to/lastmile_qr_scan"}, "fusion_lon": 0.0}, {"lat": 38.961435333333334, "is_disabled": 0, "type": "electric_bike", "lon": -77.03239416666666, "bike_id": "2c3948e5afc8c3ed71e1d49a4f0da26d", "fusion_lat": 0.0, "name": "2c3948e5afc8c3ed71e1d49a4f0da26d", "is_reserved": 0, "rental_uris": {"android": "https://dc.lft.to/lastmile_qr_scan", "ios": "https://dc.lft.to/lastmile_qr_scan"}, "fusion_lon": 0.0}, {"lat": 38.91811783333333, "is_disabled": 0, "type": "electric_scooter", "lon": -77.02784, "bike_id": "12be798ea75e31ccb2e8f22bc4bb5321", "fusion_lat": 0.0, "name": "12be798ea75e31ccb2e8f22bc4bb5321", "is_reserved": 0, "rental_uris": {"android": "https://dc.lft.to/lastmile_qr_scan", "ios": "https://dc.lft.to/lastmile_qr_scan"}, "fusion_lon": 0.0}, {"lat": 38.92239716666667, "is_disabled": 0, "type": "electric_scooter", "lon": -77.02912183333333, "bike_id": "90da4d606d8fd42b81a4a5d26068b06c", "fusion_lat": 0.0, "name": "90da4d606d8fd42b81a4a5d26068b06c", "is_reserved": 0, "rental_uris": {"android": "https://dc.lft.to/lastmile_qr_scan", "ios": "https://dc.lft.to/lastmile_qr_scan"}, "fusion_lon": 0.0}, {"lat": 38.89863016666666, "is_disabled": 0, "type": "electric_scooter", "lon": -77.02965766666667, "bike_id": "b183e12cc16f2219650c4c6f67cbc9de", "fusion_lat": 0.0, "name": "b183e12cc16f2219650c4c6f67cbc9de", "is_reserved": 0, "rental_uris": {"android": "https://dc.lft.to/lastmile_qr_scan", "ios": "https://dc.lft.to/lastmile_qr_scan"}, "fusion_lon": 0.0}, {"lat": 38.910092, "is_disabled": 0, "type": "electric_scooter", "lon": -76.993927, "bike_id": "5391889418218666fbf4527e9e5cd52a", "fusion_lat": 0.0, "name": "5391889418218666fbf4527e9e5cd52a", "is_reserved": 0, "rental_uris": {"android": "https://dc.lft.to/lastmile_qr_scan", "ios": "https://dc.lft.to/lastmile_qr_scan"}, "fusion_lon": 0.0}, {"lat": 38.8661955, "is_disabled": 0, "type": "electric_scooter", "lon": -76.98666083333333, "bike_id": "48bac8638d846ddabff6c4646973856a", "fusion_lat": 0.0, "name": "48bac8638d846ddabff6c4646973856a", "is_reserved": 0, "rental_uris": {"android": "https://dc.lft.to/lastmile_qr_scan", "ios": "https://dc.lft.to/lastmile_qr_scan"}, "fusion_lon": 0.0}, {"lat": 38.92246166666666, "is_disabled": 0, "type": "electric_scooter", "lon": -77.04248216666667, "bike_id": "06297ebddff8169e5c404cf42f3c51a4", "fusion_lat": 0.0, "name": "06297ebddff8169e5c404cf42f3c51a4", "is_reserved": 0, "rental_uris": {"android": "https://dc.lft.to/lastmile_qr_scan", "ios": "https://dc.lft.to/lastmile_qr_scan"}, "fusion_lon": 0.0}, {"lat": 38.935715, "is_disabled": 0, "type": "electric_scooter", "lon": -77.03736666666667, "bike_id": "21e97b181ec2e503d1e32aa27b2eeec9", "fusion_lat": 0.0, "name": "21e97b181ec2e503d1e32aa27b2eeec9", "is_reserved": 0, "rental_uris": {"android": "https://dc.lft.to/lastmile_qr_scan", "ios": "https://dc.lft.to/lastmile_qr_scan"}, "fusion_lon": 0.0}, {"lat": 38.892217, "is_disabled": 0, "type": "electric_scooter", "lon": -77.04803366666667, "bike_id": "0f9ffa9f704966294060ac08cfb3354e", "fusion_lat": 0.0, "name": "0f9ffa9f704966294060ac08cfb3354e", "is_reserved": 0, "rental_uris": {"android": "https://dc.lft.to/lastmile_qr_scan", "ios": "https://dc.lft.to/lastmile_qr_scan"}, "fusion_lon": 0.0}, {"lat": 38.903309, "is_disabled": 0, "type": "electric_scooter", "lon": -76.97062, "bike_id": "865c278e106e01f81ea50d71a44d9277", "fusion_lat": 0.0, "name": "865c278e106e01f81ea50d71a44d9277", "is_reserved": 0, "rental_uris": {"android": "https://dc.lft.to/lastmile_qr_scan", "ios": "https://dc.lft.to/lastmile_qr_scan"}, "fusion_lon": 0.0}, {"lat": 38.917089833333335, "is_disabled": 0, "type": "electric_scooter", "lon": -77.02979783333333, "bike_id": "ae687c315cf1dd56ef58894a98deef9c", "fusion_lat": 0.0, "name": "ae687c315cf1dd56ef58894a98deef9c", "is_reserved": 0, "rental_uris": {"android": "https://dc.lft.to/lastmile_qr_scan", "ios": "https://dc.lft.to/lastmile_qr_scan"}, "fusion_lon": 0.0}, {"lat": 38.89739683333333, "is_disabled": 0, "type": "electric_bike", "lon": -77.026681, "bike_id": "2437e90272c0832ed7c563494d8f2f78", "fusion_lat": 0.0, "name": "2437e90272c0832ed7c563494d8f2f78", "is_reserved": 0, "rental_uris": {"android": "https://dc.lft.to/lastmile_qr_scan", "ios": "https://dc.lft.to/lastmile_qr_scan"}, "fusion_lon": 0.0}, {"lat": 38.89483116666667, "is_disabled": 0, "type": "electric_scooter", "lon": -76.9495575, "bike_id": "c4a1125922859f11a88cd581ab3d266a", "fusion_lat": 0.0, "name": "c4a1125922859f11a88cd581ab3d266a", "is_reserved": 0, "rental_uris": {"android": "https://dc.lft.to/lastmile_qr_scan", "ios": "https://dc.lft.to/lastmile_qr_scan"}, "fusion_lon": 0.0}, {"lat": 38.919839833333334, "is_disabled": 0, "type": "electric_scooter", "lon": -77.023897, "bike_id": "400c46b80224b034b9533c50669746d1", "fusion_lat": 0.0, "name": "400c46b80224b034b9533c50669746d1", "is_reserved": 0, "rental_uris": {"android": "https://dc.lft.to/lastmile_qr_scan", "ios": "https://dc.lft.to/lastmile_qr_scan"}, "fusion_lon": 0.0}, {"lat": 38.9088385, "is_disabled": 0, "type": "electric_scooter", "lon": -77.03665533333333, "bike_id": "f7c6cbef74cfa18e6ba4b59bff279318", "fusion_lat": 0.0, "name": "f7c6cbef74cfa18e6ba4b59bff279318", "is_reserved": 0, "rental_uris": {"android": "https://dc.lft.to/lastmile_qr_scan", "ios": "https://dc.lft.to/lastmile_qr_scan"}, "fusion_lon": 0.0}, {"lat": 38.892259833333334, "is_disabled": 0, "type": "electric_scooter", "lon": -77.04861233333334, "bike_id": "2d4a5312f2762305f14084a88fea6002", "fusion_lat": 0.0, "name": "2d4a5312f2762305f14084a88fea6002", "is_reserved": 0, "rental_uris": {"android": "https://dc.lft.to/lastmile_qr_scan", "ios": "https://dc.lft.to/lastmile_qr_scan"}, "fusion_lon": 0.0}, {"lat": 38.909634833333335, "is_disabled": 0, "type": "electric_scooter", "lon": -77.04632766666667, "bike_id": "bd1c300f39017d9e9edc26c16bf083b6", "fusion_lat": 0.0, "name": "bd1c300f39017d9e9edc26c16bf083b6", "is_reserved": 0, "rental_uris": {"android": "https://dc.lft.to/lastmile_qr_scan", "ios": "https://dc.lft.to/lastmile_qr_scan"}, "fusion_lon": 0.0}, {"lat": 38.90128216666667, "is_disabled": 0, "type": "electric_scooter", "lon": -76.9424755, "bike_id": "6e4c07a44b8f074d7d95f5992b811c3c", "fusion_lat": 0.0, "name": "6e4c07a44b8f074d7d95f5992b811c3c", "is_reserved": 0, "rental_uris": {"android": "https://dc.lft.to/lastmile_qr_scan", "ios": "https://dc.lft.to/lastmile_qr_scan"}, "fusion_lon": 0.0}, {"lat": 38.93597716666667, "is_disabled": 0, "type": "electric_scooter", "lon": -77.03802483333334, "bike_id": "1b96a40a4b65cc28003a089235bd4deb", "fusion_lat": 0.0, "name": "1b96a40a4b65cc28003a089235bd4deb", "is_reserved": 0, "rental_uris": {"android": "https://dc.lft.to/lastmile_qr_scan", "ios": "https://dc.lft.to/lastmile_qr_scan"}, "fusion_lon": 0.0}, {"lat": 38.9218115, "is_disabled": 0, "type": "electric_scooter", "lon": -77.047129, "bike_id": "e4973283eabdec01ae7b6b30dcc8b924", "fusion_lat": 0.0, "name": "e4973283eabdec01ae7b6b30dcc8b924", "is_reserved": 0, "rental_uris": {"android": "https://dc.lft.to/lastmile_qr_scan", "ios": "https://dc.lft.to/lastmile_qr_scan"}, "fusion_lon": 0.0}, {"lat": 38.96493783333333, "is_disabled": 0, "type": "electric_scooter", "lon": -77.02790283333333, "bike_id": "0c983117e14ba2f901f433ab0f26c1df", "fusion_lat": 0.0, "name": "0c983117e14ba2f901f433ab0f26c1df", "is_reserved": 0, "rental_uris": {"android": "https://dc.lft.to/lastmile_qr_scan", "ios": "https://dc.lft.to/lastmile_qr_scan"}, "fusion_lon": 0.0}, {"lat": 38.89671533333333, "is_disabled": 0, "type": "electric_scooter", "lon": -77.02612416666666, "bike_id": "eddffe2046e8923696ec8b8e72c1aef1", "fusion_lat": 0.0, "name": "eddffe2046e8923696ec8b8e72c1aef1", "is_reserved": 0, "rental_uris": {"android": "https://dc.lft.to/lastmile_qr_scan", "ios": "https://dc.lft.to/lastmile_qr_scan"}, "fusion_lon": 0.0}, {"lat": 38.90747066666667, "is_disabled": 0, "type": "electric_scooter", "lon": -77.00039866666667, "bike_id": "2ec75a04bb8ef6d1ff3cf942836ee093", "fusion_lat": 0.0, "name": "2ec75a04bb8ef6d1ff3cf942836ee093", "is_reserved": 0, "rental_uris": {"android": "https://dc.lft.to/lastmile_qr_scan", "ios": "https://dc.lft.to/lastmile_qr_scan"}, "fusion_lon": 0.0}, {"lat": 38.911850666666666, "is_disabled": 0, "type": "electric_scooter", "lon": -77.03508066666667, "bike_id": "f4b4402c938d17246060318e512737a2", "fusion_lat": 0.0, "name": "f4b4402c938d17246060318e512737a2", "is_reserved": 0, "rental_uris": {"android": "https://dc.lft.to/lastmile_qr_scan", "ios": "https://dc.lft.to/lastmile_qr_scan"}, "fusion_lon": 0.0}, {"lat": 38.908339833333336, "is_disabled": 0, "type": "electric_scooter", "lon": -76.99981266666667, "bike_id": "c130978d34bcccfebfdf3e40b46aefa7", "fusion_lat": 0.0, "name": "c130978d34bcccfebfdf3e40b46aefa7", "is_reserved": 0, "rental_uris": {"android": "https://dc.lft.to/lastmile_qr_scan", "ios": "https://dc.lft.to/lastmile_qr_scan"}, "fusion_lon": 0.0}, {"lat": 38.924011, "is_disabled": 0, "type": "electric_scooter", "lon": -77.05659383333334, "bike_id": "d74894bdbada8df449139202759527dc", "fusion_lat": 0.0, "name": "d74894bdbada8df449139202759527dc", "is_reserved": 0, "rental_uris": {"android": "https://dc.lft.to/lastmile_qr_scan", "ios": "https://dc.lft.to/lastmile_qr_scan"}, "fusion_lon": 0.0}, {"lat": 38.9068265, "is_disabled": 0, "type": "electric_scooter", "lon": -77.0626255, "bike_id": "b22a9f06c5b942b794824c3eb29a07e9", "fusion_lat": 0.0, "name": "b22a9f06c5b942b794824c3eb29a07e9", "is_reserved": 0, "rental_uris": {"android": "https://dc.lft.to/lastmile_qr_scan", "ios": "https://dc.lft.to/lastmile_qr_scan"}, "fusion_lon": 0.0}, {"lat": 38.93236533333334, "is_disabled": 0, "type": "electric_scooter", "lon": -77.03268583333333, "bike_id": "4c3e1c7ef1cbadc369fc3f25f5dce345", "fusion_lat": 0.0, "name": "4c3e1c7ef1cbadc369fc3f25f5dce345", "is_reserved": 0, "rental_uris": {"android": "https://dc.lft.to/lastmile_qr_scan", "ios": "https://dc.lft.to/lastmile_qr_scan"}, "fusion_lon": 0.0}, {"lat": 38.9026585, "is_disabled": 0, "type": "electric_scooter", "lon": -77.03848916666666, "bike_id": "de43248cbe794c1174dfa0391595fef3", "fusion_lat": 0.0, "name": "de43248cbe794c1174dfa0391595fef3", "is_reserved": 0, "rental_uris": {"android": "https://dc.lft.to/lastmile_qr_scan", "ios": "https://dc.lft.to/lastmile_qr_scan"}, "fusion_lon": 0.0}, {"lat": 38.845854833333334, "is_disabled": 0, "type": "electric_scooter", "lon": -76.98165733333333, "bike_id": "93385f962449545a31df5d23d95553c5", "fusion_lat": 0.0, "name": "93385f962449545a31df5d23d95553c5", "is_reserved": 0, "rental_uris": {"android": "https://dc.lft.to/lastmile_qr_scan", "ios": "https://dc.lft.to/lastmile_qr_scan"}, "fusion_lon": 0.0}, {"lat": 38.9225475, "is_disabled": 0, "type": "electric_scooter", "lon": -77.0425205, "bike_id": "2076809b3fe225236f551ce5b0028b80", "fusion_lat": 0.0, "name": "2076809b3fe225236f551ce5b0028b80", "is_reserved": 0, "rental_uris": {"android": "https://dc.lft.to/lastmile_qr_scan", "ios": "https://dc.lft.to/lastmile_qr_scan"}, "fusion_lon": 0.0}, {"lat": 38.9139975, "is_disabled": 0, "type": "electric_scooter", "lon": -77.02209666666667, "bike_id": "7160463aad74c9192bc5efc96d157758", "fusion_lat": 0.0, "name": "7160463aad74c9192bc5efc96d157758", "is_reserved": 0, "rental_uris": {"android": "https://dc.lft.to/lastmile_qr_scan", "ios": "https://dc.lft.to/lastmile_qr_scan"}, "fusion_lon": 0.0}, {"lat": 38.915612, "is_disabled": 0, "type": "electric_scooter", "lon": -77.02168616666667, "bike_id": "5e893428004b2d38bf9effe34e5ba99a", "fusion_lat": 0.0, "name": "5e893428004b2d38bf9effe34e5ba99a", "is_reserved": 0, "rental_uris": {"android": "https://dc.lft.to/lastmile_qr_scan", "ios": "https://dc.lft.to/lastmile_qr_scan"}, "fusion_lon": 0.0}, {"lat": 38.952902, "is_disabled": 0, "type": "electric_bike", "lon": -76.9459235, "bike_id": "2e32f84083585f38fcaf46ebd7031a1c", "fusion_lat": 0.0, "name": "2e32f84083585f38fcaf46ebd7031a1c", "is_reserved": 0, "rental_uris": {"android": "https://dc.lft.to/lastmile_qr_scan", "ios": "https://dc.lft.to/lastmile_qr_scan"}, "fusion_lon": 0.0}, {"lat": 38.909636166666665, "is_disabled": 0, "type": "electric_scooter", "lon": -77.024178, "bike_id": "57e0ee8bff56c690e64fb9037d3298be", "fusion_lat": 0.0, "name": "57e0ee8bff56c690e64fb9037d3298be", "is_reserved": 0, "rental_uris": {"android": "https://dc.lft.to/lastmile_qr_scan", "ios": "https://dc.lft.to/lastmile_qr_scan"}, "fusion_lon": 0.0}, {"lat": 38.89558433333333, "is_disabled": 0, "type": "electric_scooter", "lon": -76.93079133333333, "bike_id": "5606e28add3b3c650552f111dcc56981", "fusion_lat": 0.0, "name": "5606e28add3b3c650552f111dcc56981", "is_reserved": 0, "rental_uris": {"android": "https://dc.lft.to/lastmile_qr_scan", "ios": "https://dc.lft.to/lastmile_qr_scan"}, "fusion_lon": 0.0}, {"lat": 38.914637666666664, "is_disabled": 0, "type": "electric_scooter", "lon": -77.04599116666667, "bike_id": "af9e2d442c3aefc0123ea8d052585d88", "fusion_lat": 0.0, "name": "af9e2d442c3aefc0123ea8d052585d88", "is_reserved": 0, "rental_uris": {"android": "https://dc.lft.to/lastmile_qr_scan", "ios": "https://dc.lft.to/lastmile_qr_scan"}, "fusion_lon": 0.0}, {"lat": 38.9070625, "is_disabled": 0, "type": "electric_scooter", "lon": -77.03205783333334, "bike_id": "8646f6415d9f74c1d137f833497bb987", "fusion_lat": 0.0, "name": "8646f6415d9f74c1d137f833497bb987", "is_reserved": 0, "rental_uris": {"android": "https://dc.lft.to/lastmile_qr_scan", "ios": "https://dc.lft.to/lastmile_qr_scan"}, "fusion_lon": 0.0}, {"lat": 38.90871116666667, "is_disabled": 0, "type": "electric_scooter", "lon": -77.04343366666667, "bike_id": "85a4ad32c646d68f7923637525a976e7", "fusion_lat": 0.0, "name": "85a4ad32c646d68f7923637525a976e7", "is_reserved": 0, "rental_uris": {"android": "https://dc.lft.to/lastmile_qr_scan", "ios": "https://dc.lft.to/lastmile_qr_scan"}, "fusion_lon": 0.0}, {"lat": 38.898511666666664, "is_disabled": 0, "type": "electric_scooter", "lon": -77.029031, "bike_id": "db1c0cf65ba16b85cac4d388a61b47f6", "fusion_lat": 0.0, "name": "db1c0cf65ba16b85cac4d388a61b47f6", "is_reserved": 0, "rental_uris": {"android": "https://dc.lft.to/lastmile_qr_scan", "ios": "https://dc.lft.to/lastmile_qr_scan"}, "fusion_lon": 0.0}, {"lat": 38.9394115, "is_disabled": 0, "type": "electric_scooter", "lon": -77.0367515, "bike_id": "1d66aa3d3604279e2b4a825e45affe63", "fusion_lat": 0.0, "name": "1d66aa3d3604279e2b4a825e45affe63", "is_reserved": 0, "rental_uris": {"android": "https://dc.lft.to/lastmile_qr_scan", "ios": "https://dc.lft.to/lastmile_qr_scan"}, "fusion_lon": 0.0}, {"lat": 38.8896975, "is_disabled": 0, "type": "electric_scooter", "lon": -76.9955325, "bike_id": "4d5e9310f124f5a90f113358750662d0", "fusion_lat": 0.0, "name": "4d5e9310f124f5a90f113358750662d0", "is_reserved": 0, "rental_uris": {"android": "https://dc.lft.to/lastmile_qr_scan", "ios": "https://dc.lft.to/lastmile_qr_scan"}, "fusion_lon": 0.0}, {"lat": 38.90358166666667, "is_disabled": 0, "type": "electric_scooter", "lon": -77.06577416666667, "bike_id": "902ec6966020492ce82acca1c6fc2a13", "fusion_lat": 0.0, "name": "902ec6966020492ce82acca1c6fc2a13", "is_reserved": 0, "rental_uris": {"android": "https://dc.lft.to/lastmile_qr_scan", "ios": "https://dc.lft.to/lastmile_qr_scan"}, "fusion_lon": 0.0}, {"lat": 38.91522966666667, "is_disabled": 0, "type": "electric_scooter", "lon": -77.02172433333334, "bike_id": "b055d94bd01169bd2b27f1d7684f3908", "fusion_lat": 0.0, "name": "b055d94bd01169bd2b27f1d7684f3908", "is_reserved": 0, "rental_uris": {"android": "https://dc.lft.to/lastmile_qr_scan", "ios": "https://dc.lft.to/lastmile_qr_scan"}, "fusion_lon": 0.0}, {"lat": 38.8973695, "is_disabled": 0, "type": "electric_scooter", "lon": -77.0468495, "bike_id": "2d022ed97b514c6e3efababbe3e5483a", "fusion_lat": 0.0, "name": "2d022ed97b514c6e3efababbe3e5483a", "is_reserved": 0, "rental_uris": {"android": "https://dc.lft.to/lastmile_qr_scan", "ios": "https://dc.lft.to/lastmile_qr_scan"}, "fusion_lon": 0.0}, {"lat": 38.91966583333333, "is_disabled": 0, "type": "electric_scooter", "lon": -77.03961516666666, "bike_id": "acb4829684dd7c8af13447423049a0f9", "fusion_lat": 0.0, "name": "acb4829684dd7c8af13447423049a0f9", "is_reserved": 0, "rental_uris": {"android": "https://dc.lft.to/lastmile_qr_scan", "ios": "https://dc.lft.to/lastmile_qr_scan"}, "fusion_lon": 0.0}, {"lat": 38.92758583333333, "is_disabled": 0, "type": "electric_scooter", "lon": -77.03219716666666, "bike_id": "b37675efd20d9cd39bf1dc6c62475c88", "fusion_lat": 0.0, "name": "b37675efd20d9cd39bf1dc6c62475c88", "is_reserved": 0, "rental_uris": {"android": "https://dc.lft.to/lastmile_qr_scan", "ios": "https://dc.lft.to/lastmile_qr_scan"}, "fusion_lon": 0.0}, {"lat": 38.918017166666665, "is_disabled": 0, "type": "electric_scooter", "lon": -77.04651916666667, "bike_id": "7166dfbe8c56eec3c3257d678daac7fc", "fusion_lat": 0.0, "name": "7166dfbe8c56eec3c3257d678daac7fc", "is_reserved": 0, "rental_uris": {"android": "https://dc.lft.to/lastmile_qr_scan", "ios": "https://dc.lft.to/lastmile_qr_scan"}, "fusion_lon": 0.0}, {"lat": 38.939603, "is_disabled": 0, "type": "electric_bike", "lon": -77.36096833333333, "bike_id": "a4fc42086f134bdab3e099f1b6b5ec04", "fusion_lat": 0.0, "name": "a4fc42086f134bdab3e099f1b6b5ec04", "is_reserved": 0, "rental_uris": {"android": "https://dc.lft.to/lastmile_qr_scan", "ios": "https://dc.lft.to/lastmile_qr_scan"}, "fusion_lon": 0.0}, {"lat": 38.97328816666667, "is_disabled": 0, "type": "electric_bike", "lon": -77.02152116666667, "bike_id": "707463d7a83bf8bc220df6781ccf486c", "fusion_lat": 0.0, "name": "707463d7a83bf8bc220df6781ccf486c", "is_reserved": 0, "rental_uris": {"android": "https://dc.lft.to/lastmile_qr_scan", "ios": "https://dc.lft.to/lastmile_qr_scan"}, "fusion_lon": 0.0}, {"lat": 38.93528466666667, "is_disabled": 0, "type": "electric_scooter", "lon": -77.02357966666666, "bike_id": "c7b503071f553a47b5c6a3c79be239a8", "fusion_lat": 0.0, "name": "c7b503071f553a47b5c6a3c79be239a8", "is_reserved": 0, "rental_uris": {"android": "https://dc.lft.to/lastmile_qr_scan", "ios": "https://dc.lft.to/lastmile_qr_scan"}, "fusion_lon": 0.0}, {"lat": 38.870651, "is_disabled": 0, "type": "electric_scooter", "lon": -77.008407, "bike_id": "b0b83c42cb9cb35c5bac81c63cf8fa39", "fusion_lat": 0.0, "name": "b0b83c42cb9cb35c5bac81c63cf8fa39", "is_reserved": 0, "rental_uris": {"android": "https://dc.lft.to/lastmile_qr_scan", "ios": "https://dc.lft.to/lastmile_qr_scan"}, "fusion_lon": 0.0}, {"lat": 38.907015666666666, "is_disabled": 0, "type": "electric_scooter", "lon": -77.03446516666666, "bike_id": "3a2ab12a063a69be1dd968791bf040b6", "fusion_lat": 0.0, "name": "3a2ab12a063a69be1dd968791bf040b6", "is_reserved": 0, "rental_uris": {"android": "https://dc.lft.to/lastmile_qr_scan", "ios": "https://dc.lft.to/lastmile_qr_scan"}, "fusion_lon": 0.0}, {"lat": 38.94553666666667, "is_disabled": 0, "type": "electric_bike", "lon": -76.89537383333334, "bike_id": "6a5a8093c1a73536d4bc1ad6a799c264", "fusion_lat": 0.0, "name": "6a5a8093c1a73536d4bc1ad6a799c264", "is_reserved": 0, "rental_uris": {"android": "https://dc.lft.to/lastmile_qr_scan", "ios": "https://dc.lft.to/lastmile_qr_scan"}, "fusion_lon": 0.0}, {"lat": 38.917072, "is_disabled": 0, "type": "electric_scooter", "lon": -77.02632666666666, "bike_id": "416b3ccb0df9943921fb1cf3e3870615", "fusion_lat": 0.0, "name": "416b3ccb0df9943921fb1cf3e3870615", "is_reserved": 0, "rental_uris": {"android": "https://dc.lft.to/lastmile_qr_scan", "ios": "https://dc.lft.to/lastmile_qr_scan"}, "fusion_lon": 0.0}, {"lat": 38.91183816666667, "is_disabled": 0, "type": "electric_scooter", "lon": -77.0383315, "bike_id": "7baba94408a5a6433c87d7687e7eccda", "fusion_lat": 0.0, "name": "7baba94408a5a6433c87d7687e7eccda", "is_reserved": 0, "rental_uris": {"android": "https://dc.lft.to/lastmile_qr_scan", "ios": "https://dc.lft.to/lastmile_qr_scan"}, "fusion_lon": 0.0}, {"lat": 38.9079965, "is_disabled": 0, "type": "electric_scooter", "lon": -77.045015, "bike_id": "c3480fff796d0d5109a2f5cf932f1b0e", "fusion_lat": 0.0, "name": "c3480fff796d0d5109a2f5cf932f1b0e", "is_reserved": 0, "rental_uris": {"android": "https://dc.lft.to/lastmile_qr_scan", "ios": "https://dc.lft.to/lastmile_qr_scan"}, "fusion_lon": 0.0}, {"lat": 38.89751283333333, "is_disabled": 0, "type": "electric_scooter", "lon": -77.03062933333334, "bike_id": "aa32dc23c20b983d4bc50edbc8a74e9a", "fusion_lat": 0.0, "name": "aa32dc23c20b983d4bc50edbc8a74e9a", "is_reserved": 0, "rental_uris": {"android": "https://dc.lft.to/lastmile_qr_scan", "ios": "https://dc.lft.to/lastmile_qr_scan"}, "fusion_lon": 0.0}, {"lat": 38.905589166666665, "is_disabled": 0, "type": "electric_scooter", "lon": -77.06297716666667, "bike_id": "673a4856c8150eb98b277638116db41b", "fusion_lat": 0.0, "name": "673a4856c8150eb98b277638116db41b", "is_reserved": 0, "rental_uris": {"android": "https://dc.lft.to/lastmile_qr_scan", "ios": "https://dc.lft.to/lastmile_qr_scan"}, "fusion_lon": 0.0}, {"lat": 38.925077, "is_disabled": 0, "type": "electric_scooter", "lon": -77.03879083333334, "bike_id": "23557ae6bebd000628d7bcea2d850943", "fusion_lat": 0.0, "name": "23557ae6bebd000628d7bcea2d850943", "is_reserved": 0, "rental_uris": {"android": "https://dc.lft.to/lastmile_qr_scan", "ios": "https://dc.lft.to/lastmile_qr_scan"}, "fusion_lon": 0.0}, {"lat": 38.92161933333333, "is_disabled": 0, "type": "electric_scooter", "lon": -77.03238933333333, "bike_id": "db9822b024b65b88efb79e692d2d6973", "fusion_lat": 0.0, "name": "db9822b024b65b88efb79e692d2d6973", "is_reserved": 0, "rental_uris": {"android": "https://dc.lft.to/lastmile_qr_scan", "ios": "https://dc.lft.to/lastmile_qr_scan"}, "fusion_lon": 0.0}, {"lat": 38.936604833333334, "is_disabled": 0, "type": "electric_bike", "lon": -76.95218316666667, "bike_id": "a09fb1f56a9c129f1142037b57f08b0b", "fusion_lat": 0.0, "name": "a09fb1f56a9c129f1142037b57f08b0b", "is_reserved": 0, "rental_uris": {"android": "https://dc.lft.to/lastmile_qr_scan", "ios": "https://dc.lft.to/lastmile_qr_scan"}, "fusion_lon": 0.0}, {"lat": 38.88091933333333, "is_disabled": 0, "type": "electric_scooter", "lon": -76.99255066666667, "bike_id": "cd82abc5f63bc1d02c6079082ba293a4", "fusion_lat": 0.0, "name": "cd82abc5f63bc1d02c6079082ba293a4", "is_reserved": 0, "rental_uris": {"android": "https://dc.lft.to/lastmile_qr_scan", "ios": "https://dc.lft.to/lastmile_qr_scan"}, "fusion_lon": 0.0}, {"lat": 38.918479833333336, "is_disabled": 0, "type": "electric_scooter", "lon": -77.04499333333334, "bike_id": "689024689be2b5b7d528b234f3d34f64", "fusion_lat": 0.0, "name": "689024689be2b5b7d528b234f3d34f64", "is_reserved": 0, "rental_uris": {"android": "https://dc.lft.to/lastmile_qr_scan", "ios": "https://dc.lft.to/lastmile_qr_scan"}, "fusion_lon": 0.0}, {"lat": 38.897576, "is_disabled": 0, "type": "electric_scooter", "lon": -77.0321475, "bike_id": "2cd5f570a38e1f9d3bd84edff5c3afa9", "fusion_lat": 0.0, "name": "2cd5f570a38e1f9d3bd84edff5c3afa9", "is_reserved": 0, "rental_uris": {"android": "https://dc.lft.to/lastmile_qr_scan", "ios": "https://dc.lft.to/lastmile_qr_scan"}, "fusion_lon": 0.0}, {"lat": 38.8442205, "is_disabled": 0, "type": "electric_scooter", "lon": -76.99775166666667, "bike_id": "49e6e8d415d561f9de97eb3d2f6199dc", "fusion_lat": 0.0, "name": "49e6e8d415d561f9de97eb3d2f6199dc", "is_reserved": 0, "rental_uris": {"android": "https://dc.lft.to/lastmile_qr_scan", "ios": "https://dc.lft.to/lastmile_qr_scan"}, "fusion_lon": 0.0}, {"lat": 38.94372083333333, "is_disabled": 0, "type": "electric_bike", "lon": -77.07752916666666, "bike_id": "3672e4b3c72da75aff0b1787f0f77b2e", "fusion_lat": 0.0, "name": "3672e4b3c72da75aff0b1787f0f77b2e", "is_reserved": 0, "rental_uris": {"android": "https://dc.lft.to/lastmile_qr_scan", "ios": "https://dc.lft.to/lastmile_qr_scan"}, "fusion_lon": 0.0}, {"lat": 38.9093855, "is_disabled": 0, "type": "electric_scooter", "lon": -77.04486466666667, "bike_id": "5be26ca295e419aafd9c3351f1702972", "fusion_lat": 0.0, "name": "5be26ca295e419aafd9c3351f1702972", "is_reserved": 0, "rental_uris": {"android": "https://dc.lft.to/lastmile_qr_scan", "ios": "https://dc.lft.to/lastmile_qr_scan"}, "fusion_lon": 0.0}, {"lat": 38.947798166666665, "is_disabled": 0, "type": "electric_bike", "lon": -77.02244516666667, "bike_id": "0bc9c5b50c93a7f5679e36574078d765", "fusion_lat": 0.0, "name": "0bc9c5b50c93a7f5679e36574078d765", "is_reserved": 0, "rental_uris": {"android": "https://dc.lft.to/lastmile_qr_scan", "ios": "https://dc.lft.to/lastmile_qr_scan"}, "fusion_lon": 0.0}, {"lat": 38.92483133333333, "is_disabled": 0, "type": "electric_scooter", "lon": -77.03485466666666, "bike_id": "f93b4a3300a5ee067a8378034ec6ca27", "fusion_lat": 0.0, "name": "f93b4a3300a5ee067a8378034ec6ca27", "is_reserved": 0, "rental_uris": {"android": "https://dc.lft.to/lastmile_qr_scan", "ios": "https://dc.lft.to/lastmile_qr_scan"}, "fusion_lon": 0.0}, {"lat": 38.94943416666667, "is_disabled": 0, "type": "electric_scooter", "lon": -77.01620516666667, "bike_id": "bdcd5979d6e8596dda47caf9c33ca958", "fusion_lat": 0.0, "name": "bdcd5979d6e8596dda47caf9c33ca958", "is_reserved": 0, "rental_uris": {"android": "https://dc.lft.to/lastmile_qr_scan", "ios": "https://dc.lft.to/lastmile_qr_scan"}, "fusion_lon": 0.0}, {"lat": 38.902944, "is_disabled": 0, "type": "electric_scooter", "lon": -77.032864, "bike_id": "fc5f69f7358bd03c172ebc35249f4f1b", "fusion_lat": 0.0, "name": "fc5f69f7358bd03c172ebc35249f4f1b", "is_reserved": 0, "rental_uris": {"android": "https://dc.lft.to/lastmile_qr_scan", "ios": "https://dc.lft.to/lastmile_qr_scan"}, "fusion_lon": 0.0}, {"lat": 38.962938333333334, "is_disabled": 0, "type": "electric_bike", "lon": -77.03243916666666, "bike_id": "68b815c8456286df65ca4b7a8442ae04", "fusion_lat": 0.0, "name": "68b815c8456286df65ca4b7a8442ae04", "is_reserved": 0, "rental_uris": {"android": "https://dc.lft.to/lastmile_qr_scan", "ios": "https://dc.lft.to/lastmile_qr_scan"}, "fusion_lon": 0.0}, {"lat": 38.915712166666665, "is_disabled": 0, "type": "electric_scooter", "lon": -77.04673366666667, "bike_id": "bdd82124138c005a5b435081d96a3662", "fusion_lat": 0.0, "name": "bdd82124138c005a5b435081d96a3662", "is_reserved": 0, "rental_uris": {"android": "https://dc.lft.to/lastmile_qr_scan", "ios": "https://dc.lft.to/lastmile_qr_scan"}, "fusion_lon": 0.0}, {"lat": 38.91254433333334, "is_disabled": 0, "type": "electric_bike", "lon": -77.06881933333334, "bike_id": "ee0dbb3b1dde57e9d8d46c7957cf2504", "fusion_lat": 0.0, "name": "ee0dbb3b1dde57e9d8d46c7957cf2504", "is_reserved": 0, "rental_uris": {"android": "https://dc.lft.to/lastmile_qr_scan", "ios": "https://dc.lft.to/lastmile_qr_scan"}, "fusion_lon": 0.0}, {"lat": 38.897679, "is_disabled": 0, "type": "electric_scooter", "lon": -77.043691, "bike_id": "d7e5635681b28e076072ffe23b2baded", "fusion_lat": 0.0, "name": "d7e5635681b28e076072ffe23b2baded", "is_reserved": 0, "rental_uris": {"android": "https://dc.lft.to/lastmile_qr_scan", "ios": "https://dc.lft.to/lastmile_qr_scan"}, "fusion_lon": 0.0}, {"lat": 38.9110315, "is_disabled": 0, "type": "electric_scooter", "lon": -77.03560683333333, "bike_id": "5d22df4346457e1cbf810c2901f90619", "fusion_lat": 0.0, "name": "5d22df4346457e1cbf810c2901f90619", "is_reserved": 0, "rental_uris": {"android": "https://dc.lft.to/lastmile_qr_scan", "ios": "https://dc.lft.to/lastmile_qr_scan"}, "fusion_lon": 0.0}, {"lat": 38.902708, "is_disabled": 0, "type": "electric_scooter", "lon": -77.03378033333334, "bike_id": "18a91e04c88125fa6523c7d9242dd6b9", "fusion_lat": 0.0, "name": "18a91e04c88125fa6523c7d9242dd6b9", "is_reserved": 0, "rental_uris": {"android": "https://dc.lft.to/lastmile_qr_scan", "ios": "https://dc.lft.to/lastmile_qr_scan"}, "fusion_lon": 0.0}, {"lat": 38.93012266666667, "is_disabled": 0, "type": "electric_bike", "lon": -77.21649183333334, "bike_id": "d508cd3177deb9fc83aea94417256a44", "fusion_lat": 0.0, "name": "d508cd3177deb9fc83aea94417256a44", "is_reserved": 0, "rental_uris": {"android": "https://dc.lft.to/lastmile_qr_scan", "ios": "https://dc.lft.to/lastmile_qr_scan"}, "fusion_lon": 0.0}, {"lat": 38.91963233333333, "is_disabled": 0, "type": "electric_bike", "lon": -76.97264616666666, "bike_id": "c6656b0eb511d8a3f5be51fd1053cc06", "fusion_lat": 0.0, "name": "c6656b0eb511d8a3f5be51fd1053cc06", "is_reserved": 0, "rental_uris": {"android": "https://dc.lft.to/lastmile_qr_scan", "ios": "https://dc.lft.to/lastmile_qr_scan"}, "fusion_lon": 0.0}, {"lat": 38.8736985, "is_disabled": 0, "type": "electric_scooter", "lon": -77.00172533333334, "bike_id": "21fdb738ae0ba0d874c7f79d872f4462", "fusion_lat": 0.0, "name": "21fdb738ae0ba0d874c7f79d872f4462", "is_reserved": 0, "rental_uris": {"android": "https://dc.lft.to/lastmile_qr_scan", "ios": "https://dc.lft.to/lastmile_qr_scan"}, "fusion_lon": 0.0}, {"lat": 38.90216433333333, "is_disabled": 0, "type": "electric_scooter", "lon": -76.94594966666666, "bike_id": "38a82e82aef069978b79b695cd01c685", "fusion_lat": 0.0, "name": "38a82e82aef069978b79b695cd01c685", "is_reserved": 0, "rental_uris": {"android": "https://dc.lft.to/lastmile_qr_scan", "ios": "https://dc.lft.to/lastmile_qr_scan"}, "fusion_lon": 0.0}, {"lat": 38.927955833333336, "is_disabled": 0, "type": "electric_scooter", "lon": -77.05526483333334, "bike_id": "780acb3b84767fe9fbec9205cec86d45", "fusion_lat": 0.0, "name": "780acb3b84767fe9fbec9205cec86d45", "is_reserved": 0, "rental_uris": {"android": "https://dc.lft.to/lastmile_qr_scan", "ios": "https://dc.lft.to/lastmile_qr_scan"}, "fusion_lon": 0.0}, {"lat": 38.9068805, "is_disabled": 0, "type": "electric_scooter", "lon": -77.06355866666667, "bike_id": "a52bbd93a6f634296acaf6c856e50bb8", "fusion_lat": 0.0, "name": "a52bbd93a6f634296acaf6c856e50bb8", "is_reserved": 0, "rental_uris": {"android": "https://dc.lft.to/lastmile_qr_scan", "ios": "https://dc.lft.to/lastmile_qr_scan"}, "fusion_lon": 0.0}, {"lat": 39.00013, "is_disabled": 0, "type": "electric_bike", "lon": -76.91079416666666, "bike_id": "ca516c4e04aeec8894ed18a80b1c331f", "fusion_lat": 0.0, "name": "ca516c4e04aeec8894ed18a80b1c331f", "is_reserved": 0, "rental_uris": {"android": "https://dc.lft.to/lastmile_qr_scan", "ios": "https://dc.lft.to/lastmile_qr_scan"}, "fusion_lon": 0.0}, {"lat": 38.863830166666666, "is_disabled": 0, "type": "electric_bike", "lon": -76.98992416666667, "bike_id": "67535375ad94ac482db1c41032ff21e5", "fusion_lat": 0.0, "name": "67535375ad94ac482db1c41032ff21e5", "is_reserved": 0, "rental_uris": {"android": "https://dc.lft.to/lastmile_qr_scan", "ios": "https://dc.lft.to/lastmile_qr_scan"}, "fusion_lon": 0.0}, {"lat": 38.918439666666664, "is_disabled": 0, "type": "electric_scooter", "lon": -77.04497266666667, "bike_id": "fbcd24d5c4c156af562074948ee85cdd", "fusion_lat": 0.0, "name": "fbcd24d5c4c156af562074948ee85cdd", "is_reserved": 0, "rental_uris": {"android": "https://dc.lft.to/lastmile_qr_scan", "ios": "https://dc.lft.to/lastmile_qr_scan"}, "fusion_lon": 0.0}, {"lat": 38.933150499999996, "is_disabled": 0, "type": "electric_scooter", "lon": -77.03292716666667, "bike_id": "4dfd7a3654c88d10b465ecf5418400c1", "fusion_lat": 0.0, "name": "4dfd7a3654c88d10b465ecf5418400c1", "is_reserved": 0, "rental_uris": {"android": "https://dc.lft.to/lastmile_qr_scan", "ios": "https://dc.lft.to/lastmile_qr_scan"}, "fusion_lon": 0.0}, {"lat": 38.89530033333333, "is_disabled": 0, "type": "electric_scooter", "lon": -77.03212266666667, "bike_id": "c25b7d065442c3f4e4f909e40bd59963", "fusion_lat": 0.0, "name": "c25b7d065442c3f4e4f909e40bd59963", "is_reserved": 0, "rental_uris": {"android": "https://dc.lft.to/lastmile_qr_scan", "ios": "https://dc.lft.to/lastmile_qr_scan"}, "fusion_lon": 0.0}, {"lat": 38.86827783333333, "is_disabled": 0, "type": "electric_bike", "lon": -76.980282, "bike_id": "85539a979d663dae20f2275cb3baf1a7", "fusion_lat": 0.0, "name": "85539a979d663dae20f2275cb3baf1a7", "is_reserved": 0, "rental_uris": {"android": "https://dc.lft.to/lastmile_qr_scan", "ios": "https://dc.lft.to/lastmile_qr_scan"}, "fusion_lon": 0.0}, {"lat": 38.90013833333333, "is_disabled": 0, "type": "electric_scooter", "lon": -76.99079916666666, "bike_id": "353a91c7fc19d949def4bf7ede69ac00", "fusion_lat": 0.0, "name": "353a91c7fc19d949def4bf7ede69ac00", "is_reserved": 0, "rental_uris": {"android": "https://dc.lft.to/lastmile_qr_scan", "ios": "https://dc.lft.to/lastmile_qr_scan"}, "fusion_lon": 0.0}, {"lat": 38.93080416666667, "is_disabled": 0, "type": "electric_scooter", "lon": -77.0279395, "bike_id": "5828bf6f276225df44cff7f3114cb0cf", "fusion_lat": 0.0, "name": "5828bf6f276225df44cff7f3114cb0cf", "is_reserved": 0, "rental_uris": {"android": "https://dc.lft.to/lastmile_qr_scan", "ios": "https://dc.lft.to/lastmile_qr_scan"}, "fusion_lon": 0.0}, {"lat": 38.916716666666666, "is_disabled": 0, "type": "electric_scooter", "lon": -77.032118, "bike_id": "15eec25b3f47eccd6f898d8341c5a9d9", "fusion_lat": 0.0, "name": "15eec25b3f47eccd6f898d8341c5a9d9", "is_reserved": 0, "rental_uris": {"android": "https://dc.lft.to/lastmile_qr_scan", "ios": "https://dc.lft.to/lastmile_qr_scan"}, "fusion_lon": 0.0}, {"lat": 38.95195, "is_disabled": 0, "type": "electric_bike", "lon": -76.96723, "bike_id": "bb136e01d6b1de51141869e243acb485", "fusion_lat": 0.0, "name": "bb136e01d6b1de51141869e243acb485", "is_reserved": 0, "rental_uris": {"android": "https://dc.lft.to/lastmile_qr_scan", "ios": "https://dc.lft.to/lastmile_qr_scan"}, "fusion_lon": 0.0}, {"lat": 38.903505333333335, "is_disabled": 0, "type": "electric_scooter", "lon": -77.01090483333333, "bike_id": "1b0d506da1e36979c3966e65497fe439", "fusion_lat": 0.0, "name": "1b0d506da1e36979c3966e65497fe439", "is_reserved": 0, "rental_uris": {"android": "https://dc.lft.to/lastmile_qr_scan", "ios": "https://dc.lft.to/lastmile_qr_scan"}, "fusion_lon": 0.0}, {"lat": 38.944469833333336, "is_disabled": 0, "type": "electric_scooter", "lon": -77.03286633333333, "bike_id": "3e143081c983127ac3791e7988af083a", "fusion_lat": 0.0, "name": "3e143081c983127ac3791e7988af083a", "is_reserved": 0, "rental_uris": {"android": "https://dc.lft.to/lastmile_qr_scan", "ios": "https://dc.lft.to/lastmile_qr_scan"}, "fusion_lon": 0.0}, {"lat": 38.932097166666665, "is_disabled": 0, "type": "electric_scooter", "lon": -77.03890566666666, "bike_id": "c91ca60b2e85e219911421dd1c9c2f74", "fusion_lat": 0.0, "name": "c91ca60b2e85e219911421dd1c9c2f74", "is_reserved": 0, "rental_uris": {"android": "https://dc.lft.to/lastmile_qr_scan", "ios": "https://dc.lft.to/lastmile_qr_scan"}, "fusion_lon": 0.0}, {"lat": 38.92466066666667, "is_disabled": 0, "type": "electric_bike", "lon": -77.2084115, "bike_id": "062d22fc0ec8f5fbbeaf909c6fd2e1d9", "fusion_lat": 0.0, "name": "062d22fc0ec8f5fbbeaf909c6fd2e1d9", "is_reserved": 0, "rental_uris": {"android": "https://dc.lft.to/lastmile_qr_scan", "ios": "https://dc.lft.to/lastmile_qr_scan"}, "fusion_lon": 0.0}, {"lat": 38.90031366666667, "is_disabled": 0, "type": "electric_scooter", "lon": -77.0057365, "bike_id": "405cca9f92badebf73e6c07201737d8d", "fusion_lat": 0.0, "name": "405cca9f92badebf73e6c07201737d8d", "is_reserved": 0, "rental_uris": {"android": "https://dc.lft.to/lastmile_qr_scan", "ios": "https://dc.lft.to/lastmile_qr_scan"}, "fusion_lon": 0.0}, {"lat": 38.9170955, "is_disabled": 0, "type": "electric_scooter", "lon": -77.0246605, "bike_id": "f3ecba3df9e565b6225108f9660b103e", "fusion_lat": 0.0, "name": "f3ecba3df9e565b6225108f9660b103e", "is_reserved": 0, "rental_uris": {"android": "https://dc.lft.to/lastmile_qr_scan", "ios": "https://dc.lft.to/lastmile_qr_scan"}, "fusion_lon": 0.0}, {"lat": 38.96396466666667, "is_disabled": 0, "type": "electric_scooter", "lon": -77.02590866666667, "bike_id": "0b882dfdd2a777cf42e0d9b1e5bb3818", "fusion_lat": 0.0, "name": "0b882dfdd2a777cf42e0d9b1e5bb3818", "is_reserved": 0, "rental_uris": {"android": "https://dc.lft.to/lastmile_qr_scan", "ios": "https://dc.lft.to/lastmile_qr_scan"}, "fusion_lon": 0.0}, {"lat": 38.9387835, "is_disabled": 0, "type": "electric_scooter", "lon": -77.02836816666667, "bike_id": "93beddae8a092d896bd322a02c334134", "fusion_lat": 0.0, "name": "93beddae8a092d896bd322a02c334134", "is_reserved": 0, "rental_uris": {"android": "https://dc.lft.to/lastmile_qr_scan", "ios": "https://dc.lft.to/lastmile_qr_scan"}, "fusion_lon": 0.0}, {"lat": 38.88071133333333, "is_disabled": 0, "type": "electric_bike", "lon": -77.0255515, "bike_id": "f603c287cf208352681e34b883fc775d", "fusion_lat": 0.0, "name": "f603c287cf208352681e34b883fc775d", "is_reserved": 0, "rental_uris": {"android": "https://dc.lft.to/lastmile_qr_scan", "ios": "https://dc.lft.to/lastmile_qr_scan"}, "fusion_lon": 0.0}, {"lat": 38.90536316666667, "is_disabled": 0, "type": "electric_scooter", "lon": -77.06786616666666, "bike_id": "d4975bd2238dedff98c6da84043845f9", "fusion_lat": 0.0, "name": "d4975bd2238dedff98c6da84043845f9", "is_reserved": 0, "rental_uris": {"android": "https://dc.lft.to/lastmile_qr_scan", "ios": "https://dc.lft.to/lastmile_qr_scan"}, "fusion_lon": 0.0}, {"lat": 38.921110166666665, "is_disabled": 0, "type": "electric_scooter", "lon": -77.0176675, "bike_id": "70406a980de4c5432eb9b6f3e76704e5", "fusion_lat": 0.0, "name": "70406a980de4c5432eb9b6f3e76704e5", "is_reserved": 0, "rental_uris": {"android": "https://dc.lft.to/lastmile_qr_scan", "ios": "https://dc.lft.to/lastmile_qr_scan"}, "fusion_lon": 0.0}, {"lat": 38.95279933333333, "is_disabled": 0, "type": "electric_scooter", "lon": -77.03657066666666, "bike_id": "e0c900f1a2891ba6989c8537114c7a48", "fusion_lat": 0.0, "name": "e0c900f1a2891ba6989c8537114c7a48", "is_reserved": 0, "rental_uris": {"android": "https://dc.lft.to/lastmile_qr_scan", "ios": "https://dc.lft.to/lastmile_qr_scan"}, "fusion_lon": 0.0}, {"lat": 38.858073, "is_disabled": 0, "type": "electric_scooter", "lon": -76.98657116666666, "bike_id": "badf8b354b7a9b3dad1f273f286f5e33", "fusion_lat": 0.0, "name": "badf8b354b7a9b3dad1f273f286f5e33", "is_reserved": 0, "rental_uris": {"android": "https://dc.lft.to/lastmile_qr_scan", "ios": "https://dc.lft.to/lastmile_qr_scan"}, "fusion_lon": 0.0}, {"lat": 38.893731, "is_disabled": 0, "type": "electric_scooter", "lon": -77.0479005, "bike_id": "3c818a63f356d262e3d4ba8f0f4e3dff", "fusion_lat": 0.0, "name": "3c818a63f356d262e3d4ba8f0f4e3dff", "is_reserved": 0, "rental_uris": {"android": "https://dc.lft.to/lastmile_qr_scan", "ios": "https://dc.lft.to/lastmile_qr_scan"}, "fusion_lon": 0.0}, {"lat": 38.90724216666667, "is_disabled": 0, "type": "electric_scooter", "lon": -77.02325183333333, "bike_id": "b29d442adc01ca13c3eaacd716b96684", "fusion_lat": 0.0, "name": "b29d442adc01ca13c3eaacd716b96684", "is_reserved": 0, "rental_uris": {"android": "https://dc.lft.to/lastmile_qr_scan", "ios": "https://dc.lft.to/lastmile_qr_scan"}, "fusion_lon": 0.0}, {"lat": 38.930793666666666, "is_disabled": 0, "type": "electric_scooter", "lon": -77.02801, "bike_id": "0bf165e571f33d83050ebd204752d1db", "fusion_lat": 0.0, "name": "0bf165e571f33d83050ebd204752d1db", "is_reserved": 0, "rental_uris": {"android": "https://dc.lft.to/lastmile_qr_scan", "ios": "https://dc.lft.to/lastmile_qr_scan"}, "fusion_lon": 0.0}, {"lat": 38.89054216666667, "is_disabled": 0, "type": "electric_scooter", "lon": -76.94337283333333, "bike_id": "057b0e6c0604b58126c797b174dd240f", "fusion_lat": 0.0, "name": "057b0e6c0604b58126c797b174dd240f", "is_reserved": 0, "rental_uris": {"android": "https://dc.lft.to/lastmile_qr_scan", "ios": "https://dc.lft.to/lastmile_qr_scan"}, "fusion_lon": 0.0}, {"lat": 38.902838833333334, "is_disabled": 0, "type": "electric_scooter", "lon": -77.04595883333333, "bike_id": "dd0cb14f8903db66c3ba382bb56a4165", "fusion_lat": 0.0, "name": "dd0cb14f8903db66c3ba382bb56a4165", "is_reserved": 0, "rental_uris": {"android": "https://dc.lft.to/lastmile_qr_scan", "ios": "https://dc.lft.to/lastmile_qr_scan"}, "fusion_lon": 0.0}, {"lat": 38.8997415, "is_disabled": 0, "type": "electric_scooter", "lon": -76.9838205, "bike_id": "aebfaab0c820594a2a0500e7759bbaeb", "fusion_lat": 0.0, "name": "aebfaab0c820594a2a0500e7759bbaeb", "is_reserved": 0, "rental_uris": {"android": "https://dc.lft.to/lastmile_qr_scan", "ios": "https://dc.lft.to/lastmile_qr_scan"}, "fusion_lon": 0.0}, {"lat": 38.91331616666667, "is_disabled": 0, "type": "electric_scooter", "lon": -77.04816483333333, "bike_id": "3075d815df42df488432a94b6f1fc813", "fusion_lat": 0.0, "name": "3075d815df42df488432a94b6f1fc813", "is_reserved": 0, "rental_uris": {"android": "https://dc.lft.to/lastmile_qr_scan", "ios": "https://dc.lft.to/lastmile_qr_scan"}, "fusion_lon": 0.0}, {"lat": 38.90800466666666, "is_disabled": 0, "type": "electric_scooter", "lon": -77.041603, "bike_id": "7a434ec921ca246a4a013c0840155487", "fusion_lat": 0.0, "name": "7a434ec921ca246a4a013c0840155487", "is_reserved": 0, "rental_uris": {"android": "https://dc.lft.to/lastmile_qr_scan", "ios": "https://dc.lft.to/lastmile_qr_scan"}, "fusion_lon": 0.0}, {"lat": 38.933154, "is_disabled": 0, "type": "electric_scooter", "lon": -77.034412, "bike_id": "e0ff3750227f43a35ebf889aaf962373", "fusion_lat": 0.0, "name": "e0ff3750227f43a35ebf889aaf962373", "is_reserved": 0, "rental_uris": {"android": "https://dc.lft.to/lastmile_qr_scan", "ios": "https://dc.lft.to/lastmile_qr_scan"}, "fusion_lon": 0.0}, {"lat": 38.93198783333333, "is_disabled": 0, "type": "electric_scooter", "lon": -77.038621, "bike_id": "4c836af967470cbdd3be97e4f0ce1935", "fusion_lat": 0.0, "name": "4c836af967470cbdd3be97e4f0ce1935", "is_reserved": 0, "rental_uris": {"android": "https://dc.lft.to/lastmile_qr_scan", "ios": "https://dc.lft.to/lastmile_qr_scan"}, "fusion_lon": 0.0}, {"lat": 38.90836566666667, "is_disabled": 0, "type": "electric_scooter", "lon": -76.9998065, "bike_id": "f511131dd222c4a1d670c22257b52e79", "fusion_lat": 0.0, "name": "f511131dd222c4a1d670c22257b52e79", "is_reserved": 0, "rental_uris": {"android": "https://dc.lft.to/lastmile_qr_scan", "ios": "https://dc.lft.to/lastmile_qr_scan"}, "fusion_lon": 0.0}, {"lat": 38.8873885, "is_disabled": 0, "type": "electric_scooter", "lon": -77.00325383333333, "bike_id": "699891db57709b8843a929bdd48dc0a0", "fusion_lat": 0.0, "name": "699891db57709b8843a929bdd48dc0a0", "is_reserved": 0, "rental_uris": {"android": "https://dc.lft.to/lastmile_qr_scan", "ios": "https://dc.lft.to/lastmile_qr_scan"}, "fusion_lon": 0.0}, {"lat": 38.917543333333334, "is_disabled": 0, "type": "electric_scooter", "lon": -77.03200966666667, "bike_id": "f7882ce4e574399a8842d9eaa27d8d9c", "fusion_lat": 0.0, "name": "f7882ce4e574399a8842d9eaa27d8d9c", "is_reserved": 0, "rental_uris": {"android": "https://dc.lft.to/lastmile_qr_scan", "ios": "https://dc.lft.to/lastmile_qr_scan"}, "fusion_lon": 0.0}, {"lat": 38.95615083333333, "is_disabled": 0, "type": "electric_scooter", "lon": -77.027858, "bike_id": "6d561a5fe026074557c51cb34dffa5cc", "fusion_lat": 0.0, "name": "6d561a5fe026074557c51cb34dffa5cc", "is_reserved": 0, "rental_uris": {"android": "https://dc.lft.to/lastmile_qr_scan", "ios": "https://dc.lft.to/lastmile_qr_scan"}, "fusion_lon": 0.0}, {"lat": 38.9006385, "is_disabled": 0, "type": "electric_scooter", "lon": -77.0434595, "bike_id": "782a323fc8bf828c1eec3bd8879d8c9a", "fusion_lat": 0.0, "name": "782a323fc8bf828c1eec3bd8879d8c9a", "is_reserved": 0, "rental_uris": {"android": "https://dc.lft.to/lastmile_qr_scan", "ios": "https://dc.lft.to/lastmile_qr_scan"}, "fusion_lon": 0.0}, {"lat": 38.865653333333334, "is_disabled": 0, "type": "electric_scooter", "lon": -76.9894915, "bike_id": "44d6181a004787b49bff660af3054e2b", "fusion_lat": 0.0, "name": "44d6181a004787b49bff660af3054e2b", "is_reserved": 0, "rental_uris": {"android": "https://dc.lft.to/lastmile_qr_scan", "ios": "https://dc.lft.to/lastmile_qr_scan"}, "fusion_lon": 0.0}, {"lat": 38.88733783333333, "is_disabled": 0, "type": "electric_scooter", "lon": -77.03203783333333, "bike_id": "64d40ba33b0e116e66775255c3982947", "fusion_lat": 0.0, "name": "64d40ba33b0e116e66775255c3982947", "is_reserved": 0, "rental_uris": {"android": "https://dc.lft.to/lastmile_qr_scan", "ios": "https://dc.lft.to/lastmile_qr_scan"}, "fusion_lon": 0.0}, {"lat": 38.948333833333336, "is_disabled": 0, "type": "electric_scooter", "lon": -77.02560083333333, "bike_id": "d54842e21a62bc60a75dc7b2923022b6", "fusion_lat": 0.0, "name": "d54842e21a62bc60a75dc7b2923022b6", "is_reserved": 0, "rental_uris": {"android": "https://dc.lft.to/lastmile_qr_scan", "ios": "https://dc.lft.to/lastmile_qr_scan"}, "fusion_lon": 0.0}, {"lat": 38.9238245, "is_disabled": 0, "type": "electric_scooter", "lon": -77.02766633333333, "bike_id": "41f33fada8764f491315f7d79c25f338", "fusion_lat": 0.0, "name": "41f33fada8764f491315f7d79c25f338", "is_reserved": 0, "rental_uris": {"android": "https://dc.lft.to/lastmile_qr_scan", "ios": "https://dc.lft.to/lastmile_qr_scan"}, "fusion_lon": 0.0}, {"lat": 38.854328333333335, "is_disabled": 0, "type": "electric_bike", "lon": -76.90977066666666, "bike_id": "f4cd58827522dabec28b82f0e8402fd0", "fusion_lat": 0.0, "name": "f4cd58827522dabec28b82f0e8402fd0", "is_reserved": 0, "rental_uris": {"android": "https://dc.lft.to/lastmile_qr_scan", "ios": "https://dc.lft.to/lastmile_qr_scan"}, "fusion_lon": 0.0}, {"lat": 38.90943883333333, "is_disabled": 0, "type": "electric_scooter", "lon": -77.0466455, "bike_id": "dc7467b718676901e6983e1d9aff4406", "fusion_lat": 0.0, "name": "dc7467b718676901e6983e1d9aff4406", "is_reserved": 0, "rental_uris": {"android": "https://dc.lft.to/lastmile_qr_scan", "ios": "https://dc.lft.to/lastmile_qr_scan"}, "fusion_lon": 0.0}, {"lat": 38.915649, "is_disabled": 0, "type": "electric_scooter", "lon": -77.0097695, "bike_id": "5a2cb6065200ff14a766469799379def", "fusion_lat": 0.0, "name": "5a2cb6065200ff14a766469799379def", "is_reserved": 0, "rental_uris": {"android": "https://dc.lft.to/lastmile_qr_scan", "ios": "https://dc.lft.to/lastmile_qr_scan"}, "fusion_lon": 0.0}, {"lat": 38.81049083333333, "is_disabled": 0, "type": "electric_bike", "lon": -77.08508333333333, "bike_id": "d910d8e480e4dd56105bcdc4730dd12d", "fusion_lat": 0.0, "name": "d910d8e480e4dd56105bcdc4730dd12d", "is_reserved": 0, "rental_uris": {"android": "https://dc.lft.to/lastmile_qr_scan", "ios": "https://dc.lft.to/lastmile_qr_scan"}, "fusion_lon": 0.0}, {"lat": 38.90390466666667, "is_disabled": 0, "type": "electric_scooter", "lon": -77.053264, "bike_id": "9eb144a3114f3caf60fb65803c249a6a", "fusion_lat": 0.0, "name": "9eb144a3114f3caf60fb65803c249a6a", "is_reserved": 0, "rental_uris": {"android": "https://dc.lft.to/lastmile_qr_scan", "ios": "https://dc.lft.to/lastmile_qr_scan"}, "fusion_lon": 0.0}, {"lat": 38.90572316666667, "is_disabled": 0, "type": "electric_scooter", "lon": -77.04492, "bike_id": "b0c628ec8251e4aea29d9934ecbb8e8e", "fusion_lat": 0.0, "name": "b0c628ec8251e4aea29d9934ecbb8e8e", "is_reserved": 0, "rental_uris": {"android": "https://dc.lft.to/lastmile_qr_scan", "ios": "https://dc.lft.to/lastmile_qr_scan"}, "fusion_lon": 0.0}, {"lat": 38.896577, "is_disabled": 0, "type": "electric_scooter", "lon": -76.99014616666666, "bike_id": "807183c35eb20c8022a427df3a509cf3", "fusion_lat": 0.0, "name": "807183c35eb20c8022a427df3a509cf3", "is_reserved": 0, "rental_uris": {"android": "https://dc.lft.to/lastmile_qr_scan", "ios": "https://dc.lft.to/lastmile_qr_scan"}, "fusion_lon": 0.0}, {"lat": 38.89978333333333, "is_disabled": 0, "type": "electric_scooter", "lon": -76.99483783333334, "bike_id": "f5cd867c182f11c12e2c3f20e0a4e915", "fusion_lat": 0.0, "name": "f5cd867c182f11c12e2c3f20e0a4e915", "is_reserved": 0, "rental_uris": {"android": "https://dc.lft.to/lastmile_qr_scan", "ios": "https://dc.lft.to/lastmile_qr_scan"}, "fusion_lon": 0.0}, {"lat": 38.934254, "is_disabled": 0, "type": "electric_scooter", "lon": -77.02846166666667, "bike_id": "65cb7df01876c6cec9f7aa8bbc85df1a", "fusion_lat": 0.0, "name": "65cb7df01876c6cec9f7aa8bbc85df1a", "is_reserved": 0, "rental_uris": {"android": "https://dc.lft.to/lastmile_qr_scan", "ios": "https://dc.lft.to/lastmile_qr_scan"}, "fusion_lon": 0.0}, {"lat": 38.921127, "is_disabled": 0, "type": "electric_scooter", "lon": -77.04231616666667, "bike_id": "6cbb368e267f7a9ebf7859b19f437ded", "fusion_lat": 0.0, "name": "6cbb368e267f7a9ebf7859b19f437ded", "is_reserved": 0, "rental_uris": {"android": "https://dc.lft.to/lastmile_qr_scan", "ios": "https://dc.lft.to/lastmile_qr_scan"}, "fusion_lon": 0.0}, {"lat": 38.899037, "is_disabled": 0, "type": "electric_scooter", "lon": -77.0393545, "bike_id": "48e2c5841109762aa49de232baa7425f", "fusion_lat": 0.0, "name": "48e2c5841109762aa49de232baa7425f", "is_reserved": 0, "rental_uris": {"android": "https://dc.lft.to/lastmile_qr_scan", "ios": "https://dc.lft.to/lastmile_qr_scan"}, "fusion_lon": 0.0}, {"lat": 38.89221516666667, "is_disabled": 0, "type": "electric_scooter", "lon": -77.04862283333334, "bike_id": "39862784c957e84ba517ae2d54467577", "fusion_lat": 0.0, "name": "39862784c957e84ba517ae2d54467577", "is_reserved": 0, "rental_uris": {"android": "https://dc.lft.to/lastmile_qr_scan", "ios": "https://dc.lft.to/lastmile_qr_scan"}, "fusion_lon": 0.0}, {"lat": 38.9260695, "is_disabled": 0, "type": "electric_scooter", "lon": -77.056945, "bike_id": "831b35459c3f86a60ed4ea941a842cd2", "fusion_lat": 0.0, "name": "831b35459c3f86a60ed4ea941a842cd2", "is_reserved": 0, "rental_uris": {"android": "https://dc.lft.to/lastmile_qr_scan", "ios": "https://dc.lft.to/lastmile_qr_scan"}, "fusion_lon": 0.0}, {"lat": 38.89960466666667, "is_disabled": 0, "type": "electric_scooter", "lon": -77.05134666666666, "bike_id": "39584f0867e3c02cf7797c75fac1a7f2", "fusion_lat": 0.0, "name": "39584f0867e3c02cf7797c75fac1a7f2", "is_reserved": 0, "rental_uris": {"android": "https://dc.lft.to/lastmile_qr_scan", "ios": "https://dc.lft.to/lastmile_qr_scan"}, "fusion_lon": 0.0}, {"lat": 38.844256333333334, "is_disabled": 0, "type": "electric_scooter", "lon": -76.99780116666666, "bike_id": "ec039a731190d6ebf8ee20ac01165641", "fusion_lat": 0.0, "name": "ec039a731190d6ebf8ee20ac01165641", "is_reserved": 0, "rental_uris": {"android": "https://dc.lft.to/lastmile_qr_scan", "ios": "https://dc.lft.to/lastmile_qr_scan"}, "fusion_lon": 0.0}, {"lat": 38.875960166666665, "is_disabled": 0, "type": "electric_scooter", "lon": -77.01304166666667, "bike_id": "ab5da6f03e44d069c59a7745b673364d", "fusion_lat": 0.0, "name": "ab5da6f03e44d069c59a7745b673364d", "is_reserved": 0, "rental_uris": {"android": "https://dc.lft.to/lastmile_qr_scan", "ios": "https://dc.lft.to/lastmile_qr_scan"}, "fusion_lon": 0.0}, {"lat": 38.950730666666665, "is_disabled": 0, "type": "electric_scooter", "lon": -77.00875066666667, "bike_id": "0ff8c26662ecfe80104daeb76567deff", "fusion_lat": 0.0, "name": "0ff8c26662ecfe80104daeb76567deff", "is_reserved": 0, "rental_uris": {"android": "https://dc.lft.to/lastmile_qr_scan", "ios": "https://dc.lft.to/lastmile_qr_scan"}, "fusion_lon": 0.0}, {"lat": 38.88470316666667, "is_disabled": 0, "type": "electric_scooter", "lon": -76.99260583333333, "bike_id": "951a78439d69a931c361f297b984510b", "fusion_lat": 0.0, "name": "951a78439d69a931c361f297b984510b", "is_reserved": 0, "rental_uris": {"android": "https://dc.lft.to/lastmile_qr_scan", "ios": "https://dc.lft.to/lastmile_qr_scan"}, "fusion_lon": 0.0}, {"lat": 38.90861866666667, "is_disabled": 0, "type": "electric_bike", "lon": -77.08076816666667, "bike_id": "ce96176da55195a34be1b3b857c50962", "fusion_lat": 0.0, "name": "ce96176da55195a34be1b3b857c50962", "is_reserved": 0, "rental_uris": {"android": "https://dc.lft.to/lastmile_qr_scan", "ios": "https://dc.lft.to/lastmile_qr_scan"}, "fusion_lon": 0.0}, {"lat": 38.88081283333333, "is_disabled": 0, "type": "electric_scooter", "lon": -76.985335, "bike_id": "9aaa1d2d1917539c20549bd5edf36ff3", "fusion_lat": 0.0, "name": "9aaa1d2d1917539c20549bd5edf36ff3", "is_reserved": 0, "rental_uris": {"android": "https://dc.lft.to/lastmile_qr_scan", "ios": "https://dc.lft.to/lastmile_qr_scan"}, "fusion_lon": 0.0}, {"lat": 38.919882, "is_disabled": 0, "type": "electric_scooter", "lon": -76.97307683333334, "bike_id": "2266a362f78b52211d27f9d4a61c5091", "fusion_lat": 0.0, "name": "2266a362f78b52211d27f9d4a61c5091", "is_reserved": 0, "rental_uris": {"android": "https://dc.lft.to/lastmile_qr_scan", "ios": "https://dc.lft.to/lastmile_qr_scan"}, "fusion_lon": 0.0}, {"lat": 39.0293175, "is_disabled": 0, "type": "electric_bike", "lon": -77.04929266666667, "bike_id": "dd08854b40438b18387089022beb2a9d", "fusion_lat": 0.0, "name": "dd08854b40438b18387089022beb2a9d", "is_reserved": 0, "rental_uris": {"android": "https://dc.lft.to/lastmile_qr_scan", "ios": "https://dc.lft.to/lastmile_qr_scan"}, "fusion_lon": 0.0}, {"lat": 38.91491766666667, "is_disabled": 0, "type": "electric_scooter", "lon": -77.01860033333334, "bike_id": "db2ef884490e9f414aa292c07c761f07", "fusion_lat": 0.0, "name": "db2ef884490e9f414aa292c07c761f07", "is_reserved": 0, "rental_uris": {"android": "https://dc.lft.to/lastmile_qr_scan", "ios": "https://dc.lft.to/lastmile_qr_scan"}, "fusion_lon": 0.0}, {"lat": 38.917088166666666, "is_disabled": 0, "type": "electric_scooter", "lon": -77.03211016666667, "bike_id": "6e613adcea89f8f49a290988d6d556bd", "fusion_lat": 0.0, "name": "6e613adcea89f8f49a290988d6d556bd", "is_reserved": 0, "rental_uris": {"android": "https://dc.lft.to/lastmile_qr_scan", "ios": "https://dc.lft.to/lastmile_qr_scan"}, "fusion_lon": 0.0}, {"lat": 38.9564215, "is_disabled": 0, "type": "electric_scooter", "lon": -76.997928, "bike_id": "b80934014fb26a7cfe94bf627ada60a1", "fusion_lat": 0.0, "name": "b80934014fb26a7cfe94bf627ada60a1", "is_reserved": 0, "rental_uris": {"android": "https://dc.lft.to/lastmile_qr_scan", "ios": "https://dc.lft.to/lastmile_qr_scan"}, "fusion_lon": 0.0}, {"lat": 38.95404216666667, "is_disabled": 0, "type": "electric_scooter", "lon": -77.02750466666667, "bike_id": "876d48bc1a2615ea8f2649c067f95ae1", "fusion_lat": 0.0, "name": "876d48bc1a2615ea8f2649c067f95ae1", "is_reserved": 0, "rental_uris": {"android": "https://dc.lft.to/lastmile_qr_scan", "ios": "https://dc.lft.to/lastmile_qr_scan"}, "fusion_lon": 0.0}, {"lat": 38.96019733333333, "is_disabled": 0, "type": "electric_bike", "lon": -77.01728233333333, "bike_id": "23dce9cfb11c468d0e1fff74c56055ac", "fusion_lat": 0.0, "name": "23dce9cfb11c468d0e1fff74c56055ac", "is_reserved": 0, "rental_uris": {"android": "https://dc.lft.to/lastmile_qr_scan", "ios": "https://dc.lft.to/lastmile_qr_scan"}, "fusion_lon": 0.0}, {"lat": 38.918966166666664, "is_disabled": 0, "type": "electric_scooter", "lon": -77.04156533333334, "bike_id": "35256f6b4dc14d8acc417634e6bc37f0", "fusion_lat": 0.0, "name": "35256f6b4dc14d8acc417634e6bc37f0", "is_reserved": 0, "rental_uris": {"android": "https://dc.lft.to/lastmile_qr_scan", "ios": "https://dc.lft.to/lastmile_qr_scan"}, "fusion_lon": 0.0}, {"lat": 38.9233915, "is_disabled": 0, "type": "electric_scooter", "lon": -77.019015, "bike_id": "919ebb07d96fc71f1faca78148c0cc2f", "fusion_lat": 0.0, "name": "919ebb07d96fc71f1faca78148c0cc2f", "is_reserved": 0, "rental_uris": {"android": "https://dc.lft.to/lastmile_qr_scan", "ios": "https://dc.lft.to/lastmile_qr_scan"}, "fusion_lon": 0.0}, {"lat": 38.8833, "is_disabled": 0, "type": "electric_scooter", "lon": -77.0315775, "bike_id": "50b02f7ebb17b79bc003115e8a5a0f25", "fusion_lat": 0.0, "name": "50b02f7ebb17b79bc003115e8a5a0f25", "is_reserved": 0, "rental_uris": {"android": "https://dc.lft.to/lastmile_qr_scan", "ios": "https://dc.lft.to/lastmile_qr_scan"}, "fusion_lon": 0.0}, {"lat": 38.905087333333334, "is_disabled": 0, "type": "electric_scooter", "lon": -77.05336833333334, "bike_id": "9bcdeb7d66f01e739099cbbafdedf910", "fusion_lat": 0.0, "name": "9bcdeb7d66f01e739099cbbafdedf910", "is_reserved": 0, "rental_uris": {"android": "https://dc.lft.to/lastmile_qr_scan", "ios": "https://dc.lft.to/lastmile_qr_scan"}, "fusion_lon": 0.0}, {"lat": 38.9177515, "is_disabled": 0, "type": "electric_scooter", "lon": -77.02341283333334, "bike_id": "c8db384190e6d0fdb897803be461b0ab", "fusion_lat": 0.0, "name": "c8db384190e6d0fdb897803be461b0ab", "is_reserved": 0, "rental_uris": {"android": "https://dc.lft.to/lastmile_qr_scan", "ios": "https://dc.lft.to/lastmile_qr_scan"}, "fusion_lon": 0.0}, {"lat": 38.90009716666667, "is_disabled": 0, "type": "electric_scooter", "lon": -77.00106533333333, "bike_id": "11cd7cb88644379fcbcdbac540bbc658", "fusion_lat": 0.0, "name": "11cd7cb88644379fcbcdbac540bbc658", "is_reserved": 0, "rental_uris": {"android": "https://dc.lft.to/lastmile_qr_scan", "ios": "https://dc.lft.to/lastmile_qr_scan"}, "fusion_lon": 0.0}, {"lat": 38.900251833333336, "is_disabled": 0, "type": "electric_scooter", "lon": -76.9987115, "bike_id": "eae0a708e72d8a31355d0b3a9d855abb", "fusion_lat": 0.0, "name": "eae0a708e72d8a31355d0b3a9d855abb", "is_reserved": 0, "rental_uris": {"android": "https://dc.lft.to/lastmile_qr_scan", "ios": "https://dc.lft.to/lastmile_qr_scan"}, "fusion_lon": 0.0}, {"lat": 38.911157833333334, "is_disabled": 0, "type": "electric_scooter", "lon": -77.00248866666666, "bike_id": "459b6a0441aced4833dad92c96b0cfbc", "fusion_lat": 0.0, "name": "459b6a0441aced4833dad92c96b0cfbc", "is_reserved": 0, "rental_uris": {"android": "https://dc.lft.to/lastmile_qr_scan", "ios": "https://dc.lft.to/lastmile_qr_scan"}, "fusion_lon": 0.0}, {"lat": 38.86105516666667, "is_disabled": 0, "type": "electric_scooter", "lon": -76.98364183333334, "bike_id": "60e830522b2d47abef5cdbb5e3754e2c", "fusion_lat": 0.0, "name": "60e830522b2d47abef5cdbb5e3754e2c", "is_reserved": 0, "rental_uris": {"android": "https://dc.lft.to/lastmile_qr_scan", "ios": "https://dc.lft.to/lastmile_qr_scan"}, "fusion_lon": 0.0}, {"lat": 38.9191605, "is_disabled": 0, "type": "electric_scooter", "lon": -77.02168666666667, "bike_id": "8baa9efaeb890b9306bb53600f5bf982", "fusion_lat": 0.0, "name": "8baa9efaeb890b9306bb53600f5bf982", "is_reserved": 0, "rental_uris": {"android": "https://dc.lft.to/lastmile_qr_scan", "ios": "https://dc.lft.to/lastmile_qr_scan"}, "fusion_lon": 0.0}, {"lat": 38.913399, "is_disabled": 0, "type": "electric_scooter", "lon": -77.00223233333334, "bike_id": "c38bd5a5e2c49fd45e17fccf307d0490", "fusion_lat": 0.0, "name": "c38bd5a5e2c49fd45e17fccf307d0490", "is_reserved": 0, "rental_uris": {"android": "https://dc.lft.to/lastmile_qr_scan", "ios": "https://dc.lft.to/lastmile_qr_scan"}, "fusion_lon": 0.0}, {"lat": 38.89737983333333, "is_disabled": 0, "type": "electric_scooter", "lon": -77.05522016666667, "bike_id": "94da984c5fa4f93aede05d69c99806b4", "fusion_lat": 0.0, "name": "94da984c5fa4f93aede05d69c99806b4", "is_reserved": 0, "rental_uris": {"android": "https://dc.lft.to/lastmile_qr_scan", "ios": "https://dc.lft.to/lastmile_qr_scan"}, "fusion_lon": 0.0}, {"lat": 38.903688333333335, "is_disabled": 0, "type": "electric_scooter", "lon": -77.03337083333334, "bike_id": "b5c702b817410f8923c4ccdf5c55aa57", "fusion_lat": 0.0, "name": "b5c702b817410f8923c4ccdf5c55aa57", "is_reserved": 0, "rental_uris": {"android": "https://dc.lft.to/lastmile_qr_scan", "ios": "https://dc.lft.to/lastmile_qr_scan"}, "fusion_lon": 0.0}, {"lat": 38.91013383333333, "is_disabled": 0, "type": "electric_scooter", "lon": -76.99394816666667, "bike_id": "ad30f3a679fc4e66c8222a4b6134c48b", "fusion_lat": 0.0, "name": "ad30f3a679fc4e66c8222a4b6134c48b", "is_reserved": 0, "rental_uris": {"android": "https://dc.lft.to/lastmile_qr_scan", "ios": "https://dc.lft.to/lastmile_qr_scan"}, "fusion_lon": 0.0}, {"lat": 38.85511616666667, "is_disabled": 0, "type": "electric_bike", "lon": -76.98422066666667, "bike_id": "c8328ce4115884e001dfe7bddc5a5609", "fusion_lat": 0.0, "name": "c8328ce4115884e001dfe7bddc5a5609", "is_reserved": 0, "rental_uris": {"android": "https://dc.lft.to/lastmile_qr_scan", "ios": "https://dc.lft.to/lastmile_qr_scan"}, "fusion_lon": 0.0}, {"lat": 38.925825333333336, "is_disabled": 0, "type": "electric_scooter", "lon": -77.03365266666667, "bike_id": "dd3e94a559df3a00a4375b762b751a89", "fusion_lat": 0.0, "name": "dd3e94a559df3a00a4375b762b751a89", "is_reserved": 0, "rental_uris": {"android": "https://dc.lft.to/lastmile_qr_scan", "ios": "https://dc.lft.to/lastmile_qr_scan"}, "fusion_lon": 0.0}, {"lat": 38.88534583333333, "is_disabled": 0, "type": "electric_scooter", "lon": -76.998277, "bike_id": "bdbf8d6d46981a211659a774233ae0cf", "fusion_lat": 0.0, "name": "bdbf8d6d46981a211659a774233ae0cf", "is_reserved": 0, "rental_uris": {"android": "https://dc.lft.to/lastmile_qr_scan", "ios": "https://dc.lft.to/lastmile_qr_scan"}, "fusion_lon": 0.0}, {"lat": 38.9327405, "is_disabled": 0, "type": "electric_scooter", "lon": -77.03944383333334, "bike_id": "0a4b26c99363674b25c83f9b0390f2e0", "fusion_lat": 0.0, "name": "0a4b26c99363674b25c83f9b0390f2e0", "is_reserved": 0, "rental_uris": {"android": "https://dc.lft.to/lastmile_qr_scan", "ios": "https://dc.lft.to/lastmile_qr_scan"}, "fusion_lon": 0.0}, {"lat": 38.9109495, "is_disabled": 0, "type": "electric_scooter", "lon": -77.0467575, "bike_id": "350a9ba6c10612d59ccef55a1b05ea32", "fusion_lat": 0.0, "name": "350a9ba6c10612d59ccef55a1b05ea32", "is_reserved": 0, "rental_uris": {"android": "https://dc.lft.to/lastmile_qr_scan", "ios": "https://dc.lft.to/lastmile_qr_scan"}, "fusion_lon": 0.0}, {"lat": 38.89734683333333, "is_disabled": 0, "type": "electric_scooter", "lon": -77.04606033333333, "bike_id": "f720071572b2fbddc80f3d7e26186b2f", "fusion_lat": 0.0, "name": "f720071572b2fbddc80f3d7e26186b2f", "is_reserved": 0, "rental_uris": {"android": "https://dc.lft.to/lastmile_qr_scan", "ios": "https://dc.lft.to/lastmile_qr_scan"}, "fusion_lon": 0.0}, {"lat": 38.92824916666667, "is_disabled": 0, "type": "electric_scooter", "lon": -77.01377466666666, "bike_id": "2b99dea4e3a59f666ca70531d4101178", "fusion_lat": 0.0, "name": "2b99dea4e3a59f666ca70531d4101178", "is_reserved": 0, "rental_uris": {"android": "https://dc.lft.to/lastmile_qr_scan", "ios": "https://dc.lft.to/lastmile_qr_scan"}, "fusion_lon": 0.0}, {"lat": 38.900023833333336, "is_disabled": 0, "type": "electric_scooter", "lon": -77.02142633333334, "bike_id": "615173cca98faea2251b08e3d0cf2e3a", "fusion_lat": 0.0, "name": "615173cca98faea2251b08e3d0cf2e3a", "is_reserved": 0, "rental_uris": {"android": "https://dc.lft.to/lastmile_qr_scan", "ios": "https://dc.lft.to/lastmile_qr_scan"}, "fusion_lon": 0.0}, {"lat": 38.8372155, "is_disabled": 0, "type": "electric_bike", "lon": -76.997659, "bike_id": "6aefc880b262770c97eaa8d9ca0dde17", "fusion_lat": 0.0, "name": "6aefc880b262770c97eaa8d9ca0dde17", "is_reserved": 0, "rental_uris": {"android": "https://dc.lft.to/lastmile_qr_scan", "ios": "https://dc.lft.to/lastmile_qr_scan"}, "fusion_lon": 0.0}, {"lat": 38.95391583333333, "is_disabled": 0, "type": "electric_bike", "lon": -76.98022083333333, "bike_id": "d0ff73396a238c6c534ba3720e3d6077", "fusion_lat": 0.0, "name": "d0ff73396a238c6c534ba3720e3d6077", "is_reserved": 0, "rental_uris": {"android": "https://dc.lft.to/lastmile_qr_scan", "ios": "https://dc.lft.to/lastmile_qr_scan"}, "fusion_lon": 0.0}, {"lat": 38.888094, "is_disabled": 0, "type": "electric_scooter", "lon": -77.00208083333334, "bike_id": "67bb34a93f6a6124cfbc613cf5a9e42c", "fusion_lat": 0.0, "name": "67bb34a93f6a6124cfbc613cf5a9e42c", "is_reserved": 0, "rental_uris": {"android": "https://dc.lft.to/lastmile_qr_scan", "ios": "https://dc.lft.to/lastmile_qr_scan"}, "fusion_lon": 0.0}, {"lat": 38.889973, "is_disabled": 0, "type": "electric_scooter", "lon": -76.95563833333334, "bike_id": "25fd1b59baa5bee677d4f1c7bddd4669", "fusion_lat": 0.0, "name": "25fd1b59baa5bee677d4f1c7bddd4669", "is_reserved": 0, "rental_uris": {"android": "https://dc.lft.to/lastmile_qr_scan", "ios": "https://dc.lft.to/lastmile_qr_scan"}, "fusion_lon": 0.0}, {"lat": 38.906847, "is_disabled": 0, "type": "electric_scooter", "lon": -77.0717175, "bike_id": "581fb546c04dc024a7026eb0244f4766", "fusion_lat": 0.0, "name": "581fb546c04dc024a7026eb0244f4766", "is_reserved": 0, "rental_uris": {"android": "https://dc.lft.to/lastmile_qr_scan", "ios": "https://dc.lft.to/lastmile_qr_scan"}, "fusion_lon": 0.0}, {"lat": 38.9111875, "is_disabled": 0, "type": "electric_scooter", "lon": -77.04474266666666, "bike_id": "32fb1392a124f5272f01c4116cb34347", "fusion_lat": 0.0, "name": "32fb1392a124f5272f01c4116cb34347", "is_reserved": 0, "rental_uris": {"android": "https://dc.lft.to/lastmile_qr_scan", "ios": "https://dc.lft.to/lastmile_qr_scan"}, "fusion_lon": 0.0}, {"lat": 38.90484516666667, "is_disabled": 0, "type": "electric_bike", "lon": -77.068468, "bike_id": "6761538a238499b6fccaed8b932bfe2c", "fusion_lat": 0.0, "name": "6761538a238499b6fccaed8b932bfe2c", "is_reserved": 0, "rental_uris": {"android": "https://dc.lft.to/lastmile_qr_scan", "ios": "https://dc.lft.to/lastmile_qr_scan"}, "fusion_lon": 0.0}, {"lat": 38.91643333333333, "is_disabled": 0, "type": "electric_scooter", "lon": -77.02183766666667, "bike_id": "7c8a420f8822a01c4e57d138c0ae688f", "fusion_lat": 0.0, "name": "7c8a420f8822a01c4e57d138c0ae688f", "is_reserved": 0, "rental_uris": {"android": "https://dc.lft.to/lastmile_qr_scan", "ios": "https://dc.lft.to/lastmile_qr_scan"}, "fusion_lon": 0.0}, {"lat": 38.916625833333335, "is_disabled": 0, "type": "electric_scooter", "lon": -77.03847716666667, "bike_id": "2c5b65e55f183035676581253b176f7e", "fusion_lat": 0.0, "name": "2c5b65e55f183035676581253b176f7e", "is_reserved": 0, "rental_uris": {"android": "https://dc.lft.to/lastmile_qr_scan", "ios": "https://dc.lft.to/lastmile_qr_scan"}, "fusion_lon": 0.0}, {"lat": 38.95886483333334, "is_disabled": 0, "type": "electric_bike", "lon": -76.92476433333333, "bike_id": "9efad486fbbb1bfca4da000826d3b2c4", "fusion_lat": 0.0, "name": "9efad486fbbb1bfca4da000826d3b2c4", "is_reserved": 0, "rental_uris": {"android": "https://dc.lft.to/lastmile_qr_scan", "ios": "https://dc.lft.to/lastmile_qr_scan"}, "fusion_lon": 0.0}, {"lat": 38.91742766666667, "is_disabled": 0, "type": "electric_scooter", "lon": -77.031932, "bike_id": "f4b47faf09bc67d8c87aecb7fb8fd849", "fusion_lat": 0.0, "name": "f4b47faf09bc67d8c87aecb7fb8fd849", "is_reserved": 0, "rental_uris": {"android": "https://dc.lft.to/lastmile_qr_scan", "ios": "https://dc.lft.to/lastmile_qr_scan"}, "fusion_lon": 0.0}, {"lat": 38.89990933333333, "is_disabled": 0, "type": "electric_scooter", "lon": -77.05255166666667, "bike_id": "9f002ec3a16953491fbebbb44ed52507", "fusion_lat": 0.0, "name": "9f002ec3a16953491fbebbb44ed52507", "is_reserved": 0, "rental_uris": {"android": "https://dc.lft.to/lastmile_qr_scan", "ios": "https://dc.lft.to/lastmile_qr_scan"}, "fusion_lon": 0.0}, {"lat": 38.890401, "is_disabled": 0, "type": "electric_scooter", "lon": -76.94077133333333, "bike_id": "171c5bcd20efe8fa652a125863c3e2c0", "fusion_lat": 0.0, "name": "171c5bcd20efe8fa652a125863c3e2c0", "is_reserved": 0, "rental_uris": {"android": "https://dc.lft.to/lastmile_qr_scan", "ios": "https://dc.lft.to/lastmile_qr_scan"}, "fusion_lon": 0.0}, {"lat": 38.873127833333335, "is_disabled": 0, "type": "electric_scooter", "lon": -76.97103716666666, "bike_id": "1cdfb05443a17d9e655571f4a9e43473", "fusion_lat": 0.0, "name": "1cdfb05443a17d9e655571f4a9e43473", "is_reserved": 0, "rental_uris": {"android": "https://dc.lft.to/lastmile_qr_scan", "ios": "https://dc.lft.to/lastmile_qr_scan"}, "fusion_lon": 0.0}, {"lat": 38.921065666666664, "is_disabled": 0, "type": "electric_scooter", "lon": -77.04366833333333, "bike_id": "f4b8d6b6c151ed876664a2d216f2d4e8", "fusion_lat": 0.0, "name": "f4b8d6b6c151ed876664a2d216f2d4e8", "is_reserved": 0, "rental_uris": {"android": "https://dc.lft.to/lastmile_qr_scan", "ios": "https://dc.lft.to/lastmile_qr_scan"}, "fusion_lon": 0.0}, {"lat": 38.905596333333335, "is_disabled": 0, "type": "electric_scooter", "lon": -77.0436375, "bike_id": "637363291525aa9a367b0c9d97cd30c3", "fusion_lat": 0.0, "name": "637363291525aa9a367b0c9d97cd30c3", "is_reserved": 0, "rental_uris": {"android": "https://dc.lft.to/lastmile_qr_scan", "ios": "https://dc.lft.to/lastmile_qr_scan"}, "fusion_lon": 0.0}, {"lat": 38.9073125, "is_disabled": 0, "type": "electric_scooter", "lon": -77.0237185, "bike_id": "ccd7a860ff546c5673437464cd7135a7", "fusion_lat": 0.0, "name": "ccd7a860ff546c5673437464cd7135a7", "is_reserved": 0, "rental_uris": {"android": "https://dc.lft.to/lastmile_qr_scan", "ios": "https://dc.lft.to/lastmile_qr_scan"}, "fusion_lon": 0.0}, {"lat": 38.8953335, "is_disabled": 0, "type": "electric_scooter", "lon": -77.03351233333333, "bike_id": "d8a4c2379013b2d65782af838a0e7aa6", "fusion_lat": 0.0, "name": "d8a4c2379013b2d65782af838a0e7aa6", "is_reserved": 0, "rental_uris": {"android": "https://dc.lft.to/lastmile_qr_scan", "ios": "https://dc.lft.to/lastmile_qr_scan"}, "fusion_lon": 0.0}, {"lat": 38.906693833333335, "is_disabled": 0, "type": "electric_scooter", "lon": -76.98785183333334, "bike_id": "fa71a0bd779e5c4bb632488dcc4ac7f2", "fusion_lat": 0.0, "name": "fa71a0bd779e5c4bb632488dcc4ac7f2", "is_reserved": 0, "rental_uris": {"android": "https://dc.lft.to/lastmile_qr_scan", "ios": "https://dc.lft.to/lastmile_qr_scan"}, "fusion_lon": 0.0}, {"lat": 38.89278316666667, "is_disabled": 0, "type": "electric_scooter", "lon": -77.0503145, "bike_id": "46954315ed7e8ae3e92ed98015c5ea03", "fusion_lat": 0.0, "name": "46954315ed7e8ae3e92ed98015c5ea03", "is_reserved": 0, "rental_uris": {"android": "https://dc.lft.to/lastmile_qr_scan", "ios": "https://dc.lft.to/lastmile_qr_scan"}, "fusion_lon": 0.0}, {"lat": 38.92555266666667, "is_disabled": 0, "type": "electric_scooter", "lon": -77.036634, "bike_id": "89472fae31952da2d566d338e42a0ef2", "fusion_lat": 0.0, "name": "89472fae31952da2d566d338e42a0ef2", "is_reserved": 0, "rental_uris": {"android": "https://dc.lft.to/lastmile_qr_scan", "ios": "https://dc.lft.to/lastmile_qr_scan"}, "fusion_lon": 0.0}, {"lat": 38.906502, "is_disabled": 0, "type": "electric_scooter", "lon": -77.04249383333334, "bike_id": "4b4d15ad87712a3a5c01dba8f7f0256e", "fusion_lat": 0.0, "name": "4b4d15ad87712a3a5c01dba8f7f0256e", "is_reserved": 0, "rental_uris": {"android": "https://dc.lft.to/lastmile_qr_scan", "ios": "https://dc.lft.to/lastmile_qr_scan"}, "fusion_lon": 0.0}, {"lat": 38.931861, "is_disabled": 0, "type": "electric_scooter", "lon": -77.03880416666667, "bike_id": "d4b96cb412225a1f6d8a0d3c0bfadddc", "fusion_lat": 0.0, "name": "d4b96cb412225a1f6d8a0d3c0bfadddc", "is_reserved": 0, "rental_uris": {"android": "https://dc.lft.to/lastmile_qr_scan", "ios": "https://dc.lft.to/lastmile_qr_scan"}, "fusion_lon": 0.0},