{"data": {"bikes": [{"type": "electric_bike", "name": "9f6be05cc5c5ef822d709859db6a5bc5", "rental_uris": {"ios": "https://dc.lft.to/lastmile_qr_scan", "android": "https://dc.lft.to/lastmile_qr_scan"}, "fusion_lon": 0.0, "lat": 38.864025166666664, "is_disabled": 0, "bike_id": "9f6be05cc5c5ef822d709859db6a5bc5", "fusion_lat": 0.0, "is_reserved": 0, "lon": -77.06344516666667}, {"type": "electric_scooter", "name": "ad9a0ad3ae66085ba92ec4abd40ac72e", "rental_uris": {"ios": "https://dc.lft.to/lastmile_qr_scan", "android": "https://dc.lft.to/lastmile_qr_scan"}, "fusion_lon": 0.0, "lat": 38.932999833333334, "is_disabled": 0, "bike_id": "ad9a0ad3ae66085ba92ec4abd40ac72e", "fusion_lat": 0.0, "is_reserved": 0, "lon": -77.0213885}, {"type": "electric_scooter", "name": "49110300c3c2301093195d1e7b9d565f", "rental_uris": {"ios": "https://dc.lft.to/lastmile_qr_scan", "android": "https://dc.lft.to/lastmile_qr_scan"}, "fusion_lon": 0.0, "lat": 38.9143085, "is_disabled": 0, "bike_id": "49110300c3c2301093195d1e7b9d565f", "fusion_lat": 0.0, "is_reserved": 0, "lon": -77.039285}, {"type": "electric_scooter", "name": "7649143ddb03a7ecddafacc87b003f55", "rental_uris": {"ios": "https://dc.lft.to/lastmile_qr_scan", "android": "https://dc.lft.to/lastmile_qr_scan"}, "fusion_lon": 0.0, "lat": 38.9058045, "is_disabled": 0, "bike_id": "7649143ddb03a7ecddafacc87b003f55", "fusion_lat": 0.0, "is_reserved": 0, "lon": -77.00563216666667}, {"type": "electric_scooter", "name": "a0c4ed0bb6b3fafd2f48942884d9d4e9", "rental_uris": {"ios": "https://dc.lft.to/lastmile_qr_scan", "android": "https://dc.lft.to/lastmile_qr_scan"}, "fusion_lon": 0.0, "lat": 38.9187665, "is_disabled": 0, "bike_id": "a0c4ed0bb6b3fafd2f48942884d9d4e9", "fusion_lat": 0.0, "is_reserved": 0, "lon": -77.035029}, {"type": "electric_scooter", "name": "e49b1f3bfc8930d5abf599c4d68b56ed", "rental_uris": {"ios": "https://dc.lft.to/lastmile_qr_scan", "android": "https://dc.lft.to/lastmile_qr_scan"}, "fusion_lon": 0.0, "lat": 38.89722583333333, "is_disabled": 0, "bike_id": "e49b1f3bfc8930d5abf599c4d68b56ed", "fusion_lat": 0.0, "is_reserved": 0, "lon": -77.045499}, {"type": "electric_bike", "name": "01ddd072f0955b8b09317ee61c7b90fb", "rental_uris": {"ios": "https://dc.lft.to/lastmile_qr_scan", "android": "https://dc.lft.to/lastmile_qr_scan"}, "fusion_lon": 0.0, "lat": 38.874904666666666, "is_disabled": 0, "bike_id": "01ddd072f0955b8b09317ee61c7b90fb", "fusion_lat": 0.0, "is_reserved": 0, "lon": -77.2112255}, {"type": "electric_scooter", "name": "fd1c50ca7fc0100e7e832d3ab8554aa7", "rental_uris": {"ios": "https://dc.lft.to/lastmile_qr_scan", "android": "https://dc.lft.to/lastmile_qr_scan"}, "fusion_lon": 0.0, "lat": 38.932628, "is_disabled": 0, "bike_id": "fd1c50ca7fc0100e7e832d3ab8554aa7", "fusion_lat": 0.0, "is_reserved": 0, "lon": -77.0210715}, {"type": "electric_bike", "name": "dc09b50b47e9172d00c3f9e5b252eb37", "rental_uris": {"ios": "https://dc.lft.to/lastmile_qr_scan", "android": "https://dc.lft.to/lastmile_qr_scan"}, "fusion_lon": 0.0, "lat": 38.93599833333333, "is_disabled": 0, "bike_id": "dc09b50b47e9172d00c3f9e5b252eb37", "fusion_lat": 0.0, "is_reserved": 0, "lon": -77.02116983333333}, {"type": "electric_scooter", "name": "a99f2afcfbb6d3494dfc92d26700e5de", "rental_uris": {"ios": "https://dc.lft.to/lastmile_qr_scan", "android": "https://dc.lft.to/lastmile_qr_scan"}, "fusion_lon": 0.0, "lat": 38.917091666666664, "is_disabled": 0, "bike_id": "a99f2afcfbb6d3494dfc92d26700e5de", "fusion_lat": 0.0, "is_reserved": 0, "lon": -77.02290683333334}, {"type": "electric_bike", "name": "21eef242d39fc88180d2ffcba13dfb70", "rental_uris": {"ios": "https://dc.lft.to/lastmile_qr_scan", "android": "https://dc.lft.to/lastmile_qr_scan"}, "fusion_lon": 0.0, "lat": 38.879766833333335, "is_disabled": 0, "bike_id": "21eef242d39fc88180d2ffcba13dfb70", "fusion_lat": 0.0, "is_reserved": 0, "lon": -76.916007}, {"type": "electric_scooter", "name": "b5f1eb378419cad54cf908748588bc9c", "rental_uris": {"ios": "https://dc.lft.to/lastmile_qr_scan", "android": "https://dc.lft.to/lastmile_qr_scan"}, "fusion_lon": 0.0, "lat": 38.917035, "is_disabled": 0, "bike_id": "b5f1eb378419cad54cf908748588bc9c", "fusion_lat": 0.0, "is_reserved": 0, "lon": -77.02297283333333}, {"type": "electric_scooter", "name": "6bc55b43fff431ae78576c860a892b11", "rental_uris": {"ios": "https://dc.lft.to/lastmile_qr_scan", "android": "https://dc.lft.to/lastmile_qr_scan"}, "fusion_lon": 0.0, "lat": 38.94358716666667, "is_disabled": 0, "bike_id": "6bc55b43fff431ae78576c860a892b11", "fusion_lat": 0.0, "is_reserved": 0, "lon": -77.061312}, {"type": "electric_bike", "name": "dc4eeac97f2af8bd8d1ee3a6ec36c806", "rental_uris": {"ios": "https://dc.lft.to/lastmile_qr_scan", "android": "https://dc.lft.to/lastmile_qr_scan"}, "fusion_lon": 0.0, "lat": 38.896148333333336, "is_disabled": 0, "bike_id": "dc4eeac97f2af8bd8d1ee3a6ec36c806", "fusion_lat": 0.0, "is_reserved": 0, "lon": -76.90741383333334}, {"type": "electric_scooter", "name": "bb05cf58a748ce61cb1511a501b02374", "rental_uris": {"ios": "https://dc.lft.to/lastmile_qr_scan", "android": "https://dc.lft.to/lastmile_qr_scan"}, "fusion_lon": 0.0, "lat": 38.915481, "is_disabled": 0, "bike_id": "bb05cf58a748ce61cb1511a501b02374", "fusion_lat": 0.0, "is_reserved": 0, "lon": -77.03846983333334}, {"type": "electric_scooter", "name": "39459dc932e735d33be0dd93dd46a9d9", "rental_uris": {"ios": "https://dc.lft.to/lastmile_qr_scan", "android": "https://dc.lft.to/lastmile_qr_scan"}, "fusion_lon": 0.0, "lat": 38.919894, "is_disabled": 0, "bike_id": "39459dc932e735d33be0dd93dd46a9d9", "fusion_lat": 0.0, "is_reserved": 0, "lon": -77.01782583333333}, {"type": "electric_bike", "name": "02d1d532c60a905d094092a31e3ec0cd", "rental_uris": {"ios": "https://dc.lft.to/lastmile_qr_scan", "android": "https://dc.lft.to/lastmile_qr_scan"}, "fusion_lon": 0.0, "lat": 38.84613066666667, "is_disabled": 0, "bike_id": "02d1d532c60a905d094092a31e3ec0cd", "fusion_lat": 0.0, "is_reserved": 0, "lon": -76.969121}, {"type": "electric_scooter", "name": "6fa3d696573bf3e4b70927853cd758fd", "rental_uris": {"ios": "https://dc.lft.to/lastmile_qr_scan", "android": "https://dc.lft.to/lastmile_qr_scan"}, "fusion_lon": 0.0, "lat": 38.92600733333333, "is_disabled": 0, "bike_id": "6fa3d696573bf3e4b70927853cd758fd", "fusion_lat": 0.0, "is_reserved": 0, "lon": -77.02156916666667}, {"type": "electric_scooter", "name": "c05275f0ac2f2deeaa6c9ac4bf0ec52f", "rental_uris": {"ios": "https://dc.lft.to/lastmile_qr_scan", "android": "https://dc.lft.to/lastmile_qr_scan"}, "fusion_lon": 0.0, "lat": 38.885070999999996, "is_disabled": 0, "bike_id": "c05275f0ac2f2deeaa6c9ac4bf0ec52f", "fusion_lat": 0.0, "is_reserved": 0, "lon": -77.00702483333333}, {"type": "electric_scooter", "name": "25e6f36d057a4dbc94cfdb6667677d14", "rental_uris": {"ios": "https://dc.lft.to/lastmile_qr_scan", "android": "https://dc.lft.to/lastmile_qr_scan"}, "fusion_lon": 0.0, "lat": 38.86560566666667, "is_disabled": 0, "bike_id": "25e6f36d057a4dbc94cfdb6667677d14", "fusion_lat": 0.0, "is_reserved": 0, "lon": -76.98353616666667}, {"type": "electric_scooter", "name": "47fbfe1ee34f729000be9fcae690ef13", "rental_uris": {"ios": "https://dc.lft.to/lastmile_qr_scan", "android": "https://dc.lft.to/lastmile_qr_scan"}, "fusion_lon": 0.0, "lat": 38.922746, "is_disabled": 0, "bike_id": "47fbfe1ee34f729000be9fcae690ef13", "fusion_lat": 0.0, "is_reserved": 0, "lon": -77.029651}, {"type": "electric_scooter", "name": "cb1f4e226e929c0e0a87d62d3a2fc52a", "rental_uris": {"ios": "https://dc.lft.to/lastmile_qr_scan", "android": "https://dc.lft.to/lastmile_qr_scan"}, "fusion_lon": 0.0, "lat": 38.898734, "is_disabled": 0, "bike_id": "cb1f4e226e929c0e0a87d62d3a2fc52a", "fusion_lat": 0.0, "is_reserved": 0, "lon": -76.93186366666667}, {"type": "electric_scooter", "name": "78f2a8524c1d93d2406cb84db336bce0", "rental_uris": {"ios": "https://dc.lft.to/lastmile_qr_scan", "android": "https://dc.lft.to/lastmile_qr_scan"}, "fusion_lon": 0.0, "lat": 38.91714133333333, "is_disabled": 0, "bike_id": "78f2a8524c1d93d2406cb84db336bce0", "fusion_lat": 0.0, "is_reserved": 0, "lon": -77.03664666666667}, {"type": "electric_scooter", "name": "4a3d783a96c61649a4b3b4f210d6afac", "rental_uris": {"ios": "https://dc.lft.to/lastmile_qr_scan", "android": "https://dc.lft.to/lastmile_qr_scan"}, "fusion_lon": 0.0, "lat": 38.92483516666667, "is_disabled": 0, "bike_id": "4a3d783a96c61649a4b3b4f210d6afac", "fusion_lat": 0.0, "is_reserved": 0, "lon": -77.02659316666667}, {"type": "electric_scooter", "name": "125b71ee306f59935e221d1e8135fe8e", "rental_uris": {"ios": "https://dc.lft.to/lastmile_qr_scan", "android": "https://dc.lft.to/lastmile_qr_scan"}, "fusion_lon": 0.0, "lat": 38.925638666666664, "is_disabled": 0, "bike_id": "125b71ee306f59935e221d1e8135fe8e", "fusion_lat": 0.0, "is_reserved": 0, "lon": -77.02715533333334}, {"type": "electric_scooter", "name": "15ed1403db7d80912e2467edc852985e", "rental_uris": {"ios": "https://dc.lft.to/lastmile_qr_scan", "android": "https://dc.lft.to/lastmile_qr_scan"}, "fusion_lon": 0.0, "lat": 38.905655833333334, "is_disabled": 0, "bike_id": "15ed1403db7d80912e2467edc852985e", "fusion_lat": 0.0, "is_reserved": 0, "lon": -77.02407466666666}, {"type": "electric_scooter", "name": "5b12cc47e607422b270403885d2c3b53", "rental_uris": {"ios": "https://dc.lft.to/lastmile_qr_scan", "android": "https://dc.lft.to/lastmile_qr_scan"}, "fusion_lon": 0.0, "lat": 38.90204216666667, "is_disabled": 0, "bike_id": "5b12cc47e607422b270403885d2c3b53", "fusion_lat": 0.0, "is_reserved": 0, "lon": -77.02373766666666}, {"type": "electric_scooter", "name": "a82c8b11b2de4231f3cf1cf249dd3796", "rental_uris": {"ios": "https://dc.lft.to/lastmile_qr_scan", "android": "https://dc.lft.to/lastmile_qr_scan"}, "fusion_lon": 0.0, "lat": 38.91234383333333, "is_disabled": 0, "bike_id": "a82c8b11b2de4231f3cf1cf249dd3796", "fusion_lat": 0.0, "is_reserved": 0, "lon": -77.04875583333333}, {"type": "electric_scooter", "name": "4d61fadd68463329e1e055437836eab7", "rental_uris": {"ios": "https://dc.lft.to/lastmile_qr_scan", "android": "https://dc.lft.to/lastmile_qr_scan"}, "fusion_lon": 0.0, "lat": 38.924750333333336, "is_disabled": 0, "bike_id": "4d61fadd68463329e1e055437836eab7", "fusion_lat": 0.0, "is_reserved": 0, "lon": -77.02210016666666}, {"type": "electric_scooter", "name": "0564229468a0f5c85162d71961003a1e", "rental_uris": {"ios": "https://dc.lft.to/lastmile_qr_scan", "android": "https://dc.lft.to/lastmile_qr_scan"}, "fusion_lon": 0.0, "lat": 38.9168365, "is_disabled": 0, "bike_id": "0564229468a0f5c85162d71961003a1e", "fusion_lat": 0.0, "is_reserved": 0, "lon": -77.029476}, {"type": "electric_scooter", "name": "7f4f7d7308fdb19870cbedfbe550cf2e", "rental_uris": {"ios": "https://dc.lft.to/lastmile_qr_scan", "android": "https://dc.lft.to/lastmile_qr_scan"}, "fusion_lon": 0.0, "lat": 38.93080766666667, "is_disabled": 0, "bike_id": "7f4f7d7308fdb19870cbedfbe550cf2e", "fusion_lat": 0.0, "is_reserved": 0, "lon": -77.02808083333333}, {"type": "electric_scooter", "name": "749248a066e2a29bd765d594926ae9db", "rental_uris": {"ios": "https://dc.lft.to/lastmile_qr_scan", "android": "https://dc.lft.to/lastmile_qr_scan"}, "fusion_lon": 0.0, "lat": 38.910488666666666, "is_disabled": 0, "bike_id": "749248a066e2a29bd765d594926ae9db", "fusion_lat": 0.0, "is_reserved": 0, "lon": -77.00409183333333}, {"type": "electric_bike", "name": "86b61323ab569d5fa5644d8fc43fc431", "rental_uris": {"ios": "https://dc.lft.to/lastmile_qr_scan", "android": "https://dc.lft.to/lastmile_qr_scan"}, "fusion_lon": 0.0, "lat": 38.857673, "is_disabled": 0, "bike_id": "86b61323ab569d5fa5644d8fc43fc431", "fusion_lat": 0.0, "is_reserved": 0, "lon": -76.9876525}, {"type": "electric_scooter", "name": "ba2e64916e752cf1ba43383399a24915", "rental_uris": {"ios": "https://dc.lft.to/lastmile_qr_scan", "android": "https://dc.lft.to/lastmile_qr_scan"}, "fusion_lon": 0.0, "lat": 38.92118716666667, "is_disabled": 0, "bike_id": "ba2e64916e752cf1ba43383399a24915", "fusion_lat": 0.0, "is_reserved": 0, "lon": -77.01207666666667}, {"type": "electric_scooter", "name": "83e09c00fc844d2719022203e86993a4", "rental_uris": {"ios": "https://dc.lft.to/lastmile_qr_scan", "android": "https://dc.lft.to/lastmile_qr_scan"}, "fusion_lon": 0.0, "lat": 38.9169455, "is_disabled": 0, "bike_id": "83e09c00fc844d2719022203e86993a4", "fusion_lat": 0.0, "is_reserved": 0, "lon": -77.04110816666666}, {"type": "electric_scooter", "name": "3ef1160aade4bc92632cdf5e69e51b4b", "rental_uris": {"ios": "https://dc.lft.to/lastmile_qr_scan", "android": "https://dc.lft.to/lastmile_qr_scan"}, "fusion_lon": 0.0, "lat": 38.917077166666665, "is_disabled": 0, "bike_id": "3ef1160aade4bc92632cdf5e69e51b4b", "fusion_lat": 0.0, "is_reserved": 0, "lon": -77.0417195}, {"type": "electric_scooter", "name": "c27e2637d97a3ec8c0a8cf8c552e275a", "rental_uris": {"ios": "https://dc.lft.to/lastmile_qr_scan", "android": "https://dc.lft.to/lastmile_qr_scan"}, "fusion_lon": 0.0, "lat": 38.905704, "is_disabled": 0, "bike_id": "c27e2637d97a3ec8c0a8cf8c552e275a", "fusion_lat": 0.0, "is_reserved": 0, "lon": -77.0240885}, {"type": "electric_scooter", "name": "bc5e1a01ec1fd4f32299527ee059ece5", "rental_uris": {"ios": "https://dc.lft.to/lastmile_qr_scan", "android": "https://dc.lft.to/lastmile_qr_scan"}, "fusion_lon": 0.0, "lat": 38.92943233333333, "is_disabled": 0, "bike_id": "bc5e1a01ec1fd4f32299527ee059ece5", "fusion_lat": 0.0, "is_reserved": 0, "lon": -77.01889033333333}, {"type": "electric_scooter", "name": "7da9b120c35a8c91df268ac9e0173a40", "rental_uris": {"ios": "https://dc.lft.to/lastmile_qr_scan", "android": "https://dc.lft.to/lastmile_qr_scan"}, "fusion_lon": 0.0, "lat": 38.905097833333336, "is_disabled": 0, "bike_id": "7da9b120c35a8c91df268ac9e0173a40", "fusion_lat": 0.0, "is_reserved": 0, "lon": -77.04329966666667}, {"type": "electric_scooter", "name": "5c369b23244e251cfbb28c578a8cce56", "rental_uris": {"ios": "https://dc.lft.to/lastmile_qr_scan", "android": "https://dc.lft.to/lastmile_qr_scan"}, "fusion_lon": 0.0, "lat": 38.90377766666667, "is_disabled": 0, "bike_id": "5c369b23244e251cfbb28c578a8cce56", "fusion_lat": 0.0, "is_reserved": 0, "lon": -77.03198966666666}, {"type": "electric_scooter", "name": "a8fecfcea26455b7f8be45b5a7be3a95", "rental_uris": {"ios": "https://dc.lft.to/lastmile_qr_scan", "android": "https://dc.lft.to/lastmile_qr_scan"}, "fusion_lon": 0.0, "lat": 38.900302833333335, "is_disabled": 0, "bike_id": "a8fecfcea26455b7f8be45b5a7be3a95", "fusion_lat": 0.0, "is_reserved": 0, "lon": -77.04035716666667}, {"type": "electric_scooter", "name": "01fd858528e60b4840497b770ff4e696", "rental_uris": {"ios": "https://dc.lft.to/lastmile_qr_scan", "android": "https://dc.lft.to/lastmile_qr_scan"}, "fusion_lon": 0.0, "lat": 38.90029716666667, "is_disabled": 0, "bike_id": "01fd858528e60b4840497b770ff4e696", "fusion_lat": 0.0, "is_reserved": 0, "lon": -76.98725066666667}, {"type": "electric_scooter", "name": "db6dd6a8038bbbac777db0b4532713c7", "rental_uris": {"ios": "https://dc.lft.to/lastmile_qr_scan", "android": "https://dc.lft.to/lastmile_qr_scan"}, "fusion_lon": 0.0, "lat": 38.9266025, "is_disabled": 0, "bike_id": "db6dd6a8038bbbac777db0b4532713c7", "fusion_lat": 0.0, "is_reserved": 0, "lon": -77.02306233333333}, {"type": "electric_scooter", "name": "535bace4c46950a7420fb1dba120a48f", "rental_uris": {"ios": "https://dc.lft.to/lastmile_qr_scan", "android": "https://dc.lft.to/lastmile_qr_scan"}, "fusion_lon": 0.0, "lat": 38.91043166666667, "is_disabled": 0, "bike_id": "535bace4c46950a7420fb1dba120a48f", "fusion_lat": 0.0, "is_reserved": 0, "lon": -77.01023716666667}, {"type": "electric_scooter", "name": "58b4e181a866a3fbdb8d6127cfd2ab36", "rental_uris": {"ios": "https://dc.lft.to/lastmile_qr_scan", "android": "https://dc.lft.to/lastmile_qr_scan"}, "fusion_lon": 0.0, "lat": 38.923316166666666, "is_disabled": 0, "bike_id": "58b4e181a866a3fbdb8d6127cfd2ab36", "fusion_lat": 0.0, "is_reserved": 0, "lon": -77.028949}, {"type": "electric_scooter", "name": "324c7f78156273657e6c9dda0a95a042", "rental_uris": {"ios": "https://dc.lft.to/lastmile_qr_scan", "android": "https://dc.lft.to/lastmile_qr_scan"}, "fusion_lon": 0.0, "lat": 38.907786333333334, "is_disabled": 0, "bike_id": "324c7f78156273657e6c9dda0a95a042", "fusion_lat": 0.0, "is_reserved": 0, "lon": -77.07170816666667}, {"type": "electric_scooter", "name": "5b530a20c7211f5287772b491c0c9bec", "rental_uris": {"ios": "https://dc.lft.to/lastmile_qr_scan", "android": "https://dc.lft.to/lastmile_qr_scan"}, "fusion_lon": 0.0, "lat": 38.887145833333335, "is_disabled": 0, "bike_id": "5b530a20c7211f5287772b491c0c9bec", "fusion_lat": 0.0, "is_reserved": 0, "lon": -76.98351183333334}, {"type": "electric_scooter", "name": "1e69011ec00566f54f0a7bc7d2012fb0", "rental_uris": {"ios": "https://dc.lft.to/lastmile_qr_scan", "android": "https://dc.lft.to/lastmile_qr_scan"}, "fusion_lon": 0.0, "lat": 38.89465833333333, "is_disabled": 0, "bike_id": "1e69011ec00566f54f0a7bc7d2012fb0", "fusion_lat": 0.0, "is_reserved": 0, "lon": -77.016603}, {"type": "electric_scooter", "name": "6f674564b8bd4210b7b36d8cf089bae2", "rental_uris": {"ios": "https://dc.lft.to/lastmile_qr_scan", "android": "https://dc.lft.to/lastmile_qr_scan"}, "fusion_lon": 0.0, "lat": 38.9057215, "is_disabled": 0, "bike_id": "6f674564b8bd4210b7b36d8cf089bae2", "fusion_lat": 0.0, "is_reserved": 0, "lon": -77.026623}, {"type": "electric_scooter", "name": "966addebc3b5107ea4d9789bb15832aa", "rental_uris": {"ios": "https://dc.lft.to/lastmile_qr_scan", "android": "https://dc.lft.to/lastmile_qr_scan"}, "fusion_lon": 0.0, "lat": 38.91533666666667, "is_disabled": 0, "bike_id": "966addebc3b5107ea4d9789bb15832aa", "fusion_lat": 0.0, "is_reserved": 0, "lon": -77.01219066666667}, {"type": "electric_scooter", "name": "eb80e6b029d180ae39ea80f7a481782e", "rental_uris": {"ios": "https://dc.lft.to/lastmile_qr_scan", "android": "https://dc.lft.to/lastmile_qr_scan"}, "fusion_lon": 0.0, "lat": 38.911764, "is_disabled": 0, "bike_id": "eb80e6b029d180ae39ea80f7a481782e", "fusion_lat": 0.0, "is_reserved": 0, "lon": -77.00249333333333}, {"type": "electric_scooter", "name": "38260f0c221d8894886251aedbf71145", "rental_uris": {"ios": "https://dc.lft.to/lastmile_qr_scan", "android": "https://dc.lft.to/lastmile_qr_scan"}, "fusion_lon": 0.0, "lat": 38.92082583333333, "is_disabled": 0, "bike_id": "38260f0c221d8894886251aedbf71145", "fusion_lat": 0.0, "is_reserved": 0, "lon": -77.02470666666666}, {"type": "electric_scooter", "name": "7120b123070a22f0101c71bada9dd8f5", "rental_uris": {"ios": "https://dc.lft.to/lastmile_qr_scan", "android": "https://dc.lft.to/lastmile_qr_scan"}, "fusion_lon": 0.0, "lat": 38.900615, "is_disabled": 0, "bike_id": "7120b123070a22f0101c71bada9dd8f5", "fusion_lat": 0.0, "is_reserved": 0, "lon": -77.05423233333333}, {"type": "electric_scooter", "name": "b2820efb05e39b182bc4d616fa4c079d", "rental_uris": {"ios": "https://dc.lft.to/lastmile_qr_scan", "android": "https://dc.lft.to/lastmile_qr_scan"}, "fusion_lon": 0.0, "lat": 38.91036316666667, "is_disabled": 0, "bike_id": "b2820efb05e39b182bc4d616fa4c079d", "fusion_lat": 0.0, "is_reserved": 0, "lon": -77.07572833333333}, {"type": "electric_bike", "name": "462c6fddb3b6a611b86b4b8cd1dc1ac2", "rental_uris": {"ios": "https://dc.lft.to/lastmile_qr_scan", "android": "https://dc.lft.to/lastmile_qr_scan"}, "fusion_lon": 0.0, "lat": 38.8849255, "is_disabled": 0, "bike_id": "462c6fddb3b6a611b86b4b8cd1dc1ac2", "fusion_lat": 0.0, "is_reserved": 0, "lon": -76.9566935}, {"type": "electric_scooter", "name": "7da9d9c0b9f9d35f9a48f439b8ff3888", "rental_uris": {"ios": "https://dc.lft.to/lastmile_qr_scan", "android": "https://dc.lft.to/lastmile_qr_scan"}, "fusion_lon": 0.0, "lat": 38.88141233333333, "is_disabled": 0, "bike_id": "7da9d9c0b9f9d35f9a48f439b8ff3888", "fusion_lat": 0.0, "is_reserved": 0, "lon": -77.0273635}, {"type": "electric_scooter", "name": "783dfa996c43356842bb3031afc91e16", "rental_uris": {"ios": "https://dc.lft.to/lastmile_qr_scan", "android": "https://dc.lft.to/lastmile_qr_scan"}, "fusion_lon": 0.0, "lat": 38.91416383333333, "is_disabled": 0, "bike_id": "783dfa996c43356842bb3031afc91e16", "fusion_lat": 0.0, "is_reserved": 0, "lon": -77.018158}, {"type": "electric_scooter", "name": "91409de2d8263458ddcbb29066e6e882", "rental_uris": {"ios": "https://dc.lft.to/lastmile_qr_scan", "android": "https://dc.lft.to/lastmile_qr_scan"}, "fusion_lon": 0.0, "lat": 38.93873416666667, "is_disabled": 0, "bike_id": "91409de2d8263458ddcbb29066e6e882", "fusion_lat": 0.0, "is_reserved": 0, "lon": -77.02468166666667}, {"type": "electric_scooter", "name": "7eca1064b46ae14daa90ac5611db2dbd", "rental_uris": {"ios": "https://dc.lft.to/lastmile_qr_scan", "android": "https://dc.lft.to/lastmile_qr_scan"}, "fusion_lon": 0.0, "lat": 38.907466666666664, "is_disabled": 0, "bike_id": "7eca1064b46ae14daa90ac5611db2dbd", "fusion_lat": 0.0, "is_reserved": 0, "lon": -77.00781883333333}, {"type": "electric_scooter", "name": "4783490a6741d6b19fdab92143e44c3a", "rental_uris": {"ios": "https://dc.lft.to/lastmile_qr_scan", "android": "https://dc.lft.to/lastmile_qr_scan"}, "fusion_lon": 0.0, "lat": 38.88614466666667, "is_disabled": 0, "bike_id": "4783490a6741d6b19fdab92143e44c3a", "fusion_lat": 0.0, "is_reserved": 0, "lon": -77.0124915}, {"type": "electric_scooter", "name": "a20f5177a76f39ad1eb58270f4435120", "rental_uris": {"ios": "https://dc.lft.to/lastmile_qr_scan", "android": "https://dc.lft.to/lastmile_qr_scan"}, "fusion_lon": 0.0, "lat": 38.88306883333333, "is_disabled": 0, "bike_id": "a20f5177a76f39ad1eb58270f4435120", "fusion_lat": 0.0, "is_reserved": 0, "lon": -77.01729733333333}, {"type": "electric_scooter", "name": "245d6a84f95894841cd5540d53decbe3", "rental_uris": {"ios": "https://dc.lft.to/lastmile_qr_scan", "android": "https://dc.lft.to/lastmile_qr_scan"}, "fusion_lon": 0.0, "lat": 38.917826, "is_disabled": 0, "bike_id": "245d6a84f95894841cd5540d53decbe3", "fusion_lat": 0.0, "is_reserved": 0, "lon": -77.02282733333334}, {"type": "electric_scooter", "name": "eb6b8e2c6d2ff0a245499b9bcd4ea95b", "rental_uris": {"ios": "https://dc.lft.to/lastmile_qr_scan", "android": "https://dc.lft.to/lastmile_qr_scan"}, "fusion_lon": 0.0, "lat": 38.91469766666667, "is_disabled": 0, "bike_id": "eb6b8e2c6d2ff0a245499b9bcd4ea95b", "fusion_lat": 0.0, "is_reserved": 0, "lon": -77.038836}, {"type": "electric_scooter", "name": "ae1040718445b5645d2193799372311d", "rental_uris": {"ios": "https://dc.lft.to/lastmile_qr_scan", "android": "https://dc.lft.to/lastmile_qr_scan"}, "fusion_lon": 0.0, "lat": 38.91932, "is_disabled": 0, "bike_id": "ae1040718445b5645d2193799372311d", "fusion_lat": 0.0, "is_reserved": 0, "lon": -77.0135565}, {"type": "electric_scooter", "name": "c5b32fdb5f3a9bc235b01a955a5cd9e4", "rental_uris": {"ios": "https://dc.lft.to/lastmile_qr_scan", "android": "https://dc.lft.to/lastmile_qr_scan"}, "fusion_lon": 0.0, "lat": 38.9001325, "is_disabled": 0, "bike_id": "c5b32fdb5f3a9bc235b01a955a5cd9e4", "fusion_lat": 0.0, "is_reserved": 0, "lon": -77.03182683333333}, {"type": "electric_scooter", "name": "96c736d90be4d14f9bfd96d40440c2e1", "rental_uris": {"ios": "https://dc.lft.to/lastmile_qr_scan", "android": "https://dc.lft.to/lastmile_qr_scan"}, "fusion_lon": 0.0, "lat": 38.86424266666667, "is_disabled": 0, "bike_id": "96c736d90be4d14f9bfd96d40440c2e1", "fusion_lat": 0.0, "is_reserved": 0, "lon": -76.99009683333334}, {"type": "electric_scooter", "name": "f1e796e731d3f19bc76c3aba75b28f8d", "rental_uris": {"ios": "https://dc.lft.to/lastmile_qr_scan", "android": "https://dc.lft.to/lastmile_qr_scan"}, "fusion_lon": 0.0, "lat": 38.89042583333333, "is_disabled": 0, "bike_id": "f1e796e731d3f19bc76c3aba75b28f8d", "fusion_lat": 0.0, "is_reserved": 0, "lon": -76.9524715}, {"type": "electric_scooter", "name": "20c83dee54edb92ab860df09fb0b7ca2", "rental_uris": {"ios": "https://dc.lft.to/lastmile_qr_scan", "android": "https://dc.lft.to/lastmile_qr_scan"}, "fusion_lon": 0.0, "lat": 38.911097, "is_disabled": 0, "bike_id": "20c83dee54edb92ab860df09fb0b7ca2", "fusion_lat": 0.0, "is_reserved": 0, "lon": -77.02419866666666}, {"type": "electric_scooter", "name": "99f39f3ae728e27cbe78ff3785ab4dd5", "rental_uris": {"ios": "https://dc.lft.to/lastmile_qr_scan", "android": "https://dc.lft.to/lastmile_qr_scan"}, "fusion_lon": 0.0, "lat": 38.924141166666665, "is_disabled": 0, "bike_id": "99f39f3ae728e27cbe78ff3785ab4dd5", "fusion_lat": 0.0, "is_reserved": 0, "lon": -77.02033316666666}, {"type": "electric_scooter", "name": "9351ccd6f3dac1f121ce19e37dbd62f6", "rental_uris": {"ios": "https://dc.lft.to/lastmile_qr_scan", "android": "https://dc.lft.to/lastmile_qr_scan"}, "fusion_lon": 0.0, "lat": 38.89232166666667, "is_disabled": 0, "bike_id": "9351ccd6f3dac1f121ce19e37dbd62f6", "fusion_lat": 0.0, "is_reserved": 0, "lon": -77.041592}, {"type": "electric_scooter", "name": "675082c45ef79f0e140ce61f163fb229", "rental_uris": {"ios": "https://dc.lft.to/lastmile_qr_scan", "android": "https://dc.lft.to/lastmile_qr_scan"}, "fusion_lon": 0.0, "lat": 38.87656533333333, "is_disabled": 0, "bike_id": "675082c45ef79f0e140ce61f163fb229", "fusion_lat": 0.0, "is_reserved": 0, "lon": -77.0172005}, {"type": "electric_scooter", "name": "34740b3ddb80d9a85f0d76a85a3c3ea2", "rental_uris": {"ios": "https://dc.lft.to/lastmile_qr_scan", "android": "https://dc.lft.to/lastmile_qr_scan"}, "fusion_lon": 0.0, "lat": 38.88909016666667, "is_disabled": 0, "bike_id": "34740b3ddb80d9a85f0d76a85a3c3ea2", "fusion_lat": 0.0, "is_reserved": 0, "lon": -76.93691566666666}, {"type": "electric_scooter", "name": "ed971f62e02a4e8fde2193d7f1dc9ac7", "rental_uris": {"ios": "https://dc.lft.to/lastmile_qr_scan", "android": "https://dc.lft.to/lastmile_qr_scan"}, "fusion_lon": 0.0, "lat": 38.891449333333334, "is_disabled": 0, "bike_id": "ed971f62e02a4e8fde2193d7f1dc9ac7", "fusion_lat": 0.0, "is_reserved": 0, "lon": -76.99253116666667}, {"type": "electric_scooter", "name": "4ff6b8de6a4f9ca707568c546f51b6a5", "rental_uris": {"ios": "https://dc.lft.to/lastmile_qr_scan", "android": "https://dc.lft.to/lastmile_qr_scan"}, "fusion_lon": 0.0, "lat": 38.882994333333336, "is_disabled": 0, "bike_id": "4ff6b8de6a4f9ca707568c546f51b6a5", "fusion_lat": 0.0, "is_reserved": 0, "lon": -76.9485065}, {"type": "electric_bike", "name": "8fa660bb177868c7bbc3800db0ec5d00", "rental_uris": {"ios": "https://dc.lft.to/lastmile_qr_scan", "android": "https://dc.lft.to/lastmile_qr_scan"}, "fusion_lon": 0.0, "lat": 38.93879283333333, "is_disabled": 0, "bike_id": "8fa660bb177868c7bbc3800db0ec5d00", "fusion_lat": 0.0, "is_reserved": 0, "lon": -76.99032533333333}, {"type": "electric_scooter", "name": "a8a699254c36f1a50089321b6c0cc73e", "rental_uris": {"ios": "https://dc.lft.to/lastmile_qr_scan", "android": "https://dc.lft.to/lastmile_qr_scan"}, "fusion_lon": 0.0, "lat": 38.9171295, "is_disabled": 0, "bike_id": "a8a699254c36f1a50089321b6c0cc73e", "fusion_lat": 0.0, "is_reserved": 0, "lon": -77.02384533333333}, {"type": "electric_bike", "name": "63b2b12b0d6d884c7e0fed6588c47a3c", "rental_uris": {"ios": "https://dc.lft.to/lastmile_qr_scan", "android": "https://dc.lft.to/lastmile_qr_scan"}, "fusion_lon": 0.0, "lat": 38.88530733333333, "is_disabled": 0, "bike_id": "63b2b12b0d6d884c7e0fed6588c47a3c", "fusion_lat": 0.0, "is_reserved": 0, "lon": -77.1219185}, {"type": "electric_scooter", "name": "4334a77fde483cfb85f3685e4507054c", "rental_uris": {"ios": "https://dc.lft.to/lastmile_qr_scan", "android": "https://dc.lft.to/lastmile_qr_scan"}, "fusion_lon": 0.0, "lat": 38.92434866666667, "is_disabled": 0, "bike_id": "4334a77fde483cfb85f3685e4507054c", "fusion_lat": 0.0, "is_reserved": 0, "lon": -77.02135116666666}, {"type": "electric_scooter", "name": "21b7dcc544cc3970c33828c90d866226", "rental_uris": {"ios": "https://dc.lft.to/lastmile_qr_scan", "android": "https://dc.lft.to/lastmile_qr_scan"}, "fusion_lon": 0.0, "lat": 38.908527166666666, "is_disabled": 0, "bike_id": "21b7dcc544cc3970c33828c90d866226", "fusion_lat": 0.0, "is_reserved": 0, "lon": -76.9980575}, {"type": "electric_scooter", "name": "dbdbb66716ee6c527863eb21f0031d55", "rental_uris": {"ios": "https://dc.lft.to/lastmile_qr_scan", "android": "https://dc.lft.to/lastmile_qr_scan"}, "fusion_lon": 0.0, "lat": 38.9050775, "is_disabled": 0, "bike_id": "dbdbb66716ee6c527863eb21f0031d55", "fusion_lat": 0.0, "is_reserved": 0, "lon": -77.02984716666667}, {"type": "electric_scooter", "name": "906589154d634c76896aa74bb70f5bf2", "rental_uris": {"ios": "https://dc.lft.to/lastmile_qr_scan", "android": "https://dc.lft.to/lastmile_qr_scan"}, "fusion_lon": 0.0, "lat": 38.872884666666664, "is_disabled": 0, "bike_id": "906589154d634c76896aa74bb70f5bf2", "fusion_lat": 0.0, "is_reserved": 0, "lon": -77.00990116666667}, {"type": "electric_scooter", "name": "1b63d003495461d139e173ce072561a4", "rental_uris": {"ios": "https://dc.lft.to/lastmile_qr_scan", "android": "https://dc.lft.to/lastmile_qr_scan"}, "fusion_lon": 0.0, "lat": 38.922946, "is_disabled": 0, "bike_id": "1b63d003495461d139e173ce072561a4", "fusion_lat": 0.0, "is_reserved": 0, "lon": -77.027115}, {"type": "electric_bike", "name": "7663edbf2fda27271cb7399a2d08d59c", "rental_uris": {"ios": "https://dc.lft.to/lastmile_qr_scan", "android": "https://dc.lft.to/lastmile_qr_scan"}, "fusion_lon": 0.0, "lat": 38.84130533333333, "is_disabled": 0, "bike_id": "7663edbf2fda27271cb7399a2d08d59c", "fusion_lat": 0.0, "is_reserved": 0, "lon": -77.0631155}, {"type": "electric_scooter", "name": "7d1f213ce00d657215bad39a6deab60d", "rental_uris": {"ios": "https://dc.lft.to/lastmile_qr_scan", "android": "https://dc.lft.to/lastmile_qr_scan"}, "fusion_lon": 0.0, "lat": 38.907417, "is_disabled": 0, "bike_id": "7d1f213ce00d657215bad39a6deab60d", "fusion_lat": 0.0, "is_reserved": 0, "lon": -77.02693516666666}, {"type": "electric_scooter", "name": "46b1a8c0d15d40ac6346d00f91bea44b", "rental_uris": {"ios": "https://dc.lft.to/lastmile_qr_scan", "android": "https://dc.lft.to/lastmile_qr_scan"}, "fusion_lon": 0.0, "lat": 38.898479, "is_disabled": 0, "bike_id": "46b1a8c0d15d40ac6346d00f91bea44b", "fusion_lat": 0.0, "is_reserved": 0, "lon": -77.03145066666667}, {"type": "electric_scooter", "name": "3795fe0735b68be061cbdd628bd2a4d1", "rental_uris": {"ios": "https://dc.lft.to/lastmile_qr_scan", "android": "https://dc.lft.to/lastmile_qr_scan"}, "fusion_lon": 0.0, "lat": 38.883751333333336, "is_disabled": 0, "bike_id": "3795fe0735b68be061cbdd628bd2a4d1", "fusion_lat": 0.0, "is_reserved": 0, "lon": -76.92913866666666}, {"type": "electric_scooter", "name": "125e06f799dceecb2e25e698880305f2", "rental_uris": {"ios": "https://dc.lft.to/lastmile_qr_scan", "android": "https://dc.lft.to/lastmile_qr_scan"}, "fusion_lon": 0.0, "lat": 38.8999035, "is_disabled": 0, "bike_id": "125e06f799dceecb2e25e698880305f2", "fusion_lat": 0.0, "is_reserved": 0, "lon": -76.982328}, {"type": "electric_scooter", "name": "4829132fd1e2085ae404c5eca288a23b", "rental_uris": {"ios": "https://dc.lft.to/lastmile_qr_scan", "android": "https://dc.lft.to/lastmile_qr_scan"}, "fusion_lon": 0.0, "lat": 38.92400816666667, "is_disabled": 0, "bike_id": "4829132fd1e2085ae404c5eca288a23b", "fusion_lat": 0.0, "is_reserved": 0, "lon": -77.04306916666667}, {"type": "electric_scooter", "name": "4fcd1fa9adc79dec9ccf853433cc32f8", "rental_uris": {"ios": "https://dc.lft.to/lastmile_qr_scan", "android": "https://dc.lft.to/lastmile_qr_scan"}, "fusion_lon": 0.0, "lat": 38.89257333333333, "is_disabled": 0, "bike_id": "4fcd1fa9adc79dec9ccf853433cc32f8", "fusion_lat": 0.0, "is_reserved": 0, "lon": -77.00343733333334}, {"type": "electric_scooter", "name": "099be779817b0ea8ea2ac67aab4ab759", "rental_uris": {"ios": "https://dc.lft.to/lastmile_qr_scan", "android": "https://dc.lft.to/lastmile_qr_scan"}, "fusion_lon": 0.0, "lat": 38.90936833333333, "is_disabled": 0, "bike_id": "099be779817b0ea8ea2ac67aab4ab759", "fusion_lat": 0.0, "is_reserved": 0, "lon": -77.02813866666666}, {"type": "electric_scooter", "name": "ba464789cbd5dc16cf590e40928375e9", "rental_uris": {"ios": "https://dc.lft.to/lastmile_qr_scan", "android": "https://dc.lft.to/lastmile_qr_scan"}, "fusion_lon": 0.0, "lat": 38.90752066666667, "is_disabled": 0, "bike_id": "ba464789cbd5dc16cf590e40928375e9", "fusion_lat": 0.0, "is_reserved": 0, "lon": -76.998784}, {"type": "electric_scooter", "name": "9734ffe5f2324cf07f1405ff27de2eed", "rental_uris": {"ios": "https://dc.lft.to/lastmile_qr_scan", "android": "https://dc.lft.to/lastmile_qr_scan"}, "fusion_lon": 0.0, "lat": 38.91633866666667, "is_disabled": 0, "bike_id": "9734ffe5f2324cf07f1405ff27de2eed", "fusion_lat": 0.0, "is_reserved": 0, "lon": -77.04786683333333}, {"type": "electric_scooter", "name": "c437a0cc657242ec2f059c76779bcfac", "rental_uris": {"ios": "https://dc.lft.to/lastmile_qr_scan", "android": "https://dc.lft.to/lastmile_qr_scan"}, "fusion_lon": 0.0, "lat": 38.9294975, "is_disabled": 0, "bike_id": "c437a0cc657242ec2f059c76779bcfac", "fusion_lat": 0.0, "is_reserved": 0, "lon": -77.04407166666667}, {"type": "electric_scooter", "name": "ce4a161e1bf0b100195ebe1b7ffd0489", "rental_uris": {"ios": "https://dc.lft.to/lastmile_qr_scan", "android": "https://dc.lft.to/lastmile_qr_scan"}, "fusion_lon": 0.0, "lat": 38.9204715, "is_disabled": 0, "bike_id": "ce4a161e1bf0b100195ebe1b7ffd0489", "fusion_lat": 0.0, "is_reserved": 0, "lon": -77.02579383333334}, {"type": "electric_scooter", "name": "356abad22e240fab495c29c36e2101fb", "rental_uris": {"ios": "https://dc.lft.to/lastmile_qr_scan", "android": "https://dc.lft.to/lastmile_qr_scan"}, "fusion_lon": 0.0, "lat": 38.85550966666667, "is_disabled": 0, "bike_id": "356abad22e240fab495c29c36e2101fb", "fusion_lat": 0.0, "is_reserved": 0, "lon": -76.98754133333334}, {"type": "electric_scooter", "name": "377f15fbf52561060ab8b1a3a1b65adc", "rental_uris": {"ios": "https://dc.lft.to/lastmile_qr_scan", "android": "https://dc.lft.to/lastmile_qr_scan"}, "fusion_lon": 0.0, "lat": 38.91714833333333, "is_disabled": 0, "bike_id": "377f15fbf52561060ab8b1a3a1b65adc", "fusion_lat": 0.0, "is_reserved": 0, "lon": -77.0386805}, {"type": "electric_scooter", "name": "5a58f914b286546838602b73495f5790", "rental_uris": {"ios": "https://dc.lft.to/lastmile_qr_scan", "android": "https://dc.lft.to/lastmile_qr_scan"}, "fusion_lon": 0.0, "lat": 38.92297033333333, "is_disabled": 0, "bike_id": "5a58f914b286546838602b73495f5790", "fusion_lat": 0.0, "is_reserved": 0, "lon": -77.04269633333334}, {"type": "electric_scooter", "name": "88adbf9133870cfe329e83d27bc33d78", "rental_uris": {"ios": "https://dc.lft.to/lastmile_qr_scan", "android": "https://dc.lft.to/lastmile_qr_scan"}, "fusion_lon": 0.0, "lat": 38.89744733333333, "is_disabled": 0, "bike_id": "88adbf9133870cfe329e83d27bc33d78", "fusion_lat": 0.0, "is_reserved": 0, "lon": -77.00919416666666}, {"type": "electric_bike", "name": "e4ca60bf96ee3ae74fce7b061e0a3877", "rental_uris": {"ios": "https://dc.lft.to/lastmile_qr_scan", "android": "https://dc.lft.to/lastmile_qr_scan"}, "fusion_lon": 0.0, "lat": 38.840862, "is_disabled": 0, "bike_id": "e4ca60bf96ee3ae74fce7b061e0a3877", "fusion_lat": 0.0, "is_reserved": 0, "lon": -76.9702645}, {"type": "electric_scooter", "name": "fd8748baeec35a89299380b97926853f", "rental_uris": {"ios": "https://dc.lft.to/lastmile_qr_scan", "android": "https://dc.lft.to/lastmile_qr_scan"}, "fusion_lon": 0.0, "lat": 38.91707316666667, "is_disabled": 0, "bike_id": "fd8748baeec35a89299380b97926853f", "fusion_lat": 0.0, "is_reserved": 0, "lon": -77.03218716666667}, {"type": "electric_scooter", "name": "052bb4f5b2c87ebd091252e8bfad5b9d", "rental_uris": {"ios": "https://dc.lft.to/lastmile_qr_scan", "android": "https://dc.lft.to/lastmile_qr_scan"}, "fusion_lon": 0.0, "lat": 38.897160166666666, "is_disabled": 0, "bike_id": "052bb4f5b2c87ebd091252e8bfad5b9d", "fusion_lat": 0.0, "is_reserved": 0, "lon": -77.043272}, {"type": "electric_bike", "name": "35ee4920f2b553e54c8038cec059ed11", "rental_uris": {"ios": "https://dc.lft.to/lastmile_qr_scan", "android": "https://dc.lft.to/lastmile_qr_scan"}, "fusion_lon": 0.0, "lat": 38.8835765, "is_disabled": 0, "bike_id": "35ee4920f2b553e54c8038cec059ed11", "fusion_lat": 0.0, "is_reserved": 0, "lon": -76.9821095}, {"type": "electric_scooter", "name": "96dcfed08d64c8ffca469d197e8fbd30", "rental_uris": {"ios": "https://dc.lft.to/lastmile_qr_scan", "android": "https://dc.lft.to/lastmile_qr_scan"}, "fusion_lon": 0.0, "lat": 38.901117, "is_disabled": 0, "bike_id": "96dcfed08d64c8ffca469d197e8fbd30", "fusion_lat": 0.0, "is_reserved": 0, "lon": -77.04483833333333}, {"type": "electric_scooter", "name": "c59a7977097089fd39221bd1d205b498", "rental_uris": {"ios": "https://dc.lft.to/lastmile_qr_scan", "android": "https://dc.lft.to/lastmile_qr_scan"}, "fusion_lon": 0.0, "lat": 38.925072, "is_disabled": 0, "bike_id": "c59a7977097089fd39221bd1d205b498", "fusion_lat": 0.0, "is_reserved": 0, "lon": -77.0023175}, {"type": "electric_scooter", "name": "a62202a62bfd519f1d6b17e2210210bd", "rental_uris": {"ios": "https://dc.lft.to/lastmile_qr_scan", "android": "https://dc.lft.to/lastmile_qr_scan"}, "fusion_lon": 0.0, "lat": 38.91985, "is_disabled": 0, "bike_id": "a62202a62bfd519f1d6b17e2210210bd", "fusion_lat": 0.0, "is_reserved": 0, "lon": -76.97311366666666}, {"type": "electric_scooter", "name": "26938619ebd20d4c6bc5bc2130b90049", "rental_uris": {"ios": "https://dc.lft.to/lastmile_qr_scan", "android": "https://dc.lft.to/lastmile_qr_scan"}, "fusion_lon": 0.0, "lat": 38.931137666666665, "is_disabled": 0, "bike_id": "26938619ebd20d4c6bc5bc2130b90049", "fusion_lat": 0.0, "is_reserved": 0, "lon": -77.02121583333333}, {"type": "electric_scooter", "name": "e2e411d09ab53351d7e33a4ed2816cb8", "rental_uris": {"ios": "https://dc.lft.to/lastmile_qr_scan", "android": "https://dc.lft.to/lastmile_qr_scan"}, "fusion_lon": 0.0, "lat": 38.899865, "is_disabled": 0, "bike_id": "e2e411d09ab53351d7e33a4ed2816cb8", "fusion_lat": 0.0, "is_reserved": 0, "lon": -77.00677266666666}, {"type": "electric_scooter", "name": "9ef05b7f51472fc319aa42cf0fe2e2b3", "rental_uris": {"ios": "https://dc.lft.to/lastmile_qr_scan", "android": "https://dc.lft.to/lastmile_qr_scan"}, "fusion_lon": 0.0, "lat": 38.9123815, "is_disabled": 0, "bike_id": "9ef05b7f51472fc319aa42cf0fe2e2b3", "fusion_lat": 0.0, "is_reserved": 0, "lon": -77.04530183333334}, {"type": "electric_scooter", "name": "134c26ea2eea46147e8cc19126ee9854", "rental_uris": {"ios": "https://dc.lft.to/lastmile_qr_scan", "android": "https://dc.lft.to/lastmile_qr_scan"}, "fusion_lon": 0.0, "lat": 38.911093666666666, "is_disabled": 0, "bike_id": "134c26ea2eea46147e8cc19126ee9854", "fusion_lat": 0.0, "is_reserved": 0, "lon": -77.042281}, {"type": "electric_scooter", "name": "f4f96f5fe96dc39990cdf762f2b3fcec", "rental_uris": {"ios": "https://dc.lft.to/lastmile_qr_scan", "android": "https://dc.lft.to/lastmile_qr_scan"}, "fusion_lon": 0.0, "lat": 38.8772235, "is_disabled": 0, "bike_id": "f4f96f5fe96dc39990cdf762f2b3fcec", "fusion_lat": 0.0, "is_reserved": 0, "lon": -77.00742983333333}, {"type": "electric_scooter", "name": "58022b4a6efe9a235a45c2edaac2d770", "rental_uris": {"ios": "https://dc.lft.to/lastmile_qr_scan", "android": "https://dc.lft.to/lastmile_qr_scan"}, "fusion_lon": 0.0, "lat": 38.920275, "is_disabled": 0, "bike_id": "58022b4a6efe9a235a45c2edaac2d770", "fusion_lat": 0.0, "is_reserved": 0, "lon": -77.01288083333333}, {"type": "electric_scooter", "name": "6f7568ffa01ffe077bf8df550dbc724d", "rental_uris": {"ios": "https://dc.lft.to/lastmile_qr_scan", "android": "https://dc.lft.to/lastmile_qr_scan"}, "fusion_lon": 0.0, "lat": 38.892212666666666, "is_disabled": 0, "bike_id": "6f7568ffa01ffe077bf8df550dbc724d", "fusion_lat": 0.0, "is_reserved": 0, "lon": -77.04775316666667}, {"type": "electric_scooter", "name": "182f7da84fcd1b0c4db4f66f39518647", "rental_uris": {"ios": "https://dc.lft.to/lastmile_qr_scan", "android": "https://dc.lft.to/lastmile_qr_scan"}, "fusion_lon": 0.0, "lat": 38.92321183333333, "is_disabled": 0, "bike_id": "182f7da84fcd1b0c4db4f66f39518647", "fusion_lat": 0.0, "is_reserved": 0, "lon": -77.04190666666666}, {"type": "electric_scooter", "name": "9f98fb70a3e8b7d09425eef1d2725ab5", "rental_uris": {"ios": "https://dc.lft.to/lastmile_qr_scan", "android": "https://dc.lft.to/lastmile_qr_scan"}, "fusion_lon": 0.0, "lat": 38.89933283333333, "is_disabled": 0, "bike_id": "9f98fb70a3e8b7d09425eef1d2725ab5", "fusion_lat": 0.0, "is_reserved": 0, "lon": -77.04177733333333}, {"type": "electric_scooter", "name": "cf1ca25d6f76b0c52538dcd71eaf89b1", "rental_uris": {"ios": "https://dc.lft.to/lastmile_qr_scan", "android": "https://dc.lft.to/lastmile_qr_scan"}, "fusion_lon": 0.0, "lat": 38.8655915, "is_disabled": 0, "bike_id": "cf1ca25d6f76b0c52538dcd71eaf89b1", "fusion_lat": 0.0, "is_reserved": 0, "lon": -76.9835125}, {"type": "electric_scooter", "name": "693502aed131f9201d59de952d7ee27f", "rental_uris": {"ios": "https://dc.lft.to/lastmile_qr_scan", "android": "https://dc.lft.to/lastmile_qr_scan"}, "fusion_lon": 0.0, "lat": 38.8922195, "is_disabled": 0, "bike_id": "693502aed131f9201d59de952d7ee27f", "fusion_lat": 0.0, "is_reserved": 0, "lon": -77.04517}, {"type": "electric_scooter", "name": "2c41aa2654c5824298abb256fc2a2490", "rental_uris": {"ios": "https://dc.lft.to/lastmile_qr_scan", "android": "https://dc.lft.to/lastmile_qr_scan"}, "fusion_lon": 0.0, "lat": 38.88258116666667, "is_disabled": 0, "bike_id": "2c41aa2654c5824298abb256fc2a2490", "fusion_lat": 0.0, "is_reserved": 0, "lon": -76.99488983333333}, {"type": "electric_bike", "name": "7655df43f6a900f2164b26c85c401b06", "rental_uris": {"ios": "https://dc.lft.to/lastmile_qr_scan", "android": "https://dc.lft.to/lastmile_qr_scan"}, "fusion_lon": 0.0, "lat": 38.81893316666667, "is_disabled": 0, "bike_id": "7655df43f6a900f2164b26c85c401b06", "fusion_lat": 0.0, "is_reserved": 0, "lon": -77.12878283333333}, {"type": "electric_scooter", "name": "d8a561dfd14ce719fdfa08fd99f24fb3", "rental_uris": {"ios": "https://dc.lft.to/lastmile_qr_scan", "android": "https://dc.lft.to/lastmile_qr_scan"}, "fusion_lon": 0.0, "lat": 38.919079833333335, "is_disabled": 0, "bike_id": "d8a561dfd14ce719fdfa08fd99f24fb3", "fusion_lat": 0.0, "is_reserved": 0, "lon": -77.04104783333334}, {"type": "electric_scooter", "name": "a379f8b280a6195900a660ad09699253", "rental_uris": {"ios": "https://dc.lft.to/lastmile_qr_scan", "android": "https://dc.lft.to/lastmile_qr_scan"}, "fusion_lon": 0.0, "lat": 38.9048945, "is_disabled": 0, "bike_id": "a379f8b280a6195900a660ad09699253", "fusion_lat": 0.0, "is_reserved": 0, "lon": -77.02962066666667}, {"type": "electric_scooter", "name": "46146d9c426dea497bcfbab17032cf36", "rental_uris": {"ios": "https://dc.lft.to/lastmile_qr_scan", "android": "https://dc.lft.to/lastmile_qr_scan"}, "fusion_lon": 0.0, "lat": 38.909846333333334, "is_disabled": 0, "bike_id": "46146d9c426dea497bcfbab17032cf36", "fusion_lat": 0.0, "is_reserved": 0, "lon": -77.065022}, {"type": "electric_bike", "name": "d857244b526c111054113ff670a8d8ca", "rental_uris": {"ios": "https://dc.lft.to/lastmile_qr_scan", "android": "https://dc.lft.to/lastmile_qr_scan"}, "fusion_lon": 0.0, "lat": 39.052539, "is_disabled": 0, "bike_id": "d857244b526c111054113ff670a8d8ca", "fusion_lat": 0.0, "is_reserved": 0, "lon": -77.08067933333334}, {"type": "electric_scooter", "name": "6903b0f84c85bbc0e85924f387183c64", "rental_uris": {"ios": "https://dc.lft.to/lastmile_qr_scan", "android": "https://dc.lft.to/lastmile_qr_scan"}, "fusion_lon": 0.0, "lat": 38.939099666666664, "is_disabled": 0, "bike_id": "6903b0f84c85bbc0e85924f387183c64", "fusion_lat": 0.0, "is_reserved": 0, "lon": -77.03621033333333}, {"type": "electric_scooter", "name": "cd7fea4a49e674677ff067341164e812", "rental_uris": {"ios": "https://dc.lft.to/lastmile_qr_scan", "android": "https://dc.lft.to/lastmile_qr_scan"}, "fusion_lon": 0.0, "lat": 38.89620983333333, "is_disabled": 0, "bike_id": "cd7fea4a49e674677ff067341164e812", "fusion_lat": 0.0, "is_reserved": 0, "lon": -77.0092505}, {"type": "electric_scooter", "name": "43251d6d1241d7c814f0ad49763032d4", "rental_uris": {"ios": "https://dc.lft.to/lastmile_qr_scan", "android": "https://dc.lft.to/lastmile_qr_scan"}, "fusion_lon": 0.0, "lat": 38.87372083333333, "is_disabled": 0, "bike_id": "43251d6d1241d7c814f0ad49763032d4", "fusion_lat": 0.0, "is_reserved": 0, "lon": -76.96997616666667}, {"type": "electric_scooter", "name": "f3cdca811f1643bda98c66612a2039d4", "rental_uris": {"ios": "https://dc.lft.to/lastmile_qr_scan", "android": "https://dc.lft.to/lastmile_qr_scan"}, "fusion_lon": 0.0, "lat": 38.88330166666667, "is_disabled": 0, "bike_id": "f3cdca811f1643bda98c66612a2039d4", "fusion_lat": 0.0, "is_reserved": 0, "lon": -77.01767516666666}, {"type": "electric_scooter", "name": "f1eb9beafc83603a71be10b95f447b79", "rental_uris": {"ios": "https://dc.lft.to/lastmile_qr_scan", "android": "https://dc.lft.to/lastmile_qr_scan"}, "fusion_lon": 0.0, "lat": 38.898705666666665, "is_disabled": 0, "bike_id": "f1eb9beafc83603a71be10b95f447b79", "fusion_lat": 0.0, "is_reserved": 0, "lon": -76.93186166666666}, {"type": "electric_scooter", "name": "0abf89936ee3680c2a78d51f597adb02", "rental_uris": {"ios": "https://dc.lft.to/lastmile_qr_scan", "android": "https://dc.lft.to/lastmile_qr_scan"}, "fusion_lon": 0.0, "lat": 38.874019833333335, "is_disabled": 0, "bike_id": "0abf89936ee3680c2a78d51f597adb02", "fusion_lat": 0.0, "is_reserved": 0, "lon": -77.00196233333334}, {"type": "electric_scooter", "name": "2f34668d956ea33afd639251f5ae54cf", "rental_uris": {"ios": "https://dc.lft.to/lastmile_qr_scan", "android": "https://dc.lft.to/lastmile_qr_scan"}, "fusion_lon": 0.0, "lat": 38.920598, "is_disabled": 0, "bike_id": "2f34668d956ea33afd639251f5ae54cf", "fusion_lat": 0.0, "is_reserved": 0, "lon": -77.025336}, {"type": "electric_scooter", "name": "ea9c9942de673e38e10a73f243090729", "rental_uris": {"ios": "https://dc.lft.to/lastmile_qr_scan", "android": "https://dc.lft.to/lastmile_qr_scan"}, "fusion_lon": 0.0, "lat": 38.90009083333333, "is_disabled": 0, "bike_id": "ea9c9942de673e38e10a73f243090729", "fusion_lat": 0.0, "is_reserved": 0, "lon": -76.98849116666666}, {"type": "electric_scooter", "name": "21a3522665136bc540013d40c95785fb", "rental_uris": {"ios": "https://dc.lft.to/lastmile_qr_scan", "android": "https://dc.lft.to/lastmile_qr_scan"}, "fusion_lon": 0.0, "lat": 38.8833385, "is_disabled": 0, "bike_id": "21a3522665136bc540013d40c95785fb", "fusion_lat": 0.0, "is_reserved": 0, "lon": -77.01741633333333}, {"type": "electric_scooter", "name": "7dd3a98b44ca86990703b88f60b212e2", "rental_uris": {"ios": "https://dc.lft.to/lastmile_qr_scan", "android": "https://dc.lft.to/lastmile_qr_scan"}, "fusion_lon": 0.0, "lat": 38.90483716666667, "is_disabled": 0, "bike_id": "7dd3a98b44ca86990703b88f60b212e2", "fusion_lat": 0.0, "is_reserved": 0, "lon": -77.03466583333334}, {"type": "electric_scooter", "name": "0e8d425638a1b37937e3623f0a92651a", "rental_uris": {"ios": "https://dc.lft.to/lastmile_qr_scan", "android": "https://dc.lft.to/lastmile_qr_scan"}, "fusion_lon": 0.0, "lat": 38.883029666666665, "is_disabled": 0, "bike_id": "0e8d425638a1b37937e3623f0a92651a", "fusion_lat": 0.0, "is_reserved": 0, "lon": -77.01380533333334}, {"type": "electric_scooter", "name": "d90b7b8efa14ef66089dec688a5409b1", "rental_uris": {"ios": "https://dc.lft.to/lastmile_qr_scan", "android": "https://dc.lft.to/lastmile_qr_scan"}, "fusion_lon": 0.0, "lat": 38.9112085, "is_disabled": 0, "bike_id": "d90b7b8efa14ef66089dec688a5409b1", "fusion_lat": 0.0, "is_reserved": 0, "lon": -77.03733316666667}, {"type": "electric_scooter", "name": "1a64ec1aea25258a13ff17fe72c15ee5", "rental_uris": {"ios": "https://dc.lft.to/lastmile_qr_scan", "android": "https://dc.lft.to/lastmile_qr_scan"}, "fusion_lon": 0.0, "lat": 38.89837283333333, "is_disabled": 0, "bike_id": "1a64ec1aea25258a13ff17fe72c15ee5", "fusion_lat": 0.0, "is_reserved": 0, "lon": -77.03150066666667}, {"type": "electric_bike", "name": "fab2e69b74e4368565237ad8c0a4b1da", "rental_uris": {"ios": "https://dc.lft.to/lastmile_qr_scan", "android": "https://dc.lft.to/lastmile_qr_scan"}, "fusion_lon": 0.0, "lat": 39.03427, "is_disabled": 0, "bike_id": "fab2e69b74e4368565237ad8c0a4b1da", "fusion_lat": 0.0, "is_reserved": 0, "lon": -77.0431905}, {"type": "electric_scooter", "name": "aa237ed51667d54cde781b7d703fe046", "rental_uris": {"ios": "https://dc.lft.to/lastmile_qr_scan", "android": "https://dc.lft.to/lastmile_qr_scan"}, "fusion_lon": 0.0, "lat": 38.9232085, "is_disabled": 0, "bike_id": "aa237ed51667d54cde781b7d703fe046", "fusion_lat": 0.0, "is_reserved": 0, "lon": -77.02963}, {"type": "electric_scooter", "name": "3cc7c8049f23cf7fb89c797c7414545c", "rental_uris": {"ios": "https://dc.lft.to/lastmile_qr_scan", "android": "https://dc.lft.to/lastmile_qr_scan"}, "fusion_lon": 0.0, "lat": 38.925380833333335, "is_disabled": 0, "bike_id": "3cc7c8049f23cf7fb89c797c7414545c", "fusion_lat": 0.0, "is_reserved": 0, "lon": -77.0338195}, {"type": "electric_scooter", "name": "8f4b6b7a91a74d3ffd2674366077d466", "rental_uris": {"ios": "https://dc.lft.to/lastmile_qr_scan", "android": "https://dc.lft.to/lastmile_qr_scan"}, "fusion_lon": 0.0, "lat": 38.90407833333333, "is_disabled": 0, "bike_id": "8f4b6b7a91a74d3ffd2674366077d466", "fusion_lat": 0.0, "is_reserved": 0, "lon": -77.06513616666666}, {"type": "electric_scooter", "name": "35c42035990c138634a325f258374ae7", "rental_uris": {"ios": "https://dc.lft.to/lastmile_qr_scan", "android": "https://dc.lft.to/lastmile_qr_scan"}, "fusion_lon": 0.0, "lat": 38.91704683333333, "is_disabled": 0, "bike_id": "35c42035990c138634a325f258374ae7", "fusion_lat": 0.0, "is_reserved": 0, "lon": -77.040319}, {"type": "electric_scooter", "name": "c0e0e38a3ad16d0fd4bc8741cb1bb208", "rental_uris": {"ios": "https://dc.lft.to/lastmile_qr_scan", "android": "https://dc.lft.to/lastmile_qr_scan"}, "fusion_lon": 0.0, "lat": 38.912630166666666, "is_disabled": 0, "bike_id": "c0e0e38a3ad16d0fd4bc8741cb1bb208", "fusion_lat": 0.0, "is_reserved": 0, "lon": -77.02225066666666}, {"type": "electric_scooter", "name": "283eb26fd4eb171a65208228967fc056", "rental_uris": {"ios": "https://dc.lft.to/lastmile_qr_scan", "android": "https://dc.lft.to/lastmile_qr_scan"}, "fusion_lon": 0.0, "lat": 38.9374895, "is_disabled": 0, "bike_id": "283eb26fd4eb171a65208228967fc056", "fusion_lat": 0.0, "is_reserved": 0, "lon": -77.08597766666666}, {"type": "electric_scooter", "name": "60592e81a61fff88d890567ed7108964", "rental_uris": {"ios": "https://dc.lft.to/lastmile_qr_scan", "android": "https://dc.lft.to/lastmile_qr_scan"}, "fusion_lon": 0.0, "lat": 38.91744883333333, "is_disabled": 0, "bike_id": "60592e81a61fff88d890567ed7108964", "fusion_lat": 0.0, "is_reserved": 0, "lon": -77.02120966666666}, {"type": "electric_scooter", "name": "54c0fc551e800537fce02162fcfc0219", "rental_uris": {"ios": "https://dc.lft.to/lastmile_qr_scan", "android": "https://dc.lft.to/lastmile_qr_scan"}, "fusion_lon": 0.0, "lat": 38.905038166666664, "is_disabled": 0, "bike_id": "54c0fc551e800537fce02162fcfc0219", "fusion_lat": 0.0, "is_reserved": 0, "lon": -77.06137116666666}, {"type": "electric_bike", "name": "45db8e39df28d99b2f8320f4ed235426", "rental_uris": {"ios": "https://dc.lft.to/lastmile_qr_scan", "android": "https://dc.lft.to/lastmile_qr_scan"}, "fusion_lon": 0.0, "lat": 38.972575, "is_disabled": 0, "bike_id": "45db8e39df28d99b2f8320f4ed235426", "fusion_lat": 0.0, "is_reserved": 0, "lon": -76.992737}, {"type": "electric_scooter", "name": "c5e08d7a178b487371850470fc3f6298", "rental_uris": {"ios": "https://dc.lft.to/lastmile_qr_scan", "android": "https://dc.lft.to/lastmile_qr_scan"}, "fusion_lon": 0.0, "lat": 38.90674966666667, "is_disabled": 0, "bike_id": "c5e08d7a178b487371850470fc3f6298", "fusion_lat": 0.0, "is_reserved": 0, "lon": -77.071338}, {"type": "electric_scooter", "name": "88da4bfa57829ab91afb4a806405d373", "rental_uris": {"ios": "https://dc.lft.to/lastmile_qr_scan", "android": "https://dc.lft.to/lastmile_qr_scan"}, "fusion_lon": 0.0, "lat": 38.902462666666665, "is_disabled": 0, "bike_id": "88da4bfa57829ab91afb4a806405d373", "fusion_lat": 0.0, "is_reserved": 0, "lon": -77.03369716666667}, {"type": "electric_bike", "name": "7398bb2d02c2b209e0cece6f7b17e54c", "rental_uris": {"ios": "https://dc.lft.to/lastmile_qr_scan", "android": "https://dc.lft.to/lastmile_qr_scan"}, "fusion_lon": 0.0, "lat": 39.056352833333335, "is_disabled": 0, "bike_id": "7398bb2d02c2b209e0cece6f7b17e54c", "fusion_lat": 0.0, "is_reserved": 0, "lon": -77.12522983333334}, {"type": "electric_scooter", "name": "3942c73c561d85e7828d45d1bccb37a5", "rental_uris": {"ios": "https://dc.lft.to/lastmile_qr_scan", "android": "https://dc.lft.to/lastmile_qr_scan"}, "fusion_lon": 0.0, "lat": 38.933748666666666, "is_disabled": 0, "bike_id": "3942c73c561d85e7828d45d1bccb37a5", "fusion_lat": 0.0, "is_reserved": 0, "lon": -77.02687166666666}, {"type": "electric_scooter", "name": "a85a2878eef75dadbabe65008a19d747", "rental_uris": {"ios": "https://dc.lft.to/lastmile_qr_scan", "android": "https://dc.lft.to/lastmile_qr_scan"}, "fusion_lon": 0.0, "lat": 38.8986, "is_disabled": 0, "bike_id": "a85a2878eef75dadbabe65008a19d747", "fusion_lat": 0.0, "is_reserved": 0, "lon": -77.02821733333333}, {"type": "electric_scooter", "name": "9f2a3da4a4690a1ef3a11bcd4eab623f", "rental_uris": {"ios": "https://dc.lft.to/lastmile_qr_scan", "android": "https://dc.lft.to/lastmile_qr_scan"}, "fusion_lon": 0.0, "lat": 38.9495535, "is_disabled": 0, "bike_id": "9f2a3da4a4690a1ef3a11bcd4eab623f", "fusion_lat": 0.0, "is_reserved": 0, "lon": -77.02317816666667}, {"type": "electric_scooter", "name": "7d3485e12ddd336da0a245c1332bc46e", "rental_uris": {"ios": "https://dc.lft.to/lastmile_qr_scan", "android": "https://dc.lft.to/lastmile_qr_scan"}, "fusion_lon": 0.0, "lat": 38.921166166666666, "is_disabled": 0, "bike_id": "7d3485e12ddd336da0a245c1332bc46e", "fusion_lat": 0.0, "is_reserved": 0, "lon": -77.04686716666667}, {"type": "electric_scooter", "name": "3b8eeeb0372bbcef55deca9b07327d04", "rental_uris": {"ios": "https://dc.lft.to/lastmile_qr_scan", "android": "https://dc.lft.to/lastmile_qr_scan"}, "fusion_lon": 0.0, "lat": 38.9105755, "is_disabled": 0, "bike_id": "3b8eeeb0372bbcef55deca9b07327d04", "fusion_lat": 0.0, "is_reserved": 0, "lon": -77.0529075}, {"type": "electric_scooter", "name": "c93f0c806c509fba1b1ff991351ea031", "rental_uris": {"ios": "https://dc.lft.to/lastmile_qr_scan", "android": "https://dc.lft.to/lastmile_qr_scan"}, "fusion_lon": 0.0, "lat": 38.93119266666667, "is_disabled": 0, "bike_id": "c93f0c806c509fba1b1ff991351ea031", "fusion_lat": 0.0, "is_reserved": 0, "lon": -77.0297555}, {"type": "electric_scooter", "name": "1e03ccfb7d1601ca5c745ca912fde90a", "rental_uris": {"ios": "https://dc.lft.to/lastmile_qr_scan", "android": "https://dc.lft.to/lastmile_qr_scan"}, "fusion_lon": 0.0, "lat": 38.893859, "is_disabled": 0, "bike_id": "1e03ccfb7d1601ca5c745ca912fde90a", "fusion_lat": 0.0, "is_reserved": 0, "lon": -76.92303983333333}, {"type": "electric_scooter", "name": "60f8d4be9fc6b05e5100190493a2138a", "rental_uris": {"ios": "https://dc.lft.to/lastmile_qr_scan", "android": "https://dc.lft.to/lastmile_qr_scan"}, "fusion_lon": 0.0, "lat": 38.8986255, "is_disabled": 0, "bike_id": "60f8d4be9fc6b05e5100190493a2138a", "fusion_lat": 0.0, "is_reserved": 0, "lon": -76.94640916666667}, {"type": "electric_scooter", "name": "f9d9025e745421de7d62329d230935b3", "rental_uris": {"ios": "https://dc.lft.to/lastmile_qr_scan", "android": "https://dc.lft.to/lastmile_qr_scan"}, "fusion_lon": 0.0, "lat": 38.861797333333335, "is_disabled": 0, "bike_id": "f9d9025e745421de7d62329d230935b3", "fusion_lat": 0.0, "is_reserved": 0, "lon": -76.96912383333333}, {"type": "electric_scooter", "name": "8f9a6c643c15e467613d5893422f165a", "rental_uris": {"ios": "https://dc.lft.to/lastmile_qr_scan", "android": "https://dc.lft.to/lastmile_qr_scan"}, "fusion_lon": 0.0, "lat": 38.936063833333336, "is_disabled": 0, "bike_id": "8f9a6c643c15e467613d5893422f165a", "fusion_lat": 0.0, "is_reserved": 0, "lon": -77.05857983333334}, {"type": "electric_scooter", "name": "276522d24c122d3b2eb68185a4bb67f2", "rental_uris": {"ios": "https://dc.lft.to/lastmile_qr_scan", "android": "https://dc.lft.to/lastmile_qr_scan"}, "fusion_lon": 0.0, "lat": 38.927284666666665, "is_disabled": 0, "bike_id": "276522d24c122d3b2eb68185a4bb67f2", "fusion_lat": 0.0, "is_reserved": 0, "lon": -77.02307816666666}, {"type": "electric_scooter", "name": "ea125f71e1b669e0ffef3bf00dc6e939", "rental_uris": {"ios": "https://dc.lft.to/lastmile_qr_scan", "android": "https://dc.lft.to/lastmile_qr_scan"}, "fusion_lon": 0.0, "lat": 38.91683833333333, "is_disabled": 0, "bike_id": "ea125f71e1b669e0ffef3bf00dc6e939", "fusion_lat": 0.0, "is_reserved": 0, "lon": -77.03124516666666}, {"type": "electric_scooter", "name": "40e1af822c7ec3d087bb6589e5f4e6d2", "rental_uris": {"ios": "https://dc.lft.to/lastmile_qr_scan", "android": "https://dc.lft.to/lastmile_qr_scan"}, "fusion_lon": 0.0, "lat": 38.9086305, "is_disabled": 0, "bike_id": "40e1af822c7ec3d087bb6589e5f4e6d2", "fusion_lat": 0.0, "is_reserved": 0, "lon": -76.99793149999999}, {"type": "electric_scooter", "name": "2544ae715c723a205b86f7a4540f2bd9", "rental_uris": {"ios": "https://dc.lft.to/lastmile_qr_scan", "android": "https://dc.lft.to/lastmile_qr_scan"}, "fusion_lon": 0.0, "lat": 38.902035833333336, "is_disabled": 0, "bike_id": "2544ae715c723a205b86f7a4540f2bd9", "fusion_lat": 0.0, "is_reserved": 0, "lon": -77.02370016666667}, {"type": "electric_bike", "name": "70b49aa10134cb4ca9cba3f534d32e2f", "rental_uris": {"ios": "https://dc.lft.to/lastmile_qr_scan", "android": "https://dc.lft.to/lastmile_qr_scan"}, "fusion_lon": 0.0, "lat": 38.835431, "is_disabled": 0, "bike_id": "70b49aa10134cb4ca9cba3f534d32e2f", "fusion_lat": 0.0, "is_reserved": 0, "lon": -76.98732983333333}, {"type": "electric_scooter", "name": "b26b1a3d1026d82ef55f41d76fdf178c", "rental_uris": {"ios": "https://dc.lft.to/lastmile_qr_scan", "android": "https://dc.lft.to/lastmile_qr_scan"}, "fusion_lon": 0.0, "lat": 38.886274666666665, "is_disabled": 0, "bike_id": "b26b1a3d1026d82ef55f41d76fdf178c", "fusion_lat": 0.0, "is_reserved": 0, "lon": -77.01529633333334}, {"type": "electric_scooter", "name": "08ca557244c107f4c2953fa925cd7325", "rental_uris": {"ios": "https://dc.lft.to/lastmile_qr_scan", "android": "https://dc.lft.to/lastmile_qr_scan"}, "fusion_lon": 0.0, "lat": 38.843968833333335, "is_disabled": 0, "bike_id": "08ca557244c107f4c2953fa925cd7325", "fusion_lat": 0.0, "is_reserved": 0, "lon": -76.989606}, {"type": "electric_scooter", "name": "b66329603c3be44cacd98aeaf9254c6a", "rental_uris": {"ios": "https://dc.lft.to/lastmile_qr_scan", "android": "https://dc.lft.to/lastmile_qr_scan"}, "fusion_lon": 0.0, "lat": 38.91667966666667, "is_disabled": 0, "bike_id": "b66329603c3be44cacd98aeaf9254c6a", "fusion_lat": 0.0, "is_reserved": 0, "lon": -77.0269265}, {"type": "electric_scooter", "name": "dd6c87b22d7a189c68d9ea524b09b5fc", "rental_uris": {"ios": "https://dc.lft.to/lastmile_qr_scan", "android": "https://dc.lft.to/lastmile_qr_scan"}, "fusion_lon": 0.0, "lat": 38.927539333333335, "is_disabled": 0, "bike_id": "dd6c87b22d7a189c68d9ea524b09b5fc", "fusion_lat": 0.0, "is_reserved": 0, "lon": -77.03267383333333}, {"type": "electric_scooter", "name": "a921364b29c06e6decf2603dab325bd7", "rental_uris": {"ios": "https://dc.lft.to/lastmile_qr_scan", "android": "https://dc.lft.to/lastmile_qr_scan"}, "fusion_lon": 0.0, "lat": 38.93251083333333, "is_disabled": 0, "bike_id": "a921364b29c06e6decf2603dab325bd7", "fusion_lat": 0.0, "is_reserved": 0, "lon": -77.0327235}, {"type": "electric_scooter", "name": "4e8152bda164eaa60d6b558c71bf7908", "rental_uris": {"ios": "https://dc.lft.to/lastmile_qr_scan", "android": "https://dc.lft.to/lastmile_qr_scan"}, "fusion_lon": 0.0, "lat": 38.92321166666667, "is_disabled": 0, "bike_id": "4e8152bda164eaa60d6b558c71bf7908", "fusion_lat": 0.0, "is_reserved": 0, "lon": -77.029628}, {"type": "electric_scooter", "name": "f9575142f188d9957e16d6b9422d04d6", "rental_uris": {"ios": "https://dc.lft.to/lastmile_qr_scan", "android": "https://dc.lft.to/lastmile_qr_scan"}, "fusion_lon": 0.0, "lat": 38.9283985, "is_disabled": 0, "bike_id": "f9575142f188d9957e16d6b9422d04d6", "fusion_lat": 0.0, "is_reserved": 0, "lon": -77.03656783333334}, {"type": "electric_bike", "name": "0d6936df215ee9e32fe666654e784de4", "rental_uris": {"ios": "https://dc.lft.to/lastmile_qr_scan", "android": "https://dc.lft.to/lastmile_qr_scan"}, "fusion_lon": 0.0, "lat": 38.99052283333333, "is_disabled": 0, "bike_id": "0d6936df215ee9e32fe666654e784de4", "fusion_lat": 0.0, "is_reserved": 0, "lon": -77.03864683333333}, {"type": "electric_scooter", "name": "d261fd462afa01626e97336856551417", "rental_uris": {"ios": "https://dc.lft.to/lastmile_qr_scan", "android": "https://dc.lft.to/lastmile_qr_scan"}, "fusion_lon": 0.0, "lat": 38.907712833333335, "is_disabled": 0, "bike_id": "d261fd462afa01626e97336856551417", "fusion_lat": 0.0, "is_reserved": 0, "lon": -77.04257166666666}, {"type": "electric_scooter", "name": "959cb1236afd1b19fb7fa8abf5d1d9af", "rental_uris": {"ios": "https://dc.lft.to/lastmile_qr_scan", "android": "https://dc.lft.to/lastmile_qr_scan"}, "fusion_lon": 0.0, "lat": 38.897326666666665, "is_disabled": 0, "bike_id": "959cb1236afd1b19fb7fa8abf5d1d9af", "fusion_lat": 0.0, "is_reserved": 0, "lon": -77.04556516666666}, {"type": "electric_scooter", "name": "1d0cedde78fcdd8cf10e249d51d740b4", "rental_uris": {"ios": "https://dc.lft.to/lastmile_qr_scan", "android": "https://dc.lft.to/lastmile_qr_scan"}, "fusion_lon": 0.0, "lat": 38.88255, "is_disabled": 0, "bike_id": "1d0cedde78fcdd8cf10e249d51d740b4", "fusion_lat": 0.0, "is_reserved": 0, "lon": -76.92665116666667}, {"type": "electric_scooter", "name": "5498512b01a3c2e66ffd8e437863fc37", "rental_uris": {"ios": "https://dc.lft.to/lastmile_qr_scan", "android": "https://dc.lft.to/lastmile_qr_scan"}, "fusion_lon": 0.0, "lat": 38.907387666666665, "is_disabled": 0, "bike_id": "5498512b01a3c2e66ffd8e437863fc37", "fusion_lat": 0.0, "is_reserved": 0, "lon": -77.026941}, {"type": "electric_scooter", "name": "033aa41fc77e4cc21d22e39e774cdd1a", "rental_uris": {"ios": "https://dc.lft.to/lastmile_qr_scan", "android": "https://dc.lft.to/lastmile_qr_scan"}, "fusion_lon": 0.0, "lat": 38.90712216666667, "is_disabled": 0, "bike_id": "033aa41fc77e4cc21d22e39e774cdd1a", "fusion_lat": 0.0, "is_reserved": 0, "lon": -77.00579516666667}, {"type": "electric_scooter", "name": "20852f04d3e0eeab8f4f8f86e79d3945", "rental_uris": {"ios": "https://dc.lft.to/lastmile_qr_scan", "android": "https://dc.lft.to/lastmile_qr_scan"}, "fusion_lon": 0.0, "lat": 38.9152875, "is_disabled": 0, "bike_id": "20852f04d3e0eeab8f4f8f86e79d3945", "fusion_lat": 0.0, "is_reserved": 0, "lon": -77.0122335}, {"type": "electric_scooter", "name": "39dea0cbd39f4f43c663c6a62a370afb", "rental_uris": {"ios": "https://dc.lft.to/lastmile_qr_scan", "android": "https://dc.lft.to/lastmile_qr_scan"}, "fusion_lon": 0.0, "lat": 38.920891, "is_disabled": 0, "bike_id": "39dea0cbd39f4f43c663c6a62a370afb", "fusion_lat": 0.0, "is_reserved": 0, "lon": -77.02255766666667}, {"type": "electric_bike", "name": "2b3163aaae5c18299b7d7c65c329b081", "rental_uris": {"ios": "https://dc.lft.to/lastmile_qr_scan", "android": "https://dc.lft.to/lastmile_qr_scan"}, "fusion_lon": 0.0, "lat": 38.95353716666666, "is_disabled": 0, "bike_id": "2b3163aaae5c18299b7d7c65c329b081", "fusion_lat": 0.0, "is_reserved": 0, "lon": -76.98087683333333}, {"type": "electric_scooter", "name": "d532c48ceec10d197ac37df77f749228", "rental_uris": {"ios": "https://dc.lft.to/lastmile_qr_scan", "android": "https://dc.lft.to/lastmile_qr_scan"}, "fusion_lon": 0.0, "lat": 38.8754515, "is_disabled": 0, "bike_id": "d532c48ceec10d197ac37df77f749228", "fusion_lat": 0.0, "is_reserved": 0, "lon": -77.00532433333333}, {"type": "electric_scooter", "name": "6a7c72b0deecbb129ecc37b7c4bcc4c2", "rental_uris": {"ios": "https://dc.lft.to/lastmile_qr_scan", "android": "https://dc.lft.to/lastmile_qr_scan"}, "fusion_lon": 0.0, "lat": 38.896982333333334, "is_disabled": 0, "bike_id": "6a7c72b0deecbb129ecc37b7c4bcc4c2", "fusion_lat": 0.0, "is_reserved": 0, "lon": -77.01610133333334}, {"type": "electric_scooter", "name": "f638b7326f4605ea1e7ec40a6973af28", "rental_uris": {"ios": "https://dc.lft.to/lastmile_qr_scan", "android": "https://dc.lft.to/lastmile_qr_scan"}, "fusion_lon": 0.0, "lat": 38.88815316666667, "is_disabled": 0, "bike_id": "f638b7326f4605ea1e7ec40a6973af28", "fusion_lat": 0.0, "is_reserved": 0, "lon": -76.98357933333334}, {"type": "electric_scooter", "name": "86486369cd0f8c900a2d69ad141de0e5", "rental_uris": {"ios": "https://dc.lft.to/lastmile_qr_scan", "android": "https://dc.lft.to/lastmile_qr_scan"}, "fusion_lon": 0.0, "lat": 38.90529816666667, "is_disabled": 0, "bike_id": "86486369cd0f8c900a2d69ad141de0e5", "fusion_lat": 0.0, "is_reserved": 0, "lon": -77.02692933333333}, {"type": "electric_bike", "name": "660333e36d5b01d437088adfe0ffafe9", "rental_uris": {"ios": "https://dc.lft.to/lastmile_qr_scan", "android": "https://dc.lft.to/lastmile_qr_scan"}, "fusion_lon": 0.0, "lat": 38.856485666666664, "is_disabled": 0, "bike_id": "660333e36d5b01d437088adfe0ffafe9", "fusion_lat": 0.0, "is_reserved": 0, "lon": -77.08529466666667}, {"type": "electric_scooter", "name": "636b23540b1c91cedcf11bea0562fac0", "rental_uris": {"ios": "https://dc.lft.to/lastmile_qr_scan", "android": "https://dc.lft.to/lastmile_qr_scan"}, "fusion_lon": 0.0, "lat": 38.866790333333334, "is_disabled": 0, "bike_id": "636b23540b1c91cedcf11bea0562fac0", "fusion_lat": 0.0, "is_reserved": 0, "lon": -76.98565466666666}, {"type": "electric_scooter", "name": "32a35de73f5c2b1c5e9ddacea4fcc474", "rental_uris": {"ios": "https://dc.lft.to/lastmile_qr_scan", "android": "https://dc.lft.to/lastmile_qr_scan"}, "fusion_lon": 0.0, "lat": 38.92161483333334, "is_disabled": 0, "bike_id": "32a35de73f5c2b1c5e9ddacea4fcc474", "fusion_lat": 0.0, "is_reserved": 0, "lon": -77.03320866666667}, {"type": "electric_scooter", "name": "2cd33d4da3953c4c4c1f5d03f3102e3b", "rental_uris": {"ios": "https://dc.lft.to/lastmile_qr_scan", "android": "https://dc.lft.to/lastmile_qr_scan"}, "fusion_lon": 0.0, "lat": 38.9319535, "is_disabled": 0, "bike_id": "2cd33d4da3953c4c4c1f5d03f3102e3b", "fusion_lat": 0.0, "is_reserved": 0, "lon": -77.023553}, {"type": "electric_scooter", "name": "d9a7c8dcbdda183da52668c7ad8b00c9", "rental_uris": {"ios": "https://dc.lft.to/lastmile_qr_scan", "android": "https://dc.lft.to/lastmile_qr_scan"}, "fusion_lon": 0.0, "lat": 38.90527633333333, "is_disabled": 0, "bike_id": "d9a7c8dcbdda183da52668c7ad8b00c9", "fusion_lat": 0.0, "is_reserved": 0, "lon": -77.04889683333333}, {"type": "electric_scooter", "name": "2f008cb855c9e688cb453215550565d1", "rental_uris": {"ios": "https://dc.lft.to/lastmile_qr_scan", "android": "https://dc.lft.to/lastmile_qr_scan"}, "fusion_lon": 0.0, "lat": 38.9095685, "is_disabled": 0, "bike_id": "2f008cb855c9e688cb453215550565d1", "fusion_lat": 0.0, "is_reserved": 0, "lon": -77.022786}, {"type": "electric_scooter", "name": "bdc21a5ec955b4c7c2afe4bc15cf8edc", "rental_uris": {"ios": "https://dc.lft.to/lastmile_qr_scan", "android": "https://dc.lft.to/lastmile_qr_scan"}, "fusion_lon": 0.0, "lat": 38.89977066666667, "is_disabled": 0, "bike_id": "bdc21a5ec955b4c7c2afe4bc15cf8edc", "fusion_lat": 0.0, "is_reserved": 0, "lon": -77.0091145}, {"type": "electric_scooter", "name": "ea51efeb19a18c4d4f9cc9d1c491c91d", "rental_uris": {"ios": "https://dc.lft.to/lastmile_qr_scan", "android": "https://dc.lft.to/lastmile_qr_scan"}, "fusion_lon": 0.0, "lat": 38.890671833333336, "is_disabled": 0, "bike_id": "ea51efeb19a18c4d4f9cc9d1c491c91d", "fusion_lat": 0.0, "is_reserved": 0, "lon": -76.94461133333333}, {"type": "electric_scooter", "name": "bff408ea9453f57bd5677ce5c762bead", "rental_uris": {"ios": "https://dc.lft.to/lastmile_qr_scan", "android": "https://dc.lft.to/lastmile_qr_scan"}, "fusion_lon": 0.0, "lat": 38.932515, "is_disabled": 0, "bike_id": "bff408ea9453f57bd5677ce5c762bead", "fusion_lat": 0.0, "is_reserved": 0, "lon": -77.03268416666667}, {"type": "electric_scooter", "name": "21761a7dab88e725421c6b43be956a18", "rental_uris": {"ios": "https://dc.lft.to/lastmile_qr_scan", "android": "https://dc.lft.to/lastmile_qr_scan"}, "fusion_lon": 0.0, "lat": 38.8983485, "is_disabled": 0, "bike_id": "21761a7dab88e725421c6b43be956a18", "fusion_lat": 0.0, "is_reserved": 0, "lon": -77.01275866666667}, {"type": "electric_scooter", "name": "c88fb33a58f68a4ec15cd307424fc9dc", "rental_uris": {"ios": "https://dc.lft.to/lastmile_qr_scan", "android": "https://dc.lft.to/lastmile_qr_scan"}, "fusion_lon": 0.0, "lat": 38.9332895, "is_disabled": 0, "bike_id": "c88fb33a58f68a4ec15cd307424fc9dc", "fusion_lat": 0.0, "is_reserved": 0, "lon": -77.03427583333334}, {"type": "electric_bike", "name": "cf2c1e93f9855fbfdd1e205aa34e802e", "rental_uris": {"ios": "https://dc.lft.to/lastmile_qr_scan", "android": "https://dc.lft.to/lastmile_qr_scan"}, "fusion_lon": 0.0, "lat": 38.89727083333333, "is_disabled": 0, "bike_id": "cf2c1e93f9855fbfdd1e205aa34e802e", "fusion_lat": 0.0, "is_reserved": 0, "lon": -76.973389}, {"type": "electric_scooter", "name": "81caeb8c016275fcecb03a55497ee661", "rental_uris": {"ios": "https://dc.lft.to/lastmile_qr_scan", "android": "https://dc.lft.to/lastmile_qr_scan"}, "fusion_lon": 0.0, "lat": 38.90537916666667, "is_disabled": 0, "bike_id": "81caeb8c016275fcecb03a55497ee661", "fusion_lat": 0.0, "is_reserved": 0, "lon": -77.006988}, {"type": "electric_scooter", "name": "47ca80bf356b4c9f725f0559321d161e", "rental_uris": {"ios": "https://dc.lft.to/lastmile_qr_scan", "android": "https://dc.lft.to/lastmile_qr_scan"}, "fusion_lon": 0.0, "lat": 38.909894333333334, "is_disabled": 0, "bike_id": "47ca80bf356b4c9f725f0559321d161e", "fusion_lat": 0.0, "is_reserved": 0, "lon": -77.0050175}, {"type": "electric_scooter", "name": "54731270eb89405c945f71e810f92259", "rental_uris": {"ios": "https://dc.lft.to/lastmile_qr_scan", "android": "https://dc.lft.to/lastmile_qr_scan"}, "fusion_lon": 0.0, "lat": 38.928574166666664, "is_disabled": 0, "bike_id": "54731270eb89405c945f71e810f92259", "fusion_lat": 0.0, "is_reserved": 0, "lon": -77.03300583333333}, {"type": "electric_scooter", "name": "b22e2d3791bd73281991bc16f6adb189", "rental_uris": {"ios": "https://dc.lft.to/lastmile_qr_scan", "android": "https://dc.lft.to/lastmile_qr_scan"}, "fusion_lon": 0.0, "lat": 38.95185883333333, "is_disabled": 0, "bike_id": "b22e2d3791bd73281991bc16f6adb189", "fusion_lat": 0.0, "is_reserved": 0, "lon": -77.0261715}, {"type": "electric_scooter", "name": "d8822fd95d354947889a09e0400b0495", "rental_uris": {"ios": "https://dc.lft.to/lastmile_qr_scan", "android": "https://dc.lft.to/lastmile_qr_scan"}, "fusion_lon": 0.0, "lat": 38.929069166666665, "is_disabled": 0, "bike_id": "d8822fd95d354947889a09e0400b0495", "fusion_lat": 0.0, "is_reserved": 0, "lon": -77.05458166666666}, {"type": "electric_scooter", "name": "19100586cc9903a0e739feee6fffdc5d", "rental_uris": {"ios": "https://dc.lft.to/lastmile_qr_scan", "android": "https://dc.lft.to/lastmile_qr_scan"}, "fusion_lon": 0.0, "lat": 38.8766585, "is_disabled": 0, "bike_id": "19100586cc9903a0e739feee6fffdc5d", "fusion_lat": 0.0, "is_reserved": 0, "lon": -77.00722066666667}, {"type": "electric_scooter", "name": "2765264c46cc2484e34c9afc7f0aaf51", "rental_uris": {"ios": "https://dc.lft.to/lastmile_qr_scan", "android": "https://dc.lft.to/lastmile_qr_scan"}, "fusion_lon": 0.0, "lat": 38.89845066666667, "is_disabled": 0, "bike_id": "2765264c46cc2484e34c9afc7f0aaf51", "fusion_lat": 0.0, "is_reserved": 0, "lon": -77.0188305}, {"type": "electric_scooter", "name": "0e069f51e1c043ae518e0823a4422bb5", "rental_uris": {"ios": "https://dc.lft.to/lastmile_qr_scan", "android": "https://dc.lft.to/lastmile_qr_scan"}, "fusion_lon": 0.0, "lat": 38.911149333333334, "is_disabled": 0, "bike_id": "0e069f51e1c043ae518e0823a4422bb5", "fusion_lat": 0.0, "is_reserved": 0, "lon": -77.03311316666667}, {"type": "electric_scooter", "name": "f96635f64b8ae5ff5ff6bd22c264e15c", "rental_uris": {"ios": "https://dc.lft.to/lastmile_qr_scan", "android": "https://dc.lft.to/lastmile_qr_scan"}, "fusion_lon": 0.0, "lat": 38.9047735, "is_disabled": 0, "bike_id": "f96635f64b8ae5ff5ff6bd22c264e15c", "fusion_lat": 0.0, "is_reserved": 0, "lon": -77.03473533333333}, {"type": "electric_scooter", "name": "8811843cee9c0e0881a49114927bbeee", "rental_uris": {"ios": "https://dc.lft.to/lastmile_qr_scan", "android": "https://dc.lft.to/lastmile_qr_scan"}, "fusion_lon": 0.0, "lat": 38.901083, "is_disabled": 0, "bike_id": "8811843cee9c0e0881a49114927bbeee", "fusion_lat": 0.0, "is_reserved": 0, "lon": -77.03256166666667}, {"type": "electric_bike", "name": "58b3715386f6e2624b1b0a9a1abc0411", "rental_uris": {"ios": "https://dc.lft.to/lastmile_qr_scan", "android": "https://dc.lft.to/lastmile_qr_scan"}, "fusion_lon": 0.0, "lat": 38.900715, "is_disabled": 0, "bike_id": "58b3715386f6e2624b1b0a9a1abc0411", "fusion_lat": 0.0, "is_reserved": 0, "lon": -77.02689383333333}, {"type": "electric_bike", "name": "59444546e5fa9f2cb69475ed5a5cac75", "rental_uris": {"ios": "https://dc.lft.to/lastmile_qr_scan", "android": "https://dc.lft.to/lastmile_qr_scan"}, "fusion_lon": 0.0, "lat": 38.931817, "is_disabled": 0, "bike_id": "59444546e5fa9f2cb69475ed5a5cac75", "fusion_lat": 0.0, "is_reserved": 0, "lon": -77.0353995}, {"type": "electric_scooter", "name": "89de1a4ebe8b118f55c31808afe639fd", "rental_uris": {"ios": "https://dc.lft.to/lastmile_qr_scan", "android": "https://dc.lft.to/lastmile_qr_scan"}, "fusion_lon": 0.0, "lat": 38.907534, "is_disabled": 0, "bike_id": "89de1a4ebe8b118f55c31808afe639fd", "fusion_lat": 0.0, "is_reserved": 0, "lon": -77.00196766666667}, {"type": "electric_scooter", "name": "151ebd0b8d0a2c8ef082f5d287120719", "rental_uris": {"ios": "https://dc.lft.to/lastmile_qr_scan", "android": "https://dc.lft.to/lastmile_qr_scan"}, "fusion_lon": 0.0, "lat": 38.8771525, "is_disabled": 0, "bike_id": "151ebd0b8d0a2c8ef082f5d287120719", "fusion_lat": 0.0, "is_reserved": 0, "lon": -77.0042155}, {"type": "electric_scooter", "name": "e5fe7cfa805e4626e40a166f501a9328", "rental_uris": {"ios": "https://dc.lft.to/lastmile_qr_scan", "android": "https://dc.lft.to/lastmile_qr_scan"}, "fusion_lon": 0.0, "lat": 38.92399116666667, "is_disabled": 0, "bike_id": "e5fe7cfa805e4626e40a166f501a9328", "fusion_lat": 0.0, "is_reserved": 0, "lon": -77.02488416666667}, {"type": "electric_scooter", "name": "a05975807d9af922c23b8a0e4362f977", "rental_uris": {"ios": "https://dc.lft.to/lastmile_qr_scan", "android": "https://dc.lft.to/lastmile_qr_scan"}, "fusion_lon": 0.0, "lat": 38.905052, "is_disabled": 0, "bike_id": "a05975807d9af922c23b8a0e4362f977", "fusion_lat": 0.0, "is_reserved": 0, "lon": -77.06127683333334}, {"type": "electric_scooter", "name": "65d410c62ff81d28454e79c3b8c35aaf", "rental_uris": {"ios": "https://dc.lft.to/lastmile_qr_scan", "android": "https://dc.lft.to/lastmile_qr_scan"}, "fusion_lon": 0.0, "lat": 38.9192715, "is_disabled": 0, "bike_id": "65d410c62ff81d28454e79c3b8c35aaf", "fusion_lat": 0.0, "is_reserved": 0, "lon": -77.03173983333333}, {"type": "electric_scooter", "name": "97c4b0de99f254ed3252080402b19b9f", "rental_uris": {"ios": "https://dc.lft.to/lastmile_qr_scan", "android": "https://dc.lft.to/lastmile_qr_scan"}, "fusion_lon": 0.0, "lat": 38.922735, "is_disabled": 0, "bike_id": "97c4b0de99f254ed3252080402b19b9f", "fusion_lat": 0.0, "is_reserved": 0, "lon": -77.032625}, {"type": "electric_scooter", "name": "fdaf7bef9a67cbb8b930c8ec2456a10f", "rental_uris": {"ios": "https://dc.lft.to/lastmile_qr_scan", "android": "https://dc.lft.to/lastmile_qr_scan"}, "fusion_lon": 0.0, "lat": 38.924711333333335, "is_disabled": 0, "bike_id": "fdaf7bef9a67cbb8b930c8ec2456a10f", "fusion_lat": 0.0, "is_reserved": 0, "lon": -77.0221685}, {"type": "electric_scooter", "name": "4eba743dd2cef5f118e148bfcc8aad61", "rental_uris": {"ios": "https://dc.lft.to/lastmile_qr_scan", "android": "https://dc.lft.to/lastmile_qr_scan"}, "fusion_lon": 0.0, "lat": 38.927285, "is_disabled": 0, "bike_id": "4eba743dd2cef5f118e148bfcc8aad61", "fusion_lat": 0.0, "is_reserved": 0, "lon": -77.039981}, {"type": "electric_scooter", "name": "28e72f5101c735120a9e0e3837a9e872", "rental_uris": {"ios": "https://dc.lft.to/lastmile_qr_scan", "android": "https://dc.lft.to/lastmile_qr_scan"}, "fusion_lon": 0.0, "lat": 38.901459, "is_disabled": 0, "bike_id": "28e72f5101c735120a9e0e3837a9e872", "fusion_lat": 0.0, "is_reserved": 0, "lon": -77.041486}, {"type": "electric_bike", "name": "52bce40a80a976277527f351dee84e14", "rental_uris": {"ios": "https://dc.lft.to/lastmile_qr_scan", "android": "https://dc.lft.to/lastmile_qr_scan"}, "fusion_lon": 0.0, "lat": 38.8278965, "is_disabled": 0, "bike_id": "52bce40a80a976277527f351dee84e14", "fusion_lat": 0.0, "is_reserved": 0, "lon": -77.12489983333333}, {"type": "electric_scooter", "name": "6442130bd6689f25558463f8819b7f6f", "rental_uris": {"ios": "https://dc.lft.to/lastmile_qr_scan", "android": "https://dc.lft.to/lastmile_qr_scan"}, "fusion_lon": 0.0, "lat": 38.8874705, "is_disabled": 0, "bike_id": "6442130bd6689f25558463f8819b7f6f", "fusion_lat": 0.0, "is_reserved": 0, "lon": -77.02845683333334}, {"type": "electric_bike", "name": "f2d7fb88e33db7aa27fdb7f11b5e0e2e", "rental_uris": {"ios": "https://dc.lft.to/lastmile_qr_scan", "android": "https://dc.lft.to/lastmile_qr_scan"}, "fusion_lon": 0.0, "lat": 38.90956216666667, "is_disabled": 0, "bike_id": "f2d7fb88e33db7aa27fdb7f11b5e0e2e", "fusion_lat": 0.0, "is_reserved": 0, "lon": -76.984363}, {"type": "electric_scooter", "name": "390376df3f6071a0eda542228a113717", "rental_uris": {"ios": "https://dc.lft.to/lastmile_qr_scan", "android": "https://dc.lft.to/lastmile_qr_scan"}, "fusion_lon": 0.0, "lat": 38.884025333333334, "is_disabled": 0, "bike_id": "390376df3f6071a0eda542228a113717", "fusion_lat": 0.0, "is_reserved": 0, "lon": -77.01515766666667}, {"type": "electric_scooter", "name": "547f3b02a52b97efb5c9d292073a43b5", "rental_uris": {"ios": "https://dc.lft.to/lastmile_qr_scan", "android": "https://dc.lft.to/lastmile_qr_scan"}, "fusion_lon": 0.0, "lat": 38.8853445, "is_disabled": 0, "bike_id": "547f3b02a52b97efb5c9d292073a43b5", "fusion_lat": 0.0, "is_reserved": 0, "lon": -77.000537}, {"type": "electric_scooter", "name": "4c578191858074a9d90cce1b43625f2f", "rental_uris": {"ios": "https://dc.lft.to/lastmile_qr_scan", "android": "https://dc.lft.to/lastmile_qr_scan"}, "fusion_lon": 0.0, "lat": 38.89832466666667, "is_disabled": 0, "bike_id": "4c578191858074a9d90cce1b43625f2f", "fusion_lat": 0.0, "is_reserved": 0, "lon": -77.03358966666667}, {"type": "electric_scooter", "name": "88a0b306beb6bc940439f7fcea94c905", "rental_uris": {"ios": "https://dc.lft.to/lastmile_qr_scan", "android": "https://dc.lft.to/lastmile_qr_scan"}, "fusion_lon": 0.0, "lat": 38.911087, "is_disabled": 0, "bike_id": "88a0b306beb6bc940439f7fcea94c905", "fusion_lat": 0.0, "is_reserved": 0, "lon": -77.08130733333333}, {"type": "electric_scooter", "name": "c465d326c3e2c24c0c7216079e480f60", "rental_uris": {"ios": "https://dc.lft.to/lastmile_qr_scan", "android": "https://dc.lft.to/lastmile_qr_scan"}, "fusion_lon": 0.0, "lat": 38.9373225, "is_disabled": 0, "bike_id": "c465d326c3e2c24c0c7216079e480f60", "fusion_lat": 0.0, "is_reserved": 0, "lon": -77.02434533333333}, {"type": "electric_scooter", "name": "6126bb582fd42593980adf85684f29be", "rental_uris": {"ios": "https://dc.lft.to/lastmile_qr_scan", "android": "https://dc.lft.to/lastmile_qr_scan"}, "fusion_lon": 0.0, "lat": 38.9072855, "is_disabled": 0, "bike_id": "6126bb582fd42593980adf85684f29be", "fusion_lat": 0.0, "is_reserved": 0, "lon": -77.02372133333333}, {"type": "electric_scooter", "name": "945bc79d5b59719e05dc892b21e1f773", "rental_uris": {"ios": "https://dc.lft.to/lastmile_qr_scan", "android": "https://dc.lft.to/lastmile_qr_scan"}, "fusion_lon": 0.0, "lat": 38.936099166666665, "is_disabled": 0, "bike_id": "945bc79d5b59719e05dc892b21e1f773", "fusion_lat": 0.0, "is_reserved": 0, "lon": -77.05859}, {"type": "electric_scooter", "name": "dd49a5d030f33e275a3b8d9920875af5", "rental_uris": {"ios": "https://dc.lft.to/lastmile_qr_scan", "android": "https://dc.lft.to/lastmile_qr_scan"}, "fusion_lon": 0.0, "lat": 38.858066, "is_disabled": 0, "bike_id": "dd49a5d030f33e275a3b8d9920875af5", "fusion_lat": 0.0, "is_reserved": 0, "lon": -76.98654983333333}, {"type": "electric_scooter", "name": "93d20b1353286f1acb2309def423e939", "rental_uris": {"ios": "https://dc.lft.to/lastmile_qr_scan", "android": "https://dc.lft.to/lastmile_qr_scan"}, "fusion_lon": 0.0, "lat": 38.90265133333333, "is_disabled": 0, "bike_id": "93d20b1353286f1acb2309def423e939", "fusion_lat": 0.0, "is_reserved": 0, "lon": -77.05322733333334}, {"type": "electric_scooter", "name": "274e91504c71f905076cae520c5948ef", "rental_uris": {"ios": "https://dc.lft.to/lastmile_qr_scan", "android": "https://dc.lft.to/lastmile_qr_scan"}, "fusion_lon": 0.0, "lat": 38.866805, "is_disabled": 0, "bike_id": "274e91504c71f905076cae520c5948ef", "fusion_lat": 0.0, "is_reserved": 0, "lon": -76.98573316666666}, {"type": "electric_bike", "name": "a183d39c11dd7cdd7dfe43fa022436a7", "rental_uris": {"ios": "https://dc.lft.to/lastmile_qr_scan", "android": "https://dc.lft.to/lastmile_qr_scan"}, "fusion_lon": 0.0, "lat": 38.86518233333334, "is_disabled": 0, "bike_id": "a183d39c11dd7cdd7dfe43fa022436a7", "fusion_lat": 0.0, "is_reserved": 0, "lon": -76.97335616666666}, {"type": "electric_scooter", "name": "749cc26d5b2ceb956c802b6b5ca3f71a", "rental_uris": {"ios": "https://dc.lft.to/lastmile_qr_scan", "android": "https://dc.lft.to/lastmile_qr_scan"}, "fusion_lon": 0.0, "lat": 38.8662905, "is_disabled": 0, "bike_id": "749cc26d5b2ceb956c802b6b5ca3f71a", "fusion_lat": 0.0, "is_reserved": 0, "lon": -76.98714083333333}, {"type": "electric_scooter", "name": "dcbcbe38e3491626693cb12a31c7aff3", "rental_uris": {"ios": "https://dc.lft.to/lastmile_qr_scan", "android": "https://dc.lft.to/lastmile_qr_scan"}, "fusion_lon": 0.0, "lat": 38.9247775, "is_disabled": 0, "bike_id": "dcbcbe38e3491626693cb12a31c7aff3", "fusion_lat": 0.0, "is_reserved": 0, "lon": -77.101576}, {"type": "electric_scooter", "name": "dad8957e85963339930d1c9db13959ad", "rental_uris": {"ios": "https://dc.lft.to/lastmile_qr_scan", "android": "https://dc.lft.to/lastmile_qr_scan"}, "fusion_lon": 0.0, "lat": 38.8961785, "is_disabled": 0, "bike_id": "dad8957e85963339930d1c9db13959ad", "fusion_lat": 0.0, "is_reserved": 0, "lon": -77.02860833333334}, {"type": "electric_scooter", "name": "7aab65c9ccf2113f17e5f4ed530a1a1d", "rental_uris": {"ios": "https://dc.lft.to/lastmile_qr_scan", "android": "https://dc.lft.to/lastmile_qr_scan"}, "fusion_lon": 0.0, "lat": 38.914289333333336, "is_disabled": 0, "bike_id": "7aab65c9ccf2113f17e5f4ed530a1a1d", "fusion_lat": 0.0, "is_reserved": 0, "lon": -77.03929233333334}, {"type": "electric_scooter", "name": "34cca4758ac3bb57100ed290880de5d1", "rental_uris": {"ios": "https://dc.lft.to/lastmile_qr_scan", "android": "https://dc.lft.to/lastmile_qr_scan"}, "fusion_lon": 0.0, "lat": 38.896296166666666, "is_disabled": 0, "bike_id": "34cca4758ac3bb57100ed290880de5d1", "fusion_lat": 0.0, "is_reserved": 0, "lon": -76.98570866666667}, {"type": "electric_scooter", "name": "d60a78337b76ed6aad80d84b7bc25fa6", "rental_uris": {"ios": "https://dc.lft.to/lastmile_qr_scan", "android": "https://dc.lft.to/lastmile_qr_scan"}, "fusion_lon": 0.0, "lat": 38.917389666666665, "is_disabled": 0, "bike_id": "d60a78337b76ed6aad80d84b7bc25fa6", "fusion_lat": 0.0, "is_reserved": 0, "lon": -77.031924}, {"type": "electric_scooter", "name": "4e9925dcede6bfdcc33299278ff39e8d", "rental_uris": {"ios": "https://dc.lft.to/lastmile_qr_scan", "android": "https://dc.lft.to/lastmile_qr_scan"}, "fusion_lon": 0.0, "lat": 38.952481166666665, "is_disabled": 0, "bike_id": "4e9925dcede6bfdcc33299278ff39e8d", "fusion_lat": 0.0, "is_reserved": 0, "lon": -77.0237975}, {"type": "electric_scooter", "name": "47b4dbd68317075cec9c184a32776f97", "rental_uris": {"ios": "https://dc.lft.to/lastmile_qr_scan", "android": "https://dc.lft.to/lastmile_qr_scan"}, "fusion_lon": 0.0, "lat": 38.892339, "is_disabled": 0, "bike_id": "47b4dbd68317075cec9c184a32776f97", "fusion_lat": 0.0, "is_reserved": 0, "lon": -77.04362033333334}, {"type": "electric_scooter", "name": "23a34bbc655799bbd2c8423dc29bde72", "rental_uris": {"ios": "https://dc.lft.to/lastmile_qr_scan", "android": "https://dc.lft.to/lastmile_qr_scan"}, "fusion_lon": 0.0, "lat": 38.9672855, "is_disabled": 0, "bike_id": "23a34bbc655799bbd2c8423dc29bde72", "fusion_lat": 0.0, "is_reserved": 0, "lon": -77.00917133333333}, {"type": "electric_scooter", "name": "1891b5ebe0ac8fd2a84d9cf70cd2615d", "rental_uris": {"ios": "https://dc.lft.to/lastmile_qr_scan", "android": "https://dc.lft.to/lastmile_qr_scan"}, "fusion_lon": 0.0, "lat": 38.878803833333336, "is_disabled": 0, "bike_id": "1891b5ebe0ac8fd2a84d9cf70cd2615d", "fusion_lat": 0.0, "is_reserved": 0, "lon": -76.98228533333334}, {"type": "electric_scooter", "name": "f381d7d24afeb6cd373e799a05b1b5ae", "rental_uris": {"ios": "https://dc.lft.to/lastmile_qr_scan", "android": "https://dc.lft.to/lastmile_qr_scan"}, "fusion_lon": 0.0, "lat": 38.91557533333334, "is_disabled": 0, "bike_id": "f381d7d24afeb6cd373e799a05b1b5ae", "fusion_lat": 0.0, "is_reserved": 0, "lon": -77.03138166666666}, {"type": "electric_scooter", "name": "cca32aeeeea0e9ec7810a5c51d8424fb", "rental_uris": {"ios": "https://dc.lft.to/lastmile_qr_scan", "android": "https://dc.lft.to/lastmile_qr_scan"}, "fusion_lon": 0.0, "lat": 38.883235, "is_disabled": 0, "bike_id": "cca32aeeeea0e9ec7810a5c51d8424fb", "fusion_lat": 0.0, "is_reserved": 0, "lon": -77.017416}, {"type": "electric_scooter", "name": "3a79eac1abfb8a254d96317cf1c2d428", "rental_uris": {"ios": "https://dc.lft.to/lastmile_qr_scan", "android": "https://dc.lft.to/lastmile_qr_scan"}, "fusion_lon": 0.0, "lat": 38.90752283333333, "is_disabled": 0, "bike_id": "3a79eac1abfb8a254d96317cf1c2d428", "fusion_lat": 0.0, "is_reserved": 0, "lon": -77.00022666666666}, {"type": "electric_scooter", "name": "4b3990ae26cf08364b3885363cbf1ff0", "rental_uris": {"ios": "https://dc.lft.to/lastmile_qr_scan", "android": "https://dc.lft.to/lastmile_qr_scan"}, "fusion_lon": 0.0, "lat": 38.911100166666664, "is_disabled": 0, "bike_id": "4b3990ae26cf08364b3885363cbf1ff0", "fusion_lat": 0.0, "is_reserved": 0, "lon": -77.0383215}, {"type": "electric_scooter", "name": "a1091ad768909784a28d6fec48d4ca29", "rental_uris": {"ios": "https://dc.lft.to/lastmile_qr_scan", "android": "https://dc.lft.to/lastmile_qr_scan"}, "fusion_lon": 0.0, "lat": 38.90810966666667, "is_disabled": 0, "bike_id": "a1091ad768909784a28d6fec48d4ca29", "fusion_lat": 0.0, "is_reserved": 0, "lon": -77.0344945}, {"type": "electric_bike", "name": "6ae12cd937a7df15698f3e24eab24411", "rental_uris": {"ios": "https://dc.lft.to/lastmile_qr_scan", "android": "https://dc.lft.to/lastmile_qr_scan"}, "fusion_lon": 0.0, "lat": 38.8840415, "is_disabled": 0, "bike_id": "6ae12cd937a7df15698f3e24eab24411", "fusion_lat": 0.0, "is_reserved": 0, "lon": -76.96060866666667}, {"type": "electric_scooter", "name": "754988e002fc5084a5af5a3773c0d9cf", "rental_uris": {"ios": "https://dc.lft.to/lastmile_qr_scan", "android": "https://dc.lft.to/lastmile_qr_scan"}, "fusion_lon": 0.0, "lat": 38.92426233333333, "is_disabled": 0, "bike_id": "754988e002fc5084a5af5a3773c0d9cf", "fusion_lat": 0.0, "is_reserved": 0, "lon": -77.04033933333334}, {"type": "electric_scooter", "name": "184e76c78973ef6fc8aa49154ba6ae3a", "rental_uris": {"ios": "https://dc.lft.to/lastmile_qr_scan", "android": "https://dc.lft.to/lastmile_qr_scan"}, "fusion_lon": 0.0, "lat": 38.90589833333333, "is_disabled": 0, "bike_id": "184e76c78973ef6fc8aa49154ba6ae3a", "fusion_lat": 0.0, "is_reserved": 0, "lon": -77.05137283333333}, {"type": "electric_scooter", "name": "d190071e9a787629203baba3f2336676", "rental_uris": {"ios": "https://dc.lft.to/lastmile_qr_scan", "android": "https://dc.lft.to/lastmile_qr_scan"}, "fusion_lon": 0.0, "lat": 38.89616566666667, "is_disabled": 0, "bike_id": "d190071e9a787629203baba3f2336676", "fusion_lat": 0.0, "is_reserved": 0, "lon": -77.02665233333333}, {"type": "electric_scooter", "name": "c45feeb6fc3764774b74a896f1fceb61", "rental_uris": {"ios": "https://dc.lft.to/lastmile_qr_scan", "android": "https://dc.lft.to/lastmile_qr_scan"}, "fusion_lon": 0.0, "lat": 38.90267566666667, "is_disabled": 0, "bike_id": "c45feeb6fc3764774b74a896f1fceb61", "fusion_lat": 0.0, "is_reserved": 0, "lon": -77.0176735}, {"type": "electric_scooter", "name": "7f2204c7db894814de7811101572b75a", "rental_uris": {"ios": "https://dc.lft.to/lastmile_qr_scan", "android": "https://dc.lft.to/lastmile_qr_scan"}, "fusion_lon": 0.0, "lat": 38.92303183333333, "is_disabled": 0, "bike_id": "7f2204c7db894814de7811101572b75a", "fusion_lat": 0.0, "is_reserved": 0, "lon": -77.04178383333333}, {"type": "electric_scooter", "name": "2e60361cb72200a84133a21305e44373", "rental_uris": {"ios": "https://dc.lft.to/lastmile_qr_scan", "android": "https://dc.lft.to/lastmile_qr_scan"}, "fusion_lon": 0.0, "lat": 38.89215166666666, "is_disabled": 0, "bike_id": "2e60361cb72200a84133a21305e44373", "fusion_lat": 0.0, "is_reserved": 0, "lon": -76.99573566666666}, {"type": "electric_scooter", "name": "e1d178e675334d4c1d4045f1d862743f", "rental_uris": {"ios": "https://dc.lft.to/lastmile_qr_scan", "android": "https://dc.lft.to/lastmile_qr_scan"}, "fusion_lon": 0.0, "lat": 38.8841855, "is_disabled": 0, "bike_id": "e1d178e675334d4c1d4045f1d862743f", "fusion_lat": 0.0, "is_reserved": 0, "lon": -77.02495383333333}, {"type": "electric_scooter", "name": "9f84dafe00522683f5d36c127d586f2f", "rental_uris": {"ios": "https://dc.lft.to/lastmile_qr_scan", "android": "https://dc.lft.to/lastmile_qr_scan"}, "fusion_lon": 0.0, "lat": 38.924078333333334, "is_disabled": 0, "bike_id": "9f84dafe00522683f5d36c127d586f2f", "fusion_lat": 0.0, "is_reserved": 0, "lon": -77.02561116666666}, {"type": "electric_scooter", "name": "de044ff3b2a9e6ace14a6e0656bb4641", "rental_uris": {"ios": "https://dc.lft.to/lastmile_qr_scan", "android": "https://dc.lft.to/lastmile_qr_scan"}, "fusion_lon": 0.0, "lat": 38.91547083333333, "is_disabled": 0, "bike_id": "de044ff3b2a9e6ace14a6e0656bb4641", "fusion_lat": 0.0, "is_reserved": 0, "lon": -77.038461}, {"type": "electric_scooter", "name": "81c45b825712423b2b7191bae5522291", "rental_uris": {"ios": "https://dc.lft.to/lastmile_qr_scan", "android": "https://dc.lft.to/lastmile_qr_scan"}, "fusion_lon": 0.0, "lat": 38.9002315, "is_disabled": 0, "bike_id": "81c45b825712423b2b7191bae5522291", "fusion_lat": 0.0, "is_reserved": 0, "lon": -76.987056}, {"type": "electric_scooter", "name": "ac4b3cc1f15cf83ffc7dcc4c20c97192", "rental_uris": {"ios": "https://dc.lft.to/lastmile_qr_scan", "android": "https://dc.lft.to/lastmile_qr_scan"}, "fusion_lon": 0.0, "lat": 38.90662916666667, "is_disabled": 0, "bike_id": "ac4b3cc1f15cf83ffc7dcc4c20c97192", "fusion_lat": 0.0, "is_reserved": 0, "lon": -77.0269605}, {"type": "electric_scooter", "name": "3e506dd9055c5713bae5188fdc0bc8e5", "rental_uris": {"ios": "https://dc.lft.to/lastmile_qr_scan", "android": "https://dc.lft.to/lastmile_qr_scan"}, "fusion_lon": 0.0, "lat": 38.920956333333336, "is_disabled": 0, "bike_id": "3e506dd9055c5713bae5188fdc0bc8e5", "fusion_lat": 0.0, "is_reserved": 0, "lon": -77.04365783333333}, {"type": "electric_bike", "name": "41265c8681da3c24b6f3a7cddaf3677a", "rental_uris": {"ios": "https://dc.lft.to/lastmile_qr_scan", "android": "https://dc.lft.to/lastmile_qr_scan"}, "fusion_lon": 0.0, "lat": 38.9221765, "is_disabled": 0, "bike_id": "41265c8681da3c24b6f3a7cddaf3677a", "fusion_lat": 0.0, "is_reserved": 0, "lon": -77.20139633333334}, {"type": "electric_scooter", "name": "b98f59e4818c226211a204222e44a46c", "rental_uris": {"ios": "https://dc.lft.to/lastmile_qr_scan", "android": "https://dc.lft.to/lastmile_qr_scan"}, "fusion_lon": 0.0, "lat": 38.92800583333333, "is_disabled": 0, "bike_id": "b98f59e4818c226211a204222e44a46c", "fusion_lat": 0.0, "is_reserved": 0, "lon": -77.01414866666667}, {"type": "electric_scooter", "name": "be571f42c2d84e530dcb41afb5b10293", "rental_uris": {"ios": "https://dc.lft.to/lastmile_qr_scan", "android": "https://dc.lft.to/lastmile_qr_scan"}, "fusion_lon": 0.0, "lat": 38.928277666666666, "is_disabled": 0, "bike_id": "be571f42c2d84e530dcb41afb5b10293", "fusion_lat": 0.0, "is_reserved": 0, "lon": -77.05437416666666}, {"type": "electric_scooter", "name": "5638f83b53049d29ab7a3d9611dc695f", "rental_uris": {"ios": "https://dc.lft.to/lastmile_qr_scan", "android": "https://dc.lft.to/lastmile_qr_scan"}, "fusion_lon": 0.0, "lat": 38.90599383333333, "is_disabled": 0, "bike_id": "5638f83b53049d29ab7a3d9611dc695f", "fusion_lat": 0.0, "is_reserved": 0, "lon": -77.02587833333334}, {"type": "electric_scooter", "name": "e9cce14431ccc0a53b22991abfca1185", "rental_uris": {"ios": "https://dc.lft.to/lastmile_qr_scan", "android": "https://dc.lft.to/lastmile_qr_scan"}, "fusion_lon": 0.0, "lat": 38.94199483333333, "is_disabled": 0, "bike_id": "e9cce14431ccc0a53b22991abfca1185", "fusion_lat": 0.0, "is_reserved": 0, "lon": -77.02592783333333}, {"type": "electric_scooter", "name": "50c7d843b40d68ee68fcc328f7fd9a4a", "rental_uris": {"ios": "https://dc.lft.to/lastmile_qr_scan", "android": "https://dc.lft.to/lastmile_qr_scan"}, "fusion_lon": 0.0, "lat": 38.960339833333336, "is_disabled": 0, "bike_id": "50c7d843b40d68ee68fcc328f7fd9a4a", "fusion_lat": 0.0, "is_reserved": 0, "lon": -77.0719005}, {"type": "electric_scooter", "name": "d4ff6623aa8ba5a6d918a1b4941222e3", "rental_uris": {"ios": "https://dc.lft.to/lastmile_qr_scan", "android": "https://dc.lft.to/lastmile_qr_scan"}, "fusion_lon": 0.0, "lat": 38.840544, "is_disabled": 0, "bike_id": "d4ff6623aa8ba5a6d918a1b4941222e3", "fusion_lat": 0.0, "is_reserved": 0, "lon": -76.976708}, {"type": "electric_scooter", "name": "6b6c3e0ebd64d9b98ed68cd602544c41", "rental_uris": {"ios": "https://dc.lft.to/lastmile_qr_scan", "android": "https://dc.lft.to/lastmile_qr_scan"}, "fusion_lon": 0.0, "lat": 38.9237495, "is_disabled": 0, "bike_id": "6b6c3e0ebd64d9b98ed68cd602544c41", "fusion_lat": 0.0, "is_reserved": 0, "lon": -77.01955166666667}, {"type": "electric_scooter", "name": "ef80bbc261a97d27bd9e9cdf665f9ce3", "rental_uris": {"ios": "https://dc.lft.to/lastmile_qr_scan", "android": "https://dc.lft.to/lastmile_qr_scan"}, "fusion_lon": 0.0, "lat": 38.899173, "is_disabled": 0, "bike_id": "ef80bbc261a97d27bd9e9cdf665f9ce3", "fusion_lat": 0.0, "is_reserved": 0, "lon": -77.00351283333333}, {"type": "electric_scooter", "name": "1f4b4401a33ace7b2c2e490a46f9f942", "rental_uris": {"ios": "https://dc.lft.to/lastmile_qr_scan", "android": "https://dc.lft.to/lastmile_qr_scan"}, "fusion_lon": 0.0, "lat": 38.914081333333336, "is_disabled": 0, "bike_id": "1f4b4401a33ace7b2c2e490a46f9f942", "fusion_lat": 0.0, "is_reserved": 0, "lon": -77.02665783333333}, {"type": "electric_scooter", "name": "4ccfc66eee07e97606c3d16d118638e6", "rental_uris": {"ios": "https://dc.lft.to/lastmile_qr_scan", "android": "https://dc.lft.to/lastmile_qr_scan"}, "fusion_lon": 0.0, "lat": 38.89768016666667, "is_disabled": 0, "bike_id": "4ccfc66eee07e97606c3d16d118638e6", "fusion_lat": 0.0, "is_reserved": 0, "lon": -76.985535}, {"type": "electric_scooter", "name": "f0de404378dba4b80015f36159558ae3", "rental_uris": {"ios": "https://dc.lft.to/lastmile_qr_scan", "android": "https://dc.lft.to/lastmile_qr_scan"}, "fusion_lon": 0.0, "lat": 38.898302666666666, "is_disabled": 0, "bike_id": "f0de404378dba4b80015f36159558ae3", "fusion_lat": 0.0, "is_reserved": 0, "lon": -76.93187466666667}, {"type": "electric_scooter", "name": "1c5b4483ff50a98c5de3ec4253dfbc10", "rental_uris": {"ios": "https://dc.lft.to/lastmile_qr_scan", "android": "https://dc.lft.to/lastmile_qr_scan"}, "fusion_lon": 0.0, "lat": 38.918311833333334, "is_disabled": 0, "bike_id": "1c5b4483ff50a98c5de3ec4253dfbc10", "fusion_lat": 0.0, "is_reserved": 0, "lon": -77.03184033333334}, {"type": "electric_scooter", "name": "460b430a1ae44e58049048c4b1a79e5f", "rental_uris": {"ios": "https://dc.lft.to/lastmile_qr_scan", "android": "https://dc.lft.to/lastmile_qr_scan"}, "fusion_lon": 0.0, "lat": 38.94206966666667, "is_disabled": 0, "bike_id": "460b430a1ae44e58049048c4b1a79e5f", "fusion_lat": 0.0, "is_reserved": 0, "lon": -77.025931}, {"type": "electric_scooter", "name": "5b3cfc25f718bf61e7f51c1fe2d9089e", "rental_uris": {"ios": "https://dc.lft.to/lastmile_qr_scan", "android": "https://dc.lft.to/lastmile_qr_scan"}, "fusion_lon": 0.0, "lat": 38.91311483333333, "is_disabled": 0, "bike_id": "5b3cfc25f718bf61e7f51c1fe2d9089e", "fusion_lat": 0.0, "is_reserved": 0, "lon": -77.04552483333333}, {"type": "electric_scooter", "name": "5259273a670d0434cfa6244b87dfbe3a", "rental_uris": {"ios": "https://dc.lft.to/lastmile_qr_scan", "android": "https://dc.lft.to/lastmile_qr_scan"}, "fusion_lon": 0.0, "lat": 38.896679, "is_disabled": 0, "bike_id": "5259273a670d0434cfa6244b87dfbe3a", "fusion_lat": 0.0, "is_reserved": 0, "lon": -76.98835966666667}, {"type": "electric_scooter", "name": "a86257343020dbba00feb513899cb86e", "rental_uris": {"ios": "https://dc.lft.to/lastmile_qr_scan", "android": "https://dc.lft.to/lastmile_qr_scan"}, "fusion_lon": 0.0, "lat": 38.93693416666667, "is_disabled": 0, "bike_id": "a86257343020dbba00feb513899cb86e", "fusion_lat": 0.0, "is_reserved": 0, "lon": -77.05599233333334}, {"type": "electric_scooter", "name": "15bfcf27978ae7a1c1f6dd43f38fd8e8", "rental_uris": {"ios": "https://dc.lft.to/lastmile_qr_scan", "android": "https://dc.lft.to/lastmile_qr_scan"}, "fusion_lon": 0.0, "lat": 38.915553833333334, "is_disabled": 0, "bike_id": "15bfcf27978ae7a1c1f6dd43f38fd8e8", "fusion_lat": 0.0, "is_reserved": 0, "lon": -77.0377355}, {"type": "electric_scooter", "name": "092237bc031f97242d21ca7f0f2d886c", "rental_uris": {"ios": "https://dc.lft.to/lastmile_qr_scan", "android": "https://dc.lft.to/lastmile_qr_scan"}, "fusion_lon": 0.0, "lat": 38.926036, "is_disabled": 0, "bike_id": "092237bc031f97242d21ca7f0f2d886c", "fusion_lat": 0.0, "is_reserved": 0, "lon": -77.05714183333333}, {"type": "electric_scooter", "name": "d178c4686574ece04c2cc3e02a280ea5", "rental_uris": {"ios": "https://dc.lft.to/lastmile_qr_scan", "android": "https://dc.lft.to/lastmile_qr_scan"}, "fusion_lon": 0.0, "lat": 38.896435, "is_disabled": 0, "bike_id": "d178c4686574ece04c2cc3e02a280ea5", "fusion_lat": 0.0, "is_reserved": 0, "lon": -77.026228}, {"type": "electric_scooter", "name": "9e357ea7a4fec13f527c9aec1fe991ef", "rental_uris": {"ios": "https://dc.lft.to/lastmile_qr_scan", "android": "https://dc.lft.to/lastmile_qr_scan"}, "fusion_lon": 0.0, "lat": 38.92363916666667, "is_disabled": 0, "bike_id": "9e357ea7a4fec13f527c9aec1fe991ef", "fusion_lat": 0.0, "is_reserved": 0, "lon": -77.0503065}, {"type": "electric_scooter", "name": "c02c6f21a809110e6645b0953ccffbb4", "rental_uris": {"ios": "https://dc.lft.to/lastmile_qr_scan", "android": "https://dc.lft.to/lastmile_qr_scan"}, "fusion_lon": 0.0, "lat": 38.912575, "is_disabled": 0, "bike_id": "c02c6f21a809110e6645b0953ccffbb4", "fusion_lat": 0.0, "is_reserved": 0, "lon": -76.98356733333334}, {"type": "electric_scooter", "name": "f8dfe8582cd400c3a26002ab2322fb00", "rental_uris": {"ios": "https://dc.lft.to/lastmile_qr_scan", "android": "https://dc.lft.to/lastmile_qr_scan"}, "fusion_lon": 0.0, "lat": 38.905803166666665, "is_disabled": 0, "bike_id": "f8dfe8582cd400c3a26002ab2322fb00", "fusion_lat": 0.0, "is_reserved": 0, "lon": -77.04085233333333}, {"type": "electric_scooter", "name": "e7221b2d73412ad5aa17815f49634672", "rental_uris": {"ios": "https://dc.lft.to/lastmile_qr_scan", "android": "https://dc.lft.to/lastmile_qr_scan"}, "fusion_lon": 0.0, "lat": 38.88634, "is_disabled": 0, "bike_id": "e7221b2d73412ad5aa17815f49634672", "fusion_lat": 0.0, "is_reserved": 0, "lon": -77.0153275}, {"type": "electric_scooter", "name": "a785e32bb3a677eed6a70b1a0e76920e", "rental_uris": {"ios": "https://dc.lft.to/lastmile_qr_scan", "android": "https://dc.lft.to/lastmile_qr_scan"},