{"data": {"bikes": [{"bike_id": "e626110b7a404e781f8a4bd065c24b60", "lat": 38.90831383333333, "is_reserved": 0, "fusion_lat": 0.0, "rental_uris": {"android": "https://dc.lft.to/lastmile_qr_scan", "ios": "https://dc.lft.to/lastmile_qr_scan"}, "fusion_lon": 0.0, "name": "e626110b7a404e781f8a4bd065c24b60", "lon": -77.0320765, "is_disabled": 0, "type": "electric_scooter"}, {"bike_id": "576de07f7a369562bc8df80b23762699", "lat": 38.91694666666667, "is_reserved": 0, "fusion_lat": 0.0, "rental_uris": {"android": "https://dc.lft.to/lastmile_qr_scan", "ios": "https://dc.lft.to/lastmile_qr_scan"}, "fusion_lon": 0.0, "name": "576de07f7a369562bc8df80b23762699", "lon": -77.02600266666667, "is_disabled": 0, "type": "electric_scooter"}, {"bike_id": "01d778e174f0179563acbb37900de659", "lat": 38.885219, "is_reserved": 0, "fusion_lat": 0.0, "rental_uris": {"android": "https://dc.lft.to/lastmile_qr_scan", "ios": "https://dc.lft.to/lastmile_qr_scan"}, "fusion_lon": 0.0, "name": "01d778e174f0179563acbb37900de659", "lon": -76.97711066666666, "is_disabled": 0, "type": "electric_scooter"}, {"bike_id": "8520a0ee69ac129798ca1d1d615a03af", "lat": 38.913308666666666, "is_reserved": 0, "fusion_lat": 0.0, "rental_uris": {"android": "https://dc.lft.to/lastmile_qr_scan", "ios": "https://dc.lft.to/lastmile_qr_scan"}, "fusion_lon": 0.0, "name": "8520a0ee69ac129798ca1d1d615a03af", "lon": -77.03186266666667, "is_disabled": 0, "type": "electric_scooter"}, {"bike_id": "202f6827c49d0feaaacfca72b991994c", "lat": 38.9152895, "is_reserved": 0, "fusion_lat": 0.0, "rental_uris": {"android": "https://dc.lft.to/lastmile_qr_scan", "ios": "https://dc.lft.to/lastmile_qr_scan"}, "fusion_lon": 0.0, "name": "202f6827c49d0feaaacfca72b991994c", "lon": -76.98348233333333, "is_disabled": 0, "type": "electric_scooter"}, {"bike_id": "38acace76fdf064582b11d0d19df2b5a", "lat": 38.92052233333333, "is_reserved": 0, "fusion_lat": 0.0, "rental_uris": {"android": "https://dc.lft.to/lastmile_qr_scan", "ios": "https://dc.lft.to/lastmile_qr_scan"}, "fusion_lon": 0.0, "name": "38acace76fdf064582b11d0d19df2b5a", "lon": -77.04183983333333, "is_disabled": 0, "type": "electric_scooter"}, {"bike_id": "a4d17ada9e62015516236a29127e64bf", "lat": 38.9052835, "is_reserved": 0, "fusion_lat": 0.0, "rental_uris": {"android": "https://dc.lft.to/lastmile_qr_scan", "ios": "https://dc.lft.to/lastmile_qr_scan"}, "fusion_lon": 0.0, "name": "a4d17ada9e62015516236a29127e64bf", "lon": -77.06028833333333, "is_disabled": 0, "type": "electric_scooter"}, {"bike_id": "e3a1480aae59c9079ceede135f3f0b82", "lat": 38.89508816666667, "is_reserved": 0, "fusion_lat": 0.0, "rental_uris": {"android": "https://dc.lft.to/lastmile_qr_scan", "ios": "https://dc.lft.to/lastmile_qr_scan"}, "fusion_lon": 0.0, "name": "e3a1480aae59c9079ceede135f3f0b82", "lon": -77.02295116666667, "is_disabled": 0, "type": "electric_scooter"}, {"bike_id": "63c031fb063f9fc1625576ed741af4d1", "lat": 38.895375666666666, "is_reserved": 0, "fusion_lat": 0.0, "rental_uris": {"android": "https://dc.lft.to/lastmile_qr_scan", "ios": "https://dc.lft.to/lastmile_qr_scan"}, "fusion_lon": 0.0, "name": "63c031fb063f9fc1625576ed741af4d1", "lon": -77.028179, "is_disabled": 0, "type": "electric_scooter"}, {"bike_id": "c1dbbb3d5c30e0f415133bb5aba355b1", "lat": 38.92007666666667, "is_reserved": 0, "fusion_lat": 0.0, "rental_uris": {"android": "https://dc.lft.to/lastmile_qr_scan", "ios": "https://dc.lft.to/lastmile_qr_scan"}, "fusion_lon": 0.0, "name": "c1dbbb3d5c30e0f415133bb5aba355b1", "lon": -77.081932, "is_disabled": 0, "type": "electric_scooter"}, {"bike_id": "3a4189f66f29fb48f2d3582db8dca5b3", "lat": 38.9142055, "is_reserved": 0, "fusion_lat": 0.0, "rental_uris": {"android": "https://dc.lft.to/lastmile_qr_scan", "ios": "https://dc.lft.to/lastmile_qr_scan"}, "fusion_lon": 0.0, "name": "3a4189f66f29fb48f2d3582db8dca5b3", "lon": -77.01989083333333, "is_disabled": 0, "type": "electric_scooter"}, {"bike_id": "c35558cd83916a62c7406b9f5756081e", "lat": 38.886545166666664, "is_reserved": 0, "fusion_lat": 0.0, "rental_uris": {"android": "https://dc.lft.to/lastmile_qr_scan", "ios": "https://dc.lft.to/lastmile_qr_scan"}, "fusion_lon": 0.0, "name": "c35558cd83916a62c7406b9f5756081e", "lon": -77.00115633333333, "is_disabled": 0, "type": "electric_scooter"}, {"bike_id": "5cb4aac0249f6ba12526668605b19aee", "lat": 38.901650333333336, "is_reserved": 0, "fusion_lat": 0.0, "rental_uris": {"android": "https://dc.lft.to/lastmile_qr_scan", "ios": "https://dc.lft.to/lastmile_qr_scan"}, "fusion_lon": 0.0, "name": "5cb4aac0249f6ba12526668605b19aee", "lon": -76.93018916666666, "is_disabled": 0, "type": "electric_scooter"}, {"bike_id": "1fddcb3e616cdeeb1839c07f8cdb74eb", "lat": 38.9223465, "is_reserved": 0, "fusion_lat": 0.0, "rental_uris": {"android": "https://dc.lft.to/lastmile_qr_scan", "ios": "https://dc.lft.to/lastmile_qr_scan"}, "fusion_lon": 0.0, "name": "1fddcb3e616cdeeb1839c07f8cdb74eb", "lon": -77.0212245, "is_disabled": 0, "type": "electric_scooter"}, {"bike_id": "066949e34d6555de2adb0ace1097f609", "lat": 38.87787183333333, "is_reserved": 0, "fusion_lat": 0.0, "rental_uris": {"android": "https://dc.lft.to/lastmile_qr_scan", "ios": "https://dc.lft.to/lastmile_qr_scan"}, "fusion_lon": 0.0, "name": "066949e34d6555de2adb0ace1097f609", "lon": -76.99413366666667, "is_disabled": 0, "type": "electric_scooter"}, {"bike_id": "31b3e67de1e1fd7679bbbab7ad67049a", "lat": 38.9150395, "is_reserved": 0, "fusion_lat": 0.0, "rental_uris": {"android": "https://dc.lft.to/lastmile_qr_scan", "ios": "https://dc.lft.to/lastmile_qr_scan"}, "fusion_lon": 0.0, "name": "31b3e67de1e1fd7679bbbab7ad67049a", "lon": -77.01771433333333, "is_disabled": 0, "type": "electric_scooter"}, {"bike_id": "24605410a367c3db9acb33935ad42547", "lat": 38.915676500000004, "is_reserved": 0, "fusion_lat": 0.0, "rental_uris": {"android": "https://dc.lft.to/lastmile_qr_scan", "ios": "https://dc.lft.to/lastmile_qr_scan"}, "fusion_lon": 0.0, "name": "24605410a367c3db9acb33935ad42547", "lon": -77.02006916666667, "is_disabled": 0, "type": "electric_scooter"}, {"bike_id": "f105471cd477c31d14f4b89ddbc1be44", "lat": 38.92046666666667, "is_reserved": 0, "fusion_lat": 0.0, "rental_uris": {"android": "https://dc.lft.to/lastmile_qr_scan", "ios": "https://dc.lft.to/lastmile_qr_scan"}, "fusion_lon": 0.0, "name": "f105471cd477c31d14f4b89ddbc1be44", "lon": -77.02438733333334, "is_disabled": 0, "type": "electric_scooter"}, {"bike_id": "ac39b97273366dc15a35198e437e0550", "lat": 38.956382833333336, "is_reserved": 0, "fusion_lat": 0.0, "rental_uris": {"android": "https://dc.lft.to/lastmile_qr_scan", "ios": "https://dc.lft.to/lastmile_qr_scan"}, "fusion_lon": 0.0, "name": "ac39b97273366dc15a35198e437e0550", "lon": -77.01160033333333, "is_disabled": 0, "type": "electric_scooter"}, {"bike_id": "f9281dfbb29655ef38c7c614ac11753b", "lat": 38.9565265, "is_reserved": 0, "fusion_lat": 0.0, "rental_uris": {"android": "https://dc.lft.to/lastmile_qr_scan", "ios": "https://dc.lft.to/lastmile_qr_scan"}, "fusion_lon": 0.0, "name": "f9281dfbb29655ef38c7c614ac11753b", "lon": -77.01004483333334, "is_disabled": 0, "type": "electric_scooter"}, {"bike_id": "10284509260213ed3aabbb91336d585a", "lat": 38.92449, "is_reserved": 0, "fusion_lat": 0.0, "rental_uris": {"android": "https://dc.lft.to/lastmile_qr_scan", "ios": "https://dc.lft.to/lastmile_qr_scan"}, "fusion_lon": 0.0, "name": "10284509260213ed3aabbb91336d585a", "lon": -77.04394733333334, "is_disabled": 0, "type": "electric_scooter"}, {"bike_id": "02e33d3c4be6b66fadc367900474b43a", "lat": 38.898976, "is_reserved": 0, "fusion_lat": 0.0, "rental_uris": {"android": "https://dc.lft.to/lastmile_qr_scan", "ios": "https://dc.lft.to/lastmile_qr_scan"}, "fusion_lon": 0.0, "name": "02e33d3c4be6b66fadc367900474b43a", "lon": -77.03947533333333, "is_disabled": 0, "type": "electric_scooter"}, {"bike_id": "4b6b4e3c45cb86e6f4d14293da720b05", "lat": 38.919607, "is_reserved": 0, "fusion_lat": 0.0, "rental_uris": {"android": "https://dc.lft.to/lastmile_qr_scan", "ios": "https://dc.lft.to/lastmile_qr_scan"}, "fusion_lon": 0.0, "name": "4b6b4e3c45cb86e6f4d14293da720b05", "lon": -77.04141383333334, "is_disabled": 0, "type": "electric_scooter"}, {"bike_id": "dd0cf53a5e6d3523dfd327d299aedb5f", "lat": 38.9163685, "is_reserved": 0, "fusion_lat": 0.0, "rental_uris": {"android": "https://dc.lft.to/lastmile_qr_scan", "ios": "https://dc.lft.to/lastmile_qr_scan"}, "fusion_lon": 0.0, "name": "dd0cf53a5e6d3523dfd327d299aedb5f", "lon": -77.030129, "is_disabled": 0, "type": "electric_scooter"}, {"bike_id": "ec0c6f451a4d6fe49612a42fb147e654", "lat": 38.79854066666667, "is_reserved": 0, "fusion_lat": 0.0, "rental_uris": {"android": "https://dc.lft.to/lastmile_qr_scan", "ios": "https://dc.lft.to/lastmile_qr_scan"}, "fusion_lon": 0.0, "name": "ec0c6f451a4d6fe49612a42fb147e654", "lon": -77.06308416666667, "is_disabled": 0, "type": "electric_bike"}, {"bike_id": "fe8491c727af09265f244140237538d6", "lat": 38.8951645, "is_reserved": 0, "fusion_lat": 0.0, "rental_uris": {"android": "https://dc.lft.to/lastmile_qr_scan", "ios": "https://dc.lft.to/lastmile_qr_scan"}, "fusion_lon": 0.0, "name": "fe8491c727af09265f244140237538d6", "lon": -77.02273516666666, "is_disabled": 0, "type": "electric_scooter"}, {"bike_id": "9596b093f20d057e9fcbdb5660790c8f", "lat": 38.91467933333333, "is_reserved": 0, "fusion_lat": 0.0, "rental_uris": {"android": "https://dc.lft.to/lastmile_qr_scan", "ios": "https://dc.lft.to/lastmile_qr_scan"}, "fusion_lon": 0.0, "name": "9596b093f20d057e9fcbdb5660790c8f", "lon": -77.04591266666667, "is_disabled": 0, "type": "electric_scooter"}, {"bike_id": "dee7cfc740c86ea7d9f28d67c37e0e84", "lat": 38.892239333333336, "is_reserved": 0, "fusion_lat": 0.0, "rental_uris": {"android": "https://dc.lft.to/lastmile_qr_scan", "ios": "https://dc.lft.to/lastmile_qr_scan"}, "fusion_lon": 0.0, "name": "dee7cfc740c86ea7d9f28d67c37e0e84", "lon": -77.04369783333334, "is_disabled": 0, "type": "electric_scooter"}, {"bike_id": "9d0bed47cd99341c80169affa0627627", "lat": 38.94022416666667, "is_reserved": 0, "fusion_lat": 0.0, "rental_uris": {"android": "https://dc.lft.to/lastmile_qr_scan", "ios": "https://dc.lft.to/lastmile_qr_scan"}, "fusion_lon": 0.0, "name": "9d0bed47cd99341c80169affa0627627", "lon": -76.97610433333334, "is_disabled": 0, "type": "electric_scooter"}, {"bike_id": "241d423961a59e3906bc2dab81e2c780", "lat": 38.89428133333333, "is_reserved": 0, "fusion_lat": 0.0, "rental_uris": {"android": "https://dc.lft.to/lastmile_qr_scan", "ios": "https://dc.lft.to/lastmile_qr_scan"}, "fusion_lon": 0.0, "name": "241d423961a59e3906bc2dab81e2c780", "lon": -77.01048116666666, "is_disabled": 0, "type": "electric_scooter"}, {"bike_id": "da567eeb3571f226a468452d69eaba16", "lat": 38.9348015, "is_reserved": 0, "fusion_lat": 0.0, "rental_uris": {"android": "https://dc.lft.to/lastmile_qr_scan", "ios": "https://dc.lft.to/lastmile_qr_scan"}, "fusion_lon": 0.0, "name": "da567eeb3571f226a468452d69eaba16", "lon": -77.072746, "is_disabled": 0, "type": "electric_scooter"}, {"bike_id": "b5230245e871e213ba40a8efdb604aa6", "lat": 38.87719366666666, "is_reserved": 0, "fusion_lat": 0.0, "rental_uris": {"android": "https://dc.lft.to/lastmile_qr_scan", "ios": "https://dc.lft.to/lastmile_qr_scan"}, "fusion_lon": 0.0, "name": "b5230245e871e213ba40a8efdb604aa6", "lon": -77.00523316666667, "is_disabled": 0, "type": "electric_scooter"}, {"bike_id": "b00ed64016b06b77f1697c98899662d3", "lat": 38.932124, "is_reserved": 0, "fusion_lat": 0.0, "rental_uris": {"android": "https://dc.lft.to/lastmile_qr_scan", "ios": "https://dc.lft.to/lastmile_qr_scan"}, "fusion_lon": 0.0, "name": "b00ed64016b06b77f1697c98899662d3", "lon": -77.03514016666666, "is_disabled": 0, "type": "electric_scooter"}, {"bike_id": "9d16e53fb17a37bcd96278f02ac309ca", "lat": 38.894805833333336, "is_reserved": 0, "fusion_lat": 0.0, "rental_uris": {"android": "https://dc.lft.to/lastmile_qr_scan", "ios": "https://dc.lft.to/lastmile_qr_scan"}, "fusion_lon": 0.0, "name": "9d16e53fb17a37bcd96278f02ac309ca", "lon": -76.948595, "is_disabled": 0, "type": "electric_scooter"}, {"bike_id": "560eab0ef9f365d6c2f8645a7ebac7fa", "lat": 38.9018205, "is_reserved": 0, "fusion_lat": 0.0, "rental_uris": {"android": "https://dc.lft.to/lastmile_qr_scan", "ios": "https://dc.lft.to/lastmile_qr_scan"}, "fusion_lon": 0.0, "name": "560eab0ef9f365d6c2f8645a7ebac7fa", "lon": -77.0465865, "is_disabled": 0, "type": "electric_scooter"}, {"bike_id": "e9c2063cb2243ca4321b1a747ad79eac", "lat": 38.92045266666667, "is_reserved": 0, "fusion_lat": 0.0, "rental_uris": {"android": "https://dc.lft.to/lastmile_qr_scan", "ios": "https://dc.lft.to/lastmile_qr_scan"}, "fusion_lon": 0.0, "name": "e9c2063cb2243ca4321b1a747ad79eac", "lon": -77.02575783333333, "is_disabled": 0, "type": "electric_scooter"}, {"bike_id": "6db53f26458a1cb6e45071c086dbd221", "lat": 38.900650666666664, "is_reserved": 0, "fusion_lat": 0.0, "rental_uris": {"android": "https://dc.lft.to/lastmile_qr_scan", "ios": "https://dc.lft.to/lastmile_qr_scan"}, "fusion_lon": 0.0, "name": "6db53f26458a1cb6e45071c086dbd221", "lon": -77.04534483333333, "is_disabled": 0, "type": "electric_scooter"}, {"bike_id": "2d3e3f493dd18c2879ab06fd1b25246c", "lat": 38.899334333333336, "is_reserved": 0, "fusion_lat": 0.0, "rental_uris": {"android": "https://dc.lft.to/lastmile_qr_scan", "ios": "https://dc.lft.to/lastmile_qr_scan"}, "fusion_lon": 0.0, "name": "2d3e3f493dd18c2879ab06fd1b25246c", "lon": -77.003628, "is_disabled": 0, "type": "electric_scooter"}, {"bike_id": "d2d10f6714d7b02aff44dae0263eb748", "lat": 38.897633, "is_reserved": 0, "fusion_lat": 0.0, "rental_uris": {"android": "https://dc.lft.to/lastmile_qr_scan", "ios": "https://dc.lft.to/lastmile_qr_scan"}, "fusion_lon": 0.0, "name": "d2d10f6714d7b02aff44dae0263eb748", "lon": -77.027501, "is_disabled": 0, "type": "electric_scooter"}, {"bike_id": "6a21aad5385eb393e8e60dd986bb9ddb", "lat": 38.91748366666667, "is_reserved": 0, "fusion_lat": 0.0, "rental_uris": {"android": "https://dc.lft.to/lastmile_qr_scan", "ios": "https://dc.lft.to/lastmile_qr_scan"}, "fusion_lon": 0.0, "name": "6a21aad5385eb393e8e60dd986bb9ddb", "lon": -77.02393466666666, "is_disabled": 0, "type": "electric_scooter"}, {"bike_id": "4a35b80b5a2cabc5795b90c842ef80d4", "lat": 38.91634583333333, "is_reserved": 0, "fusion_lat": 0.0, "rental_uris": {"android": "https://dc.lft.to/lastmile_qr_scan", "ios": "https://dc.lft.to/lastmile_qr_scan"}, "fusion_lon": 0.0, "name": "4a35b80b5a2cabc5795b90c842ef80d4", "lon": -76.98284866666667, "is_disabled": 0, "type": "electric_scooter"}, {"bike_id": "626d3c622b98bf2febd0173199142223", "lat": 38.86508933333333, "is_reserved": 0, "fusion_lat": 0.0, "rental_uris": {"android": "https://dc.lft.to/lastmile_qr_scan", "ios": "https://dc.lft.to/lastmile_qr_scan"}, "fusion_lon": 0.0, "name": "626d3c622b98bf2febd0173199142223", "lon": -76.99014983333333, "is_disabled": 0, "type": "electric_scooter"}, {"bike_id": "b4ac53f004532b4083ceb879818522e1", "lat": 38.926512833333334, "is_reserved": 0, "fusion_lat": 0.0, "rental_uris": {"android": "https://dc.lft.to/lastmile_qr_scan", "ios": "https://dc.lft.to/lastmile_qr_scan"}, "fusion_lon": 0.0, "name": "b4ac53f004532b4083ceb879818522e1", "lon": -77.0354775, "is_disabled": 0, "type": "electric_scooter"}, {"bike_id": "3f71886799279e4459a23a8ba69d420d", "lat": 38.897262, "is_reserved": 0, "fusion_lat": 0.0, "rental_uris": {"android": "https://dc.lft.to/lastmile_qr_scan", "ios": "https://dc.lft.to/lastmile_qr_scan"}, "fusion_lon": 0.0, "name": "3f71886799279e4459a23a8ba69d420d", "lon": -77.02169716666667, "is_disabled": 0, "type": "electric_scooter"}, {"bike_id": "549c915527a037dfdc2f76091bcf0c89", "lat": 38.862502, "is_reserved": 0, "fusion_lat": 0.0, "rental_uris": {"android": "https://dc.lft.to/lastmile_qr_scan", "ios": "https://dc.lft.to/lastmile_qr_scan"}, "fusion_lon": 0.0, "name": "549c915527a037dfdc2f76091bcf0c89", "lon": -76.99555666666667, "is_disabled": 0, "type": "electric_scooter"}, {"bike_id": "8949f897d10adec1d12feb930ba4f643", "lat": 38.921623, "is_reserved": 0, "fusion_lat": 0.0, "rental_uris": {"android": "https://dc.lft.to/lastmile_qr_scan", "ios": "https://dc.lft.to/lastmile_qr_scan"}, "fusion_lon": 0.0, "name": "8949f897d10adec1d12feb930ba4f643", "lon": -77.03338933333333, "is_disabled": 0, "type": "electric_scooter"}, {"bike_id": "84c7e2b3780ffccce7057adf064b3856", "lat": 38.92793433333333, "is_reserved": 0, "fusion_lat": 0.0, "rental_uris": {"android": "https://dc.lft.to/lastmile_qr_scan", "ios": "https://dc.lft.to/lastmile_qr_scan"}, "fusion_lon": 0.0, "name": "84c7e2b3780ffccce7057adf064b3856", "lon": -77.05362766666667, "is_disabled": 0, "type": "electric_scooter"}, {"bike_id": "d926fb178e5abcda24c03977b3ab962e", "lat": 38.9630315, "is_reserved": 0, "fusion_lat": 0.0, "rental_uris": {"android": "https://dc.lft.to/lastmile_qr_scan", "ios": "https://dc.lft.to/lastmile_qr_scan"}, "fusion_lon": 0.0, "name": "d926fb178e5abcda24c03977b3ab962e", "lon": -77.01112266666667, "is_disabled": 0, "type": "electric_bike"}, {"bike_id": "b67d6f888194dfe924888222f11592da", "lat": 38.902675333333335, "is_reserved": 0, "fusion_lat": 0.0, "rental_uris": {"android": "https://dc.lft.to/lastmile_qr_scan", "ios": "https://dc.lft.to/lastmile_qr_scan"}, "fusion_lon": 0.0, "name": "b67d6f888194dfe924888222f11592da", "lon": -77.02008083333334, "is_disabled": 0, "type": "electric_scooter"}, {"bike_id": "b8b55496f7eadd716cb0514e6ac1b650", "lat": 38.923204, "is_reserved": 0, "fusion_lat": 0.0, "rental_uris": {"android": "https://dc.lft.to/lastmile_qr_scan", "ios": "https://dc.lft.to/lastmile_qr_scan"}, "fusion_lon": 0.0, "name": "b8b55496f7eadd716cb0514e6ac1b650", "lon": -77.02135716666666, "is_disabled": 0, "type": "electric_scooter"}, {"bike_id": "e1a62fd1d799ad1695ffa55fc16c262b", "lat": 38.900293833333336, "is_reserved": 0, "fusion_lat": 0.0, "rental_uris": {"android": "https://dc.lft.to/lastmile_qr_scan", "ios": "https://dc.lft.to/lastmile_qr_scan"}, "fusion_lon": 0.0, "name": "e1a62fd1d799ad1695ffa55fc16c262b", "lon": -77.01189416666666, "is_disabled": 0, "type": "electric_scooter"}, {"bike_id": "ae7422c84e082ce629d8ad3be9f08ef4", "lat": 38.9097915, "is_reserved": 0, "fusion_lat": 0.0, "rental_uris": {"android": "https://dc.lft.to/lastmile_qr_scan", "ios": "https://dc.lft.to/lastmile_qr_scan"}, "fusion_lon": 0.0, "name": "ae7422c84e082ce629d8ad3be9f08ef4", "lon": -77.0219105, "is_disabled": 0, "type": "electric_scooter"}, {"bike_id": "f972f648d78212f27111a0406928e904", "lat": 38.903276, "is_reserved": 0, "fusion_lat": 0.0, "rental_uris": {"android": "https://dc.lft.to/lastmile_qr_scan", "ios": "https://dc.lft.to/lastmile_qr_scan"}, "fusion_lon": 0.0, "name": "f972f648d78212f27111a0406928e904", "lon": -77.01628983333333, "is_disabled": 0, "type": "electric_scooter"}, {"bike_id": "f2570395b9a489fb31e42bdfa6d27a06", "lat": 38.862490333333334, "is_reserved": 0, "fusion_lat": 0.0, "rental_uris": {"android": "https://dc.lft.to/lastmile_qr_scan", "ios": "https://dc.lft.to/lastmile_qr_scan"}, "fusion_lon": 0.0, "name": "f2570395b9a489fb31e42bdfa6d27a06", "lon": -76.99261466666667, "is_disabled": 0, "type": "electric_scooter"}, {"bike_id": "3d3204deb3b18ef3759f3364f625694c", "lat": 38.8624495, "is_reserved": 0, "fusion_lat": 0.0, "rental_uris": {"android": "https://dc.lft.to/lastmile_qr_scan", "ios": "https://dc.lft.to/lastmile_qr_scan"}, "fusion_lon": 0.0, "name": "3d3204deb3b18ef3759f3364f625694c", "lon": -76.99502533333333, "is_disabled": 0, "type": "electric_scooter"}, {"bike_id": "7670c9922924593dbb305a6b212c1aa1", "lat": 38.87725066666667, "is_reserved": 0, "fusion_lat": 0.0, "rental_uris": {"android": "https://dc.lft.to/lastmile_qr_scan", "ios": "https://dc.lft.to/lastmile_qr_scan"}, "fusion_lon": 0.0, "name": "7670c9922924593dbb305a6b212c1aa1", "lon": -77.00300016666667, "is_disabled": 0, "type": "electric_scooter"}, {"bike_id": "eb351618fd15237cacec82ff6dd9a5d6", "lat": 38.88702716666667, "is_reserved": 0, "fusion_lat": 0.0, "rental_uris": {"android": "https://dc.lft.to/lastmile_qr_scan", "ios": "https://dc.lft.to/lastmile_qr_scan"}, "fusion_lon": 0.0, "name": "eb351618fd15237cacec82ff6dd9a5d6", "lon": -77.01371116666667, "is_disabled": 0, "type": "electric_scooter"}, {"bike_id": "c1ba4e162933fc06b5ad4cf818a5fd25", "lat": 38.915824666666666, "is_reserved": 0, "fusion_lat": 0.0, "rental_uris": {"android": "https://dc.lft.to/lastmile_qr_scan", "ios": "https://dc.lft.to/lastmile_qr_scan"}, "fusion_lon": 0.0, "name": "c1ba4e162933fc06b5ad4cf818a5fd25", "lon": -77.03179783333333, "is_disabled": 0, "type": "electric_scooter"}, {"bike_id": "6a99d4978b1f08b04e088831673422e4", "lat": 38.90443883333333, "is_reserved": 0, "fusion_lat": 0.0, "rental_uris": {"android": "https://dc.lft.to/lastmile_qr_scan", "ios": "https://dc.lft.to/lastmile_qr_scan"}, "fusion_lon": 0.0, "name": "6a99d4978b1f08b04e088831673422e4", "lon": -77.05320266666666, "is_disabled": 0, "type": "electric_scooter"}, {"bike_id": "6ff487b02e7cb20d1e9bba901a7c9fd2", "lat": 38.9231245, "is_reserved": 0, "fusion_lat": 0.0, "rental_uris": {"android": "https://dc.lft.to/lastmile_qr_scan", "ios": "https://dc.lft.to/lastmile_qr_scan"}, "fusion_lon": 0.0, "name": "6ff487b02e7cb20d1e9bba901a7c9fd2", "lon": -77.03670133333334, "is_disabled": 0, "type": "electric_scooter"}, {"bike_id": "fb981b11d527f4d30119ac5d4215b449", "lat": 38.93915666666667, "is_reserved": 0, "fusion_lat": 0.0, "rental_uris": {"android": "https://dc.lft.to/lastmile_qr_scan", "ios": "https://dc.lft.to/lastmile_qr_scan"}, "fusion_lon": 0.0, "name": "fb981b11d527f4d30119ac5d4215b449", "lon": -77.06047033333333, "is_disabled": 0, "type": "electric_scooter"}, {"bike_id": "039234032bdc4a8aa2034b2579dd5479", "lat": 38.91639166666667, "is_reserved": 0, "fusion_lat": 0.0, "rental_uris": {"android": "https://dc.lft.to/lastmile_qr_scan", "ios": "https://dc.lft.to/lastmile_qr_scan"}, "fusion_lon": 0.0, "name": "039234032bdc4a8aa2034b2579dd5479", "lon": -77.04818633333333, "is_disabled": 0, "type": "electric_scooter"}, {"bike_id": "9e112871277b24c7504ed1b29f2eb910", "lat": 38.90827983333333, "is_reserved": 0, "fusion_lat": 0.0, "rental_uris": {"android": "https://dc.lft.to/lastmile_qr_scan", "ios": "https://dc.lft.to/lastmile_qr_scan"}, "fusion_lon": 0.0, "name": "9e112871277b24c7504ed1b29f2eb910", "lon": -76.9415685, "is_disabled": 0, "type": "electric_bike"}, {"bike_id": "95d4f489ae504fae720935027e28fb1a", "lat": 38.91594466666667, "is_reserved": 0, "fusion_lat": 0.0, "rental_uris": {"android": "https://dc.lft.to/lastmile_qr_scan", "ios": "https://dc.lft.to/lastmile_qr_scan"}, "fusion_lon": 0.0, "name": "95d4f489ae504fae720935027e28fb1a", "lon": -77.001986, "is_disabled": 0, "type": "electric_scooter"}, {"bike_id": "8fc044599ae81f7f7ce92d20c04f0d67", "lat": 38.898451666666666, "is_reserved": 0, "fusion_lat": 0.0, "rental_uris": {"android": "https://dc.lft.to/lastmile_qr_scan", "ios": "https://dc.lft.to/lastmile_qr_scan"}, "fusion_lon": 0.0, "name": "8fc044599ae81f7f7ce92d20c04f0d67", "lon": -77.02187183333334, "is_disabled": 0, "type": "electric_scooter"}, {"bike_id": "e1f4371d526486c00b6535ee9c59ef45", "lat": 38.880608333333335, "is_reserved": 0, "fusion_lat": 0.0, "rental_uris": {"android": "https://dc.lft.to/lastmile_qr_scan", "ios": "https://dc.lft.to/lastmile_qr_scan"}, "fusion_lon": 0.0, "name": "e1f4371d526486c00b6535ee9c59ef45", "lon": -77.025573, "is_disabled": 0, "type": "electric_scooter"}, {"bike_id": "839502e42d84499e7a193c0447f2a516", "lat": 38.911311833333336, "is_reserved": 0, "fusion_lat": 0.0, "rental_uris": {"android": "https://dc.lft.to/lastmile_qr_scan", "ios": "https://dc.lft.to/lastmile_qr_scan"}, "fusion_lon": 0.0, "name": "839502e42d84499e7a193c0447f2a516", "lon": -77.04413916666667, "is_disabled": 0, "type": "electric_scooter"}, {"bike_id": "d148181dd46989ca9f9d5838a0876dc2", "lat": 38.87470583333333, "is_reserved": 0, "fusion_lat": 0.0, "rental_uris": {"android": "https://dc.lft.to/lastmile_qr_scan", "ios": "https://dc.lft.to/lastmile_qr_scan"}, "fusion_lon": 0.0, "name": "d148181dd46989ca9f9d5838a0876dc2", "lon": -77.0049345, "is_disabled": 0, "type": "electric_scooter"}, {"bike_id": "4fb42ce60b69b108110f14458b38adaf", "lat": 38.88674433333333, "is_reserved": 0, "fusion_lat": 0.0, "rental_uris": {"android": "https://dc.lft.to/lastmile_qr_scan", "ios": "https://dc.lft.to/lastmile_qr_scan"}, "fusion_lon": 0.0, "name": "4fb42ce60b69b108110f14458b38adaf", "lon": -77.01979983333334, "is_disabled": 0, "type": "electric_scooter"}, {"bike_id": "348328d2d2fff21f723b78cacf9668ac", "lat": 38.9041165, "is_reserved": 0, "fusion_lat": 0.0, "rental_uris": {"android": "https://dc.lft.to/lastmile_qr_scan", "ios": "https://dc.lft.to/lastmile_qr_scan"}, "fusion_lon": 0.0, "name": "348328d2d2fff21f723b78cacf9668ac", "lon": -76.97332433333334, "is_disabled": 0, "type": "electric_scooter"}, {"bike_id": "357cde94905ab7ba54c2d9945ac87410", "lat": 38.902676666666665, "is_reserved": 0, "fusion_lat": 0.0, "rental_uris": {"android": "https://dc.lft.to/lastmile_qr_scan", "ios": "https://dc.lft.to/lastmile_qr_scan"}, "fusion_lon": 0.0, "name": "357cde94905ab7ba54c2d9945ac87410", "lon": -77.02648833333333, "is_disabled": 0, "type": "electric_scooter"}, {"bike_id": "39996ba66bdda2f255ac517cace1bf32", "lat": 38.903126, "is_reserved": 0, "fusion_lat": 0.0, "rental_uris": {"android": "https://dc.lft.to/lastmile_qr_scan", "ios": "https://dc.lft.to/lastmile_qr_scan"}, "fusion_lon": 0.0, "name": "39996ba66bdda2f255ac517cace1bf32", "lon": -77.0343775, "is_disabled": 0, "type": "electric_scooter"}, {"bike_id": "2e8942c03d13db0e1a69b5661534d9ed", "lat": 38.907768833333336, "is_reserved": 0, "fusion_lat": 0.0, "rental_uris": {"android": "https://dc.lft.to/lastmile_qr_scan", "ios": "https://dc.lft.to/lastmile_qr_scan"}, "fusion_lon": 0.0, "name": "2e8942c03d13db0e1a69b5661534d9ed", "lon": -77.071677, "is_disabled": 0, "type": "electric_scooter"}, {"bike_id": "3a2d727897497fff775e9347c503a560", "lat": 38.89219383333333, "is_reserved": 0, "fusion_lat": 0.0, "rental_uris": {"android": "https://dc.lft.to/lastmile_qr_scan", "ios": "https://dc.lft.to/lastmile_qr_scan"}, "fusion_lon": 0.0, "name": "3a2d727897497fff775e9347c503a560", "lon": -76.97084333333333, "is_disabled": 0, "type": "electric_bike"}, {"bike_id": "55707722dc2ac2755723c61b1e2681c3", "lat": 38.85894966666667, "is_reserved": 0, "fusion_lat": 0.0, "rental_uris": {"android": "https://dc.lft.to/lastmile_qr_scan", "ios": "https://dc.lft.to/lastmile_qr_scan"}, "fusion_lon": 0.0, "name": "55707722dc2ac2755723c61b1e2681c3", "lon": -77.1186505, "is_disabled": 0, "type": "electric_bike"}, {"bike_id": "bcf6b86c6a524ee5bfaea29125cb6467", "lat": 38.898041, "is_reserved": 0, "fusion_lat": 0.0, "rental_uris": {"android": "https://dc.lft.to/lastmile_qr_scan", "ios": "https://dc.lft.to/lastmile_qr_scan"}, "fusion_lon": 0.0, "name": "bcf6b86c6a524ee5bfaea29125cb6467", "lon": -77.03214133333333, "is_disabled": 0, "type": "electric_scooter"}, {"bike_id": "bef1c18a4203cf7b01af2cc1723a6aed", "lat": 38.914032166666665, "is_reserved": 0, "fusion_lat": 0.0, "rental_uris": {"android": "https://dc.lft.to/lastmile_qr_scan", "ios": "https://dc.lft.to/lastmile_qr_scan"}, "fusion_lon": 0.0, "name": "bef1c18a4203cf7b01af2cc1723a6aed", "lon": -77.032627, "is_disabled": 0, "type": "electric_scooter"}, {"bike_id": "79f3fe8d6120729fb7148ec90a5648dc", "lat": 38.90237333333334, "is_reserved": 0, "fusion_lat": 0.0, "rental_uris": {"android": "https://dc.lft.to/lastmile_qr_scan", "ios": "https://dc.lft.to/lastmile_qr_scan"}, "fusion_lon": 0.0, "name": "79f3fe8d6120729fb7148ec90a5648dc", "lon": -77.002097, "is_disabled": 0, "type": "electric_scooter"}, {"bike_id": "923e6d9ce7e8922ad125441d6a45c7ab", "lat": 38.906876, "is_reserved": 0, "fusion_lat": 0.0, "rental_uris": {"android": "https://dc.lft.to/lastmile_qr_scan", "ios": "https://dc.lft.to/lastmile_qr_scan"}, "fusion_lon": 0.0, "name": "923e6d9ce7e8922ad125441d6a45c7ab", "lon": -77.010803, "is_disabled": 0, "type": "electric_scooter"}, {"bike_id": "47a28fd509071f412b5cc42037266944", "lat": 38.9138405, "is_reserved": 0, "fusion_lat": 0.0, "rental_uris": {"android": "https://dc.lft.to/lastmile_qr_scan", "ios": "https://dc.lft.to/lastmile_qr_scan"}, "fusion_lon": 0.0, "name": "47a28fd509071f412b5cc42037266944", "lon": -77.0321445, "is_disabled": 0, "type": "electric_scooter"}, {"bike_id": "da22b2e19cabd047b539959f4011ed4e", "lat": 38.89738416666667, "is_reserved": 0, "fusion_lat": 0.0, "rental_uris": {"android": "https://dc.lft.to/lastmile_qr_scan", "ios": "https://dc.lft.to/lastmile_qr_scan"}, "fusion_lon": 0.0, "name": "da22b2e19cabd047b539959f4011ed4e", "lon": -76.94726216666666, "is_disabled": 0, "type": "electric_scooter"}, {"bike_id": "09484fd5ad6de6e909ea2f869cb1afc7", "lat": 38.89741266666667, "is_reserved": 0, "fusion_lat": 0.0, "rental_uris": {"android": "https://dc.lft.to/lastmile_qr_scan", "ios": "https://dc.lft.to/lastmile_qr_scan"}, "fusion_lon": 0.0, "name": "09484fd5ad6de6e909ea2f869cb1afc7", "lon": -77.02760033333334, "is_disabled": 0, "type": "electric_scooter"}, {"bike_id": "877aab5db7d583b6fe277fedde3f2605", "lat": 38.929291666666664, "is_reserved": 0, "fusion_lat": 0.0, "rental_uris": {"android": "https://dc.lft.to/lastmile_qr_scan", "ios": "https://dc.lft.to/lastmile_qr_scan"}, "fusion_lon": 0.0, "name": "877aab5db7d583b6fe277fedde3f2605", "lon": -77.032633, "is_disabled": 0, "type": "electric_scooter"}, {"bike_id": "ccb168f19f626b8f7d18807c8a5248d5", "lat": 38.91422283333333, "is_reserved": 0, "fusion_lat": 0.0, "rental_uris": {"android": "https://dc.lft.to/lastmile_qr_scan", "ios": "https://dc.lft.to/lastmile_qr_scan"}, "fusion_lon": 0.0, "name": "ccb168f19f626b8f7d18807c8a5248d5", "lon": -77.02183733333334, "is_disabled": 0, "type": "electric_scooter"}, {"bike_id": "7bf4d2eaefaecf2d4d71584c7ca95b76", "lat": 38.901412, "is_reserved": 0, "fusion_lat": 0.0, "rental_uris": {"android": "https://dc.lft.to/lastmile_qr_scan", "ios": "https://dc.lft.to/lastmile_qr_scan"}, "fusion_lon": 0.0, "name": "7bf4d2eaefaecf2d4d71584c7ca95b76", "lon": -77.0416835, "is_disabled": 0, "type": "electric_scooter"}, {"bike_id": "0955a8e9c2594643c5d50d7f1c011ccd", "lat": 38.903985166666665, "is_reserved": 0, "fusion_lat": 0.0, "rental_uris": {"android": "https://dc.lft.to/lastmile_qr_scan", "ios": "https://dc.lft.to/lastmile_qr_scan"}, "fusion_lon": 0.0, "name": "0955a8e9c2594643c5d50d7f1c011ccd", "lon": -77.06297166666667, "is_disabled": 0, "type": "electric_scooter"}, {"bike_id": "17b34e733caac2bc1c536f1c075476f7", "lat": 38.92203883333333, "is_reserved": 0, "fusion_lat": 0.0, "rental_uris": {"android": "https://dc.lft.to/lastmile_qr_scan", "ios": "https://dc.lft.to/lastmile_qr_scan"}, "fusion_lon": 0.0, "name": "17b34e733caac2bc1c536f1c075476f7", "lon": -77.02029683333333, "is_disabled": 0, "type": "electric_scooter"}, {"bike_id": "44175a8fe9459596860a2a0cdc3d4c0e", "lat": 38.9006255, "is_reserved": 0, "fusion_lat": 0.0, "rental_uris": {"android": "https://dc.lft.to/lastmile_qr_scan", "ios": "https://dc.lft.to/lastmile_qr_scan"}, "fusion_lon": 0.0, "name": "44175a8fe9459596860a2a0cdc3d4c0e", "lon": -77.04531633333333, "is_disabled": 0, "type": "electric_scooter"}, {"bike_id": "a9d4bf1e2dd737aee0263b4979922ec9", "lat": 38.87875433333333, "is_reserved": 0, "fusion_lat": 0.0, "rental_uris": {"android": "https://dc.lft.to/lastmile_qr_scan", "ios": "https://dc.lft.to/lastmile_qr_scan"}, "fusion_lon": 0.0, "name": "a9d4bf1e2dd737aee0263b4979922ec9", "lon": -77.02341183333333, "is_disabled": 0, "type": "electric_scooter"}, {"bike_id": "062d31fc22aec540e802a486d5fdba1f", "lat": 38.949203, "is_reserved": 0, "fusion_lat": 0.0, "rental_uris": {"android": "https://dc.lft.to/lastmile_qr_scan", "ios": "https://dc.lft.to/lastmile_qr_scan"}, "fusion_lon": 0.0, "name": "062d31fc22aec540e802a486d5fdba1f", "lon": -77.00799916666666, "is_disabled": 0, "type": "electric_bike"}, {"bike_id": "ba3142fb55051c0328dec87edaac7edf", "lat": 38.930626, "is_reserved": 0, "fusion_lat": 0.0, "rental_uris": {"android": "https://dc.lft.to/lastmile_qr_scan", "ios": "https://dc.lft.to/lastmile_qr_scan"}, "fusion_lon": 0.0, "name": "ba3142fb55051c0328dec87edaac7edf", "lon": -77.038958, "is_disabled": 0, "type": "electric_scooter"}, {"bike_id": "81c376d117cc3f61dfd85e4f2732be45", "lat": 38.819339666666664, "is_reserved": 0, "fusion_lat": 0.0, "rental_uris": {"android": "https://dc.lft.to/lastmile_qr_scan", "ios": "https://dc.lft.to/lastmile_qr_scan"}, "fusion_lon": 0.0, "name": "81c376d117cc3f61dfd85e4f2732be45", "lon": -77.0020065, "is_disabled": 0, "type": "electric_bike"}, {"bike_id": "30a4c069bfb75b4ba379948e1519c9b2", "lat": 38.931861166666664, "is_reserved": 0, "fusion_lat": 0.0, "rental_uris": {"android": "https://dc.lft.to/lastmile_qr_scan", "ios": "https://dc.lft.to/lastmile_qr_scan"}, "fusion_lon": 0.0, "name": "30a4c069bfb75b4ba379948e1519c9b2", "lon": -77.08429066666666, "is_disabled": 0, "type": "electric_scooter"}, {"bike_id": "58675ae14ec4f5875c47e42191e2f19a", "lat": 38.871697833333336, "is_reserved": 0, "fusion_lat": 0.0, "rental_uris": {"android": "https://dc.lft.to/lastmile_qr_scan", "ios": "https://dc.lft.to/lastmile_qr_scan"}, "fusion_lon": 0.0, "name": "58675ae14ec4f5875c47e42191e2f19a", "lon": -77.00679266666667, "is_disabled": 0, "type": "electric_scooter"}, {"bike_id": "8d5e95c24fedd9eec75ea70cd7041806", "lat": 38.87710783333333, "is_reserved": 0, "fusion_lat": 0.0, "rental_uris": {"android": "https://dc.lft.to/lastmile_qr_scan", "ios": "https://dc.lft.to/lastmile_qr_scan"}, "fusion_lon": 0.0, "name": "8d5e95c24fedd9eec75ea70cd7041806", "lon": -77.01765966666666, "is_disabled": 0, "type": "electric_scooter"}, {"bike_id": "045aa2788b793c2b74ab8e428fd32d09", "lat": 38.898972666666666, "is_reserved": 0, "fusion_lat": 0.0, "rental_uris": {"android": "https://dc.lft.to/lastmile_qr_scan", "ios": "https://dc.lft.to/lastmile_qr_scan"}, "fusion_lon": 0.0, "name": "045aa2788b793c2b74ab8e428fd32d09", "lon": -76.97676633333333, "is_disabled": 0, "type": "electric_scooter"}, {"bike_id": "f6887fc6d88b5a91124f1458d9cd5eda", "lat": 38.919878833333335, "is_reserved": 0, "fusion_lat": 0.0, "rental_uris": {"android": "https://dc.lft.to/lastmile_qr_scan", "ios": "https://dc.lft.to/lastmile_qr_scan"}, "fusion_lon": 0.0, "name": "f6887fc6d88b5a91124f1458d9cd5eda", "lon": -77.0218415, "is_disabled": 0, "type": "electric_scooter"}, {"bike_id": "d8c428e2e25355d0df4eeb27dd9b0046", "lat": 38.91484533333333, "is_reserved": 0, "fusion_lat": 0.0, "rental_uris": {"android": "https://dc.lft.to/lastmile_qr_scan", "ios": "https://dc.lft.to/lastmile_qr_scan"}, "fusion_lon": 0.0, "name": "d8c428e2e25355d0df4eeb27dd9b0046", "lon": -77.035776, "is_disabled": 0, "type": "electric_scooter"}, {"bike_id": "2074ed99f8b1d1bf20441106d138cf93", "lat": 38.90854566666667, "is_reserved": 0, "fusion_lat": 0.0, "rental_uris": {"android": "https://dc.lft.to/lastmile_qr_scan", "ios": "https://dc.lft.to/lastmile_qr_scan"}, "fusion_lon": 0.0, "name": "2074ed99f8b1d1bf20441106d138cf93", "lon": -76.99965433333334, "is_disabled": 0, "type": "electric_scooter"}, {"bike_id": "40671267361e174514b07cc29b201272", "lat": 38.88775966666667, "is_reserved": 0, "fusion_lat": 0.0, "rental_uris": {"android": "https://dc.lft.to/lastmile_qr_scan", "ios": "https://dc.lft.to/lastmile_qr_scan"}, "fusion_lon": 0.0, "name": "40671267361e174514b07cc29b201272", "lon": -76.95525216666667, "is_disabled": 0, "type": "electric_scooter"}, {"bike_id": "9453c1adfaccaee90ed9af822a1f1823", "lat": 38.86626416666667, "is_reserved": 0, "fusion_lat": 0.0, "rental_uris": {"android": "https://dc.lft.to/lastmile_qr_scan", "ios": "https://dc.lft.to/lastmile_qr_scan"}, "fusion_lon": 0.0, "name": "9453c1adfaccaee90ed9af822a1f1823", "lon": -76.98716883333333, "is_disabled": 0, "type": "electric_scooter"}, {"bike_id": "ef1e01dbcee04d2c42c115db837b914f", "lat": 38.89730266666667, "is_reserved": 0, "fusion_lat": 0.0, "rental_uris": {"android": "https://dc.lft.to/lastmile_qr_scan", "ios": "https://dc.lft.to/lastmile_qr_scan"}, "fusion_lon": 0.0, "name": "ef1e01dbcee04d2c42c115db837b914f", "lon": -77.02725683333334, "is_disabled": 0, "type": "electric_scooter"}, {"bike_id": "667a8d8985f72481994cc3e53e40a677", "lat": 38.928870333333336, "is_reserved": 0, "fusion_lat": 0.0, "rental_uris": {"android": "https://dc.lft.to/lastmile_qr_scan", "ios": "https://dc.lft.to/lastmile_qr_scan"}, "fusion_lon": 0.0, "name": "667a8d8985f72481994cc3e53e40a677", "lon": -77.0392425, "is_disabled": 0, "type": "electric_scooter"}, {"bike_id": "535825f3f3a64d3f776c0ddfb85d146c", "lat": 38.896626499999996, "is_reserved": 0, "fusion_lat": 0.0, "rental_uris": {"android": "https://dc.lft.to/lastmile_qr_scan", "ios": "https://dc.lft.to/lastmile_qr_scan"}, "fusion_lon": 0.0, "name": "535825f3f3a64d3f776c0ddfb85d146c", "lon": -77.071237, "is_disabled": 0, "type": "electric_scooter"}, {"bike_id": "1f721d152cc578372602251b5725a729", "lat": 38.93169916666667, "is_reserved": 0, "fusion_lat": 0.0, "rental_uris": {"android": "https://dc.lft.to/lastmile_qr_scan", "ios": "https://dc.lft.to/lastmile_qr_scan"}, "fusion_lon": 0.0, "name": "1f721d152cc578372602251b5725a729", "lon": -77.03163366666666, "is_disabled": 0, "type": "electric_scooter"}, {"bike_id": "b27307d32f348aa57cd27e1a1553abba", "lat": 38.90364866666667, "is_reserved": 0, "fusion_lat": 0.0, "rental_uris": {"android": "https://dc.lft.to/lastmile_qr_scan", "ios": "https://dc.lft.to/lastmile_qr_scan"}, "fusion_lon": 0.0, "name": "b27307d32f348aa57cd27e1a1553abba", "lon": -77.0317565, "is_disabled": 0, "type": "electric_scooter"}, {"bike_id": "3b38f94deec73621bf4abb70c8cdd9f2", "lat": 38.908343, "is_reserved": 0, "fusion_lat": 0.0, "rental_uris": {"android": "https://dc.lft.to/lastmile_qr_scan", "ios": "https://dc.lft.to/lastmile_qr_scan"}, "fusion_lon": 0.0, "name": "3b38f94deec73621bf4abb70c8cdd9f2", "lon": -77.04352033333333, "is_disabled": 0, "type": "electric_scooter"}, {"bike_id": "391c6f161f1b6b317d427c9fe2e005b3", "lat": 38.90871933333333, "is_reserved": 0, "fusion_lat": 0.0, "rental_uris": {"android": "https://dc.lft.to/lastmile_qr_scan", "ios": "https://dc.lft.to/lastmile_qr_scan"}, "fusion_lon": 0.0, "name": "391c6f161f1b6b317d427c9fe2e005b3", "lon": -77.0319825, "is_disabled": 0, "type": "electric_scooter"}, {"bike_id": "d378c7949e0a6c9fda2fecf1f614a8bc", "lat": 38.8995895, "is_reserved": 0, "fusion_lat": 0.0, "rental_uris": {"android": "https://dc.lft.to/lastmile_qr_scan", "ios": "https://dc.lft.to/lastmile_qr_scan"}, "fusion_lon": 0.0, "name": "d378c7949e0a6c9fda2fecf1f614a8bc", "lon": -77.02003333333333, "is_disabled": 0, "type": "electric_scooter"}, {"bike_id": "5febfef1a7425bc6123947209826f78d", "lat": 38.9233785, "is_reserved": 0, "fusion_lat": 0.0, "rental_uris": {"android": "https://dc.lft.to/lastmile_qr_scan", "ios": "https://dc.lft.to/lastmile_qr_scan"}, "fusion_lon": 0.0, "name": "5febfef1a7425bc6123947209826f78d", "lon": -77.05578283333334, "is_disabled": 0, "type": "electric_scooter"}, {"bike_id": "7f0626a52b3ff74cefea2e3c8b388731", "lat": 38.898851666666665, "is_reserved": 0, "fusion_lat": 0.0, "rental_uris": {"android": "https://dc.lft.to/lastmile_qr_scan", "ios": "https://dc.lft.to/lastmile_qr_scan"}, "fusion_lon": 0.0, "name": "7f0626a52b3ff74cefea2e3c8b388731", "lon": -76.93178283333333, "is_disabled": 0, "type": "electric_scooter"}, {"bike_id": "eec8c5cf8e332e2ab439fed86f41f479", "lat": 38.90045633333333, "is_reserved": 0, "fusion_lat": 0.0, "rental_uris": {"android": "https://dc.lft.to/lastmile_qr_scan", "ios": "https://dc.lft.to/lastmile_qr_scan"}, "fusion_lon": 0.0, "name": "eec8c5cf8e332e2ab439fed86f41f479", "lon": -77.0006225, "is_disabled": 0, "type": "electric_scooter"}, {"bike_id": "d102b6e172764ce0412c9536771ef937", "lat": 38.89193516666667, "is_reserved": 0, "fusion_lat": 0.0, "rental_uris": {"android": "https://dc.lft.to/lastmile_qr_scan", "ios": "https://dc.lft.to/lastmile_qr_scan"}, "fusion_lon": 0.0, "name": "d102b6e172764ce0412c9536771ef937", "lon": -77.024061, "is_disabled": 0, "type": "electric_scooter"}, {"bike_id": "92c50d1c4c2f6317806d707d9446645f", "lat": 38.897363666666664, "is_reserved": 0, "fusion_lat": 0.0, "rental_uris": {"android": "https://dc.lft.to/lastmile_qr_scan", "ios": "https://dc.lft.to/lastmile_qr_scan"}, "fusion_lon": 0.0, "name": "92c50d1c4c2f6317806d707d9446645f", "lon": -76.94724833333333, "is_disabled": 0, "type": "electric_scooter"}, {"bike_id": "1a574da491e0a062520439ad4bb111c0", "lat": 38.91557366666667, "is_reserved": 0, "fusion_lat": 0.0, "rental_uris": {"android": "https://dc.lft.to/lastmile_qr_scan", "ios": "https://dc.lft.to/lastmile_qr_scan"}, "fusion_lon": 0.0, "name": "1a574da491e0a062520439ad4bb111c0", "lon": -77.021723, "is_disabled": 0, "type": "electric_scooter"}, {"bike_id": "5ab6b624e2d15c625b0b55044a7952c4", "lat": 38.90571166666667, "is_reserved": 0, "fusion_lat": 0.0, "rental_uris": {"android": "https://dc.lft.to/lastmile_qr_scan", "ios": "https://dc.lft.to/lastmile_qr_scan"}, "fusion_lon": 0.0, "name": "5ab6b624e2d15c625b0b55044a7952c4", "lon": -77.00584533333334, "is_disabled": 0, "type": "electric_scooter"}, {"bike_id": "4c6d37780d1030d6b877d0c9a8d97905", "lat": 38.931703166666665, "is_reserved": 0, "fusion_lat": 0.0, "rental_uris": {"android": "https://dc.lft.to/lastmile_qr_scan", "ios": "https://dc.lft.to/lastmile_qr_scan"}, "fusion_lon": 0.0, "name": "4c6d37780d1030d6b877d0c9a8d97905", "lon": -77.03671183333333, "is_disabled": 0, "type": "electric_scooter"}, {"bike_id": "3ec1c7f11a0da51eb84a361defe479f5", "lat": 38.89046316666666, "is_reserved": 0, "fusion_lat": 0.0, "rental_uris": {"android": "https://dc.lft.to/lastmile_qr_scan", "ios": "https://dc.lft.to/lastmile_qr_scan"}, "fusion_lon": 0.0, "name": "3ec1c7f11a0da51eb84a361defe479f5", "lon": -76.93758133333333, "is_disabled": 0, "type": "electric_scooter"}, {"bike_id": "2c8a704d20db46bcf75414e214355752", "lat": 38.92973883333333, "is_reserved": 0, "fusion_lat": 0.0, "rental_uris": {"android": "https://dc.lft.to/lastmile_qr_scan", "ios": "https://dc.lft.to/lastmile_qr_scan"}, "fusion_lon": 0.0, "name": "2c8a704d20db46bcf75414e214355752", "lon": -77.01300283333333, "is_disabled": 0, "type": "electric_scooter"}, {"bike_id": "6decb0377af1f4485756e694b717a373", "lat": 38.9233635, "is_reserved": 0, "fusion_lat": 0.0, "rental_uris": {"android": "https://dc.lft.to/lastmile_qr_scan", "ios": "https://dc.lft.to/lastmile_qr_scan"}, "fusion_lon": 0.0, "name": "6decb0377af1f4485756e694b717a373", "lon": -77.05334333333333, "is_disabled": 0, "type": "electric_scooter"}, {"bike_id": "83e08d0a9fdf5528998f0974dafb24ce", "lat": 38.906726166666665, "is_reserved": 0, "fusion_lat": 0.0, "rental_uris": {"android": "https://dc.lft.to/lastmile_qr_scan", "ios": "https://dc.lft.to/lastmile_qr_scan"}, "fusion_lon": 0.0, "name": "83e08d0a9fdf5528998f0974dafb24ce", "lon": -77.03827366666667, "is_disabled": 0, "type": "electric_scooter"}, {"bike_id": "6c3891fde910f83e1e7988a39d2191f4", "lat": 38.91555266666667, "is_reserved": 0, "fusion_lat": 0.0, "rental_uris": {"android": "https://dc.lft.to/lastmile_qr_scan", "ios": "https://dc.lft.to/lastmile_qr_scan"}, "fusion_lon": 0.0, "name": "6c3891fde910f83e1e7988a39d2191f4", "lon": -77.0333035, "is_disabled": 0, "type": "electric_scooter"}, {"bike_id": "b1dbfb73db004d321107ead28cadfb5b", "lat": 38.92300016666667, "is_reserved": 0, "fusion_lat": 0.0, "rental_uris": {"android": "https://dc.lft.to/lastmile_qr_scan", "ios": "https://dc.lft.to/lastmile_qr_scan"}, "fusion_lon": 0.0, "name": "b1dbfb73db004d321107ead28cadfb5b", "lon": -77.04182283333333, "is_disabled": 0, "type": "electric_scooter"}, {"bike_id": "63cc24781ebc94e2e971172f50072960", "lat": 38.965568166666664, "is_reserved": 0, "fusion_lat": 0.0, "rental_uris": {"android": "https://dc.lft.to/lastmile_qr_scan", "ios": "https://dc.lft.to/lastmile_qr_scan"}, "fusion_lon": 0.0, "name": "63cc24781ebc94e2e971172f50072960", "lon": -77.002035, "is_disabled": 0, "type": "electric_scooter"}, {"bike_id": "11ed3e41a897a44855bf623c0c33fe5c", "lat": 38.892219833333336, "is_reserved": 0, "fusion_lat": 0.0, "rental_uris": {"android": "https://dc.lft.to/lastmile_qr_scan", "ios": "https://dc.lft.to/lastmile_qr_scan"}, "fusion_lon": 0.0, "name": "11ed3e41a897a44855bf623c0c33fe5c", "lon": -77.04371583333334, "is_disabled": 0, "type": "electric_scooter"}, {"bike_id": "7ad0f012a364c3d372a228f793294f2f", "lat": 38.9324935, "is_reserved": 0, "fusion_lat": 0.0, "rental_uris": {"android": "https://dc.lft.to/lastmile_qr_scan", "ios": "https://dc.lft.to/lastmile_qr_scan"}, "fusion_lon": 0.0, "name": "7ad0f012a364c3d372a228f793294f2f", "lon": -77.03272816666667, "is_disabled": 0, "type": "electric_scooter"}, {"bike_id": "015bd65adc90534a719c3efd6ed9d459", "lat": 38.92604266666667, "is_reserved": 0, "fusion_lat": 0.0, "rental_uris": {"android": "https://dc.lft.to/lastmile_qr_scan", "ios": "https://dc.lft.to/lastmile_qr_scan"}, "fusion_lon": 0.0, "name": "015bd65adc90534a719c3efd6ed9d459", "lon": -77.02157916666667, "is_disabled": 0, "type": "electric_scooter"}, {"bike_id": "2ba36e146ce91dfcf8efeb27a70b4efe", "lat": 38.905861333333334, "is_reserved": 0, "fusion_lat": 0.0, "rental_uris": {"android": "https://dc.lft.to/lastmile_qr_scan", "ios": "https://dc.lft.to/lastmile_qr_scan"}, "fusion_lon": 0.0, "name": "2ba36e146ce91dfcf8efeb27a70b4efe", "lon": -77.04702433333334, "is_disabled": 0, "type": "electric_scooter"}, {"bike_id": "c1cc529ee072dd45ccebbc079948756d", "lat": 38.93606, "is_reserved": 0, "fusion_lat": 0.0, "rental_uris": {"android": "https://dc.lft.to/lastmile_qr_scan", "ios": "https://dc.lft.to/lastmile_qr_scan"}, "fusion_lon": 0.0, "name": "c1cc529ee072dd45ccebbc079948756d", "lon": -77.05890716666667, "is_disabled": 0, "type": "electric_scooter"}, {"bike_id": "dab103fe6d9da68ac6823c604ab4437e", "lat": 38.90534316666667, "is_reserved": 0, "fusion_lat": 0.0, "rental_uris": {"android": "https://dc.lft.to/lastmile_qr_scan", "ios": "https://dc.lft.to/lastmile_qr_scan"}, "fusion_lon": 0.0, "name": "dab103fe6d9da68ac6823c604ab4437e", "lon": -77.03070533333333, "is_disabled": 0, "type": "electric_scooter"}, {"bike_id": "679b9a398e8293fcb29d357205c556bd", "lat": 38.892214, "is_reserved": 0, "fusion_lat": 0.0, "rental_uris": {"android": "https://dc.lft.to/lastmile_qr_scan", "ios": "https://dc.lft.to/lastmile_qr_scan"}, "fusion_lon": 0.0, "name": "679b9a398e8293fcb29d357205c556bd", "lon": -77.04868966666666, "is_disabled": 0, "type": "electric_scooter"}, {"bike_id": "beab9032d3daaeac3ffde4ba6baff814", "lat": 38.88299716666667, "is_reserved": 0, "fusion_lat": 0.0, "rental_uris": {"android": "https://dc.lft.to/lastmile_qr_scan", "ios": "https://dc.lft.to/lastmile_qr_scan"}, "fusion_lon": 0.0, "name": "beab9032d3daaeac3ffde4ba6baff814", "lon": -76.94204283333333, "is_disabled": 0, "type": "electric_scooter"}, {"bike_id": "150233aa3b06e4979b1af28a3b866f19", "lat": 38.90971616666667, "is_reserved": 0, "fusion_lat": 0.0, "rental_uris": {"android": "https://dc.lft.to/lastmile_qr_scan", "ios": "https://dc.lft.to/lastmile_qr_scan"}, "fusion_lon": 0.0, "name": "150233aa3b06e4979b1af28a3b866f19", "lon": -77.017271, "is_disabled": 0, "type": "electric_scooter"}, {"bike_id": "e1527755887b87eaaa4f05589a6ec59d", "lat": 38.91597566666667, "is_reserved": 0, "fusion_lat": 0.0, "rental_uris": {"android": "https://dc.lft.to/lastmile_qr_scan", "ios": "https://dc.lft.to/lastmile_qr_scan"}, "fusion_lon": 0.0, "name": "e1527755887b87eaaa4f05589a6ec59d", "lon": -77.00199433333333, "is_disabled": 0, "type": "electric_scooter"}, {"bike_id": "29d5fbd7d8414796a04a52ad9efaa638", "lat": 38.92326966666667, "is_reserved": 0, "fusion_lat": 0.0, "rental_uris": {"android": "https://dc.lft.to/lastmile_qr_scan", "ios": "https://dc.lft.to/lastmile_qr_scan"}, "fusion_lon": 0.0, "name": "29d5fbd7d8414796a04a52ad9efaa638", "lon": -77.0297015, "is_disabled": 0, "type": "electric_scooter"}, {"bike_id": "d4d896a3207a789974e6a4e1ea606082", "lat": 38.921502333333336, "is_reserved": 0, "fusion_lat": 0.0, "rental_uris": {"android": "https://dc.lft.to/lastmile_qr_scan", "ios": "https://dc.lft.to/lastmile_qr_scan"}, "fusion_lon": 0.0, "name": "d4d896a3207a789974e6a4e1ea606082", "lon": -77.03442266666667, "is_disabled": 0, "type": "electric_scooter"}, {"bike_id": "a76cf72fda080d220f5f79748036fd63", "lat": 38.9389125, "is_reserved": 0, "fusion_lat": 0.0, "rental_uris": {"android": "https://dc.lft.to/lastmile_qr_scan", "ios": "https://dc.lft.to/lastmile_qr_scan"}, "fusion_lon": 0.0, "name": "a76cf72fda080d220f5f79748036fd63", "lon": -77.0247665, "is_disabled": 0, "type": "electric_scooter"}, {"bike_id": "b55de9a0b093f20b97917aa5c1c03133", "lat": 38.923281833333334, "is_reserved": 0, "fusion_lat": 0.0, "rental_uris": {"android": "https://dc.lft.to/lastmile_qr_scan", "ios": "https://dc.lft.to/lastmile_qr_scan"}, "fusion_lon": 0.0, "name": "b55de9a0b093f20b97917aa5c1c03133", "lon": -77.054143, "is_disabled": 0, "type": "electric_scooter"}, {"bike_id": "87aa9e12aaab6aa5ed1462c8da35bef7", "lat": 38.93024533333333, "is_reserved": 0, "fusion_lat": 0.0, "rental_uris": {"android": "https://dc.lft.to/lastmile_qr_scan", "ios": "https://dc.lft.to/lastmile_qr_scan"}, "fusion_lon": 0.0, "name": "87aa9e12aaab6aa5ed1462c8da35bef7", "lon": -77.023329, "is_disabled": 0, "type": "electric_scooter"}, {"bike_id": "45d2d136827250a348e5028459684c80", "lat": 38.89721083333333, "is_reserved": 0, "fusion_lat": 0.0, "rental_uris": {"android": "https://dc.lft.to/lastmile_qr_scan", "ios": "https://dc.lft.to/lastmile_qr_scan"}, "fusion_lon": 0.0, "name": "45d2d136827250a348e5028459684c80", "lon": -77.02732516666667, "is_disabled": 0, "type": "electric_scooter"}, {"bike_id": "0b597d76e887c67387ef5641181b76a6", "lat": 38.91417033333333, "is_reserved": 0, "fusion_lat": 0.0, "rental_uris": {"android": "https://dc.lft.to/lastmile_qr_scan", "ios": "https://dc.lft.to/lastmile_qr_scan"}, "fusion_lon": 0.0, "name": "0b597d76e887c67387ef5641181b76a6", "lon": -77.01804233333333, "is_disabled": 0, "type": "electric_scooter"}, {"bike_id": "cc06b28dd38f5088a2def8c9c5c29fc3", "lat": 38.912697, "is_reserved": 0, "fusion_lat": 0.0, "rental_uris": {"android": "https://dc.lft.to/lastmile_qr_scan", "ios": "https://dc.lft.to/lastmile_qr_scan"}, "fusion_lon": 0.0, "name": "cc06b28dd38f5088a2def8c9c5c29fc3", "lon": -77.04496933333333, "is_disabled": 0, "type": "electric_scooter"}, {"bike_id": "9bb9535e0566b6124a2c347d6228dc1d", "lat": 38.92392483333333, "is_reserved": 0, "fusion_lat": 0.0, "rental_uris": {"android": "https://dc.lft.to/lastmile_qr_scan", "ios": "https://dc.lft.to/lastmile_qr_scan"}, "fusion_lon": 0.0, "name": "9bb9535e0566b6124a2c347d6228dc1d", "lon": -77.04453966666667, "is_disabled": 0, "type": "electric_scooter"}, {"bike_id": "70296827dc59339b7f832377c3a41d08", "lat": 38.92452316666667, "is_reserved": 0, "fusion_lat": 0.0, "rental_uris": {"android": "https://dc.lft.to/lastmile_qr_scan", "ios": "https://dc.lft.to/lastmile_qr_scan"}, "fusion_lon": 0.0, "name": "70296827dc59339b7f832377c3a41d08", "lon": -77.03339666666666, "is_disabled": 0, "type": "electric_scooter"}, {"bike_id": "a45e2a60d8c134e0a593502d5368685c", "lat": 38.9071785, "is_reserved": 0, "fusion_lat": 0.0, "rental_uris": {"android": "https://dc.lft.to/lastmile_qr_scan", "ios": "https://dc.lft.to/lastmile_qr_scan"}, "fusion_lon": 0.0, "name": "a45e2a60d8c134e0a593502d5368685c", "lon": -77.02171216666666, "is_disabled": 0, "type": "electric_scooter"}, {"bike_id": "f18f5d20a4a3b8719a001a8bc316c377", "lat": 38.918353833333335, "is_reserved": 0, "fusion_lat": 0.0, "rental_uris": {"android": "https://dc.lft.to/lastmile_qr_scan", "ios": "https://dc.lft.to/lastmile_qr_scan"}, "fusion_lon": 0.0, "name": "f18f5d20a4a3b8719a001a8bc316c377", "lon": -77.0318515, "is_disabled": 0, "type": "electric_scooter"}, {"bike_id": "2d10ff39c9d0840023e9ea670de2b683", "lat": 38.815063333333335, "is_reserved": 0, "fusion_lat": 0.0, "rental_uris": {"android": "https://dc.lft.to/lastmile_qr_scan", "ios": "https://dc.lft.to/lastmile_qr_scan"}, "fusion_lon": 0.0, "name": "2d10ff39c9d0840023e9ea670de2b683", "lon": -77.126547, "is_disabled": 0, "type": "electric_bike"}, {"bike_id": "32d399cfe1df8a7f4aa8a7449fc0a97d", "lat": 38.898649666666664, "is_reserved": 0, "fusion_lat": 0.0, "rental_uris": {"android": "https://dc.lft.to/lastmile_qr_scan", "ios": "https://dc.lft.to/lastmile_qr_scan"}, "fusion_lon": 0.0, "name": "32d399cfe1df8a7f4aa8a7449fc0a97d", "lon": -76.94639416666666, "is_disabled": 0, "type": "electric_scooter"}, {"bike_id": "f54c62ce56de88833d27e8aef0400e03", "lat": 38.87384, "is_reserved": 0, "fusion_lat": 0.0, "rental_uris": {"android": "https://dc.lft.to/lastmile_qr_scan", "ios": "https://dc.lft.to/lastmile_qr_scan"}, "fusion_lon": 0.0, "name": "f54c62ce56de88833d27e8aef0400e03", "lon": -77.00045016666667, "is_disabled": 0, "type": "electric_scooter"}, {"bike_id": "2611efeacffa9073c2d962bb4d1e045c", "lat": 38.90416483333333, "is_reserved": 0, "fusion_lat": 0.0, "rental_uris": {"android": "https://dc.lft.to/lastmile_qr_scan", "ios": "https://dc.lft.to/lastmile_qr_scan"}, "fusion_lon": 0.0, "name": "2611efeacffa9073c2d962bb4d1e045c", "lon": -77.02495033333334, "is_disabled": 0, "type": "electric_scooter"}, {"bike_id": "130aa074b4066a2994f4bbd1f91108c1", "lat": 38.796057166666664, "is_reserved": 0, "fusion_lat": 0.0, "rental_uris": {"android": "https://dc.lft.to/lastmile_qr_scan", "ios": "https://dc.lft.to/lastmile_qr_scan"}, "fusion_lon": 0.0, "name": "130aa074b4066a2994f4bbd1f91108c1", "lon": -76.99742416666666, "is_disabled": 0, "type": "electric_bike"}, {"bike_id": "ddc31e88739a77163007775ddd3e86c5", "lat": 38.90386616666667, "is_reserved": 0, "fusion_lat": 0.0, "rental_uris": {"android": "https://dc.lft.to/lastmile_qr_scan", "ios": "https://dc.lft.to/lastmile_qr_scan"}, "fusion_lon": 0.0, "name": "ddc31e88739a77163007775ddd3e86c5", "lon": -77.045178, "is_disabled": 0, "type": "electric_scooter"}, {"bike_id": "1c70f98d1299b2da2a8749f5a3b01f8d", "lat": 38.957417666666665, "is_reserved": 0, "fusion_lat": 0.0, "rental_uris": {"android": "https://dc.lft.to/lastmile_qr_scan", "ios": "https://dc.lft.to/lastmile_qr_scan"}, "fusion_lon": 0.0, "name": "1c70f98d1299b2da2a8749f5a3b01f8d", "lon": -77.02167466666667, "is_disabled": 0, "type": "electric_bike"}, {"bike_id": "f3731270a98a7834a3fea6a1f3347830", "lat": 38.95566066666667, "is_reserved": 0, "fusion_lat": 0.0, "rental_uris": {"android": "https://dc.lft.to/lastmile_qr_scan", "ios": "https://dc.lft.to/lastmile_qr_scan"}, "fusion_lon": 0.0, "name": "f3731270a98a7834a3fea6a1f3347830", "lon": -77.02719883333333, "is_disabled": 0, "type": "electric_scooter"}, {"bike_id": "50c4662c73a662c9eba566d6d9417b65", "lat": 38.8535435, "is_reserved": 0, "fusion_lat": 0.0, "rental_uris": {"android": "https://dc.lft.to/lastmile_qr_scan", "ios": "https://dc.lft.to/lastmile_qr_scan"}, "fusion_lon": 0.0, "name": "50c4662c73a662c9eba566d6d9417b65", "lon": -77.08686583333333, "is_disabled": 0, "type": "electric_bike"}, {"bike_id": "9e38f81508a4b7b3425ea46c2ee70df4", "lat": 38.923258, "is_reserved": 0, "fusion_lat": 0.0, "rental_uris": {"android": "https://dc.lft.to/lastmile_qr_scan", "ios": "https://dc.lft.to/lastmile_qr_scan"}, "fusion_lon": 0.0, "name": "9e38f81508a4b7b3425ea46c2ee70df4", "lon": -77.03678033333334, "is_disabled": 0, "type": "electric_scooter"}, {"bike_id": "bf868a4405f384c36871ba30fc17efa6", "lat": 38.923250833333334, "is_reserved": 0, "fusion_lat": 0.0, "rental_uris": {"android": "https://dc.lft.to/lastmile_qr_scan", "ios": "https://dc.lft.to/lastmile_qr_scan"}, "fusion_lon": 0.0, "name": "bf868a4405f384c36871ba30fc17efa6", "lon": -77.03676833333333, "is_disabled": 0, "type": "electric_scooter"}, {"bike_id": "5035dac0efd0f829ce370e72a40ee068", "lat": 38.8985685, "is_reserved": 0, "fusion_lat": 0.0, "rental_uris": {"android": "https://dc.lft.to/lastmile_qr_scan", "ios": "https://dc.lft.to/lastmile_qr_scan"}, "fusion_lon": 0.0, "name": "5035dac0efd0f829ce370e72a40ee068", "lon": -77.02723833333333, "is_disabled": 0, "type": "electric_scooter"}, {"bike_id": "a3418cdd4ca8d415ee2c3a7900727162", "lat": 38.922770666666665, "is_reserved": 0, "fusion_lat": 0.0, "rental_uris": {"android": "https://dc.lft.to/lastmile_qr_scan", "ios": "https://dc.lft.to/lastmile_qr_scan"}, "fusion_lon": 0.0, "name": "a3418cdd4ca8d415ee2c3a7900727162", "lon": -77.04236116666667, "is_disabled": 0, "type": "electric_scooter"}, {"bike_id": "a912df7e56b2e690335a25e0b9e9745b", "lat": 38.900468833333335, "is_reserved": 0, "fusion_lat": 0.0, "rental_uris": {"android": "https://dc.lft.to/lastmile_qr_scan", "ios": "https://dc.lft.to/lastmile_qr_scan"}, "fusion_lon": 0.0, "name": "a912df7e56b2e690335a25e0b9e9745b", "lon": -76.99155066666667, "is_disabled": 0, "type": "electric_scooter"}, {"bike_id": "c29b8e3a68a5737ee2d215f8f7e89f47", "lat": 38.91724, "is_reserved": 0, "fusion_lat": 0.0, "rental_uris": {"android": "https://dc.lft.to/lastmile_qr_scan", "ios": "https://dc.lft.to/lastmile_qr_scan"}, "fusion_lon": 0.0, "name": "c29b8e3a68a5737ee2d215f8f7e89f47", "lon": -77.02883916666667, "is_disabled": 0, "type": "electric_scooter"}, {"bike_id": "c91f211cc4e7f2e93dbd076b48ab220c", "lat": 38.915507833333336, "is_reserved": 0, "fusion_lat": 0.0, "rental_uris": {"android": "https://dc.lft.to/lastmile_qr_scan", "ios": "https://dc.lft.to/lastmile_qr_scan"}, "fusion_lon": 0.0, "name": "c91f211cc4e7f2e93dbd076b48ab220c", "lon": -77.02567, "is_disabled": 0, "type": "electric_scooter"}, {"bike_id": "9eacc7150a8dd9065de8be1d31c65d77", "lat": 38.90566283333333, "is_reserved": 0, "fusion_lat": 0.0, "rental_uris": {"android": "https://dc.lft.to/lastmile_qr_scan", "ios": "https://dc.lft.to/lastmile_qr_scan"}, "fusion_lon": 0.0, "name": "9eacc7150a8dd9065de8be1d31c65d77", "lon": -77.02212533333334, "is_disabled": 0, "type": "electric_scooter"}, {"bike_id": "4d3034ac5d01300d12373075944f10ae", "lat": 38.91033383333333, "is_reserved": 0, "fusion_lat": 0.0, "rental_uris": {"android": "https://dc.lft.to/lastmile_qr_scan", "ios": "https://dc.lft.to/lastmile_qr_scan"}, "fusion_lon": 0.0, "name": "4d3034ac5d01300d12373075944f10ae", "lon": -76.98553266666667, "is_disabled": 0, "type": "electric_scooter"}, {"bike_id": "f4b9b0a7fc018fc5504b08024042ec6e", "lat": 38.927627333333334, "is_reserved": 0, "fusion_lat": 0.0, "rental_uris": {"android": "https://dc.lft.to/lastmile_qr_scan", "ios": "https://dc.lft.to/lastmile_qr_scan"}, "fusion_lon": 0.0, "name": "f4b9b0a7fc018fc5504b08024042ec6e", "lon": -77.05644083333334, "is_disabled": 0, "type": "electric_scooter"}, {"bike_id": "21ce9ec39cccbb6472214573707d0276", "lat": 38.91111466666667, "is_reserved": 0, "fusion_lat": 0.0, "rental_uris": {"android": "https://dc.lft.to/lastmile_qr_scan", "ios": "https://dc.lft.to/lastmile_qr_scan"}, "fusion_lon": 0.0, "name": "21ce9ec39cccbb6472214573707d0276", "lon": -77.0386355, "is_disabled": 0, "type": "electric_scooter"}, {"bike_id": "450c642b0daac4439ff0e2872f865407", "lat": 38.923285166666666, "is_reserved": 0, "fusion_lat": 0.0, "rental_uris": {"android": "https://dc.lft.to/lastmile_qr_scan", "ios": "https://dc.lft.to/lastmile_qr_scan"}, "fusion_lon": 0.0, "name": "450c642b0daac4439ff0e2872f865407", "lon": -77.04616233333333, "is_disabled": 0, "type": "electric_scooter"}, {"bike_id": "7fed9d598c950cc9e88284575fe7752b", "lat": 38.90885766666667, "is_reserved": 0, "fusion_lat": 0.0, "rental_uris": {"android": "https://dc.lft.to/lastmile_qr_scan", "ios": "https://dc.lft.to/lastmile_qr_scan"}, "fusion_lon": 0.0, "name": "7fed9d598c950cc9e88284575fe7752b", "lon": -77.04665866666667, "is_disabled": 0, "type": "electric_scooter"}, {"bike_id": "2173243bde451daf82cdc1d811160525", "lat": 38.89138966666667, "is_reserved": 0, "fusion_lat": 0.0, "rental_uris": {"android": "https://dc.lft.to/lastmile_qr_scan", "ios": "https://dc.lft.to/lastmile_qr_scan"}, "fusion_lon": 0.0, "name": "2173243bde451daf82cdc1d811160525", "lon": -76.95189533333334, "is_disabled": 0, "type": "electric_scooter"}, {"bike_id": "61458ee24dc5939ac4f8178004b80d8e", "lat": 38.87174183333333, "is_reserved": 0, "fusion_lat": 0.0, "rental_uris": {"android": "https://dc.lft.to/lastmile_qr_scan", "ios": "https://dc.lft.to/lastmile_qr_scan"}, "fusion_lon": 0.0, "name": "61458ee24dc5939ac4f8178004b80d8e", "lon": -77.00628183333333, "is_disabled": 0, "type": "electric_scooter"}, {"bike_id": "949b0db28e9329a4a6b55b26231469c4", "lat": 38.92642633333333, "is_reserved": 0, "fusion_lat": 0.0, "rental_uris": {"android": "https://dc.lft.to/lastmile_qr_scan", "ios": "https://dc.lft.to/lastmile_qr_scan"}, "fusion_lon": 0.0, "name": "949b0db28e9329a4a6b55b26231469c4", "lon": -77.03432783333334, "is_disabled": 0, "type": "electric_scooter"}, {"bike_id": "f30c1d6e3e047d6c87529d3ad99de5d3", "lat": 38.89730266666667, "is_reserved": 0, "fusion_lat": 0.0, "rental_uris": {"android": "https://dc.lft.to/lastmile_qr_scan", "ios": "https://dc.lft.to/lastmile_qr_scan"}, "fusion_lon": 0.0, "name": "f30c1d6e3e047d6c87529d3ad99de5d3", "lon": -77.04451916666666, "is_disabled": 0, "type": "electric_scooter"}, {"bike_id": "ee3bb28496ac83b4f6f6f27ff68b8994", "lat": 38.93623683333333, "is_reserved": 0, "fusion_lat": 0.0, "rental_uris": {"android": "https://dc.lft.to/lastmile_qr_scan", "ios": "https://dc.lft.to/lastmile_qr_scan"}, "fusion_lon": 0.0, "name": "ee3bb28496ac83b4f6f6f27ff68b8994", "lon": -76.97974966666666, "is_disabled": 0, "type": "electric_scooter"}, {"bike_id": "4e394b1d93bf3955fbae866332f4e3c1", "lat": 38.91573116666667, "is_reserved": 0, "fusion_lat": 0.0, "rental_uris": {"android": "https://dc.lft.to/lastmile_qr_scan", "ios": "https://dc.lft.to/lastmile_qr_scan"}, "fusion_lon": 0.0, "name": "4e394b1d93bf3955fbae866332f4e3c1", "lon": -77.01877516666667, "is_disabled": 0, "type": "electric_scooter"}, {"bike_id": "558f38a5cb397a121a9e2bcdbf38745a", "lat": 38.90536616666667, "is_reserved": 0, "fusion_lat": 0.0, "rental_uris": {"android": "https://dc.lft.to/lastmile_qr_scan", "ios": "https://dc.lft.to/lastmile_qr_scan"}, "fusion_lon": 0.0, "name": "558f38a5cb397a121a9e2bcdbf38745a", "lon": -77.03448483333334, "is_disabled": 0, "type": "electric_scooter"}, {"bike_id": "bb31daf3bffb0e0f11f2b332fc6d16a2", "lat": 38.90381883333333, "is_reserved": 0, "fusion_lat": 0.0, "rental_uris": {"android": "https://dc.lft.to/lastmile_qr_scan", "ios": "https://dc.lft.to/lastmile_qr_scan"}, "fusion_lon": 0.0, "name": "bb31daf3bffb0e0f11f2b332fc6d16a2", "lon": -76.98209783333333, "is_disabled": 0, "type": "electric_scooter"}, {"bike_id": "b24d41111dc8fe0474a6ebc8c1b9de26", "lat": 38.9224675, "is_reserved": 0, "fusion_lat": 0.0, "rental_uris": {"android": "https://dc.lft.to/lastmile_qr_scan", "ios": "https://dc.lft.to/lastmile_qr_scan"}, "fusion_lon": 0.0, "name": "b24d41111dc8fe0474a6ebc8c1b9de26", "lon": -77.04021033333333, "is_disabled": 0, "type": "electric_scooter"}, {"bike_id": "e5aab0ec54c98599ffb2e3e28ab70ea2", "lat": 38.918219, "is_reserved": 0, "fusion_lat": 0.0, "rental_uris": {"android": "https://dc.lft.to/lastmile_qr_scan", "ios": "https://dc.lft.to/lastmile_qr_scan"}, "fusion_lon": 0.0, "name": "e5aab0ec54c98599ffb2e3e28ab70ea2", "lon": -77.04010083333333, "is_disabled": 0, "type": "electric_scooter"}, {"bike_id": "e06eea080a062492fa644caf43e5787e", "lat": 38.91491466666667, "is_reserved": 0, "fusion_lat": 0.0, "rental_uris": {"android": "https://dc.lft.to/lastmile_qr_scan", "ios": "https://dc.lft.to/lastmile_qr_scan"}, "fusion_lon": 0.0, "name": "e06eea080a062492fa644caf43e5787e", "lon": -77.0185805, "is_disabled": 0, "type": "electric_scooter"}, {"bike_id": "b50f346a54e33755caae3b61fb64dad6", "lat": 38.90655233333333, "is_reserved": 0, "fusion_lat": 0.0, "rental_uris": {"android": "https://dc.lft.to/lastmile_qr_scan", "ios": "https://dc.lft.to/lastmile_qr_scan"}, "fusion_lon": 0.0, "name": "b50f346a54e33755caae3b61fb64dad6", "lon": -77.0427255, "is_disabled": 0, "type": "electric_scooter"}, {"bike_id": "9fcc8de85b28c276959bb5354ad632cc", "lat": 38.914272833333335, "is_reserved": 0, "fusion_lat": 0.0, "rental_uris": {"android": "https://dc.lft.to/lastmile_qr_scan", "ios": "https://dc.lft.to/lastmile_qr_scan"}, "fusion_lon": 0.0, "name": "9fcc8de85b28c276959bb5354ad632cc", "lon": -77.031801, "is_disabled": 0, "type": "electric_scooter"}, {"bike_id": "4b80c9fabaa4f3dfb2410ef06a65d807", "lat": 38.92903116666667, "is_reserved": 0, "fusion_lat": 0.0, "rental_uris": {"android": "https://dc.lft.to/lastmile_qr_scan", "ios": "https://dc.lft.to/lastmile_qr_scan"}, "fusion_lon": 0.0, "name": "4b80c9fabaa4f3dfb2410ef06a65d807", "lon": -77.02748066666666, "is_disabled": 0, "type": "electric_scooter"}, {"bike_id": "8fe6616c066073868ad44fb3af654ec4", "lat": 38.9224945, "is_reserved": 0, "fusion_lat": 0.0, "rental_uris": {"android": "https://dc.lft.to/lastmile_qr_scan", "ios": "https://dc.lft.to/lastmile_qr_scan"}, "fusion_lon": 0.0, "name": "8fe6616c066073868ad44fb3af654ec4", "lon": -77.04273166666667, "is_disabled": 0, "type": "electric_scooter"}, {"bike_id": "1dd374d8bc718f4101420a1cbd305334", "lat": 38.93050266666667, "is_reserved": 0, "fusion_lat": 0.0, "rental_uris": {"android": "https://dc.lft.to/lastmile_qr_scan", "ios": "https://dc.lft.to/lastmile_qr_scan"}, "fusion_lon": 0.0, "name": "1dd374d8bc718f4101420a1cbd305334", "lon": -77.04257483333333, "is_disabled": 0, "type": "electric_scooter"}, {"bike_id": "954a096015e0d83f0cf5d0ee2e7a90bf", "lat": 38.8770955, "is_reserved": 0, "fusion_lat": 0.0, "rental_uris": {"android": "https://dc.lft.to/lastmile_qr_scan", "ios": "https://dc.lft.to/lastmile_qr_scan"}, "fusion_lon": 0.0, "name": "954a096015e0d83f0cf5d0ee2e7a90bf", "lon": -77.0176765, "is_disabled": 0, "type": "electric_scooter"}, {"bike_id": "0caeee350ccd1eb3071f7d4ec8435980", "lat": 38.851786, "is_reserved": 0, "fusion_lat": 0.0, "rental_uris": {"android": "https://dc.lft.to/lastmile_qr_scan", "ios": "https://dc.lft.to/lastmile_qr_scan"}, "fusion_lon": 0.0, "name": "0caeee350ccd1eb3071f7d4ec8435980", "lon": -76.995834, "is_disabled": 0, "type": "electric_scooter"}, {"bike_id": "9f44836f554da2147abd1875cd49b6ee", "lat": 38.913908166666666, "is_reserved": 0, "fusion_lat": 0.0, "rental_uris": {"android": "https://dc.lft.to/lastmile_qr_scan", "ios": "https://dc.lft.to/lastmile_qr_scan"}, "fusion_lon": 0.0, "name": "9f44836f554da2147abd1875cd49b6ee", "lon": -77.04607366666667, "is_disabled": 0, "type": "electric_scooter"}, {"bike_id": "5f2d9f4021a9834413b4f27165df542d", "lat": 38.9205005, "is_reserved": 0, "fusion_lat": 0.0, "rental_uris": {"android": "https://dc.lft.to/lastmile_qr_scan", "ios": "https://dc.lft.to/lastmile_qr_scan"}, "fusion_lon": 0.0, "name": "5f2d9f4021a9834413b4f27165df542d", "lon": -77.03347366666667, "is_disabled": 0, "type": "electric_scooter"}, {"bike_id": "0b1c9774173527d89edd7d375e61b833", "lat": 38.8836605, "is_reserved": 0, "fusion_lat": 0.0, "rental_uris": {"android": "https://dc.lft.to/lastmile_qr_scan", "ios": "https://dc.lft.to/lastmile_qr_scan"}, "fusion_lon": 0.0, "name": "0b1c9774173527d89edd7d375e61b833", "lon": -77.02009066666666, "is_disabled": 0, "type": "electric_scooter"}, {"bike_id": "ad8a5699f915c3b1061cb712fc965e0c", "lat": 38.912661, "is_reserved": 0, "fusion_lat": 0.0, "rental_uris": {"android": "https://dc.lft.to/lastmile_qr_scan", "ios": "https://dc.lft.to/lastmile_qr_scan"}, "fusion_lon": 0.0, "name": "ad8a5699f915c3b1061cb712fc965e0c", "lon": -77.0221405, "is_disabled": 0, "type": "electric_scooter"}, {"bike_id": "09abd5bea662cdc7e0f9a0f509a63768", "lat": 38.906824, "is_reserved": 0, "fusion_lat": 0.0, "rental_uris": {"android": "https://dc.lft.to/lastmile_qr_scan", "ios": "https://dc.lft.to/lastmile_qr_scan"}, "fusion_lon": 0.0, "name": "09abd5bea662cdc7e0f9a0f509a63768", "lon": -76.980013, "is_disabled": 0, "type": "electric_scooter"}, {"bike_id": "f5e196a3d63322238599a0b795e6018a", "lat": 38.9250865, "is_reserved": 0, "fusion_lat": 0.0, "rental_uris": {"android": "https://dc.lft.to/lastmile_qr_scan", "ios": "https://dc.lft.to/lastmile_qr_scan"}, "fusion_lon": 0.0, "name": "f5e196a3d63322238599a0b795e6018a", "lon": -77.00226116666667, "is_disabled": 0, "type": "electric_scooter"}, {"bike_id": "3158e5e3acfeefe44d8db6344c55a302", "lat": 38.8938465, "is_reserved": 0, "fusion_lat": 0.0, "rental_uris": {"android": "https://dc.lft.to/lastmile_qr_scan", "ios": "https://dc.lft.to/lastmile_qr_scan"}, "fusion_lon": 0.0, "name": "3158e5e3acfeefe44d8db6344c55a302", "lon": -77.02267366666666, "is_disabled": 0, "type": "electric_scooter"}, {"bike_id": "5ab624257e2267b528a12bd80fe7c1d2", "lat": 38.89848216666667, "is_reserved": 0, "fusion_lat": 0.0, "rental_uris": {"android": "https://dc.lft.to/lastmile_qr_scan", "ios": "https://dc.lft.to/lastmile_qr_scan"}, "fusion_lon": 0.0, "name": "5ab624257e2267b528a12bd80fe7c1d2", "lon": -76.92909883333333, "is_disabled": 0, "type": "electric_scooter"}, {"bike_id": "58afd289d1d57499e05e2aeaecf140eb", "lat": 38.948228, "is_reserved": 0, "fusion_lat": 0.0, "rental_uris": {"android": "https://dc.lft.to/lastmile_qr_scan", "ios": "https://dc.lft.to/lastmile_qr_scan"}, "fusion_lon": 0.0, "name": "58afd289d1d57499e05e2aeaecf140eb", "lon": -77.02491216666667, "is_disabled": 0, "type": "electric_scooter"}, {"bike_id": "e0bcddbee4ec6773e945b71cac6f755f", "lat": 38.902577, "is_reserved": 0, "fusion_lat": 0.0, "rental_uris": {"android": "https://dc.lft.to/lastmile_qr_scan", "ios": "https://dc.lft.to/lastmile_qr_scan"}, "fusion_lon": 0.0, "name": "e0bcddbee4ec6773e945b71cac6f755f", "lon": -77.03423433333333, "is_disabled": 0, "type": "electric_scooter"}, {"bike_id": "26f572d7c498cfbca01fbca59c6230bc", "lat": 38.918303, "is_reserved": 0, "fusion_lat": 0.0, "rental_uris": {"android": "https://dc.lft.to/lastmile_qr_scan", "ios": "https://dc.lft.to/lastmile_qr_scan"}, "fusion_lon": 0.0, "name": "26f572d7c498cfbca01fbca59c6230bc", "lon": -77.049351, "is_disabled": 0, "type": "electric_scooter"}, {"bike_id": "cb7dfd5d5d08e539dae323804da5714b", "lat": 38.914257, "is_reserved": 0, "fusion_lat": 0.0, "rental_uris": {"android": "https://dc.lft.to/lastmile_qr_scan", "ios": "https://dc.lft.to/lastmile_qr_scan"}, "fusion_lon": 0.0, "name": "cb7dfd5d5d08e539dae323804da5714b", "lon": -77.03186833333334, "is_disabled": 0, "type": "electric_scooter"}, {"bike_id": "739578dedf36afe5f8540510bb442dfb", "lat": 38.903432, "is_reserved": 0, "fusion_lat": 0.0, "rental_uris": {"android": "https://dc.lft.to/lastmile_qr_scan", "ios": "https://dc.lft.to/lastmile_qr_scan"}, "fusion_lon": 0.0, "name": "739578dedf36afe5f8540510bb442dfb", "lon": -77.0449755, "is_disabled": 0, "type": "electric_bike"}, {"bike_id": "2c7d0b1fce0fd8bc60736db659be44a0", "lat": 38.895307333333335, "is_reserved": 0, "fusion_lat": 0.0, "rental_uris": {"android": "https://dc.lft.to/lastmile_qr_scan", "ios": "https://dc.lft.to/lastmile_qr_scan"}, "fusion_lon": 0.0, "name": "2c7d0b1fce0fd8bc60736db659be44a0", "lon": -77.02820716666666, "is_disabled": 0, "type": "electric_scooter"}, {"bike_id": "5988696b4105c5bb5ddd7decef84be78", "lat": 38.89959116666667, "is_reserved": 0, "fusion_lat": 0.0, "rental_uris": {"android": "https://dc.lft.to/lastmile_qr_scan", "ios": "https://dc.lft.to/lastmile_qr_scan"}, "fusion_lon": 0.0, "name": "5988696b4105c5bb5ddd7decef84be78", "lon": -77.0145845, "is_disabled": 0, "type": "electric_scooter"}, {"bike_id": "e523da6a1a326124c32c0c5327369a33", "lat": 38.92608533333333, "is_reserved": 0, "fusion_lat": 0.0, "rental_uris": {"android": "https://dc.lft.to/lastmile_qr_scan", "ios": "https://dc.lft.to/lastmile_qr_scan"}, "fusion_lon": 0.0, "name": "e523da6a1a326124c32c0c5327369a33", "lon": -77.057039, "is_disabled": 0, "type": "electric_scooter"}, {"bike_id": "3208ad9514da3cb62fe3077e33f0b3cb", "lat": 38.92242483333333, "is_reserved": 0, "fusion_lat": 0.0, "rental_uris": {"android": "https://dc.lft.to/lastmile_qr_scan", "ios": "https://dc.lft.to/lastmile_qr_scan"}, "fusion_lon": 0.0, "name": "3208ad9514da3cb62fe3077e33f0b3cb", "lon": -77.02987466666667, "is_disabled": 0, "type": "electric_scooter"}, {"bike_id": "8bf2182276d48196600f22bc6e2082c6", "lat": 38.9085415, "is_reserved": 0, "fusion_lat": 0.0, "rental_uris": {"android": "https://dc.lft.to/lastmile_qr_scan", "ios": "https://dc.lft.to/lastmile_qr_scan"}, "fusion_lon": 0.0, "name": "8bf2182276d48196600f22bc6e2082c6", "lon": -76.99801883333333, "is_disabled": 0, "type": "electric_scooter"}, {"bike_id": "2f72154e95865805c1ab8df55504fb62", "lat": 38.90658483333333, "is_reserved": 0, "fusion_lat": 0.0, "rental_uris": {"android": "https://dc.lft.to/lastmile_qr_scan", "ios": "https://dc.lft.to/lastmile_qr_scan"}, "fusion_lon": 0.0, "name": "2f72154e95865805c1ab8df55504fb62", "lon": -77.026841, "is_disabled": 0, "type": "electric_scooter"}, {"bike_id": "8ae1f2ef6dec9446f3efaadb5aba2ec4", "lat": 38.91424283333333, "is_reserved": 0, "fusion_lat": 0.0, "rental_uris": {"android": "https://dc.lft.to/lastmile_qr_scan", "ios": "https://dc.lft.to/lastmile_qr_scan"}, "fusion_lon": 0.0, "name": "8ae1f2ef6dec9446f3efaadb5aba2ec4", "lon": -77.01991283333334, "is_disabled": 0, "type": "electric_scooter"}, {"bike_id": "689100682162356ad5359592f5cd6b3b", "lat": 38.89616916666667, "is_reserved": 0, "fusion_lat": 0.0, "rental_uris": {"android": "https://dc.lft.to/lastmile_qr_scan", "ios": "https://dc.lft.to/lastmile_qr_scan"}, "fusion_lon": 0.0, "name": "689100682162356ad5359592f5cd6b3b", "lon": -77.026346, "is_disabled": 0, "type": "electric_scooter"}, {"bike_id": "1690a02ba5f560c046c8c8a7b57ffc5f", "lat": 38.91698783333333, "is_reserved": 0, "fusion_lat": 0.0, "rental_uris": {"android": "https://dc.lft.to/lastmile_qr_scan", "ios": "https://dc.lft.to/lastmile_qr_scan"}, "fusion_lon": 0.0, "name": "1690a02ba5f560c046c8c8a7b57ffc5f", "lon": -77.03228783333333, "is_disabled": 0, "type": "electric_scooter"}, {"bike_id": "c39443a677d4ea740f0d0bb566262f5e", "lat": 38.892217333333335, "is_reserved": 0, "fusion_lat": 0.0, "rental_uris": {"android": "https://dc.lft.to/lastmile_qr_scan", "ios": "https://dc.lft.to/lastmile_qr_scan"}, "fusion_lon": 0.0, "name": "c39443a677d4ea740f0d0bb566262f5e", "lon": -77.04862716666666, "is_disabled": 0, "type": "electric_scooter"}, {"bike_id": "3977a38a1a2685491874cebe7fbbfac9", "lat": 38.83609883333333, "is_reserved": 0, "fusion_lat": 0.0, "rental_uris": {"android": "https://dc.lft.to/lastmile_qr_scan", "ios": "https://dc.lft.to/lastmile_qr_scan"}, "fusion_lon": 0.0, "name": "3977a38a1a2685491874cebe7fbbfac9", "lon": -77.0038305, "is_disabled": 0, "type": "electric_bike"}, {"bike_id": "8d1e1e0d8e8a29020079c35ea2aaaef9", "lat": 38.89730633333333, "is_reserved": 0, "fusion_lat": 0.0, "rental_uris": {"android": "https://dc.lft.to/lastmile_qr_scan", "ios": "https://dc.lft.to/lastmile_qr_scan"}, "fusion_lon": 0.0, "name": "8d1e1e0d8e8a29020079c35ea2aaaef9", "lon": -77.05555833333334, "is_disabled": 0, "type": "electric_bike"}, {"bike_id": "b3c7992743e44731ee94baf0484b24f7", "lat": 38.907483666666664, "is_reserved": 0, "fusion_lat": 0.0, "rental_uris": {"android": "https://dc.lft.to/lastmile_qr_scan", "ios": "https://dc.lft.to/lastmile_qr_scan"}, "fusion_lon": 0.0, "name": "b3c7992743e44731ee94baf0484b24f7", "lon": -77.00275116666667, "is_disabled": 0, "type": "electric_scooter"}, {"bike_id": "4d3a023398ed8ad620fbb018235ad258", "lat": 38.92320083333333, "is_reserved": 0, "fusion_lat": 0.0, "rental_uris": {"android": "https://dc.lft.to/lastmile_qr_scan", "ios": "https://dc.lft.to/lastmile_qr_scan"}, "fusion_lon": 0.0, "name": "4d3a023398ed8ad620fbb018235ad258", "lon": -77.03762216666667, "is_disabled": 0, "type": "electric_scooter"}, {"bike_id": "469f2c180ab1ce7e683abf651b8ca1ea", "lat": 38.9155915, "is_reserved": 0, "fusion_lat": 0.0, "rental_uris": {"android": "https://dc.lft.to/lastmile_qr_scan", "ios": "https://dc.lft.to/lastmile_qr_scan"}, "fusion_lon": 0.0, "name": "469f2c180ab1ce7e683abf651b8ca1ea", "lon": -77.01038766666667, "is_disabled": 0, "type": "electric_scooter"}, {"bike_id": "193f3e2aa6b7d6258afd874ef818549f", "lat": 38.930797166666665, "is_reserved": 0, "fusion_lat": 0.0, "rental_uris": {"android": "https://dc.lft.to/lastmile_qr_scan", "ios": "https://dc.lft.to/lastmile_qr_scan"}, "fusion_lon": 0.0, "name": "193f3e2aa6b7d6258afd874ef818549f", "lon": -77.02793383333334, "is_disabled": 0, "type": "electric_scooter"}, {"bike_id": "5055ca4712ded65e612c5f0e7ad0fe65", "lat": 38.90260933333333, "is_reserved": 0, "fusion_lat": 0.0, "rental_uris": {"android": "https://dc.lft.to/lastmile_qr_scan", "ios": "https://dc.lft.to/lastmile_qr_scan"}, "fusion_lon": 0.0, "name": "5055ca4712ded65e612c5f0e7ad0fe65", "lon": -77.03252083333334, "is_disabled": 0, "type": "electric_scooter"}, {"bike_id": "9d442dbb4d15e9ad89e4a67598279997", "lat": 38.893845, "is_reserved": 0, "fusion_lat": 0.0, "rental_uris": {"android": "https://dc.lft.to/lastmile_qr_scan", "ios": "https://dc.lft.to/lastmile_qr_scan"}, "fusion_lon": 0.0, "name": "9d442dbb4d15e9ad89e4a67598279997", "lon": -77.01517733333333, "is_disabled": 0, "type": "electric_scooter"}, {"bike_id": "ae44c9696a8410ba13ae62877fad5241", "lat": 38.90015483333333, "is_reserved": 0, "fusion_lat": 0.0, "rental_uris": {"android": "https://dc.lft.to/lastmile_qr_scan", "ios": "https://dc.lft.to/lastmile_qr_scan"}, "fusion_lon": 0.0, "name": "ae44c9696a8410ba13ae62877fad5241", "lon": -77.04066833333333, "is_disabled": 0, "type": "electric_scooter"}, {"bike_id": "44250d20f019fead3d47d2f48b1ebd18", "lat": 38.9026935, "is_reserved": 0, "fusion_lat": 0.0, "rental_uris": {"android": "https://dc.lft.to/lastmile_qr_scan", "ios": "https://dc.lft.to/lastmile_qr_scan"}, "fusion_lon": 0.0, "name": "44250d20f019fead3d47d2f48b1ebd18", "lon": -77.03979116666666, "is_disabled": 0, "type": "electric_scooter"}, {"bike_id": "2a4acfd8906088642384c906266a2dee", "lat": 38.9126585, "is_reserved": 0, "fusion_lat": 0.0, "rental_uris": {"android": "https://dc.lft.to/lastmile_qr_scan", "ios": "https://dc.lft.to/lastmile_qr_scan"}, "fusion_lon": 0.0, "name": "2a4acfd8906088642384c906266a2dee", "lon": -77.03143816666666, "is_disabled": 0, "type": "electric_scooter"}, {"bike_id": "ed72f8f3a7f1f994a39af50a491d7180", "lat": 38.9154555, "is_reserved": 0, "fusion_lat": 0.0, "rental_uris": {"android": "https://dc.lft.to/lastmile_qr_scan", "ios": "https://dc.lft.to/lastmile_qr_scan"}, "fusion_lon": 0.0, "name": "ed72f8f3a7f1f994a39af50a491d7180", "lon": -77.04460566666667, "is_disabled": 0, "type": "electric_scooter"}, {"bike_id": "8cfaa4cd1f5cc8ec282c976a235f6574", "lat": 38.9239135, "is_reserved": 0, "fusion_lat": 0.0, "rental_uris": {"android": "https://dc.lft.to/lastmile_qr_scan", "ios": "https://dc.lft.to/lastmile_qr_scan"}, "fusion_lon": 0.0, "name": "8cfaa4cd1f5cc8ec282c976a235f6574", "lon": -77.02546416666667, "is_disabled": 0, "type": "electric_scooter"}, {"bike_id": "9508b60fc82a008fcddf90aa7bc2bfb3", "lat": 38.909526, "is_reserved": 0, "fusion_lat": 0.0, "rental_uris": {"android": "https://dc.lft.to/lastmile_qr_scan", "ios": "https://dc.lft.to/lastmile_qr_scan"}, "fusion_lon": 0.0, "name": "9508b60fc82a008fcddf90aa7bc2bfb3", "lon": -77.04871916666667, "is_disabled": 0, "type": "electric_scooter"}, {"bike_id": "9dd97f1de5bc9a1ef263a27dce5c7780", "lat": 38.91552183333334, "is_reserved": 0, "fusion_lat": 0.0, "rental_uris": {"android": "https://dc.lft.to/lastmile_qr_scan", "ios": "https://dc.lft.to/lastmile_qr_scan"}, "fusion_lon": 0.0, "name": "9dd97f1de5bc9a1ef263a27dce5c7780", "lon": -77.0667485, "is_disabled": 0, "type": "electric_bike"}, {"bike_id": "00d9a78961c2c7edd7735ee9301f5b93", "lat": 38.89240733333333, "is_reserved": 0, "fusion_lat": 0.0, "rental_uris": {"android": "https://dc.lft.to/lastmile_qr_scan", "ios": "https://dc.lft.to/lastmile_qr_scan"}, "fusion_lon": 0.0, "name": "00d9a78961c2c7edd7735ee9301f5b93", "lon": -77.04500266666666, "is_disabled": 0, "type": "electric_scooter"}, {"bike_id": "99bd3d049c6f82e9c15073b575e800b2", "lat": 38.94923216666667, "is_reserved": 0, "fusion_lat": 0.0, "rental_uris": {"android": "https://dc.lft.to/lastmile_qr_scan", "ios": "https://dc.lft.to/lastmile_qr_scan"}, "fusion_lon": 0.0, "name": "99bd3d049c6f82e9c15073b575e800b2", "lon": -77.0185765, "is_disabled": 0, "type": "electric_scooter"}, {"bike_id": "70a3978de6330f14a1e961560228fa36", "lat": 38.91540716666667, "is_reserved": 0, "fusion_lat": 0.0, "rental_uris": {"android": "https://dc.lft.to/lastmile_qr_scan", "ios": "https://dc.lft.to/lastmile_qr_scan"}, "fusion_lon": 0.0, "name": "70a3978de6330f14a1e961560228fa36", "lon": -77.03207366666666, "is_disabled": 0, "type": "electric_scooter"}, {"bike_id": "219284a6dc660f91cee65be744ee7cd1", "lat": 38.8974255, "is_reserved": 0, "fusion_lat": 0.0, "rental_uris": {"android": "https://dc.lft.to/lastmile_qr_scan", "ios": "https://dc.lft.to/lastmile_qr_scan"}, "fusion_lon": 0.0, "name": "219284a6dc660f91cee65be744ee7cd1", "lon": -76.92046766666667, "is_disabled": 0, "type": "electric_bike"}, {"bike_id": "11647f55c7e91f64a68f76daf688e629", "lat": 38.939594666666665, "is_reserved": 0, "fusion_lat": 0.0, "rental_uris": {"android": "https://dc.lft.to/lastmile_qr_scan", "ios": "https://dc.lft.to/lastmile_qr_scan"}, "fusion_lon": 0.0, "name": "11647f55c7e91f64a68f76daf688e629", "lon": -77.07247233333334, "is_disabled": 0, "type": "electric_scooter"}, {"bike_id": "74c7221898f661ba6fe759d95cb63851", "lat": 38.919883, "is_reserved": 0, "fusion_lat": 0.0, "rental_uris": {"android": "https://dc.lft.to/lastmile_qr_scan", "ios": "https://dc.lft.to/lastmile_qr_scan"}, "fusion_lon": 0.0, "name": "74c7221898f661ba6fe759d95cb63851", "lon": -77.02186583333334, "is_disabled": 0, "type": "electric_scooter"}, {"bike_id": "51fcb7ac67a8440dc09b070be03f5e72", "lat": 38.925047666666664, "is_reserved": 0, "fusion_lat": 0.0, "rental_uris": {"android": "https://dc.lft.to/lastmile_qr_scan", "ios": "https://dc.lft.to/lastmile_qr_scan"}, "fusion_lon": 0.0, "name": "51fcb7ac67a8440dc09b070be03f5e72", "lon": -77.03789083333334, "is_disabled": 0, "type": "electric_scooter"}, {"bike_id": "33923d3ad22b47cb6a0f345412d908dd", "lat": 38.89234366666667, "is_reserved": 0, "fusion_lat": 0.0, "rental_uris": {"android": "https://dc.lft.to/lastmile_qr_scan", "ios": "https://dc.lft.to/lastmile_qr_scan"}, "fusion_lon": 0.0, "name": "33923d3ad22b47cb6a0f345412d908dd", "lon": -77.04156716666667, "is_disabled": 0, "type": "electric_scooter"}, {"bike_id": "595f6f557494eac390a6b801da2745c1", "lat": 38.906643833333334, "is_reserved": 0, "fusion_lat": 0.0, "rental_uris": {"android": "https://dc.lft.to/lastmile_qr_scan", "ios": "https://dc.lft.to/lastmile_qr_scan"}, "fusion_lon": 0.0, "name": "595f6f557494eac390a6b801da2745c1", "lon": -77.04168516666667, "is_disabled": 0, "type": "electric_scooter"}, {"bike_id": "1e0b61730ba9fcb3ed4713f426139100", "lat": 38.8996955, "is_reserved": 0, "fusion_lat": 0.0, "rental_uris": {"android": "https://dc.lft.to/lastmile_qr_scan", "ios": "https://dc.lft.to/lastmile_qr_scan"}, "fusion_lon": 0.0, "name": "1e0b61730ba9fcb3ed4713f426139100", "lon": -77.03071983333334, "is_disabled": 0, "type": "electric_scooter"}, {"bike_id": "55637fd12c694f92fc99424455ed2c52", "lat": 38.918237833333336, "is_reserved": 0, "fusion_lat": 0.0, "rental_uris": {"android": "https://dc.lft.to/lastmile_qr_scan", "ios": "https://dc.lft.to/lastmile_qr_scan"}, "fusion_lon": 0.0, "name": "55637fd12c694f92fc99424455ed2c52", "lon": -77.04943233333333, "is_disabled": 0, "type": "electric_scooter"}, {"bike_id": "df171cfe355859c000ff287cd6b0e466", "lat": 38.915634833333336, "is_reserved": 0, "fusion_lat": 0.0, "rental_uris": {"android": "https://dc.lft.to/lastmile_qr_scan", "ios": "https://dc.lft.to/lastmile_qr_scan"}, "fusion_lon": 0.0, "name": "df171cfe355859c000ff287cd6b0e466", "lon": -77.03393133333333, "is_disabled": 0, "type": "electric_scooter"}, {"bike_id": "e0a4a859e06c76278c13cd612faa8d6f", "lat": 38.902674166666664, "is_reserved": 0, "fusion_lat": 0.0, "rental_uris": {"android": "https://dc.lft.to/lastmile_qr_scan", "ios": "https://dc.lft.to/lastmile_qr_scan"}, "fusion_lon": 0.0, "name": "e0a4a859e06c76278c13cd612faa8d6f", "lon": -76.981256, "is_disabled": 0, "type": "electric_scooter"}, {"bike_id": "eed24eba02b82b82d950862c245c9012", "lat": 38.898460166666666, "is_reserved": 0, "fusion_lat": 0.0, "rental_uris": {"android": "https://dc.lft.to/lastmile_qr_scan", "ios": "https://dc.lft.to/lastmile_qr_scan"}, "fusion_lon": 0.0, "name": "eed24eba02b82b82d950862c245c9012", "lon": -77.02192066666667, "is_disabled": 0, "type": "electric_scooter"}, {"bike_id": "ab27c06ae8aa0ce550024e26fa72ba50", "lat": 38.88706166666667, "is_reserved": 0, "fusion_lat": 0.0, "rental_uris": {"android": "https://dc.lft.to/lastmile_qr_scan", "ios": "https://dc.lft.to/lastmile_qr_scan"}, "fusion_lon": 0.0, "name": "ab27c06ae8aa0ce550024e26fa72ba50", "lon": -77.01771216666667, "is_disabled": 0, "type": "electric_scooter"}, {"bike_id": "3800d379e874cb2b5c8fe86cb34ad5fc", "lat": 38.87470416666667, "is_reserved": 0, "fusion_lat": 0.0, "rental_uris": {"android": "https://dc.lft.to/lastmile_qr_scan", "ios": "https://dc.lft.to/lastmile_qr_scan"}, "fusion_lon": 0.0, "name": "3800d379e874cb2b5c8fe86cb34ad5fc", "lon": -77.00558316666667, "is_disabled": 0, "type": "electric_scooter"}, {"bike_id": "eca6893cebe67ac004c292ebf89247fe", "lat": 38.91830316666667, "is_reserved": 0, "fusion_lat": 0.0, "rental_uris": {"android": "https://dc.lft.to/lastmile_qr_scan", "ios": "https://dc.lft.to/lastmile_qr_scan"}, "fusion_lon": 0.0, "name": "eca6893cebe67ac004c292ebf89247fe", "lon": -77.041543, "is_disabled": 0, "type": "electric_scooter"}, {"bike_id": "47b079831f3c70798dd63c70a6bed824", "lat": 38.88740716666667, "is_reserved": 0, "fusion_lat": 0.0, "rental_uris": {"android": "https://dc.lft.to/lastmile_qr_scan", "ios": "https://dc.lft.to/lastmile_qr_scan"}, "fusion_lon": 0.0, "name": "47b079831f3c70798dd63c70a6bed824", "lon": -77.01535366666667, "is_disabled": 0, "type": "electric_scooter"}, {"bike_id": "20b72c26ff6a82bd047a0e0a97e3c2c9", "lat": 38.91549416666667, "is_reserved": 0, "fusion_lat": 0.0, "rental_uris": {"android": "https://dc.lft.to/lastmile_qr_scan", "ios": "https://dc.lft.to/lastmile_qr_scan"}, "fusion_lon": 0.0, "name": "20b72c26ff6a82bd047a0e0a97e3c2c9", "lon": -77.0321185, "is_disabled": 0, "type": "electric_scooter"}, {"bike_id": "1078e3e5377fef52696f0eaee45255d9", "lat": 38.9169835, "is_reserved": 0, "fusion_lat": 0.0, "rental_uris": {"android": "https://dc.lft.to/lastmile_qr_scan", "ios": "https://dc.lft.to/lastmile_qr_scan"}, "fusion_lon": 0.0, "name": "1078e3e5377fef52696f0eaee45255d9", "lon": -77.02895966666667, "is_disabled": 0, "type": "electric_scooter"}, {"bike_id": "0161f13ba3d1e5e85d0354f8d79aa9a9", "lat": 38.9028705, "is_reserved": 0, "fusion_lat": 0.0, "rental_uris": {"android": "https://dc.lft.to/lastmile_qr_scan", "ios": "https://dc.lft.to/lastmile_qr_scan"}, "fusion_lon": 0.0, "name": "0161f13ba3d1e5e85d0354f8d79aa9a9", "lon": -77.03351966666666, "is_disabled": 0, "type": "electric_scooter"}, {"bike_id": "de1bd402b1490a681d84920cd810d536", "lat": 38.909726166666665, "is_reserved": 0, "fusion_lat": 0.0, "rental_uris": {"android": "https://dc.lft.to/lastmile_qr_scan", "ios": "https://dc.lft.to/lastmile_qr_scan"}, "fusion_lon": 0.0, "name": "de1bd402b1490a681d84920cd810d536", "lon": -77.0217305, "is_disabled": 0, "type": "electric_scooter"}, {"bike_id": "d13dec04ca4f7bc722c213701e7f2c4d", "lat": 38.904352, "is_reserved": 0, "fusion_lat": 0.0, "rental_uris": {"android": "https://dc.lft.to/lastmile_qr_scan", "ios": "https://dc.lft.to/lastmile_qr_scan"}, "fusion_lon": 0.0, "name": "d13dec04ca4f7bc722c213701e7f2c4d", "lon": -77.0282055, "is_disabled": 0, "type": "electric_scooter"}, {"bike_id": "8e0976f7c44d1aa421c65939de404998", "lat": 38.9360495, "is_reserved": 0, "fusion_lat": 0.0, "rental_uris": {"android": "https://dc.lft.to/lastmile_qr_scan", "ios": "https://dc.lft.to/lastmile_qr_scan"}, "fusion_lon": 0.0, "name": "8e0976f7c44d1aa421c65939de404998", "lon": -77.05892916666667, "is_disabled": 0, "type": "electric_scooter"}, {"bike_id": "db78192d9111253fc8aa8ba7bb29b552", "lat": 38.906058333333334, "is_reserved": 0, "fusion_lat": 0.0, "rental_uris": {"android": "https://dc.lft.to/lastmile_qr_scan", "ios": "https://dc.lft.to/lastmile_qr_scan"}, "fusion_lon": 0.0, "name": "db78192d9111253fc8aa8ba7bb29b552", "lon": -77.038718, "is_disabled": 0, "type": "electric_scooter"}, {"bike_id": "6ffaaa225ac31da3ba031acafafe46c8", "lat": 38.936080833333335, "is_reserved": 0, "fusion_lat": 0.0, "rental_uris": {"android": "https://dc.lft.to/lastmile_qr_scan", "ios": "https://dc.lft.to/lastmile_qr_scan"}, "fusion_lon": 0.0, "name": "6ffaaa225ac31da3ba031acafafe46c8", "lon": -77.05893716666667, "is_disabled": 0, "type": "electric_scooter"}, {"bike_id": "e91b7269fc985739ba1028c7841c092c", "lat": 38.86673016666667, "is_reserved": 0, "fusion_lat": 0.0, "rental_uris": {"android": "https://dc.lft.to/lastmile_qr_scan", "ios": "https://dc.lft.to/lastmile_qr_scan"}, "fusion_lon": 0.0, "name": "e91b7269fc985739ba1028c7841c092c", "lon": -76.98542533333334, "is_disabled": 0, "type": "electric_scooter"}, {"bike_id": "d64fdce7eb67ade4946a5562b01e126f", "lat": 38.848412, "is_reserved": 0, "fusion_lat": 0.0, "rental_uris": {"android": "https://dc.lft.to/lastmile_qr_scan", "ios": "https://dc.lft.to/lastmile_qr_scan"}, "fusion_lon": 0.0, "name": "d64fdce7eb67ade4946a5562b01e126f", "lon": -77.07920416666667, "is_disabled": 0, "type": "electric_bike"}, {"bike_id": "bf0e44ec2407da85d31897b6d7b4ea84", "lat": 38.90532816666666, "is_reserved": 0, "fusion_lat": 0.0, "rental_uris": {"android": "https://dc.lft.to/lastmile_qr_scan", "ios": "https://dc.lft.to/lastmile_qr_scan"}, "fusion_lon": 0.0, "name": "bf0e44ec2407da85d31897b6d7b4ea84", "lon": -77.043373, "is_disabled": 0, "type": "electric_scooter"}, {"bike_id": "afd7ad6c5271311556b0d796f8201194", "lat": 38.898836, "is_reserved": 0, "fusion_lat": 0.0, "rental_uris": {"android": "https://dc.lft.to/lastmile_qr_scan", "ios": "https://dc.lft.to/lastmile_qr_scan"}, "fusion_lon": 0.0, "name": "afd7ad6c5271311556b0d796f8201194", "lon": -76.93175416666666, "is_disabled": 0, "type": "electric_scooter"}, {"bike_id": "508fb1615d0c180eb1662e14003b196e", "lat": 38.895087833333335, "is_reserved": 0, "fusion_lat": 0.0, "rental_uris": {"android": "https://dc.lft.to/lastmile_qr_scan", "ios": "https://dc.lft.to/lastmile_qr_scan"}, "fusion_lon": 0.0, "name": "508fb1615d0c180eb1662e14003b196e", "lon": -77.00348383333333, "is_disabled": 0, "type": "electric_scooter"}, {"bike_id": "1b6d5aa12b4bfeab99bcc0d8c140cfe5", "lat": 38.91426166666667, "is_reserved": 0, "fusion_lat": 0.0, "rental_uris": {"android": "https://dc.lft.to/lastmile_qr_scan", "ios": "https://dc.lft.to/lastmile_qr_scan"}, "fusion_lon": 0.0, "name": "1b6d5aa12b4bfeab99bcc0d8c140cfe5", "lon": -77.06922583333333, "is_disabled": 0, "type": "electric_scooter"}, {"bike_id": "a14b639eaa6b855056f4cb3c108a37a8", "lat": 38.89355366666667, "is_reserved": 0, "fusion_lat": 0.0, "rental_uris": {"android": "https://dc.lft.to/lastmile_qr_scan", "ios": "https://dc.lft.to/lastmile_qr_scan"}, "fusion_lon": 0.0, "name": "a14b639eaa6b855056f4cb3c108a37a8", "lon": -77.02224316666667, "is_disabled": 0, "type": "electric_scooter"}, {"bike_id": "bf8be45f238d0f1104eac05c9e523892", "lat": 38.903884166666664, "is_reserved": 0, "fusion_lat": 0.0, "rental_uris": {"android": "https://dc.lft.to/lastmile_qr_scan", "ios": "https://dc.lft.to/lastmile_qr_scan"}, "fusion_lon": 0.0, "name": "bf8be45f238d0f1104eac05c9e523892", "lon": -77.03646566666667, "is_disabled": 0, "type": "electric_scooter"}, {"bike_id": "8811f357ca6f92f850020d231f954b37", "lat": 38.87686983333333, "is_reserved": 0, "fusion_lat": 0.0, "rental_uris": {"android": "https://dc.lft.to/lastmile_qr_scan", "ios": "https://dc.lft.to/lastmile_qr_scan"}, "fusion_lon": 0.0, "name": "8811f357ca6f92f850020d231f954b37", "lon": -77.0175615, "is_disabled": 0, "type": "electric_scooter"}, {"bike_id": "680092622f1ca60bb0ce812cf0a8f85c", "lat": 38.84600733333333, "is_reserved": 0, "fusion_lat": 0.0, "rental_uris": {"android": "https://dc.lft.to/lastmile_qr_scan", "ios": "https://dc.lft.to/lastmile_qr_scan"}, "fusion_lon": 0.0, "name": "680092622f1ca60bb0ce812cf0a8f85c", "lon": -77.10861133333333, "is_disabled": 0, "type": "electric_bike"}, {"bike_id": "a461e7e90138c84feabbbad179b7fc8a", "lat": 38.926106833333336, "is_reserved": 0, "fusion_lat": 0.0, "rental_uris": {"android": "https://dc.lft.to/lastmile_qr_scan", "ios": "https://dc.lft.to/lastmile_qr_scan"}, "fusion_lon": 0.0, "name": "a461e7e90138c84feabbbad179b7fc8a", "lon": -77.02160616666667, "is_disabled": 0, "type": "electric_scooter"}, {"bike_id": "4d6a3e4b26e0b2c1c150ad2050b3cd72", "lat": 38.91826066666667, "is_reserved": 0, "fusion_lat": 0.0, "rental_uris": {"android": "https://dc.lft.to/lastmile_qr_scan", "ios": "https://dc.lft.to/lastmile_qr_scan"}, "fusion_lon": 0.0, "name": "4d6a3e4b26e0b2c1c150ad2050b3cd72", "lon": -77.0242405, "is_disabled": 0, "type": "electric_scooter"}, {"bike_id": "90d7e7f5dfba28874458c31aeea577a0", "lat": 38.90032583333333, "is_reserved": 0, "fusion_lat": 0.0, "rental_uris": {"android": "https://dc.lft.to/lastmile_qr_scan", "ios": "https://dc.lft.to/lastmile_qr_scan"}, "fusion_lon": 0.0, "name": "90d7e7f5dfba28874458c31aeea577a0", "lon": -77.02401583333334, "is_disabled": 0, "type": "electric_scooter"}, {"bike_id": "a9f6c62638812fe73569088d003da9b0", "lat": 38.903749, "is_reserved": 0, "fusion_lat": 0.0, "rental_uris": {"android": "https://dc.lft.to/lastmile_qr_scan", "ios": "https://dc.lft.to/lastmile_qr_scan"}, "fusion_lon": 0.0, "name": "a9f6c62638812fe73569088d003da9b0", "lon": -77.04505116666667, "is_disabled": 0, "type": "electric_scooter"}, {"bike_id": "c83936fa07bfc1577bc4a7c942123ae9", "lat": 38.91566733333333, "is_reserved": 0, "fusion_lat": 0.0, "rental_uris": {"android": "https://dc.lft.to/lastmile_qr_scan", "ios": "https://dc.lft.to/lastmile_qr_scan"}, "fusion_lon": 0.0, "name": "c83936fa07bfc1577bc4a7c942123ae9", "lon": -77.0200605, "is_disabled": 0, "type": "electric_scooter"}, {"bike_id": "e8330d00ec37de5377238d0befc747a3", "lat": 38.89336433333333, "is_reserved": 0, "fusion_lat": 0.0, "rental_uris": {"android": "https://dc.lft.to/lastmile_qr_scan", "ios": "https://dc.lft.to/lastmile_qr_scan"}, "fusion_lon": 0.0, "name": "e8330d00ec37de5377238d0befc747a3", "lon": -77.03198666666667, "is_disabled": 0, "type": "electric_scooter"}, {"bike_id": "0a1d128818e93af3f9061f8c79918b5f", "lat": 38.90559, "is_reserved": 0, "fusion_lat": 0.0, "rental_uris": {"android": "https://dc.lft.to/lastmile_qr_scan", "ios": "https://dc.lft.to/lastmile_qr_scan"}, "fusion_lon": 0.0, "name": "0a1d128818e93af3f9061f8c79918b5f", "lon": -77.06525716666667, "is_disabled": 0, "type": "electric_scooter"}, {"bike_id": "c0973c17730e4817bb8b034b4f37d245", "lat": 38.87172966666667, "is_reserved": 0, "fusion_lat": 0.0, "rental_uris": {"android": "https://dc.lft.to/lastmile_qr_scan", "ios": "https://dc.lft.to/lastmile_qr_scan"}, "fusion_lon": 0.0, "name": "c0973c17730e4817bb8b034b4f37d245", "lon": -77.00683933333333, "is_disabled": 0, "type": "electric_scooter"}, {"bike_id": "1e552be7d6be614fc0c499d86e29aa93", "lat": 38.821744833333334, "is_reserved": 0, "fusion_lat": 0.0, "rental_uris": {"android": "https://dc.lft.to/lastmile_qr_scan", "ios": "https://dc.lft.to/lastmile_qr_scan"}, "fusion_lon": 0.0, "name": "1e552be7d6be614fc0c499d86e29aa93", "lon": -76.99512733333333, "is_disabled": 0, "type": "electric_bike"}, {"bike_id": "190afc35aa72ef13761b1a1c40f26cef", "lat": 38.9014645, "is_reserved": 0, "fusion_lat": 0.0, "rental_uris": {"android": "https://dc.lft.to/lastmile_qr_scan", "ios": "https://dc.lft.to/lastmile_qr_scan"}, "fusion_lon": 0.0, "name": "190afc35aa72ef13761b1a1c40f26cef", "lon": -77.029435, "is_disabled": 0, "type": "electric_scooter"}, {"bike_id": "f89d921aa6d6d223c062c2cc29f22c00", "lat": 38.84639166666667, "is_reserved": 0, "fusion_lat": 0.0, "rental_uris": {"android": "https://dc.lft.to/lastmile_qr_scan", "ios": "https://dc.lft.to/lastmile_qr_scan"}, "fusion_lon": 0.0, "name": "f89d921aa6d6d223c062c2cc29f22c00", "lon": -76.99128833333333, "is_disabled": 0, "type": "electric_scooter"}, {"bike_id": "151433598d6fda14bf04e0c33b2075a2", "lat": 38.919017333333336, "is_reserved": 0, "fusion_lat": 0.0, "rental_uris": {"android": "https://dc.lft.to/lastmile_qr_scan", "ios": "https://dc.lft.to/lastmile_qr_scan"}, "fusion_lon": 0.0, "name": "151433598d6fda14bf04e0c33b2075a2", "lon": -77.0195585, "is_disabled": 0, "type": "electric_scooter"}, {"bike_id": "870414dc98e22c39d051281f959b9a5c", "lat": 38.905213333333336, "is_reserved": 0, "fusion_lat": 0.0, "rental_uris": {"android": "https://dc.lft.to/lastmile_qr_scan", "ios": "https://dc.lft.to/lastmile_qr_scan"}, "fusion_lon": 0.0, "name": "870414dc98e22c39d051281f959b9a5c", "lon": -77.04171566666666, "is_disabled": 0, "type": "electric_scooter"}, {"bike_id": "4d88fa90f9cd37a6eb9fc054833b9a95", "lat": 38.918345333333335, "is_reserved": 0, "fusion_lat": 0.0, "rental_uris": {"android": "https://dc.lft.to/lastmile_qr_scan", "ios": "https://dc.lft.to/lastmile_qr_scan"}, "fusion_lon": 0.0, "name": "4d88fa90f9cd37a6eb9fc054833b9a95", "lon": -77.03936666666667, "is_disabled": 0, "type": "electric_scooter"}, {"bike_id": "8542789b64d3b23636212644af6e46d1", "lat": 38.914719166666664, "is_reserved": 0, "fusion_lat": 0.0, "rental_uris": {"android": "https://dc.lft.to/lastmile_qr_scan", "ios": "https://dc.lft.to/lastmile_qr_scan"}, "fusion_lon": 0.0, "name": "8542789b64d3b23636212644af6e46d1", "lon": -76.98115916666667, "is_disabled": 0, "type": "electric_scooter"}, {"bike_id": "21775f24ebf5b261dbd84047aba4afda", "lat": 38.8935965, "is_reserved": 0, "fusion_lat": 0.0, "rental_uris": {"android": "https://dc.lft.to/lastmile_qr_scan", "ios": "https://dc.lft.to/lastmile_qr_scan"}, "fusion_lon": 0.0, "name": "21775f24ebf5b261dbd84047aba4afda", "lon": -76.9493495, "is_disabled": 0, "type": "electric_scooter"}, {"bike_id": "8c867b58cba374a5b390504d271b0533", "lat": 38.87461166666667, "is_reserved": 0, "fusion_lat": 0.0, "rental_uris": {"android": "https://dc.lft.to/lastmile_qr_scan", "ios": "https://dc.lft.to/lastmile_qr_scan"}, "fusion_lon": 0.0, "name": "8c867b58cba374a5b390504d271b0533", "lon": -77.00938583333334, "is_disabled": 0, "type": "electric_scooter"}, {"bike_id": "c218a7ffb5de551d1261c76e075cbc2e", "lat": 38.920497166666664, "is_reserved": 0, "fusion_lat": 0.0, "rental_uris": {"android": "https://dc.lft.to/lastmile_qr_scan", "ios": "https://dc.lft.to/lastmile_qr_scan"}, "fusion_lon": 0.0, "name": "c218a7ffb5de551d1261c76e075cbc2e", "lon": -77.01625833333334, "is_disabled": 0, "type": "electric_scooter"}, {"bike_id": "00d67690505700e20bc03b507ea44c62", "lat": 38.896360666666666, "is_reserved": 0, "fusion_lat": 0.0, "rental_uris": {"android": "https://dc.lft.to/lastmile_qr_scan", "ios": "https://dc.lft.to/lastmile_qr_scan"}, "fusion_lon": 0.0, "name": "00d67690505700e20bc03b507ea44c62", "lon": -77.01211283333333, "is_disabled": 0, "type": "electric_scooter"}, {"bike_id": "1b236a4cb96cb883c9feef10a9ea6902", "lat": 38.97207083333333, "is_reserved": 0, "fusion_lat": 0.0, "rental_uris": {"android": "https://dc.lft.to/lastmile_qr_scan", "ios": "https://dc.lft.to/lastmile_qr_scan"}, "fusion_lon": 0.0, "name": "1b236a4cb96cb883c9feef10a9ea6902", "lon": -77.0333485, "is_disabled": 0, "type": "electric_bike"}, {"bike_id": "ce676d29d359ec2820d1a30344a7b478", "lat": 38.920447833333334, "is_reserved": 0, "fusion_lat": 0.0, "rental_uris": {"android": "https://dc.lft.to/lastmile_qr_scan", "ios": "https://dc.lft.to/lastmile_qr_scan"}, "fusion_lon": 0.0, "name": "ce676d29d359ec2820d1a30344a7b478", "lon": -77.02575433333334, "is_disabled": 0, "type": "electric_scooter"}, {"bike_id": "978683c571708e68d37bb03f7a4dc5a6", "lat": 38.8848855, "is_reserved": 0, "fusion_lat": 0.0, "rental_uris": {"android": "https://dc.lft.to/lastmile_qr_scan", "ios": "https://dc.lft.to/lastmile_qr_scan"},