{"data": {"bikes": [{"fusion_lon": 0.0, "bike_id": "df3c53c356fbd0792774af559fc8dca3", "is_disabled": 0, "is_reserved": 0, "lat": 38.967381, "name": "df3c53c356fbd0792774af559fc8dca3", "rental_uris": {"ios": "https://dc.lft.to/lastmile_qr_scan", "android": "https://dc.lft.to/lastmile_qr_scan"}, "type": "electric_bike", "fusion_lat": 0.0, "lon": -77.08913}, {"fusion_lon": 0.0, "bike_id": "aa044b68bbbbbcfffc1e102b01a0f2b0", "is_disabled": 0, "is_reserved": 0, "lat": 38.920287333333334, "name": "aa044b68bbbbbcfffc1e102b01a0f2b0", "rental_uris": {"ios": "https://dc.lft.to/lastmile_qr_scan", "android": "https://dc.lft.to/lastmile_qr_scan"}, "type": "electric_scooter", "fusion_lat": 0.0, "lon": -77.04178616666667}, {"fusion_lon": 0.0, "bike_id": "0f079327b5cad933a405d192ea568708", "is_disabled": 0, "is_reserved": 0, "lat": 38.88771066666666, "name": "0f079327b5cad933a405d192ea568708", "rental_uris": {"ios": "https://dc.lft.to/lastmile_qr_scan", "android": "https://dc.lft.to/lastmile_qr_scan"}, "type": "electric_scooter", "fusion_lat": 0.0, "lon": -77.00046366666666}, {"fusion_lon": 0.0, "bike_id": "14d7dfbcbb145a74a9a6b3b13d6f8d39", "is_disabled": 0, "is_reserved": 0, "lat": 38.922296333333335, "name": "14d7dfbcbb145a74a9a6b3b13d6f8d39", "rental_uris": {"ios": "https://dc.lft.to/lastmile_qr_scan", "android": "https://dc.lft.to/lastmile_qr_scan"}, "type": "electric_scooter", "fusion_lat": 0.0, "lon": -77.02827983333333}, {"fusion_lon": 0.0, "bike_id": "4577b66f2175f176417a69cdd813859a", "is_disabled": 0, "is_reserved": 0, "lat": 38.895797, "name": "4577b66f2175f176417a69cdd813859a", "rental_uris": {"ios": "https://dc.lft.to/lastmile_qr_scan", "android": "https://dc.lft.to/lastmile_qr_scan"}, "type": "electric_scooter", "fusion_lat": 0.0, "lon": -77.0299035}, {"fusion_lon": 0.0, "bike_id": "a6c70207562c93fa1897c29ffd3e4568", "is_disabled": 0, "is_reserved": 0, "lat": 38.835760666666665, "name": "a6c70207562c93fa1897c29ffd3e4568", "rental_uris": {"ios": "https://dc.lft.to/lastmile_qr_scan", "android": "https://dc.lft.to/lastmile_qr_scan"}, "type": "electric_bike", "fusion_lat": 0.0, "lon": -76.990204}, {"fusion_lon": 0.0, "bike_id": "f7c058cdaec0ec5bbf3b2cbc6c472bc9", "is_disabled": 0, "is_reserved": 0, "lat": 38.93258733333333, "name": "f7c058cdaec0ec5bbf3b2cbc6c472bc9", "rental_uris": {"ios": "https://dc.lft.to/lastmile_qr_scan", "android": "https://dc.lft.to/lastmile_qr_scan"}, "type": "electric_scooter", "fusion_lat": 0.0, "lon": -76.98878583333334}, {"fusion_lon": 0.0, "bike_id": "63e69efac955b97b6d10c11b9be8c5a4", "is_disabled": 0, "is_reserved": 0, "lat": 38.887700833333334, "name": "63e69efac955b97b6d10c11b9be8c5a4", "rental_uris": {"ios": "https://dc.lft.to/lastmile_qr_scan", "android": "https://dc.lft.to/lastmile_qr_scan"}, "type": "electric_scooter", "fusion_lat": 0.0, "lon": -76.97731783333333}, {"fusion_lon": 0.0, "bike_id": "5a0a8c70b3e2583322eccf824bea88c6", "is_disabled": 0, "is_reserved": 0, "lat": 38.882487, "name": "5a0a8c70b3e2583322eccf824bea88c6", "rental_uris": {"ios": "https://dc.lft.to/lastmile_qr_scan", "android": "https://dc.lft.to/lastmile_qr_scan"}, "type": "electric_bike", "fusion_lat": 0.0, "lon": -76.96262416666667}, {"fusion_lon": 0.0, "bike_id": "63039de523a4b27a3a1b61c731e333a8", "is_disabled": 0, "is_reserved": 0, "lat": 38.91740266666667, "name": "63039de523a4b27a3a1b61c731e333a8", "rental_uris": {"ios": "https://dc.lft.to/lastmile_qr_scan", "android": "https://dc.lft.to/lastmile_qr_scan"}, "type": "electric_scooter", "fusion_lat": 0.0, "lon": -77.02819416666667}, {"fusion_lon": 0.0, "bike_id": "76e68bc63b8d43439cd3fd7508cc485a", "is_disabled": 0, "is_reserved": 0, "lat": 38.897160166666666, "name": "76e68bc63b8d43439cd3fd7508cc485a", "rental_uris": {"ios": "https://dc.lft.to/lastmile_qr_scan", "android": "https://dc.lft.to/lastmile_qr_scan"}, "type": "electric_bike", "fusion_lat": 0.0, "lon": -77.00697516666666}, {"fusion_lon": 0.0, "bike_id": "719a9e6af56edac283416533fe63987a", "is_disabled": 0, "is_reserved": 0, "lat": 38.921157, "name": "719a9e6af56edac283416533fe63987a", "rental_uris": {"ios": "https://dc.lft.to/lastmile_qr_scan", "android": "https://dc.lft.to/lastmile_qr_scan"}, "type": "electric_scooter", "fusion_lat": 0.0, "lon": -77.02132916666666}, {"fusion_lon": 0.0, "bike_id": "e6ce528acfb238beda6f0e92a35f56b0", "is_disabled": 0, "is_reserved": 0, "lat": 38.91762683333333, "name": "e6ce528acfb238beda6f0e92a35f56b0", "rental_uris": {"ios": "https://dc.lft.to/lastmile_qr_scan", "android": "https://dc.lft.to/lastmile_qr_scan"}, "type": "electric_scooter", "fusion_lat": 0.0, "lon": -77.03994483333334}, {"fusion_lon": 0.0, "bike_id": "877f6edf37f9e1e0b1a2385e9c612961", "is_disabled": 0, "is_reserved": 0, "lat": 38.918765666666665, "name": "877f6edf37f9e1e0b1a2385e9c612961", "rental_uris": {"ios": "https://dc.lft.to/lastmile_qr_scan", "android": "https://dc.lft.to/lastmile_qr_scan"}, "type": "electric_scooter", "fusion_lat": 0.0, "lon": -77.03506316666666}, {"fusion_lon": 0.0, "bike_id": "95aa905559f0229451124b5f5a5607eb", "is_disabled": 0, "is_reserved": 0, "lat": 38.924272, "name": "95aa905559f0229451124b5f5a5607eb", "rental_uris": {"ios": "https://dc.lft.to/lastmile_qr_scan", "android": "https://dc.lft.to/lastmile_qr_scan"}, "type": "electric_scooter", "fusion_lat": 0.0, "lon": -77.04041683333334}, {"fusion_lon": 0.0, "bike_id": "a4900d1ad38519886f5e48078cf173e3", "is_disabled": 0, "is_reserved": 0, "lat": 38.910319666666666, "name": "a4900d1ad38519886f5e48078cf173e3", "rental_uris": {"ios": "https://dc.lft.to/lastmile_qr_scan", "android": "https://dc.lft.to/lastmile_qr_scan"}, "type": "electric_scooter", "fusion_lat": 0.0, "lon": -77.029421}, {"fusion_lon": 0.0, "bike_id": "9aef4715e5d9cf04c442985033474b95", "is_disabled": 0, "is_reserved": 0, "lat": 38.899021, "name": "9aef4715e5d9cf04c442985033474b95", "rental_uris": {"ios": "https://dc.lft.to/lastmile_qr_scan", "android": "https://dc.lft.to/lastmile_qr_scan"}, "type": "electric_scooter", "fusion_lat": 0.0, "lon": -77.00364066666667}, {"fusion_lon": 0.0, "bike_id": "3033fd7bfe86ecacc2d8d0b3674d23fd", "is_disabled": 0, "is_reserved": 0, "lat": 38.927825, "name": "3033fd7bfe86ecacc2d8d0b3674d23fd", "rental_uris": {"ios": "https://dc.lft.to/lastmile_qr_scan", "android": "https://dc.lft.to/lastmile_qr_scan"}, "type": "electric_scooter", "fusion_lat": 0.0, "lon": -77.02721783333334}, {"fusion_lon": 0.0, "bike_id": "4fb35728e57c7fa35fbb47fcecaf9b05", "is_disabled": 0, "is_reserved": 0, "lat": 38.9131765, "name": "4fb35728e57c7fa35fbb47fcecaf9b05", "rental_uris": {"ios": "https://dc.lft.to/lastmile_qr_scan", "android": "https://dc.lft.to/lastmile_qr_scan"}, "type": "electric_scooter", "fusion_lat": 0.0, "lon": -77.03469233333334}, {"fusion_lon": 0.0, "bike_id": "b79654a0ac746c83e430ea6e022b4109", "is_disabled": 0, "is_reserved": 0, "lat": 38.9154525, "name": "b79654a0ac746c83e430ea6e022b4109", "rental_uris": {"ios": "https://dc.lft.to/lastmile_qr_scan", "android": "https://dc.lft.to/lastmile_qr_scan"}, "type": "electric_scooter", "fusion_lat": 0.0, "lon": -77.04458383333333}, {"fusion_lon": 0.0, "bike_id": "4b9bf9ddb98094b44c8319e3e66a34f5", "is_disabled": 0, "is_reserved": 0, "lat": 38.915597, "name": "4b9bf9ddb98094b44c8319e3e66a34f5", "rental_uris": {"ios": "https://dc.lft.to/lastmile_qr_scan", "android": "https://dc.lft.to/lastmile_qr_scan"}, "type": "electric_scooter", "fusion_lat": 0.0, "lon": -77.02175316666667}, {"fusion_lon": 0.0, "bike_id": "859e264224eceb086a3ed6f332e008f5", "is_disabled": 0, "is_reserved": 0, "lat": 38.921933, "name": "859e264224eceb086a3ed6f332e008f5", "rental_uris": {"ios": "https://dc.lft.to/lastmile_qr_scan", "android": "https://dc.lft.to/lastmile_qr_scan"}, "type": "electric_scooter", "fusion_lat": 0.0, "lon": -77.09942166666667}, {"fusion_lon": 0.0, "bike_id": "9c2ecbaf536be9aedb35da7b30878bbe", "is_disabled": 0, "is_reserved": 0, "lat": 38.9168105, "name": "9c2ecbaf536be9aedb35da7b30878bbe", "rental_uris": {"ios": "https://dc.lft.to/lastmile_qr_scan", "android": "https://dc.lft.to/lastmile_qr_scan"}, "type": "electric_scooter", "fusion_lat": 0.0, "lon": -77.015779}, {"fusion_lon": 0.0, "bike_id": "87f1a90a8d3ca5cff160c1d51f4f5625", "is_disabled": 0, "is_reserved": 0, "lat": 38.900694, "name": "87f1a90a8d3ca5cff160c1d51f4f5625", "rental_uris": {"ios": "https://dc.lft.to/lastmile_qr_scan", "android": "https://dc.lft.to/lastmile_qr_scan"}, "type": "electric_scooter", "fusion_lat": 0.0, "lon": -77.0443445}, {"fusion_lon": 0.0, "bike_id": "b43142fe63a050a4076506e9c0b85259", "is_disabled": 0, "is_reserved": 0, "lat": 38.899635333333336, "name": "b43142fe63a050a4076506e9c0b85259", "rental_uris": {"ios": "https://dc.lft.to/lastmile_qr_scan", "android": "https://dc.lft.to/lastmile_qr_scan"}, "type": "electric_scooter", "fusion_lat": 0.0, "lon": -77.033571}, {"fusion_lon": 0.0, "bike_id": "538f90150a1d10d28e5dfd01e78fe63b", "is_disabled": 0, "is_reserved": 0, "lat": 38.842768166666666, "name": "538f90150a1d10d28e5dfd01e78fe63b", "rental_uris": {"ios": "https://dc.lft.to/lastmile_qr_scan", "android": "https://dc.lft.to/lastmile_qr_scan"}, "type": "electric_bike", "fusion_lat": 0.0, "lon": -76.9884025}, {"fusion_lon": 0.0, "bike_id": "b885027c5eddff1c4873953823388904", "is_disabled": 0, "is_reserved": 0, "lat": 38.92599033333333, "name": "b885027c5eddff1c4873953823388904", "rental_uris": {"ios": "https://dc.lft.to/lastmile_qr_scan", "android": "https://dc.lft.to/lastmile_qr_scan"}, "type": "electric_scooter", "fusion_lat": 0.0, "lon": -77.02495933333333}, {"fusion_lon": 0.0, "bike_id": "8eb1d34c4790fc3c206570518f9cd02d", "is_disabled": 0, "is_reserved": 0, "lat": 38.89475916666667, "name": "8eb1d34c4790fc3c206570518f9cd02d", "rental_uris": {"ios": "https://dc.lft.to/lastmile_qr_scan", "android": "https://dc.lft.to/lastmile_qr_scan"}, "type": "electric_scooter", "fusion_lat": 0.0, "lon": -76.9859445}, {"fusion_lon": 0.0, "bike_id": "a1f6a8ab9a29d95e6ae786f37377bd40", "is_disabled": 0, "is_reserved": 0, "lat": 38.916946333333335, "name": "a1f6a8ab9a29d95e6ae786f37377bd40", "rental_uris": {"ios": "https://dc.lft.to/lastmile_qr_scan", "android": "https://dc.lft.to/lastmile_qr_scan"}, "type": "electric_scooter", "fusion_lat": 0.0, "lon": -77.0363975}, {"fusion_lon": 0.0, "bike_id": "819ae8c6f182bff0a7b4004cfe05268f", "is_disabled": 0, "is_reserved": 0, "lat": 38.926381666666664, "name": "819ae8c6f182bff0a7b4004cfe05268f", "rental_uris": {"ios": "https://dc.lft.to/lastmile_qr_scan", "android": "https://dc.lft.to/lastmile_qr_scan"}, "type": "electric_scooter", "fusion_lat": 0.0, "lon": -77.03691866666666}, {"fusion_lon": 0.0, "bike_id": "77f9dfc025477ce4e29138761f7d5f1b", "is_disabled": 0, "is_reserved": 0, "lat": 38.924746999999996, "name": "77f9dfc025477ce4e29138761f7d5f1b", "rental_uris": {"ios": "https://dc.lft.to/lastmile_qr_scan", "android": "https://dc.lft.to/lastmile_qr_scan"}, "type": "electric_scooter", "fusion_lat": 0.0, "lon": -77.02214483333333}, {"fusion_lon": 0.0, "bike_id": "eb8eed1e37650ef7e69c977ff93b4a56", "is_disabled": 0, "is_reserved": 0, "lat": 38.8753615, "name": "eb8eed1e37650ef7e69c977ff93b4a56", "rental_uris": {"ios": "https://dc.lft.to/lastmile_qr_scan", "android": "https://dc.lft.to/lastmile_qr_scan"}, "type": "electric_scooter", "fusion_lat": 0.0, "lon": -77.005066}, {"fusion_lon": 0.0, "bike_id": "932aa6c7ff4e1b05d3a7c7c9f08507b9", "is_disabled": 0, "is_reserved": 0, "lat": 38.930958833333335, "name": "932aa6c7ff4e1b05d3a7c7c9f08507b9", "rental_uris": {"ios": "https://dc.lft.to/lastmile_qr_scan", "android": "https://dc.lft.to/lastmile_qr_scan"}, "type": "electric_scooter", "fusion_lat": 0.0, "lon": -77.03444083333333}, {"fusion_lon": 0.0, "bike_id": "bc13276d9d4707e99594b7e5e5dc5332", "is_disabled": 0, "is_reserved": 0, "lat": 38.9227635, "name": "bc13276d9d4707e99594b7e5e5dc5332", "rental_uris": {"ios": "https://dc.lft.to/lastmile_qr_scan", "android": "https://dc.lft.to/lastmile_qr_scan"}, "type": "electric_scooter", "fusion_lat": 0.0, "lon": -77.02131666666666}, {"fusion_lon": 0.0, "bike_id": "96f4c7cbefb64271c0a9d2ec254121be", "is_disabled": 0, "is_reserved": 0, "lat": 38.92332966666667, "name": "96f4c7cbefb64271c0a9d2ec254121be", "rental_uris": {"ios": "https://dc.lft.to/lastmile_qr_scan", "android": "https://dc.lft.to/lastmile_qr_scan"}, "type": "electric_scooter", "fusion_lat": 0.0, "lon": -77.02809216666667}, {"fusion_lon": 0.0, "bike_id": "b68fb6ca42160a0ea1e1d5afa2fed7a3", "is_disabled": 0, "is_reserved": 0, "lat": 38.94309033333333, "name": "b68fb6ca42160a0ea1e1d5afa2fed7a3", "rental_uris": {"ios": "https://dc.lft.to/lastmile_qr_scan", "android": "https://dc.lft.to/lastmile_qr_scan"}, "type": "electric_scooter", "fusion_lat": 0.0, "lon": -77.02954066666666}, {"fusion_lon": 0.0, "bike_id": "05440016a4fae2bf02419f2f277d9c41", "is_disabled": 0, "is_reserved": 0, "lat": 38.899238833333335, "name": "05440016a4fae2bf02419f2f277d9c41", "rental_uris": {"ios": "https://dc.lft.to/lastmile_qr_scan", "android": "https://dc.lft.to/lastmile_qr_scan"}, "type": "electric_scooter", "fusion_lat": 0.0, "lon": -77.00362633333333}, {"fusion_lon": 0.0, "bike_id": "230640de4828f07f284324549df412bb", "is_disabled": 0, "is_reserved": 0, "lat": 38.91624316666667, "name": "230640de4828f07f284324549df412bb", "rental_uris": {"ios": "https://dc.lft.to/lastmile_qr_scan", "android": "https://dc.lft.to/lastmile_qr_scan"}, "type": "electric_scooter", "fusion_lat": 0.0, "lon": -77.00501316666667}, {"fusion_lon": 0.0, "bike_id": "5f8331a0580e482974b4b8ac7f2fc92a", "is_disabled": 0, "is_reserved": 0, "lat": 38.9265305, "name": "5f8331a0580e482974b4b8ac7f2fc92a", "rental_uris": {"ios": "https://dc.lft.to/lastmile_qr_scan", "android": "https://dc.lft.to/lastmile_qr_scan"}, "type": "electric_bike", "fusion_lat": 0.0, "lon": -77.09023783333333}, {"fusion_lon": 0.0, "bike_id": "b6b91c524711c30a229d4861b516e0a4", "is_disabled": 0, "is_reserved": 0, "lat": 38.915009166666664, "name": "b6b91c524711c30a229d4861b516e0a4", "rental_uris": {"ios": "https://dc.lft.to/lastmile_qr_scan", "android": "https://dc.lft.to/lastmile_qr_scan"}, "type": "electric_scooter", "fusion_lat": 0.0, "lon": -77.0383345}, {"fusion_lon": 0.0, "bike_id": "452959a22878d57bbf2933708408b8c2", "is_disabled": 0, "is_reserved": 0, "lat": 38.8996215, "name": "452959a22878d57bbf2933708408b8c2", "rental_uris": {"ios": "https://dc.lft.to/lastmile_qr_scan", "android": "https://dc.lft.to/lastmile_qr_scan"}, "type": "electric_scooter", "fusion_lat": 0.0, "lon": -76.994918}, {"fusion_lon": 0.0, "bike_id": "20ad98a672794a23c55fa917304fb727", "is_disabled": 0, "is_reserved": 0, "lat": 38.89853333333333, "name": "20ad98a672794a23c55fa917304fb727", "rental_uris": {"ios": "https://dc.lft.to/lastmile_qr_scan", "android": "https://dc.lft.to/lastmile_qr_scan"}, "type": "electric_scooter", "fusion_lat": 0.0, "lon": -77.04672533333333}, {"fusion_lon": 0.0, "bike_id": "cdf2e3406ead06f71c02f831c03eb991", "is_disabled": 0, "is_reserved": 0, "lat": 38.94735333333333, "name": "cdf2e3406ead06f71c02f831c03eb991", "rental_uris": {"ios": "https://dc.lft.to/lastmile_qr_scan", "android": "https://dc.lft.to/lastmile_qr_scan"}, "type": "electric_scooter", "fusion_lat": 0.0, "lon": -77.02367366666667}, {"fusion_lon": 0.0, "bike_id": "4ae35390f4280639c4ac9d63fe72859a", "is_disabled": 0, "is_reserved": 0, "lat": 38.92128566666667, "name": "4ae35390f4280639c4ac9d63fe72859a", "rental_uris": {"ios": "https://dc.lft.to/lastmile_qr_scan", "android": "https://dc.lft.to/lastmile_qr_scan"}, "type": "electric_scooter", "fusion_lat": 0.0, "lon": -77.01876433333334}, {"fusion_lon": 0.0, "bike_id": "a3cdc0de0f6349e8c54d5f9ab6d2e395", "is_disabled": 0, "is_reserved": 0, "lat": 38.974110333333336, "name": "a3cdc0de0f6349e8c54d5f9ab6d2e395", "rental_uris": {"ios": "https://dc.lft.to/lastmile_qr_scan", "android": "https://dc.lft.to/lastmile_qr_scan"}, "type": "electric_bike", "fusion_lat": 0.0, "lon": -76.98419916666667}, {"fusion_lon": 0.0, "bike_id": "66d6796fe2a9380ab4d4e36f0e629350", "is_disabled": 0, "is_reserved": 0, "lat": 38.92474633333333, "name": "66d6796fe2a9380ab4d4e36f0e629350", "rental_uris": {"ios": "https://dc.lft.to/lastmile_qr_scan", "android": "https://dc.lft.to/lastmile_qr_scan"}, "type": "electric_scooter", "fusion_lat": 0.0, "lon": -77.02204033333334}, {"fusion_lon": 0.0, "bike_id": "76c6ac3c36f560983c8c0ff400ef41b0", "is_disabled": 0, "is_reserved": 0, "lat": 38.9306155, "name": "76c6ac3c36f560983c8c0ff400ef41b0", "rental_uris": {"ios": "https://dc.lft.to/lastmile_qr_scan", "android": "https://dc.lft.to/lastmile_qr_scan"}, "type": "electric_scooter", "fusion_lat": 0.0, "lon": -77.02321566666667}, {"fusion_lon": 0.0, "bike_id": "41c48d7819579477a3d8a79b702bd70f", "is_disabled": 0, "is_reserved": 0, "lat": 38.9393795, "name": "41c48d7819579477a3d8a79b702bd70f", "rental_uris": {"ios": "https://dc.lft.to/lastmile_qr_scan", "android": "https://dc.lft.to/lastmile_qr_scan"}, "type": "electric_scooter", "fusion_lat": 0.0, "lon": -77.060534}, {"fusion_lon": 0.0, "bike_id": "b26b09d4f617d376f8c2d2a8259e1955", "is_disabled": 0, "is_reserved": 0, "lat": 38.90055233333333, "name": "b26b09d4f617d376f8c2d2a8259e1955", "rental_uris": {"ios": "https://dc.lft.to/lastmile_qr_scan", "android": "https://dc.lft.to/lastmile_qr_scan"}, "type": "electric_scooter", "fusion_lat": 0.0, "lon": -77.04550583333334}, {"fusion_lon": 0.0, "bike_id": "ed5cf737f339d90f4aaec199bb8bf910", "is_disabled": 0, "is_reserved": 0, "lat": 38.91255966666667, "name": "ed5cf737f339d90f4aaec199bb8bf910", "rental_uris": {"ios": "https://dc.lft.to/lastmile_qr_scan", "android": "https://dc.lft.to/lastmile_qr_scan"}, "type": "electric_scooter", "fusion_lat": 0.0, "lon": -77.044517}, {"fusion_lon": 0.0, "bike_id": "11b0980b54b8c45c48c9c29728a22392", "is_disabled": 0, "is_reserved": 0, "lat": 38.932501333333335, "name": "11b0980b54b8c45c48c9c29728a22392", "rental_uris": {"ios": "https://dc.lft.to/lastmile_qr_scan", "android": "https://dc.lft.to/lastmile_qr_scan"}, "type": "electric_scooter", "fusion_lat": 0.0, "lon": -77.03282366666667}, {"fusion_lon": 0.0, "bike_id": "175a56d23cf8dada32be1a73594292fa", "is_disabled": 0, "is_reserved": 0, "lat": 38.90847866666667, "name": "175a56d23cf8dada32be1a73594292fa", "rental_uris": {"ios": "https://dc.lft.to/lastmile_qr_scan", "android": "https://dc.lft.to/lastmile_qr_scan"}, "type": "electric_scooter", "fusion_lat": 0.0, "lon": -77.0637335}, {"fusion_lon": 0.0, "bike_id": "53c184e3c818c63979c1578e28a0ce2c", "is_disabled": 0, "is_reserved": 0, "lat": 38.907862333333334, "name": "53c184e3c818c63979c1578e28a0ce2c", "rental_uris": {"ios": "https://dc.lft.to/lastmile_qr_scan", "android": "https://dc.lft.to/lastmile_qr_scan"}, "type": "electric_bike", "fusion_lat": 0.0, "lon": -77.08168033333334}, {"fusion_lon": 0.0, "bike_id": "82627cf3c928ef07aae96dc872f651d7", "is_disabled": 0, "is_reserved": 0, "lat": 38.92368366666667, "name": "82627cf3c928ef07aae96dc872f651d7", "rental_uris": {"ios": "https://dc.lft.to/lastmile_qr_scan", "android": "https://dc.lft.to/lastmile_qr_scan"}, "type": "electric_scooter", "fusion_lat": 0.0, "lon": -77.0195635}, {"fusion_lon": 0.0, "bike_id": "8fa0c2a5ac60763601bf5de831eadadd", "is_disabled": 0, "is_reserved": 0, "lat": 38.910707, "name": "8fa0c2a5ac60763601bf5de831eadadd", "rental_uris": {"ios": "https://dc.lft.to/lastmile_qr_scan", "android": "https://dc.lft.to/lastmile_qr_scan"}, "type": "electric_scooter", "fusion_lat": 0.0, "lon": -77.016122}, {"fusion_lon": 0.0, "bike_id": "23e4dc586ab3a99148c330425e823bf7", "is_disabled": 0, "is_reserved": 0, "lat": 38.90559833333333, "name": "23e4dc586ab3a99148c330425e823bf7", "rental_uris": {"ios": "https://dc.lft.to/lastmile_qr_scan", "android": "https://dc.lft.to/lastmile_qr_scan"}, "type": "electric_scooter", "fusion_lat": 0.0, "lon": -77.05012283333333}, {"fusion_lon": 0.0, "bike_id": "0ad1fdf2a19f24d8b76806c0e707e6ce", "is_disabled": 0, "is_reserved": 0, "lat": 38.905066, "name": "0ad1fdf2a19f24d8b76806c0e707e6ce", "rental_uris": {"ios": "https://dc.lft.to/lastmile_qr_scan", "android": "https://dc.lft.to/lastmile_qr_scan"}, "type": "electric_scooter", "fusion_lat": 0.0, "lon": -76.98482916666667}, {"fusion_lon": 0.0, "bike_id": "b2e1e5b94c3624aa31b10c16b1ee8857", "is_disabled": 0, "is_reserved": 0, "lat": 38.9181755, "name": "b2e1e5b94c3624aa31b10c16b1ee8857", "rental_uris": {"ios": "https://dc.lft.to/lastmile_qr_scan", "android": "https://dc.lft.to/lastmile_qr_scan"}, "type": "electric_scooter", "fusion_lat": 0.0, "lon": -77.04528933333333}, {"fusion_lon": 0.0, "bike_id": "27c72f8872408e91c145fa6feb8c88df", "is_disabled": 0, "is_reserved": 0, "lat": 38.87852066666667, "name": "27c72f8872408e91c145fa6feb8c88df", "rental_uris": {"ios": "https://dc.lft.to/lastmile_qr_scan", "android": "https://dc.lft.to/lastmile_qr_scan"}, "type": "electric_scooter", "fusion_lat": 0.0, "lon": -77.006929}, {"fusion_lon": 0.0, "bike_id": "6c49175e1236f809bbbe24c373b15921", "is_disabled": 0, "is_reserved": 0, "lat": 38.897475666666665, "name": "6c49175e1236f809bbbe24c373b15921", "rental_uris": {"ios": "https://dc.lft.to/lastmile_qr_scan", "android": "https://dc.lft.to/lastmile_qr_scan"}, "type": "electric_scooter", "fusion_lat": 0.0, "lon": -77.04860216666667}, {"fusion_lon": 0.0, "bike_id": "4e3353e6ceb211379b5fc547f2376721", "is_disabled": 0, "is_reserved": 0, "lat": 38.92111833333333, "name": "4e3353e6ceb211379b5fc547f2376721", "rental_uris": {"ios": "https://dc.lft.to/lastmile_qr_scan", "android": "https://dc.lft.to/lastmile_qr_scan"}, "type": "electric_scooter", "fusion_lat": 0.0, "lon": -77.0469485}, {"fusion_lon": 0.0, "bike_id": "d9d088579691e4cc949968493d16d51e", "is_disabled": 0, "is_reserved": 0, "lat": 38.93272616666667, "name": "d9d088579691e4cc949968493d16d51e", "rental_uris": {"ios": "https://dc.lft.to/lastmile_qr_scan", "android": "https://dc.lft.to/lastmile_qr_scan"}, "type": "electric_scooter", "fusion_lat": 0.0, "lon": -77.0395405}, {"fusion_lon": 0.0, "bike_id": "99604d50acccd0b7272742a803edab79", "is_disabled": 0, "is_reserved": 0, "lat": 38.930543, "name": "99604d50acccd0b7272742a803edab79", "rental_uris": {"ios": "https://dc.lft.to/lastmile_qr_scan", "android": "https://dc.lft.to/lastmile_qr_scan"}, "type": "electric_scooter", "fusion_lat": 0.0, "lon": -77.03210233333333}, {"fusion_lon": 0.0, "bike_id": "17d676d4176553a9a28742bcd0c47530", "is_disabled": 0, "is_reserved": 0, "lat": 38.908386666666665, "name": "17d676d4176553a9a28742bcd0c47530", "rental_uris": {"ios": "https://dc.lft.to/lastmile_qr_scan", "android": "https://dc.lft.to/lastmile_qr_scan"}, "type": "electric_scooter", "fusion_lat": 0.0, "lon": -77.01257266666667}, {"fusion_lon": 0.0, "bike_id": "03ef61d8cee927842c09d72291d70494", "is_disabled": 0, "is_reserved": 0, "lat": 38.871520833333335, "name": "03ef61d8cee927842c09d72291d70494", "rental_uris": {"ios": "https://dc.lft.to/lastmile_qr_scan", "android": "https://dc.lft.to/lastmile_qr_scan"}, "type": "electric_scooter", "fusion_lat": 0.0, "lon": -77.00582483333334}, {"fusion_lon": 0.0, "bike_id": "1ae54ddf8216712220c472bc32b19be5", "is_disabled": 0, "is_reserved": 0, "lat": 38.85649866666667, "name": "1ae54ddf8216712220c472bc32b19be5", "rental_uris": {"ios": "https://dc.lft.to/lastmile_qr_scan", "android": "https://dc.lft.to/lastmile_qr_scan"}, "type": "electric_bike", "fusion_lat": 0.0, "lon": -77.08530133333333}, {"fusion_lon": 0.0, "bike_id": "6e1ac02f379081b943df45525d6de28b", "is_disabled": 0, "is_reserved": 0, "lat": 38.8650275, "name": "6e1ac02f379081b943df45525d6de28b", "rental_uris": {"ios": "https://dc.lft.to/lastmile_qr_scan", "android": "https://dc.lft.to/lastmile_qr_scan"}, "type": "electric_bike", "fusion_lat": 0.0, "lon": -76.97330666666667}, {"fusion_lon": 0.0, "bike_id": "928e556623c353701e30b208ebe3c496", "is_disabled": 0, "is_reserved": 0, "lat": 38.91268, "name": "928e556623c353701e30b208ebe3c496", "rental_uris": {"ios": "https://dc.lft.to/lastmile_qr_scan", "android": "https://dc.lft.to/lastmile_qr_scan"}, "type": "electric_scooter", "fusion_lat": 0.0, "lon": -77.03874533333334}, {"fusion_lon": 0.0, "bike_id": "c9f913b9cdfe90c826c026d8a31aee59", "is_disabled": 0, "is_reserved": 0, "lat": 38.90572316666667, "name": "c9f913b9cdfe90c826c026d8a31aee59", "rental_uris": {"ios": "https://dc.lft.to/lastmile_qr_scan", "android": "https://dc.lft.to/lastmile_qr_scan"}, "type": "electric_scooter", "fusion_lat": 0.0, "lon": -77.034463}, {"fusion_lon": 0.0, "bike_id": "151af631255fc591d28fc406a169ae5c", "is_disabled": 0, "is_reserved": 0, "lat": 38.913393666666664, "name": "151af631255fc591d28fc406a169ae5c", "rental_uris": {"ios": "https://dc.lft.to/lastmile_qr_scan", "android": "https://dc.lft.to/lastmile_qr_scan"}, "type": "electric_scooter", "fusion_lat": 0.0, "lon": -77.03808133333334}, {"fusion_lon": 0.0, "bike_id": "38b44c058a9cf9fcd1929b729de72d94", "is_disabled": 0, "is_reserved": 0, "lat": 38.930979, "name": "38b44c058a9cf9fcd1929b729de72d94", "rental_uris": {"ios": "https://dc.lft.to/lastmile_qr_scan", "android": "https://dc.lft.to/lastmile_qr_scan"}, "type": "electric_scooter", "fusion_lat": 0.0, "lon": -77.03442783333334}, {"fusion_lon": 0.0, "bike_id": "aaee886ed9ac6d66ce6d74bc79f0768f", "is_disabled": 0, "is_reserved": 0, "lat": 38.902878333333334, "name": "aaee886ed9ac6d66ce6d74bc79f0768f", "rental_uris": {"ios": "https://dc.lft.to/lastmile_qr_scan", "android": "https://dc.lft.to/lastmile_qr_scan"}, "type": "electric_scooter", "fusion_lat": 0.0, "lon": -77.0227355}, {"fusion_lon": 0.0, "bike_id": "8da9dfb892ab323d2f370fe2733d3d72", "is_disabled": 0, "is_reserved": 0, "lat": 38.90726033333333, "name": "8da9dfb892ab323d2f370fe2733d3d72", "rental_uris": {"ios": "https://dc.lft.to/lastmile_qr_scan", "android": "https://dc.lft.to/lastmile_qr_scan"}, "type": "electric_scooter", "fusion_lat": 0.0, "lon": -77.04563716666667}, {"fusion_lon": 0.0, "bike_id": "3a8ddb30bb264d1bce929f1ca696eb7d", "is_disabled": 0, "is_reserved": 0, "lat": 38.908712, "name": "3a8ddb30bb264d1bce929f1ca696eb7d", "rental_uris": {"ios": "https://dc.lft.to/lastmile_qr_scan", "android": "https://dc.lft.to/lastmile_qr_scan"}, "type": "electric_scooter", "fusion_lat": 0.0, "lon": -77.01246133333333}, {"fusion_lon": 0.0, "bike_id": "ad4a2e426c371ea1c210ff0c91f0184a", "is_disabled": 0, "is_reserved": 0, "lat": 38.966956333333336, "name": "ad4a2e426c371ea1c210ff0c91f0184a", "rental_uris": {"ios": "https://dc.lft.to/lastmile_qr_scan", "android": "https://dc.lft.to/lastmile_qr_scan"}, "type": "electric_bike", "fusion_lat": 0.0, "lon": -77.02283516666667}, {"fusion_lon": 0.0, "bike_id": "88b837965e60a2953e3834e168531e28", "is_disabled": 0, "is_reserved": 0, "lat": 38.921542333333335, "name": "88b837965e60a2953e3834e168531e28", "rental_uris": {"ios": "https://dc.lft.to/lastmile_qr_scan", "android": "https://dc.lft.to/lastmile_qr_scan"}, "type": "electric_scooter", "fusion_lat": 0.0, "lon": -77.0343865}, {"fusion_lon": 0.0, "bike_id": "d055d631b4896caaf5cbb65f8072e5bc", "is_disabled": 0, "is_reserved": 0, "lat": 38.92536416666667, "name": "d055d631b4896caaf5cbb65f8072e5bc", "rental_uris": {"ios": "https://dc.lft.to/lastmile_qr_scan", "android": "https://dc.lft.to/lastmile_qr_scan"}, "type": "electric_scooter", "fusion_lat": 0.0, "lon": -77.04256233333334}, {"fusion_lon": 0.0, "bike_id": "4a690c0fdfb6fc6710e9d1db2cdd3282", "is_disabled": 0, "is_reserved": 0, "lat": 38.877274166666666, "name": "4a690c0fdfb6fc6710e9d1db2cdd3282", "rental_uris": {"ios": "https://dc.lft.to/lastmile_qr_scan", "android": "https://dc.lft.to/lastmile_qr_scan"}, "type": "electric_scooter", "fusion_lat": 0.0, "lon": -77.00587883333333}, {"fusion_lon": 0.0, "bike_id": "bbf61af36e428eea0e995b3da1472cb5", "is_disabled": 0, "is_reserved": 0, "lat": 38.89866766666667, "name": "bbf61af36e428eea0e995b3da1472cb5", "rental_uris": {"ios": "https://dc.lft.to/lastmile_qr_scan", "android": "https://dc.lft.to/lastmile_qr_scan"}, "type": "electric_scooter", "fusion_lat": 0.0, "lon": -76.94640866666667}, {"fusion_lon": 0.0, "bike_id": "64fd14012431b5d5f6a00b494e06148d", "is_disabled": 0, "is_reserved": 0, "lat": 38.921537666666666, "name": "64fd14012431b5d5f6a00b494e06148d", "rental_uris": {"ios": "https://dc.lft.to/lastmile_qr_scan", "android": "https://dc.lft.to/lastmile_qr_scan"}, "type": "electric_scooter", "fusion_lat": 0.0, "lon": -77.03868183333333}, {"fusion_lon": 0.0, "bike_id": "ecbd266d5ee8a39dcd11da2149cf1dcd", "is_disabled": 0, "is_reserved": 0, "lat": 38.8306425, "name": "ecbd266d5ee8a39dcd11da2149cf1dcd", "rental_uris": {"ios": "https://dc.lft.to/lastmile_qr_scan", "android": "https://dc.lft.to/lastmile_qr_scan"}, "type": "electric_bike", "fusion_lat": 0.0, "lon": -77.040802}, {"fusion_lon": 0.0, "bike_id": "91e49d90d451952f052e3ea507ecc6a2", "is_disabled": 0, "is_reserved": 0, "lat": 38.925672666666664, "name": "91e49d90d451952f052e3ea507ecc6a2", "rental_uris": {"ios": "https://dc.lft.to/lastmile_qr_scan", "android": "https://dc.lft.to/lastmile_qr_scan"}, "type": "electric_scooter", "fusion_lat": 0.0, "lon": -77.0288235}, {"fusion_lon": 0.0, "bike_id": "191f336abc06960356c17a7c5952a6f5", "is_disabled": 0, "is_reserved": 0, "lat": 38.934763, "name": "191f336abc06960356c17a7c5952a6f5", "rental_uris": {"ios": "https://dc.lft.to/lastmile_qr_scan", "android": "https://dc.lft.to/lastmile_qr_scan"}, "type": "electric_scooter", "fusion_lat": 0.0, "lon": -77.0579395}, {"fusion_lon": 0.0, "bike_id": "a6c88aa6cd14ba803b8861d36496e793", "is_disabled": 0, "is_reserved": 0, "lat": 38.87071866666667, "name": "a6c88aa6cd14ba803b8861d36496e793", "rental_uris": {"ios": "https://dc.lft.to/lastmile_qr_scan", "android": "https://dc.lft.to/lastmile_qr_scan"}, "type": "electric_scooter", "fusion_lat": 0.0, "lon": -76.979457}, {"fusion_lon": 0.0, "bike_id": "a9c65284e24e39ecee2a55fe23a116a1", "is_disabled": 0, "is_reserved": 0, "lat": 38.8751485, "name": "a9c65284e24e39ecee2a55fe23a116a1", "rental_uris": {"ios": "https://dc.lft.to/lastmile_qr_scan", "android": "https://dc.lft.to/lastmile_qr_scan"}, "type": "electric_scooter", "fusion_lat": 0.0, "lon": -76.976599}, {"fusion_lon": 0.0, "bike_id": "55d58460217d62b37fc53f6124a0dff8", "is_disabled": 0, "is_reserved": 0, "lat": 38.90500016666667, "name": "55d58460217d62b37fc53f6124a0dff8", "rental_uris": {"ios": "https://dc.lft.to/lastmile_qr_scan", "android": "https://dc.lft.to/lastmile_qr_scan"}, "type": "electric_scooter", "fusion_lat": 0.0, "lon": -77.02949916666667}, {"fusion_lon": 0.0, "bike_id": "8e55facfdaa2e3a45a2ab12c5918ad3c", "is_disabled": 0, "is_reserved": 0, "lat": 38.93197266666667, "name": "8e55facfdaa2e3a45a2ab12c5918ad3c", "rental_uris": {"ios": "https://dc.lft.to/lastmile_qr_scan", "android": "https://dc.lft.to/lastmile_qr_scan"}, "type": "electric_scooter", "fusion_lat": 0.0, "lon": -77.02839283333333}, {"fusion_lon": 0.0, "bike_id": "2570eca06f3a9ffa6e9179542067bc78", "is_disabled": 0, "is_reserved": 0, "lat": 38.8793395, "name": "2570eca06f3a9ffa6e9179542067bc78", "rental_uris": {"ios": "https://dc.lft.to/lastmile_qr_scan", "android": "https://dc.lft.to/lastmile_qr_scan"}, "type": "electric_scooter", "fusion_lat": 0.0, "lon": -77.0132595}, {"fusion_lon": 0.0, "bike_id": "83cd5b7f6e57f99ed4bfaa93109ef691", "is_disabled": 0, "is_reserved": 0, "lat": 38.925059166666664, "name": "83cd5b7f6e57f99ed4bfaa93109ef691", "rental_uris": {"ios": "https://dc.lft.to/lastmile_qr_scan", "android": "https://dc.lft.to/lastmile_qr_scan"}, "type": "electric_scooter", "fusion_lat": 0.0, "lon": -77.02166716666666}, {"fusion_lon": 0.0, "bike_id": "2329da8355d2640c1a78c9e93bbb4477", "is_disabled": 0, "is_reserved": 0, "lat": 38.920261833333335, "name": "2329da8355d2640c1a78c9e93bbb4477", "rental_uris": {"ios": "https://dc.lft.to/lastmile_qr_scan", "android": "https://dc.lft.to/lastmile_qr_scan"}, "type": "electric_scooter", "fusion_lat": 0.0, "lon": -77.0419735}, {"fusion_lon": 0.0, "bike_id": "4130fe1a4960e74d9aa626670d31035d", "is_disabled": 0, "is_reserved": 0, "lat": 38.90882333333333, "name": "4130fe1a4960e74d9aa626670d31035d", "rental_uris": {"ios": "https://dc.lft.to/lastmile_qr_scan", "android": "https://dc.lft.to/lastmile_qr_scan"}, "type": "electric_scooter", "fusion_lat": 0.0, "lon": -77.022929}, {"fusion_lon": 0.0, "bike_id": "9c740ed09368af3ccd1bf0704c7ce9f1", "is_disabled": 0, "is_reserved": 0, "lat": 38.935388, "name": "9c740ed09368af3ccd1bf0704c7ce9f1", "rental_uris": {"ios": "https://dc.lft.to/lastmile_qr_scan", "android": "https://dc.lft.to/lastmile_qr_scan"}, "type": "electric_scooter", "fusion_lat": 0.0, "lon": -77.02345983333333}, {"fusion_lon": 0.0, "bike_id": "52a51bfb75caee7d6ca0e6f71b3e6972", "is_disabled": 0, "is_reserved": 0, "lat": 38.9095485, "name": "52a51bfb75caee7d6ca0e6f71b3e6972", "rental_uris": {"ios": "https://dc.lft.to/lastmile_qr_scan", "android": "https://dc.lft.to/lastmile_qr_scan"}, "type": "electric_scooter", "fusion_lat": 0.0, "lon": -76.98540666666666}, {"fusion_lon": 0.0, "bike_id": "7e12eab31b47ce52b4d8f8ee8ceed2ea", "is_disabled": 0, "is_reserved": 0, "lat": 38.8979065, "name": "7e12eab31b47ce52b4d8f8ee8ceed2ea", "rental_uris": {"ios": "https://dc.lft.to/lastmile_qr_scan", "android": "https://dc.lft.to/lastmile_qr_scan"}, "type": "electric_scooter", "fusion_lat": 0.0, "lon": -77.01188866666666}, {"fusion_lon": 0.0, "bike_id": "770ac02c025ccc58a63f55163d2c1d43", "is_disabled": 0, "is_reserved": 0, "lat": 38.89853383333333, "name": "770ac02c025ccc58a63f55163d2c1d43", "rental_uris": {"ios": "https://dc.lft.to/lastmile_qr_scan", "android": "https://dc.lft.to/lastmile_qr_scan"}, "type": "electric_scooter", "fusion_lat": 0.0, "lon": -77.02275333333333}, {"fusion_lon": 0.0, "bike_id": "f0eb9b9ca61dd9024c168401817ae1f1", "is_disabled": 0, "is_reserved": 0, "lat": 38.943239, "name": "f0eb9b9ca61dd9024c168401817ae1f1", "rental_uris": {"ios": "https://dc.lft.to/lastmile_qr_scan", "android": "https://dc.lft.to/lastmile_qr_scan"}, "type": "electric_scooter", "fusion_lat": 0.0, "lon": -77.07322616666667}, {"fusion_lon": 0.0, "bike_id": "14129b69a85e9946a688f47e0eb1bbff", "is_disabled": 0, "is_reserved": 0, "lat": 38.92375, "name": "14129b69a85e9946a688f47e0eb1bbff", "rental_uris": {"ios": "https://dc.lft.to/lastmile_qr_scan", "android": "https://dc.lft.to/lastmile_qr_scan"}, "type": "electric_scooter", "fusion_lat": 0.0, "lon": -77.03164433333333}, {"fusion_lon": 0.0, "bike_id": "155e9d7de8174d045968abef8659c5bc", "is_disabled": 0, "is_reserved": 0, "lat": 38.9156655, "name": "155e9d7de8174d045968abef8659c5bc", "rental_uris": {"ios": "https://dc.lft.to/lastmile_qr_scan", "android": "https://dc.lft.to/lastmile_qr_scan"}, "type": "electric_scooter", "fusion_lat": 0.0, "lon": -77.0461935}, {"fusion_lon": 0.0, "bike_id": "3ef140c1955a3ba64d3e2f1ffb231eef", "is_disabled": 0, "is_reserved": 0, "lat": 38.88745266666667, "name": "3ef140c1955a3ba64d3e2f1ffb231eef", "rental_uris": {"ios": "https://dc.lft.to/lastmile_qr_scan", "android": "https://dc.lft.to/lastmile_qr_scan"}, "type": "electric_scooter", "fusion_lat": 0.0, "lon": -77.0319885}, {"fusion_lon": 0.0, "bike_id": "1b29744696ef679539f8b9c4fc88c8e3", "is_disabled": 0, "is_reserved": 0, "lat": 38.89369333333333, "name": "1b29744696ef679539f8b9c4fc88c8e3", "rental_uris": {"ios": "https://dc.lft.to/lastmile_qr_scan", "android": "https://dc.lft.to/lastmile_qr_scan"}, "type": "electric_scooter", "fusion_lat": 0.0, "lon": -77.02061933333333}, {"fusion_lon": 0.0, "bike_id": "9b344ce73cc1cdfd0a8fbbd474e06879", "is_disabled": 0, "is_reserved": 0, "lat": 38.8984935, "name": "9b344ce73cc1cdfd0a8fbbd474e06879", "rental_uris": {"ios": "https://dc.lft.to/lastmile_qr_scan", "android": "https://dc.lft.to/lastmile_qr_scan"}, "type": "electric_scooter", "fusion_lat": 0.0, "lon": -77.02275666666667}, {"fusion_lon": 0.0, "bike_id": "b0efd54787b7a5165dbe8308ce3ad559", "is_disabled": 0, "is_reserved": 0, "lat": 38.935856666666666, "name": "b0efd54787b7a5165dbe8308ce3ad559", "rental_uris": {"ios": "https://dc.lft.to/lastmile_qr_scan", "android": "https://dc.lft.to/lastmile_qr_scan"}, "type": "electric_scooter", "fusion_lat": 0.0, "lon": -77.0743105}, {"fusion_lon": 0.0, "bike_id": "df0190334f051a375b30c5adb0cd32d5", "is_disabled": 0, "is_reserved": 0, "lat": 38.862499, "name": "df0190334f051a375b30c5adb0cd32d5", "rental_uris": {"ios": "https://dc.lft.to/lastmile_qr_scan", "android": "https://dc.lft.to/lastmile_qr_scan"}, "type": "electric_scooter", "fusion_lat": 0.0, "lon": -76.995056}, {"fusion_lon": 0.0, "bike_id": "58d8cde212dd46b106454fc52809b3f0", "is_disabled": 0, "is_reserved": 0, "lat": 38.898570666666664, "name": "58d8cde212dd46b106454fc52809b3f0", "rental_uris": {"ios": "https://dc.lft.to/lastmile_qr_scan", "android": "https://dc.lft.to/lastmile_qr_scan"}, "type": "electric_scooter", "fusion_lat": 0.0, "lon": -76.93212733333333}, {"fusion_lon": 0.0, "bike_id": "fa16bfb2cbb39b1202d08bd5ec476d22", "is_disabled": 0, "is_reserved": 0, "lat": 38.88248433333333, "name": "fa16bfb2cbb39b1202d08bd5ec476d22", "rental_uris": {"ios": "https://dc.lft.to/lastmile_qr_scan", "android": "https://dc.lft.to/lastmile_qr_scan"}, "type": "electric_scooter", "fusion_lat": 0.0, "lon": -76.93329583333333}, {"fusion_lon": 0.0, "bike_id": "9af5495b5c33606c323fdfe425972cc8", "is_disabled": 0, "is_reserved": 0, "lat": 38.918694, "name": "9af5495b5c33606c323fdfe425972cc8", "rental_uris": {"ios": "https://dc.lft.to/lastmile_qr_scan", "android": "https://dc.lft.to/lastmile_qr_scan"}, "type": "electric_scooter", "fusion_lat": 0.0, "lon": -77.0415725}, {"fusion_lon": 0.0, "bike_id": "4708b623ac3ecaf84342af187ee50d8e", "is_disabled": 0, "is_reserved": 0, "lat": 38.92853866666667, "name": "4708b623ac3ecaf84342af187ee50d8e", "rental_uris": {"ios": "https://dc.lft.to/lastmile_qr_scan", "android": "https://dc.lft.to/lastmile_qr_scan"}, "type": "electric_scooter", "fusion_lat": 0.0, "lon": -77.013881}, {"fusion_lon": 0.0, "bike_id": "73274f233bb43530b1d3523496b56557", "is_disabled": 0, "is_reserved": 0, "lat": 38.929649, "name": "73274f233bb43530b1d3523496b56557", "rental_uris": {"ios": "https://dc.lft.to/lastmile_qr_scan", "android": "https://dc.lft.to/lastmile_qr_scan"}, "type": "electric_scooter", "fusion_lat": 0.0, "lon": -77.01645966666666}, {"fusion_lon": 0.0, "bike_id": "eb1b12522a30a8a27caad9bbc8ac2006", "is_disabled": 0, "is_reserved": 0, "lat": 38.904284, "name": "eb1b12522a30a8a27caad9bbc8ac2006", "rental_uris": {"ios": "https://dc.lft.to/lastmile_qr_scan", "android": "https://dc.lft.to/lastmile_qr_scan"}, "type": "electric_scooter", "fusion_lat": 0.0, "lon": -77.05341916666667}, {"fusion_lon": 0.0, "bike_id": "1f47d0a9c9d4fdb319aacd84bb925eac", "is_disabled": 0, "is_reserved": 0, "lat": 38.896186166666666, "name": "1f47d0a9c9d4fdb319aacd84bb925eac", "rental_uris": {"ios": "https://dc.lft.to/lastmile_qr_scan", "android": "https://dc.lft.to/lastmile_qr_scan"}, "type": "electric_scooter", "fusion_lat": 0.0, "lon": -76.99846683333334}, {"fusion_lon": 0.0, "bike_id": "24c94e6a2b9a4ee90862dc58467243fd", "is_disabled": 0, "is_reserved": 0, "lat": 38.92008716666667, "name": "24c94e6a2b9a4ee90862dc58467243fd", "rental_uris": {"ios": "https://dc.lft.to/lastmile_qr_scan", "android": "https://dc.lft.to/lastmile_qr_scan"}, "type": "electric_scooter", "fusion_lat": 0.0, "lon": -77.02384383333333}, {"fusion_lon": 0.0, "bike_id": "bce48f4e90a12b19f41b61c0a4acd632", "is_disabled": 0, "is_reserved": 0, "lat": 38.920996833333334, "name": "bce48f4e90a12b19f41b61c0a4acd632", "rental_uris": {"ios": "https://dc.lft.to/lastmile_qr_scan", "android": "https://dc.lft.to/lastmile_qr_scan"}, "type": "electric_scooter", "fusion_lat": 0.0, "lon": -76.99914266666667}, {"fusion_lon": 0.0, "bike_id": "dacdc2343615404e38b90c2661148373", "is_disabled": 0, "is_reserved": 0, "lat": 38.920950166666664, "name": "dacdc2343615404e38b90c2661148373", "rental_uris": {"ios": "https://dc.lft.to/lastmile_qr_scan", "android": "https://dc.lft.to/lastmile_qr_scan"}, "type": "electric_scooter", "fusion_lat": 0.0, "lon": -77.031786}, {"fusion_lon": 0.0, "bike_id": "8abe6d36f841610b76b419b38606ae26", "is_disabled": 0, "is_reserved": 0, "lat": 38.91671816666667, "name": "8abe6d36f841610b76b419b38606ae26", "rental_uris": {"ios": "https://dc.lft.to/lastmile_qr_scan", "android": "https://dc.lft.to/lastmile_qr_scan"}, "type": "electric_scooter", "fusion_lat": 0.0, "lon": -77.03857983333333}, {"fusion_lon": 0.0, "bike_id": "423ff117f5cfe01a96f23076bdc44029", "is_disabled": 0, "is_reserved": 0, "lat": 38.92136083333333, "name": "423ff117f5cfe01a96f23076bdc44029", "rental_uris": {"ios": "https://dc.lft.to/lastmile_qr_scan", "android": "https://dc.lft.to/lastmile_qr_scan"}, "type": "electric_scooter", "fusion_lat": 0.0, "lon": -77.017827}, {"fusion_lon": 0.0, "bike_id": "822e097828cb8ea6646998dd5565d8eb", "is_disabled": 0, "is_reserved": 0, "lat": 38.924808166666665, "name": "822e097828cb8ea6646998dd5565d8eb", "rental_uris": {"ios": "https://dc.lft.to/lastmile_qr_scan", "android": "https://dc.lft.to/lastmile_qr_scan"}, "type": "electric_scooter", "fusion_lat": 0.0, "lon": -77.00883883333333}, {"fusion_lon": 0.0, "bike_id": "671e5ae8fc12790995a867110a215ef8", "is_disabled": 0, "is_reserved": 0, "lat": 38.9395495, "name": "671e5ae8fc12790995a867110a215ef8", "rental_uris": {"ios": "https://dc.lft.to/lastmile_qr_scan", "android": "https://dc.lft.to/lastmile_qr_scan"}, "type": "electric_scooter", "fusion_lat": 0.0, "lon": -77.07243066666666}, {"fusion_lon": 0.0, "bike_id": "91cba871c749a3a7db21bdecdd7ce076", "is_disabled": 0, "is_reserved": 0, "lat": 38.921226, "name": "91cba871c749a3a7db21bdecdd7ce076", "rental_uris": {"ios": "https://dc.lft.to/lastmile_qr_scan", "android": "https://dc.lft.to/lastmile_qr_scan"}, "type": "electric_scooter", "fusion_lat": 0.0, "lon": -77.01210666666667}, {"fusion_lon": 0.0, "bike_id": "9d1d12734dde4122644ec4291d0d71ab", "is_disabled": 0, "is_reserved": 0, "lat": 38.91044683333333, "name": "9d1d12734dde4122644ec4291d0d71ab", "rental_uris": {"ios": "https://dc.lft.to/lastmile_qr_scan", "android": "https://dc.lft.to/lastmile_qr_scan"}, "type": "electric_scooter", "fusion_lat": 0.0, "lon": -77.0276465}, {"fusion_lon": 0.0, "bike_id": "6b93bdff755805f0d90b38635429f8fd", "is_disabled": 0, "is_reserved": 0, "lat": 38.93085116666666, "name": "6b93bdff755805f0d90b38635429f8fd", "rental_uris": {"ios": "https://dc.lft.to/lastmile_qr_scan", "android": "https://dc.lft.to/lastmile_qr_scan"}, "type": "electric_scooter", "fusion_lat": 0.0, "lon": -77.02795566666667}, {"fusion_lon": 0.0, "bike_id": "afe231d0b5d9ffc2fe7518e92cdfea3e", "is_disabled": 0, "is_reserved": 0, "lat": 38.899675, "name": "afe231d0b5d9ffc2fe7518e92cdfea3e", "rental_uris": {"ios": "https://dc.lft.to/lastmile_qr_scan", "android": "https://dc.lft.to/lastmile_qr_scan"}, "type": "electric_scooter", "fusion_lat": 0.0, "lon": -77.02559733333334}, {"fusion_lon": 0.0, "bike_id": "5edace8e6358373da154652cf53cb74c", "is_disabled": 0, "is_reserved": 0, "lat": 38.9291245, "name": "5edace8e6358373da154652cf53cb74c", "rental_uris": {"ios": "https://dc.lft.to/lastmile_qr_scan", "android": "https://dc.lft.to/lastmile_qr_scan"}, "type": "electric_scooter", "fusion_lat": 0.0, "lon": -77.023482}, {"fusion_lon": 0.0, "bike_id": "e1425c777d5c0d883867c9ae8a5a94c5", "is_disabled": 0, "is_reserved": 0, "lat": 38.917090333333334, "name": "e1425c777d5c0d883867c9ae8a5a94c5", "rental_uris": {"ios": "https://dc.lft.to/lastmile_qr_scan", "android": "https://dc.lft.to/lastmile_qr_scan"}, "type": "electric_scooter", "fusion_lat": 0.0, "lon": -77.038618}, {"fusion_lon": 0.0, "bike_id": "20b01014887157da629a6a72773da5d1", "is_disabled": 0, "is_reserved": 0, "lat": 38.90401883333333, "name": "20b01014887157da629a6a72773da5d1", "rental_uris": {"ios": "https://dc.lft.to/lastmile_qr_scan", "android": "https://dc.lft.to/lastmile_qr_scan"}, "type": "electric_scooter", "fusion_lat": 0.0, "lon": -77.02505566666666}, {"fusion_lon": 0.0, "bike_id": "3f586d88fcdde985d60f545738534964", "is_disabled": 0, "is_reserved": 0, "lat": 38.922362166666666, "name": "3f586d88fcdde985d60f545738534964", "rental_uris": {"ios": "https://dc.lft.to/lastmile_qr_scan", "android": "https://dc.lft.to/lastmile_qr_scan"}, "type": "electric_scooter", "fusion_lat": 0.0, "lon": -77.02824083333333}, {"fusion_lon": 0.0, "bike_id": "42db2d2c4f2f6dcf22a16e49690c25c6", "is_disabled": 0, "is_reserved": 0, "lat": 38.9009335, "name": "42db2d2c4f2f6dcf22a16e49690c25c6", "rental_uris": {"ios": "https://dc.lft.to/lastmile_qr_scan", "android": "https://dc.lft.to/lastmile_qr_scan"}, "type": "electric_scooter", "fusion_lat": 0.0, "lon": -77.0475935}, {"fusion_lon": 0.0, "bike_id": "9b8af7024f2f3797ae013fbd1a9ae548", "is_disabled": 0, "is_reserved": 0, "lat": 38.9010895, "name": "9b8af7024f2f3797ae013fbd1a9ae548", "rental_uris": {"ios": "https://dc.lft.to/lastmile_qr_scan", "android": "https://dc.lft.to/lastmile_qr_scan"}, "type": "electric_scooter", "fusion_lat": 0.0, "lon": -77.016087}, {"fusion_lon": 0.0, "bike_id": "5230e805c1948c585f70cffbabdd1f38", "is_disabled": 0, "is_reserved": 0, "lat": 38.9434575, "name": "5230e805c1948c585f70cffbabdd1f38", "rental_uris": {"ios": "https://dc.lft.to/lastmile_qr_scan", "android": "https://dc.lft.to/lastmile_qr_scan"}, "type": "electric_scooter", "fusion_lat": 0.0, "lon": -77.02594633333334}, {"fusion_lon": 0.0, "bike_id": "030c5d0b7ed7d2d82c16f85a79ba3774", "is_disabled": 0, "is_reserved": 0, "lat": 38.9427435, "name": "030c5d0b7ed7d2d82c16f85a79ba3774", "rental_uris": {"ios": "https://dc.lft.to/lastmile_qr_scan", "android": "https://dc.lft.to/lastmile_qr_scan"}, "type": "electric_scooter", "fusion_lat": 0.0, "lon": -77.02936116666666}, {"fusion_lon": 0.0, "bike_id": "a58dc0e5884d396b80094d0286b11e4d", "is_disabled": 0, "is_reserved": 0, "lat": 38.927197, "name": "a58dc0e5884d396b80094d0286b11e4d", "rental_uris": {"ios": "https://dc.lft.to/lastmile_qr_scan", "android": "https://dc.lft.to/lastmile_qr_scan"}, "type": "electric_scooter", "fusion_lat": 0.0, "lon": -77.020965}, {"fusion_lon": 0.0, "bike_id": "8cee2c57be66acd158ca270516cfcbbc", "is_disabled": 0, "is_reserved": 0, "lat": 38.92507416666667, "name": "8cee2c57be66acd158ca270516cfcbbc", "rental_uris": {"ios": "https://dc.lft.to/lastmile_qr_scan", "android": "https://dc.lft.to/lastmile_qr_scan"}, "type": "electric_scooter", "fusion_lat": 0.0, "lon": -77.021642}, {"fusion_lon": 0.0, "bike_id": "b261cc98b4ec2b82df5bcdaab067accf", "is_disabled": 0, "is_reserved": 0, "lat": 38.909689, "name": "b261cc98b4ec2b82df5bcdaab067accf", "rental_uris": {"ios": "https://dc.lft.to/lastmile_qr_scan", "android": "https://dc.lft.to/lastmile_qr_scan"}, "type": "electric_scooter", "fusion_lat": 0.0, "lon": -77.03349083333333}, {"fusion_lon": 0.0, "bike_id": "60736d748cf989feb45b94dad6c3f371", "is_disabled": 0, "is_reserved": 0, "lat": 38.89991533333333, "name": "60736d748cf989feb45b94dad6c3f371", "rental_uris": {"ios": "https://dc.lft.to/lastmile_qr_scan", "android": "https://dc.lft.to/lastmile_qr_scan"}, "type": "electric_scooter", "fusion_lat": 0.0, "lon": -77.05562416666666}, {"fusion_lon": 0.0, "bike_id": "9b23a346e6d79c0db4a51ae67e9aacd9", "is_disabled": 0, "is_reserved": 0, "lat": 38.906977833333336, "name": "9b23a346e6d79c0db4a51ae67e9aacd9", "rental_uris": {"ios": "https://dc.lft.to/lastmile_qr_scan", "android": "https://dc.lft.to/lastmile_qr_scan"}, "type": "electric_bike", "fusion_lat": 0.0, "lon": -76.95254383333334}, {"fusion_lon": 0.0, "bike_id": "6c579be3931357ce3fb658c8c4a50128", "is_disabled": 0, "is_reserved": 0, "lat": 38.90507516666667, "name": "6c579be3931357ce3fb658c8c4a50128", "rental_uris": {"ios": "https://dc.lft.to/lastmile_qr_scan", "android": "https://dc.lft.to/lastmile_qr_scan"}, "type": "electric_scooter", "fusion_lat": 0.0, "lon": -77.04813433333334}, {"fusion_lon": 0.0, "bike_id": "052272e496e9032bc3bc1a4cc2f2b870", "is_disabled": 0, "is_reserved": 0, "lat": 38.89853266666667, "name": "052272e496e9032bc3bc1a4cc2f2b870", "rental_uris": {"ios": "https://dc.lft.to/lastmile_qr_scan", "android": "https://dc.lft.to/lastmile_qr_scan"}, "type": "electric_scooter", "fusion_lat": 0.0, "lon": -76.99037716666666}, {"fusion_lon": 0.0, "bike_id": "50f23ed1e13f77baef5ae632d3b8eb61", "is_disabled": 0, "is_reserved": 0, "lat": 38.899807833333334, "name": "50f23ed1e13f77baef5ae632d3b8eb61", "rental_uris": {"ios": "https://dc.lft.to/lastmile_qr_scan", "android": "https://dc.lft.to/lastmile_qr_scan"}, "type": "electric_scooter", "fusion_lat": 0.0, "lon": -77.030819}, {"fusion_lon": 0.0, "bike_id": "78c35a1b811183edb25bca0eb4e9da79", "is_disabled": 0, "is_reserved": 0, "lat": 38.92253633333333, "name": "78c35a1b811183edb25bca0eb4e9da79", "rental_uris": {"ios": "https://dc.lft.to/lastmile_qr_scan", "android": "https://dc.lft.to/lastmile_qr_scan"}, "type": "electric_scooter", "fusion_lat": 0.0, "lon": -77.0195385}, {"fusion_lon": 0.0, "bike_id": "3649add54bec25dc08ac47ee7098d8cd", "is_disabled": 0, "is_reserved": 0, "lat": 38.9289315, "name": "3649add54bec25dc08ac47ee7098d8cd", "rental_uris": {"ios": "https://dc.lft.to/lastmile_qr_scan", "android": "https://dc.lft.to/lastmile_qr_scan"}, "type": "electric_scooter", "fusion_lat": 0.0, "lon": -77.01398}, {"fusion_lon": 0.0, "bike_id": "c2541fd757d96ca28ec6d997229af6e8", "is_disabled": 0, "is_reserved": 0, "lat": 38.904174166666664, "name": "c2541fd757d96ca28ec6d997229af6e8", "rental_uris": {"ios": "https://dc.lft.to/lastmile_qr_scan", "android": "https://dc.lft.to/lastmile_qr_scan"}, "type": "electric_bike", "fusion_lat": 0.0, "lon": -77.04365633333333}, {"fusion_lon": 0.0, "bike_id": "3b2ae81331eb4dd7cf3cacdd0d03bc59", "is_disabled": 0, "is_reserved": 0, "lat": 38.9237025, "name": "3b2ae81331eb4dd7cf3cacdd0d03bc59", "rental_uris": {"ios": "https://dc.lft.to/lastmile_qr_scan", "android": "https://dc.lft.to/lastmile_qr_scan"}, "type": "electric_scooter", "fusion_lat": 0.0, "lon": -77.03545883333334}, {"fusion_lon": 0.0, "bike_id": "ee42acf1cba200087c882f236d3b47b7", "is_disabled": 0, "is_reserved": 0, "lat": 38.88359116666667, "name": "ee42acf1cba200087c882f236d3b47b7", "rental_uris": {"ios": "https://dc.lft.to/lastmile_qr_scan", "android": "https://dc.lft.to/lastmile_qr_scan"}, "type": "electric_scooter", "fusion_lat": 0.0, "lon": -76.95772783333334}, {"fusion_lon": 0.0, "bike_id": "33b54655a8f77b9e6d1bdf89fd3b1cfa", "is_disabled": 0, "is_reserved": 0, "lat": 38.95739583333334, "name": "33b54655a8f77b9e6d1bdf89fd3b1cfa", "rental_uris": {"ios": "https://dc.lft.to/lastmile_qr_scan", "android": "https://dc.lft.to/lastmile_qr_scan"}, "type": "electric_scooter", "fusion_lat": 0.0, "lon": -77.002211}, {"fusion_lon": 0.0, "bike_id": "3fa093047e3b4d56a757451a87ed6479", "is_disabled": 0, "is_reserved": 0, "lat": 39.01068933333333, "name": "3fa093047e3b4d56a757451a87ed6479", "rental_uris": {"ios": "https://dc.lft.to/lastmile_qr_scan", "android": "https://dc.lft.to/lastmile_qr_scan"}, "type": "electric_bike", "fusion_lat": 0.0, "lon": -76.92245266666667}, {"fusion_lon": 0.0, "bike_id": "d45e59827dbd58092e970779e3bcb2e3", "is_disabled": 0, "is_reserved": 0, "lat": 38.939608, "name": "d45e59827dbd58092e970779e3bcb2e3", "rental_uris": {"ios": "https://dc.lft.to/lastmile_qr_scan", "android": "https://dc.lft.to/lastmile_qr_scan"}, "type": "electric_scooter", "fusion_lat": 0.0, "lon": -77.07249716666666}, {"fusion_lon": 0.0, "bike_id": "2712e14f7340662f9fd03f1bd3d5c3a3", "is_disabled": 0, "is_reserved": 0, "lat": 38.87842766666667, "name": "2712e14f7340662f9fd03f1bd3d5c3a3", "rental_uris": {"ios": "https://dc.lft.to/lastmile_qr_scan", "android": "https://dc.lft.to/lastmile_qr_scan"}, "type": "electric_scooter", "fusion_lat": 0.0, "lon": -76.93133183333333}, {"fusion_lon": 0.0, "bike_id": "2e1d2fbdf99282176f2c5b414f3c63c5", "is_disabled": 0, "is_reserved": 0, "lat": 38.90501116666667, "name": "2e1d2fbdf99282176f2c5b414f3c63c5", "rental_uris": {"ios": "https://dc.lft.to/lastmile_qr_scan", "android": "https://dc.lft.to/lastmile_qr_scan"}, "type": "electric_scooter", "fusion_lat": 0.0, "lon": -77.02949}, {"fusion_lon": 0.0, "bike_id": "a1996990b838e7c4da2b85f0f55a784d", "is_disabled": 0, "is_reserved": 0, "lat": 38.92641116666667, "name": "a1996990b838e7c4da2b85f0f55a784d", "rental_uris": {"ios": "https://dc.lft.to/lastmile_qr_scan", "android": "https://dc.lft.to/lastmile_qr_scan"}, "type": "electric_scooter", "fusion_lat": 0.0, "lon": -77.02164633333334}, {"fusion_lon": 0.0, "bike_id": "1ce187430c950b110d2b4bde0809f8c3", "is_disabled": 0, "is_reserved": 0, "lat": 38.9089755, "name": "1ce187430c950b110d2b4bde0809f8c3", "rental_uris": {"ios": "https://dc.lft.to/lastmile_qr_scan", "android": "https://dc.lft.to/lastmile_qr_scan"}, "type": "electric_scooter", "fusion_lat": 0.0, "lon": -77.00282266666666}, {"fusion_lon": 0.0, "bike_id": "7b69d470f7af10b1aceb19239c09fe8c", "is_disabled": 0, "is_reserved": 0, "lat": 38.9205995, "name": "7b69d470f7af10b1aceb19239c09fe8c", "rental_uris": {"ios": "https://dc.lft.to/lastmile_qr_scan", "android": "https://dc.lft.to/lastmile_qr_scan"}, "type": "electric_scooter", "fusion_lat": 0.0, "lon": -77.02562783333333}, {"fusion_lon": 0.0, "bike_id": "9f4f43e85446ca059c3a589bdd61818a", "is_disabled": 0, "is_reserved": 0, "lat": 38.915691333333335, "name": "9f4f43e85446ca059c3a589bdd61818a", "rental_uris": {"ios": "https://dc.lft.to/lastmile_qr_scan", "android": "https://dc.lft.to/lastmile_qr_scan"}, "type": "electric_scooter", "fusion_lat": 0.0, "lon": -77.0366265}, {"fusion_lon": 0.0, "bike_id": "7cc1afcb36c8504e0feb458dcf6dc25d", "is_disabled": 0, "is_reserved": 0, "lat": 38.908581833333336, "name": "7cc1afcb36c8504e0feb458dcf6dc25d", "rental_uris": {"ios": "https://dc.lft.to/lastmile_qr_scan", "android": "https://dc.lft.to/lastmile_qr_scan"}, "type": "electric_scooter", "fusion_lat": 0.0, "lon": -77.03032766666666}, {"fusion_lon": 0.0, "bike_id": "8773b515f94889306cd2970709e04a6f", "is_disabled": 0, "is_reserved": 0, "lat": 38.931270833333336, "name": "8773b515f94889306cd2970709e04a6f", "rental_uris": {"ios": "https://dc.lft.to/lastmile_qr_scan", "android": "https://dc.lft.to/lastmile_qr_scan"}, "type": "electric_scooter", "fusion_lat": 0.0, "lon": -77.02198966666667}, {"fusion_lon": 0.0, "bike_id": "9be273ea05ef7087d137b377599fa0f9", "is_disabled": 0, "is_reserved": 0, "lat": 38.921624, "name": "9be273ea05ef7087d137b377599fa0f9", "rental_uris": {"ios": "https://dc.lft.to/lastmile_qr_scan", "android": "https://dc.lft.to/lastmile_qr_scan"}, "type": "electric_scooter", "fusion_lat": 0.0, "lon": -77.0331855}, {"fusion_lon": 0.0, "bike_id": "6c6f74cf6c395c6ca8b415fd61843fcf", "is_disabled": 0, "is_reserved": 0, "lat": 38.89970616666667, "name": "6c6f74cf6c395c6ca8b415fd61843fcf", "rental_uris": {"ios": "https://dc.lft.to/lastmile_qr_scan", "android": "https://dc.lft.to/lastmile_qr_scan"}, "type": "electric_scooter", "fusion_lat": 0.0, "lon": -77.04193233333334}, {"fusion_lon": 0.0, "bike_id": "4b7fa830bca06d0dafb8076e047d6e65", "is_disabled": 0, "is_reserved": 0, "lat": 38.877920333333336, "name": "4b7fa830bca06d0dafb8076e047d6e65", "rental_uris": {"ios": "https://dc.lft.to/lastmile_qr_scan", "android": "https://dc.lft.to/lastmile_qr_scan"}, "type": "electric_scooter", "fusion_lat": 0.0, "lon": -76.996093}, {"fusion_lon": 0.0, "bike_id": "a18810547c3d1088f6a3142f0cb87948", "is_disabled": 0, "is_reserved": 0, "lat": 38.91892966666666, "name": "a18810547c3d1088f6a3142f0cb87948", "rental_uris": {"ios": "https://dc.lft.to/lastmile_qr_scan", "android": "https://dc.lft.to/lastmile_qr_scan"}, "type": "electric_scooter", "fusion_lat": 0.0, "lon": -76.968978}, {"fusion_lon": 0.0, "bike_id": "2953479b3ec998ce5d3f504eb5a65b2d", "is_disabled": 0, "is_reserved": 0, "lat": 38.924080333333336, "name": "2953479b3ec998ce5d3f504eb5a65b2d", "rental_uris": {"ios": "https://dc.lft.to/lastmile_qr_scan", "android": "https://dc.lft.to/lastmile_qr_scan"}, "type": "electric_scooter", "fusion_lat": 0.0, "lon": -77.0405105}, {"fusion_lon": 0.0, "bike_id": "63702989b79050036e62db8bd18bab74", "is_disabled": 0, "is_reserved": 0, "lat": 38.919437, "name": "63702989b79050036e62db8bd18bab74", "rental_uris": {"ios": "https://dc.lft.to/lastmile_qr_scan", "android": "https://dc.lft.to/lastmile_qr_scan"}, "type": "electric_scooter", "fusion_lat": 0.0, "lon": -77.02506766666667}, {"fusion_lon": 0.0, "bike_id": "46f8a088a86af31f8aeb415c18d18bf0", "is_disabled": 0, "is_reserved": 0, "lat": 38.919874666666665, "name": "46f8a088a86af31f8aeb415c18d18bf0", "rental_uris": {"ios": "https://dc.lft.to/lastmile_qr_scan", "android": "https://dc.lft.to/lastmile_qr_scan"}, "type": "electric_scooter", "fusion_lat": 0.0, "lon": -77.04173283333333}, {"fusion_lon": 0.0, "bike_id": "c5481ef3eb27c9288d5f4d37fa91ba30", "is_disabled": 0, "is_reserved": 0, "lat": 38.906993166666666, "name": "c5481ef3eb27c9288d5f4d37fa91ba30", "rental_uris": {"ios": "https://dc.lft.to/lastmile_qr_scan", "android": "https://dc.lft.to/lastmile_qr_scan"}, "type": "electric_scooter", "fusion_lat": 0.0, "lon": -77.02712483333333}, {"fusion_lon": 0.0, "bike_id": "14732e9f999b3f825baea59bd4a29789", "is_disabled": 0, "is_reserved": 0, "lat": 38.924652, "name": "14732e9f999b3f825baea59bd4a29789", "rental_uris": {"ios": "https://dc.lft.to/lastmile_qr_scan", "android": "https://dc.lft.to/lastmile_qr_scan"}, "type": "electric_scooter", "fusion_lat": 0.0, "lon": -77.02245366666666}, {"fusion_lon": 0.0, "bike_id": "904e35b7ad409fa4a634228e9f6d9581", "is_disabled": 0, "is_reserved": 0, "lat": 38.89444116666667, "name": "904e35b7ad409fa4a634228e9f6d9581", "rental_uris": {"ios": "https://dc.lft.to/lastmile_qr_scan", "android": "https://dc.lft.to/lastmile_qr_scan"}, "type": "electric_scooter", "fusion_lat": 0.0, "lon": -76.97734183333333}, {"fusion_lon": 0.0, "bike_id": "79969fa2e1d94a61e27f694d07daa71e", "is_disabled": 0, "is_reserved": 0, "lat": 38.885766, "name": "79969fa2e1d94a61e27f694d07daa71e", "rental_uris": {"ios": "https://dc.lft.to/lastmile_qr_scan", "android": "https://dc.lft.to/lastmile_qr_scan"}, "type": "electric_scooter", "fusion_lat": 0.0, "lon": -76.95428833333334}, {"fusion_lon": 0.0, "bike_id": "056d3b8f1b114c933e91bbad99c2d00c", "is_disabled": 0, "is_reserved": 0, "lat": 38.916210166666666, "name": "056d3b8f1b114c933e91bbad99c2d00c", "rental_uris": {"ios": "https://dc.lft.to/lastmile_qr_scan", "android": "https://dc.lft.to/lastmile_qr_scan"}, "type": "electric_scooter", "fusion_lat": 0.0, "lon": -77.02809133333334}, {"fusion_lon": 0.0, "bike_id": "83ba9e11089059c97211c51a741378b6", "is_disabled": 0, "is_reserved": 0, "lat": 38.917146333333335, "name": "83ba9e11089059c97211c51a741378b6", "rental_uris": {"ios": "https://dc.lft.to/lastmile_qr_scan", "android": "https://dc.lft.to/lastmile_qr_scan"}, "type": "electric_scooter", "fusion_lat": 0.0, "lon": -77.02312816666667}, {"fusion_lon": 0.0, "bike_id": "9b81068af593958f0f5df6082f12a29c", "is_disabled": 0, "is_reserved": 0, "lat": 38.89217416666666, "name": "9b81068af593958f0f5df6082f12a29c", "rental_uris": {"ios": "https://dc.lft.to/lastmile_qr_scan", "android": "https://dc.lft.to/lastmile_qr_scan"}, "type": "electric_scooter", "fusion_lat": 0.0, "lon": -77.02539266666666}, {"fusion_lon": 0.0, "bike_id": "f7774e94c0c62883da352c090b02655c", "is_disabled": 0, "is_reserved": 0, "lat": 38.90540283333333, "name": "f7774e94c0c62883da352c090b02655c", "rental_uris": {"ios": "https://dc.lft.to/lastmile_qr_scan", "android": "https://dc.lft.to/lastmile_qr_scan"}, "type": "electric_scooter", "fusion_lat": 0.0, "lon": -76.98651733333334}, {"fusion_lon": 0.0, "bike_id": "111687f6f8491533faf4a75bf2eb789b", "is_disabled": 0, "is_reserved": 0, "lat": 38.925003, "name": "111687f6f8491533faf4a75bf2eb789b", "rental_uris": {"ios": "https://dc.lft.to/lastmile_qr_scan", "android": "https://dc.lft.to/lastmile_qr_scan"}, "type": "electric_scooter", "fusion_lat": 0.0, "lon": -77.043342}, {"fusion_lon": 0.0, "bike_id": "587a87e39a99c9be0ab0390f61404d95", "is_disabled": 0, "is_reserved": 0, "lat": 38.92367483333334, "name": "587a87e39a99c9be0ab0390f61404d95", "rental_uris": {"ios": "https://dc.lft.to/lastmile_qr_scan", "android": "https://dc.lft.to/lastmile_qr_scan"}, "type": "electric_scooter", "fusion_lat": 0.0, "lon": -77.01956516666667}, {"fusion_lon": 0.0, "bike_id": "285d54122735ed9a4532f79b9dbcf59a", "is_disabled": 0, "is_reserved": 0, "lat": 38.89333333333333, "name": "285d54122735ed9a4532f79b9dbcf59a", "rental_uris": {"ios": "https://dc.lft.to/lastmile_qr_scan", "android": "https://dc.lft.to/lastmile_qr_scan"}, "type": "electric_scooter", "fusion_lat": 0.0, "lon": -77.033757}, {"fusion_lon": 0.0, "bike_id": "42930ba81cdc3ccbad1a6e1f089908a6", "is_disabled": 0, "is_reserved": 0, "lat": 38.91369616666667, "name": "42930ba81cdc3ccbad1a6e1f089908a6", "rental_uris": {"ios": "https://dc.lft.to/lastmile_qr_scan", "android": "https://dc.lft.to/lastmile_qr_scan"}, "type": "electric_scooter", "fusion_lat": 0.0, "lon": -77.008202}, {"fusion_lon": 0.0, "bike_id": "95af16ddc03e82aef220b2cbf1ad8eb9", "is_disabled": 0, "is_reserved": 0, "lat": 38.91339716666667, "name": "95af16ddc03e82aef220b2cbf1ad8eb9", "rental_uris": {"ios": "https://dc.lft.to/lastmile_qr_scan", "android": "https://dc.lft.to/lastmile_qr_scan"}, "type": "electric_scooter", "fusion_lat": 0.0, "lon": -77.025791}, {"fusion_lon": 0.0, "bike_id": "9090fe10452512f637e9362d14333b62", "is_disabled": 0, "is_reserved": 0, "lat": 38.903132666666664, "name": "9090fe10452512f637e9362d14333b62", "rental_uris": {"ios": "https://dc.lft.to/lastmile_qr_scan", "android": "https://dc.lft.to/lastmile_qr_scan"}, "type": "electric_scooter", "fusion_lat": 0.0, "lon": -77.03646166666667}, {"fusion_lon": 0.0, "bike_id": "403ced50385616929b87a8ab928f123d", "is_disabled": 0, "is_reserved": 0, "lat": 38.9115885, "name": "403ced50385616929b87a8ab928f123d", "rental_uris": {"ios": "https://dc.lft.to/lastmile_qr_scan", "android": "https://dc.lft.to/lastmile_qr_scan"}, "type": "electric_scooter", "fusion_lat": 0.0, "lon": -77.01997233333333}, {"fusion_lon": 0.0, "bike_id": "5cab5f3e1043d06d75e96c65b6cab7bc", "is_disabled": 0, "is_reserved": 0, "lat": 38.921787, "name": "5cab5f3e1043d06d75e96c65b6cab7bc", "rental_uris": {"ios": "https://dc.lft.to/lastmile_qr_scan", "android": "https://dc.lft.to/lastmile_qr_scan"}, "type": "electric_scooter", "fusion_lat": 0.0, "lon": -77.0267125}, {"fusion_lon": 0.0, "bike_id": "3d057c7b05cf3028b2c2b0a8e4ce58aa", "is_disabled": 0, "is_reserved": 0, "lat": 38.998669666666665, "name": "3d057c7b05cf3028b2c2b0a8e4ce58aa", "rental_uris": {"ios": "https://dc.lft.to/lastmile_qr_scan", "android": "https://dc.lft.to/lastmile_qr_scan"}, "type": "electric_bike", "fusion_lat": 0.0, "lon": -77.0039275}, {"fusion_lon": 0.0, "bike_id": "d4f4e8144568f154fcc6908d865a1d56", "is_disabled": 0, "is_reserved": 0, "lat": 38.90788933333333, "name": "d4f4e8144568f154fcc6908d865a1d56", "rental_uris": {"ios": "https://dc.lft.to/lastmile_qr_scan", "android": "https://dc.lft.to/lastmile_qr_scan"}, "type": "electric_scooter", "fusion_lat": 0.0, "lon": -77.07245416666666}, {"fusion_lon": 0.0, "bike_id": "83e37bff73a8925a47855c0ace454143", "is_disabled": 0, "is_reserved": 0, "lat": 38.9245195, "name": "83e37bff73a8925a47855c0ace454143", "rental_uris": {"ios": "https://dc.lft.to/lastmile_qr_scan", "android": "https://dc.lft.to/lastmile_qr_scan"}, "type": "electric_scooter", "fusion_lat": 0.0, "lon": -77.02039983333333}, {"fusion_lon": 0.0, "bike_id": "7f9d8a495a71f681b5d61441e0efbd73", "is_disabled": 0, "is_reserved": 0, "lat": 38.901785333333336, "name": "7f9d8a495a71f681b5d61441e0efbd73", "rental_uris": {"ios": "https://dc.lft.to/lastmile_qr_scan", "android": "https://dc.lft.to/lastmile_qr_scan"}, "type": "electric_scooter", "fusion_lat": 0.0, "lon": -77.048258}, {"fusion_lon": 0.0, "bike_id": "c239dd369cc82b90e40a562585eae829", "is_disabled": 0, "is_reserved": 0, "lat": 38.8903575, "name": "c239dd369cc82b90e40a562585eae829", "rental_uris": {"ios": "https://dc.lft.to/lastmile_qr_scan", "android": "https://dc.lft.to/lastmile_qr_scan"}, "type": "electric_scooter", "fusion_lat": 0.0, "lon": -76.9446395}, {"fusion_lon": 0.0, "bike_id": "435ed54197e0bc11d3e37691e1da4490", "is_disabled": 0, "is_reserved": 0, "lat": 38.92617766666667, "name": "435ed54197e0bc11d3e37691e1da4490", "rental_uris": {"ios": "https://dc.lft.to/lastmile_qr_scan", "android": "https://dc.lft.to/lastmile_qr_scan"}, "type": "electric_scooter", "fusion_lat": 0.0, "lon": -77.021636}, {"fusion_lon": 0.0, "bike_id": "1d0e168332a6a6bf2cf42bb9088d31f4", "is_disabled": 0, "is_reserved": 0, "lat": 38.91573316666667, "name": "1d0e168332a6a6bf2cf42bb9088d31f4", "rental_uris": {"ios": "https://dc.lft.to/lastmile_qr_scan", "android": "https://dc.lft.to/lastmile_qr_scan"}, "type": "electric_scooter", "fusion_lat": 0.0, "lon": -77.01990216666667}, {"fusion_lon": 0.0, "bike_id": "0c111ff4b9d5d88fa362ac7769610523", "is_disabled": 0, "is_reserved": 0, "lat": 38.913345, "name": "0c111ff4b9d5d88fa362ac7769610523", "rental_uris": {"ios": "https://dc.lft.to/lastmile_qr_scan", "android": "https://dc.lft.to/lastmile_qr_scan"}, "type": "electric_scooter", "fusion_lat": 0.0, "lon": -77.00331383333334}, {"fusion_lon": 0.0, "bike_id": "fe38f66a7892151f604ecf70b4dcd365", "is_disabled": 0, "is_reserved": 0, "lat": 38.899848, "name": "fe38f66a7892151f604ecf70b4dcd365", "rental_uris": {"ios": "https://dc.lft.to/lastmile_qr_scan", "android": "https://dc.lft.to/lastmile_qr_scan"}, "type": "electric_scooter", "fusion_lat": 0.0, "lon": -77.02610316666667}, {"fusion_lon": 0.0, "bike_id": "6f1d7af4ce48feaa8a0c52a4cdc6f74a", "is_disabled": 0, "is_reserved": 0, "lat": 38.9306045, "name": "6f1d7af4ce48feaa8a0c52a4cdc6f74a", "rental_uris": {"ios": "https://dc.lft.to/lastmile_qr_scan", "android": "https://dc.lft.to/lastmile_qr_scan"}, "type": "electric_scooter", "fusion_lat": 0.0, "lon": -77.02323966666667}, {"fusion_lon": 0.0, "bike_id": "b04f7b5e3088bbef98be1f5bdb4c52f1", "is_disabled": 0, "is_reserved": 0, "lat": 38.90371016666667, "name": "b04f7b5e3088bbef98be1f5bdb4c52f1", "rental_uris": {"ios": "https://dc.lft.to/lastmile_qr_scan", "android": "https://dc.lft.to/lastmile_qr_scan"}, "type": "electric_scooter", "fusion_lat": 0.0, "lon": -77.048239}, {"fusion_lon": 0.0, "bike_id": "b4d5829c296da0743ee043ebabb58cf8", "is_disabled": 0, "is_reserved": 0, "lat": 38.916830166666664, "name": "b4d5829c296da0743ee043ebabb58cf8", "rental_uris": {"ios": "https://dc.lft.to/lastmile_qr_scan", "android": "https://dc.lft.to/lastmile_qr_scan"}, "type": "electric_scooter", "fusion_lat": 0.0, "lon": -77.02603916666666}, {"fusion_lon": 0.0, "bike_id": "d60f33952726efc480fc34138056a6c4", "is_disabled": 0, "is_reserved": 0, "lat": 38.928688333333334, "name": "d60f33952726efc480fc34138056a6c4", "rental_uris": {"ios": "https://dc.lft.to/lastmile_qr_scan", "android": "https://dc.lft.to/lastmile_qr_scan"}, "type": "electric_scooter", "fusion_lat": 0.0, "lon": -77.013601}, {"fusion_lon": 0.0, "bike_id": "b20d8ed7e2094ae8fa0f2470c571afc6", "is_disabled": 0, "is_reserved": 0, "lat": 38.915384333333336, "name": "b20d8ed7e2094ae8fa0f2470c571afc6", "rental_uris": {"ios": "https://dc.lft.to/lastmile_qr_scan", "android": "https://dc.lft.to/lastmile_qr_scan"}, "type": "electric_scooter", "fusion_lat": 0.0, "lon": -77.04425733333333}, {"fusion_lon": 0.0, "bike_id": "ca2f46cfd91c96c354bcb4d4810fd26d", "is_disabled": 0, "is_reserved": 0, "lat": 38.932017, "name": "ca2f46cfd91c96c354bcb4d4810fd26d", "rental_uris": {"ios": "https://dc.lft.to/lastmile_qr_scan", "android": "https://dc.lft.to/lastmile_qr_scan"}, "type": "electric_scooter", "fusion_lat": 0.0, "lon": -77.01873216666667}, {"fusion_lon": 0.0, "bike_id": "f4ece4f1507a576e20f5f71446360b6e", "is_disabled": 0, "is_reserved": 0, "lat": 38.9125955, "name": "f4ece4f1507a576e20f5f71446360b6e", "rental_uris": {"ios": "https://dc.lft.to/lastmile_qr_scan", "android": "https://dc.lft.to/lastmile_qr_scan"}, "type": "electric_scooter", "fusion_lat": 0.0, "lon": -77.02872066666667}, {"fusion_lon": 0.0, "bike_id": "c74832a09e6e6fc44dc0f96c2ef4a218", "is_disabled": 0, "is_reserved": 0, "lat": 38.953534, "name": "c74832a09e6e6fc44dc0f96c2ef4a218", "rental_uris": {"ios": "https://dc.lft.to/lastmile_qr_scan", "android": "https://dc.lft.to/lastmile_qr_scan"}, "type": "electric_scooter", "fusion_lat": 0.0, "lon": -77.02570016666667}, {"fusion_lon": 0.0, "bike_id": "b8530b83aa0bec5da341036f1ddaf5bc", "is_disabled": 0, "is_reserved": 0, "lat": 38.920545, "name": "b8530b83aa0bec5da341036f1ddaf5bc", "rental_uris": {"ios": "https://dc.lft.to/lastmile_qr_scan", "android": "https://dc.lft.to/lastmile_qr_scan"}, "type": "electric_scooter", "fusion_lat": 0.0, "lon": -76.9988395}, {"fusion_lon": 0.0, "bike_id": "82c691131f8a41723fd5e7328469efd4", "is_disabled": 0, "is_reserved": 0, "lat": 38.9156795, "name": "82c691131f8a41723fd5e7328469efd4", "rental_uris": {"ios": "https://dc.lft.to/lastmile_qr_scan", "android": "https://dc.lft.to/lastmile_qr_scan"}, "type": "electric_scooter", "fusion_lat": 0.0, "lon": -77.04614233333334}, {"fusion_lon": 0.0, "bike_id": "a1b19e150669b5bcc151b4a42af21dfa", "is_disabled": 0, "is_reserved": 0, "lat": 38.917098833333334, "name": "a1b19e150669b5bcc151b4a42af21dfa", "rental_uris": {"ios": "https://dc.lft.to/lastmile_qr_scan", "android": "https://dc.lft.to/lastmile_qr_scan"}, "type": "electric_scooter", "fusion_lat": 0.0, "lon": -77.03866516666666}, {"fusion_lon": 0.0, "bike_id": "be2a62ad6c85e734a29c203832b168b9", "is_disabled": 0, "is_reserved": 0, "lat": 38.91414266666666, "name": "be2a62ad6c85e734a29c203832b168b9", "rental_uris": {"ios": "https://dc.lft.to/lastmile_qr_scan", "android": "https://dc.lft.to/lastmile_qr_scan"}, "type": "electric_scooter", "fusion_lat": 0.0, "lon": -77.02914983333334}, {"fusion_lon": 0.0, "bike_id": "9f2b55eca1963293334bf121f81104f6", "is_disabled": 0, "is_reserved": 0, "lat": 38.9308495, "name": "9f2b55eca1963293334bf121f81104f6", "rental_uris": {"ios": "https://dc.lft.to/lastmile_qr_scan", "android": "https://dc.lft.to/lastmile_qr_scan"}, "type": "electric_scooter", "fusion_lat": 0.0, "lon": -77.00203666666667}, {"fusion_lon": 0.0, "bike_id": "5af7aca7acdd69662a0e206e04a6149a", "is_disabled": 0, "is_reserved": 0, "lat": 38.88496466666667, "name": "5af7aca7acdd69662a0e206e04a6149a", "rental_uris": {"ios": "https://dc.lft.to/lastmile_qr_scan", "android": "https://dc.lft.to/lastmile_qr_scan"}, "type": "electric_scooter", "fusion_lat": 0.0, "lon": -77.0248805}, {"fusion_lon": 0.0, "bike_id": "664e1e93180cca36d27d0014d090ac78", "is_disabled": 0, "is_reserved": 0, "lat": 38.918614, "name": "664e1e93180cca36d27d0014d090ac78", "rental_uris": {"ios": "https://dc.lft.to/lastmile_qr_scan", "android": "https://dc.lft.to/lastmile_qr_scan"}, "type": "electric_scooter", "fusion_lat": 0.0, "lon": -77.0348965}, {"fusion_lon": 0.0, "bike_id": "44381dbea092e02e0268dbb7284e8ae5", "is_disabled": 0, "is_reserved": 0, "lat": 38.920496, "name": "44381dbea092e02e0268dbb7284e8ae5", "rental_uris": {"ios": "https://dc.lft.to/lastmile_qr_scan", "android": "https://dc.lft.to/lastmile_qr_scan"}, "type": "electric_scooter", "fusion_lat": 0.0, "lon": -77.01727033333333}, {"fusion_lon": 0.0, "bike_id": "6f30e992f6b407cd167a7053ce713b10", "is_disabled": 0, "is_reserved": 0, "lat": 38.94461166666667, "name": "6f30e992f6b407cd167a7053ce713b10", "rental_uris": {"ios": "https://dc.lft.to/lastmile_qr_scan", "android": "https://dc.lft.to/lastmile_qr_scan"}, "type": "electric_scooter", "fusion_lat": 0.0, "lon": -77.00657933333333}, {"fusion_lon": 0.0, "bike_id": "cc11ae87cc2d529875f169635f55c3b2", "is_disabled": 0, "is_reserved": 0, "lat": 38.90899183333333, "name": "cc11ae87cc2d529875f169635f55c3b2", "rental_uris": {"ios": "https://dc.lft.to/lastmile_qr_scan", "android": "https://dc.lft.to/lastmile_qr_scan"}, "type": "electric_scooter", "fusion_lat": 0.0, "lon": -77.031512}, {"fusion_lon": 0.0, "bike_id": "8c01ee18aaee075d8e293da50beb4cea", "is_disabled": 0, "is_reserved": 0, "lat": 38.91538333333333, "name": "8c01ee18aaee075d8e293da50beb4cea", "rental_uris": {"ios": "https://dc.lft.to/lastmile_qr_scan", "android": "https://dc.lft.to/lastmile_qr_scan"}, "type": "electric_scooter", "fusion_lat": 0.0, "lon": -77.04424166666666}, {"fusion_lon": 0.0, "bike_id": "17adae6ee4685eff2f9280e8c28617bb", "is_disabled": 0, "is_reserved": 0, "lat": 38.919264, "name": "17adae6ee4685eff2f9280e8c28617bb", "rental_uris": {"ios": "https://dc.lft.to/lastmile_qr_scan", "android": "https://dc.lft.to/lastmile_qr_scan"}, "type": "electric_scooter", "fusion_lat": 0.0, "lon": -77.03179083333333}, {"fusion_lon": 0.0, "bike_id": "07e22dc663f20bdb2ad9ca766747d60b", "is_disabled": 0, "is_reserved": 0, "lat": 38.89742016666667, "name": "07e22dc663f20bdb2ad9ca766747d60b", "rental_uris": {"ios": "https://dc.lft.to/lastmile_qr_scan", "android": "https://dc.lft.to/lastmile_qr_scan"}, "type": "electric_scooter", "fusion_lat": 0.0, "lon": -77.01048316666666}, {"fusion_lon": 0.0, "bike_id": "ae7db4b6b47d3dd6ac3574a492195117", "is_disabled": 0, "is_reserved": 0, "lat": 38.8851475, "name": "ae7db4b6b47d3dd6ac3574a492195117", "rental_uris": {"ios": "https://dc.lft.to/lastmile_qr_scan", "android": "https://dc.lft.to/lastmile_qr_scan"}, "type": "electric_scooter", "fusion_lat": 0.0, "lon": -77.00222183333334}, {"fusion_lon": 0.0, "bike_id": "6d3c1e59a63de53ff0cc73d849d52343", "is_disabled": 0, "is_reserved": 0, "lat": 38.90212266666666, "name": "6d3c1e59a63de53ff0cc73d849d52343", "rental_uris": {"ios": "https://dc.lft.to/lastmile_qr_scan", "android": "https://dc.lft.to/lastmile_qr_scan"}, "type": "electric_scooter", "fusion_lat": 0.0, "lon": -77.050312}, {"fusion_lon": 0.0, "bike_id": "8b33bd45e9ef56fc35d9a5b81bf230e0", "is_disabled": 0, "is_reserved": 0, "lat": 38.903702833333334, "name": "8b33bd45e9ef56fc35d9a5b81bf230e0", "rental_uris": {"ios": "https://dc.lft.to/lastmile_qr_scan", "android": "https://dc.lft.to/lastmile_qr_scan"}, "type": "electric_scooter", "fusion_lat": 0.0, "lon": -77.02198333333334}, {"fusion_lon": 0.0, "bike_id": "0ca13dc8d14af2978ec3ea501e761c03", "is_disabled": 0, "is_reserved": 0, "lat": 38.9193975, "name": "0ca13dc8d14af2978ec3ea501e761c03", "rental_uris": {"ios": "https://dc.lft.to/lastmile_qr_scan", "android": "https://dc.lft.to/lastmile_qr_scan"}, "type": "electric_scooter", "fusion_lat": 0.0, "lon": -77.01793566666667}, {"fusion_lon": 0.0, "bike_id": "4b8b8778b1ac16114719d1671a7abff3", "is_disabled": 0, "is_reserved": 0, "lat": 38.918184, "name": "4b8b8778b1ac16114719d1671a7abff3", "rental_uris": {"ios": "https://dc.lft.to/lastmile_qr_scan", "android": "https://dc.lft.to/lastmile_qr_scan"}, "type": "electric_scooter", "fusion_lat": 0.0, "lon": -77.024759}, {"fusion_lon": 0.0, "bike_id": "2d529ed5d58e70c0ffc14f231dd83529", "is_disabled": 0, "is_reserved": 0, "lat": 38.90788416666667, "name": "2d529ed5d58e70c0ffc14f231dd83529", "rental_uris": {"ios": "https://dc.lft.to/lastmile_qr_scan", "android": "https://dc.lft.to/lastmile_qr_scan"}, "type": "electric_scooter", "fusion_lat": 0.0, "lon": -77.07244783333333}, {"fusion_lon": 0.0, "bike_id": "ee16d4646760a73b8a279c1fb038455d", "is_disabled": 0, "is_reserved": 0, "lat": 38.905682166666665, "name": "ee16d4646760a73b8a279c1fb038455d", "rental_uris": {"ios": "https://dc.lft.to/lastmile_qr_scan", "android": "https://dc.lft.to/lastmile_qr_scan"}, "type": "electric_scooter", "fusion_lat": 0.0, "lon": -77.0058395}, {"fusion_lon": 0.0, "bike_id": "05772012c0fadc75a6ec1c4543d63c39", "is_disabled": 0, "is_reserved": 0, "lat": 38.9008555, "name": "05772012c0fadc75a6ec1c4543d63c39", "rental_uris": {"ios": "https://dc.lft.to/lastmile_qr_scan", "android": "https://dc.lft.to/lastmile_qr_scan"}, "type": "electric_scooter", "fusion_lat": 0.0, "lon": -76.98332483333333}, {"fusion_lon": 0.0, "bike_id": "a1b25c481dca4504d220504c5efd2c7f", "is_disabled": 0, "is_reserved": 0, "lat": 38.881846333333336, "name": "a1b25c481dca4504d220504c5efd2c7f", "rental_uris": {"ios": "https://dc.lft.to/lastmile_qr_scan", "android": "https://dc.lft.to/lastmile_qr_scan"}, "type": "electric_scooter", "fusion_lat": 0.0, "lon": -77.01746466666667}, {"fusion_lon": 0.0, "bike_id": "2b27cdc4a11c0faf6ba52f914113ffcc", "is_disabled": 0, "is_reserved": 0, "lat": 38.90177, "name": "2b27cdc4a11c0faf6ba52f914113ffcc", "rental_uris": {"ios": "https://dc.lft.to/lastmile_qr_scan", "android": "https://dc.lft.to/lastmile_qr_scan"}, "type": "electric_scooter", "fusion_lat": 0.0, "lon": -77.05132566666667}, {"fusion_lon": 0.0, "bike_id": "f6514b33b8954b1af673cf3645400287", "is_disabled": 0, "is_reserved": 0, "lat": 38.967750833333334, "name": "f6514b33b8954b1af673cf3645400287", "rental_uris": {"ios": "https://dc.lft.to/lastmile_qr_scan", "android": "https://dc.lft.to/lastmile_qr_scan"}, "type": "electric_bike", "fusion_lat": 0.0, "lon": -76.99659083333333}, {"fusion_lon": 0.0, "bike_id": "645ed871ba60ae1cdd80bc0577fa87e6", "is_disabled": 0, "is_reserved": 0, "lat": 38.911116666666665, "name": "645ed871ba60ae1cdd80bc0577fa87e6", "rental_uris": {"ios": "https://dc.lft.to/lastmile_qr_scan", "android": "https://dc.lft.to/lastmile_qr_scan"}, "type": "electric_scooter", "fusion_lat": 0.0, "lon": -77.01147266666666}, {"fusion_lon": 0.0, "bike_id": "657ae43267950e0766d80ceac57c2131", "is_disabled": 0, "is_reserved": 0, "lat": 38.89975583333333, "name": "657ae43267950e0766d80ceac57c2131", "rental_uris": {"ios": "https://dc.lft.to/lastmile_qr_scan", "android": "https://dc.lft.to/lastmile_qr_scan"}, "type": "electric_scooter", "fusion_lat": 0.0, "lon": -76.99485983333334}, {"fusion_lon": 0.0, "bike_id": "8c8351242d294c538d8b9ef041211f21", "is_disabled": 0, "is_reserved": 0, "lat": 38.8774285, "name": "8c8351242d294c538d8b9ef041211f21", "rental_uris": {"ios": "https://dc.lft.to/lastmile_qr_scan", "android": "https://dc.lft.to/lastmile_qr_scan"}, "type": "electric_scooter", "fusion_lat": 0.0, "lon": -77.0190785}, {"fusion_lon": 0.0, "bike_id": "3ce9a3b5685c8d6053d67175b84dc081", "is_disabled": 0, "is_reserved": 0, "lat": 38.90726933333333, "name": "3ce9a3b5685c8d6053d67175b84dc081", "rental_uris": {"ios": "https://dc.lft.to/lastmile_qr_scan", "android": "https://dc.lft.to/lastmile_qr_scan"}, "type": "electric_bike", "fusion_lat": 0.0, "lon": -77.00289666666667}, {"fusion_lon": 0.0, "bike_id": "26bcb558333d0b1475776e35cac26b71", "is_disabled": 0, "is_reserved": 0, "lat": 38.919123, "name": "26bcb558333d0b1475776e35cac26b71", "rental_uris": {"ios": "https://dc.lft.to/lastmile_qr_scan", "android": "https://dc.lft.to/lastmile_qr_scan"}, "type": "electric_scooter", "fusion_lat": 0.0, "lon": -77.04632266666667}, {"fusion_lon": 0.0, "bike_id": "0424d1df04715f5d29eac16f74a65cea", "is_disabled": 0, "is_reserved": 0, "lat": 38.96697266666666, "name": "0424d1df04715f5d29eac16f74a65cea", "rental_uris": {"ios": "https://dc.lft.to/lastmile_qr_scan", "android": "https://dc.lft.to/lastmile_qr_scan"}, "type": "electric_scooter", "fusion_lat": 0.0, "lon": -77.03401366666667}, {"fusion_lon": 0.0, "bike_id": "40dfee21c138c2e30ee729d238d0c8ab", "is_disabled": 0, "is_reserved": 0, "lat": 38.869408166666666, "name": "40dfee21c138c2e30ee729d238d0c8ab", "rental_uris": {"ios": "https://dc.lft.to/lastmile_qr_scan", "android": "https://dc.lft.to/lastmile_qr_scan"}, "type": "electric_scooter", "fusion_lat": 0.0, "lon": -76.97742866666667}, {"fusion_lon": 0.0, "bike_id": "afed9fa3ceb477c18e60567015c7e125", "is_disabled": 0, "is_reserved": 0, "lat": 38.907814, "name": "afed9fa3ceb477c18e60567015c7e125", "rental_uris": {"ios": "https://dc.lft.to/lastmile_qr_scan", "android": "https://dc.lft.to/lastmile_qr_scan"}, "type": "electric_scooter", "fusion_lat": 0.0, "lon": -76.9985685}, {"fusion_lon": 0.0, "bike_id": "3d362a58924deaff97cbdf6b8ec6bbea", "is_disabled": 0, "is_reserved": 0, "lat": 38.906113, "name": "3d362a58924deaff97cbdf6b8ec6bbea", "rental_uris": {"ios": "https://dc.lft.to/lastmile_qr_scan", "android": "https://dc.lft.to/lastmile_qr_scan"}, "type": "electric_scooter", "fusion_lat": 0.0, "lon": -77.0564645}, {"fusion_lon": 0.0, "bike_id": "664759123399e3f7ac94501cfefd48c6", "is_disabled": 0, "is_reserved": 0, "lat": 38.91483983333333, "name": "664759123399e3f7ac94501cfefd48c6", "rental_uris": {"ios": "https://dc.lft.to/lastmile_qr_scan", "android": "https://dc.lft.to/lastmile_qr_scan"}, "type": "electric_scooter", "fusion_lat": 0.0, "lon": -77.03660216666667}, {"fusion_lon": 0.0, "bike_id": "7b5826538778b0dc992ea1674b6bead3", "is_disabled": 0, "is_reserved": 0, "lat": 38.924516, "name": "7b5826538778b0dc992ea1674b6bead3", "rental_uris": {"ios": "https://dc.lft.to/lastmile_qr_scan", "android": "https://dc.lft.to/lastmile_qr_scan"}, "type": "electric_scooter", "fusion_lat": 0.0, "lon": -77.0328525}, {"fusion_lon": 0.0, "bike_id": "94338b3f1af77e22be2892543eca0c17", "is_disabled": 0, "is_reserved": 0, "lat": 38.924159, "name": "94338b3f1af77e22be2892543eca0c17", "rental_uris": {"ios": "https://dc.lft.to/lastmile_qr_scan", "android": "https://dc.lft.to/lastmile_qr_scan"}, "type": "electric_scooter", "fusion_lat": 0.0, "lon": -77.02006733333333}, {"fusion_lon": 0.0, "bike_id": "6c284bdf5b0a5d1037d7d948b0e91175", "is_disabled": 0, "is_reserved": 0, "lat": 38.9170275, "name": "6c284bdf5b0a5d1037d7d948b0e91175", "rental_uris": {"ios": "https://dc.lft.to/lastmile_qr_scan", "android": "https://dc.lft.to/lastmile_qr_scan"}, "type": "electric_scooter", "fusion_lat": 0.0, "lon": -77.010352}, {"fusion_lon": 0.0, "bike_id": "a89f287b3030a5c88e821d3c0519596c", "is_disabled": 0, "is_reserved": 0, "lat": 38.89735966666667, "name": "a89f287b3030a5c88e821d3c0519596c", "rental_uris": {"ios": "https://dc.lft.to/lastmile_qr_scan", "android": "https://dc.lft.to/lastmile_qr_scan"}, "type": "electric_scooter", "fusion_lat": 0.0, "lon": -77.02698366666667}, {"fusion_lon": 0.0, "bike_id": "71e289f2cd3979b9b9dcd6d5cadca5c4", "is_disabled": 0, "is_reserved": 0, "lat": 38.91188916666667, "name": "71e289f2cd3979b9b9dcd6d5cadca5c4", "rental_uris": {"ios": "https://dc.lft.to/lastmile_qr_scan", "android": "https://dc.lft.to/lastmile_qr_scan"}, "type": "electric_scooter", "fusion_lat": 0.0, "lon": -77.0404}, {"fusion_lon": 0.0, "bike_id": "4f9f4288f4dbe262b77a339167c93b34", "is_disabled": 0, "is_reserved": 0, "lat": 38.9215915, "name": "4f9f4288f4dbe262b77a339167c93b34", "rental_uris": {"ios": "https://dc.lft.to/lastmile_qr_scan", "android": "https://dc.lft.to/lastmile_qr_scan"}, "type": "electric_scooter", "fusion_lat": 0.0, "lon": -77.04354416666666}, {"fusion_lon": 0.0, "bike_id": "bcdea947ed12c2bcad052cf83364ea98", "is_disabled": 0, "is_reserved": 0, "lat": 38.934087166666664, "name": "bcdea947ed12c2bcad052cf83364ea98", "rental_uris": {"ios": "https://dc.lft.to/lastmile_qr_scan", "android": "https://dc.lft.to/lastmile_qr_scan"}, "type": "electric_scooter", "fusion_lat": 0.0, "lon": -77.0455145}, {"fusion_lon": 0.0, "bike_id": "e5f9e1501ba06dbcce7ac0de3af6f7a0", "is_disabled": 0, "is_reserved": 0, "lat": 38.8779645, "name": "e5f9e1501ba06dbcce7ac0de3af6f7a0", "rental_uris": {"ios": "https://dc.lft.to/lastmile_qr_scan", "android": "https://dc.lft.to/lastmile_qr_scan"}, "type": "electric_scooter", "fusion_lat": 0.0, "lon": -77.00120683333333}, {"fusion_lon": 0.0, "bike_id": "1293a526427516ab2fe174d6bbfeedce", "is_disabled": 0, "is_reserved": 0, "lat": 38.92051383333333, "name": "1293a526427516ab2fe174d6bbfeedce", "rental_uris": {"ios": "https://dc.lft.to/lastmile_qr_scan", "android": "https://dc.lft.to/lastmile_qr_scan"}, "type": "electric_scooter", "fusion_lat": 0.0, "lon": -77.04183283333333}, {"fusion_lon": 0.0, "bike_id": "57369c928c18e18d595fe6f96718e892", "is_disabled": 0, "is_reserved": 0, "lat": 38.90891583333333, "name": "57369c928c18e18d595fe6f96718e892", "rental_uris": {"ios": "https://dc.lft.to/lastmile_qr_scan", "android": "https://dc.lft.to/lastmile_qr_scan"}, "type": "electric_bike", "fusion_lat": 0.0, "lon": -76.9248785}, {"fusion_lon": 0.0, "bike_id": "17a230d4646167832970e3b9a8dc508b", "is_disabled": 0, "is_reserved": 0, "lat": 38.913537833333336, "name": "17a230d4646167832970e3b9a8dc508b", "rental_uris": {"ios": "https://dc.lft.to/lastmile_qr_scan", "android": "https://dc.lft.to/lastmile_qr_scan"}, "type": "electric_scooter", "fusion_lat": 0.0, "lon": -76.97142}, {"fusion_lon": 0.0, "bike_id": "9ead704234faebb84d59e243ae4fa02f", "is_disabled": 0, "is_reserved": 0, "lat": 38.918178833333336, "name": "9ead704234faebb84d59e243ae4fa02f", "rental_uris": {"ios": "https://dc.lft.to/lastmile_qr_scan", "android": "https://dc.lft.to/lastmile_qr_scan"}, "type": "electric_scooter", "fusion_lat": 0.0, "lon": -77.02932666666666}, {"fusion_lon": 0.0, "bike_id": "2955f6a8ce60c9bcb806bf32232cb195", "is_disabled": 0, "is_reserved": 0, "lat": 38.924714, "name": "2955f6a8ce60c9bcb806bf32232cb195", "rental_uris": {"ios": "https://dc.lft.to/lastmile_qr_scan", "android": "https://dc.lft.to/lastmile_qr_scan"}, "type": "electric_scooter", "fusion_lat": 0.0, "lon": -77.02200783333333}, {"fusion_lon": 0.0, "bike_id": "0910edb6c331f46c6ea738c34aa4631b", "is_disabled": 0, "is_reserved": 0, "lat": 38.911271666666664, "name": "0910edb6c331f46c6ea738c34aa4631b", "rental_uris": {"ios": "https://dc.lft.to/lastmile_qr_scan", "android": "https://dc.lft.to/lastmile_qr_scan"}, "type": "electric_scooter", "fusion_lat": 0.0, "lon": -77.02200916666666}, {"fusion_lon": 0.0, "bike_id": "9f3b1ac721a942ebfa4552a2f53e85c6", "is_disabled": 0, "is_reserved": 0, "lat": 38.8717325, "name": "9f3b1ac721a942ebfa4552a2f53e85c6", "rental_uris": {"ios": "https://dc.lft.to/lastmile_qr_scan", "android": "https://dc.lft.to/lastmile_qr_scan"}, "type": "electric_scooter", "fusion_lat": 0.0, "lon": -77.00635983333333}, {"fusion_lon": 0.0, "bike_id": "f9f9e72da3719a36df140bcdb06cff18", "is_disabled": 0, "is_reserved": 0, "lat": 38.94092716666667, "name": "f9f9e72da3719a36df140bcdb06cff18", "rental_uris": {"ios": "https://dc.lft.to/lastmile_qr_scan", "android": "https://dc.lft.to/lastmile_qr_scan"}, "type": "electric_scooter", "fusion_lat": 0.0, "lon": -77.07804083333333}, {"fusion_lon": 0.0, "bike_id": "d70b6b958060671c7430e132b271ce37", "is_disabled": 0, "is_reserved": 0, "lat": 38.91562583333334, "name": "d70b6b958060671c7430e132b271ce37", "rental_uris": {"ios": "https://dc.lft.to/lastmile_qr_scan", "android": "https://dc.lft.to/lastmile_qr_scan"}, "type": "electric_scooter", "fusion_lat": 0.0, "lon": -77.007023}, {"fusion_lon": 0.0, "bike_id": "04106bcc26bf70f1495932aa3ec4b99b", "is_disabled": 0, "is_reserved": 0, "lat": 38.9156685, "name": "04106bcc26bf70f1495932aa3ec4b99b", "rental_uris": {"ios": "https://dc.lft.to/lastmile_qr_scan", "android": "https://dc.lft.to/lastmile_qr_scan"}, "type": "electric_scooter", "fusion_lat": 0.0, "lon": -77.03347783333334}, {"fusion_lon": 0.0, "bike_id": "02a8e52f5f0dc0608d3420b2ec8f69f0", "is_disabled": 0, "is_reserved": 0, "lat": 38.920336, "name": "02a8e52f5f0dc0608d3420b2ec8f69f0", "rental_uris": {"ios": "https://dc.lft.to/lastmile_qr_scan", "android": "https://dc.lft.to/lastmile_qr_scan"}, "type": "electric_scooter", "fusion_lat": 0.0, "lon": -77.01672183333334}, {"fusion_lon": 0.0, "bike_id": "f43c01a4b46719deb59693f5b29436db", "is_disabled": 0, "is_reserved": 0, "lat": 38.9209695, "name": "f43c01a4b46719deb59693f5b29436db", "rental_uris": {"ios": "https://dc.lft.to/lastmile_qr_scan", "android": "https://dc.lft.to/lastmile_qr_scan"}, "type": "electric_scooter", "fusion_lat": 0.0, "lon": -77.03175083333333}, {"fusion_lon": 0.0, "bike_id": "1fa6654ecd5f1b62caeab7fc4b0fbac5", "is_disabled": 0, "is_reserved": 0, "lat": 38.93035066666667, "name": "1fa6654ecd5f1b62caeab7fc4b0fbac5", "rental_uris": {"ios": "https://dc.lft.to/lastmile_qr_scan", "android": "https://dc.lft.to/lastmile_qr_scan"}, "type": "electric_scooter", "fusion_lat": 0.0, "lon": -77.03810666666666}, {"fusion_lon": 0.0, "bike_id": "b6e068897a0bd1c43deb1144ff0d7926", "is_disabled": 0, "is_reserved": 0, "lat": 38.915018833333335, "name": "b6e068897a0bd1c43deb1144ff0d7926", "rental_uris": {"ios": "https://dc.lft.to/lastmile_qr_scan", "android": "https://dc.lft.to/lastmile_qr_scan"}, "type": "electric_scooter", "fusion_lat": 0.0, "lon": -77.032117}, {"fusion_lon": 0.0, "bike_id": "61a707c8fe8ee8721502e1cf689ef686", "is_disabled": 0, "is_reserved": 0, "lat": 38.90168366666666, "name": "61a707c8fe8ee8721502e1cf689ef686", "rental_uris": {"ios": "https://dc.lft.to/lastmile_qr_scan", "android": "https://dc.lft.to/lastmile_qr_scan"}, "type": "electric_scooter", "fusion_lat": 0.0, "lon": -76.98455383333334}, {"fusion_lon": 0.0, "bike_id": "f2675129c47d171e287ee4702f2fc027", "is_disabled": 0, "is_reserved": 0, "lat": 38.87525933333333, "name": "f2675129c47d171e287ee4702f2fc027", "rental_uris": {"ios": "https://dc.lft.to/lastmile_qr_scan", "android": "https://dc.lft.to/lastmile_qr_scan"}, "type": "electric_scooter", "fusion_lat": 0.0, "lon": -77.00884216666667}, {"fusion_lon": 0.0, "bike_id": "5b80514e43ca0f91a62af4aeb2ba7eea", "is_disabled": 0, "is_reserved": 0, "lat": 38.90271716666667, "name": "5b80514e43ca0f91a62af4aeb2ba7eea", "rental_uris": {"ios": "https://dc.lft.to/lastmile_qr_scan", "android": "https://dc.lft.to/lastmile_qr_scan"}, "type": "electric_scooter", "fusion_lat": 0.0, "lon": -77.0277865}, {"fusion_lon": 0.0, "bike_id": "59878060aad2edd3704d0f31fb1b35c3", "is_disabled": 0, "is_reserved": 0, "lat": 38.924381, "name": "59878060aad2edd3704d0f31fb1b35c3", "rental_uris": {"ios": "https://dc.lft.to/lastmile_qr_scan", "android": "https://dc.lft.to/lastmile_qr_scan"}, "type": "electric_scooter", "fusion_lat": 0.0, "lon": -77.02036483333333}, {"fusion_lon": 0.0, "bike_id": "475b2cc7262e14a0b7d729b9b8b37206", "is_disabled": 0, "is_reserved": 0, "lat": 38.92118133333334, "name": "475b2cc7262e14a0b7d729b9b8b37206", "rental_uris": {"ios": "https://dc.lft.to/lastmile_qr_scan", "android": "https://dc.lft.to/lastmile_qr_scan"}, "type": "electric_scooter", "fusion_lat": 0.0, "lon": -77.03936216666666}, {"fusion_lon": 0.0, "bike_id": "b54f0f34e297be0800daa3b8170e6e06", "is_disabled": 0, "is_reserved": 0, "lat": 38.897166666666664, "name": "b54f0f34e297be0800daa3b8170e6e06", "rental_uris": {"ios": "https://dc.lft.to/lastmile_qr_scan", "android": "https://dc.lft.to/lastmile_qr_scan"}, "type": "electric_scooter", "fusion_lat": 0.0, "lon": -77.02174666666667}, {"fusion_lon": 0.0, "bike_id": "19299be428fca590ad2788b8aafcdc30", "is_disabled": 0, "is_reserved": 0, "lat": 38.902743, "name": "19299be428fca590ad2788b8aafcdc30", "rental_uris": {"ios": "https://dc.lft.to/lastmile_qr_scan", "android": "https://dc.lft.to/lastmile_qr_scan"}, "type": "electric_scooter", "fusion_lat": 0.0, "lon": -77.045817}, {"fusion_lon": 0.0, "bike_id": "7471a8e990bae90449b88e0c5cc1118e", "is_disabled": 0, "is_reserved": 0, "lat": 38.90268566666667, "name": "7471a8e990bae90449b88e0c5cc1118e", "rental_uris": {"ios": "https://dc.lft.to/lastmile_qr_scan", "android": "https://dc.lft.to/lastmile_qr_scan"}, "type": "electric_scooter", "fusion_lat": 0.0, "lon": -77.0515685}, {"fusion_lon": 0.0, "bike_id": "7cb523d1fee702579d7ff980d5b42733", "is_disabled": 0, "is_reserved": 0, "lat": 38.923436333333335, "name": "7cb523d1fee702579d7ff980d5b42733", "rental_uris": {"ios": "https://dc.lft.to/lastmile_qr_scan", "android": "https://dc.lft.to/lastmile_qr_scan"}, "type": "electric_scooter", "fusion_lat": 0.0, "lon": -77.00919}, {"fusion_lon": 0.0, "bike_id": "e5d0735c832372ab9c976b6ec7a3138a", "is_disabled": 0, "is_reserved": 0, "lat": 38.884451, "name": "e5d0735c832372ab9c976b6ec7a3138a", "rental_uris": {"ios": "https://dc.lft.to/lastmile_qr_scan", "android": "https://dc.lft.to/lastmile_qr_scan"}, "type": "electric_scooter", "fusion_lat": 0.0, "lon": -77.0303755}, {"fusion_lon": 0.0, "bike_id": "bd7a5bebf79e3b396f972738b689e298", "is_disabled": 0, "is_reserved": 0, "lat": 38.83914516666667, "name": "bd7a5bebf79e3b396f972738b689e298", "rental_uris": {"ios": "https://dc.lft.to/lastmile_qr_scan", "android": "https://dc.lft.to/lastmile_qr_scan"}, "type": "electric_bike", "fusion_lat": 0.0, "lon": -76.99839366666667}, {"fusion_lon": 0.0, "bike_id": "8ae0ad6d07f2d06f78d962c2b9daa6dc", "is_disabled": 0, "is_reserved": 0, "lat": 38.907282333333335, "name": "8ae0ad6d07f2d06f78d962c2b9daa6dc", "rental_uris": {"ios": "https://dc.lft.to/lastmile_qr_scan", "android": "https://dc.lft.to/lastmile_qr_scan"}, "type": "electric_scooter", "fusion_lat": 0.0, "lon": -77.02541566666666}, {"fusion_lon": 0.0, "bike_id": "c16f2dd0790467f7d7c9c9393fc18940", "is_disabled": 0, "is_reserved": 0, "lat": 38.940408166666664, "name": "c16f2dd0790467f7d7c9c9393fc18940", "rental_uris": {"ios": "https://dc.lft.to/lastmile_qr_scan", "android": "https://dc.lft.to/lastmile_qr_scan"}, "type": "electric_scooter", "fusion_lat": 0.0, "lon": -77.08392083333334}, {"fusion_lon": 0.0, "bike_id": "2ce511ec243652f68413ee53eba322fd", "is_disabled": 0, "is_reserved": 0, "lat": 38.91269, "name": "2ce511ec243652f68413ee53eba322fd", "rental_uris": {"ios": "https://dc.lft.to/lastmile_qr_scan", "android": "https://dc.lft.to/lastmile_qr_scan"}, "type": "electric_scooter", "fusion_lat": 0.0, "lon": -77.0183185}, {"fusion_lon": 0.0, "bike_id": "64f775c789a8fe597ce0a90632db1134", "is_disabled": 0, "is_reserved": 0, "lat": 38.94369066666667, "name": "64f775c789a8fe597ce0a90632db1134", "rental_uris": {"ios": "https://dc.lft.to/lastmile_qr_scan", "android": "https://dc.lft.to/lastmile_qr_scan"}, "type": "electric_scooter", "fusion_lat": 0.0, "lon": -77.02588216666666}, {"fusion_lon": 0.0, "bike_id": "19b9a7dca3bdade9311ad391de300ce0", "is_disabled": 0, "is_reserved": 0, "lat": 38.92794816666667, "name": "19b9a7dca3bdade9311ad391de300ce0", "rental_uris": {"ios": "https://dc.lft.to/lastmile_qr_scan", "android": "https://dc.lft.to/lastmile_qr_scan"}, "type": "electric_scooter", "fusion_lat": 0.0, "lon": -77.0361145}, {"fusion_lon": 0.0, "bike_id": "fa6f0ae89c4927ad658dd5f9d3ffd6c6", "is_disabled": 0, "is_reserved": 0, "lat": 38.91808916666667, "name": "fa6f0ae89c4927ad658dd5f9d3ffd6c6", "rental_uris": {"ios": "https://dc.lft.to/lastmile_qr_scan", "android": "https://dc.lft.to/lastmile_qr_scan"}, "type": "electric_scooter", "fusion_lat": 0.0, "lon": -77.034367}, {"fusion_lon": 0.0, "bike_id": "3c74769dd78210ac2994fbf426b96543", "is_disabled": 0, "is_reserved": 0, "lat": 38.906681666666664, "name": "3c74769dd78210ac2994fbf426b96543", "rental_uris": {"ios": "https://dc.lft.to/lastmile_qr_scan", "android": "https://dc.lft.to/lastmile_qr_scan"}, "type": "electric_scooter", "fusion_lat": 0.0, "lon": -77.00912}, {"fusion_lon": 0.0, "bike_id": "89101d62c12165352676309582bb8208", "is_disabled": 0, "is_reserved": 0, "lat": 38.90455033333333, "name": "89101d62c12165352676309582bb8208", "rental_uris": {"ios": "https://dc.lft.to/lastmile_qr_scan", "android": "https://dc.lft.to/lastmile_qr_scan"}, "type": "electric_scooter", "fusion_lat": 0.0, "lon": -76.98252883333333}, {"fusion_lon": 0.0, "bike_id": "24422b97d0129b21c6561550ed4fa83d", "is_disabled": 0, "is_reserved": 0, "lat": 38.925531166666666, "name": "24422b97d0129b21c6561550ed4fa83d", "rental_uris": {"ios": "https://dc.lft.to/lastmile_qr_scan", "android": "https://dc.lft.to/lastmile_qr_scan"}, "type": "electric_scooter", "fusion_lat": 0.0, "lon": -77.05299366666667}, {"fusion_lon": 0.0, "bike_id": "3c6d36db77cbf2117bf0f5eba4409170", "is_disabled": 0, "is_reserved": 0, "lat": 38.915456, "name": "3c6d36db77cbf2117bf0f5eba4409170", "rental_uris": {"ios": "https://dc.lft.to/lastmile_qr_scan", "android": "https://dc.lft.to/lastmile_qr_scan"}, "type": "electric_scooter", "fusion_lat": 0.0, "lon": -77.04460633333333}, {"fusion_lon": 0.0, "bike_id": "cba94523d4ed6b6090fda1b8c8dced97", "is_disabled": 0, "is_reserved": 0, "lat": 38.9131545, "name": "cba94523d4ed6b6090fda1b8c8dced97", "rental_uris": {"ios": "https://dc.lft.to/lastmile_qr_scan", "android": "https://dc.lft.to/lastmile_qr_scan"}, "type": "electric_scooter", "fusion_lat": 0.0, "lon": -77.02858466666666}, {"fusion_lon": 0.0, "bike_id": "8029da67fa3e51dc73b205ee6a24faf8", "is_disabled": 0, "is_reserved": 0, "lat": 38.897758833333334, "name": "8029da67fa3e51dc73b205ee6a24faf8", "rental_uris": {"ios": "https://dc.lft.to/lastmile_qr_scan", "android": "https://dc.lft.to/lastmile_qr_scan"}, "type": "electric_scooter", "fusion_lat": 0.0, "lon": -77.027206}, {"fusion_lon": 0.0, "bike_id": "0fecc71094eebbe4532811507902f250", "is_disabled": 0, "is_reserved": 0, "lat": 38.899248166666666, "name": "0fecc71094eebbe4532811507902f250", "rental_uris": {"ios": "https://dc.lft.to/lastmile_qr_scan", "android": "https://dc.lft.to/lastmile_qr_scan"}, "type": "electric_scooter", "fusion_lat": 0.0, "lon": -76.94576116666667}, {"fusion_lon": 0.0, "bike_id": "73ddda56fe2bc6f2812991ec04b18d91", "is_disabled": 0, "is_reserved": 0, "lat": 39.02622, "name": "73ddda56fe2bc6f2812991ec04b18d91", "rental_uris": {"ios": "https://dc.lft.to/lastmile_qr_scan", "android": "https://dc.lft.to/lastmile_qr_scan"}, "type": "electric_bike", "fusion_lat": 0.0, "lon": -77.0387995}, {"fusion_lon": 0.0, "bike_id": "b5562f4567fba7c9daf3478314acc76d", "is_disabled": 0, "is_reserved": 0, "lat": 38.9171215, "name": "b5562f4567fba7c9daf3478314acc76d", "rental_uris": {"ios": "https://dc.lft.to/lastmile_qr_scan", "android": "https://dc.lft.to/lastmile_qr_scan"}, "type": "electric_scooter", "fusion_lat": 0.0, "lon": -77.03250533333333}, {"fusion_lon": 0.0, "bike_id": "d9473771a29b2550899afc4df96704f4", "is_disabled": 0, "is_reserved": 0, "lat": 38.9705485, "name": "d9473771a29b2550899afc4df96704f4", "rental_uris": {"ios": "https://dc.lft.to/lastmile_qr_scan", "android": "https://dc.lft.to/lastmile_qr_scan"}, "type": "electric_bike", "fusion_lat": 0.0, "lon": -76.93617166666667}, {"fusion_lon": 0.0, "bike_id": "b4e7512fb49bb6bdafadac03fcb5e77f", "is_disabled": 0, "is_reserved": 0, "lat": 38.924901166666665, "name": "b4e7512fb49bb6bdafadac03fcb5e77f", "rental_uris": {"ios": "https://dc.lft.to/lastmile_qr_scan", "android": "https://dc.lft.to/lastmile_qr_scan"}, "type": "electric_scooter", "fusion_lat": 0.0, "lon": -77.0318135}, {"fusion_lon": 0.0, "bike_id": "bbb6598d24ccf8cfaf2ccdf2ba203992", "is_disabled": 0, "is_reserved": 0, "lat": 38.85793316666667, "name": "bbb6598d24ccf8cfaf2ccdf2ba203992", "rental_uris": {"ios": "https://dc.lft.to/lastmile_qr_scan", "android": "https://dc.lft.to/lastmile_qr_scan"}, "type": "electric_bike", "fusion_lat": 0.0, "lon": -76.98749116666667}, {"fusion_lon": 0.0, "bike_id": "c31f6ea16eb8d8a5475cf181b0a4e152", "is_disabled": 0, "is_reserved": 0, "lat": 38.87659816666667, "name": "c31f6ea16eb8d8a5475cf181b0a4e152", "rental_uris": {"ios": "https://dc.lft.to/lastmile_qr_scan", "android": "https://dc.lft.to/lastmile_qr_scan"}, "type": "electric_scooter", "fusion_lat": 0.0, "lon": -77.00062166666666}, {"fusion_lon": 0.0, "bike_id": "07d99d597bbac9071c402d3b332db93c", "is_disabled": 0, "is_reserved": 0, "lat": 38.895448333333334, "name": "07d99d597bbac9071c402d3b332db93c", "rental_uris": {"ios": "https://dc.lft.to/lastmile_qr_scan", "android": "https://dc.lft.to/lastmile_qr_scan"}, "type": "electric_scooter", "fusion_lat": 0.0, "lon": -76.98340733333333}, {"fusion_lon": 0.0, "bike_id": "1ebf57967bb1f53c5c19913a06b93833", "is_disabled": 0, "is_reserved": 0, "lat": 38.9192425, "name": "1ebf57967bb1f53c5c19913a06b93833", "rental_uris": {"ios": "https://dc.lft.to/lastmile_qr_scan", "android": "https://dc.lft.to/lastmile_qr_scan"}, "type": "electric_scooter", "fusion_lat": 0.0, "lon": -77.03179266666666}, {"fusion_lon": 0.0, "bike_id": "b5466a559094ff874f31c77b8b205baa", "is_disabled": 0, "is_reserved": 0, "lat": 39.01077166666666, "name": "b5466a559094ff874f31c77b8b205baa", "rental_uris": {"ios": "https://dc.lft.to/lastmile_qr_scan", "android": "https://dc.lft.to/lastmile_qr_scan"}, "type": "electric_bike", "fusion_lat": 0.0, "lon": -76.91065633333334}, {"fusion_lon": 0.0, "bike_id": "be255ee913ef27a348ce37144a3eb817", "is_disabled": 0, "is_reserved": 0, "lat": 38.8717595, "name": "be255ee913ef27a348ce37144a3eb817", "rental_uris": {"ios": "https://dc.lft.to/lastmile_qr_scan", "android": "https://dc.lft.to/lastmile_qr_scan"},