{"data": {"bikes": [{"is_reserved": 0, "type": "electric_scooter", "fusion_lat": 0.0, "is_disabled": 0, "rental_uris": {"ios": "https://dc.lft.to/lastmile_qr_scan", "android": "https://dc.lft.to/lastmile_qr_scan"}, "bike_id": "ed1cdc800ca2a68f193bfb4886aafa93", "lat": 38.90909166666667, "name": "ed1cdc800ca2a68f193bfb4886aafa93", "lon": -76.99113, "fusion_lon": 0.0}, {"is_reserved": 0, "type": "electric_scooter", "fusion_lat": 0.0, "is_disabled": 0, "rental_uris": {"ios": "https://dc.lft.to/lastmile_qr_scan", "android": "https://dc.lft.to/lastmile_qr_scan"}, "bike_id": "ff23bbd9534b366839bdcaa9cffa49eb", "lat": 38.87477166666667, "name": "ff23bbd9534b366839bdcaa9cffa49eb", "lon": -76.99167766666666, "fusion_lon": 0.0}, {"is_reserved": 0, "type": "electric_scooter", "fusion_lat": 0.0, "is_disabled": 0, "rental_uris": {"ios": "https://dc.lft.to/lastmile_qr_scan", "android": "https://dc.lft.to/lastmile_qr_scan"}, "bike_id": "c15f762b87a4c3e28bf9e51c7cb0b770", "lat": 38.93263016666667, "name": "c15f762b87a4c3e28bf9e51c7cb0b770", "lon": -77.02094133333334, "fusion_lon": 0.0}, {"is_reserved": 0, "type": "electric_scooter", "fusion_lat": 0.0, "is_disabled": 0, "rental_uris": {"ios": "https://dc.lft.to/lastmile_qr_scan", "android": "https://dc.lft.to/lastmile_qr_scan"}, "bike_id": "a54bcff05372c1b4baae999b08e516e5", "lat": 38.89977916666667, "name": "a54bcff05372c1b4baae999b08e516e5", "lon": -77.01606433333333, "fusion_lon": 0.0}, {"is_reserved": 0, "type": "electric_bike", "fusion_lat": 0.0, "is_disabled": 0, "rental_uris": {"ios": "https://dc.lft.to/lastmile_qr_scan", "android": "https://dc.lft.to/lastmile_qr_scan"}, "bike_id": "5f8d87ec04aa3982b88fb19073adcc93", "lat": 39.0707225, "name": "5f8d87ec04aa3982b88fb19073adcc93", "lon": -77.11532666666666, "fusion_lon": 0.0}, {"is_reserved": 0, "type": "electric_scooter", "fusion_lat": 0.0, "is_disabled": 0, "rental_uris": {"ios": "https://dc.lft.to/lastmile_qr_scan", "android": "https://dc.lft.to/lastmile_qr_scan"}, "bike_id": "7de6752c0e150c1baf4842655ac189ed", "lat": 38.91699583333333, "name": "7de6752c0e150c1baf4842655ac189ed", "lon": -77.03599266666667, "fusion_lon": 0.0}, {"is_reserved": 0, "type": "electric_bike", "fusion_lat": 0.0, "is_disabled": 0, "rental_uris": {"ios": "https://dc.lft.to/lastmile_qr_scan", "android": "https://dc.lft.to/lastmile_qr_scan"}, "bike_id": "a6f932be9c1438bf792fbcda1b985f04", "lat": 38.80406, "name": "a6f932be9c1438bf792fbcda1b985f04", "lon": -77.1132695, "fusion_lon": 0.0}, {"is_reserved": 0, "type": "electric_scooter", "fusion_lat": 0.0, "is_disabled": 0, "rental_uris": {"ios": "https://dc.lft.to/lastmile_qr_scan", "android": "https://dc.lft.to/lastmile_qr_scan"}, "bike_id": "f5260908b472da74f85cd0decfbfb32f", "lat": 38.916815666666665, "name": "f5260908b472da74f85cd0decfbfb32f", "lon": -77.02283166666666, "fusion_lon": 0.0}, {"is_reserved": 0, "type": "electric_bike", "fusion_lat": 0.0, "is_disabled": 0, "rental_uris": {"ios": "https://dc.lft.to/lastmile_qr_scan", "android": "https://dc.lft.to/lastmile_qr_scan"}, "bike_id": "7ba2c6ef149ff95e685d2506a13aee07", "lat": 38.855947666666665, "name": "7ba2c6ef149ff95e685d2506a13aee07", "lon": -76.9727405, "fusion_lon": 0.0}, {"is_reserved": 0, "type": "electric_scooter", "fusion_lat": 0.0, "is_disabled": 0, "rental_uris": {"ios": "https://dc.lft.to/lastmile_qr_scan", "android": "https://dc.lft.to/lastmile_qr_scan"}, "bike_id": "4f82fa09403aaee2874f31c0ba602843", "lat": 38.916762, "name": "4f82fa09403aaee2874f31c0ba602843", "lon": -77.02300166666667, "fusion_lon": 0.0}, {"is_reserved": 0, "type": "electric_bike", "fusion_lat": 0.0, "is_disabled": 0, "rental_uris": {"ios": "https://dc.lft.to/lastmile_qr_scan", "android": "https://dc.lft.to/lastmile_qr_scan"}, "bike_id": "5d93e07a836e570a641ec0c5f5bc10be", "lat": 38.80524033333333, "name": "5d93e07a836e570a641ec0c5f5bc10be", "lon": -77.0433385, "fusion_lon": 0.0}, {"is_reserved": 0, "type": "electric_scooter", "fusion_lat": 0.0, "is_disabled": 0, "rental_uris": {"ios": "https://dc.lft.to/lastmile_qr_scan", "android": "https://dc.lft.to/lastmile_qr_scan"}, "bike_id": "fc7cb2accd8dc383940a075bbf799b35", "lat": 38.974987, "name": "fc7cb2accd8dc383940a075bbf799b35", "lon": -77.01694733333333, "fusion_lon": 0.0}, {"is_reserved": 0, "type": "electric_scooter", "fusion_lat": 0.0, "is_disabled": 0, "rental_uris": {"ios": "https://dc.lft.to/lastmile_qr_scan", "android": "https://dc.lft.to/lastmile_qr_scan"}, "bike_id": "4df747917101f22654bacb523efa84e0", "lat": 38.9217505, "name": "4df747917101f22654bacb523efa84e0", "lon": -77.03838066666667, "fusion_lon": 0.0}, {"is_reserved": 0, "type": "electric_scooter", "fusion_lat": 0.0, "is_disabled": 0, "rental_uris": {"ios": "https://dc.lft.to/lastmile_qr_scan", "android": "https://dc.lft.to/lastmile_qr_scan"}, "bike_id": "4596b291c280ebbfaaf35fc82ec1d075", "lat": 38.90117933333333, "name": "4596b291c280ebbfaaf35fc82ec1d075", "lon": -77.01819016666667, "fusion_lon": 0.0}, {"is_reserved": 0, "type": "electric_bike", "fusion_lat": 0.0, "is_disabled": 0, "rental_uris": {"ios": "https://dc.lft.to/lastmile_qr_scan", "android": "https://dc.lft.to/lastmile_qr_scan"}, "bike_id": "824431f91999eb59ea473ed594e54f2d", "lat": 38.865565833333335, "name": "824431f91999eb59ea473ed594e54f2d", "lon": -76.9414995, "fusion_lon": 0.0}, {"is_reserved": 0, "type": "electric_bike", "fusion_lat": 0.0, "is_disabled": 0, "rental_uris": {"ios": "https://dc.lft.to/lastmile_qr_scan", "android": "https://dc.lft.to/lastmile_qr_scan"}, "bike_id": "0531625d443a2c2334ddaa516e0bc31d", "lat": 38.8518335, "name": "0531625d443a2c2334ddaa516e0bc31d", "lon": -76.99562833333333, "fusion_lon": 0.0}, {"is_reserved": 0, "type": "electric_bike", "fusion_lat": 0.0, "is_disabled": 0, "rental_uris": {"ios": "https://dc.lft.to/lastmile_qr_scan", "android": "https://dc.lft.to/lastmile_qr_scan"}, "bike_id": "462ef3bec391d7e6296a894a346c4af2", "lat": 38.81336966666667, "name": "462ef3bec391d7e6296a894a346c4af2", "lon": -77.05091116666667, "fusion_lon": 0.0}, {"is_reserved": 0, "type": "electric_scooter", "fusion_lat": 0.0, "is_disabled": 0, "rental_uris": {"ios": "https://dc.lft.to/lastmile_qr_scan", "android": "https://dc.lft.to/lastmile_qr_scan"}, "bike_id": "e6fd0e363e4c5afd53a90ba4be65e49c", "lat": 38.931849, "name": "e6fd0e363e4c5afd53a90ba4be65e49c", "lon": -77.0315095, "fusion_lon": 0.0}, {"is_reserved": 0, "type": "electric_scooter", "fusion_lat": 0.0, "is_disabled": 0, "rental_uris": {"ios": "https://dc.lft.to/lastmile_qr_scan", "android": "https://dc.lft.to/lastmile_qr_scan"}, "bike_id": "092251c815618edbf5a22f2e1bd51eaa", "lat": 38.904590166666665, "name": "092251c815618edbf5a22f2e1bd51eaa", "lon": -76.9337325, "fusion_lon": 0.0}, {"is_reserved": 0, "type": "electric_scooter", "fusion_lat": 0.0, "is_disabled": 0, "rental_uris": {"ios": "https://dc.lft.to/lastmile_qr_scan", "android": "https://dc.lft.to/lastmile_qr_scan"}, "bike_id": "0009f8d71243e1feaeff596789668bca", "lat": 38.897824, "name": "0009f8d71243e1feaeff596789668bca", "lon": -77.04780733333334, "fusion_lon": 0.0}, {"is_reserved": 0, "type": "electric_scooter", "fusion_lat": 0.0, "is_disabled": 0, "rental_uris": {"ios": "https://dc.lft.to/lastmile_qr_scan", "android": "https://dc.lft.to/lastmile_qr_scan"}, "bike_id": "91574054f7f035518aae78f87ba83266", "lat": 38.91707866666667, "name": "91574054f7f035518aae78f87ba83266", "lon": -77.024135, "fusion_lon": 0.0}, {"is_reserved": 0, "type": "electric_scooter", "fusion_lat": 0.0, "is_disabled": 0, "rental_uris": {"ios": "https://dc.lft.to/lastmile_qr_scan", "android": "https://dc.lft.to/lastmile_qr_scan"}, "bike_id": "c6369b1ce5fba719ed77e652ed0e4000", "lat": 38.91252566666667, "name": "c6369b1ce5fba719ed77e652ed0e4000", "lon": -76.98667166666667, "fusion_lon": 0.0}, {"is_reserved": 0, "type": "electric_bike", "fusion_lat": 0.0, "is_disabled": 0, "rental_uris": {"ios": "https://dc.lft.to/lastmile_qr_scan", "android": "https://dc.lft.to/lastmile_qr_scan"}, "bike_id": "e17d1a48e863cac7fc36a14e3b86c7f5", "lat": 38.877666, "name": "e17d1a48e863cac7fc36a14e3b86c7f5", "lon": -77.01049616666667, "fusion_lon": 0.0}, {"is_reserved": 0, "type": "electric_scooter", "fusion_lat": 0.0, "is_disabled": 0, "rental_uris": {"ios": "https://dc.lft.to/lastmile_qr_scan", "android": "https://dc.lft.to/lastmile_qr_scan"}, "bike_id": "1217ca113780270d8f5ee899c87c0d3c", "lat": 38.92027066666667, "name": "1217ca113780270d8f5ee899c87c0d3c", "lon": -77.07138083333334, "fusion_lon": 0.0}, {"is_reserved": 0, "type": "electric_scooter", "fusion_lat": 0.0, "is_disabled": 0, "rental_uris": {"ios": "https://dc.lft.to/lastmile_qr_scan", "android": "https://dc.lft.to/lastmile_qr_scan"}, "bike_id": "89c9c759502b8a0279b44283102cb231", "lat": 38.92075533333333, "name": "89c9c759502b8a0279b44283102cb231", "lon": -77.02513116666667, "fusion_lon": 0.0}, {"is_reserved": 0, "type": "electric_scooter", "fusion_lat": 0.0, "is_disabled": 0, "rental_uris": {"ios": "https://dc.lft.to/lastmile_qr_scan", "android": "https://dc.lft.to/lastmile_qr_scan"}, "bike_id": "4e59d712aad70e9d86b029b1c13e721d", "lat": 38.92115233333333, "name": "4e59d712aad70e9d86b029b1c13e721d", "lon": -77.04569833333333, "fusion_lon": 0.0}, {"is_reserved": 0, "type": "electric_scooter", "fusion_lat": 0.0, "is_disabled": 0, "rental_uris": {"ios": "https://dc.lft.to/lastmile_qr_scan", "android": "https://dc.lft.to/lastmile_qr_scan"}, "bike_id": "b2a25b2f15247eb20fc663588ad343a1", "lat": 38.8973865, "name": "b2a25b2f15247eb20fc663588ad343a1", "lon": -77.04154866666667, "fusion_lon": 0.0}, {"is_reserved": 0, "type": "electric_scooter", "fusion_lat": 0.0, "is_disabled": 0, "rental_uris": {"ios": "https://dc.lft.to/lastmile_qr_scan", "android": "https://dc.lft.to/lastmile_qr_scan"}, "bike_id": "9289bc4517e16a82c8f38705ac0e09bd", "lat": 38.878491, "name": "9289bc4517e16a82c8f38705ac0e09bd", "lon": -77.005743, "fusion_lon": 0.0}, {"is_reserved": 0, "type": "electric_scooter", "fusion_lat": 0.0, "is_disabled": 0, "rental_uris": {"ios": "https://dc.lft.to/lastmile_qr_scan", "android": "https://dc.lft.to/lastmile_qr_scan"}, "bike_id": "d4aeff3d68791dff5db8c9f6c5af5ea8", "lat": 38.923246, "name": "d4aeff3d68791dff5db8c9f6c5af5ea8", "lon": -77.02434066666666, "fusion_lon": 0.0}, {"is_reserved": 0, "type": "electric_scooter", "fusion_lat": 0.0, "is_disabled": 0, "rental_uris": {"ios": "https://dc.lft.to/lastmile_qr_scan", "android": "https://dc.lft.to/lastmile_qr_scan"}, "bike_id": "e490751da0127dfbd5d3e87e0946d4a6", "lat": 38.92060933333333, "name": "e490751da0127dfbd5d3e87e0946d4a6", "lon": -77.04396183333333, "fusion_lon": 0.0}, {"is_reserved": 0, "type": "electric_scooter", "fusion_lat": 0.0, "is_disabled": 0, "rental_uris": {"ios": "https://dc.lft.to/lastmile_qr_scan", "android": "https://dc.lft.to/lastmile_qr_scan"}, "bike_id": "439812d688a11ce8c924cb81973d04ac", "lat": 38.9301175, "name": "439812d688a11ce8c924cb81973d04ac", "lon": -77.02101866666666, "fusion_lon": 0.0}, {"is_reserved": 0, "type": "electric_scooter", "fusion_lat": 0.0, "is_disabled": 0, "rental_uris": {"ios": "https://dc.lft.to/lastmile_qr_scan", "android": "https://dc.lft.to/lastmile_qr_scan"}, "bike_id": "2dd4aa47df19b6ac62ada3a9ae5b5d51", "lat": 38.897352, "name": "2dd4aa47df19b6ac62ada3a9ae5b5d51", "lon": -77.047944, "fusion_lon": 0.0}, {"is_reserved": 0, "type": "electric_scooter", "fusion_lat": 0.0, "is_disabled": 0, "rental_uris": {"ios": "https://dc.lft.to/lastmile_qr_scan", "android": "https://dc.lft.to/lastmile_qr_scan"}, "bike_id": "d01c63cf2b8b7daadda45c528a6da450", "lat": 38.895218666666665, "name": "d01c63cf2b8b7daadda45c528a6da450", "lon": -77.02598383333333, "fusion_lon": 0.0}, {"is_reserved": 0, "type": "electric_scooter", "fusion_lat": 0.0, "is_disabled": 0, "rental_uris": {"ios": "https://dc.lft.to/lastmile_qr_scan", "android": "https://dc.lft.to/lastmile_qr_scan"}, "bike_id": "f30f089df12953c48e97b38ce6835616", "lat": 38.918028, "name": "f30f089df12953c48e97b38ce6835616", "lon": -77.04437383333334, "fusion_lon": 0.0}, {"is_reserved": 0, "type": "electric_scooter", "fusion_lat": 0.0, "is_disabled": 0, "rental_uris": {"ios": "https://dc.lft.to/lastmile_qr_scan", "android": "https://dc.lft.to/lastmile_qr_scan"}, "bike_id": "3c86229100e6e42fb6b48b026ca16938", "lat": 38.905979, "name": "3c86229100e6e42fb6b48b026ca16938", "lon": -77.01610983333333, "fusion_lon": 0.0}, {"is_reserved": 0, "type": "electric_bike", "fusion_lat": 0.0, "is_disabled": 0, "rental_uris": {"ios": "https://dc.lft.to/lastmile_qr_scan", "android": "https://dc.lft.to/lastmile_qr_scan"}, "bike_id": "c205de83f14fdfb36a7bea70136441db", "lat": 38.88764883333333, "name": "c205de83f14fdfb36a7bea70136441db", "lon": -77.1565305, "fusion_lon": 0.0}, {"is_reserved": 0, "type": "electric_bike", "fusion_lat": 0.0, "is_disabled": 0, "rental_uris": {"ios": "https://dc.lft.to/lastmile_qr_scan", "android": "https://dc.lft.to/lastmile_qr_scan"}, "bike_id": "c4c9fb3b97f7e90ef862ca044d5a595b", "lat": 38.8469305, "name": "c4c9fb3b97f7e90ef862ca044d5a595b", "lon": -76.98063116666667, "fusion_lon": 0.0}, {"is_reserved": 0, "type": "electric_scooter", "fusion_lat": 0.0, "is_disabled": 0, "rental_uris": {"ios": "https://dc.lft.to/lastmile_qr_scan", "android": "https://dc.lft.to/lastmile_qr_scan"}, "bike_id": "b52d99180d3bb01c2ee5202c6d9b275c", "lat": 38.92080466666667, "name": "b52d99180d3bb01c2ee5202c6d9b275c", "lon": -77.02512533333334, "fusion_lon": 0.0}, {"is_reserved": 0, "type": "electric_scooter", "fusion_lat": 0.0, "is_disabled": 0, "rental_uris": {"ios": "https://dc.lft.to/lastmile_qr_scan", "android": "https://dc.lft.to/lastmile_qr_scan"}, "bike_id": "324e883776c91e869fdf06ec365dbea7", "lat": 38.87614816666667, "name": "324e883776c91e869fdf06ec365dbea7", "lon": -77.00602333333333, "fusion_lon": 0.0}, {"is_reserved": 0, "type": "electric_scooter", "fusion_lat": 0.0, "is_disabled": 0, "rental_uris": {"ios": "https://dc.lft.to/lastmile_qr_scan", "android": "https://dc.lft.to/lastmile_qr_scan"}, "bike_id": "c032ccb70b95ff1664e2775ef530578a", "lat": 38.89555716666667, "name": "c032ccb70b95ff1664e2775ef530578a", "lon": -77.02702533333333, "fusion_lon": 0.0}, {"is_reserved": 0, "type": "electric_scooter", "fusion_lat": 0.0, "is_disabled": 0, "rental_uris": {"ios": "https://dc.lft.to/lastmile_qr_scan", "android": "https://dc.lft.to/lastmile_qr_scan"}, "bike_id": "01a0a9f94fb0f3e4e748772f1c301576", "lat": 38.912954666666664, "name": "01a0a9f94fb0f3e4e748772f1c301576", "lon": -76.986893, "fusion_lon": 0.0}, {"is_reserved": 0, "type": "electric_scooter", "fusion_lat": 0.0, "is_disabled": 0, "rental_uris": {"ios": "https://dc.lft.to/lastmile_qr_scan", "android": "https://dc.lft.to/lastmile_qr_scan"}, "bike_id": "012bb55e0cfa2dc3f5bbe83f226ac27e", "lat": 38.9098135, "name": "012bb55e0cfa2dc3f5bbe83f226ac27e", "lon": -77.064953, "fusion_lon": 0.0}, {"is_reserved": 0, "type": "electric_scooter", "fusion_lat": 0.0, "is_disabled": 0, "rental_uris": {"ios": "https://dc.lft.to/lastmile_qr_scan", "android": "https://dc.lft.to/lastmile_qr_scan"}, "bike_id": "99dc8e7a7332bb0fddfa8c4bfe47e4a5", "lat": 38.915524833333336, "name": "99dc8e7a7332bb0fddfa8c4bfe47e4a5", "lon": -77.03174016666667, "fusion_lon": 0.0}, {"is_reserved": 0, "type": "electric_bike", "fusion_lat": 0.0, "is_disabled": 0, "rental_uris": {"ios": "https://dc.lft.to/lastmile_qr_scan", "android": "https://dc.lft.to/lastmile_qr_scan"}, "bike_id": "4ad769a637bdc4a1b116a23607171b7a", "lat": 38.9043835, "name": "4ad769a637bdc4a1b116a23607171b7a", "lon": -76.97228583333333, "fusion_lon": 0.0}, {"is_reserved": 0, "type": "electric_bike", "fusion_lat": 0.0, "is_disabled": 0, "rental_uris": {"ios": "https://dc.lft.to/lastmile_qr_scan", "android": "https://dc.lft.to/lastmile_qr_scan"}, "bike_id": "2dce906a157b2f3bdea12b6522c17f6a", "lat": 38.833016, "name": "2dce906a157b2f3bdea12b6522c17f6a", "lon": -77.084079, "fusion_lon": 0.0}, {"is_reserved": 0, "type": "electric_scooter", "fusion_lat": 0.0, "is_disabled": 0, "rental_uris": {"ios": "https://dc.lft.to/lastmile_qr_scan", "android": "https://dc.lft.to/lastmile_qr_scan"}, "bike_id": "0b8b71eb54e3e7d03fbdfb2d70c57ba0", "lat": 38.91482516666667, "name": "0b8b71eb54e3e7d03fbdfb2d70c57ba0", "lon": -77.034291, "fusion_lon": 0.0}, {"is_reserved": 0, "type": "electric_scooter", "fusion_lat": 0.0, "is_disabled": 0, "rental_uris": {"ios": "https://dc.lft.to/lastmile_qr_scan", "android": "https://dc.lft.to/lastmile_qr_scan"}, "bike_id": "d558bbcbaac743b97ec5641a0e6eb1b4", "lat": 38.89470166666667, "name": "d558bbcbaac743b97ec5641a0e6eb1b4", "lon": -77.02177033333334, "fusion_lon": 0.0}, {"is_reserved": 0, "type": "electric_scooter", "fusion_lat": 0.0, "is_disabled": 0, "rental_uris": {"ios": "https://dc.lft.to/lastmile_qr_scan", "android": "https://dc.lft.to/lastmile_qr_scan"}, "bike_id": "507960ae5e24d102b6bf0eb0de7d6e22", "lat": 38.928773666666665, "name": "507960ae5e24d102b6bf0eb0de7d6e22", "lon": -77.0327725, "fusion_lon": 0.0}, {"is_reserved": 0, "type": "electric_scooter", "fusion_lat": 0.0, "is_disabled": 0, "rental_uris": {"ios": "https://dc.lft.to/lastmile_qr_scan", "android": "https://dc.lft.to/lastmile_qr_scan"}, "bike_id": "0253f22bdd7460444fbd135f313415f8", "lat": 38.91153716666667, "name": "0253f22bdd7460444fbd135f313415f8", "lon": -77.01526266666667, "fusion_lon": 0.0}, {"is_reserved": 0, "type": "electric_scooter", "fusion_lat": 0.0, "is_disabled": 0, "rental_uris": {"ios": "https://dc.lft.to/lastmile_qr_scan", "android": "https://dc.lft.to/lastmile_qr_scan"}, "bike_id": "31debb91f213f43647ede047dcbf0e43", "lat": 38.8919965, "name": "31debb91f213f43647ede047dcbf0e43", "lon": -77.015522, "fusion_lon": 0.0}, {"is_reserved": 0, "type": "electric_scooter", "fusion_lat": 0.0, "is_disabled": 0, "rental_uris": {"ios": "https://dc.lft.to/lastmile_qr_scan", "android": "https://dc.lft.to/lastmile_qr_scan"}, "bike_id": "eed5e0c24e267203a626a166fb4ac073", "lat": 38.90769216666666, "name": "eed5e0c24e267203a626a166fb4ac073", "lon": -77.06329966666667, "fusion_lon": 0.0}, {"is_reserved": 0, "type": "electric_scooter", "fusion_lat": 0.0, "is_disabled": 0, "rental_uris": {"ios": "https://dc.lft.to/lastmile_qr_scan", "android": "https://dc.lft.to/lastmile_qr_scan"}, "bike_id": "8a40f10a8d0bfbcf5ff2a1fdea266fd6", "lat": 38.8925035, "name": "8a40f10a8d0bfbcf5ff2a1fdea266fd6", "lon": -77.019511, "fusion_lon": 0.0}, {"is_reserved": 0, "type": "electric_scooter", "fusion_lat": 0.0, "is_disabled": 0, "rental_uris": {"ios": "https://dc.lft.to/lastmile_qr_scan", "android": "https://dc.lft.to/lastmile_qr_scan"}, "bike_id": "d0a4d3ca871ee8296dffab3cf8f78cb9", "lat": 38.94230983333333, "name": "d0a4d3ca871ee8296dffab3cf8f78cb9", "lon": -77.01439216666667, "fusion_lon": 0.0}, {"is_reserved": 0, "type": "electric_scooter", "fusion_lat": 0.0, "is_disabled": 0, "rental_uris": {"ios": "https://dc.lft.to/lastmile_qr_scan", "android": "https://dc.lft.to/lastmile_qr_scan"}, "bike_id": "158dc2c4d4e3a9a1b17285ffb20e0b1e", "lat": 38.898487333333335, "name": "158dc2c4d4e3a9a1b17285ffb20e0b1e", "lon": -76.92750216666667, "fusion_lon": 0.0}, {"is_reserved": 0, "type": "electric_scooter", "fusion_lat": 0.0, "is_disabled": 0, "rental_uris": {"ios": "https://dc.lft.to/lastmile_qr_scan", "android": "https://dc.lft.to/lastmile_qr_scan"}, "bike_id": "41f3822f0244d6b5c9034d9de5345b1f", "lat": 38.93275633333333, "name": "41f3822f0244d6b5c9034d9de5345b1f", "lon": -77.02860016666666, "fusion_lon": 0.0}, {"is_reserved": 0, "type": "electric_scooter", "fusion_lat": 0.0, "is_disabled": 0, "rental_uris": {"ios": "https://dc.lft.to/lastmile_qr_scan", "android": "https://dc.lft.to/lastmile_qr_scan"}, "bike_id": "702cc0b8bc1ca87e51d0fef04db918b5", "lat": 38.920501, "name": "702cc0b8bc1ca87e51d0fef04db918b5", "lon": -77.040405, "fusion_lon": 0.0}, {"is_reserved": 0, "type": "electric_scooter", "fusion_lat": 0.0, "is_disabled": 0, "rental_uris": {"ios": "https://dc.lft.to/lastmile_qr_scan", "android": "https://dc.lft.to/lastmile_qr_scan"}, "bike_id": "ccb9685c96c5e0d4b595aa674e7cb6d4", "lat": 38.93663216666667, "name": "ccb9685c96c5e0d4b595aa674e7cb6d4", "lon": -77.06608533333333, "fusion_lon": 0.0}, {"is_reserved": 0, "type": "electric_scooter", "fusion_lat": 0.0, "is_disabled": 0, "rental_uris": {"ios": "https://dc.lft.to/lastmile_qr_scan", "android": "https://dc.lft.to/lastmile_qr_scan"}, "bike_id": "c9cd7c2ec166082b48447eb4b16e55d6", "lat": 38.9006805, "name": "c9cd7c2ec166082b48447eb4b16e55d6", "lon": -77.02948516666666, "fusion_lon": 0.0}, {"is_reserved": 0, "type": "electric_scooter", "fusion_lat": 0.0, "is_disabled": 0, "rental_uris": {"ios": "https://dc.lft.to/lastmile_qr_scan", "android": "https://dc.lft.to/lastmile_qr_scan"}, "bike_id": "0e0255dbe213e6d0261e607d08008ace", "lat": 38.92552766666667, "name": "0e0255dbe213e6d0261e607d08008ace", "lon": -77.00322866666667, "fusion_lon": 0.0}, {"is_reserved": 0, "type": "electric_scooter", "fusion_lat": 0.0, "is_disabled": 0, "rental_uris": {"ios": "https://dc.lft.to/lastmile_qr_scan", "android": "https://dc.lft.to/lastmile_qr_scan"}, "bike_id": "448f08f404745c42d15f2d4e082a5892", "lat": 38.899770833333335, "name": "448f08f404745c42d15f2d4e082a5892", "lon": -77.019316, "fusion_lon": 0.0}, {"is_reserved": 0, "type": "electric_scooter", "fusion_lat": 0.0, "is_disabled": 0, "rental_uris": {"ios": "https://dc.lft.to/lastmile_qr_scan", "android": "https://dc.lft.to/lastmile_qr_scan"}, "bike_id": "571ebd6a4638e3457142063b7f10a407", "lat": 38.904634333333334, "name": "571ebd6a4638e3457142063b7f10a407", "lon": -77.01720516666667, "fusion_lon": 0.0}, {"is_reserved": 0, "type": "electric_scooter", "fusion_lat": 0.0, "is_disabled": 0, "rental_uris": {"ios": "https://dc.lft.to/lastmile_qr_scan", "android": "https://dc.lft.to/lastmile_qr_scan"}, "bike_id": "436c9afbf09ec09a5bb852aea4b3af50", "lat": 38.930107166666666, "name": "436c9afbf09ec09a5bb852aea4b3af50", "lon": -77.03778316666667, "fusion_lon": 0.0}, {"is_reserved": 0, "type": "electric_scooter", "fusion_lat": 0.0, "is_disabled": 0, "rental_uris": {"ios": "https://dc.lft.to/lastmile_qr_scan", "android": "https://dc.lft.to/lastmile_qr_scan"}, "bike_id": "0595e51209fb3aecbf8ffb3c26c25b91", "lat": 38.887125833333336, "name": "0595e51209fb3aecbf8ffb3c26c25b91", "lon": -76.983827, "fusion_lon": 0.0}, {"is_reserved": 0, "type": "electric_scooter", "fusion_lat": 0.0, "is_disabled": 0, "rental_uris": {"ios": "https://dc.lft.to/lastmile_qr_scan", "android": "https://dc.lft.to/lastmile_qr_scan"}, "bike_id": "b22dd3d978f7a80cd185b95b9c85bdb4", "lat": 38.915906166666666, "name": "b22dd3d978f7a80cd185b95b9c85bdb4", "lon": -76.98412733333333, "fusion_lon": 0.0}, {"is_reserved": 0, "type": "electric_scooter", "fusion_lat": 0.0, "is_disabled": 0, "rental_uris": {"ios": "https://dc.lft.to/lastmile_qr_scan", "android": "https://dc.lft.to/lastmile_qr_scan"}, "bike_id": "3559423a638b5ea572c7e45e63cf6aa7", "lat": 38.912598333333335, "name": "3559423a638b5ea572c7e45e63cf6aa7", "lon": -76.9835525, "fusion_lon": 0.0}, {"is_reserved": 0, "type": "electric_scooter", "fusion_lat": 0.0, "is_disabled": 0, "rental_uris": {"ios": "https://dc.lft.to/lastmile_qr_scan", "android": "https://dc.lft.to/lastmile_qr_scan"}, "bike_id": "24febf6d48ed56abb9d9190db269a937", "lat": 38.9234165, "name": "24febf6d48ed56abb9d9190db269a937", "lon": -77.04303416666667, "fusion_lon": 0.0}, {"is_reserved": 0, "type": "electric_scooter", "fusion_lat": 0.0, "is_disabled": 0, "rental_uris": {"ios": "https://dc.lft.to/lastmile_qr_scan", "android": "https://dc.lft.to/lastmile_qr_scan"}, "bike_id": "341d5e77566e7719aad23d1fcdf6a714", "lat": 38.8761815, "name": "341d5e77566e7719aad23d1fcdf6a714", "lon": -77.0060165, "fusion_lon": 0.0}, {"is_reserved": 0, "type": "electric_scooter", "fusion_lat": 0.0, "is_disabled": 0, "rental_uris": {"ios": "https://dc.lft.to/lastmile_qr_scan", "android": "https://dc.lft.to/lastmile_qr_scan"}, "bike_id": "2e9c0254968ea0f2dad592eedb03b11d", "lat": 38.917092833333335, "name": "2e9c0254968ea0f2dad592eedb03b11d", "lon": -77.03575333333333, "fusion_lon": 0.0}, {"is_reserved": 0, "type": "electric_scooter", "fusion_lat": 0.0, "is_disabled": 0, "rental_uris": {"ios": "https://dc.lft.to/lastmile_qr_scan", "android": "https://dc.lft.to/lastmile_qr_scan"}, "bike_id": "1348a936ce058a1ea09ca154de16c483", "lat": 38.929975666666664, "name": "1348a936ce058a1ea09ca154de16c483", "lon": -77.02347366666666, "fusion_lon": 0.0}, {"is_reserved": 0, "type": "electric_scooter", "fusion_lat": 0.0, "is_disabled": 0, "rental_uris": {"ios": "https://dc.lft.to/lastmile_qr_scan", "android": "https://dc.lft.to/lastmile_qr_scan"}, "bike_id": "a662f8f17c9766f393b9704772b42b7a", "lat": 38.92106883333334, "name": "a662f8f17c9766f393b9704772b42b7a", "lon": -77.0411945, "fusion_lon": 0.0}, {"is_reserved": 0, "type": "electric_bike", "fusion_lat": 0.0, "is_disabled": 0, "rental_uris": {"ios": "https://dc.lft.to/lastmile_qr_scan", "android": "https://dc.lft.to/lastmile_qr_scan"}, "bike_id": "07e67524685e09b516e8c411df13ad53", "lat": 38.846798666666665, "name": "07e67524685e09b516e8c411df13ad53", "lon": -77.1393485, "fusion_lon": 0.0}, {"is_reserved": 0, "type": "electric_scooter", "fusion_lat": 0.0, "is_disabled": 0, "rental_uris": {"ios": "https://dc.lft.to/lastmile_qr_scan", "android": "https://dc.lft.to/lastmile_qr_scan"}, "bike_id": "2f9ae3f8383fa4be4b89f003d88474be", "lat": 38.91934116666667, "name": "2f9ae3f8383fa4be4b89f003d88474be", "lon": -77.0448085, "fusion_lon": 0.0}, {"is_reserved": 0, "type": "electric_scooter", "fusion_lat": 0.0, "is_disabled": 0, "rental_uris": {"ios": "https://dc.lft.to/lastmile_qr_scan", "android": "https://dc.lft.to/lastmile_qr_scan"}, "bike_id": "511dc7ff00c0048fc809c5a500cee653", "lat": 38.93958083333333, "name": "511dc7ff00c0048fc809c5a500cee653", "lon": -77.0723675, "fusion_lon": 0.0}, {"is_reserved": 0, "type": "electric_scooter", "fusion_lat": 0.0, "is_disabled": 0, "rental_uris": {"ios": "https://dc.lft.to/lastmile_qr_scan", "android": "https://dc.lft.to/lastmile_qr_scan"}, "bike_id": "1cec8aa58280cf4e550f9ff1038e6335", "lat": 38.9149075, "name": "1cec8aa58280cf4e550f9ff1038e6335", "lon": -77.0494705, "fusion_lon": 0.0}, {"is_reserved": 0, "type": "electric_scooter", "fusion_lat": 0.0, "is_disabled": 0, "rental_uris": {"ios": "https://dc.lft.to/lastmile_qr_scan", "android": "https://dc.lft.to/lastmile_qr_scan"}, "bike_id": "d1dcb2ffb461e111a1a380ea02543d3f", "lat": 38.90626483333333, "name": "d1dcb2ffb461e111a1a380ea02543d3f", "lon": -77.04887916666667, "fusion_lon": 0.0}, {"is_reserved": 0, "type": "electric_scooter", "fusion_lat": 0.0, "is_disabled": 0, "rental_uris": {"ios": "https://dc.lft.to/lastmile_qr_scan", "android": "https://dc.lft.to/lastmile_qr_scan"}, "bike_id": "655e116931af0097cafbb9f6ddca2583", "lat": 38.8953615, "name": "655e116931af0097cafbb9f6ddca2583", "lon": -76.94891633333333, "fusion_lon": 0.0}, {"is_reserved": 0, "type": "electric_scooter", "fusion_lat": 0.0, "is_disabled": 0, "rental_uris": {"ios": "https://dc.lft.to/lastmile_qr_scan", "android": "https://dc.lft.to/lastmile_qr_scan"}, "bike_id": "f06d8a6e6299c9485bdf0ad2d8c4bc02", "lat": 38.899658, "name": "f06d8a6e6299c9485bdf0ad2d8c4bc02", "lon": -77.025832, "fusion_lon": 0.0}, {"is_reserved": 0, "type": "electric_scooter", "fusion_lat": 0.0, "is_disabled": 0, "rental_uris": {"ios": "https://dc.lft.to/lastmile_qr_scan", "android": "https://dc.lft.to/lastmile_qr_scan"}, "bike_id": "4bf5bbce3e9cb7a17e6c99baf7994377", "lat": 38.91828133333333, "name": "4bf5bbce3e9cb7a17e6c99baf7994377", "lon": -77.03206933333334, "fusion_lon": 0.0}, {"is_reserved": 0, "type": "electric_scooter", "fusion_lat": 0.0, "is_disabled": 0, "rental_uris": {"ios": "https://dc.lft.to/lastmile_qr_scan", "android": "https://dc.lft.to/lastmile_qr_scan"}, "bike_id": "3e59dc36752232bd7b79f9c5ae92a125", "lat": 38.89175683333333, "name": "3e59dc36752232bd7b79f9c5ae92a125", "lon": -77.01548583333333, "fusion_lon": 0.0}, {"is_reserved": 0, "type": "electric_bike", "fusion_lat": 0.0, "is_disabled": 0, "rental_uris": {"ios": "https://dc.lft.to/lastmile_qr_scan", "android": "https://dc.lft.to/lastmile_qr_scan"}, "bike_id": "80a7d7277b7222fe288afc75ae161fc7", "lat": 38.950175333333334, "name": "80a7d7277b7222fe288afc75ae161fc7", "lon": -77.01426833333333, "fusion_lon": 0.0}, {"is_reserved": 0, "type": "electric_scooter", "fusion_lat": 0.0, "is_disabled": 0, "rental_uris": {"ios": "https://dc.lft.to/lastmile_qr_scan", "android": "https://dc.lft.to/lastmile_qr_scan"}, "bike_id": "20aee3ce5df3343142f587b294a1223c", "lat": 38.9198055, "name": "20aee3ce5df3343142f587b294a1223c", "lon": -77.04168516666667, "fusion_lon": 0.0}, {"is_reserved": 0, "type": "electric_scooter", "fusion_lat": 0.0, "is_disabled": 0, "rental_uris": {"ios": "https://dc.lft.to/lastmile_qr_scan", "android": "https://dc.lft.to/lastmile_qr_scan"}, "bike_id": "9466c43de49ecde19e57456eee0ba310", "lat": 38.9029975, "name": "9466c43de49ecde19e57456eee0ba310", "lon": -77.0487915, "fusion_lon": 0.0}, {"is_reserved": 0, "type": "electric_scooter", "fusion_lat": 0.0, "is_disabled": 0, "rental_uris": {"ios": "https://dc.lft.to/lastmile_qr_scan", "android": "https://dc.lft.to/lastmile_qr_scan"}, "bike_id": "6c2c2e76ba0389e2e9e1f46ec7db17b7", "lat": 38.92460766666667, "name": "6c2c2e76ba0389e2e9e1f46ec7db17b7", "lon": -77.05230333333333, "fusion_lon": 0.0}, {"is_reserved": 0, "type": "electric_scooter", "fusion_lat": 0.0, "is_disabled": 0, "rental_uris": {"ios": "https://dc.lft.to/lastmile_qr_scan", "android": "https://dc.lft.to/lastmile_qr_scan"}, "bike_id": "f687188f494c2a33a5c941525191a54d", "lat": 38.903267, "name": "f687188f494c2a33a5c941525191a54d", "lon": -77.02836866666667, "fusion_lon": 0.0}, {"is_reserved": 0, "type": "electric_scooter", "fusion_lat": 0.0, "is_disabled": 0, "rental_uris": {"ios": "https://dc.lft.to/lastmile_qr_scan", "android": "https://dc.lft.to/lastmile_qr_scan"}, "bike_id": "41e6db1ac82c31b2334d9dd63976bbe6", "lat": 38.8932935, "name": "41e6db1ac82c31b2334d9dd63976bbe6", "lon": -77.0260295, "fusion_lon": 0.0}, {"is_reserved": 0, "type": "electric_scooter", "fusion_lat": 0.0, "is_disabled": 0, "rental_uris": {"ios": "https://dc.lft.to/lastmile_qr_scan", "android": "https://dc.lft.to/lastmile_qr_scan"}, "bike_id": "8624465c6e7f007d962b2ecb6b7fb441", "lat": 38.92332833333333, "name": "8624465c6e7f007d962b2ecb6b7fb441", "lon": -77.04299483333334, "fusion_lon": 0.0}, {"is_reserved": 0, "type": "electric_scooter", "fusion_lat": 0.0, "is_disabled": 0, "rental_uris": {"ios": "https://dc.lft.to/lastmile_qr_scan", "android": "https://dc.lft.to/lastmile_qr_scan"}, "bike_id": "1dc34e540516bfe12050aa820411bd90", "lat": 38.917407, "name": "1dc34e540516bfe12050aa820411bd90", "lon": -77.02118966666667, "fusion_lon": 0.0}, {"is_reserved": 0, "type": "electric_scooter", "fusion_lat": 0.0, "is_disabled": 0, "rental_uris": {"ios": "https://dc.lft.to/lastmile_qr_scan", "android": "https://dc.lft.to/lastmile_qr_scan"}, "bike_id": "4a30b8acfaebedd71b82468a1b108a24", "lat": 38.90489, "name": "4a30b8acfaebedd71b82468a1b108a24", "lon": -76.94959216666666, "fusion_lon": 0.0}, {"is_reserved": 0, "type": "electric_scooter", "fusion_lat": 0.0, "is_disabled": 0, "rental_uris": {"ios": "https://dc.lft.to/lastmile_qr_scan", "android": "https://dc.lft.to/lastmile_qr_scan"}, "bike_id": "c4a507d1cd73255108f8da202dc1c72d", "lat": 38.968030166666665, "name": "c4a507d1cd73255108f8da202dc1c72d", "lon": -77.025648, "fusion_lon": 0.0}, {"is_reserved": 0, "type": "electric_bike", "fusion_lat": 0.0, "is_disabled": 0, "rental_uris": {"ios": "https://dc.lft.to/lastmile_qr_scan", "android": "https://dc.lft.to/lastmile_qr_scan"}, "bike_id": "62f8920555eb0e47ccbb4a470856ad16", "lat": 38.88505, "name": "62f8920555eb0e47ccbb4a470856ad16", "lon": -77.0005925, "fusion_lon": 0.0}, {"is_reserved": 0, "type": "electric_scooter", "fusion_lat": 0.0, "is_disabled": 0, "rental_uris": {"ios": "https://dc.lft.to/lastmile_qr_scan", "android": "https://dc.lft.to/lastmile_qr_scan"}, "bike_id": "686c5441a7a9edbd998256088a2d9bd4", "lat": 38.9017045, "name": "686c5441a7a9edbd998256088a2d9bd4", "lon": -76.98064833333333, "fusion_lon": 0.0}, {"is_reserved": 0, "type": "electric_scooter", "fusion_lat": 0.0, "is_disabled": 0, "rental_uris": {"ios": "https://dc.lft.to/lastmile_qr_scan", "android": "https://dc.lft.to/lastmile_qr_scan"}, "bike_id": "d3568b31e47663f7820f2b28199615b3", "lat": 38.909625, "name": "d3568b31e47663f7820f2b28199615b3", "lon": -77.01386366666667, "fusion_lon": 0.0}, {"is_reserved": 0, "type": "electric_scooter", "fusion_lat": 0.0, "is_disabled": 0, "rental_uris": {"ios": "https://dc.lft.to/lastmile_qr_scan", "android": "https://dc.lft.to/lastmile_qr_scan"}, "bike_id": "b81e08dfaa4c819baccb8e8496d4c852", "lat": 38.89907783333334, "name": "b81e08dfaa4c819baccb8e8496d4c852", "lon": -77.04017416666667, "fusion_lon": 0.0}, {"is_reserved": 0, "type": "electric_scooter", "fusion_lat": 0.0, "is_disabled": 0, "rental_uris": {"ios": "https://dc.lft.to/lastmile_qr_scan", "android": "https://dc.lft.to/lastmile_qr_scan"}, "bike_id": "655e71ca5f14c6bc065fa962dbcf5673", "lat": 38.933496833333336, "name": "655e71ca5f14c6bc065fa962dbcf5673", "lon": -76.99436866666667, "fusion_lon": 0.0}, {"is_reserved": 0, "type": "electric_scooter", "fusion_lat": 0.0, "is_disabled": 0, "rental_uris": {"ios": "https://dc.lft.to/lastmile_qr_scan", "android": "https://dc.lft.to/lastmile_qr_scan"}, "bike_id": "8524df82305ebcf282e1c583756889fe", "lat": 38.899232166666664, "name": "8524df82305ebcf282e1c583756889fe", "lon": -77.0035955, "fusion_lon": 0.0}, {"is_reserved": 0, "type": "electric_scooter", "fusion_lat": 0.0, "is_disabled": 0, "rental_uris": {"ios": "https://dc.lft.to/lastmile_qr_scan", "android": "https://dc.lft.to/lastmile_qr_scan"}, "bike_id": "c95c323bd6616a0128a59a44a2aa42b2", "lat": 38.90255666666667, "name": "c95c323bd6616a0128a59a44a2aa42b2", "lon": -77.01681933333333, "fusion_lon": 0.0}, {"is_reserved": 0, "type": "electric_scooter", "fusion_lat": 0.0, "is_disabled": 0, "rental_uris": {"ios": "https://dc.lft.to/lastmile_qr_scan", "android": "https://dc.lft.to/lastmile_qr_scan"}, "bike_id": "37603a384aafddf7866bdac3923cf0b8", "lat": 38.899259, "name": "37603a384aafddf7866bdac3923cf0b8", "lon": -77.0321545, "fusion_lon": 0.0}, {"is_reserved": 0, "type": "electric_scooter", "fusion_lat": 0.0, "is_disabled": 0, "rental_uris": {"ios": "https://dc.lft.to/lastmile_qr_scan", "android": "https://dc.lft.to/lastmile_qr_scan"}, "bike_id": "099b9165b279dc3bb9c19218c3449c8a", "lat": 38.91738816666667, "name": "099b9165b279dc3bb9c19218c3449c8a", "lon": -77.0360895, "fusion_lon": 0.0}, {"is_reserved": 0, "type": "electric_scooter", "fusion_lat": 0.0, "is_disabled": 0, "rental_uris": {"ios": "https://dc.lft.to/lastmile_qr_scan", "android": "https://dc.lft.to/lastmile_qr_scan"}, "bike_id": "a752260716322f84ed2cddb4b485ac21", "lat": 38.88270816666667, "name": "a752260716322f84ed2cddb4b485ac21", "lon": -76.9952045, "fusion_lon": 0.0}, {"is_reserved": 0, "type": "electric_scooter", "fusion_lat": 0.0, "is_disabled": 0, "rental_uris": {"ios": "https://dc.lft.to/lastmile_qr_scan", "android": "https://dc.lft.to/lastmile_qr_scan"}, "bike_id": "a63a516657de1e022054a1b2adbe39f4", "lat": 38.892443, "name": "a63a516657de1e022054a1b2adbe39f4", "lon": -77.01816166666667, "fusion_lon": 0.0}, {"is_reserved": 0, "type": "electric_scooter", "fusion_lat": 0.0, "is_disabled": 0, "rental_uris": {"ios": "https://dc.lft.to/lastmile_qr_scan", "android": "https://dc.lft.to/lastmile_qr_scan"}, "bike_id": "0c68acd6f9cd08b530c82ccd23637771", "lat": 38.920776833333335, "name": "0c68acd6f9cd08b530c82ccd23637771", "lon": -77.025144, "fusion_lon": 0.0}, {"is_reserved": 0, "type": "electric_scooter", "fusion_lat": 0.0, "is_disabled": 0, "rental_uris": {"ios": "https://dc.lft.to/lastmile_qr_scan", "android": "https://dc.lft.to/lastmile_qr_scan"}, "bike_id": "9e54287f30a3b4a6e889a1b20fc60b69", "lat": 38.90337366666667, "name": "9e54287f30a3b4a6e889a1b20fc60b69", "lon": -76.9759175, "fusion_lon": 0.0}, {"is_reserved": 0, "type": "electric_scooter", "fusion_lat": 0.0, "is_disabled": 0, "rental_uris": {"ios": "https://dc.lft.to/lastmile_qr_scan", "android": "https://dc.lft.to/lastmile_qr_scan"}, "bike_id": "253b1345eba39868b8b4286da2c72043", "lat": 38.913796166666664, "name": "253b1345eba39868b8b4286da2c72043", "lon": -77.04473433333334, "fusion_lon": 0.0}, {"is_reserved": 0, "type": "electric_scooter", "fusion_lat": 0.0, "is_disabled": 0, "rental_uris": {"ios": "https://dc.lft.to/lastmile_qr_scan", "android": "https://dc.lft.to/lastmile_qr_scan"}, "bike_id": "e8fe5fd33b041ea838405ada96b3963d", "lat": 38.92248883333333, "name": "e8fe5fd33b041ea838405ada96b3963d", "lon": -77.01849666666666, "fusion_lon": 0.0}, {"is_reserved": 0, "type": "electric_scooter", "fusion_lat": 0.0, "is_disabled": 0, "rental_uris": {"ios": "https://dc.lft.to/lastmile_qr_scan", "android": "https://dc.lft.to/lastmile_qr_scan"}, "bike_id": "c1ab6e42290b60fca7c697c60dbde3da", "lat": 38.94702316666667, "name": "c1ab6e42290b60fca7c697c60dbde3da", "lon": -77.03284666666667, "fusion_lon": 0.0}, {"is_reserved": 0, "type": "electric_scooter", "fusion_lat": 0.0, "is_disabled": 0, "rental_uris": {"ios": "https://dc.lft.to/lastmile_qr_scan", "android": "https://dc.lft.to/lastmile_qr_scan"}, "bike_id": "5b4dc9954c9fa9d3f5f580854ce9edf4", "lat": 38.897332, "name": "5b4dc9954c9fa9d3f5f580854ce9edf4", "lon": -77.0269585, "fusion_lon": 0.0}, {"is_reserved": 0, "type": "electric_scooter", "fusion_lat": 0.0, "is_disabled": 0, "rental_uris": {"ios": "https://dc.lft.to/lastmile_qr_scan", "android": "https://dc.lft.to/lastmile_qr_scan"}, "bike_id": "ab58fc9e6d1f1d25002e8576874c538a", "lat": 38.88713333333333, "name": "ab58fc9e6d1f1d25002e8576874c538a", "lon": -76.98383166666666, "fusion_lon": 0.0}, {"is_reserved": 0, "type": "electric_scooter", "fusion_lat": 0.0, "is_disabled": 0, "rental_uris": {"ios": "https://dc.lft.to/lastmile_qr_scan", "android": "https://dc.lft.to/lastmile_qr_scan"}, "bike_id": "80466b44b89ea6894ca6c38a66b22893", "lat": 38.89300583333333, "name": "80466b44b89ea6894ca6c38a66b22893", "lon": -77.0123685, "fusion_lon": 0.0}, {"is_reserved": 0, "type": "electric_scooter", "fusion_lat": 0.0, "is_disabled": 0, "rental_uris": {"ios": "https://dc.lft.to/lastmile_qr_scan", "android": "https://dc.lft.to/lastmile_qr_scan"}, "bike_id": "baeb59b6309568815b991f2dacc252b2", "lat": 38.9573865, "name": "baeb59b6309568815b991f2dacc252b2", "lon": -77.02419033333334, "fusion_lon": 0.0}, {"is_reserved": 0, "type": "electric_scooter", "fusion_lat": 0.0, "is_disabled": 0, "rental_uris": {"ios": "https://dc.lft.to/lastmile_qr_scan", "android": "https://dc.lft.to/lastmile_qr_scan"}, "bike_id": "b5efda5024f65bc9ba722564450576e7", "lat": 38.94089116666667, "name": "b5efda5024f65bc9ba722564450576e7", "lon": -77.02304383333333, "fusion_lon": 0.0}, {"is_reserved": 0, "type": "electric_scooter", "fusion_lat": 0.0, "is_disabled": 0, "rental_uris": {"ios": "https://dc.lft.to/lastmile_qr_scan", "android": "https://dc.lft.to/lastmile_qr_scan"}, "bike_id": "42fd9864880120e0b4262c4ff941c35a", "lat": 38.920393, "name": "42fd9864880120e0b4262c4ff941c35a", "lon": -77.02595, "fusion_lon": 0.0}, {"is_reserved": 0, "type": "electric_scooter", "fusion_lat": 0.0, "is_disabled": 0, "rental_uris": {"ios": "https://dc.lft.to/lastmile_qr_scan", "android": "https://dc.lft.to/lastmile_qr_scan"}, "bike_id": "beae91425037821bcaf0a590620cc049", "lat": 38.902564, "name": "beae91425037821bcaf0a590620cc049", "lon": -77.02764583333334, "fusion_lon": 0.0}, {"is_reserved": 0, "type": "electric_scooter", "fusion_lat": 0.0, "is_disabled": 0, "rental_uris": {"ios": "https://dc.lft.to/lastmile_qr_scan", "android": "https://dc.lft.to/lastmile_qr_scan"}, "bike_id": "1b9eb76f8c6e268da5b8298bad928272", "lat": 38.920453333333334, "name": "1b9eb76f8c6e268da5b8298bad928272", "lon": -77.03393566666666, "fusion_lon": 0.0}, {"is_reserved": 0, "type": "electric_scooter", "fusion_lat": 0.0, "is_disabled": 0, "rental_uris": {"ios": "https://dc.lft.to/lastmile_qr_scan", "android": "https://dc.lft.to/lastmile_qr_scan"}, "bike_id": "bb730b365a7c232b95196e943aee5f4b", "lat": 38.952825833333335, "name": "bb730b365a7c232b95196e943aee5f4b", "lon": -76.998773, "fusion_lon": 0.0}, {"is_reserved": 0, "type": "electric_scooter", "fusion_lat": 0.0, "is_disabled": 0, "rental_uris": {"ios": "https://dc.lft.to/lastmile_qr_scan", "android": "https://dc.lft.to/lastmile_qr_scan"}, "bike_id": "f49269d9cd60ce8bb3fd5b710f4f5e96", "lat": 38.917167666666664, "name": "f49269d9cd60ce8bb3fd5b710f4f5e96", "lon": -77.00885166666667, "fusion_lon": 0.0}, {"is_reserved": 0, "type": "electric_scooter", "fusion_lat": 0.0, "is_disabled": 0, "rental_uris": {"ios": "https://dc.lft.to/lastmile_qr_scan", "android": "https://dc.lft.to/lastmile_qr_scan"}, "bike_id": "48fef7cf2ee5bd656e71c71f3387b7cf", "lat": 38.90230366666667, "name": "48fef7cf2ee5bd656e71c71f3387b7cf", "lon": -77.01369983333333, "fusion_lon": 0.0}, {"is_reserved": 0, "type": "electric_scooter", "fusion_lat": 0.0, "is_disabled": 0, "rental_uris": {"ios": "https://dc.lft.to/lastmile_qr_scan", "android": "https://dc.lft.to/lastmile_qr_scan"}, "bike_id": "e5a13261b8456744c49c1a1c77cac55b", "lat": 38.89993833333333, "name": "e5a13261b8456744c49c1a1c77cac55b", "lon": -77.02165266666667, "fusion_lon": 0.0}, {"is_reserved": 0, "type": "electric_scooter", "fusion_lat": 0.0, "is_disabled": 0, "rental_uris": {"ios": "https://dc.lft.to/lastmile_qr_scan", "android": "https://dc.lft.to/lastmile_qr_scan"}, "bike_id": "44b9f239ad4d9ce005b16ff7e8c469e3", "lat": 38.917728833333335, "name": "44b9f239ad4d9ce005b16ff7e8c469e3", "lon": -77.02111633333334, "fusion_lon": 0.0}, {"is_reserved": 0, "type": "electric_scooter", "fusion_lat": 0.0, "is_disabled": 0, "rental_uris": {"ios": "https://dc.lft.to/lastmile_qr_scan", "android": "https://dc.lft.to/lastmile_qr_scan"}, "bike_id": "1357e412d85c0f86c4d3ab53ddce076e", "lat": 38.92105466666667, "name": "1357e412d85c0f86c4d3ab53ddce076e", "lon": -76.99406866666666, "fusion_lon": 0.0}, {"is_reserved": 0, "type": "electric_bike", "fusion_lat": 0.0, "is_disabled": 0, "rental_uris": {"ios": "https://dc.lft.to/lastmile_qr_scan", "android": "https://dc.lft.to/lastmile_qr_scan"}, "bike_id": "38a3c810d428d01d0a714fec902e9e39", "lat": 38.90531283333333, "name": "38a3c810d428d01d0a714fec902e9e39", "lon": -77.05031566666666, "fusion_lon": 0.0}, {"is_reserved": 0, "type": "electric_scooter", "fusion_lat": 0.0, "is_disabled": 0, "rental_uris": {"ios": "https://dc.lft.to/lastmile_qr_scan", "android": "https://dc.lft.to/lastmile_qr_scan"}, "bike_id": "58daf1a7c23cf8c4a2d766e40f603b83", "lat": 38.91697683333334, "name": "58daf1a7c23cf8c4a2d766e40f603b83", "lon": -77.02719083333334, "fusion_lon": 0.0}, {"is_reserved": 0, "type": "electric_scooter", "fusion_lat": 0.0, "is_disabled": 0, "rental_uris": {"ios": "https://dc.lft.to/lastmile_qr_scan", "android": "https://dc.lft.to/lastmile_qr_scan"}, "bike_id": "203888642400277ac791769c9be2c211", "lat": 38.923349333333334, "name": "203888642400277ac791769c9be2c211", "lon": -77.03609983333334, "fusion_lon": 0.0}, {"is_reserved": 0, "type": "electric_scooter", "fusion_lat": 0.0, "is_disabled": 0, "rental_uris": {"ios": "https://dc.lft.to/lastmile_qr_scan", "android": "https://dc.lft.to/lastmile_qr_scan"}, "bike_id": "165c9b099574966a11f7ef772f290fca", "lat": 38.906056666666665, "name": "165c9b099574966a11f7ef772f290fca", "lon": -77.05656116666667, "fusion_lon": 0.0}, {"is_reserved": 0, "type": "electric_scooter", "fusion_lat": 0.0, "is_disabled": 0, "rental_uris": {"ios": "https://dc.lft.to/lastmile_qr_scan", "android": "https://dc.lft.to/lastmile_qr_scan"}, "bike_id": "6e0433e4d923ba2e484614ca051a8239", "lat": 38.8996865, "name": "6e0433e4d923ba2e484614ca051a8239", "lon": -77.04718983333333, "fusion_lon": 0.0}, {"is_reserved": 0, "type": "electric_scooter", "fusion_lat": 0.0, "is_disabled": 0, "rental_uris": {"ios": "https://dc.lft.to/lastmile_qr_scan", "android": "https://dc.lft.to/lastmile_qr_scan"}, "bike_id": "ed3e493b08b1c259748e27dd14b9f261", "lat": 38.920471166666665, "name": "ed3e493b08b1c259748e27dd14b9f261", "lon": -77.016774, "fusion_lon": 0.0}, {"is_reserved": 0, "type": "electric_scooter", "fusion_lat": 0.0, "is_disabled": 0, "rental_uris": {"ios": "https://dc.lft.to/lastmile_qr_scan", "android": "https://dc.lft.to/lastmile_qr_scan"}, "bike_id": "117b61bf7004ea506d636b7ca1c6d60a", "lat": 38.871774333333335, "name": "117b61bf7004ea506d636b7ca1c6d60a", "lon": -77.00626733333333, "fusion_lon": 0.0}, {"is_reserved": 0, "type": "electric_scooter", "fusion_lat": 0.0, "is_disabled": 0, "rental_uris": {"ios": "https://dc.lft.to/lastmile_qr_scan", "android": "https://dc.lft.to/lastmile_qr_scan"}, "bike_id": "e64911dd8d8d9726001aa116a64a4910", "lat": 38.90561016666667, "name": "e64911dd8d8d9726001aa116a64a4910", "lon": -77.06276033333333, "fusion_lon": 0.0}, {"is_reserved": 0, "type": "electric_scooter", "fusion_lat": 0.0, "is_disabled": 0, "rental_uris": {"ios": "https://dc.lft.to/lastmile_qr_scan", "android": "https://dc.lft.to/lastmile_qr_scan"}, "bike_id": "d0651114d42cb87c96057357d9eba9ef", "lat": 38.904187666666665, "name": "d0651114d42cb87c96057357d9eba9ef", "lon": -76.9853045, "fusion_lon": 0.0}, {"is_reserved": 0, "type": "electric_scooter", "fusion_lat": 0.0, "is_disabled": 0, "rental_uris": {"ios": "https://dc.lft.to/lastmile_qr_scan", "android": "https://dc.lft.to/lastmile_qr_scan"}, "bike_id": "924aee3e31c0ed15fdb3a538b8d1cbb2", "lat": 38.8997645, "name": "924aee3e31c0ed15fdb3a538b8d1cbb2", "lon": -77.01609766666667, "fusion_lon": 0.0}, {"is_reserved": 0, "type": "electric_scooter", "fusion_lat": 0.0, "is_disabled": 0, "rental_uris": {"ios": "https://dc.lft.to/lastmile_qr_scan", "android": "https://dc.lft.to/lastmile_qr_scan"}, "bike_id": "62bb0c612d803914929f513c80341243", "lat": 38.88749466666667, "name": "62bb0c612d803914929f513c80341243", "lon": -77.01413166666667, "fusion_lon": 0.0}, {"is_reserved": 0, "type": "electric_scooter", "fusion_lat": 0.0, "is_disabled": 0, "rental_uris": {"ios": "https://dc.lft.to/lastmile_qr_scan", "android": "https://dc.lft.to/lastmile_qr_scan"}, "bike_id": "11e62fcc32df540f10dfcdbf1419d3a3", "lat": 38.924708833333334, "name": "11e62fcc32df540f10dfcdbf1419d3a3", "lon": -77.03784083333333, "fusion_lon": 0.0}, {"is_reserved": 0, "type": "electric_bike", "fusion_lat": 0.0, "is_disabled": 0, "rental_uris": {"ios": "https://dc.lft.to/lastmile_qr_scan", "android": "https://dc.lft.to/lastmile_qr_scan"}, "bike_id": "c4d7ef269b50321fa72c6df86ff8960c", "lat": 38.848627666666665, "name": "c4d7ef269b50321fa72c6df86ff8960c", "lon": -77.06830566666666, "fusion_lon": 0.0}, {"is_reserved": 0, "type": "electric_scooter", "fusion_lat": 0.0, "is_disabled": 0, "rental_uris": {"ios": "https://dc.lft.to/lastmile_qr_scan", "android": "https://dc.lft.to/lastmile_qr_scan"}, "bike_id": "3480b9ccb69c7c487a53d8c57364a595", "lat": 38.89406666666667, "name": "3480b9ccb69c7c487a53d8c57364a595", "lon": -77.049976, "fusion_lon": 0.0}, {"is_reserved": 0, "type": "electric_scooter", "fusion_lat": 0.0, "is_disabled": 0, "rental_uris": {"ios": "https://dc.lft.to/lastmile_qr_scan", "android": "https://dc.lft.to/lastmile_qr_scan"}, "bike_id": "ff0cd4feecdc4193b72de00a2994b4b2", "lat": 38.87917566666667, "name": "ff0cd4feecdc4193b72de00a2994b4b2", "lon": -76.94479016666666, "fusion_lon": 0.0}, {"is_reserved": 0, "type": "electric_scooter", "fusion_lat": 0.0, "is_disabled": 0, "rental_uris": {"ios": "https://dc.lft.to/lastmile_qr_scan", "android": "https://dc.lft.to/lastmile_qr_scan"}, "bike_id": "72cdf9b575a7fc1f6c0572cd0fec20f3", "lat": 38.90566833333333, "name": "72cdf9b575a7fc1f6c0572cd0fec20f3", "lon": -77.00579783333333, "fusion_lon": 0.0}, {"is_reserved": 0, "type": "electric_bike", "fusion_lat": 0.0, "is_disabled": 0, "rental_uris": {"ios": "https://dc.lft.to/lastmile_qr_scan", "android": "https://dc.lft.to/lastmile_qr_scan"}, "bike_id": "829745a663fd88795718d5589d69ed44", "lat": 38.99096183333333, "name": "829745a663fd88795718d5589d69ed44", "lon": -76.993728, "fusion_lon": 0.0}, {"is_reserved": 0, "type": "electric_bike", "fusion_lat": 0.0, "is_disabled": 0, "rental_uris": {"ios": "https://dc.lft.to/lastmile_qr_scan", "android": "https://dc.lft.to/lastmile_qr_scan"}, "bike_id": "afd3dfb98eaaabffb5c9311b4c507750", "lat": 38.854631833333336, "name": "afd3dfb98eaaabffb5c9311b4c507750", "lon": -76.97241033333333, "fusion_lon": 0.0}, {"is_reserved": 0, "type": "electric_scooter", "fusion_lat": 0.0, "is_disabled": 0, "rental_uris": {"ios": "https://dc.lft.to/lastmile_qr_scan", "android": "https://dc.lft.to/lastmile_qr_scan"}, "bike_id": "65ba4c93444b78e8e80c163257c4e751", "lat": 38.929298, "name": "65ba4c93444b78e8e80c163257c4e751", "lon": -77.03743233333333, "fusion_lon": 0.0}, {"is_reserved": 0, "type": "electric_scooter", "fusion_lat": 0.0, "is_disabled": 0, "rental_uris": {"ios": "https://dc.lft.to/lastmile_qr_scan", "android": "https://dc.lft.to/lastmile_qr_scan"}, "bike_id": "8cce8a4cbe38708a5ff0a53e97be0e6d", "lat": 38.9059545, "name": "8cce8a4cbe38708a5ff0a53e97be0e6d", "lon": -77.06284933333333, "fusion_lon": 0.0}, {"is_reserved": 0, "type": "electric_scooter", "fusion_lat": 0.0, "is_disabled": 0, "rental_uris": {"ios": "https://dc.lft.to/lastmile_qr_scan", "android": "https://dc.lft.to/lastmile_qr_scan"}, "bike_id": "007c92c6cbcc2cfc0fd18f7fc071b2b8", "lat": 38.90610816666667, "name": "007c92c6cbcc2cfc0fd18f7fc071b2b8", "lon": -76.98979616666666, "fusion_lon": 0.0}, {"is_reserved": 0, "type": "electric_scooter", "fusion_lat": 0.0, "is_disabled": 0, "rental_uris": {"ios": "https://dc.lft.to/lastmile_qr_scan", "android": "https://dc.lft.to/lastmile_qr_scan"}, "bike_id": "9bb8ec418b0df2cf03161f8e9e475c9d", "lat": 38.901342166666666, "name": "9bb8ec418b0df2cf03161f8e9e475c9d", "lon": -77.023119, "fusion_lon": 0.0}, {"is_reserved": 0, "type": "electric_scooter", "fusion_lat": 0.0, "is_disabled": 0, "rental_uris": {"ios": "https://dc.lft.to/lastmile_qr_scan", "android": "https://dc.lft.to/lastmile_qr_scan"}, "bike_id": "e573b29d00adb1892edc2ec13df15d8b", "lat": 38.903837, "name": "e573b29d00adb1892edc2ec13df15d8b", "lon": -77.041936, "fusion_lon": 0.0}, {"is_reserved": 0, "type": "electric_scooter", "fusion_lat": 0.0, "is_disabled": 0, "rental_uris": {"ios": "https://dc.lft.to/lastmile_qr_scan", "android": "https://dc.lft.to/lastmile_qr_scan"}, "bike_id": "42970f1ca0d96f46ceb9cb99b65563b5", "lat": 38.885345666666666, "name": "42970f1ca0d96f46ceb9cb99b65563b5", "lon": -76.98058016666667, "fusion_lon": 0.0}, {"is_reserved": 0, "type": "electric_bike", "fusion_lat": 0.0, "is_disabled": 0, "rental_uris": {"ios": "https://dc.lft.to/lastmile_qr_scan", "android": "https://dc.lft.to/lastmile_qr_scan"}, "bike_id": "d69463a3f7166d6744d519b33b298db4", "lat": 38.896249, "name": "d69463a3f7166d6744d519b33b298db4", "lon": -76.90746433333334, "fusion_lon": 0.0}, {"is_reserved": 0, "type": "electric_scooter", "fusion_lat": 0.0, "is_disabled": 0, "rental_uris": {"ios": "https://dc.lft.to/lastmile_qr_scan", "android": "https://dc.lft.to/lastmile_qr_scan"}, "bike_id": "fda8cf463efcf73be376a3c0ff9b5388", "lat": 38.92172583333333, "name": "fda8cf463efcf73be376a3c0ff9b5388", "lon": -77.0401495, "fusion_lon": 0.0}, {"is_reserved": 0, "type": "electric_scooter", "fusion_lat": 0.0, "is_disabled": 0, "rental_uris": {"ios": "https://dc.lft.to/lastmile_qr_scan", "android": "https://dc.lft.to/lastmile_qr_scan"}, "bike_id": "bd66f0afe5751142ea5a1316b7568164", "lat": 38.92414816666667, "name": "bd66f0afe5751142ea5a1316b7568164", "lon": -77.02009083333333, "fusion_lon": 0.0}, {"is_reserved": 0, "type": "electric_scooter", "fusion_lat": 0.0, "is_disabled": 0, "rental_uris": {"ios": "https://dc.lft.to/lastmile_qr_scan", "android": "https://dc.lft.to/lastmile_qr_scan"}, "bike_id": "2a7bcd053b4f8d0f7a9bc42e5fb2f960", "lat": 38.88515233333333, "name": "2a7bcd053b4f8d0f7a9bc42e5fb2f960", "lon": -76.9244385, "fusion_lon": 0.0}, {"is_reserved": 0, "type": "electric_scooter", "fusion_lat": 0.0, "is_disabled": 0, "rental_uris": {"ios": "https://dc.lft.to/lastmile_qr_scan", "android": "https://dc.lft.to/lastmile_qr_scan"}, "bike_id": "24c6b074bd74f24c032db1be4917413b", "lat": 38.9027235, "name": "24c6b074bd74f24c032db1be4917413b", "lon": -77.0347775, "fusion_lon": 0.0}, {"is_reserved": 0, "type": "electric_scooter", "fusion_lat": 0.0, "is_disabled": 0, "rental_uris": {"ios": "https://dc.lft.to/lastmile_qr_scan", "android": "https://dc.lft.to/lastmile_qr_scan"}, "bike_id": "bfd2f44dc59c02c35f3c51baaf3fe2ad", "lat": 38.904660666666665, "name": "bfd2f44dc59c02c35f3c51baaf3fe2ad", "lon": -77.05351466666667, "fusion_lon": 0.0}, {"is_reserved": 0, "type": "electric_scooter", "fusion_lat": 0.0, "is_disabled": 0, "rental_uris": {"ios": "https://dc.lft.to/lastmile_qr_scan", "android": "https://dc.lft.to/lastmile_qr_scan"}, "bike_id": "055dd67be8a6dc7a0cd4842f50a6e439", "lat": 38.898663166666665, "name": "055dd67be8a6dc7a0cd4842f50a6e439", "lon": -77.0393255, "fusion_lon": 0.0}, {"is_reserved": 0, "type": "electric_scooter", "fusion_lat": 0.0, "is_disabled": 0, "rental_uris": {"ios": "https://dc.lft.to/lastmile_qr_scan", "android": "https://dc.lft.to/lastmile_qr_scan"}, "bike_id": "b125a8771a752af842f38372ad298f64", "lat": 38.9569305, "name": "b125a8771a752af842f38372ad298f64", "lon": -77.02232183333334, "fusion_lon": 0.0}, {"is_reserved": 0, "type": "electric_scooter", "fusion_lat": 0.0, "is_disabled": 0, "rental_uris": {"ios": "https://dc.lft.to/lastmile_qr_scan", "android": "https://dc.lft.to/lastmile_qr_scan"}, "bike_id": "924a94bc8606bc3ca53c80c0e9089823", "lat": 38.95757666666667, "name": "924a94bc8606bc3ca53c80c0e9089823", "lon": -77.0221125, "fusion_lon": 0.0}, {"is_reserved": 0, "type": "electric_scooter", "fusion_lat": 0.0, "is_disabled": 0, "rental_uris": {"ios": "https://dc.lft.to/lastmile_qr_scan", "android": "https://dc.lft.to/lastmile_qr_scan"}, "bike_id": "de89bc0ec4d6e2a794c013d386b29be4", "lat": 38.92135233333333, "name": "de89bc0ec4d6e2a794c013d386b29be4", "lon": -77.04575883333334, "fusion_lon": 0.0}, {"is_reserved": 0, "type": "electric_scooter", "fusion_lat": 0.0, "is_disabled": 0, "rental_uris": {"ios": "https://dc.lft.to/lastmile_qr_scan", "android": "https://dc.lft.to/lastmile_qr_scan"}, "bike_id": "649b1636b73869f21104129d3d17fc86", "lat": 38.9205795, "name": "649b1636b73869f21104129d3d17fc86", "lon": -77.03384466666667, "fusion_lon": 0.0}, {"is_reserved": 0, "type": "electric_scooter", "fusion_lat": 0.0, "is_disabled": 0, "rental_uris": {"ios": "https://dc.lft.to/lastmile_qr_scan", "android": "https://dc.lft.to/lastmile_qr_scan"}, "bike_id": "c4983132ee7faa8333ff9915d4b8a86b", "lat": 38.92387216666667, "name": "c4983132ee7faa8333ff9915d4b8a86b", "lon": -77.0308055, "fusion_lon": 0.0}, {"is_reserved": 0, "type": "electric_scooter", "fusion_lat": 0.0, "is_disabled": 0, "rental_uris": {"ios": "https://dc.lft.to/lastmile_qr_scan", "android": "https://dc.lft.to/lastmile_qr_scan"}, "bike_id": "a67b2ae97fa9724618ddb3720b295641", "lat": 38.92274783333333, "name": "a67b2ae97fa9724618ddb3720b295641", "lon": -77.04236283333333, "fusion_lon": 0.0}, {"is_reserved": 0, "type": "electric_scooter", "fusion_lat": 0.0, "is_disabled": 0, "rental_uris": {"ios": "https://dc.lft.to/lastmile_qr_scan", "android": "https://dc.lft.to/lastmile_qr_scan"}, "bike_id": "6fdf21bc933e2157c9ab5dc50245862e", "lat": 38.924506666666666, "name": "6fdf21bc933e2157c9ab5dc50245862e", "lon": -77.021315, "fusion_lon": 0.0}, {"is_reserved": 0, "type": "electric_scooter", "fusion_lat": 0.0, "is_disabled": 0, "rental_uris": {"ios": "https://dc.lft.to/lastmile_qr_scan", "android": "https://dc.lft.to/lastmile_qr_scan"}, "bike_id": "531316fc5a9a119faa8fd9be1dfa72b2", "lat": 38.92415616666667, "name": "531316fc5a9a119faa8fd9be1dfa72b2", "lon": -77.0212915, "fusion_lon": 0.0}, {"is_reserved": 0, "type": "electric_scooter", "fusion_lat": 0.0, "is_disabled": 0, "rental_uris": {"ios": "https://dc.lft.to/lastmile_qr_scan", "android": "https://dc.lft.to/lastmile_qr_scan"}, "bike_id": "00f2de838f7aff60300de647856c3d25", "lat": 38.926592166666666, "name": "00f2de838f7aff60300de647856c3d25", "lon": -77.02435266666667, "fusion_lon": 0.0}, {"is_reserved": 0, "type": "electric_scooter", "fusion_lat": 0.0, "is_disabled": 0, "rental_uris": {"ios": "https://dc.lft.to/lastmile_qr_scan", "android": "https://dc.lft.to/lastmile_qr_scan"}, "bike_id": "51eb365ce3655cf4fa56a1576daec6e3", "lat": 38.916249666666666, "name": "51eb365ce3655cf4fa56a1576daec6e3", "lon": -77.02959566666667, "fusion_lon": 0.0}, {"is_reserved": 0, "type": "electric_scooter", "fusion_lat": 0.0, "is_disabled": 0, "rental_uris": {"ios": "https://dc.lft.to/lastmile_qr_scan", "android": "https://dc.lft.to/lastmile_qr_scan"}, "bike_id": "395fbfc9603db961f146776e723ee6db", "lat": 38.919830166666664, "name": "395fbfc9603db961f146776e723ee6db", "lon": -77.02366933333333, "fusion_lon": 0.0}, {"is_reserved": 0, "type": "electric_scooter", "fusion_lat": 0.0, "is_disabled": 0, "rental_uris": {"ios": "https://dc.lft.to/lastmile_qr_scan", "android": "https://dc.lft.to/lastmile_qr_scan"}, "bike_id": "1742a364363ef2055e319d722c2988e8", "lat": 38.91339, "name": "1742a364363ef2055e319d722c2988e8", "lon": -77.0304255, "fusion_lon": 0.0}, {"is_reserved": 0, "type": "electric_scooter", "fusion_lat": 0.0, "is_disabled": 0, "rental_uris": {"ios": "https://dc.lft.to/lastmile_qr_scan", "android": "https://dc.lft.to/lastmile_qr_scan"}, "bike_id": "0886232f829bfbbc60c266365b1578fb", "lat": 38.920792666666664, "name": "0886232f829bfbbc60c266365b1578fb", "lon": -77.024285, "fusion_lon": 0.0}, {"is_reserved": 0, "type": "electric_bike", "fusion_lat": 0.0, "is_disabled": 0, "rental_uris": {"ios": "https://dc.lft.to/lastmile_qr_scan", "android": "https://dc.lft.to/lastmile_qr_scan"}, "bike_id": "38b165f6a5f8d8e5841a7c64c3d091af", "lat": 38.9093435, "name": "38b165f6a5f8d8e5841a7c64c3d091af", "lon": -77.03203466666666, "fusion_lon": 0.0}, {"is_reserved": 0, "type": "electric_scooter", "fusion_lat": 0.0, "is_disabled": 0, "rental_uris": {"ios": "https://dc.lft.to/lastmile_qr_scan", "android": "https://dc.lft.to/lastmile_qr_scan"}, "bike_id": "a7c5a6abd4caafde369bf4d3fb5c5b0d", "lat": 38.923620666666665, "name": "a7c5a6abd4caafde369bf4d3fb5c5b0d", "lon": -77.05241966666667, "fusion_lon": 0.0}, {"is_reserved": 0, "type": "electric_scooter", "fusion_lat": 0.0, "is_disabled": 0, "rental_uris": {"ios": "https://dc.lft.to/lastmile_qr_scan", "android": "https://dc.lft.to/lastmile_qr_scan"}, "bike_id": "e20bfe5b9b1a2343817c60d7f9e23a82", "lat": 38.89225966666667, "name": "e20bfe5b9b1a2343817c60d7f9e23a82", "lon": -77.03217666666667, "fusion_lon": 0.0}, {"is_reserved": 0, "type": "electric_scooter", "fusion_lat": 0.0, "is_disabled": 0, "rental_uris": {"ios": "https://dc.lft.to/lastmile_qr_scan", "android": "https://dc.lft.to/lastmile_qr_scan"}, "bike_id": "609bb68ad74e77602f4030dfa5172645", "lat": 38.8991685, "name": "609bb68ad74e77602f4030dfa5172645", "lon": -77.0231605, "fusion_lon": 0.0}, {"is_reserved": 0, "type": "electric_scooter", "fusion_lat": 0.0, "is_disabled": 0, "rental_uris": {"ios": "https://dc.lft.to/lastmile_qr_scan", "android": "https://dc.lft.to/lastmile_qr_scan"}, "bike_id": "e9b05e1ab7d126223b7e66585b1f6f4e", "lat": 38.943279833333335, "name": "e9b05e1ab7d126223b7e66585b1f6f4e", "lon": -77.01311583333333, "fusion_lon": 0.0}, {"is_reserved": 0, "type": "electric_scooter", "fusion_lat": 0.0, "is_disabled": 0, "rental_uris": {"ios": "https://dc.lft.to/lastmile_qr_scan", "android": "https://dc.lft.to/lastmile_qr_scan"}, "bike_id": "faf0ed2b30110fc763f0079334cfdd57", "lat": 38.8933595, "name": "faf0ed2b30110fc763f0079334cfdd57", "lon": -76.93927833333333, "fusion_lon": 0.0}, {"is_reserved": 0, "type": "electric_scooter", "fusion_lat": 0.0, "is_disabled": 0, "rental_uris": {"ios": "https://dc.lft.to/lastmile_qr_scan", "android": "https://dc.lft.to/lastmile_qr_scan"}, "bike_id": "892686bc158c77b8bb9d54640d1d989f", "lat": 38.912633, "name": "892686bc158c77b8bb9d54640d1d989f", "lon": -77.01024866666667, "fusion_lon": 0.0}, {"is_reserved": 0, "type": "electric_scooter", "fusion_lat": 0.0, "is_disabled": 0, "rental_uris": {"ios": "https://dc.lft.to/lastmile_qr_scan", "android": "https://dc.lft.to/lastmile_qr_scan"}, "bike_id": "150463955fe032eb552e78542d58a63b", "lat": 38.93701166666666, "name": "150463955fe032eb552e78542d58a63b", "lon": -77.05597, "fusion_lon": 0.0}, {"is_reserved": 0, "type": "electric_scooter", "fusion_lat": 0.0, "is_disabled": 0, "rental_uris": {"ios": "https://dc.lft.to/lastmile_qr_scan", "android": "https://dc.lft.to/lastmile_qr_scan"}, "bike_id": "32b933a8c065ab2836b6d0eae1edea8e", "lat": 38.92044033333333, "name": "32b933a8c065ab2836b6d0eae1edea8e", "lon": -77.02595483333333, "fusion_lon": 0.0}, {"is_reserved": 0, "type": "electric_scooter", "fusion_lat": 0.0, "is_disabled": 0, "rental_uris": {"ios": "https://dc.lft.to/lastmile_qr_scan", "android": "https://dc.lft.to/lastmile_qr_scan"}, "bike_id": "a16ec70f2ab16c7ab85a1f9f3afa1c96", "lat": 38.885900666666664, "name": "a16ec70f2ab16c7ab85a1f9f3afa1c96", "lon": -77.01225133333334, "fusion_lon": 0.0}, {"is_reserved": 0, "type": "electric_scooter", "fusion_lat": 0.0, "is_disabled": 0, "rental_uris": {"ios": "https://dc.lft.to/lastmile_qr_scan", "android": "https://dc.lft.to/lastmile_qr_scan"}, "bike_id": "757ab4e8d2f08853522243e1722ec008", "lat": 38.9236445, "name": "757ab4e8d2f08853522243e1722ec008", "lon": -77.0512845, "fusion_lon": 0.0}, {"is_reserved": 0, "type": "electric_scooter", "fusion_lat": 0.0, "is_disabled": 0, "rental_uris": {"ios": "https://dc.lft.to/lastmile_qr_scan", "android": "https://dc.lft.to/lastmile_qr_scan"}, "bike_id": "0a29fd4e8b21ba1792a6a01870f7e782", "lat": 38.95259033333333, "name": "0a29fd4e8b21ba1792a6a01870f7e782", "lon": -77.02072533333333, "fusion_lon": 0.0}, {"is_reserved": 0, "type": "electric_scooter", "fusion_lat": 0.0, "is_disabled": 0, "rental_uris": {"ios": "https://dc.lft.to/lastmile_qr_scan", "android": "https://dc.lft.to/lastmile_qr_scan"}, "bike_id": "7365519fdec2035751f4e2a6807950af", "lat": 38.874742, "name": "7365519fdec2035751f4e2a6807950af", "lon": -77.00515033333333, "fusion_lon": 0.0}, {"is_reserved": 0, "type": "electric_scooter", "fusion_lat": 0.0, "is_disabled": 0, "rental_uris": {"ios": "https://dc.lft.to/lastmile_qr_scan", "android": "https://dc.lft.to/lastmile_qr_scan"}, "bike_id": "bcbccdd9fcd07178ea5e10bc9f1a3c09", "lat": 38.8818985, "name": "bcbccdd9fcd07178ea5e10bc9f1a3c09", "lon": -77.0089195, "fusion_lon": 0.0}, {"is_reserved": 0, "type": "electric_scooter", "fusion_lat": 0.0, "is_disabled": 0, "rental_uris": {"ios": "https://dc.lft.to/lastmile_qr_scan", "android": "https://dc.lft.to/lastmile_qr_scan"}, "bike_id": "3d6bec9060cda2d131eb02c1b762a54c", "lat": 38.888669, "name": "3d6bec9060cda2d131eb02c1b762a54c", "lon": -76.97902683333334, "fusion_lon": 0.0}, {"is_reserved": 0, "type": "electric_scooter", "fusion_lat": 0.0, "is_disabled": 0, "rental_uris": {"ios": "https://dc.lft.to/lastmile_qr_scan", "android": "https://dc.lft.to/lastmile_qr_scan"}, "bike_id": "82a345ccede56444acc8d57d999ad017", "lat": 38.94448166666667, "name": "82a345ccede56444acc8d57d999ad017", "lon": -77.02914666666666, "fusion_lon": 0.0}, {"is_reserved": 0, "type": "electric_scooter", "fusion_lat": 0.0, "is_disabled": 0, "rental_uris": {"ios": "https://dc.lft.to/lastmile_qr_scan", "android": "https://dc.lft.to/lastmile_qr_scan"}, "bike_id": "eded94207a5f1290cbf2bfd992184ed5", "lat": 38.923425333333334, "name": "eded94207a5f1290cbf2bfd992184ed5", "lon": -76.9987375, "fusion_lon": 0.0}, {"is_reserved": 0, "type": "electric_scooter", "fusion_lat": 0.0, "is_disabled": 0, "rental_uris": {"ios": "https://dc.lft.to/lastmile_qr_scan", "android": "https://dc.lft.to/lastmile_qr_scan"}, "bike_id": "a53cc5df9077b0b0ce7d38137f63925a", "lat": 38.922119, "name": "a53cc5df9077b0b0ce7d38137f63925a", "lon": -77.018755, "fusion_lon": 0.0}, {"is_reserved": 0, "type": "electric_scooter", "fusion_lat": 0.0, "is_disabled": 0, "rental_uris": {"ios": "https://dc.lft.to/lastmile_qr_scan", "android": "https://dc.lft.to/lastmile_qr_scan"}, "bike_id": "2884b89786e49e20b0a697adf4cda4ea", "lat": 38.92262983333333, "name": "2884b89786e49e20b0a697adf4cda4ea", "lon": -77.03662933333334, "fusion_lon": 0.0}, {"is_reserved": 0, "type": "electric_scooter", "fusion_lat": 0.0, "is_disabled": 0, "rental_uris": {"ios": "https://dc.lft.to/lastmile_qr_scan", "android": "https://dc.lft.to/lastmile_qr_scan"}, "bike_id": "66c1ffca0c43b060835c65e41979c327", "lat": 38.931188666666664, "name": "66c1ffca0c43b060835c65e41979c327", "lon": -77.03607333333333, "fusion_lon": 0.0}, {"is_reserved": 0, "type": "electric_scooter", "fusion_lat": 0.0, "is_disabled": 0, "rental_uris": {"ios": "https://dc.lft.to/lastmile_qr_scan", "android": "https://dc.lft.to/lastmile_qr_scan"}, "bike_id": "2e0ce1d8a349a3e4c6af2a6049f8e31f", "lat": 38.923381666666664, "name": "2e0ce1d8a349a3e4c6af2a6049f8e31f", "lon": -77.02810933333333, "fusion_lon": 0.0}, {"is_reserved": 0, "type": "electric_scooter", "fusion_lat": 0.0, "is_disabled": 0, "rental_uris": {"ios": "https://dc.lft.to/lastmile_qr_scan", "android": "https://dc.lft.to/lastmile_qr_scan"}, "bike_id": "bfadbbe9a4f8feb8d4953e64d0ec2bde", "lat": 38.90441333333333, "name": "bfadbbe9a4f8feb8d4953e64d0ec2bde", "lon": -77.03255066666667, "fusion_lon": 0.0}, {"is_reserved": 0, "type": "electric_scooter", "fusion_lat": 0.0, "is_disabled": 0, "rental_uris": {"ios": "https://dc.lft.to/lastmile_qr_scan", "android": "https://dc.lft.to/lastmile_qr_scan"}, "bike_id": "4b3f7ceb984bf6652b22e3f91af5279e", "lat": 38.89925733333333, "name": "4b3f7ceb984bf6652b22e3f91af5279e", "lon": -77.00360416666666, "fusion_lon": 0.0}, {"is_reserved": 0, "type": "electric_scooter", "fusion_lat": 0.0, "is_disabled": 0, "rental_uris": {"ios": "https://dc.lft.to/lastmile_qr_scan", "android": "https://dc.lft.to/lastmile_qr_scan"}, "bike_id": "4121c39ea68a256abcdb024292cdc174", "lat": 38.903493833333336, "name": "4121c39ea68a256abcdb024292cdc174", "lon": -76.97494216666666, "fusion_lon": 0.0}, {"is_reserved": 0, "type": "electric_scooter", "fusion_lat": 0.0, "is_disabled": 0, "rental_uris": {"ios": "https://dc.lft.to/lastmile_qr_scan", "android": "https://dc.lft.to/lastmile_qr_scan"}, "bike_id": "b841718facd53de4b7904e6f0939fcf3", "lat": 38.92374016666667, "name": "b841718facd53de4b7904e6f0939fcf3", "lon": -77.02914283333334, "fusion_lon": 0.0}, {"is_reserved": 0, "type": "electric_bike", "fusion_lat": 0.0, "is_disabled": 0, "rental_uris": {"ios": "https://dc.lft.to/lastmile_qr_scan", "android": "https://dc.lft.to/lastmile_qr_scan"}, "bike_id": "64cea8a00ca1c12fe693db127b3019c7", "lat": 38.9265505, "name": "64cea8a00ca1c12fe693db127b3019c7", "lon": -77.090241, "fusion_lon": 0.0}, {"is_reserved": 0, "type": "electric_scooter", "fusion_lat": 0.0, "is_disabled": 0, "rental_uris": {"ios": "https://dc.lft.to/lastmile_qr_scan", "android": "https://dc.lft.to/lastmile_qr_scan"}, "bike_id": "c389df3efc00ecc0976813ba9703c3cb", "lat": 38.93935716666667, "name": "c389df3efc00ecc0976813ba9703c3cb", "lon": -77.0259145, "fusion_lon": 0.0}, {"is_reserved": 0, "type": "electric_scooter", "fusion_lat": 0.0, "is_disabled": 0, "rental_uris": {"ios": "https://dc.lft.to/lastmile_qr_scan", "android": "https://dc.lft.to/lastmile_qr_scan"}, "bike_id": "c5b630fb73543f7bb100394227055b63", "lat": 38.88642983333333, "name": "c5b630fb73543f7bb100394227055b63", "lon": -77.022171, "fusion_lon": 0.0}, {"is_reserved": 0, "type": "electric_scooter", "fusion_lat": 0.0, "is_disabled": 0, "rental_uris": {"ios": "https://dc.lft.to/lastmile_qr_scan", "android": "https://dc.lft.to/lastmile_qr_scan"}, "bike_id": "7e3d7af7ed543cdfa129903a23f93d17", "lat": 38.916347, "name": "7e3d7af7ed543cdfa129903a23f93d17", "lon": -77.00500233333334, "fusion_lon": 0.0}, {"is_reserved": 0, "type": "electric_bike", "fusion_lat": 0.0, "is_disabled": 0, "rental_uris": {"ios": "https://dc.lft.to/lastmile_qr_scan", "android": "https://dc.lft.to/lastmile_qr_scan"}, "bike_id": "971e5423a54768d2c6c0ba2437b4e1f1", "lat": 38.97157416666667, "name": "971e5423a54768d2c6c0ba2437b4e1f1", "lon": -76.98364466666666, "fusion_lon": 0.0}, {"is_reserved": 0, "type": "electric_scooter", "fusion_lat": 0.0, "is_disabled": 0, "rental_uris": {"ios": "https://dc.lft.to/lastmile_qr_scan", "android": "https://dc.lft.to/lastmile_qr_scan"}, "bike_id": "88f018f5e01262a4891d86140c2048fe", "lat": 38.92173583333334, "name": "88f018f5e01262a4891d86140c2048fe", "lon": -77.03843216666667, "fusion_lon": 0.0}, {"is_reserved": 0, "type": "electric_scooter", "fusion_lat": 0.0, "is_disabled": 0, "rental_uris": {"ios": "https://dc.lft.to/lastmile_qr_scan", "android": "https://dc.lft.to/lastmile_qr_scan"}, "bike_id": "7494aa46d64c41e84935c7be921107b9", "lat": 38.92780833333333, "name": "7494aa46d64c41e84935c7be921107b9", "lon": -77.0278465, "fusion_lon": 0.0}, {"is_reserved": 0, "type": "electric_scooter", "fusion_lat": 0.0, "is_disabled": 0, "rental_uris": {"ios": "https://dc.lft.to/lastmile_qr_scan", "android": "https://dc.lft.to/lastmile_qr_scan"}, "bike_id": "5b1473b13a1ead48b45d79033bc4f1f1", "lat": 38.920597666666666, "name": "5b1473b13a1ead48b45d79033bc4f1f1", "lon": -76.99884333333333, "fusion_lon": 0.0}, {"is_reserved": 0, "type": "electric_scooter", "fusion_lat": 0.0, "is_disabled": 0, "rental_uris": {"ios": "https://dc.lft.to/lastmile_qr_scan", "android": "https://dc.lft.to/lastmile_qr_scan"}, "bike_id": "1d8c736d4672f41e2e5c9375084e3592", "lat": 38.9206355, "name": "1d8c736d4672f41e2e5c9375084e3592", "lon": -77.02296416666667, "fusion_lon": 0.0}, {"is_reserved": 0, "type": "electric_bike", "fusion_lat": 0.0, "is_disabled": 0, "rental_uris": {"ios": "https://dc.lft.to/lastmile_qr_scan", "android": "https://dc.lft.to/lastmile_qr_scan"}, "bike_id": "66e748b9dac476131396e73f8f2f6351", "lat": 38.958888333333334, "name": "66e748b9dac476131396e73f8f2f6351", "lon": -76.97058483333333, "fusion_lon": 0.0}, {"is_reserved": 0, "type": "electric_scooter", "fusion_lat": 0.0, "is_disabled": 0, "rental_uris": {"ios": "https://dc.lft.to/lastmile_qr_scan", "android": "https://dc.lft.to/lastmile_qr_scan"}, "bike_id": "ee3efbfca3a164b483f22419c69a701a", "lat": 38.920780666666666, "name": "ee3efbfca3a164b483f22419c69a701a", "lon": -77.0242275, "fusion_lon": 0.0}, {"is_reserved": 0, "type": "electric_scooter", "fusion_lat": 0.0, "is_disabled": 0, "rental_uris": {"ios": "https://dc.lft.to/lastmile_qr_scan", "android": "https://dc.lft.to/lastmile_qr_scan"}, "bike_id": "fc90c22076984abe65fab92eac36c86b", "lat": 38.9279235, "name": "fc90c22076984abe65fab92eac36c86b", "lon": -77.0212995, "fusion_lon": 0.0}, {"is_reserved": 0, "type": "electric_scooter", "fusion_lat": 0.0, "is_disabled": 0, "rental_uris": {"ios": "https://dc.lft.to/lastmile_qr_scan", "android": "https://dc.lft.to/lastmile_qr_scan"}, "bike_id": "025ef5f81c4891b17fc39481e9cafb28", "lat": 38.90605083333333, "name": "025ef5f81c4891b17fc39481e9cafb28", "lon": -77.06301316666666, "fusion_lon": 0.0}, {"is_reserved": 0, "type": "electric_scooter", "fusion_lat": 0.0, "is_disabled": 0, "rental_uris": {"ios": "https://dc.lft.to/lastmile_qr_scan", "android": "https://dc.lft.to/lastmile_qr_scan"}, "bike_id": "b8b2ad41079eaf6e6497f0f41cfe9783", "lat": 38.899933833333336, "name": "b8b2ad41079eaf6e6497f0f41cfe9783", "lon": -77.00926366666667, "fusion_lon": 0.0}, {"is_reserved": 0, "type": "electric_scooter", "fusion_lat": 0.0, "is_disabled": 0, "rental_uris": {"ios": "https://dc.lft.to/lastmile_qr_scan", "android": "https://dc.lft.to/lastmile_qr_scan"}, "bike_id": "9b95299eb46c3caf4f81abedc4e52e19", "lat": 38.8922865, "name": "9b95299eb46c3caf4f81abedc4e52e19", "lon": -77.0257705, "fusion_lon": 0.0}, {"is_reserved": 0, "type": "electric_scooter", "fusion_lat": 0.0, "is_disabled": 0, "rental_uris": {"ios": "https://dc.lft.to/lastmile_qr_scan", "android": "https://dc.lft.to/lastmile_qr_scan"}, "bike_id": "86293a927adc8c61320b937d25be7487", "lat": 38.901589, "name": "86293a927adc8c61320b937d25be7487", "lon": -77.01520716666667, "fusion_lon": 0.0}, {"is_reserved": 0, "type": "electric_scooter", "fusion_lat": 0.0, "is_disabled": 0, "rental_uris": {"ios": "https://dc.lft.to/lastmile_qr_scan", "android": "https://dc.lft.to/lastmile_qr_scan"}, "bike_id": "2036f3ba618f4e892af7000c1543377a", "lat": 38.90651616666667, "name": "2036f3ba618f4e892af7000c1543377a", "lon": -77.0248, "fusion_lon": 0.0}, {"is_reserved": 0, "type": "electric_scooter", "fusion_lat": 0.0, "is_disabled": 0, "rental_uris": {"ios": "https://dc.lft.to/lastmile_qr_scan", "android": "https://dc.lft.to/lastmile_qr_scan"}, "bike_id": "7abb44301e19a8332634a3bb438366a0", "lat": 38.921350333333336, "name": "7abb44301e19a8332634a3bb438366a0", "lon": -77.0039945, "fusion_lon": 0.0}, {"is_reserved": 0, "type": "electric_scooter", "fusion_lat": 0.0, "is_disabled": 0, "rental_uris": {"ios": "https://dc.lft.to/lastmile_qr_scan", "android": "https://dc.lft.to/lastmile_qr_scan"}, "bike_id": "a6508d90891733b992fb762b0863f852", "lat": 38.920492, "name": "a6508d90891733b992fb762b0863f852", "lon": -77.02602916666666, "fusion_lon": 0.0}, {"is_reserved": 0, "type": "electric_scooter", "fusion_lat": 0.0, "is_disabled": 0, "rental_uris": {"ios": "https://dc.lft.to/lastmile_qr_scan", "android": "https://dc.lft.to/lastmile_qr_scan"}, "bike_id": "fc578bb3e373a2ce9992c5ce4481a1af", "lat": 38.903918166666664, "name": "fc578bb3e373a2ce9992c5ce4481a1af", "lon": -76.99005233333334, "fusion_lon": 0.0}, {"is_reserved": 0, "type": "electric_bike", "fusion_lat": 0.0, "is_disabled": 0, "rental_uris": {"ios": "https://dc.lft.to/lastmile_qr_scan", "android": "https://dc.lft.to/lastmile_qr_scan"}, "bike_id": "ab6a90954d06c7feafbf0c80ad7f0734", "lat": 38.95244816666667, "name": "ab6a90954d06c7feafbf0c80ad7f0734", "lon": -76.98252533333333, "fusion_lon": 0.0}, {"is_reserved": 0, "type": "electric_scooter", "fusion_lat": 0.0, "is_disabled": 0, "rental_uris": {"ios": "https://dc.lft.to/lastmile_qr_scan", "android": "https://dc.lft.to/lastmile_qr_scan"}, "bike_id": "c585ef864d093c71951bbf58f178a2ec", "lat": 38.92245416666667, "name": "c585ef864d093c71951bbf58f178a2ec", "lon": -77.03661183333334, "fusion_lon": 0.0}, {"is_reserved": 0, "type": "electric_bike", "fusion_lat": 0.0, "is_disabled": 0, "rental_uris": {"ios": "https://dc.lft.to/lastmile_qr_scan", "android": "https://dc.lft.to/lastmile_qr_scan"}, "bike_id": "da166e2d40a7e0ba74d13c692644de4f", "lat": 39.010685333333335, "name": "da166e2d40a7e0ba74d13c692644de4f", "lon": -76.92239933333333, "fusion_lon": 0.0}, {"is_reserved": 0, "type": "electric_scooter", "fusion_lat": 0.0, "is_disabled": 0, "rental_uris": {"ios": "https://dc.lft.to/lastmile_qr_scan", "android": "https://dc.lft.to/lastmile_qr_scan"}, "bike_id": "8aed5b0127d418cca3e784300b29a91d", "lat": 38.8784515, "name": "8aed5b0127d418cca3e784300b29a91d", "lon": -76.93123766666666, "fusion_lon": 0.0}, {"is_reserved": 0, "type": "electric_scooter", "fusion_lat": 0.0, "is_disabled": 0, "rental_uris": {"ios": "https://dc.lft.to/lastmile_qr_scan", "android": "https://dc.lft.to/lastmile_qr_scan"}, "bike_id": "101e4615ebf5dd4f813fa00ddf3962c5", "lat": 38.87372716666667, "name": "101e4615ebf5dd4f813fa00ddf3962c5", "lon": -77.0018875, "fusion_lon": 0.0}, {"is_reserved": 0, "type": "electric_scooter", "fusion_lat": 0.0, "is_disabled": 0, "rental_uris": {"ios": "https://dc.lft.to/lastmile_qr_scan", "android": "https://dc.lft.to/lastmile_qr_scan"}, "bike_id": "785dde444a9f931269949524d8a004f3", "lat": 38.91872333333333, "name": "785dde444a9f931269949524d8a004f3", "lon": -77.01533766666667, "fusion_lon": 0.0}, {"is_reserved": 0, "type": "electric_scooter", "fusion_lat": 0.0, "is_disabled": 0, "rental_uris": {"ios": "https://dc.lft.to/lastmile_qr_scan", "android": "https://dc.lft.to/lastmile_qr_scan"}, "bike_id": "e92c79f9ee0a67c601619c0da6d0ec91", "lat": 38.89491016666667, "name": "e92c79f9ee0a67c601619c0da6d0ec91", "lon": -77.02177183333333, "fusion_lon": 0.0}, {"is_reserved": 0, "type": "electric_scooter", "fusion_lat": 0.0, "is_disabled": 0, "rental_uris": {"ios": "https://dc.lft.to/lastmile_qr_scan", "android": "https://dc.lft.to/lastmile_qr_scan"}, "bike_id": "9989f2145bf99bf460c912d8d23ea387", "lat": 38.90556266666667, "name": "9989f2145bf99bf460c912d8d23ea387", "lon": -77.02592616666666, "fusion_lon": 0.0}, {"is_reserved": 0, "type": "electric_scooter", "fusion_lat": 0.0, "is_disabled": 0, "rental_uris": {"ios": "https://dc.lft.to/lastmile_qr_scan", "android": "https://dc.lft.to/lastmile_qr_scan"}, "bike_id": "2f7aaa9022e1dfe6c13c3b48ad02819a", "lat": 38.898542166666665, "name": "2f7aaa9022e1dfe6c13c3b48ad02819a", "lon": -77.00742066666666, "fusion_lon": 0.0}, {"is_reserved": 0, "type": "electric_scooter", "fusion_lat": 0.0, "is_disabled": 0, "rental_uris": {"ios": "https://dc.lft.to/lastmile_qr_scan", "android": "https://dc.lft.to/lastmile_qr_scan"}, "bike_id": "c5a175f4b95388c9f55898b74264b988", "lat": 38.90186, "name": "c5a175f4b95388c9f55898b74264b988", "lon": -76.988425, "fusion_lon": 0.0}, {"is_reserved": 0, "type": "electric_scooter", "fusion_lat": 0.0, "is_disabled": 0, "rental_uris": {"ios": "https://dc.lft.to/lastmile_qr_scan", "android": "https://dc.lft.to/lastmile_qr_scan"}, "bike_id": "6040f3778a88417de11f6505c2657d8f", "lat": 38.931348166666666, "name": "6040f3778a88417de11f6505c2657d8f", "lon": -77.022011, "fusion_lon": 0.0}, {"is_reserved": 0, "type": "electric_bike", "fusion_lat": 0.0, "is_disabled": 0, "rental_uris": {"ios": "https://dc.lft.to/lastmile_qr_scan", "android": "https://dc.lft.to/lastmile_qr_scan"}, "bike_id": "3b703c8bc6bb0d4a98bbaf062963025f", "lat": 38.84282533333333, "name": "3b703c8bc6bb0d4a98bbaf062963025f", "lon": -76.98840083333333, "fusion_lon": 0.0}, {"is_reserved": 0, "type": "electric_bike", "fusion_lat": 0.0, "is_disabled": 0, "rental_uris": {"ios": "https://dc.lft.to/lastmile_qr_scan", "android": "https://dc.lft.to/lastmile_qr_scan"}, "bike_id": "76205a88788b0fc71c0b801ab93425bb", "lat": 38.908292, "name": "76205a88788b0fc71c0b801ab93425bb", "lon": -77.03865, "fusion_lon": 0.0}, {"is_reserved": 0, "type": "electric_scooter", "fusion_lat": 0.0, "is_disabled": 0, "rental_uris": {"ios": "https://dc.lft.to/lastmile_qr_scan", "android": "https://dc.lft.to/lastmile_qr_scan"}, "bike_id": "e4dc35d5c005b9c757c4e67bb7baa162", "lat": 38.91262583333334, "name": "e4dc35d5c005b9c757c4e67bb7baa162", "lon": -77.04600883333333, "fusion_lon": 0.0}, {"is_reserved": 0, "type": "electric_scooter", "fusion_lat": 0.0, "is_disabled": 0, "rental_uris": {"ios": "https://dc.lft.to/lastmile_qr_scan", "android": "https://dc.lft.to/lastmile_qr_scan"}, "bike_id": "50f93fdb7b79a9998e99120ef53db837", "lat": 38.9181035, "name": "50f93fdb7b79a9998e99120ef53db837", "lon": -77.0330545, "fusion_lon": 0.0}, {"is_reserved": 0, "type": "electric_scooter", "fusion_lat": 0.0, "is_disabled": 0, "rental_uris": {"ios": "https://dc.lft.to/lastmile_qr_scan", "android": "https://dc.lft.to/lastmile_qr_scan"}, "bike_id": "1dd497e405652fc91920cb5590b6d4a8", "lat": 38.906557, "name": "1dd497e405652fc91920cb5590b6d4a8", "lon": -77.04556333333333, "fusion_lon": 0.0}, {"is_reserved": 0, "type": "electric_scooter", "fusion_lat": 0.0, "is_disabled": 0, "rental_uris": {"ios": "https://dc.lft.to/lastmile_qr_scan", "android": "https://dc.lft.to/lastmile_qr_scan"}, "bike_id": "ab7914a26025b6007ace1e36534a6faf", "lat": 38.87647716666667, "name": "ab7914a26025b6007ace1e36534a6faf", "lon": -77.000837, "fusion_lon": 0.0}, {"is_reserved": 0, "type": "electric_scooter", "fusion_lat": 0.0, "is_disabled": 0, "rental_uris": {"ios": "https://dc.lft.to/lastmile_qr_scan", "android": "https://dc.lft.to/lastmile_qr_scan"}, "bike_id": "549ab7e511b22ace193c40659f8e19fc", "lat": 38.945919333333336, "name": "549ab7e511b22ace193c40659f8e19fc", "lon": -77.02031766666667, "fusion_lon": 0.0}, {"is_reserved": 0, "type": "electric_scooter", "fusion_lat": 0.0, "is_disabled": 0, "rental_uris": {"ios": "https://dc.lft.to/lastmile_qr_scan", "android": "https://dc.lft.to/lastmile_qr_scan"}, "bike_id": "1f455346fc26f411a6508533848e9e5c", "lat": 38.92859933333333, "name": "1f455346fc26f411a6508533848e9e5c", "lon": -77.037383, "fusion_lon": 0.0}, {"is_reserved": 0, "type": "electric_scooter", "fusion_lat": 0.0, "is_disabled": 0, "rental_uris": {"ios": "https://dc.lft.to/lastmile_qr_scan", "android": "https://dc.lft.to/lastmile_qr_scan"}, "bike_id": "1ec03c434f2e88cb33eda5c9cd0e5ab2", "lat": 38.91992366666667, "name": "1ec03c434f2e88cb33eda5c9cd0e5ab2", "lon": -76.9729985, "fusion_lon": 0.0}, {"is_reserved": 0, "type": "electric_scooter", "fusion_lat": 0.0, "is_disabled": 0, "rental_uris": {"ios": "https://dc.lft.to/lastmile_qr_scan", "android": "https://dc.lft.to/lastmile_qr_scan"}, "bike_id": "f5ead9c72b659239a6121524459ed8e7", "lat": 38.90232183333333, "name": "f5ead9c72b659239a6121524459ed8e7", "lon": -77.015722, "fusion_lon": 0.0}, {"is_reserved": 0, "type": "electric_scooter", "fusion_lat": 0.0, "is_disabled": 0, "rental_uris": {"ios": "https://dc.lft.to/lastmile_qr_scan", "android": "https://dc.lft.to/lastmile_qr_scan"}, "bike_id": "d4902f87fa245e9108c25c70da9ee1f7", "lat": 38.905646833333336, "name": "d4902f87fa245e9108c25c70da9ee1f7", "lon": -77.00568533333333, "fusion_lon": 0.0}, {"is_reserved": 0, "type": "electric_scooter", "fusion_lat": 0.0, "is_disabled": 0, "rental_uris": {"ios": "https://dc.lft.to/lastmile_qr_scan", "android": "https://dc.lft.to/lastmile_qr_scan"}, "bike_id": "f04970aa48e1550f8dd15c0a3112a2d8", "lat": 38.9124125, "name": "f04970aa48e1550f8dd15c0a3112a2d8", "lon": -77.0091915, "fusion_lon": 0.0}, {"is_reserved": 0, "type": "electric_scooter", "fusion_lat": 0.0, "is_disabled": 0, "rental_uris": {"ios": "https://dc.lft.to/lastmile_qr_scan", "android": "https://dc.lft.to/lastmile_qr_scan"}, "bike_id": "afd5d33308fc67c7008a77e5b0f04c4c", "lat": 38.918476, "name": "afd5d33308fc67c7008a77e5b0f04c4c", "lon": -77.04178066666667, "fusion_lon": 0.0}, {"is_reserved": 0, "type": "electric_scooter", "fusion_lat": 0.0, "is_disabled": 0, "rental_uris": {"ios": "https://dc.lft.to/lastmile_qr_scan", "android": "https://dc.lft.to/lastmile_qr_scan"}, "bike_id": "4acf24e2bcf21fd9fee6f325bdc73c47", "lat": 38.920002, "name": "4acf24e2bcf21fd9fee6f325bdc73c47", "lon": -77.0322235, "fusion_lon": 0.0}, {"is_reserved": 0, "type": "electric_scooter", "fusion_lat": 0.0, "is_disabled": 0, "rental_uris": {"ios": "https://dc.lft.to/lastmile_qr_scan", "android": "https://dc.lft.to/lastmile_qr_scan"}, "bike_id": "901e3f84a5f0be4b319350c5bd20d072", "lat": 38.90566283333333, "name": "901e3f84a5f0be4b319350c5bd20d072", "lon": -77.0172515, "fusion_lon": 0.0}, {"is_reserved": 0, "type": "electric_scooter", "fusion_lat": 0.0, "is_disabled": 0, "rental_uris": {"ios": "https://dc.lft.to/lastmile_qr_scan", "android": "https://dc.lft.to/lastmile_qr_scan"}, "bike_id": "bc042474cf513a56965f5cf06e53eed2", "lat": 38.85548416666666, "name": "bc042474cf513a56965f5cf06e53eed2", "lon": -76.9865815, "fusion_lon": 0.0}, {"is_reserved": 0, "type": "electric_scooter", "fusion_lat": 0.0, "is_disabled": 0, "rental_uris": {"ios": "https://dc.lft.to/lastmile_qr_scan", "android": "https://dc.lft.to/lastmile_qr_scan"}, "bike_id": "ba6e1e813da73e62e342575ced91f678", "lat": 38.92367516666667, "name": "ba6e1e813da73e62e342575ced91f678", "lon": -77.05130916666667, "fusion_lon": 0.0}, {"is_reserved": 0, "type": "electric_scooter", "fusion_lat": 0.0, "is_disabled": 0, "rental_uris": {"ios": "https://dc.lft.to/lastmile_qr_scan", "android": "https://dc.lft.to/lastmile_qr_scan"}, "bike_id": "4b20335e51742454b561636f7c1e0888", "lat": 38.8984375, "name": "4b20335e51742454b561636f7c1e0888", "lon": -77.0287295, "fusion_lon": 0.0}, {"is_reserved": 0, "type": "electric_scooter", "fusion_lat": 0.0, "is_disabled": 0, "rental_uris": {"ios": "https://dc.lft.to/lastmile_qr_scan", "android": "https://dc.lft.to/lastmile_qr_scan"}, "bike_id": "481bd0e9bdfff07e012b6304dafcb997", "lat": 38.95560833333333, "name": "481bd0e9bdfff07e012b6304dafcb997", "lon": -77.03322533333333, "fusion_lon": 0.0}, {"is_reserved": 0, "type": "electric_scooter", "fusion_lat": 0.0, "is_disabled": 0, "rental_uris": {"ios": "https://dc.lft.to/lastmile_qr_scan", "android": "https://dc.lft.to/lastmile_qr_scan"}, "bike_id": "bc5486839d89fdf8f61948a4f8fc6a57", "lat": 38.90795133333334, "name": "bc5486839d89fdf8f61948a4f8fc6a57", "lon": -77.0295385, "fusion_lon": 0.0}, {"is_reserved": 0, "type": "electric_scooter", "fusion_lat": 0.0, "is_disabled": 0, "rental_uris": {"ios": "https://dc.lft.to/lastmile_qr_scan", "android": "https://dc.lft.to/lastmile_qr_scan"}, "bike_id": "0b2e5c7352e02a2f774fbefd61494497", "lat": 38.901856333333335, "name": "0b2e5c7352e02a2f774fbefd61494497", "lon": -76.998509, "fusion_lon": 0.0}, {"is_reserved": 0, "type": "electric_scooter", "fusion_lat": 0.0, "is_disabled": 0, "rental_uris": {"ios": "https://dc.lft.to/lastmile_qr_scan", "android": "https://dc.lft.to/lastmile_qr_scan"}, "bike_id": "dcd8b75d74b4987a96610cf604c0b864", "lat": 38.9217415, "name": "dcd8b75d74b4987a96610cf604c0b864", "lon": -77.04016083333333, "fusion_lon": 0.0}, {"is_reserved": 0, "type": "electric_scooter", "fusion_lat": 0.0, "is_disabled": 0, "rental_uris": {"ios": "https://dc.lft.to/lastmile_qr_scan", "android": "https://dc.lft.to/lastmile_qr_scan"}, "bike_id": "f842932614293ab9d8c767940f2a8add", "lat": 38.9091075, "name": "f842932614293ab9d8c767940f2a8add", "lon": -77.03513633333333, "fusion_lon": 0.0}, {"is_reserved": 0, "type": "electric_scooter", "fusion_lat": 0.0, "is_disabled": 0, "rental_uris": {"ios": "https://dc.lft.to/lastmile_qr_scan", "android": "https://dc.lft.to/lastmile_qr_scan"}, "bike_id": "2329aa881a157b13e272edffcb152e93", "lat": 38.9156475, "name": "2329aa881a157b13e272edffcb152e93", "lon": -77.0088645, "fusion_lon": 0.0}, {"is_reserved": 0, "type": "electric_scooter", "fusion_lat": 0.0, "is_disabled": 0, "rental_uris": {"ios": "https://dc.lft.to/lastmile_qr_scan", "android": "https://dc.lft.to/lastmile_qr_scan"}, "bike_id": "a40c613e0413185b323af1530125f896", "lat": 38.9234375, "name": "a40c613e0413185b323af1530125f896", "lon": -77.05785766666666, "fusion_lon": 0.0}, {"is_reserved": 0, "type": "electric_scooter", "fusion_lat": 0.0, "is_disabled": 0, "rental_uris": {"ios": "https://dc.lft.to/lastmile_qr_scan", "android": "https://dc.lft.to/lastmile_qr_scan"}, "bike_id": "b7acafaf545c66d09aaa2538dee3652e", "lat": 38.91924366666667, "name": "b7acafaf545c66d09aaa2538dee3652e", "lon": -77.03174833333334, "fusion_lon": 0.0}, {"is_reserved": 0, "type": "electric_scooter", "fusion_lat": 0.0, "is_disabled": 0, "rental_uris": {"ios": "https://dc.lft.to/lastmile_qr_scan", "android": "https://dc.lft.to/lastmile_qr_scan"}, "bike_id": "ca270083e5278a2c1873677171c22fef", "lat": 38.90752233333333, "name": "ca270083e5278a2c1873677171c22fef", "lon": -77.0416375, "fusion_lon": 0.0}, {"is_reserved": 0, "type": "electric_scooter", "fusion_lat": 0.0, "is_disabled": 0, "rental_uris": {"ios": "https://dc.lft.to/lastmile_qr_scan", "android": "https://dc.lft.to/lastmile_qr_scan"}, "bike_id": "a580b97abac2156caba2df74c1c5b365", "lat": 38.87638666666667, "name": "a580b97abac2156caba2df74c1c5b365", "lon": -76.9929305, "fusion_lon": 0.0}, {"is_reserved": 0, "type": "electric_scooter", "fusion_lat": 0.0, "is_disabled": 0, "rental_uris": {"ios": "https://dc.lft.to/lastmile_qr_scan", "android": "https://dc.lft.to/lastmile_qr_scan"}, "bike_id": "ad5d4e62ebb90d5749ff7c68be90e99a", "lat": 38.932151, "name": "ad5d4e62ebb90d5749ff7c68be90e99a", "lon": -77.03266566666667, "fusion_lon": 0.0}, {"is_reserved": 0, "type": "electric_scooter", "fusion_lat": 0.0, "is_disabled": 0, "rental_uris": {"ios": "https://dc.lft.to/lastmile_qr_scan", "android": "https://dc.lft.to/lastmile_qr_scan"}, "bike_id": "dad6a6b74a3560ec3caa86a7ecff2106", "lat": 38.91593316666667, "name": "dad6a6b74a3560ec3caa86a7ecff2106", "lon": -76.98293733333334, "fusion_lon": 0.0}, {"is_reserved": 0, "type": "electric_bike", "fusion_lat": 0.0, "is_disabled": 0, "rental_uris": {"ios": "https://dc.lft.to/lastmile_qr_scan", "android": "https://dc.lft.to/lastmile_qr_scan"}, "bike_id": "7e6f8e8728a7ebd8c364c109f70a53e8", "lat": 38.831617333333334, "name": "7e6f8e8728a7ebd8c364c109f70a53e8", "lon": -76.99589933333333, "fusion_lon": 0.0}, {"is_reserved": 0, "type": "electric_scooter", "fusion_lat": 0.0, "is_disabled": 0, "rental_uris": {"ios": "https://dc.lft.to/lastmile_qr_scan", "android": "https://dc.lft.to/lastmile_qr_scan"}, "bike_id": "cb502fe53dbb879bbd31c83a80eeded5", "lat": 38.874792166666666, "name": "cb502fe53dbb879bbd31c83a80eeded5", "lon": -77.00490933333333, "fusion_lon": 0.0}, {"is_reserved": 0, "type": "electric_scooter", "fusion_lat": 0.0, "is_disabled": 0, "rental_uris": {"ios": "https://dc.lft.to/lastmile_qr_scan", "android": "https://dc.lft.to/lastmile_qr_scan"}, "bike_id": "bea95083659fcaee803ab63a0884aee1", "lat": 38.918159, "name": "bea95083659fcaee803ab63a0884aee1", "lon": -77.024781, "fusion_lon": 0.0}, {"is_reserved": 0, "type": "electric_scooter", "fusion_lat": 0.0, "is_disabled": 0, "rental_uris": {"ios": "https://dc.lft.to/lastmile_qr_scan", "android": "https://dc.lft.to/lastmile_qr_scan"}, "bike_id": "2e2edb88f158dc22fde3da4a4a8b5143", "lat": 38.89229066666667, "name": "2e2edb88f158dc22fde3da4a4a8b5143", "lon": -77.03218983333333, "fusion_lon": 0.0}, {"is_reserved": 0, "type": "electric_scooter", "fusion_lat": 0.0, "is_disabled": 0, "rental_uris": {"ios": "https://dc.lft.to/lastmile_qr_scan", "android": "https://dc.lft.to/lastmile_qr_scan"}, "bike_id": "d21dfab8fab97a2bdacf70dab6ca64d1", "lat": 38.935122666666665, "name": "d21dfab8fab97a2bdacf70dab6ca64d1", "lon": -77.05689966666667, "fusion_lon": 0.0}, {"is_reserved": 0, "type": "electric_scooter", "fusion_lat": 0.0, "is_disabled": 0, "rental_uris": {"ios": "https://dc.lft.to/lastmile_qr_scan", "android": "https://dc.lft.to/lastmile_qr_scan"}, "bike_id": "0d61853741c74e6842a2e7bf6061c2f2", "lat": 38.9042555, "name": "0d61853741c74e6842a2e7bf6061c2f2", "lon": -77.03276483333333, "fusion_lon": 0.0}, {"is_reserved": 0, "type": "electric_scooter", "fusion_lat": 0.0, "is_disabled": 0, "rental_uris": {"ios": "https://dc.lft.to/lastmile_qr_scan", "android": "https://dc.lft.to/lastmile_qr_scan"}, "bike_id": "abe0af4213510650e4ec68725e98a49e", "lat": 38.917125166666665, "name": "abe0af4213510650e4ec68725e98a49e", "lon": -77.02946433333334, "fusion_lon": 0.0}, {"is_reserved": 0, "type": "electric_scooter", "fusion_lat": 0.0, "is_disabled": 0, "rental_uris": {"ios": "https://dc.lft.to/lastmile_qr_scan", "android": "https://dc.lft.to/lastmile_qr_scan"}, "bike_id": "7116391ddcded5f43447043a162d8fae", "lat": 38.908617, "name": "7116391ddcded5f43447043a162d8fae", "lon": -77.0235015, "fusion_lon": 0.0}, {"is_reserved": 0, "type": "electric_scooter", "fusion_lat": 0.0, "is_disabled": 0, "rental_uris": {"ios": "https://dc.lft.to/lastmile_qr_scan", "android": "https://dc.lft.to/lastmile_qr_scan"}, "bike_id": "087905b6a946c0e3ebbc1d756d56b7d5", "lat": 38.9219905, "name": "087905b6a946c0e3ebbc1d756d56b7d5", "lon": -77.02040283333334, "fusion_lon": 0.0}, {"is_reserved": 0, "type": "electric_scooter", "fusion_lat": 0.0, "is_disabled": 0, "rental_uris": {"ios": "https://dc.lft.to/lastmile_qr_scan", "android": "https://dc.lft.to/lastmile_qr_scan"}, "bike_id": "32ccfe09274554706cd1d3baa26bc725", "lat": 38.897466, "name": "32ccfe09274554706cd1d3baa26bc725", "lon": -76.996101, "fusion_lon": 0.0}, {"is_reserved": 0, "type": "electric_scooter", "fusion_lat": 0.0, "is_disabled": 0, "rental_uris": {"ios": "https://dc.lft.to/lastmile_qr_scan", "android": "https://dc.lft.to/lastmile_qr_scan"}, "bike_id": "82163f95019cec7df5caf1c7ed88d1a1", "lat": 38.92766183333333, "name": "82163f95019cec7df5caf1c7ed88d1a1", "lon": -77.05268616666666, "fusion_lon": 0.0}, {"is_reserved": 0, "type": "electric_scooter", "fusion_lat": 0.0, "is_disabled": 0, "rental_uris": {"ios": "https://dc.lft.to/lastmile_qr_scan", "android": "https://dc.lft.to/lastmile_qr_scan"}, "bike_id": "d5e3b031a7934b172b5bd43dbea2f451", "lat": 38.884545833333334, "name": "d5e3b031a7934b172b5bd43dbea2f451", "lon": -77.0233285, "fusion_lon": 0.0}, {"is_reserved": 0, "type": "electric_scooter", "fusion_lat": 0.0, "is_disabled": 0, "rental_uris": {"ios": "https://dc.lft.to/lastmile_qr_scan", "android": "https://dc.lft.to/lastmile_qr_scan"}, "bike_id": "be110b16ddb577901ad353bb1072608c", "lat": 38.88058383333333, "name": "be110b16ddb577901ad353bb1072608c", "lon": -77.0175365, "fusion_lon": 0.0}, {"is_reserved": 0, "type": "electric_scooter", "fusion_lat": 0.0, "is_disabled": 0, "rental_uris": {"ios": "https://dc.lft.to/lastmile_qr_scan", "android": "https://dc.lft.to/lastmile_qr_scan"}, "bike_id": "e3cd49f4dd71fe60a8414e87107771b7", "lat": 38.88620316666667, "name": "e3cd49f4dd71fe60a8414e87107771b7", "lon": -76.92634, "fusion_lon": 0.0}, {"is_reserved": 0, "type": "electric_scooter", "fusion_lat": 0.0, "is_disabled": 0, "rental_uris": {"ios": "https://dc.lft.to/lastmile_qr_scan", "android": "https://dc.lft.to/lastmile_qr_scan"}, "bike_id": "079534c6363818636c1b2603db2cc867", "lat": 38.929861833333334, "name": "079534c6363818636c1b2603db2cc867", "lon": -77.05505066666667, "fusion_lon": 0.0}, {"is_reserved": 0, "type": "electric_scooter", "fusion_lat": 0.0, "is_disabled": 0, "rental_uris": {"ios": "https://dc.lft.to/lastmile_qr_scan", "android": "https://dc.lft.to/lastmile_qr_scan"}, "bike_id": "a19598ae66e44310945c5a1c9542a3f5", "lat": 38.91938116666667, "name": "a19598ae66e44310945c5a1c9542a3f5", "lon": -76.9996075, "fusion_lon": 0.0}, {"is_reserved": 0, "type": "electric_scooter", "fusion_lat": 0.0, "is_disabled": 0, "rental_uris": {"ios": "https://dc.lft.to/lastmile_qr_scan", "android": "https://dc.lft.to/lastmile_qr_scan"}, "bike_id": "f841c33f54c55a39f7b96814ca78c77b", "lat": 38.95593233333334, "name": "f841c33f54c55a39f7b96814ca78c77b", "lon": -77.01784566666667, "fusion_lon": 0.0}, {"is_reserved": 0, "type": "electric_bike", "fusion_lat": 0.0, "is_disabled": 0, "rental_uris": {"ios": "https://dc.lft.to/lastmile_qr_scan", "android": "https://dc.lft.to/lastmile_qr_scan"}, "bike_id": "a04992e1a47c1695bcac7b7e983049c8", "lat": 39.026469666666664, "name": "a04992e1a47c1695bcac7b7e983049c8", "lon": -77.03686383333333, "fusion_lon": 0.0}, {"is_reserved": 0, "type": "electric_scooter", "fusion_lat": 0.0, "is_disabled": 0, "rental_uris": {"ios": "https://dc.lft.to/lastmile_qr_scan", "android": "https://dc.lft.to/lastmile_qr_scan"}, "bike_id": "7a05f9c3c72162cf8c4157bbed49f6ac", "lat": 38.93467033333334, "name": "7a05f9c3c72162cf8c4157bbed49f6ac", "lon": -77.02767133333333, "fusion_lon": 0.0}, {"is_reserved": 0, "type": "electric_scooter", "fusion_lat": 0.0, "is_disabled": 0, "rental_uris": {"ios": "https://dc.lft.to/lastmile_qr_scan", "android": "https://dc.lft.to/lastmile_qr_scan"}, "bike_id": "f86f287d47d464be8b8a685683df7a72", "lat": 38.90512616666667, "name": "f86f287d47d464be8b8a685683df7a72", "lon": -76.95199683333334, "fusion_lon": 0.0}, {"is_reserved": 0, "type": "electric_scooter", "fusion_lat": 0.0, "is_disabled": 0, "rental_uris": {"ios": "https://dc.lft.to/lastmile_qr_scan", "android": "https://dc.lft.to/lastmile_qr_scan"}, "bike_id": "20c3a29a56367f60cd84c06bd9f97134", "lat": 38.873765666666664, "name": "20c3a29a56367f60cd84c06bd9f97134", "lon": -77.00131016666667, "fusion_lon": 0.0}, {"is_reserved": 0, "type": "electric_scooter", "fusion_lat": 0.0, "is_disabled": 0, "rental_uris": {"ios": "https://dc.lft.to/lastmile_qr_scan", "android": "https://dc.lft.to/lastmile_qr_scan"}, "bike_id": "e26fd13a72d66a450e3e40630263b0bd", "lat": 38.89345183333333, "name": "e26fd13a72d66a450e3e40630263b0bd", "lon": -76.9855815, "fusion_lon": 0.0}, {"is_reserved": 0, "type": "electric_scooter", "fusion_lat": 0.0, "is_disabled": 0, "rental_uris": {"ios": "https://dc.lft.to/lastmile_qr_scan", "android": "https://dc.lft.to/lastmile_qr_scan"}, "bike_id": "bf5d2cf4187426d180edc3a2183aec70", "lat": 38.92808183333333, "name": "bf5d2cf4187426d180edc3a2183aec70", "lon": -77.0369205, "fusion_lon": 0.0}, {"is_reserved": 0, "type": "electric_scooter", "fusion_lat": 0.0, "is_disabled": 0, "rental_uris": {"ios": "https://dc.lft.to/lastmile_qr_scan", "android": "https://dc.lft.to/lastmile_qr_scan"}, "bike_id": "cecc6266fa9c04c73e44b78b2fd897ec", "lat": 38.877420666666666, "name": "cecc6266fa9c04c73e44b78b2fd897ec", "lon": -77.005875, "fusion_lon": 0.0}, {"is_reserved": 0, "type": "electric_scooter", "fusion_lat": 0.0, "is_disabled": 0, "rental_uris": {"ios": "https://dc.lft.to/lastmile_qr_scan", "android": "https://dc.lft.to/lastmile_qr_scan"}, "bike_id": "c3b66be1c21da4a1889af042b33514f0", "lat": 38.89882266666667, "name": "c3b66be1c21da4a1889af042b33514f0", "lon": -77.02183316666667, "fusion_lon": 0.0}, {"is_reserved": 0, "type": "electric_scooter", "fusion_lat": 0.0, "is_disabled": 0, "rental_uris": {"ios": "https://dc.lft.to/lastmile_qr_scan", "android": "https://dc.lft.to/lastmile_qr_scan"}, "bike_id": "f46821e6c71639f2436d6a2be88de5b9", "lat": 38.91870683333333, "name": "f46821e6c71639f2436d6a2be88de5b9", "lon": -77.035232, "fusion_lon": 0.0}, {"is_reserved": 0, "type": "electric_scooter", "fusion_lat": 0.0, "is_disabled": 0, "rental_uris": {"ios": "https://dc.lft.to/lastmile_qr_scan", "android": "https://dc.lft.to/lastmile_qr_scan"}, "bike_id": "61daee64e36cdee8156f821a6a6bb165", "lat": 38.93590066666667, "name": "61daee64e36cdee8156f821a6a6bb165", "lon": -77.0743395, "fusion_lon": 0.0}, {"is_reserved": 0, "type": "electric_scooter", "fusion_lat": 0.0, "is_disabled": 0, "rental_uris": {"ios": "https://dc.lft.to/lastmile_qr_scan", "android": "https://dc.lft.to/lastmile_qr_scan"}, "bike_id": "8d6bbd788fb4611f7396291174fe7c93", "lat": 38.9068615, "name": "8d6bbd788fb4611f7396291174fe7c93", "lon": -77.0271775, "fusion_lon": 0.0}, {"is_reserved": 0, "type": "electric_scooter", "fusion_lat": 0.0, "is_disabled": 0, "rental_uris": {"ios": "https://dc.lft.to/lastmile_qr_scan", "android": "https://dc.lft.to/lastmile_qr_scan"}, "bike_id": "39c5492e7dfe6af909c248c3ad8841b4", "lat": 38.90075016666667, "name": "39c5492e7dfe6af909c248c3ad8841b4", "lon": -77.0500205, "fusion_lon": 0.0}, {"is_reserved": 0, "type": "electric_scooter", "fusion_lat": 0.0, "is_disabled": 0, "rental_uris": {"ios": "https://dc.lft.to/lastmile_qr_scan", "android": "https://dc.lft.to/lastmile_qr_scan"}, "bike_id": "a41d05a78b4d395bd60afd5eb902d3be", "lat": 38.9072505, "name": "a41d05a78b4d395bd60afd5eb902d3be", "lon": -77.0258235, "fusion_lon": 0.0}, {"is_reserved": 0, "type": "electric_scooter", "fusion_lat": 0.0, "is_disabled": 0, "rental_uris": {"ios": "https://dc.lft.to/lastmile_qr_scan", "android": "https://dc.lft.to/lastmile_qr_scan"}, "bike_id": "215cc66c6efab8bbfb0bb426979c2d0e", "lat": 38.91698183333333, "name": "215cc66c6efab8bbfb0bb426979c2d0e", "lon": -77.0272205, "fusion_lon": 0.0}, {"is_reserved": 0, "type": "electric_bike", "fusion_lat": 0.0, "is_disabled": 0, "rental_uris": {"ios": "https://dc.lft.to/lastmile_qr_scan", "android": "https://dc.lft.to/lastmile_qr_scan"}, "bike_id": "e894af79914e876c821339d20403af97", "lat": 38.896347166666665, "name": "e894af79914e876c821339d20403af97", "lon": -77.02806166666667, "fusion_lon": 0.0}, {"is_reserved": 0, "type": "electric_scooter", "fusion_lat": 0.0, "is_disabled": 0, "rental_uris": {"ios": "https://dc.lft.to/lastmile_qr_scan", "android": "https://dc.lft.to/lastmile_qr_scan"}, "bike_id": "05afcd4030cf30f9655328927cc9ed07", "lat": 38.9676365, "name": "05afcd4030cf30f9655328927cc9ed07", "lon": -77.03423233333334, "fusion_lon": 0.0}, {"is_reserved": 0, "type": "electric_scooter", "fusion_lat": 0.0, "is_disabled": 0, "rental_uris": {"ios": "https://dc.lft.to/lastmile_qr_scan", "android": "https://dc.lft.to/lastmile_qr_scan"},