{"data": {"bikes": [{"lon": -77.02230316666666, "bike_id": "9d1549493c1a3b94b409c93cc3ca1ac6", "lat": 38.92615083333333, "fusion_lon": 0.0, "fusion_lat": 0.0, "type": "electric_scooter", "name": "9d1549493c1a3b94b409c93cc3ca1ac6", "is_disabled": 0, "rental_uris": {"ios": "https://dc.lft.to/lastmile_qr_scan", "android": "https://dc.lft.to/lastmile_qr_scan"}, "is_reserved": 0}, {"lon": -77.026058, "bike_id": "251ce51c8be8c4fc9eeb519060742319", "lat": 38.9825815, "fusion_lon": 0.0, "fusion_lat": 0.0, "type": "electric_bike", "name": "251ce51c8be8c4fc9eeb519060742319", "is_disabled": 0, "rental_uris": {"ios": "https://dc.lft.to/lastmile_qr_scan", "android": "https://dc.lft.to/lastmile_qr_scan"}, "is_reserved": 0}, {"lon": -77.02616216666667, "bike_id": "3e0b8dcc739f1b82db98705e0fd54b21", "lat": 38.902460166666664, "fusion_lon": 0.0, "fusion_lat": 0.0, "type": "electric_scooter", "name": "3e0b8dcc739f1b82db98705e0fd54b21", "is_disabled": 0, "rental_uris": {"ios": "https://dc.lft.to/lastmile_qr_scan", "android": "https://dc.lft.to/lastmile_qr_scan"}, "is_reserved": 0}, {"lon": -77.06977833333333, "bike_id": "f612e479d2db09ac501b8683edd38518", "lat": 38.9525285, "fusion_lon": 0.0, "fusion_lat": 0.0, "type": "electric_scooter", "name": "f612e479d2db09ac501b8683edd38518", "is_disabled": 0, "rental_uris": {"ios": "https://dc.lft.to/lastmile_qr_scan", "android": "https://dc.lft.to/lastmile_qr_scan"}, "is_reserved": 0}, {"lon": -77.044061, "bike_id": "3a7071e31c8b448405e80d49b8896fab", "lat": 38.924524166666664, "fusion_lon": 0.0, "fusion_lat": 0.0, "type": "electric_scooter", "name": "3a7071e31c8b448405e80d49b8896fab", "is_disabled": 0, "rental_uris": {"ios": "https://dc.lft.to/lastmile_qr_scan", "android": "https://dc.lft.to/lastmile_qr_scan"}, "is_reserved": 0}, {"lon": -76.98840866666667, "bike_id": "accaee01b770021b3a6726e66f5feedb", "lat": 38.890448166666665, "fusion_lon": 0.0, "fusion_lat": 0.0, "type": "electric_bike", "name": "accaee01b770021b3a6726e66f5feedb", "is_disabled": 0, "rental_uris": {"ios": "https://dc.lft.to/lastmile_qr_scan", "android": "https://dc.lft.to/lastmile_qr_scan"}, "is_reserved": 0}, {"lon": -77.03332466666667, "bike_id": "8ed556bedfe3d1e7e1d4aaac371e3b2c", "lat": 38.92870683333334, "fusion_lon": 0.0, "fusion_lat": 0.0, "type": "electric_scooter", "name": "8ed556bedfe3d1e7e1d4aaac371e3b2c", "is_disabled": 0, "rental_uris": {"ios": "https://dc.lft.to/lastmile_qr_scan", "android": "https://dc.lft.to/lastmile_qr_scan"}, "is_reserved": 0}, {"lon": -77.02120433333333, "bike_id": "27366b3040d18930daecf4a00933709d", "lat": 38.905744, "fusion_lon": 0.0, "fusion_lat": 0.0, "type": "electric_scooter", "name": "27366b3040d18930daecf4a00933709d", "is_disabled": 0, "rental_uris": {"ios": "https://dc.lft.to/lastmile_qr_scan", "android": "https://dc.lft.to/lastmile_qr_scan"}, "is_reserved": 0}, {"lon": -77.024496, "bike_id": "80ad2f33960bb4ccce454673dcbb0450", "lat": 38.90718416666667, "fusion_lon": 0.0, "fusion_lat": 0.0, "type": "electric_scooter", "name": "80ad2f33960bb4ccce454673dcbb0450", "is_disabled": 0, "rental_uris": {"ios": "https://dc.lft.to/lastmile_qr_scan", "android": "https://dc.lft.to/lastmile_qr_scan"}, "is_reserved": 0}, {"lon": -76.9892435, "bike_id": "5f828c0d260db2afc9f485056594de7b", "lat": 38.858094, "fusion_lon": 0.0, "fusion_lat": 0.0, "type": "electric_scooter", "name": "5f828c0d260db2afc9f485056594de7b", "is_disabled": 0, "rental_uris": {"ios": "https://dc.lft.to/lastmile_qr_scan", "android": "https://dc.lft.to/lastmile_qr_scan"}, "is_reserved": 0}, {"lon": -77.04177733333333, "bike_id": "138ef59b719fbe0287ed35c89d6bb606", "lat": 38.906787, "fusion_lon": 0.0, "fusion_lat": 0.0, "type": "electric_scooter", "name": "138ef59b719fbe0287ed35c89d6bb606", "is_disabled": 0, "rental_uris": {"ios": "https://dc.lft.to/lastmile_qr_scan", "android": "https://dc.lft.to/lastmile_qr_scan"}, "is_reserved": 0}, {"lon": -77.03261133333334, "bike_id": "ef4b914bc3e123f25a1e064c5136f889", "lat": 38.91176016666667, "fusion_lon": 0.0, "fusion_lat": 0.0, "type": "electric_scooter", "name": "ef4b914bc3e123f25a1e064c5136f889", "is_disabled": 0, "rental_uris": {"ios": "https://dc.lft.to/lastmile_qr_scan", "android": "https://dc.lft.to/lastmile_qr_scan"}, "is_reserved": 0}, {"lon": -77.025185, "bike_id": "2503bd961ac5deff24f96e76c6def4e8", "lat": 38.91264116666667, "fusion_lon": 0.0, "fusion_lat": 0.0, "type": "electric_scooter", "name": "2503bd961ac5deff24f96e76c6def4e8", "is_disabled": 0, "rental_uris": {"ios": "https://dc.lft.to/lastmile_qr_scan", "android": "https://dc.lft.to/lastmile_qr_scan"}, "is_reserved": 0}, {"lon": -77.07655616666666, "bike_id": "e1aa0a43cbb6de1e47f66f8ea5a6ef8d", "lat": 38.94778866666667, "fusion_lon": 0.0, "fusion_lat": 0.0, "type": "electric_scooter", "name": "e1aa0a43cbb6de1e47f66f8ea5a6ef8d", "is_disabled": 0, "rental_uris": {"ios": "https://dc.lft.to/lastmile_qr_scan", "android": "https://dc.lft.to/lastmile_qr_scan"}, "is_reserved": 0}, {"lon": -77.05892983333334, "bike_id": "9ea3d7ef875a0112da7e5f6d20a6bd97", "lat": 38.942417166666665, "fusion_lon": 0.0, "fusion_lat": 0.0, "type": "electric_scooter", "name": "9ea3d7ef875a0112da7e5f6d20a6bd97", "is_disabled": 0, "rental_uris": {"ios": "https://dc.lft.to/lastmile_qr_scan", "android": "https://dc.lft.to/lastmile_qr_scan"}, "is_reserved": 0}, {"lon": -77.07343966666667, "bike_id": "d8e32046db91259d9006e94644cdd4cd", "lat": 38.91101666666667, "fusion_lon": 0.0, "fusion_lat": 0.0, "type": "electric_scooter", "name": "d8e32046db91259d9006e94644cdd4cd", "is_disabled": 0, "rental_uris": {"ios": "https://dc.lft.to/lastmile_qr_scan", "android": "https://dc.lft.to/lastmile_qr_scan"}, "is_reserved": 0}, {"lon": -77.01741983333334, "bike_id": "137380bd8f72eec283a05b9b00c21037", "lat": 38.872677833333334, "fusion_lon": 0.0, "fusion_lat": 0.0, "type": "electric_scooter", "name": "137380bd8f72eec283a05b9b00c21037", "is_disabled": 0, "rental_uris": {"ios": "https://dc.lft.to/lastmile_qr_scan", "android": "https://dc.lft.to/lastmile_qr_scan"}, "is_reserved": 0}, {"lon": -77.01562, "bike_id": "f9baa67da9806be5c20c35e6eefc260a", "lat": 38.8803045, "fusion_lon": 0.0, "fusion_lat": 0.0, "type": "electric_scooter", "name": "f9baa67da9806be5c20c35e6eefc260a", "is_disabled": 0, "rental_uris": {"ios": "https://dc.lft.to/lastmile_qr_scan", "android": "https://dc.lft.to/lastmile_qr_scan"}, "is_reserved": 0}, {"lon": -77.03240316666667, "bike_id": "fbfaea19acb93ddb593f546145dd2154", "lat": 38.91561983333333, "fusion_lon": 0.0, "fusion_lat": 0.0, "type": "electric_scooter", "name": "fbfaea19acb93ddb593f546145dd2154", "is_disabled": 0, "rental_uris": {"ios": "https://dc.lft.to/lastmile_qr_scan", "android": "https://dc.lft.to/lastmile_qr_scan"}, "is_reserved": 0}, {"lon": -77.032831, "bike_id": "b62aa9f9416f6ddda694884e03befb5e", "lat": 38.93202733333333, "fusion_lon": 0.0, "fusion_lat": 0.0, "type": "electric_scooter", "name": "b62aa9f9416f6ddda694884e03befb5e", "is_disabled": 0, "rental_uris": {"ios": "https://dc.lft.to/lastmile_qr_scan", "android": "https://dc.lft.to/lastmile_qr_scan"}, "is_reserved": 0}, {"lon": -77.031403, "bike_id": "05984cfb47fcba505c8b2e52630d90dd", "lat": 38.91553416666667, "fusion_lon": 0.0, "fusion_lat": 0.0, "type": "electric_scooter", "name": "05984cfb47fcba505c8b2e52630d90dd", "is_disabled": 0, "rental_uris": {"ios": "https://dc.lft.to/lastmile_qr_scan", "android": "https://dc.lft.to/lastmile_qr_scan"}, "is_reserved": 0}, {"lon": -76.98209083333333, "bike_id": "0353eebea0a302bff37222875a188ec6", "lat": 38.8661335, "fusion_lon": 0.0, "fusion_lat": 0.0, "type": "electric_scooter", "name": "0353eebea0a302bff37222875a188ec6", "is_disabled": 0, "rental_uris": {"ios": "https://dc.lft.to/lastmile_qr_scan", "android": "https://dc.lft.to/lastmile_qr_scan"}, "is_reserved": 0}, {"lon": -77.00783533333333, "bike_id": "259989f5fd7cede2789e999d1feaf24c", "lat": 38.879194166666665, "fusion_lon": 0.0, "fusion_lat": 0.0, "type": "electric_scooter", "name": "259989f5fd7cede2789e999d1feaf24c", "is_disabled": 0, "rental_uris": {"ios": "https://dc.lft.to/lastmile_qr_scan", "android": "https://dc.lft.to/lastmile_qr_scan"}, "is_reserved": 0}, {"lon": -76.981433, "bike_id": "4288979da722f6aa51c67816f73674f8", "lat": 38.90563316666667, "fusion_lon": 0.0, "fusion_lat": 0.0, "type": "electric_scooter", "name": "4288979da722f6aa51c67816f73674f8", "is_disabled": 0, "rental_uris": {"ios": "https://dc.lft.to/lastmile_qr_scan", "android": "https://dc.lft.to/lastmile_qr_scan"}, "is_reserved": 0}, {"lon": -77.04355766666667, "bike_id": "c40a6004670a7c55aaee47105539a489", "lat": 38.905649333333336, "fusion_lon": 0.0, "fusion_lat": 0.0, "type": "electric_scooter", "name": "c40a6004670a7c55aaee47105539a489", "is_disabled": 0, "rental_uris": {"ios": "https://dc.lft.to/lastmile_qr_scan", "android": "https://dc.lft.to/lastmile_qr_scan"}, "is_reserved": 0}, {"lon": -77.04209883333333, "bike_id": "52d64723fe9cc1c349c30354a872f5bd", "lat": 38.91958416666667, "fusion_lon": 0.0, "fusion_lat": 0.0, "type": "electric_scooter", "name": "52d64723fe9cc1c349c30354a872f5bd", "is_disabled": 0, "rental_uris": {"ios": "https://dc.lft.to/lastmile_qr_scan", "android": "https://dc.lft.to/lastmile_qr_scan"}, "is_reserved": 0}, {"lon": -77.03946816666667, "bike_id": "686fadb768d80fe27d8b1fd1c7c80980", "lat": 38.90118433333333, "fusion_lon": 0.0, "fusion_lat": 0.0, "type": "electric_scooter", "name": "686fadb768d80fe27d8b1fd1c7c80980", "is_disabled": 0, "rental_uris": {"ios": "https://dc.lft.to/lastmile_qr_scan", "android": "https://dc.lft.to/lastmile_qr_scan"}, "is_reserved": 0}, {"lon": -77.0296435, "bike_id": "3beb46b7de02481368b06219fed3d048", "lat": 38.91677166666667, "fusion_lon": 0.0, "fusion_lat": 0.0, "type": "electric_scooter", "name": "3beb46b7de02481368b06219fed3d048", "is_disabled": 0, "rental_uris": {"ios": "https://dc.lft.to/lastmile_qr_scan", "android": "https://dc.lft.to/lastmile_qr_scan"}, "is_reserved": 0}, {"lon": -77.06460233333334, "bike_id": "afa883c4f5c367ce7f802eae33b99ea1", "lat": 38.91042366666667, "fusion_lon": 0.0, "fusion_lat": 0.0, "type": "electric_scooter", "name": "afa883c4f5c367ce7f802eae33b99ea1", "is_disabled": 0, "rental_uris": {"ios": "https://dc.lft.to/lastmile_qr_scan", "android": "https://dc.lft.to/lastmile_qr_scan"}, "is_reserved": 0}, {"lon": -77.02611283333333, "bike_id": "3d8e2fcca9c575e9fcb5d070e4b241ab", "lat": 38.90506366666666, "fusion_lon": 0.0, "fusion_lat": 0.0, "type": "electric_scooter", "name": "3d8e2fcca9c575e9fcb5d070e4b241ab", "is_disabled": 0, "rental_uris": {"ios": "https://dc.lft.to/lastmile_qr_scan", "android": "https://dc.lft.to/lastmile_qr_scan"}, "is_reserved": 0}, {"lon": -77.03646966666666, "bike_id": "7e634cd27d3d50b471e547391213adaf", "lat": 38.92260066666667, "fusion_lon": 0.0, "fusion_lat": 0.0, "type": "electric_scooter", "name": "7e634cd27d3d50b471e547391213adaf", "is_disabled": 0, "rental_uris": {"ios": "https://dc.lft.to/lastmile_qr_scan", "android": "https://dc.lft.to/lastmile_qr_scan"}, "is_reserved": 0}, {"lon": -77.00738566666666, "bike_id": "f2e8b80f3970a73e503f5d95124f804d", "lat": 38.92542, "fusion_lon": 0.0, "fusion_lat": 0.0, "type": "electric_scooter", "name": "f2e8b80f3970a73e503f5d95124f804d", "is_disabled": 0, "rental_uris": {"ios": "https://dc.lft.to/lastmile_qr_scan", "android": "https://dc.lft.to/lastmile_qr_scan"}, "is_reserved": 0}, {"lon": -77.04124233333333, "bike_id": "25db725438ea0b88e89be6e45f7ec0e3", "lat": 38.9118565, "fusion_lon": 0.0, "fusion_lat": 0.0, "type": "electric_scooter", "name": "25db725438ea0b88e89be6e45f7ec0e3", "is_disabled": 0, "rental_uris": {"ios": "https://dc.lft.to/lastmile_qr_scan", "android": "https://dc.lft.to/lastmile_qr_scan"}, "is_reserved": 0}, {"lon": -76.95760166666666, "bike_id": "4ece74183d046191c9f31443502d03ce", "lat": 38.884339, "fusion_lon": 0.0, "fusion_lat": 0.0, "type": "electric_scooter", "name": "4ece74183d046191c9f31443502d03ce", "is_disabled": 0, "rental_uris": {"ios": "https://dc.lft.to/lastmile_qr_scan", "android": "https://dc.lft.to/lastmile_qr_scan"}, "is_reserved": 0}, {"lon": -77.00193333333333, "bike_id": "50d69c8bc89d65c959dc9524113394eb", "lat": 38.9037435, "fusion_lon": 0.0, "fusion_lat": 0.0, "type": "electric_scooter", "name": "50d69c8bc89d65c959dc9524113394eb", "is_disabled": 0, "rental_uris": {"ios": "https://dc.lft.to/lastmile_qr_scan", "android": "https://dc.lft.to/lastmile_qr_scan"}, "is_reserved": 0}, {"lon": -77.0103375, "bike_id": "02448a1b07a755239b9af9dc9a90f7fa", "lat": 38.91708116666667, "fusion_lon": 0.0, "fusion_lat": 0.0, "type": "electric_scooter", "name": "02448a1b07a755239b9af9dc9a90f7fa", "is_disabled": 0, "rental_uris": {"ios": "https://dc.lft.to/lastmile_qr_scan", "android": "https://dc.lft.to/lastmile_qr_scan"}, "is_reserved": 0}, {"lon": -77.03494783333333, "bike_id": "fa255ff831e78f4266b6880b1e544bdb", "lat": 38.91690716666667, "fusion_lon": 0.0, "fusion_lat": 0.0, "type": "electric_scooter", "name": "fa255ff831e78f4266b6880b1e544bdb", "is_disabled": 0, "rental_uris": {"ios": "https://dc.lft.to/lastmile_qr_scan", "android": "https://dc.lft.to/lastmile_qr_scan"}, "is_reserved": 0}, {"lon": -76.94958916666667, "bike_id": "29513b6605a8b63762aaa9c0cf7c1b33", "lat": 38.904960333333335, "fusion_lon": 0.0, "fusion_lat": 0.0, "type": "electric_scooter", "name": "29513b6605a8b63762aaa9c0cf7c1b33", "is_disabled": 0, "rental_uris": {"ios": "https://dc.lft.to/lastmile_qr_scan", "android": "https://dc.lft.to/lastmile_qr_scan"}, "is_reserved": 0}, {"lon": -77.03127033333334, "bike_id": "47fa0193dd8c0c9cce37d5cb1d3f7ff5", "lat": 38.91497066666667, "fusion_lon": 0.0, "fusion_lat": 0.0, "type": "electric_scooter", "name": "47fa0193dd8c0c9cce37d5cb1d3f7ff5", "is_disabled": 0, "rental_uris": {"ios": "https://dc.lft.to/lastmile_qr_scan", "android": "https://dc.lft.to/lastmile_qr_scan"}, "is_reserved": 0}, {"lon": -77.01114766666667, "bike_id": "c92e909b48bab03cc89e955338f6122b", "lat": 38.90776916666667, "fusion_lon": 0.0, "fusion_lat": 0.0, "type": "electric_scooter", "name": "c92e909b48bab03cc89e955338f6122b", "is_disabled": 0, "rental_uris": {"ios": "https://dc.lft.to/lastmile_qr_scan", "android": "https://dc.lft.to/lastmile_qr_scan"}, "is_reserved": 0}, {"lon": -77.00681166666666, "bike_id": "c9bf9ab690798e14e1d3c601858bc176", "lat": 38.905551, "fusion_lon": 0.0, "fusion_lat": 0.0, "type": "electric_scooter", "name": "c9bf9ab690798e14e1d3c601858bc176", "is_disabled": 0, "rental_uris": {"ios": "https://dc.lft.to/lastmile_qr_scan", "android": "https://dc.lft.to/lastmile_qr_scan"}, "is_reserved": 0}, {"lon": -76.94422083333333, "bike_id": "67064a4a918e4fb4a9efa45a00924dc0", "lat": 38.96619316666666, "fusion_lon": 0.0, "fusion_lat": 0.0, "type": "electric_bike", "name": "67064a4a918e4fb4a9efa45a00924dc0", "is_disabled": 0, "rental_uris": {"ios": "https://dc.lft.to/lastmile_qr_scan", "android": "https://dc.lft.to/lastmile_qr_scan"}, "is_reserved": 0}, {"lon": -77.00352966666667, "bike_id": "c158ccd5dbbfb06b47fa8c000118e01a", "lat": 38.99092066666667, "fusion_lon": 0.0, "fusion_lat": 0.0, "type": "electric_bike", "name": "c158ccd5dbbfb06b47fa8c000118e01a", "is_disabled": 0, "rental_uris": {"ios": "https://dc.lft.to/lastmile_qr_scan", "android": "https://dc.lft.to/lastmile_qr_scan"}, "is_reserved": 0}, {"lon": -77.02399366666667, "bike_id": "51a1bb2ffff7463857a07fb72a66a949", "lat": 38.9069365, "fusion_lon": 0.0, "fusion_lat": 0.0, "type": "electric_scooter", "name": "51a1bb2ffff7463857a07fb72a66a949", "is_disabled": 0, "rental_uris": {"ios": "https://dc.lft.to/lastmile_qr_scan", "android": "https://dc.lft.to/lastmile_qr_scan"}, "is_reserved": 0}, {"lon": -76.98844066666666, "bike_id": "3b4876c475bd88b9bd3dc50da829d225", "lat": 38.842744333333336, "fusion_lon": 0.0, "fusion_lat": 0.0, "type": "electric_bike", "name": "3b4876c475bd88b9bd3dc50da829d225", "is_disabled": 0, "rental_uris": {"ios": "https://dc.lft.to/lastmile_qr_scan", "android": "https://dc.lft.to/lastmile_qr_scan"}, "is_reserved": 0}, {"lon": -77.02551716666666, "bike_id": "f42320c5fd2d6f8dc307088897785195", "lat": 38.941397333333335, "fusion_lon": 0.0, "fusion_lat": 0.0, "type": "electric_scooter", "name": "f42320c5fd2d6f8dc307088897785195", "is_disabled": 0, "rental_uris": {"ios": "https://dc.lft.to/lastmile_qr_scan", "android": "https://dc.lft.to/lastmile_qr_scan"}, "is_reserved": 0}, {"lon": -77.02806216666667, "bike_id": "cc754f3c482fe997cbb8aa646cb6ed97", "lat": 38.92861533333333, "fusion_lon": 0.0, "fusion_lat": 0.0, "type": "electric_scooter", "name": "cc754f3c482fe997cbb8aa646cb6ed97", "is_disabled": 0, "rental_uris": {"ios": "https://dc.lft.to/lastmile_qr_scan", "android": "https://dc.lft.to/lastmile_qr_scan"}, "is_reserved": 0}, {"lon": -77.09167916666667, "bike_id": "68d74fb1efe68cb562dd2bfa316fdf24", "lat": 38.94563566666667, "fusion_lon": 0.0, "fusion_lat": 0.0, "type": "electric_scooter", "name": "68d74fb1efe68cb562dd2bfa316fdf24", "is_disabled": 0, "rental_uris": {"ios": "https://dc.lft.to/lastmile_qr_scan", "android": "https://dc.lft.to/lastmile_qr_scan"}, "is_reserved": 0}, {"lon": -77.03312333333334, "bike_id": "a1c9ff9dc60989a0320c3ce87c6eaa05", "lat": 38.92855983333333, "fusion_lon": 0.0, "fusion_lat": 0.0, "type": "electric_scooter", "name": "a1c9ff9dc60989a0320c3ce87c6eaa05", "is_disabled": 0, "rental_uris": {"ios": "https://dc.lft.to/lastmile_qr_scan", "android": "https://dc.lft.to/lastmile_qr_scan"}, "is_reserved": 0}, {"lon": -76.99832516666666, "bike_id": "8f8ca9fee408a7c6d40de4df82f597a3", "lat": 38.88531733333333, "fusion_lon": 0.0, "fusion_lat": 0.0, "type": "electric_scooter", "name": "8f8ca9fee408a7c6d40de4df82f597a3", "is_disabled": 0, "rental_uris": {"ios": "https://dc.lft.to/lastmile_qr_scan", "android": "https://dc.lft.to/lastmile_qr_scan"}, "is_reserved": 0}, {"lon": -77.03931733333333, "bike_id": "20d97b94c90931b135c86939e58bdbd6", "lat": 38.921102, "fusion_lon": 0.0, "fusion_lat": 0.0, "type": "electric_scooter", "name": "20d97b94c90931b135c86939e58bdbd6", "is_disabled": 0, "rental_uris": {"ios": "https://dc.lft.to/lastmile_qr_scan", "android": "https://dc.lft.to/lastmile_qr_scan"}, "is_reserved": 0}, {"lon": -77.05885466666666, "bike_id": "12b26411495c0ec2a435c90ff79b11fc", "lat": 38.936396333333334, "fusion_lon": 0.0, "fusion_lat": 0.0, "type": "electric_scooter", "name": "12b26411495c0ec2a435c90ff79b11fc", "is_disabled": 0, "rental_uris": {"ios": "https://dc.lft.to/lastmile_qr_scan", "android": "https://dc.lft.to/lastmile_qr_scan"}, "is_reserved": 0}, {"lon": -76.99429983333333, "bike_id": "524babe8a12287f24da56b7829de4729", "lat": 38.836053, "fusion_lon": 0.0, "fusion_lat": 0.0, "type": "electric_scooter", "name": "524babe8a12287f24da56b7829de4729", "is_disabled": 0, "rental_uris": {"ios": "https://dc.lft.to/lastmile_qr_scan", "android": "https://dc.lft.to/lastmile_qr_scan"}, "is_reserved": 0}, {"lon": -76.98509333333334, "bike_id": "3e047ebd0c6b5ac1bb07a06b6e912391", "lat": 38.866491, "fusion_lon": 0.0, "fusion_lat": 0.0, "type": "electric_scooter", "name": "3e047ebd0c6b5ac1bb07a06b6e912391", "is_disabled": 0, "rental_uris": {"ios": "https://dc.lft.to/lastmile_qr_scan", "android": "https://dc.lft.to/lastmile_qr_scan"}, "is_reserved": 0}, {"lon": -76.98559283333333, "bike_id": "5806d5d0754f01143bb0a703901c923d", "lat": 38.91032833333333, "fusion_lon": 0.0, "fusion_lat": 0.0, "type": "electric_scooter", "name": "5806d5d0754f01143bb0a703901c923d", "is_disabled": 0, "rental_uris": {"ios": "https://dc.lft.to/lastmile_qr_scan", "android": "https://dc.lft.to/lastmile_qr_scan"}, "is_reserved": 0}, {"lon": -77.03463616666667, "bike_id": "4610104a2875dd525a81643c1ce6e850", "lat": 38.908101, "fusion_lon": 0.0, "fusion_lat": 0.0, "type": "electric_scooter", "name": "4610104a2875dd525a81643c1ce6e850", "is_disabled": 0, "rental_uris": {"ios": "https://dc.lft.to/lastmile_qr_scan", "android": "https://dc.lft.to/lastmile_qr_scan"}, "is_reserved": 0}, {"lon": -77.05041516666667, "bike_id": "4ac06c1dbbf8557ff74c7e4d6893a7c3", "lat": 38.9238235, "fusion_lon": 0.0, "fusion_lat": 0.0, "type": "electric_scooter", "name": "4ac06c1dbbf8557ff74c7e4d6893a7c3", "is_disabled": 0, "rental_uris": {"ios": "https://dc.lft.to/lastmile_qr_scan", "android": "https://dc.lft.to/lastmile_qr_scan"}, "is_reserved": 0}, {"lon": -77.04377583333333, "bike_id": "777ab92e6e2727769149e627ddd3884b", "lat": 38.898492166666664, "fusion_lon": 0.0, "fusion_lat": 0.0, "type": "electric_scooter", "name": "777ab92e6e2727769149e627ddd3884b", "is_disabled": 0, "rental_uris": {"ios": "https://dc.lft.to/lastmile_qr_scan", "android": "https://dc.lft.to/lastmile_qr_scan"}, "is_reserved": 0}, {"lon": -76.93541216666667, "bike_id": "e3577600b1bc1ba4e5e0c30d2325c653", "lat": 38.955471333333335, "fusion_lon": 0.0, "fusion_lat": 0.0, "type": "electric_bike", "name": "e3577600b1bc1ba4e5e0c30d2325c653", "is_disabled": 0, "rental_uris": {"ios": "https://dc.lft.to/lastmile_qr_scan", "android": "https://dc.lft.to/lastmile_qr_scan"}, "is_reserved": 0}, {"lon": -77.03200566666666, "bike_id": "6db64b27aa62c5452c8ea8ec8277c809", "lat": 38.879410166666666, "fusion_lon": 0.0, "fusion_lat": 0.0, "type": "electric_scooter", "name": "6db64b27aa62c5452c8ea8ec8277c809", "is_disabled": 0, "rental_uris": {"ios": "https://dc.lft.to/lastmile_qr_scan", "android": "https://dc.lft.to/lastmile_qr_scan"}, "is_reserved": 0}, {"lon": -77.02924216666666, "bike_id": "7be7427900296f2ad7e54df0407f05f8", "lat": 38.8961985, "fusion_lon": 0.0, "fusion_lat": 0.0, "type": "electric_scooter", "name": "7be7427900296f2ad7e54df0407f05f8", "is_disabled": 0, "rental_uris": {"ios": "https://dc.lft.to/lastmile_qr_scan", "android": "https://dc.lft.to/lastmile_qr_scan"}, "is_reserved": 0}, {"lon": -77.01350883333333, "bike_id": "240e174b5cf3e06f7d5de6841f5ed801", "lat": 38.89248216666667, "fusion_lon": 0.0, "fusion_lat": 0.0, "type": "electric_scooter", "name": "240e174b5cf3e06f7d5de6841f5ed801", "is_disabled": 0, "rental_uris": {"ios": "https://dc.lft.to/lastmile_qr_scan", "android": "https://dc.lft.to/lastmile_qr_scan"}, "is_reserved": 0}, {"lon": -77.0004245, "bike_id": "5c7158606f830d9bda37b8213a315258", "lat": 38.96763166666667, "fusion_lon": 0.0, "fusion_lat": 0.0, "type": "electric_bike", "name": "5c7158606f830d9bda37b8213a315258", "is_disabled": 0, "rental_uris": {"ios": "https://dc.lft.to/lastmile_qr_scan", "android": "https://dc.lft.to/lastmile_qr_scan"}, "is_reserved": 0}, {"lon": -77.01991533333333, "bike_id": "e98b8f0a2ff3569010dd9b6ef33967ba", "lat": 38.87588216666666, "fusion_lon": 0.0, "fusion_lat": 0.0, "type": "electric_scooter", "name": "e98b8f0a2ff3569010dd9b6ef33967ba", "is_disabled": 0, "rental_uris": {"ios": "https://dc.lft.to/lastmile_qr_scan", "android": "https://dc.lft.to/lastmile_qr_scan"}, "is_reserved": 0}, {"lon": -76.98747616666667, "bike_id": "292860defd6840862dd2e3aae806f6d7", "lat": 38.886076333333335, "fusion_lon": 0.0, "fusion_lat": 0.0, "type": "electric_scooter", "name": "292860defd6840862dd2e3aae806f6d7", "is_disabled": 0, "rental_uris": {"ios": "https://dc.lft.to/lastmile_qr_scan", "android": "https://dc.lft.to/lastmile_qr_scan"}, "is_reserved": 0}, {"lon": -77.03896399999999, "bike_id": "081f5dfccb2501cd96e76931a123d38e", "lat": 38.92234783333333, "fusion_lon": 0.0, "fusion_lat": 0.0, "type": "electric_scooter", "name": "081f5dfccb2501cd96e76931a123d38e", "is_disabled": 0, "rental_uris": {"ios": "https://dc.lft.to/lastmile_qr_scan", "android": "https://dc.lft.to/lastmile_qr_scan"}, "is_reserved": 0}, {"lon": -77.04493116666667, "bike_id": "6a2d09438fb26b52b639a793c687926d", "lat": 38.90546783333333, "fusion_lon": 0.0, "fusion_lat": 0.0, "type": "electric_scooter", "name": "6a2d09438fb26b52b639a793c687926d", "is_disabled": 0, "rental_uris": {"ios": "https://dc.lft.to/lastmile_qr_scan", "android": "https://dc.lft.to/lastmile_qr_scan"}, "is_reserved": 0}, {"lon": -77.02221616666667, "bike_id": "71746ac94349f41e968e3bb8ad662268", "lat": 38.892179, "fusion_lon": 0.0, "fusion_lat": 0.0, "type": "electric_scooter", "name": "71746ac94349f41e968e3bb8ad662268", "is_disabled": 0, "rental_uris": {"ios": "https://dc.lft.to/lastmile_qr_scan", "android": "https://dc.lft.to/lastmile_qr_scan"}, "is_reserved": 0}, {"lon": -77.009095, "bike_id": "19e94ea6d845730978f1a9be2c4420cc", "lat": 38.9056645, "fusion_lon": 0.0, "fusion_lat": 0.0, "type": "electric_bike", "name": "19e94ea6d845730978f1a9be2c4420cc", "is_disabled": 0, "rental_uris": {"ios": "https://dc.lft.to/lastmile_qr_scan", "android": "https://dc.lft.to/lastmile_qr_scan"}, "is_reserved": 0}, {"lon": -76.988856, "bike_id": "5b5fb06ee91712285ec4f06f7a89e9be", "lat": 38.86655416666667, "fusion_lon": 0.0, "fusion_lat": 0.0, "type": "electric_scooter", "name": "5b5fb06ee91712285ec4f06f7a89e9be", "is_disabled": 0, "rental_uris": {"ios": "https://dc.lft.to/lastmile_qr_scan", "android": "https://dc.lft.to/lastmile_qr_scan"}, "is_reserved": 0}, {"lon": -77.04489633333333, "bike_id": "056b10049269ec7fa3a407bddd0be181", "lat": 38.90850366666667, "fusion_lon": 0.0, "fusion_lat": 0.0, "type": "electric_scooter", "name": "056b10049269ec7fa3a407bddd0be181", "is_disabled": 0, "rental_uris": {"ios": "https://dc.lft.to/lastmile_qr_scan", "android": "https://dc.lft.to/lastmile_qr_scan"}, "is_reserved": 0}, {"lon": -77.05417066666666, "bike_id": "fc8705c0a5f88cb62a36f90d73b0676f", "lat": 38.90150916666666, "fusion_lon": 0.0, "fusion_lat": 0.0, "type": "electric_scooter", "name": "fc8705c0a5f88cb62a36f90d73b0676f", "is_disabled": 0, "rental_uris": {"ios": "https://dc.lft.to/lastmile_qr_scan", "android": "https://dc.lft.to/lastmile_qr_scan"}, "is_reserved": 0}, {"lon": -77.02429033333334, "bike_id": "8bba87853f5327243fd85d56dcb872c2", "lat": 38.937144, "fusion_lon": 0.0, "fusion_lat": 0.0, "type": "electric_scooter", "name": "8bba87853f5327243fd85d56dcb872c2", "is_disabled": 0, "rental_uris": {"ios": "https://dc.lft.to/lastmile_qr_scan", "android": "https://dc.lft.to/lastmile_qr_scan"}, "is_reserved": 0}, {"lon": -77.034384, "bike_id": "65de3d320ffede5ebe6fc32e8ca9cc8d", "lat": 38.90251583333333, "fusion_lon": 0.0, "fusion_lat": 0.0, "type": "electric_scooter", "name": "65de3d320ffede5ebe6fc32e8ca9cc8d", "is_disabled": 0, "rental_uris": {"ios": "https://dc.lft.to/lastmile_qr_scan", "android": "https://dc.lft.to/lastmile_qr_scan"}, "is_reserved": 0}, {"lon": -77.0224465, "bike_id": "dbf8446e5e115d3f61744fc5be7a5390", "lat": 38.922802833333336, "fusion_lon": 0.0, "fusion_lat": 0.0, "type": "electric_scooter", "name": "dbf8446e5e115d3f61744fc5be7a5390", "is_disabled": 0, "rental_uris": {"ios": "https://dc.lft.to/lastmile_qr_scan", "android": "https://dc.lft.to/lastmile_qr_scan"}, "is_reserved": 0}, {"lon": -77.04390966666666, "bike_id": "01f55f138c5bd2c8869057981f05a16a", "lat": 38.92107033333333, "fusion_lon": 0.0, "fusion_lat": 0.0, "type": "electric_scooter", "name": "01f55f138c5bd2c8869057981f05a16a", "is_disabled": 0, "rental_uris": {"ios": "https://dc.lft.to/lastmile_qr_scan", "android": "https://dc.lft.to/lastmile_qr_scan"}, "is_reserved": 0}, {"lon": -77.06593433333333, "bike_id": "51da26636a9ff1156d45055d9625b600", "lat": 38.90363033333333, "fusion_lon": 0.0, "fusion_lat": 0.0, "type": "electric_scooter", "name": "51da26636a9ff1156d45055d9625b600", "is_disabled": 0, "rental_uris": {"ios": "https://dc.lft.to/lastmile_qr_scan", "android": "https://dc.lft.to/lastmile_qr_scan"}, "is_reserved": 0}, {"lon": -77.01758866666667, "bike_id": "2fdf5d91fb364dc1de32d6f915a6e430", "lat": 38.88589483333333, "fusion_lon": 0.0, "fusion_lat": 0.0, "type": "electric_scooter", "name": "2fdf5d91fb364dc1de32d6f915a6e430", "is_disabled": 0, "rental_uris": {"ios": "https://dc.lft.to/lastmile_qr_scan", "android": "https://dc.lft.to/lastmile_qr_scan"}, "is_reserved": 0}, {"lon": -77.00599466666667, "bike_id": "069fcea4601f8a0ba662d32d987918c1", "lat": 38.885217833333336, "fusion_lon": 0.0, "fusion_lat": 0.0, "type": "electric_scooter", "name": "069fcea4601f8a0ba662d32d987918c1", "is_disabled": 0, "rental_uris": {"ios": "https://dc.lft.to/lastmile_qr_scan", "android": "https://dc.lft.to/lastmile_qr_scan"}, "is_reserved": 0}, {"lon": -77.04236916666666, "bike_id": "7b289d780642c714ad53dcbf3332d68f", "lat": 38.921611, "fusion_lon": 0.0, "fusion_lat": 0.0, "type": "electric_scooter", "name": "7b289d780642c714ad53dcbf3332d68f", "is_disabled": 0, "rental_uris": {"ios": "https://dc.lft.to/lastmile_qr_scan", "android": "https://dc.lft.to/lastmile_qr_scan"}, "is_reserved": 0}, {"lon": -77.038607, "bike_id": "a70e40040aa60bf2897a5d86f4005d59", "lat": 38.923072166666664, "fusion_lon": 0.0, "fusion_lat": 0.0, "type": "electric_scooter", "name": "a70e40040aa60bf2897a5d86f4005d59", "is_disabled": 0, "rental_uris": {"ios": "https://dc.lft.to/lastmile_qr_scan", "android": "https://dc.lft.to/lastmile_qr_scan"}, "is_reserved": 0}, {"lon": -77.04487566666667, "bike_id": "8c1b784a23b224861f5dcb6a20a8565d", "lat": 38.9109295, "fusion_lon": 0.0, "fusion_lat": 0.0, "type": "electric_scooter", "name": "8c1b784a23b224861f5dcb6a20a8565d", "is_disabled": 0, "rental_uris": {"ios": "https://dc.lft.to/lastmile_qr_scan", "android": "https://dc.lft.to/lastmile_qr_scan"}, "is_reserved": 0}, {"lon": -77.02308733333334, "bike_id": "46fc5b5765b6b04ffe7f5694997ba5e2", "lat": 38.916931166666664, "fusion_lon": 0.0, "fusion_lat": 0.0, "type": "electric_scooter", "name": "46fc5b5765b6b04ffe7f5694997ba5e2", "is_disabled": 0, "rental_uris": {"ios": "https://dc.lft.to/lastmile_qr_scan", "android": "https://dc.lft.to/lastmile_qr_scan"}, "is_reserved": 0}, {"lon": -76.99509083333334, "bike_id": "8d2bf9c23b144875c1aa185aac450141", "lat": 38.87913283333334, "fusion_lon": 0.0, "fusion_lat": 0.0, "type": "electric_scooter", "name": "8d2bf9c23b144875c1aa185aac450141", "is_disabled": 0, "rental_uris": {"ios": "https://dc.lft.to/lastmile_qr_scan", "android": "https://dc.lft.to/lastmile_qr_scan"}, "is_reserved": 0}, {"lon": -76.9979685, "bike_id": "0d4df09ea6163c551b359808514f99e3", "lat": 38.95090316666667, "fusion_lon": 0.0, "fusion_lat": 0.0, "type": "electric_bike", "name": "0d4df09ea6163c551b359808514f99e3", "is_disabled": 0, "rental_uris": {"ios": "https://dc.lft.to/lastmile_qr_scan", "android": "https://dc.lft.to/lastmile_qr_scan"}, "is_reserved": 0}, {"lon": -77.01508866666667, "bike_id": "ea7ce2eaf7f74333d91455e8d3fce66d", "lat": 38.91002433333333, "fusion_lon": 0.0, "fusion_lat": 0.0, "type": "electric_scooter", "name": "ea7ce2eaf7f74333d91455e8d3fce66d", "is_disabled": 0, "rental_uris": {"ios": "https://dc.lft.to/lastmile_qr_scan", "android": "https://dc.lft.to/lastmile_qr_scan"}, "is_reserved": 0}, {"lon": -77.01528766666667, "bike_id": "63a2027cd6cb58a04cfd346362ab89a9", "lat": 38.892300166666665, "fusion_lon": 0.0, "fusion_lat": 0.0, "type": "electric_scooter", "name": "63a2027cd6cb58a04cfd346362ab89a9", "is_disabled": 0, "rental_uris": {"ios": "https://dc.lft.to/lastmile_qr_scan", "android": "https://dc.lft.to/lastmile_qr_scan"}, "is_reserved": 0}, {"lon": -77.06172716666667, "bike_id": "620b93968cf4db510bc1c2c28f96a9ea", "lat": 38.943026333333336, "fusion_lon": 0.0, "fusion_lat": 0.0, "type": "electric_scooter", "name": "620b93968cf4db510bc1c2c28f96a9ea", "is_disabled": 0, "rental_uris": {"ios": "https://dc.lft.to/lastmile_qr_scan", "android": "https://dc.lft.to/lastmile_qr_scan"}, "is_reserved": 0}, {"lon": -77.01764716666666, "bike_id": "e6c200995ef00005d53a50fe54d8cf3b", "lat": 38.8768865, "fusion_lon": 0.0, "fusion_lat": 0.0, "type": "electric_scooter", "name": "e6c200995ef00005d53a50fe54d8cf3b", "is_disabled": 0, "rental_uris": {"ios": "https://dc.lft.to/lastmile_qr_scan", "android": "https://dc.lft.to/lastmile_qr_scan"}, "is_reserved": 0}, {"lon": -77.046766, "bike_id": "202f5a4f7dd8dfea426dc2e2829dcd6d", "lat": 38.8956035, "fusion_lon": 0.0, "fusion_lat": 0.0, "type": "electric_scooter", "name": "202f5a4f7dd8dfea426dc2e2829dcd6d", "is_disabled": 0, "rental_uris": {"ios": "https://dc.lft.to/lastmile_qr_scan", "android": "https://dc.lft.to/lastmile_qr_scan"}, "is_reserved": 0}, {"lon": -77.0401175, "bike_id": "058bd64145484547040dec538502dc59", "lat": 38.918392833333336, "fusion_lon": 0.0, "fusion_lat": 0.0, "type": "electric_scooter", "name": "058bd64145484547040dec538502dc59", "is_disabled": 0, "rental_uris": {"ios": "https://dc.lft.to/lastmile_qr_scan", "android": "https://dc.lft.to/lastmile_qr_scan"}, "is_reserved": 0}, {"lon": -77.00734616666666, "bike_id": "c5ea1a0c26a34e60bf62fd398d832b1c", "lat": 38.89821, "fusion_lon": 0.0, "fusion_lat": 0.0, "type": "electric_scooter", "name": "c5ea1a0c26a34e60bf62fd398d832b1c", "is_disabled": 0, "rental_uris": {"ios": "https://dc.lft.to/lastmile_qr_scan", "android": "https://dc.lft.to/lastmile_qr_scan"}, "is_reserved": 0}, {"lon": -77.02586633333334, "bike_id": "b2aa6f6537d801a6206e72f4be2b99a0", "lat": 38.89846133333333, "fusion_lon": 0.0, "fusion_lat": 0.0, "type": "electric_scooter", "name": "b2aa6f6537d801a6206e72f4be2b99a0", "is_disabled": 0, "rental_uris": {"ios": "https://dc.lft.to/lastmile_qr_scan", "android": "https://dc.lft.to/lastmile_qr_scan"}, "is_reserved": 0}, {"lon": -77.11710983333333, "bike_id": "b80b33c8e4ee780204c3018180089485", "lat": 38.867471333333334, "fusion_lon": 0.0, "fusion_lat": 0.0, "type": "electric_bike", "name": "b80b33c8e4ee780204c3018180089485", "is_disabled": 0, "rental_uris": {"ios": "https://dc.lft.to/lastmile_qr_scan", "android": "https://dc.lft.to/lastmile_qr_scan"}, "is_reserved": 0}, {"lon": -77.020195, "bike_id": "2162765c4d346302e235ee0500be0310", "lat": 38.8943865, "fusion_lon": 0.0, "fusion_lat": 0.0, "type": "electric_scooter", "name": "2162765c4d346302e235ee0500be0310", "is_disabled": 0, "rental_uris": {"ios": "https://dc.lft.to/lastmile_qr_scan", "android": "https://dc.lft.to/lastmile_qr_scan"}, "is_reserved": 0}, {"lon": -77.03863383333334, "bike_id": "b98e3b98b063e1963d51cc7c00d07f18", "lat": 38.9035765, "fusion_lon": 0.0, "fusion_lat": 0.0, "type": "electric_scooter", "name": "b98e3b98b063e1963d51cc7c00d07f18", "is_disabled": 0, "rental_uris": {"ios": "https://dc.lft.to/lastmile_qr_scan", "android": "https://dc.lft.to/lastmile_qr_scan"}, "is_reserved": 0}, {"lon": -77.001173, "bike_id": "1f3411968fdd931240c239a37b172d32", "lat": 38.874827833333335, "fusion_lon": 0.0, "fusion_lat": 0.0, "type": "electric_scooter", "name": "1f3411968fdd931240c239a37b172d32", "is_disabled": 0, "rental_uris": {"ios": "https://dc.lft.to/lastmile_qr_scan", "android": "https://dc.lft.to/lastmile_qr_scan"}, "is_reserved": 0}, {"lon": -77.06174933333334, "bike_id": "dd864607c8e053990fb877a380afea81", "lat": 38.902381166666665, "fusion_lon": 0.0, "fusion_lat": 0.0, "type": "electric_scooter", "name": "dd864607c8e053990fb877a380afea81", "is_disabled": 0, "rental_uris": {"ios": "https://dc.lft.to/lastmile_qr_scan", "android": "https://dc.lft.to/lastmile_qr_scan"}, "is_reserved": 0}, {"lon": -76.98536266666666, "bike_id": "a0d0a38c442006b529ddab3ab497f808", "lat": 38.9044845, "fusion_lon": 0.0, "fusion_lat": 0.0, "type": "electric_scooter", "name": "a0d0a38c442006b529ddab3ab497f808", "is_disabled": 0, "rental_uris": {"ios": "https://dc.lft.to/lastmile_qr_scan", "android": "https://dc.lft.to/lastmile_qr_scan"}, "is_reserved": 0}, {"lon": -77.0327885, "bike_id": "0920ab209f80d11cea8bd0888629bf47", "lat": 38.928648, "fusion_lon": 0.0, "fusion_lat": 0.0, "type": "electric_scooter", "name": "0920ab209f80d11cea8bd0888629bf47", "is_disabled": 0, "rental_uris": {"ios": "https://dc.lft.to/lastmile_qr_scan", "android": "https://dc.lft.to/lastmile_qr_scan"}, "is_reserved": 0}, {"lon": -77.01998116666667, "bike_id": "ce2dfa253db1422dd79b2134824f4d3e", "lat": 38.90186683333334, "fusion_lon": 0.0, "fusion_lat": 0.0, "type": "electric_scooter", "name": "ce2dfa253db1422dd79b2134824f4d3e", "is_disabled": 0, "rental_uris": {"ios": "https://dc.lft.to/lastmile_qr_scan", "android": "https://dc.lft.to/lastmile_qr_scan"}, "is_reserved": 0}, {"lon": -77.11266666666667, "bike_id": "84dd6a2cde46f196f48fc458a1929846", "lat": 38.85657466666667, "fusion_lon": 0.0, "fusion_lat": 0.0, "type": "electric_bike", "name": "84dd6a2cde46f196f48fc458a1929846", "is_disabled": 0, "rental_uris": {"ios": "https://dc.lft.to/lastmile_qr_scan", "android": "https://dc.lft.to/lastmile_qr_scan"}, "is_reserved": 0}, {"lon": -77.03283533333334, "bike_id": "c23af2b0f64477a825adb2d5bd9e9da6", "lat": 38.928525, "fusion_lon": 0.0, "fusion_lat": 0.0, "type": "electric_scooter", "name": "c23af2b0f64477a825adb2d5bd9e9da6", "is_disabled": 0, "rental_uris": {"ios": "https://dc.lft.to/lastmile_qr_scan", "android": "https://dc.lft.to/lastmile_qr_scan"}, "is_reserved": 0}, {"lon": -77.05901316666667, "bike_id": "c52ab358602dd783fbe8ab70ca50c0ea", "lat": 38.90156983333333, "fusion_lon": 0.0, "fusion_lat": 0.0, "type": "electric_scooter", "name": "c52ab358602dd783fbe8ab70ca50c0ea", "is_disabled": 0, "rental_uris": {"ios": "https://dc.lft.to/lastmile_qr_scan", "android": "https://dc.lft.to/lastmile_qr_scan"}, "is_reserved": 0}, {"lon": -77.0392635, "bike_id": "80b6373e0b3e76c38ef97952d111ed8d", "lat": 38.9001215, "fusion_lon": 0.0, "fusion_lat": 0.0, "type": "electric_scooter", "name": "80b6373e0b3e76c38ef97952d111ed8d", "is_disabled": 0, "rental_uris": {"ios": "https://dc.lft.to/lastmile_qr_scan", "android": "https://dc.lft.to/lastmile_qr_scan"}, "is_reserved": 0}, {"lon": -77.019683, "bike_id": "9564dc2477df636fd478df383f3159fe", "lat": 38.950182833333336, "fusion_lon": 0.0, "fusion_lat": 0.0, "type": "electric_scooter", "name": "9564dc2477df636fd478df383f3159fe", "is_disabled": 0, "rental_uris": {"ios": "https://dc.lft.to/lastmile_qr_scan", "android": "https://dc.lft.to/lastmile_qr_scan"}, "is_reserved": 0}, {"lon": -77.03025933333333, "bike_id": "8d50773d32746965ac5aad64949d439c", "lat": 38.89707716666667, "fusion_lon": 0.0, "fusion_lat": 0.0, "type": "electric_scooter", "name": "8d50773d32746965ac5aad64949d439c", "is_disabled": 0, "rental_uris": {"ios": "https://dc.lft.to/lastmile_qr_scan", "android": "https://dc.lft.to/lastmile_qr_scan"}, "is_reserved": 0}, {"lon": -77.05012583333334, "bike_id": "c1fd16fc70b8a59452cf48ca2b9caa88", "lat": 38.90554516666667, "fusion_lon": 0.0, "fusion_lat": 0.0, "type": "electric_scooter", "name": "c1fd16fc70b8a59452cf48ca2b9caa88", "is_disabled": 0, "rental_uris": {"ios": "https://dc.lft.to/lastmile_qr_scan", "android": "https://dc.lft.to/lastmile_qr_scan"}, "is_reserved": 0}, {"lon": -76.95406783333334, "bike_id": "38ce29401396fa453dd6deaa088c5321", "lat": 38.88467333333333, "fusion_lon": 0.0, "fusion_lat": 0.0, "type": "electric_scooter", "name": "38ce29401396fa453dd6deaa088c5321", "is_disabled": 0, "rental_uris": {"ios": "https://dc.lft.to/lastmile_qr_scan", "android": "https://dc.lft.to/lastmile_qr_scan"}, "is_reserved": 0}, {"lon": -77.02977183333333, "bike_id": "e027590c2824b2d9950db7a17ebd29c3", "lat": 38.90777283333333, "fusion_lon": 0.0, "fusion_lat": 0.0, "type": "electric_scooter", "name": "e027590c2824b2d9950db7a17ebd29c3", "is_disabled": 0, "rental_uris": {"ios": "https://dc.lft.to/lastmile_qr_scan", "android": "https://dc.lft.to/lastmile_qr_scan"}, "is_reserved": 0}, {"lon": -76.9871735, "bike_id": "57a1bbad1104c75a2f60bf79eaee0c3a", "lat": 38.866246, "fusion_lon": 0.0, "fusion_lat": 0.0, "type": "electric_scooter", "name": "57a1bbad1104c75a2f60bf79eaee0c3a", "is_disabled": 0, "rental_uris": {"ios": "https://dc.lft.to/lastmile_qr_scan", "android": "https://dc.lft.to/lastmile_qr_scan"}, "is_reserved": 0}, {"lon": -77.033622, "bike_id": "eec0ec80cf8eee624026a9a38b6c84b9", "lat": 38.9224475, "fusion_lon": 0.0, "fusion_lat": 0.0, "type": "electric_scooter", "name": "eec0ec80cf8eee624026a9a38b6c84b9", "is_disabled": 0, "rental_uris": {"ios": "https://dc.lft.to/lastmile_qr_scan", "android": "https://dc.lft.to/lastmile_qr_scan"}, "is_reserved": 0}, {"lon": -77.0450305, "bike_id": "e407f657830cb9ee3d294612f506e919", "lat": 38.911159833333336, "fusion_lon": 0.0, "fusion_lat": 0.0, "type": "electric_scooter", "name": "e407f657830cb9ee3d294612f506e919", "is_disabled": 0, "rental_uris": {"ios": "https://dc.lft.to/lastmile_qr_scan", "android": "https://dc.lft.to/lastmile_qr_scan"}, "is_reserved": 0}, {"lon": -77.02152766666667, "bike_id": "39da6999124b2c2bf59a36b4873b3d85", "lat": 38.894072, "fusion_lon": 0.0, "fusion_lat": 0.0, "type": "electric_scooter", "name": "39da6999124b2c2bf59a36b4873b3d85", "is_disabled": 0, "rental_uris": {"ios": "https://dc.lft.to/lastmile_qr_scan", "android": "https://dc.lft.to/lastmile_qr_scan"}, "is_reserved": 0}, {"lon": -76.918058, "bike_id": "c30960840a977e9dfe811c65439b1735", "lat": 39.000000166666666, "fusion_lon": 0.0, "fusion_lat": 0.0, "type": "electric_bike", "name": "c30960840a977e9dfe811c65439b1735", "is_disabled": 0, "rental_uris": {"ios": "https://dc.lft.to/lastmile_qr_scan", "android": "https://dc.lft.to/lastmile_qr_scan"}, "is_reserved": 0}, {"lon": -77.04163633333333, "bike_id": "a4966b93a6959346ab45b31b41195049", "lat": 38.901397, "fusion_lon": 0.0, "fusion_lat": 0.0, "type": "electric_scooter", "name": "a4966b93a6959346ab45b31b41195049", "is_disabled": 0, "rental_uris": {"ios": "https://dc.lft.to/lastmile_qr_scan", "android": "https://dc.lft.to/lastmile_qr_scan"}, "is_reserved": 0}, {"lon": -77.03812633333334, "bike_id": "350eb389076ed9b08e6e6ce9c459123d", "lat": 38.914157, "fusion_lon": 0.0, "fusion_lat": 0.0, "type": "electric_scooter", "name": "350eb389076ed9b08e6e6ce9c459123d", "is_disabled": 0, "rental_uris": {"ios": "https://dc.lft.to/lastmile_qr_scan", "android": "https://dc.lft.to/lastmile_qr_scan"}, "is_reserved": 0}, {"lon": -77.03199016666667, "bike_id": "c2ea868eef4bdd5dc68df4cf8e90b7c6", "lat": 38.91811033333333, "fusion_lon": 0.0, "fusion_lat": 0.0, "type": "electric_scooter", "name": "c2ea868eef4bdd5dc68df4cf8e90b7c6", "is_disabled": 0, "rental_uris": {"ios": "https://dc.lft.to/lastmile_qr_scan", "android": "https://dc.lft.to/lastmile_qr_scan"}, "is_reserved": 0}, {"lon": -77.08458383333334, "bike_id": "dbd9a34d290f991059d4bb101817be41", "lat": 38.84817916666667, "fusion_lon": 0.0, "fusion_lat": 0.0, "type": "electric_bike", "name": "dbd9a34d290f991059d4bb101817be41", "is_disabled": 0, "rental_uris": {"ios": "https://dc.lft.to/lastmile_qr_scan", "android": "https://dc.lft.to/lastmile_qr_scan"}, "is_reserved": 0}, {"lon": -77.02417483333333, "bike_id": "bff6491317de6d6451a3a262a6526cf2", "lat": 38.90974083333333, "fusion_lon": 0.0, "fusion_lat": 0.0, "type": "electric_scooter", "name": "bff6491317de6d6451a3a262a6526cf2", "is_disabled": 0, "rental_uris": {"ios": "https://dc.lft.to/lastmile_qr_scan", "android": "https://dc.lft.to/lastmile_qr_scan"}, "is_reserved": 0}, {"lon": -77.01328416666666, "bike_id": "5373c55cec4aa16ad76f3b7d1fe8a394", "lat": 38.879165666666665, "fusion_lon": 0.0, "fusion_lat": 0.0, "type": "electric_scooter", "name": "5373c55cec4aa16ad76f3b7d1fe8a394", "is_disabled": 0, "rental_uris": {"ios": "https://dc.lft.to/lastmile_qr_scan", "android": "https://dc.lft.to/lastmile_qr_scan"}, "is_reserved": 0}, {"lon": -77.187415, "bike_id": "70c3cd84bc8853c22471c67c8aafbefe", "lat": 38.893513166666665, "fusion_lon": 0.0, "fusion_lat": 0.0, "type": "electric_bike", "name": "70c3cd84bc8853c22471c67c8aafbefe", "is_disabled": 0, "rental_uris": {"ios": "https://dc.lft.to/lastmile_qr_scan", "android": "https://dc.lft.to/lastmile_qr_scan"}, "is_reserved": 0}, {"lon": -77.02424783333333, "bike_id": "61374bf0da3389bfc8ea53b0bc9c904e", "lat": 38.92228016666667, "fusion_lon": 0.0, "fusion_lat": 0.0, "type": "electric_bike", "name": "61374bf0da3389bfc8ea53b0bc9c904e", "is_disabled": 0, "rental_uris": {"ios": "https://dc.lft.to/lastmile_qr_scan", "android": "https://dc.lft.to/lastmile_qr_scan"}, "is_reserved": 0}, {"lon": -77.03404283333333, "bike_id": "84bf79680414d9c8e22a437037cd5f2c", "lat": 38.922490333333336, "fusion_lon": 0.0, "fusion_lat": 0.0, "type": "electric_scooter", "name": "84bf79680414d9c8e22a437037cd5f2c", "is_disabled": 0, "rental_uris": {"ios": "https://dc.lft.to/lastmile_qr_scan", "android": "https://dc.lft.to/lastmile_qr_scan"}, "is_reserved": 0}, {"lon": -77.05439933333334, "bike_id": "78698c53844ecf8bb671b1d15a8d4c76", "lat": 38.8960375, "fusion_lon": 0.0, "fusion_lat": 0.0, "type": "electric_scooter", "name": "78698c53844ecf8bb671b1d15a8d4c76", "is_disabled": 0, "rental_uris": {"ios": "https://dc.lft.to/lastmile_qr_scan", "android": "https://dc.lft.to/lastmile_qr_scan"}, "is_reserved": 0}, {"lon": -77.03082083333334, "bike_id": "d8555b4178873b10d4ef23c3f2e7d45f", "lat": 38.9110615, "fusion_lon": 0.0, "fusion_lat": 0.0, "type": "electric_scooter", "name": "d8555b4178873b10d4ef23c3f2e7d45f", "is_disabled": 0, "rental_uris": {"ios": "https://dc.lft.to/lastmile_qr_scan", "android": "https://dc.lft.to/lastmile_qr_scan"}, "is_reserved": 0}, {"lon": -77.0350145, "bike_id": "d86fb91b4648a1efa163075f3075b06a", "lat": 38.9170355, "fusion_lon": 0.0, "fusion_lat": 0.0, "type": "electric_scooter", "name": "d86fb91b4648a1efa163075f3075b06a", "is_disabled": 0, "rental_uris": {"ios": "https://dc.lft.to/lastmile_qr_scan", "android": "https://dc.lft.to/lastmile_qr_scan"}, "is_reserved": 0}, {"lon": -77.02800633333334, "bike_id": "51bd54162cfd30314e678b4c7fa30644", "lat": 38.933000666666665, "fusion_lon": 0.0, "fusion_lat": 0.0, "type": "electric_scooter", "name": "51bd54162cfd30314e678b4c7fa30644", "is_disabled": 0, "rental_uris": {"ios": "https://dc.lft.to/lastmile_qr_scan", "android": "https://dc.lft.to/lastmile_qr_scan"}, "is_reserved": 0}, {"lon": -77.03249416666667, "bike_id": "20676b9b91d8b8f1635b003786aaff13", "lat": 38.93770833333333, "fusion_lon": 0.0, "fusion_lat": 0.0, "type": "electric_scooter", "name": "20676b9b91d8b8f1635b003786aaff13", "is_disabled": 0, "rental_uris": {"ios": "https://dc.lft.to/lastmile_qr_scan", "android": "https://dc.lft.to/lastmile_qr_scan"}, "is_reserved": 0}, {"lon": -77.02154283333333, "bike_id": "0fd64cf724df29c7326431281e3d95be", "lat": 38.912645, "fusion_lon": 0.0, "fusion_lat": 0.0, "type": "electric_scooter", "name": "0fd64cf724df29c7326431281e3d95be", "is_disabled": 0, "rental_uris": {"ios": "https://dc.lft.to/lastmile_qr_scan", "android": "https://dc.lft.to/lastmile_qr_scan"}, "is_reserved": 0}, {"lon": -76.9882975, "bike_id": "6878d68dc43ef2ad3fcf4097b49422fb", "lat": 38.89665766666667, "fusion_lon": 0.0, "fusion_lat": 0.0, "type": "electric_scooter", "name": "6878d68dc43ef2ad3fcf4097b49422fb", "is_disabled": 0, "rental_uris": {"ios": "https://dc.lft.to/lastmile_qr_scan", "android": "https://dc.lft.to/lastmile_qr_scan"}, "is_reserved": 0}, {"lon": -77.03802066666667, "bike_id": "e3d51e8a1dba6a8b05dd0f743383b610", "lat": 38.930695166666666, "fusion_lon": 0.0, "fusion_lat": 0.0, "type": "electric_scooter", "name": "e3d51e8a1dba6a8b05dd0f743383b610", "is_disabled": 0, "rental_uris": {"ios": "https://dc.lft.to/lastmile_qr_scan", "android": "https://dc.lft.to/lastmile_qr_scan"}, "is_reserved": 0}, {"lon": -76.9468445, "bike_id": "a2ccc23d15485c02b117357878268ed1", "lat": 38.886267833333335, "fusion_lon": 0.0, "fusion_lat": 0.0, "type": "electric_scooter", "name": "a2ccc23d15485c02b117357878268ed1", "is_disabled": 0, "rental_uris": {"ios": "https://dc.lft.to/lastmile_qr_scan", "android": "https://dc.lft.to/lastmile_qr_scan"}, "is_reserved": 0}, {"lon": -76.997584, "bike_id": "ba46d8801affd37ee66310887bf1d710", "lat": 38.88763816666667, "fusion_lon": 0.0, "fusion_lat": 0.0, "type": "electric_scooter", "name": "ba46d8801affd37ee66310887bf1d710", "is_disabled": 0, "rental_uris": {"ios": "https://dc.lft.to/lastmile_qr_scan", "android": "https://dc.lft.to/lastmile_qr_scan"}, "is_reserved": 0}, {"lon": -77.03186933333333, "bike_id": "ca6d5b8b43311510e95792fdd1767552", "lat": 38.91429866666667, "fusion_lon": 0.0, "fusion_lat": 0.0, "type": "electric_scooter", "name": "ca6d5b8b43311510e95792fdd1767552", "is_disabled": 0, "rental_uris": {"ios": "https://dc.lft.to/lastmile_qr_scan", "android": "https://dc.lft.to/lastmile_qr_scan"}, "is_reserved": 0}, {"lon": -77.11082716666667, "bike_id": "c569b4d50e5efc9ef84e75101712389f", "lat": 38.811742333333335, "fusion_lon": 0.0, "fusion_lat": 0.0, "type": "electric_bike", "name": "c569b4d50e5efc9ef84e75101712389f", "is_disabled": 0, "rental_uris": {"ios": "https://dc.lft.to/lastmile_qr_scan", "android": "https://dc.lft.to/lastmile_qr_scan"}, "is_reserved": 0}, {"lon": -77.03201183333333, "bike_id": "569937b2d8d23bdba77ba347719dbd00", "lat": 38.915136833333335, "fusion_lon": 0.0, "fusion_lat": 0.0, "type": "electric_scooter", "name": "569937b2d8d23bdba77ba347719dbd00", "is_disabled": 0, "rental_uris": {"ios": "https://dc.lft.to/lastmile_qr_scan", "android": "https://dc.lft.to/lastmile_qr_scan"}, "is_reserved": 0}, {"lon": -77.04499433333334, "bike_id": "ceb21220ab43a32727f3db5d0265a349", "lat": 38.90493816666667, "fusion_lon": 0.0, "fusion_lat": 0.0, "type": "electric_scooter", "name": "ceb21220ab43a32727f3db5d0265a349", "is_disabled": 0, "rental_uris": {"ios": "https://dc.lft.to/lastmile_qr_scan", "android": "https://dc.lft.to/lastmile_qr_scan"}, "is_reserved": 0}, {"lon": -77.01915916666667, "bike_id": "44e97ef1d21b229eb7919fe4e0d7049b", "lat": 38.92327616666667, "fusion_lon": 0.0, "fusion_lat": 0.0, "type": "electric_scooter", "name": "44e97ef1d21b229eb7919fe4e0d7049b", "is_disabled": 0, "rental_uris": {"ios": "https://dc.lft.to/lastmile_qr_scan", "android": "https://dc.lft.to/lastmile_qr_scan"}, "is_reserved": 0}, {"lon": -77.01583733333334, "bike_id": "4726c42fcf2bf1c459df568b225717c3", "lat": 38.88493, "fusion_lon": 0.0, "fusion_lat": 0.0, "type": "electric_scooter", "name": "4726c42fcf2bf1c459df568b225717c3", "is_disabled": 0, "rental_uris": {"ios": "https://dc.lft.to/lastmile_qr_scan", "android": "https://dc.lft.to/lastmile_qr_scan"}, "is_reserved": 0}, {"lon": -76.94198983333334, "bike_id": "2b0394a8efe4f024ad629afbdda3ddac", "lat": 38.89377483333333, "fusion_lon": 0.0, "fusion_lat": 0.0, "type": "electric_scooter", "name": "2b0394a8efe4f024ad629afbdda3ddac", "is_disabled": 0, "rental_uris": {"ios": "https://dc.lft.to/lastmile_qr_scan", "android": "https://dc.lft.to/lastmile_qr_scan"}, "is_reserved": 0}, {"lon": -77.03237366666667, "bike_id": "0730667b5b8c7a939dcf4f792521a49f", "lat": 38.929011833333334, "fusion_lon": 0.0, "fusion_lat": 0.0, "type": "electric_scooter", "name": "0730667b5b8c7a939dcf4f792521a49f", "is_disabled": 0, "rental_uris": {"ios": "https://dc.lft.to/lastmile_qr_scan", "android": "https://dc.lft.to/lastmile_qr_scan"}, "is_reserved": 0}, {"lon": -77.03460866666667, "bike_id": "1d66f46491e289364640720a3d50d516", "lat": 38.90342366666667, "fusion_lon": 0.0, "fusion_lat": 0.0, "type": "electric_bike", "name": "1d66f46491e289364640720a3d50d516", "is_disabled": 0, "rental_uris": {"ios": "https://dc.lft.to/lastmile_qr_scan", "android": "https://dc.lft.to/lastmile_qr_scan"}, "is_reserved": 0}, {"lon": -77.01481033333333, "bike_id": "ef465de245190e5a7b40412ae0945de3", "lat": 38.876316, "fusion_lon": 0.0, "fusion_lat": 0.0, "type": "electric_scooter", "name": "ef465de245190e5a7b40412ae0945de3", "is_disabled": 0, "rental_uris": {"ios": "https://dc.lft.to/lastmile_qr_scan", "android": "https://dc.lft.to/lastmile_qr_scan"}, "is_reserved": 0}, {"lon": -77.05577383333333, "bike_id": "8d46fe61dfd363d92aa390c02e165781", "lat": 38.9104715, "fusion_lon": 0.0, "fusion_lat": 0.0, "type": "electric_bike", "name": "8d46fe61dfd363d92aa390c02e165781", "is_disabled": 0, "rental_uris": {"ios": "https://dc.lft.to/lastmile_qr_scan", "android": "https://dc.lft.to/lastmile_qr_scan"}, "is_reserved": 0}, {"lon": -77.039052, "bike_id": "928a77681351c3dc0a0065c5d574cfcf", "lat": 38.92318983333333, "fusion_lon": 0.0, "fusion_lat": 0.0, "type": "electric_bike", "name": "928a77681351c3dc0a0065c5d574cfcf", "is_disabled": 0, "rental_uris": {"ios": "https://dc.lft.to/lastmile_qr_scan", "android": "https://dc.lft.to/lastmile_qr_scan"}, "is_reserved": 0}, {"lon": -77.04332183333334, "bike_id": "20ab02f33d6b11bc4ed7bd5a737d2eae", "lat": 38.92197, "fusion_lon": 0.0, "fusion_lat": 0.0, "type": "electric_scooter", "name": "20ab02f33d6b11bc4ed7bd5a737d2eae", "is_disabled": 0, "rental_uris": {"ios": "https://dc.lft.to/lastmile_qr_scan", "android": "https://dc.lft.to/lastmile_qr_scan"}, "is_reserved": 0}, {"lon": -77.046036, "bike_id": "1f65e3b3e38a42fc0f900f1c86f8f2ea", "lat": 38.916067166666664, "fusion_lon": 0.0, "fusion_lat": 0.0, "type": "electric_scooter", "name": "1f65e3b3e38a42fc0f900f1c86f8f2ea", "is_disabled": 0, "rental_uris": {"ios": "https://dc.lft.to/lastmile_qr_scan", "android": "https://dc.lft.to/lastmile_qr_scan"}, "is_reserved": 0}, {"lon": -77.03489883333333, "bike_id": "7330e5178c0a070d197c247210cf2e15", "lat": 38.920403666666665, "fusion_lon": 0.0, "fusion_lat": 0.0, "type": "electric_scooter", "name": "7330e5178c0a070d197c247210cf2e15", "is_disabled": 0, "rental_uris": {"ios": "https://dc.lft.to/lastmile_qr_scan", "android": "https://dc.lft.to/lastmile_qr_scan"}, "is_reserved": 0}, {"lon": -77.04460033333334, "bike_id": "f4c3dd0febf9c4b9d127374720df4acb", "lat": 38.91531233333333, "fusion_lon": 0.0, "fusion_lat": 0.0, "type": "electric_scooter", "name": "f4c3dd0febf9c4b9d127374720df4acb", "is_disabled": 0, "rental_uris": {"ios": "https://dc.lft.to/lastmile_qr_scan", "android": "https://dc.lft.to/lastmile_qr_scan"}, "is_reserved": 0}, {"lon": -77.00353083333333, "bike_id": "f8386cda8cb9599342d6bdb1d8d8e036", "lat": 38.8988475, "fusion_lon": 0.0, "fusion_lat": 0.0, "type": "electric_scooter", "name": "f8386cda8cb9599342d6bdb1d8d8e036", "is_disabled": 0, "rental_uris": {"ios": "https://dc.lft.to/lastmile_qr_scan", "android": "https://dc.lft.to/lastmile_qr_scan"}, "is_reserved": 0}, {"lon": -77.01240316666667, "bike_id": "d3965495fc36d6e478f0fd9d510d4eb6", "lat": 38.830458666666665, "fusion_lon": 0.0, "fusion_lat": 0.0, "type": "electric_scooter", "name": "d3965495fc36d6e478f0fd9d510d4eb6", "is_disabled": 0, "rental_uris": {"ios": "https://dc.lft.to/lastmile_qr_scan", "android": "https://dc.lft.to/lastmile_qr_scan"}, "is_reserved": 0}, {"lon": -77.031855, "bike_id": "69922c019e38c203a3c2116473ff9f01", "lat": 38.909132666666665, "fusion_lon": 0.0, "fusion_lat": 0.0, "type": "electric_scooter", "name": "69922c019e38c203a3c2116473ff9f01", "is_disabled": 0, "rental_uris": {"ios": "https://dc.lft.to/lastmile_qr_scan", "android": "https://dc.lft.to/lastmile_qr_scan"}, "is_reserved": 0}, {"lon": -77.02285083333334, "bike_id": "941362acde23983bf01aca30c826c923", "lat": 38.926762833333335, "fusion_lon": 0.0, "fusion_lat": 0.0, "type": "electric_scooter", "name": "941362acde23983bf01aca30c826c923", "is_disabled": 0, "rental_uris": {"ios": "https://dc.lft.to/lastmile_qr_scan", "android": "https://dc.lft.to/lastmile_qr_scan"}, "is_reserved": 0}, {"lon": -77.04489916666667, "bike_id": "38f456c9d818239e421e1653420d1432", "lat": 38.924023, "fusion_lon": 0.0, "fusion_lat": 0.0, "type": "electric_scooter", "name": "38f456c9d818239e421e1653420d1432", "is_disabled": 0, "rental_uris": {"ios": "https://dc.lft.to/lastmile_qr_scan", "android": "https://dc.lft.to/lastmile_qr_scan"}, "is_reserved": 0}, {"lon": -77.034138, "bike_id": "aa84ea11a91c3090e4cc1eeb54e2c7d8", "lat": 38.919234333333335, "fusion_lon": 0.0, "fusion_lat": 0.0, "type": "electric_scooter", "name": "aa84ea11a91c3090e4cc1eeb54e2c7d8", "is_disabled": 0, "rental_uris": {"ios": "https://dc.lft.to/lastmile_qr_scan", "android": "https://dc.lft.to/lastmile_qr_scan"}, "is_reserved": 0}, {"lon": -77.05142633333334, "bike_id": "bfc240b33dadb9ecfdd10834289bcb02", "lat": 38.90511766666667, "fusion_lon": 0.0, "fusion_lat": 0.0, "type": "electric_scooter", "name": "bfc240b33dadb9ecfdd10834289bcb02", "is_disabled": 0, "rental_uris": {"ios": "https://dc.lft.to/lastmile_qr_scan", "android": "https://dc.lft.to/lastmile_qr_scan"}, "is_reserved": 0}, {"lon": -77.03806166666666, "bike_id": "ae277d207f31acda9b2559e82ef8a2c5", "lat": 38.93022233333333, "fusion_lon": 0.0, "fusion_lat": 0.0, "type": "electric_scooter", "name": "ae277d207f31acda9b2559e82ef8a2c5", "is_disabled": 0, "rental_uris": {"ios": "https://dc.lft.to/lastmile_qr_scan", "android": "https://dc.lft.to/lastmile_qr_scan"}, "is_reserved": 0}, {"lon": -77.02004366666667, "bike_id": "b75509f94e3248c39d934509da911408", "lat": 38.9241115, "fusion_lon": 0.0, "fusion_lat": 0.0, "type": "electric_scooter", "name": "b75509f94e3248c39d934509da911408", "is_disabled": 0, "rental_uris": {"ios": "https://dc.lft.to/lastmile_qr_scan", "android": "https://dc.lft.to/lastmile_qr_scan"}, "is_reserved": 0}, {"lon": -77.01407216666666, "bike_id": "1ee55223e2df17846dcffa96575a744f", "lat": 38.928607166666666, "fusion_lon": 0.0, "fusion_lat": 0.0, "type": "electric_scooter", "name": "1ee55223e2df17846dcffa96575a744f", "is_disabled": 0, "rental_uris": {"ios": "https://dc.lft.to/lastmile_qr_scan", "android": "https://dc.lft.to/lastmile_qr_scan"}, "is_reserved": 0}, {"lon": -77.0327915, "bike_id": "10e3c1ea9deefc30c93002fab3eae276", "lat": 38.94170833333333, "fusion_lon": 0.0, "fusion_lat": 0.0, "type": "electric_scooter", "name": "10e3c1ea9deefc30c93002fab3eae276", "is_disabled": 0, "rental_uris": {"ios": "https://dc.lft.to/lastmile_qr_scan", "android": "https://dc.lft.to/lastmile_qr_scan"}, "is_reserved": 0}, {"lon": -76.97732316666666, "bike_id": "246b4a70ae5eb29258e04698dba92b4d", "lat": 38.87287666666667, "fusion_lon": 0.0, "fusion_lat": 0.0, "type": "electric_scooter", "name": "246b4a70ae5eb29258e04698dba92b4d", "is_disabled": 0, "rental_uris": {"ios": "https://dc.lft.to/lastmile_qr_scan", "android": "https://dc.lft.to/lastmile_qr_scan"}, "is_reserved": 0}, {"lon": -77.02149766666666, "bike_id": "08af3189f1c977e5fcb0e7eedc335298", "lat": 38.89605483333333, "fusion_lon": 0.0, "fusion_lat": 0.0, "type": "electric_scooter", "name": "08af3189f1c977e5fcb0e7eedc335298", "is_disabled": 0, "rental_uris": {"ios": "https://dc.lft.to/lastmile_qr_scan", "android": "https://dc.lft.to/lastmile_qr_scan"}, "is_reserved": 0}, {"lon": -77.04437833333333, "bike_id": "19ee37ac7690fcc4ea7c748282ff7eda", "lat": 38.9216575, "fusion_lon": 0.0, "fusion_lat": 0.0, "type": "electric_scooter", "name": "19ee37ac7690fcc4ea7c748282ff7eda", "is_disabled": 0, "rental_uris": {"ios": "https://dc.lft.to/lastmile_qr_scan", "android": "https://dc.lft.to/lastmile_qr_scan"}, "is_reserved": 0}, {"lon": -77.04151533333334, "bike_id": "253394727c01d939acb6becf4209e297", "lat": 38.91699283333333, "fusion_lon": 0.0, "fusion_lat": 0.0, "type": "electric_scooter", "name": "253394727c01d939acb6becf4209e297", "is_disabled": 0, "rental_uris": {"ios": "https://dc.lft.to/lastmile_qr_scan", "android": "https://dc.lft.to/lastmile_qr_scan"}, "is_reserved": 0}, {"lon": -76.99058016666666, "bike_id": "5971f3270941efae98561a12208befe1", "lat": 38.863555166666664, "fusion_lon": 0.0, "fusion_lat": 0.0, "type": "electric_scooter", "name": "5971f3270941efae98561a12208befe1", "is_disabled": 0, "rental_uris": {"ios": "https://dc.lft.to/lastmile_qr_scan", "android": "https://dc.lft.to/lastmile_qr_scan"}, "is_reserved": 0}, {"lon": -77.021593, "bike_id": "4fcfef350aa354105e242632551a74f9", "lat": 38.9309125, "fusion_lon": 0.0, "fusion_lat": 0.0, "type": "electric_scooter", "name": "4fcfef350aa354105e242632551a74f9", "is_disabled": 0, "rental_uris": {"ios": "https://dc.lft.to/lastmile_qr_scan", "android": "https://dc.lft.to/lastmile_qr_scan"}, "is_reserved": 0}, {"lon": -77.03177116666667, "bike_id": "9c440681b53fb220110f7826a8e8877b", "lat": 38.91255316666667, "fusion_lon": 0.0, "fusion_lat": 0.0, "type": "electric_scooter", "name": "9c440681b53fb220110f7826a8e8877b", "is_disabled": 0, "rental_uris": {"ios": "https://dc.lft.to/lastmile_qr_scan", "android": "https://dc.lft.to/lastmile_qr_scan"}, "is_reserved": 0}, {"lon": -77.03480516666667, "bike_id": "23085319f871feb98f4b9d11287030f1", "lat": 38.9056175, "fusion_lon": 0.0, "fusion_lat": 0.0, "type": "electric_scooter", "name": "23085319f871feb98f4b9d11287030f1", "is_disabled": 0, "rental_uris": {"ios": "https://dc.lft.to/lastmile_qr_scan", "android": "https://dc.lft.to/lastmile_qr_scan"}, "is_reserved": 0}, {"lon": -77.03273, "bike_id": "5a39ee8336f1b5335ba4549ffed3281b", "lat": 38.93100966666667, "fusion_lon": 0.0, "fusion_lat": 0.0, "type": "electric_scooter", "name": "5a39ee8336f1b5335ba4549ffed3281b", "is_disabled": 0, "rental_uris": {"ios": "https://dc.lft.to/lastmile_qr_scan", "android": "https://dc.lft.to/lastmile_qr_scan"}, "is_reserved": 0}, {"lon": -77.00554833333334, "bike_id": "e388f27fa676d7dccc9e59ee76e76188", "lat": 38.8804695, "fusion_lon": 0.0, "fusion_lat": 0.0, "type": "electric_scooter", "name": "e388f27fa676d7dccc9e59ee76e76188", "is_disabled": 0, "rental_uris": {"ios": "https://dc.lft.to/lastmile_qr_scan", "android": "https://dc.lft.to/lastmile_qr_scan"}, "is_reserved": 0}, {"lon": -77.0385445, "bike_id": "c7740a9432485a7e3a75f10546bf7b50", "lat": 38.9123105, "fusion_lon": 0.0, "fusion_lat": 0.0, "type": "electric_scooter", "name": "c7740a9432485a7e3a75f10546bf7b50", "is_disabled": 0, "rental_uris": {"ios": "https://dc.lft.to/lastmile_qr_scan", "android": "https://dc.lft.to/lastmile_qr_scan"}, "is_reserved": 0}, {"lon": -76.89540183333334, "bike_id": "19c7ee7955698fb16da23625e8778c25", "lat": 38.94550266666667, "fusion_lon": 0.0, "fusion_lat": 0.0, "type": "electric_bike", "name": "19c7ee7955698fb16da23625e8778c25", "is_disabled": 0, "rental_uris": {"ios": "https://dc.lft.to/lastmile_qr_scan", "android": "https://dc.lft.to/lastmile_qr_scan"}, "is_reserved": 0}, {"lon": -77.02728883333333, "bike_id": "519e302e76b6cfbe27833c7ea85c831a", "lat": 38.940898, "fusion_lon": 0.0, "fusion_lat": 0.0, "type": "electric_scooter", "name": "519e302e76b6cfbe27833c7ea85c831a", "is_disabled": 0, "rental_uris": {"ios": "https://dc.lft.to/lastmile_qr_scan", "android": "https://dc.lft.to/lastmile_qr_scan"}, "is_reserved": 0}, {"lon": -77.046521, "bike_id": "1b9292da525d2a614ae80afe6e9c6a5c", "lat": 38.903205666666665, "fusion_lon": 0.0, "fusion_lat": 0.0, "type": "electric_scooter", "name": "1b9292da525d2a614ae80afe6e9c6a5c", "is_disabled": 0, "rental_uris": {"ios": "https://dc.lft.to/lastmile_qr_scan", "android": "https://dc.lft.to/lastmile_qr_scan"}, "is_reserved": 0}, {"lon": -77.05596516666667, "bike_id": "10fdbff874b8bc4bb203a949cf57d5b0", "lat": 38.91617266666667, "fusion_lon": 0.0, "fusion_lat": 0.0, "type": "electric_scooter", "name": "10fdbff874b8bc4bb203a949cf57d5b0", "is_disabled": 0, "rental_uris": {"ios": "https://dc.lft.to/lastmile_qr_scan", "android": "https://dc.lft.to/lastmile_qr_scan"}, "is_reserved": 0}, {"lon": -77.07478966666666, "bike_id": "06143b827d459e68f2c8db52851cf90a", "lat": 38.963113666666665, "fusion_lon": 0.0, "fusion_lat": 0.0, "type": "electric_scooter", "name": "06143b827d459e68f2c8db52851cf90a", "is_disabled": 0, "rental_uris": {"ios": "https://dc.lft.to/lastmile_qr_scan", "android": "https://dc.lft.to/lastmile_qr_scan"}, "is_reserved": 0}, {"lon": -77.06138716666666, "bike_id": "31d9e2d20f0d3b6e789d7bfb71d5bb4d", "lat": 38.9052805, "fusion_lon": 0.0, "fusion_lat": 0.0, "type": "electric_scooter", "name": "31d9e2d20f0d3b6e789d7bfb71d5bb4d", "is_disabled": 0, "rental_uris": {"ios": "https://dc.lft.to/lastmile_qr_scan", "android": "https://dc.lft.to/lastmile_qr_scan"}, "is_reserved": 0}, {"lon": -77.0946825, "bike_id": "24b0b06c6868cce04d5e6e8de4e39779", "lat": 38.807604, "fusion_lon": 0.0, "fusion_lat": 0.0, "type": "electric_bike", "name": "24b0b06c6868cce04d5e6e8de4e39779", "is_disabled": 0, "rental_uris": {"ios": "https://dc.lft.to/lastmile_qr_scan", "android": "https://dc.lft.to/lastmile_qr_scan"}, "is_reserved": 0}, {"lon": -76.99473, "bike_id": "b252e1d333444303337ccab30fecd811", "lat": 38.88432533333334, "fusion_lon": 0.0, "fusion_lat": 0.0, "type": "electric_scooter", "name": "b252e1d333444303337ccab30fecd811", "is_disabled": 0, "rental_uris": {"ios": "https://dc.lft.to/lastmile_qr_scan", "android": "https://dc.lft.to/lastmile_qr_scan"}, "is_reserved": 0}, {"lon": -77.03653066666666, "bike_id": "4286e1af4f79ac460f55c9eef7805309", "lat": 38.922949, "fusion_lon": 0.0, "fusion_lat": 0.0, "type": "electric_scooter", "name": "4286e1af4f79ac460f55c9eef7805309", "is_disabled": 0, "rental_uris": {"ios": "https://dc.lft.to/lastmile_qr_scan", "android": "https://dc.lft.to/lastmile_qr_scan"}, "is_reserved": 0}, {"lon": -77.022127, "bike_id": "abae51b871e4706ff6e3da9c094c45c2", "lat": 38.899749, "fusion_lon": 0.0, "fusion_lat": 0.0, "type": "electric_scooter", "name": "abae51b871e4706ff6e3da9c094c45c2", "is_disabled": 0, "rental_uris": {"ios": "https://dc.lft.to/lastmile_qr_scan", "android": "https://dc.lft.to/lastmile_qr_scan"}, "is_reserved": 0}, {"lon": -77.0514905, "bike_id": "d40449a000aa8b0a2bfa7a97ff0d5a9d", "lat": 38.90515383333333, "fusion_lon": 0.0, "fusion_lat": 0.0, "type": "electric_scooter", "name": "d40449a000aa8b0a2bfa7a97ff0d5a9d", "is_disabled": 0, "rental_uris": {"ios": "https://dc.lft.to/lastmile_qr_scan", "android": "https://dc.lft.to/lastmile_qr_scan"}, "is_reserved": 0}, {"lon": -77.01314766666667, "bike_id": "ac3f08041f224de5b45113282f6da2cf", "lat": 38.89738033333333, "fusion_lon": 0.0, "fusion_lat": 0.0, "type": "electric_scooter", "name": "ac3f08041f224de5b45113282f6da2cf", "is_disabled": 0, "rental_uris": {"ios": "https://dc.lft.to/lastmile_qr_scan", "android": "https://dc.lft.to/lastmile_qr_scan"}, "is_reserved": 0}, {"lon": -77.0353955, "bike_id": "351fcb740a8df8c20d5d85d73b146c7a", "lat": 38.918230333333334, "fusion_lon": 0.0, "fusion_lat": 0.0, "type": "electric_scooter", "name": "351fcb740a8df8c20d5d85d73b146c7a", "is_disabled": 0, "rental_uris": {"ios": "https://dc.lft.to/lastmile_qr_scan", "android": "https://dc.lft.to/lastmile_qr_scan"}, "is_reserved": 0}, {"lon": -77.00930966666667, "bike_id": "cfb49df6566ed34dddb912402ff51a40", "lat": 38.896011333333334, "fusion_lon": 0.0, "fusion_lat": 0.0, "type": "electric_scooter", "name": "cfb49df6566ed34dddb912402ff51a40", "is_disabled": 0, "rental_uris": {"ios": "https://dc.lft.to/lastmile_qr_scan", "android": "https://dc.lft.to/lastmile_qr_scan"}, "is_reserved": 0}, {"lon": -76.9175895, "bike_id": "4bd6a91def089072e11ea55af7cee71e", "lat": 38.8883845, "fusion_lon": 0.0, "fusion_lat": 0.0, "type": "electric_scooter", "name": "4bd6a91def089072e11ea55af7cee71e", "is_disabled": 0, "rental_uris": {"ios": "https://dc.lft.to/lastmile_qr_scan", "android": "https://dc.lft.to/lastmile_qr_scan"}, "is_reserved": 0}, {"lon": -77.041576, "bike_id": "7953053925659c604d343607e331a513", "lat": 38.915482, "fusion_lon": 0.0, "fusion_lat": 0.0, "type": "electric_scooter", "name": "7953053925659c604d343607e331a513", "is_disabled": 0, "rental_uris": {"ios": "https://dc.lft.to/lastmile_qr_scan", "android": "https://dc.lft.to/lastmile_qr_scan"}, "is_reserved": 0}, {"lon": -76.9975005, "bike_id": "f647e2e5e4fabc790aa2b1c6b91c6326", "lat": 38.90028383333333, "fusion_lon": 0.0, "fusion_lat": 0.0, "type": "electric_scooter", "name": "f647e2e5e4fabc790aa2b1c6b91c6326", "is_disabled": 0, "rental_uris": {"ios": "https://dc.lft.to/lastmile_qr_scan", "android": "https://dc.lft.to/lastmile_qr_scan"}, "is_reserved": 0}, {"lon": -77.04204033333333, "bike_id": "81b155e1334776da6f994361fbd40751", "lat": 38.923150666666665, "fusion_lon": 0.0, "fusion_lat": 0.0, "type": "electric_scooter", "name": "81b155e1334776da6f994361fbd40751", "is_disabled": 0, "rental_uris": {"ios": "https://dc.lft.to/lastmile_qr_scan", "android": "https://dc.lft.to/lastmile_qr_scan"}, "is_reserved": 0}, {"lon": -77.02769083333334, "bike_id": "517cb0b30348b2f312172eaef2e49314", "lat": 38.954235, "fusion_lon": 0.0, "fusion_lat": 0.0, "type": "electric_scooter", "name": "517cb0b30348b2f312172eaef2e49314", "is_disabled": 0, "rental_uris": {"ios": "https://dc.lft.to/lastmile_qr_scan", "android": "https://dc.lft.to/lastmile_qr_scan"}, "is_reserved": 0}, {"lon": -77.000487, "bike_id": "77baae3067c2d71ab7d5a6b6995620ef", "lat": 38.8745895, "fusion_lon": 0.0, "fusion_lat": 0.0, "type": "electric_scooter", "name": "77baae3067c2d71ab7d5a6b6995620ef", "is_disabled": 0, "rental_uris": {"ios": "https://dc.lft.to/lastmile_qr_scan", "android": "https://dc.lft.to/lastmile_qr_scan"}, "is_reserved": 0}, {"lon": -77.02487883333333, "bike_id": "0de4ea48bc13f4d049a9df277e56e14d", "lat": 38.88004166666666, "fusion_lon": 0.0, "fusion_lat": 0.0, "type": "electric_scooter", "name": "0de4ea48bc13f4d049a9df277e56e14d", "is_disabled": 0, "rental_uris": {"ios": "https://dc.lft.to/lastmile_qr_scan", "android": "https://dc.lft.to/lastmile_qr_scan"}, "is_reserved": 0}, {"lon": -77.00553066666667, "bike_id": "157d2dbce176f146237104c373fdd8e0", "lat": 38.90037783333333, "fusion_lon": 0.0, "fusion_lat": 0.0, "type": "electric_scooter", "name": "157d2dbce176f146237104c373fdd8e0", "is_disabled": 0, "rental_uris": {"ios": "https://dc.lft.to/lastmile_qr_scan", "android": "https://dc.lft.to/lastmile_qr_scan"}, "is_reserved": 0}, {"lon": -76.9790865, "bike_id": "573be649fadf753167624e2ddb3010e3", "lat": 38.863457333333336, "fusion_lon": 0.0, "fusion_lat": 0.0, "type": "electric_scooter", "name": "573be649fadf753167624e2ddb3010e3", "is_disabled": 0, "rental_uris": {"ios": "https://dc.lft.to/lastmile_qr_scan", "android": "https://dc.lft.to/lastmile_qr_scan"}, "is_reserved": 0}, {"lon": -77.028347, "bike_id": "1e084deca345295305ed1ffaaeceae66", "lat": 38.908549666666666, "fusion_lon": 0.0, "fusion_lat": 0.0, "type": "electric_scooter", "name": "1e084deca345295305ed1ffaaeceae66", "is_disabled": 0, "rental_uris": {"ios": "https://dc.lft.to/lastmile_qr_scan", "android": "https://dc.lft.to/lastmile_qr_scan"}, "is_reserved": 0}, {"lon": -77.02813683333333, "bike_id": "1be558e31b7e4057585f88b25094320e", "lat": 38.88176266666667, "fusion_lon": 0.0, "fusion_lat": 0.0, "type": "electric_scooter", "name": "1be558e31b7e4057585f88b25094320e", "is_disabled": 0, "rental_uris": {"ios": "https://dc.lft.to/lastmile_qr_scan", "android": "https://dc.lft.to/lastmile_qr_scan"}, "is_reserved": 0}, {"lon": -77.01997066666667, "bike_id": "1f999fcb64f307e2e670bd24185cffb6", "lat": 38.966272333333336, "fusion_lon": 0.0, "fusion_lat": 0.0, "type": "electric_scooter", "name": "1f999fcb64f307e2e670bd24185cffb6", "is_disabled": 0, "rental_uris": {"ios": "https://dc.lft.to/lastmile_qr_scan", "android": "https://dc.lft.to/lastmile_qr_scan"}, "is_reserved": 0}, {"lon": -77.02222816666666, "bike_id": "15e74cf79534b1a1434a3920a7636a9e", "lat": 38.89215266666667, "fusion_lon": 0.0, "fusion_lat": 0.0, "type": "electric_scooter", "name": "15e74cf79534b1a1434a3920a7636a9e", "is_disabled": 0, "rental_uris": {"ios": "https://dc.lft.to/lastmile_qr_scan", "android": "https://dc.lft.to/lastmile_qr_scan"}, "is_reserved": 0}, {"lon": -77.02347183333333, "bike_id": "747cc406bd3820077458a0a4e20f483c", "lat": 38.922485333333334, "fusion_lon": 0.0, "fusion_lat": 0.0, "type": "electric_scooter", "name": "747cc406bd3820077458a0a4e20f483c", "is_disabled": 0, "rental_uris": {"ios": "https://dc.lft.to/lastmile_qr_scan", "android": "https://dc.lft.to/lastmile_qr_scan"}, "is_reserved": 0}, {"lon": -77.037013, "bike_id": "3fcd4237df94363c023bef342110fbaf", "lat": 38.918135166666666, "fusion_lon": 0.0, "fusion_lat": 0.0, "type": "electric_scooter", "name": "3fcd4237df94363c023bef342110fbaf", "is_disabled": 0, "rental_uris": {"ios": "https://dc.lft.to/lastmile_qr_scan", "android": "https://dc.lft.to/lastmile_qr_scan"}, "is_reserved": 0}, {"lon": -76.98710833333334, "bike_id": "286ff303b0d49af445307b432d27c69f", "lat": 38.91221866666667, "fusion_lon": 0.0, "fusion_lat": 0.0, "type": "electric_scooter", "name": "286ff303b0d49af445307b432d27c69f", "is_disabled": 0, "rental_uris": {"ios": "https://dc.lft.to/lastmile_qr_scan", "android": "https://dc.lft.to/lastmile_qr_scan"}, "is_reserved": 0}, {"lon": -77.02798033333333, "bike_id": "6fcd73f4b15fac9ab4f07ede1766a519", "lat": 38.953953, "fusion_lon": 0.0, "fusion_lat": 0.0, "type": "electric_scooter", "name": "6fcd73f4b15fac9ab4f07ede1766a519", "is_disabled": 0, "rental_uris": {"ios": "https://dc.lft.to/lastmile_qr_scan", "android": "https://dc.lft.to/lastmile_qr_scan"}, "is_reserved": 0}, {"lon": -77.02327766666667, "bike_id": "ad9fb51fd078fa916a6e91e09c319427", "lat": 38.8922785, "fusion_lon": 0.0, "fusion_lat": 0.0, "type": "electric_scooter", "name": "ad9fb51fd078fa916a6e91e09c319427", "is_disabled": 0, "rental_uris": {"ios": "https://dc.lft.to/lastmile_qr_scan", "android": "https://dc.lft.to/lastmile_qr_scan"}, "is_reserved": 0}, {"lon": -77.030837, "bike_id": "5b602ae9c3620353cd41a13449b6f660", "lat": 38.92239766666667, "fusion_lon": 0.0, "fusion_lat": 0.0, "type": "electric_scooter", "name": "5b602ae9c3620353cd41a13449b6f660", "is_disabled": 0, "rental_uris": {"ios": "https://dc.lft.to/lastmile_qr_scan", "android": "https://dc.lft.to/lastmile_qr_scan"}, "is_reserved": 0}, {"lon": -76.98368316666667, "bike_id": "4c976c5a942d6a1e4012acec0473d77b", "lat": 38.91539083333333, "fusion_lon": 0.0, "fusion_lat": 0.0, "type": "electric_scooter", "name": "4c976c5a942d6a1e4012acec0473d77b", "is_disabled": 0, "rental_uris": {"ios": "https://dc.lft.to/lastmile_qr_scan", "android": "https://dc.lft.to/lastmile_qr_scan"}, "is_reserved": 0}, {"lon": -77.0503255, "bike_id": "e73640e163734f4fe303daab366f11ef", "lat": 38.898249, "fusion_lon": 0.0, "fusion_lat": 0.0, "type": "electric_scooter", "name": "e73640e163734f4fe303daab366f11ef", "is_disabled": 0, "rental_uris": {"ios": "https://dc.lft.to/lastmile_qr_scan", "android": "https://dc.lft.to/lastmile_qr_scan"}, "is_reserved": 0}, {"lon": -76.98113233333333, "bike_id": "ae5464d06141c7517326a3112abaf785", "lat": 38.904038166666666, "fusion_lon": 0.0, "fusion_lat": 0.0, "type": "electric_scooter", "name": "ae5464d06141c7517326a3112abaf785", "is_disabled": 0, "rental_uris": {"ios": "https://dc.lft.to/lastmile_qr_scan", "android": "https://dc.lft.to/lastmile_qr_scan"}, "is_reserved": 0}, {"lon": -77.03285283333334, "bike_id": "e5a2e0bd56e9f64cdedfbfc912124e56", "lat": 38.93640833333333, "fusion_lon": 0.0, "fusion_lat": 0.0, "type": "electric_scooter", "name": "e5a2e0bd56e9f64cdedfbfc912124e56", "is_disabled": 0, "rental_uris": {"ios": "https://dc.lft.to/lastmile_qr_scan", "android": "https://dc.lft.to/lastmile_qr_scan"}, "is_reserved": 0}, {"lon": -77.04104233333334, "bike_id": "67f2003f42ceef60544e28434f2de9db", "lat": 38.918554, "fusion_lon": 0.0, "fusion_lat": 0.0, "type": "electric_scooter", "name": "67f2003f42ceef60544e28434f2de9db", "is_disabled": 0, "rental_uris": {"ios": "https://dc.lft.to/lastmile_qr_scan", "android": "https://dc.lft.to/lastmile_qr_scan"}, "is_reserved": 0}, {"lon": -77.0593985, "bike_id": "b05d8c9b0729f7b55239fe5ea0d53732", "lat": 38.91188483333333, "fusion_lon": 0.0, "fusion_lat": 0.0, "type": "electric_bike", "name": "b05d8c9b0729f7b55239fe5ea0d53732", "is_disabled": 0, "rental_uris": {"ios": "https://dc.lft.to/lastmile_qr_scan", "android": "https://dc.lft.to/lastmile_qr_scan"}, "is_reserved": 0}, {"lon": -76.956607, "bike_id": "aa286b2f5ad480c5806b9c14cb5c858c", "lat": 38.8955455, "fusion_lon": 0.0, "fusion_lat": 0.0, "type": "electric_scooter", "name": "aa286b2f5ad480c5806b9c14cb5c858c", "is_disabled": 0, "rental_uris": {"ios": "https://dc.lft.to/lastmile_qr_scan", "android": "https://dc.lft.to/lastmile_qr_scan"}, "is_reserved": 0}, {"lon": -77.03432316666667, "bike_id": "bcb0fd19f8ba5107d42795fca6634916", "lat": 38.903658166666666, "fusion_lon": 0.0, "fusion_lat": 0.0, "type": "electric_scooter", "name": "bcb0fd19f8ba5107d42795fca6634916", "is_disabled": 0, "rental_uris": {"ios": "https://dc.lft.to/lastmile_qr_scan", "android": "https://dc.lft.to/lastmile_qr_scan"}, "is_reserved": 0}, {"lon": -76.9994435, "bike_id": "0953361455351577b2705d041e367db3", "lat": 38.89740666666667, "fusion_lon": 0.0, "fusion_lat": 0.0, "type": "electric_scooter", "name": "0953361455351577b2705d041e367db3", "is_disabled": 0, "rental_uris": {"ios": "https://dc.lft.to/lastmile_qr_scan", "android": "https://dc.lft.to/lastmile_qr_scan"}, "is_reserved": 0}, {"lon": -77.178406, "bike_id": "ef13d4574a1c5df2761ff2e2874a3eb7", "lat": 39.08849566666667, "fusion_lon": 0.0, "fusion_lat": 0.0, "type": "electric_bike", "name": "ef13d4574a1c5df2761ff2e2874a3eb7", "is_disabled": 0, "rental_uris": {"ios": "https://dc.lft.to/lastmile_qr_scan", "android": "https://dc.lft.to/lastmile_qr_scan"}, "is_reserved": 0}, {"lon": -76.9900835, "bike_id": "f1425956bcebdda7a3eda286a3efae25", "lat": 38.90393516666666, "fusion_lon": 0.0, "fusion_lat": 0.0, "type": "electric_scooter", "name": "f1425956bcebdda7a3eda286a3efae25", "is_disabled": 0, "rental_uris": {"ios": "https://dc.lft.to/lastmile_qr_scan", "android": "https://dc.lft.to/lastmile_qr_scan"}, "is_reserved": 0}, {"lon": -76.99176166666666, "bike_id": "03c9a77127e9aae052c0e2985b8c8e47", "lat": 38.90956933333333, "fusion_lon": 0.0, "fusion_lat": 0.0, "type": "electric_scooter", "name": "03c9a77127e9aae052c0e2985b8c8e47", "is_disabled": 0, "rental_uris": {"ios": "https://dc.lft.to/lastmile_qr_scan", "android": "https://dc.lft.to/lastmile_qr_scan"}, "is_reserved": 0}, {"lon": -77.02505233333333, "bike_id": "2215908371a474ff788a554b4d78f727", "lat": 38.90717866666667, "fusion_lon": 0.0, "fusion_lat": 0.0, "type": "electric_scooter", "name": "2215908371a474ff788a554b4d78f727", "is_disabled": 0, "rental_uris": {"ios": "https://dc.lft.to/lastmile_qr_scan", "android": "https://dc.lft.to/lastmile_qr_scan"}, "is_reserved": 0}, {"lon": -76.98728416666667, "bike_id": "a049d1c7d7dca0e341487bfdc1dfb255", "lat": 38.8670685, "fusion_lon": 0.0, "fusion_lat": 0.0, "type": "electric_scooter", "name": "a049d1c7d7dca0e341487bfdc1dfb255", "is_disabled": 0, "rental_uris": {"ios": "https://dc.lft.to/lastmile_qr_scan", "android": "https://dc.lft.to/lastmile_qr_scan"}, "is_reserved": 0}, {"lon": -77.03122666666667, "bike_id": "ca903952048ed521b24e2f08ab80c130", "lat": 38.91702516666667, "fusion_lon": 0.0, "fusion_lat": 0.0, "type": "electric_scooter", "name": "ca903952048ed521b24e2f08ab80c130", "is_disabled": 0, "rental_uris": {"ios": "https://dc.lft.to/lastmile_qr_scan", "android": "https://dc.lft.to/lastmile_qr_scan"}, "is_reserved": 0}, {"lon": -77.067408, "bike_id": "8cb0f33459545a15521a0e428dc009ae", "lat": 38.90497533333333, "fusion_lon": 0.0, "fusion_lat": 0.0, "type": "electric_scooter", "name": "8cb0f33459545a15521a0e428dc009ae", "is_disabled": 0, "rental_uris": {"ios": "https://dc.lft.to/lastmile_qr_scan", "android": "https://dc.lft.to/lastmile_qr_scan"}, "is_reserved": 0}, {"lon": -76.99201883333333, "bike_id": "d05633b7995ab156d76c3ee7c26ac875", "lat": 38.900269, "fusion_lon": 0.0, "fusion_lat": 0.0, "type": "electric_scooter", "name": "d05633b7995ab156d76c3ee7c26ac875", "is_disabled": 0, "rental_uris": {"ios": "https://dc.lft.to/lastmile_qr_scan", "android": "https://dc.lft.to/lastmile_qr_scan"}, "is_reserved": 0}, {"lon": -77.029834, "bike_id": "afb17a9a27f927bb089bc81b41e37eac", "lat": 38.947378666666665, "fusion_lon": 0.0, "fusion_lat": 0.0, "type": "electric_scooter", "name": "afb17a9a27f927bb089bc81b41e37eac", "is_disabled": 0, "rental_uris": {"ios": "https://dc.lft.to/lastmile_qr_scan", "android": "https://dc.lft.to/lastmile_qr_scan"}, "is_reserved": 0}, {"lon": -77.0220635, "bike_id": "ec0cd6455c3a405265dd589e352b4f9c", "lat": 38.91384033333333, "fusion_lon": 0.0, "fusion_lat": 0.0, "type": "electric_scooter", "name": "ec0cd6455c3a405265dd589e352b4f9c", "is_disabled": 0, "rental_uris": {"ios": "https://dc.lft.to/lastmile_qr_scan", "android": "https://dc.lft.to/lastmile_qr_scan"}, "is_reserved": 0}, {"lon": -76.98587383333333, "bike_id": "d3668fed9c5a2c3dc81f770b95d0f0f0", "lat": 38.86058966666667, "fusion_lon": 0.0, "fusion_lat": 0.0, "type": "electric_scooter", "name": "d3668fed9c5a2c3dc81f770b95d0f0f0", "is_disabled": 0, "rental_uris": {"ios": "https://dc.lft.to/lastmile_qr_scan", "android": "https://dc.lft.to/lastmile_qr_scan"}, "is_reserved": 0}, {"lon": -77.10604866666667, "bike_id": "7083413380b3817e5d414cac4e0b89c7", "lat": 38.928898833333335, "fusion_lon": 0.0, "fusion_lat": 0.0, "type": "electric_bike", "name": "7083413380b3817e5d414cac4e0b89c7", "is_disabled": 0, "rental_uris": {"ios": "https://dc.lft.to/lastmile_qr_scan", "android": "https://dc.lft.to/lastmile_qr_scan"}, "is_reserved": 0}, {"lon": -77.038419, "bike_id": "e6f6da2a897bc33a8889519dc4825fe5", "lat": 38.90298466666667, "fusion_lon": 0.0, "fusion_lat": 0.0, "type": "electric_scooter", "name": "e6f6da2a897bc33a8889519dc4825fe5", "is_disabled": 0, "rental_uris": {"ios": "https://dc.lft.to/lastmile_qr_scan", "android": "https://dc.lft.to/lastmile_qr_scan"}, "is_reserved": 0}, {"lon": -76.96155583333334, "bike_id": "cdef6f326cc243d9e2df0850949b4305", "lat": 38.8836165, "fusion_lon": 0.0, "fusion_lat": 0.0, "type": "electric_scooter", "name": "cdef6f326cc243d9e2df0850949b4305", "is_disabled": 0, "rental_uris": {"ios": "https://dc.lft.to/lastmile_qr_scan", "android": "https://dc.lft.to/lastmile_qr_scan"}, "is_reserved": 0}, {"lon": -77.03225683333334, "bike_id": "231fbbf36c29a3d52fd6e6f6a8d40770", "lat": 38.914060166666665, "fusion_lon": 0.0, "fusion_lat": 0.0, "type": "electric_scooter", "name": "231fbbf36c29a3d52fd6e6f6a8d40770", "is_disabled": 0, "rental_uris": {"ios": "https://dc.lft.to/lastmile_qr_scan", "android": "https://dc.lft.to/lastmile_qr_scan"}, "is_reserved": 0}, {"lon": -77.04045516666666, "bike_id": "ee66fe70bfb225cf53992e1a5baa8ed4", "lat": 38.90350866666667, "fusion_lon": 0.0, "fusion_lat": 0.0, "type": "electric_scooter", "name": "ee66fe70bfb225cf53992e1a5baa8ed4", "is_disabled": 0, "rental_uris": {"ios": "https://dc.lft.to/lastmile_qr_scan", "android": "https://dc.lft.to/lastmile_qr_scan"}, "is_reserved": 0}, {"lon": -76.98542766666667, "bike_id": "13a19b09e446fdb9fd64986a99434c68", "lat": 38.9102455, "fusion_lon": 0.0, "fusion_lat": 0.0, "type": "electric_scooter", "name": "13a19b09e446fdb9fd64986a99434c68", "is_disabled": 0, "rental_uris": {"ios": "https://dc.lft.to/lastmile_qr_scan", "android": "https://dc.lft.to/lastmile_qr_scan"}, "is_reserved": 0}, {"lon": -77.03863233333334, "bike_id": "1ef01e72f15a9d547ceb9e3f9cc93d8e", "lat": 38.91716066666667, "fusion_lon": 0.0, "fusion_lat": 0.0, "type": "electric_scooter", "name": "1ef01e72f15a9d547ceb9e3f9cc93d8e", "is_disabled": 0, "rental_uris": {"ios": "https://dc.lft.to/lastmile_qr_scan", "android": "https://dc.lft.to/lastmile_qr_scan"}, "is_reserved": 0}, {"lon": -77.02819066666666, "bike_id": "a29f6490d29fda5ad4f22f72e9ee30ad", "lat": 38.89946166666667, "fusion_lon": 0.0, "fusion_lat": 0.0, "type": "electric_scooter", "name": "a29f6490d29fda5ad4f22f72e9ee30ad", "is_disabled": 0, "rental_uris": {"ios": "https://dc.lft.to/lastmile_qr_scan", "android": "https://dc.lft.to/lastmile_qr_scan"}, "is_reserved": 0}, {"lon": -77.02708433333333, "bike_id": "d76f8232c60338ebb2be9011090ea230", "lat": 38.927783166666664, "fusion_lon": 0.0, "fusion_lat": 0.0, "type": "electric_scooter", "name": "d76f8232c60338ebb2be9011090ea230", "is_disabled": 0, "rental_uris": {"ios": "https://dc.lft.to/lastmile_qr_scan", "android": "https://dc.lft.to/lastmile_qr_scan"}, "is_reserved": 0}, {"lon": -77.02184416666667, "bike_id": "4dd78380ec57f6d29b3a9e35fd3cff3c", "lat": 38.899062, "fusion_lon": 0.0, "fusion_lat": 0.0, "type": "electric_scooter", "name": "4dd78380ec57f6d29b3a9e35fd3cff3c", "is_disabled": 0, "rental_uris": {"ios": "https://dc.lft.to/lastmile_qr_scan", "android": "https://dc.lft.to/lastmile_qr_scan"}, "is_reserved": 0}, {"lon": -76.954753, "bike_id": "45f0f5427139275de3fed434f51a3778", "lat": 38.88659533333333, "fusion_lon": 0.0, "fusion_lat": 0.0, "type": "electric_scooter", "name": "45f0f5427139275de3fed434f51a3778", "is_disabled": 0, "rental_uris": {"ios": "https://dc.lft.to/lastmile_qr_scan", "android": "https://dc.lft.to/lastmile_qr_scan"}, "is_reserved": 0}, {"lon": -77.00927483333334, "bike_id": "691cb99db38f9a9d749c3178334b27e0", "lat": 38.8960555, "fusion_lon": 0.0, "fusion_lat": 0.0, "type": "electric_scooter", "name": "691cb99db38f9a9d749c3178334b27e0", "is_disabled": 0, "rental_uris": {"ios": "https://dc.lft.to/lastmile_qr_scan", "android": "https://dc.lft.to/lastmile_qr_scan"}, "is_reserved": 0}, {"lon": -77.04599583333334, "bike_id": "82fa8afe9a6bc4cfb146f29a82138c9b", "lat": 38.90771133333333, "fusion_lon": 0.0, "fusion_lat": 0.0, "type": "electric_scooter", "name": "82fa8afe9a6bc4cfb146f29a82138c9b", "is_disabled": 0, "rental_uris": {"ios": "https://dc.lft.to/lastmile_qr_scan", "android": "https://dc.lft.to/lastmile_qr_scan"}, "is_reserved": 0}, {"lon": -76.9866505, "bike_id": "5948e632555045f492914bd316871938", "lat": 38.867301166666664, "fusion_lon": 0.0, "fusion_lat": 0.0, "type": "electric_scooter", "name": "5948e632555045f492914bd316871938", "is_disabled": 0, "rental_uris": {"ios": "https://dc.lft.to/lastmile_qr_scan", "android": "https://dc.lft.to/lastmile_qr_scan"}, "is_reserved": 0}, {"lon": -77.02456033333333, "bike_id": "0a56b18099be5fa8fb5654bbcbd50edb", "lat": 38.917074666666664, "fusion_lon": 0.0, "fusion_lat": 0.0, "type": "electric_scooter", "name": "0a56b18099be5fa8fb5654bbcbd50edb", "is_disabled": 0, "rental_uris": {"ios": "https://dc.lft.to/lastmile_qr_scan", "android": "https://dc.lft.to/lastmile_qr_scan"}, "is_reserved": 0}, {"lon": -77.0213055, "bike_id": "f18a4a6929ae6d59c107afbed65620b7", "lat": 38.916078, "fusion_lon": 0.0, "fusion_lat": 0.0, "type": "electric_scooter", "name": "f18a4a6929ae6d59c107afbed65620b7", "is_disabled": 0, "rental_uris": {"ios": "https://dc.lft.to/lastmile_qr_scan", "android": "https://dc.lft.to/lastmile_qr_scan"}, "is_reserved": 0}, {"lon": -77.03283083333334, "bike_id": "53a0b46cf859b606dee9a06436b91a2c", "lat": 38.9364055, "fusion_lon": 0.0, "fusion_lat": 0.0, "type": "electric_scooter", "name": "53a0b46cf859b606dee9a06436b91a2c", "is_disabled": 0, "rental_uris": {"ios": "https://dc.lft.to/lastmile_qr_scan", "android": "https://dc.lft.to/lastmile_qr_scan"}, "is_reserved": 0}, {"lon": -77.03532516666667, "bike_id": "5ff683657802b89eab819bb9422b7205", "lat": 38.92144283333333, "fusion_lon": 0.0, "fusion_lat": 0.0, "type": "electric_scooter", "name": "5ff683657802b89eab819bb9422b7205", "is_disabled": 0, "rental_uris": {"ios": "https://dc.lft.to/lastmile_qr_scan", "android": "https://dc.lft.to/lastmile_qr_scan"}, "is_reserved": 0}, {"lon": -77.00046083333334, "bike_id": "5d5aba179a0664dc844e3b5cc6cb4b52", "lat": 38.896313166666665, "fusion_lon": 0.0, "fusion_lat": 0.0, "type": "electric_scooter", "name": "5d5aba179a0664dc844e3b5cc6cb4b52", "is_disabled": 0, "rental_uris": {"ios": "https://dc.lft.to/lastmile_qr_scan", "android": "https://dc.lft.to/lastmile_qr_scan"}, "is_reserved": 0}, {"lon": -77.04339316666666, "bike_id": "c71fd9a2e5363b30b1bcb8cbd9169078", "lat": 38.905626833333336, "fusion_lon": 0.0, "fusion_lat": 0.0, "type": "electric_scooter", "name": "c71fd9a2e5363b30b1bcb8cbd9169078", "is_disabled": 0, "rental_uris": {"ios": "https://dc.lft.to/lastmile_qr_scan", "android": "https://dc.lft.to/lastmile_qr_scan"}, "is_reserved": 0}, {"lon": -77.03703933333334, "bike_id": "bfd3dc25d937f50ded509c1d126d0d22", "lat": 38.92635833333333, "fusion_lon": 0.0, "fusion_lat": 0.0, "type": "electric_scooter", "name": "bfd3dc25d937f50ded509c1d126d0d22", "is_disabled": 0, "rental_uris": {"ios": "https://dc.lft.to/lastmile_qr_scan", "android": "https://dc.lft.to/lastmile_qr_scan"}, "is_reserved": 0}, {"lon": -77.03248016666667, "bike_id": "3e6c73f392c9ebef0be0422fdf39f9c1", "lat": 38.909815, "fusion_lon": 0.0, "fusion_lat": 0.0, "type": "electric_scooter", "name": "3e6c73f392c9ebef0be0422fdf39f9c1", "is_disabled": 0, "rental_uris": {"ios": "https://dc.lft.to/lastmile_qr_scan", "android": "https://dc.lft.to/lastmile_qr_scan"}, "is_reserved": 0}, {"lon": -77.02412783333334, "bike_id": "8dedc3fe6ee1f283694f2ccafd4c3fb2", "lat": 38.935113666666666, "fusion_lon": 0.0, "fusion_lat": 0.0, "type": "electric_scooter", "name": "8dedc3fe6ee1f283694f2ccafd4c3fb2", "is_disabled": 0, "rental_uris": {"ios": "https://dc.lft.to/lastmile_qr_scan", "android": "https://dc.lft.to/lastmile_qr_scan"}, "is_reserved": 0}, {"lon": -77.01413633333334, "bike_id": "db8b773901d3e501771872dd9779afaa", "lat": 38.928488, "fusion_lon": 0.0, "fusion_lat": 0.0, "type": "electric_scooter", "name": "db8b773901d3e501771872dd9779afaa", "is_disabled": 0, "rental_uris": {"ios": "https://dc.lft.to/lastmile_qr_scan", "android": "https://dc.lft.to/lastmile_qr_scan"}, "is_reserved": 0}, {"lon": -77.04173416666667, "bike_id": "93bdf3b71b3f7f2e007b0c45e4ff71e9", "lat": 38.905291166666665, "fusion_lon": 0.0, "fusion_lat": 0.0, "type": "electric_scooter", "name": "93bdf3b71b3f7f2e007b0c45e4ff71e9", "is_disabled": 0, "rental_uris": {"ios": "https://dc.lft.to/lastmile_qr_scan", "android": "https://dc.lft.to/lastmile_qr_scan"}, "is_reserved": 0}, {"lon": -77.05936016666666, "bike_id": "53a97790ec8b3f337ff6085057a369e0", "lat": 38.9124245, "fusion_lon": 0.0, "fusion_lat": 0.0, "type": "electric_scooter", "name": "53a97790ec8b3f337ff6085057a369e0", "is_disabled": 0, "rental_uris": {"ios": "https://dc.lft.to/lastmile_qr_scan", "android": "https://dc.lft.to/lastmile_qr_scan"}, "is_reserved": 0}, {"lon": -77.008295, "bike_id": "7a8d08b9e12b916ffb1a8494fff32e81", "lat": 38.913069666666665, "fusion_lon": 0.0, "fusion_lat": 0.0, "type": "electric_scooter", "name": "7a8d08b9e12b916ffb1a8494fff32e81", "is_disabled": 0, "rental_uris": {"ios": "https://dc.lft.to/lastmile_qr_scan", "android": "https://dc.lft.to/lastmile_qr_scan"}, "is_reserved": 0}, {"lon": -76.99711716666667, "bike_id": "c7eb7047161598a23533538848ea7234", "lat": 38.911143, "fusion_lon": 0.0, "fusion_lat": 0.0, "type": "electric_scooter", "name": "c7eb7047161598a23533538848ea7234", "is_disabled": 0, "rental_uris": {"ios": "https://dc.lft.to/lastmile_qr_scan", "android": "https://dc.lft.to/lastmile_qr_scan"}, "is_reserved": 0}, {"lon": -77.10916166666667, "bike_id": "c519fa9876e32ebd2ee41f05bf606be8", "lat": 39.05196133333333, "fusion_lon": 0.0, "fusion_lat": 0.0, "type": "electric_bike", "name": "c519fa9876e32ebd2ee41f05bf606be8", "is_disabled": 0, "rental_uris": {"ios": "https://dc.lft.to/lastmile_qr_scan", "android": "https://dc.lft.to/lastmile_qr_scan"}, "is_reserved": 0}, {"lon": -77.0268755, "bike_id": "1093294f075cb6db274a030955c159fc", "lat": 38.89799633333333, "fusion_lon": 0.0, "fusion_lat": 0.0, "type": "electric_scooter", "name": "1093294f075cb6db274a030955c159fc", "is_disabled": 0, "rental_uris": {"ios": "https://dc.lft.to/lastmile_qr_scan", "android": "https://dc.lft.to/lastmile_qr_scan"}, "is_reserved": 0}, {"lon": -76.93001783333334, "bike_id": "d9be54669875359e1e792ee08ae041f4", "lat": 38.90181716666667, "fusion_lon": 0.0, "fusion_lat": 0.0, "type": "electric_scooter", "name": "d9be54669875359e1e792ee08ae041f4", "is_disabled": 0, "rental_uris": {"ios": "https://dc.lft.to/lastmile_qr_scan", "android": "https://dc.lft.to/lastmile_qr_scan"}, "is_reserved": 0}, {"lon": -77.04822783333333, "bike_id": "98cfbeb2416a2c1970e0a2e0b7ff4f35", "lat": 38.90513166666667, "fusion_lon": 0.0, "fusion_lat": 0.0, "type": "electric_scooter", "name": "98cfbeb2416a2c1970e0a2e0b7ff4f35", "is_disabled": 0, "rental_uris": {"ios": "https://dc.lft.to/lastmile_qr_scan", "android": "https://dc.lft.to/lastmile_qr_scan"}, "is_reserved": 0}, {"lon": -77.02117216666667, "bike_id": "253bd2b5a2570ce1ddcad256444423ee", "lat": 38.917381666666664, "fusion_lon": 0.0, "fusion_lat": 0.0, "type": "electric_scooter", "name": "253bd2b5a2570ce1ddcad256444423ee", "is_disabled": 0, "rental_uris": {"ios": "https://dc.lft.to/lastmile_qr_scan", "android": "https://dc.lft.to/lastmile_qr_scan"}, "is_reserved": 0}, {"lon": -77.041869, "bike_id": "988d0c13369bb60881130eb3cddd6678", "lat": 38.90365516666667, "fusion_lon": 0.0, "fusion_lat": 0.0, "type": "electric_scooter", "name": "988d0c13369bb60881130eb3cddd6678", "is_disabled": 0, "rental_uris": {"ios": "https://dc.lft.to/lastmile_qr_scan", "android": "https://dc.lft.to/lastmile_qr_scan"}, "is_reserved": 0}, {"lon": -77.045941, "bike_id": "a4f218f94cf807e2ab9601c725866db3", "lat": 38.903348666666666, "fusion_lon": 0.0, "fusion_lat": 0.0, "type": "electric_scooter", "name": "a4f218f94cf807e2ab9601c725866db3", "is_disabled": 0, "rental_uris": {"ios": "https://dc.lft.to/lastmile_qr_scan", "android": "https://dc.lft.to/lastmile_qr_scan"}, "is_reserved": 0}, {"lon": -77.011168, "bike_id": "2f1b1ca238e814d2a6764b72f5519d60", "lat": 38.88547766666667, "fusion_lon": 0.0, "fusion_lat": 0.0, "type": "electric_scooter", "name": "2f1b1ca238e814d2a6764b72f5519d60", "is_disabled": 0, "rental_uris": {"ios": "https://dc.lft.to/lastmile_qr_scan", "android": "https://dc.lft.to/lastmile_qr_scan"}, "is_reserved": 0}, {"lon": -77.0097265, "bike_id": "bbc2757f54425349332d80a4cc2ff201", "lat": 38.91183083333333, "fusion_lon": 0.0, "fusion_lat": 0.0, "type": "electric_scooter", "name": "bbc2757f54425349332d80a4cc2ff201", "is_disabled": 0, "rental_uris": {"ios": "https://dc.lft.to/lastmile_qr_scan", "android": "https://dc.lft.to/lastmile_qr_scan"}, "is_reserved": 0}, {"lon": -77.03774016666667, "bike_id": "f41fe51e4861449460d27db8bcded358", "lat": 38.9169305, "fusion_lon": 0.0, "fusion_lat": 0.0, "type": "electric_scooter", "name": "f41fe51e4861449460d27db8bcded358", "is_disabled": 0, "rental_uris": {"ios": "https://dc.lft.to/lastmile_qr_scan", "android": "https://dc.lft.to/lastmile_qr_scan"}, "is_reserved": 0}, {"lon": -77.03340816666666, "bike_id": "609450a54537154f22c99f435ae51f80", "lat": 38.9286895, "fusion_lon": 0.0, "fusion_lat": 0.0, "type": "electric_scooter", "name": "609450a54537154f22c99f435ae51f80", "is_disabled": 0, "rental_uris": {"ios": "https://dc.lft.to/lastmile_qr_scan", "android": "https://dc.lft.to/lastmile_qr_scan"}, "is_reserved": 0}, {"lon": -77.0072615, "bike_id": "e39c86fd9a9f6315cd998471a1df0580", "lat": 38.90060866666666, "fusion_lon": 0.0, "fusion_lat": 0.0, "type": "electric_scooter", "name": "e39c86fd9a9f6315cd998471a1df0580", "is_disabled": 0, "rental_uris": {"ios": "https://dc.lft.to/lastmile_qr_scan", "android": "https://dc.lft.to/lastmile_qr_scan"}, "is_reserved": 0}, {"lon": -77.0498805, "bike_id": "f3648b96b3c36a53628fb2eb72e5a6ad", "lat": 38.89608166666667, "fusion_lon": 0.0, "fusion_lat": 0.0, "type": "electric_scooter", "name": "f3648b96b3c36a53628fb2eb72e5a6ad", "is_disabled": 0, "rental_uris": {"ios": "https://dc.lft.to/lastmile_qr_scan", "android": "https://dc.lft.to/lastmile_qr_scan"}, "is_reserved": 0}, {"lon": -77.05472666666667, "bike_id": "11d767872dd5c80db977c4cf8b9c8a51", "lat": 38.897923666666664, "fusion_lon": 0.0, "fusion_lat": 0.0, "type": "electric_scooter", "name": "11d767872dd5c80db977c4cf8b9c8a51", "is_disabled": 0, "rental_uris": {"ios": "https://dc.lft.to/lastmile_qr_scan", "android": "https://dc.lft.to/lastmile_qr_scan"}, "is_reserved": 0}, {"lon": -77.04181366666667, "bike_id": "530a854aafb3120e281526423d2e9f3b", "lat": 38.916551, "fusion_lon": 0.0, "fusion_lat": 0.0, "type": "electric_scooter", "name": "530a854aafb3120e281526423d2e9f3b", "is_disabled": 0, "rental_uris": {"ios": "https://dc.lft.to/lastmile_qr_scan", "android": "https://dc.lft.to/lastmile_qr_scan"}, "is_reserved": 0}, {"lon": -76.9965325, "bike_id": "519a3e1412139ab6a2ab36286ac57647", "lat": 38.988251, "fusion_lon": 0.0, "fusion_lat": 0.0, "type": "electric_bike", "name": "519a3e1412139ab6a2ab36286ac57647", "is_disabled": 0, "rental_uris": {"ios": "https://dc.lft.to/lastmile_qr_scan", "android": "https://dc.lft.to/lastmile_qr_scan"}, "is_reserved": 0}, {"lon": -77.021017, "bike_id": "6928ad170966563f33c4ba73ca943805", "lat": 38.926998833333336, "fusion_lon": 0.0, "fusion_lat": 0.0, "type": "electric_scooter", "name": "6928ad170966563f33c4ba73ca943805", "is_disabled": 0, "rental_uris": {"ios": "https://dc.lft.to/lastmile_qr_scan", "android": "https://dc.lft.to/lastmile_qr_scan"}, "is_reserved": 0}, {"lon": -76.9917625, "bike_id": "22f7356dba518100f6497c0450f1956a", "lat": 38.88990666666667, "fusion_lon": 0.0, "fusion_lat": 0.0, "type": "electric_scooter", "name": "22f7356dba518100f6497c0450f1956a", "is_disabled": 0, "rental_uris": {"ios": "https://dc.lft.to/lastmile_qr_scan", "android": "https://dc.lft.to/lastmile_qr_scan"}, "is_reserved": 0}, {"lon": -77.048105, "bike_id": "17aaf869428f0fb7339a05166f0781fd", "lat": 38.90473, "fusion_lon": 0.0, "fusion_lat": 0.0, "type": "electric_scooter", "name": "17aaf869428f0fb7339a05166f0781fd", "is_disabled": 0, "rental_uris": {"ios": "https://dc.lft.to/lastmile_qr_scan", "android": "https://dc.lft.to/lastmile_qr_scan"}, "is_reserved": 0}, {"lon": -77.04460916666666, "bike_id": "645ad703aca35f91326c8cbc678522f2", "lat": 38.909600833333336, "fusion_lon": 0.0, "fusion_lat": 0.0, "type": "electric_scooter", "name": "645ad703aca35f91326c8cbc678522f2", "is_disabled": 0, "rental_uris": {"ios": "https://dc.lft.to/lastmile_qr_scan", "android": "https://dc.lft.to/lastmile_qr_scan"}, "is_reserved": 0}, {"lon": -76.95757583333334, "bike_id": "d91376e0e08a1f0ab60798370f2852b5", "lat": 38.884280833333335, "fusion_lon": 0.0, "fusion_lat": 0.0, "type": "electric_scooter", "name": "d91376e0e08a1f0ab60798370f2852b5", "is_disabled": 0, "rental_uris": {"ios": "https://dc.lft.to/lastmile_qr_scan", "android": "https://dc.lft.to/lastmile_qr_scan"}, "is_reserved": 0}, {"lon": -77.0113665, "bike_id": "a09c03ae7122e5ed93c606a448f1398c", "lat": 38.894696333333336, "fusion_lon": 0.0, "fusion_lat": 0.0, "type": "electric_scooter", "name": "a09c03ae7122e5ed93c606a448f1398c", "is_disabled": 0, "rental_uris": {"ios": "https://dc.lft.to/lastmile_qr_scan", "android": "https://dc.lft.to/lastmile_qr_scan"}, "is_reserved": 0}, {"lon": -77.0260205, "bike_id": "e90ad142cf0e3f463b7873ce94aaec2f", "lat": 38.9182805, "fusion_lon": 0.0, "fusion_lat": 0.0, "type": "electric_scooter", "name": "e90ad142cf0e3f463b7873ce94aaec2f", "is_disabled": 0, "rental_uris": {"ios": "https://dc.lft.to/lastmile_qr_scan", "android": "https://dc.lft.to/lastmile_qr_scan"}, "is_reserved": 0}, {"lon": -76.97648066666666, "bike_id": "6cb2c4b72d8617d98336f8749d506b7f", "lat": 38.8645625, "fusion_lon": 0.0, "fusion_lat": 0.0, "type": "electric_scooter", "name": "6cb2c4b72d8617d98336f8749d506b7f", "is_disabled": 0, "rental_uris": {"ios": "https://dc.lft.to/lastmile_qr_scan", "android": "https://dc.lft.to/lastmile_qr_scan"}, "is_reserved": 0}, {"lon": -77.02942783333333, "bike_id": "95d5df2d879f302f10ca606a72197f41", "lat": 38.916741, "fusion_lon": 0.0, "fusion_lat": 0.0, "type": "electric_scooter", "name": "95d5df2d879f302f10ca606a72197f41", "is_disabled": 0, "rental_uris": {"ios": "https://dc.lft.to/lastmile_qr_scan", "android": "https://dc.lft.to/lastmile_qr_scan"}, "is_reserved": 0}, {"lon": -77.0301065, "bike_id": "f0fa7df49eacbb40d390f8ee105ebe0d", "lat": 38.92030883333334, "fusion_lon": 0.0, "fusion_lat": 0.0, "type": "electric_scooter", "name": "f0fa7df49eacbb40d390f8ee105ebe0d", "is_disabled": 0, "rental_uris": {"ios": "https://dc.lft.to/lastmile_qr_scan", "android": "https://dc.lft.to/lastmile_qr_scan"}, "is_reserved": 0}, {"lon": -77.07686, "bike_id": "9bc5a4948ef8b2221a10bbaf827220fd", "lat": 38.840808, "fusion_lon": 0.0, "fusion_lat": 0.0, "type": "electric_bike", "name": "9bc5a4948ef8b2221a10bbaf827220fd", "is_disabled": 0, "rental_uris": {"ios": "https://dc.lft.to/lastmile_qr_scan", "android": "https://dc.lft.to/lastmile_qr_scan"}, "is_reserved": 0}, {"lon": -76.999314, "bike_id": "a084b7083c4c588afbfc5a4bace934ad", "lat": 38.907677166666666, "fusion_lon": 0.0, "fusion_lat": 0.0, "type": "electric_scooter", "name": "a084b7083c4c588afbfc5a4bace934ad", "is_disabled": 0, "rental_uris": {"ios": "https://dc.lft.to/lastmile_qr_scan", "android": "https://dc.lft.to/lastmile_qr_scan"}, "is_reserved": 0}, {"lon": -77.026933, "bike_id": "0daa58b5fc1e3ff232a2167ab977c584", "lat": 38.90683966666667, "fusion_lon": 0.0, "fusion_lat": 0.0, "type": "electric_scooter", "name": "0daa58b5fc1e3ff232a2167ab977c584", "is_disabled": 0, "rental_uris": {"ios": "https://dc.lft.to/lastmile_qr_scan", "android": "https://dc.lft.to/lastmile_qr_scan"}, "is_reserved": 0},