{"data": {"bikes": [{"rental_uris": {"ios": "https://dc.lft.to/lastmile_qr_scan", "android": "https://dc.lft.to/lastmile_qr_scan"}, "fusion_lat": 0.0, "name": "313145125bb747720d435afa0935ec29", "bike_id": "313145125bb747720d435afa0935ec29", "is_disabled": 0, "type": "electric_scooter", "lat": 38.866558833333336, "lon": -76.9887945, "is_reserved": 0, "fusion_lon": 0.0}, {"rental_uris": {"ios": "https://dc.lft.to/lastmile_qr_scan", "android": "https://dc.lft.to/lastmile_qr_scan"}, "fusion_lat": 0.0, "name": "e8eb01697adfec611c70857561589ae7", "bike_id": "e8eb01697adfec611c70857561589ae7", "is_disabled": 0, "type": "electric_scooter", "lat": 38.913017833333335, "lon": -77.04348, "is_reserved": 0, "fusion_lon": 0.0}, {"rental_uris": {"ios": "https://dc.lft.to/lastmile_qr_scan", "android": "https://dc.lft.to/lastmile_qr_scan"}, "fusion_lat": 0.0, "name": "35ef799aa84e64ec4dbdecf6efc201c0", "bike_id": "35ef799aa84e64ec4dbdecf6efc201c0", "is_disabled": 0, "type": "electric_scooter", "lat": 38.90582333333333, "lon": -77.00603116666667, "is_reserved": 0, "fusion_lon": 0.0}, {"rental_uris": {"ios": "https://dc.lft.to/lastmile_qr_scan", "android": "https://dc.lft.to/lastmile_qr_scan"}, "fusion_lat": 0.0, "name": "53c57993b0f2fbed3e5c9871c7de7e44", "bike_id": "53c57993b0f2fbed3e5c9871c7de7e44", "is_disabled": 0, "type": "electric_scooter", "lat": 38.91806166666667, "lon": -77.0228715, "is_reserved": 0, "fusion_lon": 0.0}, {"rental_uris": {"ios": "https://dc.lft.to/lastmile_qr_scan", "android": "https://dc.lft.to/lastmile_qr_scan"}, "fusion_lat": 0.0, "name": "382b643391a6a7f13a7dcdac94713dfc", "bike_id": "382b643391a6a7f13a7dcdac94713dfc", "is_disabled": 0, "type": "electric_scooter", "lat": 38.895260666666665, "lon": -77.0433485, "is_reserved": 0, "fusion_lon": 0.0}, {"rental_uris": {"ios": "https://dc.lft.to/lastmile_qr_scan", "android": "https://dc.lft.to/lastmile_qr_scan"}, "fusion_lat": 0.0, "name": "d5b283ac0c1d2bbc93312924f18196d2", "bike_id": "d5b283ac0c1d2bbc93312924f18196d2", "is_disabled": 0, "type": "electric_scooter", "lat": 38.91568683333333, "lon": -77.0221195, "is_reserved": 0, "fusion_lon": 0.0}, {"rental_uris": {"ios": "https://dc.lft.to/lastmile_qr_scan", "android": "https://dc.lft.to/lastmile_qr_scan"}, "fusion_lat": 0.0, "name": "e21b95e6ae0965f4966617a991ecc1e1", "bike_id": "e21b95e6ae0965f4966617a991ecc1e1", "is_disabled": 0, "type": "electric_scooter", "lat": 38.911879666666664, "lon": -77.0445445, "is_reserved": 0, "fusion_lon": 0.0}, {"rental_uris": {"ios": "https://dc.lft.to/lastmile_qr_scan", "android": "https://dc.lft.to/lastmile_qr_scan"}, "fusion_lat": 0.0, "name": "3e596a99b2ea7b236052995f7f6a5c22", "bike_id": "3e596a99b2ea7b236052995f7f6a5c22", "is_disabled": 0, "type": "electric_scooter", "lat": 38.9013555, "lon": -77.01817266666667, "is_reserved": 0, "fusion_lon": 0.0}, {"rental_uris": {"ios": "https://dc.lft.to/lastmile_qr_scan", "android": "https://dc.lft.to/lastmile_qr_scan"}, "fusion_lat": 0.0, "name": "59829f5e1c4e24ff0e44f2933a856b3d", "bike_id": "59829f5e1c4e24ff0e44f2933a856b3d", "is_disabled": 0, "type": "electric_scooter", "lat": 38.92883233333333, "lon": -77.07303116666667, "is_reserved": 0, "fusion_lon": 0.0}, {"rental_uris": {"ios": "https://dc.lft.to/lastmile_qr_scan", "android": "https://dc.lft.to/lastmile_qr_scan"}, "fusion_lat": 0.0, "name": "62946505027cb948262e22f372d69473", "bike_id": "62946505027cb948262e22f372d69473", "is_disabled": 0, "type": "electric_scooter", "lat": 38.905345, "lon": -77.02208583333334, "is_reserved": 0, "fusion_lon": 0.0}, {"rental_uris": {"ios": "https://dc.lft.to/lastmile_qr_scan", "android": "https://dc.lft.to/lastmile_qr_scan"}, "fusion_lat": 0.0, "name": "04fa1ead38b5205f45d6d93d9fc61797", "bike_id": "04fa1ead38b5205f45d6d93d9fc61797", "is_disabled": 0, "type": "electric_scooter", "lat": 38.90385466666667, "lon": -77.03302716666667, "is_reserved": 0, "fusion_lon": 0.0}, {"rental_uris": {"ios": "https://dc.lft.to/lastmile_qr_scan", "android": "https://dc.lft.to/lastmile_qr_scan"}, "fusion_lat": 0.0, "name": "57a35da320311d861cfd9315ebf44a63", "bike_id": "57a35da320311d861cfd9315ebf44a63", "is_disabled": 0, "type": "electric_scooter", "lat": 38.842935833333335, "lon": -76.99945133333334, "is_reserved": 0, "fusion_lon": 0.0}, {"rental_uris": {"ios": "https://dc.lft.to/lastmile_qr_scan", "android": "https://dc.lft.to/lastmile_qr_scan"}, "fusion_lat": 0.0, "name": "432f2b31af76e32a6b303a09aa9182a8", "bike_id": "432f2b31af76e32a6b303a09aa9182a8", "is_disabled": 0, "type": "electric_scooter", "lat": 38.899069833333336, "lon": -76.93346083333333, "is_reserved": 0, "fusion_lon": 0.0}, {"rental_uris": {"ios": "https://dc.lft.to/lastmile_qr_scan", "android": "https://dc.lft.to/lastmile_qr_scan"}, "fusion_lat": 0.0, "name": "9b517edbf703c0fa3e7a253fcbea771a", "bike_id": "9b517edbf703c0fa3e7a253fcbea771a", "is_disabled": 0, "type": "electric_scooter", "lat": 38.917411333333334, "lon": -77.03187533333333, "is_reserved": 0, "fusion_lon": 0.0}, {"rental_uris": {"ios": "https://dc.lft.to/lastmile_qr_scan", "android": "https://dc.lft.to/lastmile_qr_scan"}, "fusion_lat": 0.0, "name": "caefbcf97cd0c591e1e855dde75db256", "bike_id": "caefbcf97cd0c591e1e855dde75db256", "is_disabled": 0, "type": "electric_scooter", "lat": 38.916872, "lon": -77.028086, "is_reserved": 0, "fusion_lon": 0.0}, {"rental_uris": {"ios": "https://dc.lft.to/lastmile_qr_scan", "android": "https://dc.lft.to/lastmile_qr_scan"}, "fusion_lat": 0.0, "name": "fadb8b226cf3de778e06b11e31f23214", "bike_id": "fadb8b226cf3de778e06b11e31f23214", "is_disabled": 0, "type": "electric_scooter", "lat": 38.93889583333333, "lon": -77.0248645, "is_reserved": 0, "fusion_lon": 0.0}, {"rental_uris": {"ios": "https://dc.lft.to/lastmile_qr_scan", "android": "https://dc.lft.to/lastmile_qr_scan"}, "fusion_lat": 0.0, "name": "5afba3c87d358e4e07f48f9272bc66a3", "bike_id": "5afba3c87d358e4e07f48f9272bc66a3", "is_disabled": 0, "type": "electric_scooter", "lat": 38.89528983333334, "lon": -77.0464005, "is_reserved": 0, "fusion_lon": 0.0}, {"rental_uris": {"ios": "https://dc.lft.to/lastmile_qr_scan", "android": "https://dc.lft.to/lastmile_qr_scan"}, "fusion_lat": 0.0, "name": "9f9e57f6d5223afc2748593bab641a48", "bike_id": "9f9e57f6d5223afc2748593bab641a48", "is_disabled": 0, "type": "electric_scooter", "lat": 38.93069533333333, "lon": -77.0403165, "is_reserved": 0, "fusion_lon": 0.0}, {"rental_uris": {"ios": "https://dc.lft.to/lastmile_qr_scan", "android": "https://dc.lft.to/lastmile_qr_scan"}, "fusion_lat": 0.0, "name": "577ce6ec5b7bc5507e40e97bce873cbc", "bike_id": "577ce6ec5b7bc5507e40e97bce873cbc", "is_disabled": 0, "type": "electric_scooter", "lat": 38.90601633333333, "lon": -77.00607616666667, "is_reserved": 0, "fusion_lon": 0.0}, {"rental_uris": {"ios": "https://dc.lft.to/lastmile_qr_scan", "android": "https://dc.lft.to/lastmile_qr_scan"}, "fusion_lat": 0.0, "name": "1e07dea4960fb7d3c16b5e91c17b00f6", "bike_id": "1e07dea4960fb7d3c16b5e91c17b00f6", "is_disabled": 0, "type": "electric_scooter", "lat": 38.916092166666665, "lon": -77.02298383333333, "is_reserved": 0, "fusion_lon": 0.0}, {"rental_uris": {"ios": "https://dc.lft.to/lastmile_qr_scan", "android": "https://dc.lft.to/lastmile_qr_scan"}, "fusion_lat": 0.0, "name": "86b96bced4b45eaabbde4f7f2db47b2e", "bike_id": "86b96bced4b45eaabbde4f7f2db47b2e", "is_disabled": 0, "type": "electric_scooter", "lat": 38.918360666666665, "lon": -77.02297616666667, "is_reserved": 0, "fusion_lon": 0.0}, {"rental_uris": {"ios": "https://dc.lft.to/lastmile_qr_scan", "android": "https://dc.lft.to/lastmile_qr_scan"}, "fusion_lat": 0.0, "name": "4e6684e78c55f50e75e5ed8009e33102", "bike_id": "4e6684e78c55f50e75e5ed8009e33102", "is_disabled": 0, "type": "electric_scooter", "lat": 38.86721683333333, "lon": -76.98692383333334, "is_reserved": 0, "fusion_lon": 0.0}, {"rental_uris": {"ios": "https://dc.lft.to/lastmile_qr_scan", "android": "https://dc.lft.to/lastmile_qr_scan"}, "fusion_lat": 0.0, "name": "fbbd23b9c4a5e8400a1948630168f4e2", "bike_id": "fbbd23b9c4a5e8400a1948630168f4e2", "is_disabled": 0, "type": "electric_scooter", "lat": 38.909759333333334, "lon": -77.0318135, "is_reserved": 0, "fusion_lon": 0.0}, {"rental_uris": {"ios": "https://dc.lft.to/lastmile_qr_scan", "android": "https://dc.lft.to/lastmile_qr_scan"}, "fusion_lat": 0.0, "name": "e62f1ca00f0d043eb50e0d0c58413fdf", "bike_id": "e62f1ca00f0d043eb50e0d0c58413fdf", "is_disabled": 0, "type": "electric_scooter", "lat": 38.91607833333333, "lon": -77.023058, "is_reserved": 0, "fusion_lon": 0.0}, {"rental_uris": {"ios": "https://dc.lft.to/lastmile_qr_scan", "android": "https://dc.lft.to/lastmile_qr_scan"}, "fusion_lat": 0.0, "name": "c1ad754da966a967f11fd42e14382747", "bike_id": "c1ad754da966a967f11fd42e14382747", "is_disabled": 0, "type": "electric_scooter", "lat": 38.915526666666665, "lon": -77.02210616666666, "is_reserved": 0, "fusion_lon": 0.0}, {"rental_uris": {"ios": "https://dc.lft.to/lastmile_qr_scan", "android": "https://dc.lft.to/lastmile_qr_scan"}, "fusion_lat": 0.0, "name": "a2d6df43a09a943eeb73df19df8a9137", "bike_id": "a2d6df43a09a943eeb73df19df8a9137", "is_disabled": 0, "type": "electric_scooter", "lat": 38.90494016666667, "lon": -77.05745983333334, "is_reserved": 0, "fusion_lon": 0.0}, {"rental_uris": {"ios": "https://dc.lft.to/lastmile_qr_scan", "android": "https://dc.lft.to/lastmile_qr_scan"}, "fusion_lat": 0.0, "name": "7379c573e348fd60dfe391df0978024f", "bike_id": "7379c573e348fd60dfe391df0978024f", "is_disabled": 0, "type": "electric_bike", "lat": 38.900398333333335, "lon": -77.05081916666667, "is_reserved": 0, "fusion_lon": 0.0}, {"rental_uris": {"ios": "https://dc.lft.to/lastmile_qr_scan", "android": "https://dc.lft.to/lastmile_qr_scan"}, "fusion_lat": 0.0, "name": "245a02bd7a4bec0221ef7198fb6b3fff", "bike_id": "245a02bd7a4bec0221ef7198fb6b3fff", "is_disabled": 0, "type": "electric_scooter", "lat": 38.89916, "lon": -77.0279055, "is_reserved": 0, "fusion_lon": 0.0}, {"rental_uris": {"ios": "https://dc.lft.to/lastmile_qr_scan", "android": "https://dc.lft.to/lastmile_qr_scan"}, "fusion_lat": 0.0, "name": "d14e793aca725e885e20deadeae7a169", "bike_id": "d14e793aca725e885e20deadeae7a169", "is_disabled": 0, "type": "electric_scooter", "lat": 38.948164, "lon": -76.99902583333333, "is_reserved": 0, "fusion_lon": 0.0}, {"rental_uris": {"ios": "https://dc.lft.to/lastmile_qr_scan", "android": "https://dc.lft.to/lastmile_qr_scan"}, "fusion_lat": 0.0, "name": "bc929329cb3df3e915ed997ac5daa4a6", "bike_id": "bc929329cb3df3e915ed997ac5daa4a6", "is_disabled": 0, "type": "electric_scooter", "lat": 38.9025865, "lon": -77.01755383333334, "is_reserved": 0, "fusion_lon": 0.0}, {"rental_uris": {"ios": "https://dc.lft.to/lastmile_qr_scan", "android": "https://dc.lft.to/lastmile_qr_scan"}, "fusion_lat": 0.0, "name": "f539ba2fa5c6badc8451df108601b650", "bike_id": "f539ba2fa5c6badc8451df108601b650", "is_disabled": 0, "type": "electric_scooter", "lat": 38.914793333333336, "lon": -77.02190216666666, "is_reserved": 0, "fusion_lon": 0.0}, {"rental_uris": {"ios": "https://dc.lft.to/lastmile_qr_scan", "android": "https://dc.lft.to/lastmile_qr_scan"}, "fusion_lat": 0.0, "name": "e407e67dff72c108900adef8557ddf2d", "bike_id": "e407e67dff72c108900adef8557ddf2d", "is_disabled": 0, "type": "electric_scooter", "lat": 38.90428566666667, "lon": -77.05055333333334, "is_reserved": 0, "fusion_lon": 0.0}, {"rental_uris": {"ios": "https://dc.lft.to/lastmile_qr_scan", "android": "https://dc.lft.to/lastmile_qr_scan"}, "fusion_lat": 0.0, "name": "66e65d67d668c50b9e31c4731db63e58", "bike_id": "66e65d67d668c50b9e31c4731db63e58", "is_disabled": 0, "type": "electric_scooter", "lat": 38.9073585, "lon": -77.03471066666667, "is_reserved": 0, "fusion_lon": 0.0}, {"rental_uris": {"ios": "https://dc.lft.to/lastmile_qr_scan", "android": "https://dc.lft.to/lastmile_qr_scan"}, "fusion_lat": 0.0, "name": "d3f3fe250573f4801200c134db7a9335", "bike_id": "d3f3fe250573f4801200c134db7a9335", "is_disabled": 0, "type": "electric_scooter", "lat": 38.89230633333333, "lon": -77.04996983333334, "is_reserved": 0, "fusion_lon": 0.0}, {"rental_uris": {"ios": "https://dc.lft.to/lastmile_qr_scan", "android": "https://dc.lft.to/lastmile_qr_scan"}, "fusion_lat": 0.0, "name": "e0eb646a0bbd0799133f44cc4622b585", "bike_id": "e0eb646a0bbd0799133f44cc4622b585", "is_disabled": 0, "type": "electric_scooter", "lat": 38.91861166666666, "lon": -77.03203433333333, "is_reserved": 0, "fusion_lon": 0.0}, {"rental_uris": {"ios": "https://dc.lft.to/lastmile_qr_scan", "android": "https://dc.lft.to/lastmile_qr_scan"}, "fusion_lat": 0.0, "name": "d2a3cc2811abc542b1a083cbe4dfc6e3", "bike_id": "d2a3cc2811abc542b1a083cbe4dfc6e3", "is_disabled": 0, "type": "electric_scooter", "lat": 38.916889, "lon": -76.979466, "is_reserved": 0, "fusion_lon": 0.0}, {"rental_uris": {"ios": "https://dc.lft.to/lastmile_qr_scan", "android": "https://dc.lft.to/lastmile_qr_scan"}, "fusion_lat": 0.0, "name": "78a8614d668e81b6936877c77ae24dd8", "bike_id": "78a8614d668e81b6936877c77ae24dd8", "is_disabled": 0, "type": "electric_bike", "lat": 38.87067916666667, "lon": -77.11057016666666, "is_reserved": 0, "fusion_lon": 0.0}, {"rental_uris": {"ios": "https://dc.lft.to/lastmile_qr_scan", "android": "https://dc.lft.to/lastmile_qr_scan"}, "fusion_lat": 0.0, "name": "6e943237c480f56f4fcae012c20b52bf", "bike_id": "6e943237c480f56f4fcae012c20b52bf", "is_disabled": 0, "type": "electric_scooter", "lat": 38.866986833333335, "lon": -76.9870895, "is_reserved": 0, "fusion_lon": 0.0}, {"rental_uris": {"ios": "https://dc.lft.to/lastmile_qr_scan", "android": "https://dc.lft.to/lastmile_qr_scan"}, "fusion_lat": 0.0, "name": "aa0dc346cdc6c5e6745a72c54556d274", "bike_id": "aa0dc346cdc6c5e6745a72c54556d274", "is_disabled": 0, "type": "electric_scooter", "lat": 38.898974333333335, "lon": -77.02170416666667, "is_reserved": 0, "fusion_lon": 0.0}, {"rental_uris": {"ios": "https://dc.lft.to/lastmile_qr_scan", "android": "https://dc.lft.to/lastmile_qr_scan"}, "fusion_lat": 0.0, "name": "25ce5d39874650682445dab840849972", "bike_id": "25ce5d39874650682445dab840849972", "is_disabled": 0, "type": "electric_scooter", "lat": 38.90268, "lon": -77.03166166666666, "is_reserved": 0, "fusion_lon": 0.0}, {"rental_uris": {"ios": "https://dc.lft.to/lastmile_qr_scan", "android": "https://dc.lft.to/lastmile_qr_scan"}, "fusion_lat": 0.0, "name": "90a6405067dea439a3979daf2dd0d32d", "bike_id": "90a6405067dea439a3979daf2dd0d32d", "is_disabled": 0, "type": "electric_scooter", "lat": 38.94632883333333, "lon": -77.01848633333333, "is_reserved": 0, "fusion_lon": 0.0}, {"rental_uris": {"ios": "https://dc.lft.to/lastmile_qr_scan", "android": "https://dc.lft.to/lastmile_qr_scan"}, "fusion_lat": 0.0, "name": "3b717860ded9289451d0a789796199a7", "bike_id": "3b717860ded9289451d0a789796199a7", "is_disabled": 0, "type": "electric_bike", "lat": 38.9518695, "lon": -76.93542066666667, "is_reserved": 0, "fusion_lon": 0.0}, {"rental_uris": {"ios": "https://dc.lft.to/lastmile_qr_scan", "android": "https://dc.lft.to/lastmile_qr_scan"}, "fusion_lat": 0.0, "name": "749d0e80db0ed2de0d3e32ce527a461f", "bike_id": "749d0e80db0ed2de0d3e32ce527a461f", "is_disabled": 0, "type": "electric_scooter", "lat": 38.907282, "lon": -77.02762833333334, "is_reserved": 0, "fusion_lon": 0.0}, {"rental_uris": {"ios": "https://dc.lft.to/lastmile_qr_scan", "android": "https://dc.lft.to/lastmile_qr_scan"}, "fusion_lat": 0.0, "name": "8f21ca85c37b507047568439ec417117", "bike_id": "8f21ca85c37b507047568439ec417117", "is_disabled": 0, "type": "electric_scooter", "lat": 38.90727066666667, "lon": -77.027624, "is_reserved": 0, "fusion_lon": 0.0}, {"rental_uris": {"ios": "https://dc.lft.to/lastmile_qr_scan", "android": "https://dc.lft.to/lastmile_qr_scan"}, "fusion_lat": 0.0, "name": "28f159b426744be41cde18cbae888671", "bike_id": "28f159b426744be41cde18cbae888671", "is_disabled": 0, "type": "electric_bike", "lat": 38.95327866666667, "lon": -77.01576966666667, "is_reserved": 0, "fusion_lon": 0.0}, {"rental_uris": {"ios": "https://dc.lft.to/lastmile_qr_scan", "android": "https://dc.lft.to/lastmile_qr_scan"}, "fusion_lat": 0.0, "name": "4fc7269447e882a2be549d0633f0035c", "bike_id": "4fc7269447e882a2be549d0633f0035c", "is_disabled": 0, "type": "electric_scooter", "lat": 38.88118883333333, "lon": -77.0166645, "is_reserved": 0, "fusion_lon": 0.0}, {"rental_uris": {"ios": "https://dc.lft.to/lastmile_qr_scan", "android": "https://dc.lft.to/lastmile_qr_scan"}, "fusion_lat": 0.0, "name": "c53651d02c7f429a6b011be62dc08dac", "bike_id": "c53651d02c7f429a6b011be62dc08dac", "is_disabled": 0, "type": "electric_scooter", "lat": 38.87688333333333, "lon": -77.01757266666667, "is_reserved": 0, "fusion_lon": 0.0}, {"rental_uris": {"ios": "https://dc.lft.to/lastmile_qr_scan", "android": "https://dc.lft.to/lastmile_qr_scan"}, "fusion_lat": 0.0, "name": "f3ce305b6ccddca69f16715107de184a", "bike_id": "f3ce305b6ccddca69f16715107de184a", "is_disabled": 0, "type": "electric_scooter", "lat": 38.907404666666665, "lon": -77.02713566666667, "is_reserved": 0, "fusion_lon": 0.0}, {"rental_uris": {"ios": "https://dc.lft.to/lastmile_qr_scan", "android": "https://dc.lft.to/lastmile_qr_scan"}, "fusion_lat": 0.0, "name": "0d12f28d04f2644ee6f46ae74e0f20f1", "bike_id": "0d12f28d04f2644ee6f46ae74e0f20f1", "is_disabled": 0, "type": "electric_scooter", "lat": 38.951692666666666, "lon": -77.027498, "is_reserved": 0, "fusion_lon": 0.0}, {"rental_uris": {"ios": "https://dc.lft.to/lastmile_qr_scan", "android": "https://dc.lft.to/lastmile_qr_scan"}, "fusion_lat": 0.0, "name": "fcd568f03dbb83853af1ed81b3fd1be4", "bike_id": "fcd568f03dbb83853af1ed81b3fd1be4", "is_disabled": 0, "type": "electric_scooter", "lat": 38.89218066666667, "lon": -77.01368066666667, "is_reserved": 0, "fusion_lon": 0.0}, {"rental_uris": {"ios": "https://dc.lft.to/lastmile_qr_scan", "android": "https://dc.lft.to/lastmile_qr_scan"}, "fusion_lat": 0.0, "name": "281876d34d39aba6968bcff13dfa7dfe", "bike_id": "281876d34d39aba6968bcff13dfa7dfe", "is_disabled": 0, "type": "electric_scooter", "lat": 38.919171166666665, "lon": -77.02479716666667, "is_reserved": 0, "fusion_lon": 0.0}, {"rental_uris": {"ios": "https://dc.lft.to/lastmile_qr_scan", "android": "https://dc.lft.to/lastmile_qr_scan"}, "fusion_lat": 0.0, "name": "c56e3448542dd994f8dd0ce6dc903173", "bike_id": "c56e3448542dd994f8dd0ce6dc903173", "is_disabled": 0, "type": "electric_scooter", "lat": 38.917050333333336, "lon": -77.03730633333333, "is_reserved": 0, "fusion_lon": 0.0}, {"rental_uris": {"ios": "https://dc.lft.to/lastmile_qr_scan", "android": "https://dc.lft.to/lastmile_qr_scan"}, "fusion_lat": 0.0, "name": "bce4ff6bd6aa0209029c4f2782192955", "bike_id": "bce4ff6bd6aa0209029c4f2782192955", "is_disabled": 0, "type": "electric_scooter", "lat": 38.91567883333333, "lon": -77.020081, "is_reserved": 0, "fusion_lon": 0.0}, {"rental_uris": {"ios": "https://dc.lft.to/lastmile_qr_scan", "android": "https://dc.lft.to/lastmile_qr_scan"}, "fusion_lat": 0.0, "name": "a6bf264cffe088d48da6c4b906adaa76", "bike_id": "a6bf264cffe088d48da6c4b906adaa76", "is_disabled": 0, "type": "electric_scooter", "lat": 38.895833833333334, "lon": -77.0297335, "is_reserved": 0, "fusion_lon": 0.0}, {"rental_uris": {"ios": "https://dc.lft.to/lastmile_qr_scan", "android": "https://dc.lft.to/lastmile_qr_scan"}, "fusion_lat": 0.0, "name": "a3a7a1a331f2223e946126736677aa44", "bike_id": "a3a7a1a331f2223e946126736677aa44", "is_disabled": 0, "type": "electric_scooter", "lat": 38.912192833333336, "lon": -77.04115566666667, "is_reserved": 0, "fusion_lon": 0.0}, {"rental_uris": {"ios": "https://dc.lft.to/lastmile_qr_scan", "android": "https://dc.lft.to/lastmile_qr_scan"}, "fusion_lat": 0.0, "name": "f18e5b09b2322fc9b83ae0d8b9a3ce5b", "bike_id": "f18e5b09b2322fc9b83ae0d8b9a3ce5b", "is_disabled": 0, "type": "electric_scooter", "lat": 38.901097166666666, "lon": -77.0338585, "is_reserved": 0, "fusion_lon": 0.0}, {"rental_uris": {"ios": "https://dc.lft.to/lastmile_qr_scan", "android": "https://dc.lft.to/lastmile_qr_scan"}, "fusion_lat": 0.0, "name": "9e0457dd6abb3491e085f5377dcfd58b", "bike_id": "9e0457dd6abb3491e085f5377dcfd58b", "is_disabled": 0, "type": "electric_scooter", "lat": 38.8669165, "lon": -76.985471, "is_reserved": 0, "fusion_lon": 0.0}, {"rental_uris": {"ios": "https://dc.lft.to/lastmile_qr_scan", "android": "https://dc.lft.to/lastmile_qr_scan"}, "fusion_lat": 0.0, "name": "59b5742bf7f57d660f99e5097c1188f8", "bike_id": "59b5742bf7f57d660f99e5097c1188f8", "is_disabled": 0, "type": "electric_scooter", "lat": 38.89227433333333, "lon": -77.02796783333334, "is_reserved": 0, "fusion_lon": 0.0}, {"rental_uris": {"ios": "https://dc.lft.to/lastmile_qr_scan", "android": "https://dc.lft.to/lastmile_qr_scan"}, "fusion_lat": 0.0, "name": "039a905f2ba31ba69e93e2fc202e78f1", "bike_id": "039a905f2ba31ba69e93e2fc202e78f1", "is_disabled": 0, "type": "electric_scooter", "lat": 38.840764166666666, "lon": -76.98922566666667, "is_reserved": 0, "fusion_lon": 0.0}, {"rental_uris": {"ios": "https://dc.lft.to/lastmile_qr_scan", "android": "https://dc.lft.to/lastmile_qr_scan"}, "fusion_lat": 0.0, "name": "3e641544e8c52ab8890c04dafebe6798", "bike_id": "3e641544e8c52ab8890c04dafebe6798", "is_disabled": 0, "type": "electric_scooter", "lat": 38.9155895, "lon": -77.038628, "is_reserved": 0, "fusion_lon": 0.0}, {"rental_uris": {"ios": "https://dc.lft.to/lastmile_qr_scan", "android": "https://dc.lft.to/lastmile_qr_scan"}, "fusion_lat": 0.0, "name": "0743eaf1d0d579e611036eded9cafd9f", "bike_id": "0743eaf1d0d579e611036eded9cafd9f", "is_disabled": 0, "type": "electric_scooter", "lat": 38.9127455, "lon": -77.02223866666667, "is_reserved": 0, "fusion_lon": 0.0}, {"rental_uris": {"ios": "https://dc.lft.to/lastmile_qr_scan", "android": "https://dc.lft.to/lastmile_qr_scan"}, "fusion_lat": 0.0, "name": "a046526b9033ae64e63105e1a32d42ab", "bike_id": "a046526b9033ae64e63105e1a32d42ab", "is_disabled": 0, "type": "electric_scooter", "lat": 38.892219833333336, "lon": -77.04325116666666, "is_reserved": 0, "fusion_lon": 0.0}, {"rental_uris": {"ios": "https://dc.lft.to/lastmile_qr_scan", "android": "https://dc.lft.to/lastmile_qr_scan"}, "fusion_lat": 0.0, "name": "906c216b70fcbeaf4aa26e83541db648", "bike_id": "906c216b70fcbeaf4aa26e83541db648", "is_disabled": 0, "type": "electric_scooter", "lat": 38.949568666666664, "lon": -77.0272085, "is_reserved": 0, "fusion_lon": 0.0}, {"rental_uris": {"ios": "https://dc.lft.to/lastmile_qr_scan", "android": "https://dc.lft.to/lastmile_qr_scan"}, "fusion_lat": 0.0, "name": "a648a5b8ca9707ae63852c06f99b12db", "bike_id": "a648a5b8ca9707ae63852c06f99b12db", "is_disabled": 0, "type": "electric_scooter", "lat": 38.91819366666667, "lon": -77.0312715, "is_reserved": 0, "fusion_lon": 0.0}, {"rental_uris": {"ios": "https://dc.lft.to/lastmile_qr_scan", "android": "https://dc.lft.to/lastmile_qr_scan"}, "fusion_lat": 0.0, "name": "e9162674ddb829da78fe8d4c0a57e04d", "bike_id": "e9162674ddb829da78fe8d4c0a57e04d", "is_disabled": 0, "type": "electric_scooter", "lat": 38.9320095, "lon": -77.03853333333333, "is_reserved": 0, "fusion_lon": 0.0}, {"rental_uris": {"ios": "https://dc.lft.to/lastmile_qr_scan", "android": "https://dc.lft.to/lastmile_qr_scan"}, "fusion_lat": 0.0, "name": "c18d0e5ff3119d924d6243ae0918965b", "bike_id": "c18d0e5ff3119d924d6243ae0918965b", "is_disabled": 0, "type": "electric_scooter", "lat": 38.92804683333333, "lon": -77.0539285, "is_reserved": 0, "fusion_lon": 0.0}, {"rental_uris": {"ios": "https://dc.lft.to/lastmile_qr_scan", "android": "https://dc.lft.to/lastmile_qr_scan"}, "fusion_lat": 0.0, "name": "cd628df2503ade8c256e0950b05f86e7", "bike_id": "cd628df2503ade8c256e0950b05f86e7", "is_disabled": 0, "type": "electric_scooter", "lat": 38.909381333333336, "lon": -77.05926083333334, "is_reserved": 0, "fusion_lon": 0.0}, {"rental_uris": {"ios": "https://dc.lft.to/lastmile_qr_scan", "android": "https://dc.lft.to/lastmile_qr_scan"}, "fusion_lat": 0.0, "name": "fe9ef95fb07ef4d3db17bb3cb36e567a", "bike_id": "fe9ef95fb07ef4d3db17bb3cb36e567a", "is_disabled": 0, "type": "electric_scooter", "lat": 38.9170875, "lon": -77.03886733333333, "is_reserved": 0, "fusion_lon": 0.0}, {"rental_uris": {"ios": "https://dc.lft.to/lastmile_qr_scan", "android": "https://dc.lft.to/lastmile_qr_scan"}, "fusion_lat": 0.0, "name": "e419b77a5e6a950af3d1e6eda8df3b49", "bike_id": "e419b77a5e6a950af3d1e6eda8df3b49", "is_disabled": 0, "type": "electric_scooter", "lat": 38.90977083333333, "lon": -77.0321865, "is_reserved": 0, "fusion_lon": 0.0}, {"rental_uris": {"ios": "https://dc.lft.to/lastmile_qr_scan", "android": "https://dc.lft.to/lastmile_qr_scan"}, "fusion_lat": 0.0, "name": "2194bf93a0eb06730c280517a4458f3b", "bike_id": "2194bf93a0eb06730c280517a4458f3b", "is_disabled": 0, "type": "electric_scooter", "lat": 38.8873345, "lon": -77.02822716666667, "is_reserved": 0, "fusion_lon": 0.0}, {"rental_uris": {"ios": "https://dc.lft.to/lastmile_qr_scan", "android": "https://dc.lft.to/lastmile_qr_scan"}, "fusion_lat": 0.0, "name": "7367bed0dc8016b3806b5111d28457e4", "bike_id": "7367bed0dc8016b3806b5111d28457e4", "is_disabled": 0, "type": "electric_scooter", "lat": 38.9242775, "lon": -77.0255925, "is_reserved": 0, "fusion_lon": 0.0}, {"rental_uris": {"ios": "https://dc.lft.to/lastmile_qr_scan", "android": "https://dc.lft.to/lastmile_qr_scan"}, "fusion_lat": 0.0, "name": "fa8c78d2af4dcd31e060049678a80dcd", "bike_id": "fa8c78d2af4dcd31e060049678a80dcd", "is_disabled": 0, "type": "electric_scooter", "lat": 38.924572, "lon": -77.05753333333334, "is_reserved": 0, "fusion_lon": 0.0}, {"rental_uris": {"ios": "https://dc.lft.to/lastmile_qr_scan", "android": "https://dc.lft.to/lastmile_qr_scan"}, "fusion_lat": 0.0, "name": "6520e99979dd82cad92cc982d317f9a7", "bike_id": "6520e99979dd82cad92cc982d317f9a7", "is_disabled": 0, "type": "electric_scooter", "lat": 38.92345866666667, "lon": -77.05076866666667, "is_reserved": 0, "fusion_lon": 0.0}, {"rental_uris": {"ios": "https://dc.lft.to/lastmile_qr_scan", "android": "https://dc.lft.to/lastmile_qr_scan"}, "fusion_lat": 0.0, "name": "3049f86e48e53a05d2354ccd2aeba5f6", "bike_id": "3049f86e48e53a05d2354ccd2aeba5f6", "is_disabled": 0, "type": "electric_scooter", "lat": 38.90046016666667, "lon": -77.007523, "is_reserved": 0, "fusion_lon": 0.0}, {"rental_uris": {"ios": "https://dc.lft.to/lastmile_qr_scan", "android": "https://dc.lft.to/lastmile_qr_scan"}, "fusion_lat": 0.0, "name": "1b1f3ab2419a6cae7b6f82d3a86c1c52", "bike_id": "1b1f3ab2419a6cae7b6f82d3a86c1c52", "is_disabled": 0, "type": "electric_scooter", "lat": 38.85172683333333, "lon": -76.99574516666667, "is_reserved": 0, "fusion_lon": 0.0}, {"rental_uris": {"ios": "https://dc.lft.to/lastmile_qr_scan", "android": "https://dc.lft.to/lastmile_qr_scan"}, "fusion_lat": 0.0, "name": "a4d1c623a5761ae44976e8aaaf4886f8", "bike_id": "a4d1c623a5761ae44976e8aaaf4886f8", "is_disabled": 0, "type": "electric_scooter", "lat": 38.906728666666666, "lon": -77.05020633333334, "is_reserved": 0, "fusion_lon": 0.0}, {"rental_uris": {"ios": "https://dc.lft.to/lastmile_qr_scan", "android": "https://dc.lft.to/lastmile_qr_scan"}, "fusion_lat": 0.0, "name": "ceb8dfa90dad2ab0929902db9824da93", "bike_id": "ceb8dfa90dad2ab0929902db9824da93", "is_disabled": 0, "type": "electric_scooter", "lat": 38.91256583333333, "lon": -77.04492916666666, "is_reserved": 0, "fusion_lon": 0.0}, {"rental_uris": {"ios": "https://dc.lft.to/lastmile_qr_scan", "android": "https://dc.lft.to/lastmile_qr_scan"}, "fusion_lat": 0.0, "name": "5ee6b80851cfe6b7714cf81768564999", "bike_id": "5ee6b80851cfe6b7714cf81768564999", "is_disabled": 0, "type": "electric_scooter", "lat": 38.9127605, "lon": -77.0122445, "is_reserved": 0, "fusion_lon": 0.0}, {"rental_uris": {"ios": "https://dc.lft.to/lastmile_qr_scan", "android": "https://dc.lft.to/lastmile_qr_scan"}, "fusion_lat": 0.0, "name": "cf3af82c036c9a95f73c346dd1167c30", "bike_id": "cf3af82c036c9a95f73c346dd1167c30", "is_disabled": 0, "type": "electric_scooter", "lat": 38.8923505, "lon": -77.049981, "is_reserved": 0, "fusion_lon": 0.0}, {"rental_uris": {"ios": "https://dc.lft.to/lastmile_qr_scan", "android": "https://dc.lft.to/lastmile_qr_scan"}, "fusion_lat": 0.0, "name": "f760eabac3597921bd067d3e4297ddde", "bike_id": "f760eabac3597921bd067d3e4297ddde", "is_disabled": 0, "type": "electric_scooter", "lat": 38.8922295, "lon": -77.04803933333334, "is_reserved": 0, "fusion_lon": 0.0}, {"rental_uris": {"ios": "https://dc.lft.to/lastmile_qr_scan", "android": "https://dc.lft.to/lastmile_qr_scan"}, "fusion_lat": 0.0, "name": "3c6a16a827ffb72bf16aeeebe50ca501", "bike_id": "3c6a16a827ffb72bf16aeeebe50ca501", "is_disabled": 0, "type": "electric_scooter", "lat": 38.88139416666667, "lon": -77.0176105, "is_reserved": 0, "fusion_lon": 0.0}, {"rental_uris": {"ios": "https://dc.lft.to/lastmile_qr_scan", "android": "https://dc.lft.to/lastmile_qr_scan"}, "fusion_lat": 0.0, "name": "41898c7f880837edf9783bec241b404b", "bike_id": "41898c7f880837edf9783bec241b404b", "is_disabled": 0, "type": "electric_scooter", "lat": 38.90841283333334, "lon": -76.98274516666666, "is_reserved": 0, "fusion_lon": 0.0}, {"rental_uris": {"ios": "https://dc.lft.to/lastmile_qr_scan", "android": "https://dc.lft.to/lastmile_qr_scan"}, "fusion_lat": 0.0, "name": "a355c90574f2cfea2771baa2d2f64bc1", "bike_id": "a355c90574f2cfea2771baa2d2f64bc1", "is_disabled": 0, "type": "electric_scooter", "lat": 38.862441833333335, "lon": -76.99494183333333, "is_reserved": 0, "fusion_lon": 0.0}, {"rental_uris": {"ios": "https://dc.lft.to/lastmile_qr_scan", "android": "https://dc.lft.to/lastmile_qr_scan"}, "fusion_lat": 0.0, "name": "95d312efea041e462c17fda2d26d151c", "bike_id": "95d312efea041e462c17fda2d26d151c", "is_disabled": 0, "type": "electric_scooter", "lat": 38.92473433333333, "lon": -77.03912666666666, "is_reserved": 0, "fusion_lon": 0.0}, {"rental_uris": {"ios": "https://dc.lft.to/lastmile_qr_scan", "android": "https://dc.lft.to/lastmile_qr_scan"}, "fusion_lat": 0.0, "name": "3a5f4c548bc8330feeda5953f49005df", "bike_id": "3a5f4c548bc8330feeda5953f49005df", "is_disabled": 0, "type": "electric_scooter", "lat": 38.8922235, "lon": -77.02221466666667, "is_reserved": 0, "fusion_lon": 0.0}, {"rental_uris": {"ios": "https://dc.lft.to/lastmile_qr_scan", "android": "https://dc.lft.to/lastmile_qr_scan"}, "fusion_lat": 0.0, "name": "078eb61be1da205a2bd0b3beafbc086b", "bike_id": "078eb61be1da205a2bd0b3beafbc086b", "is_disabled": 0, "type": "electric_scooter", "lat": 38.919763, "lon": -76.97345183333333, "is_reserved": 0, "fusion_lon": 0.0}, {"rental_uris": {"ios": "https://dc.lft.to/lastmile_qr_scan", "android": "https://dc.lft.to/lastmile_qr_scan"}, "fusion_lat": 0.0, "name": "97a6c2271a9347b16b77079f47c1be43", "bike_id": "97a6c2271a9347b16b77079f47c1be43", "is_disabled": 0, "type": "electric_scooter", "lat": 38.898274666666666, "lon": -77.04354883333333, "is_reserved": 0, "fusion_lon": 0.0}, {"rental_uris": {"ios": "https://dc.lft.to/lastmile_qr_scan", "android": "https://dc.lft.to/lastmile_qr_scan"}, "fusion_lat": 0.0, "name": "7a48beb5978fc4cd60c346d67600bcfb", "bike_id": "7a48beb5978fc4cd60c346d67600bcfb", "is_disabled": 0, "type": "electric_scooter", "lat": 38.901235, "lon": -77.03093966666667, "is_reserved": 0, "fusion_lon": 0.0}, {"rental_uris": {"ios": "https://dc.lft.to/lastmile_qr_scan", "android": "https://dc.lft.to/lastmile_qr_scan"}, "fusion_lat": 0.0, "name": "6647157dbe119410bc3abb8161c6ec4e", "bike_id": "6647157dbe119410bc3abb8161c6ec4e", "is_disabled": 0, "type": "electric_scooter", "lat": 38.90571333333333, "lon": -77.03457016666667, "is_reserved": 0, "fusion_lon": 0.0}, {"rental_uris": {"ios": "https://dc.lft.to/lastmile_qr_scan", "android": "https://dc.lft.to/lastmile_qr_scan"}, "fusion_lat": 0.0, "name": "0f686cda15e81f10e7d015e7502cc155", "bike_id": "0f686cda15e81f10e7d015e7502cc155", "is_disabled": 0, "type": "electric_scooter", "lat": 38.94960716666667, "lon": -77.02726866666667, "is_reserved": 0, "fusion_lon": 0.0}, {"rental_uris": {"ios": "https://dc.lft.to/lastmile_qr_scan", "android": "https://dc.lft.to/lastmile_qr_scan"}, "fusion_lat": 0.0, "name": "5d76497092ca66344ea551ddadc5dd1d", "bike_id": "5d76497092ca66344ea551ddadc5dd1d", "is_disabled": 0, "type": "electric_scooter", "lat": 38.895104, "lon": -77.01607516666667, "is_reserved": 0, "fusion_lon": 0.0}, {"rental_uris": {"ios": "https://dc.lft.to/lastmile_qr_scan", "android": "https://dc.lft.to/lastmile_qr_scan"}, "fusion_lat": 0.0, "name": "38f086c4e2ccf13cfa7d18cd06028e85", "bike_id": "38f086c4e2ccf13cfa7d18cd06028e85", "is_disabled": 0, "type": "electric_scooter", "lat": 38.9175755, "lon": -77.03076766666666, "is_reserved": 0, "fusion_lon": 0.0}, {"rental_uris": {"ios": "https://dc.lft.to/lastmile_qr_scan", "android": "https://dc.lft.to/lastmile_qr_scan"}, "fusion_lat": 0.0, "name": "3eca3bd84f190b2c7e8d776196e393da", "bike_id": "3eca3bd84f190b2c7e8d776196e393da", "is_disabled": 0, "type": "electric_scooter", "lat": 38.91248183333333, "lon": -77.03207666666667, "is_reserved": 0, "fusion_lon": 0.0}, {"rental_uris": {"ios": "https://dc.lft.to/lastmile_qr_scan", "android": "https://dc.lft.to/lastmile_qr_scan"}, "fusion_lat": 0.0, "name": "b1f17fb2bd10fb335fe0fbe578fceec5", "bike_id": "b1f17fb2bd10fb335fe0fbe578fceec5", "is_disabled": 0, "type": "electric_scooter", "lat": 38.902794666666665, "lon": -77.0460115, "is_reserved": 0, "fusion_lon": 0.0}, {"rental_uris": {"ios": "https://dc.lft.to/lastmile_qr_scan", "android": "https://dc.lft.to/lastmile_qr_scan"}, "fusion_lat": 0.0, "name": "ee68a5268d9384f77195cdeee2ad3329", "bike_id": "ee68a5268d9384f77195cdeee2ad3329", "is_disabled": 0, "type": "electric_scooter", "lat": 38.842944, "lon": -76.99949433333333, "is_reserved": 0, "fusion_lon": 0.0}, {"rental_uris": {"ios": "https://dc.lft.to/lastmile_qr_scan", "android": "https://dc.lft.to/lastmile_qr_scan"}, "fusion_lat": 0.0, "name": "bfb2dbaa4667b6a43eabf316e373bac2", "bike_id": "bfb2dbaa4667b6a43eabf316e373bac2", "is_disabled": 0, "type": "electric_scooter", "lat": 38.93141166666667, "lon": -77.02604533333333, "is_reserved": 0, "fusion_lon": 0.0}, {"rental_uris": {"ios": "https://dc.lft.to/lastmile_qr_scan", "android": "https://dc.lft.to/lastmile_qr_scan"}, "fusion_lat": 0.0, "name": "7e043c23f2abb17cfff565535ffe2ec8", "bike_id": "7e043c23f2abb17cfff565535ffe2ec8", "is_disabled": 0, "type": "electric_scooter", "lat": 38.92218, "lon": -77.04240016666667, "is_reserved": 0, "fusion_lon": 0.0}, {"rental_uris": {"ios": "https://dc.lft.to/lastmile_qr_scan", "android": "https://dc.lft.to/lastmile_qr_scan"}, "fusion_lat": 0.0, "name": "4f520b33f9f935de57b9fd450c435941", "bike_id": "4f520b33f9f935de57b9fd450c435941", "is_disabled": 0, "type": "electric_scooter", "lat": 38.931449, "lon": -77.01869083333334, "is_reserved": 0, "fusion_lon": 0.0}, {"rental_uris": {"ios": "https://dc.lft.to/lastmile_qr_scan", "android": "https://dc.lft.to/lastmile_qr_scan"}, "fusion_lat": 0.0, "name": "54f66c02b9ac72006ca51e9a70a8f74c", "bike_id": "54f66c02b9ac72006ca51e9a70a8f74c", "is_disabled": 0, "type": "electric_scooter", "lat": 38.90031833333333, "lon": -76.99823133333334, "is_reserved": 0, "fusion_lon": 0.0}, {"rental_uris": {"ios": "https://dc.lft.to/lastmile_qr_scan", "android": "https://dc.lft.to/lastmile_qr_scan"}, "fusion_lat": 0.0, "name": "e3678ae300db1c181de7eaaa7b390a8b", "bike_id": "e3678ae300db1c181de7eaaa7b390a8b", "is_disabled": 0, "type": "electric_scooter", "lat": 38.93131183333333, "lon": -77.03251983333334, "is_reserved": 0, "fusion_lon": 0.0}, {"rental_uris": {"ios": "https://dc.lft.to/lastmile_qr_scan", "android": "https://dc.lft.to/lastmile_qr_scan"}, "fusion_lat": 0.0, "name": "599e19a5bbabb4f58d1f24a970e0ad14", "bike_id": "599e19a5bbabb4f58d1f24a970e0ad14", "is_disabled": 0, "type": "electric_scooter", "lat": 38.86710733333334, "lon": -76.987311, "is_reserved": 0, "fusion_lon": 0.0}, {"rental_uris": {"ios": "https://dc.lft.to/lastmile_qr_scan", "android": "https://dc.lft.to/lastmile_qr_scan"}, "fusion_lat": 0.0, "name": "8ac04d64f2b7f65f2b938d849a25580d", "bike_id": "8ac04d64f2b7f65f2b938d849a25580d", "is_disabled": 0, "type": "electric_scooter", "lat": 38.92512166666667, "lon": -77.02359116666666, "is_reserved": 0, "fusion_lon": 0.0}, {"rental_uris": {"ios": "https://dc.lft.to/lastmile_qr_scan", "android": "https://dc.lft.to/lastmile_qr_scan"}, "fusion_lat": 0.0, "name": "8580f6f6a811c88675ae3c2f76b470de", "bike_id": "8580f6f6a811c88675ae3c2f76b470de", "is_disabled": 0, "type": "electric_scooter", "lat": 38.91680233333334, "lon": -77.036873, "is_reserved": 0, "fusion_lon": 0.0}, {"rental_uris": {"ios": "https://dc.lft.to/lastmile_qr_scan", "android": "https://dc.lft.to/lastmile_qr_scan"}, "fusion_lat": 0.0, "name": "0c0a9642af3cdb82fdc5a3f097d2a138", "bike_id": "0c0a9642af3cdb82fdc5a3f097d2a138", "is_disabled": 0, "type": "electric_scooter", "lat": 38.9001735, "lon": -77.01164566666667, "is_reserved": 0, "fusion_lon": 0.0}, {"rental_uris": {"ios": "https://dc.lft.to/lastmile_qr_scan", "android": "https://dc.lft.to/lastmile_qr_scan"}, "fusion_lat": 0.0, "name": "15b6e76e30a807e50d1031c21e8bb91c", "bike_id": "15b6e76e30a807e50d1031c21e8bb91c", "is_disabled": 0, "type": "electric_scooter", "lat": 38.91741, "lon": -77.03183, "is_reserved": 0, "fusion_lon": 0.0}, {"rental_uris": {"ios": "https://dc.lft.to/lastmile_qr_scan", "android": "https://dc.lft.to/lastmile_qr_scan"}, "fusion_lat": 0.0, "name": "88ed24a7eb4ef9fe8abdb79cfddce6f9", "bike_id": "88ed24a7eb4ef9fe8abdb79cfddce6f9", "is_disabled": 0, "type": "electric_scooter", "lat": 38.89765583333333, "lon": -77.031605, "is_reserved": 0, "fusion_lon": 0.0}, {"rental_uris": {"ios": "https://dc.lft.to/lastmile_qr_scan", "android": "https://dc.lft.to/lastmile_qr_scan"}, "fusion_lat": 0.0, "name": "bbeb019958bae6dfa3a52220e4bd79b1", "bike_id": "bbeb019958bae6dfa3a52220e4bd79b1", "is_disabled": 0, "type": "electric_scooter", "lat": 38.92298483333333, "lon": -77.04142133333333, "is_reserved": 0, "fusion_lon": 0.0}, {"rental_uris": {"ios": "https://dc.lft.to/lastmile_qr_scan", "android": "https://dc.lft.to/lastmile_qr_scan"}, "fusion_lat": 0.0, "name": "670cf2b6d6662f9dd6da7f5a99308e90", "bike_id": "670cf2b6d6662f9dd6da7f5a99308e90", "is_disabled": 0, "type": "electric_scooter", "lat": 38.84429516666667, "lon": -76.997744, "is_reserved": 0, "fusion_lon": 0.0}, {"rental_uris": {"ios": "https://dc.lft.to/lastmile_qr_scan", "android": "https://dc.lft.to/lastmile_qr_scan"}, "fusion_lat": 0.0, "name": "cb7e4724acdab047722373f61a4b6b8a", "bike_id": "cb7e4724acdab047722373f61a4b6b8a", "is_disabled": 0, "type": "electric_scooter", "lat": 38.88116316666667, "lon": -77.01650066666667, "is_reserved": 0, "fusion_lon": 0.0}, {"rental_uris": {"ios": "https://dc.lft.to/lastmile_qr_scan", "android": "https://dc.lft.to/lastmile_qr_scan"}, "fusion_lat": 0.0, "name": "d2203a8a620ea5f63c1ca2a404f89bfa", "bike_id": "d2203a8a620ea5f63c1ca2a404f89bfa", "is_disabled": 0, "type": "electric_scooter", "lat": 38.90391433333333, "lon": -77.035983, "is_reserved": 0, "fusion_lon": 0.0}, {"rental_uris": {"ios": "https://dc.lft.to/lastmile_qr_scan", "android": "https://dc.lft.to/lastmile_qr_scan"}, "fusion_lat": 0.0, "name": "7844d5bab9064c9c07eabfff797938f6", "bike_id": "7844d5bab9064c9c07eabfff797938f6", "is_disabled": 0, "type": "electric_scooter", "lat": 38.8669825, "lon": -76.98087183333334, "is_reserved": 0, "fusion_lon": 0.0}, {"rental_uris": {"ios": "https://dc.lft.to/lastmile_qr_scan", "android": "https://dc.lft.to/lastmile_qr_scan"}, "fusion_lat": 0.0, "name": "5746b13fae451e13cff59ebae5325405", "bike_id": "5746b13fae451e13cff59ebae5325405", "is_disabled": 0, "type": "electric_scooter", "lat": 38.914305166666665, "lon": -77.0281505, "is_reserved": 0, "fusion_lon": 0.0}, {"rental_uris": {"ios": "https://dc.lft.to/lastmile_qr_scan", "android": "https://dc.lft.to/lastmile_qr_scan"}, "fusion_lat": 0.0, "name": "a3aebfcc6a4675ad32959b9c354f3d47", "bike_id": "a3aebfcc6a4675ad32959b9c354f3d47", "is_disabled": 0, "type": "electric_scooter", "lat": 38.924107666666664, "lon": -77.0212815, "is_reserved": 0, "fusion_lon": 0.0}, {"rental_uris": {"ios": "https://dc.lft.to/lastmile_qr_scan", "android": "https://dc.lft.to/lastmile_qr_scan"}, "fusion_lat": 0.0, "name": "fb0d5b4474ffab9108a83b02850dfd7e", "bike_id": "fb0d5b4474ffab9108a83b02850dfd7e", "is_disabled": 0, "type": "electric_scooter", "lat": 38.8708175, "lon": -76.96865466666667, "is_reserved": 0, "fusion_lon": 0.0}, {"rental_uris": {"ios": "https://dc.lft.to/lastmile_qr_scan", "android": "https://dc.lft.to/lastmile_qr_scan"}, "fusion_lat": 0.0, "name": "be00a64ed0670defa7c1699579c7821f", "bike_id": "be00a64ed0670defa7c1699579c7821f", "is_disabled": 0, "type": "electric_scooter", "lat": 38.925754, "lon": -77.0256815, "is_reserved": 0, "fusion_lon": 0.0}, {"rental_uris": {"ios": "https://dc.lft.to/lastmile_qr_scan", "android": "https://dc.lft.to/lastmile_qr_scan"}, "fusion_lat": 0.0, "name": "2fb39a264d9b3f8d855be92945cbd6b6", "bike_id": "2fb39a264d9b3f8d855be92945cbd6b6", "is_disabled": 0, "type": "electric_scooter", "lat": 38.863642, "lon": -76.99052316666666, "is_reserved": 0, "fusion_lon": 0.0}, {"rental_uris": {"ios": "https://dc.lft.to/lastmile_qr_scan", "android": "https://dc.lft.to/lastmile_qr_scan"}, "fusion_lat": 0.0, "name": "1c05a8a0c99e4be2fb3a866343458ecb", "bike_id": "1c05a8a0c99e4be2fb3a866343458ecb", "is_disabled": 0, "type": "electric_scooter", "lat": 38.91682816666667, "lon": -77.02971383333333, "is_reserved": 0, "fusion_lon": 0.0}, {"rental_uris": {"ios": "https://dc.lft.to/lastmile_qr_scan", "android": "https://dc.lft.to/lastmile_qr_scan"}, "fusion_lat": 0.0, "name": "cad893476e4a81ba255dd55fc7e765c2", "bike_id": "cad893476e4a81ba255dd55fc7e765c2", "is_disabled": 0, "type": "electric_scooter", "lat": 38.86241666666667, "lon": -76.99490366666667, "is_reserved": 0, "fusion_lon": 0.0}, {"rental_uris": {"ios": "https://dc.lft.to/lastmile_qr_scan", "android": "https://dc.lft.to/lastmile_qr_scan"}, "fusion_lat": 0.0, "name": "0c40ca02632d0b78d575c8e9dcef9616", "bike_id": "0c40ca02632d0b78d575c8e9dcef9616", "is_disabled": 0, "type": "electric_scooter", "lat": 38.91693016666667, "lon": -77.02597283333333, "is_reserved": 0, "fusion_lon": 0.0}, {"rental_uris": {"ios": "https://dc.lft.to/lastmile_qr_scan", "android": "https://dc.lft.to/lastmile_qr_scan"}, "fusion_lat": 0.0, "name": "55d1a7e163ef17f925f2e1dede80394d", "bike_id": "55d1a7e163ef17f925f2e1dede80394d", "is_disabled": 0, "type": "electric_scooter", "lat": 38.90867166666666, "lon": -77.046221, "is_reserved": 0, "fusion_lon": 0.0}, {"rental_uris": {"ios": "https://dc.lft.to/lastmile_qr_scan", "android": "https://dc.lft.to/lastmile_qr_scan"}, "fusion_lat": 0.0, "name": "a44e5c2ac9221d1cd61d1823ec71795f", "bike_id": "a44e5c2ac9221d1cd61d1823ec71795f", "is_disabled": 0, "type": "electric_scooter", "lat": 38.8984035, "lon": -77.03341716666667, "is_reserved": 0, "fusion_lon": 0.0}, {"rental_uris": {"ios": "https://dc.lft.to/lastmile_qr_scan", "android": "https://dc.lft.to/lastmile_qr_scan"}, "fusion_lat": 0.0, "name": "77f664c60489569bf075f42050231a78", "bike_id": "77f664c60489569bf075f42050231a78", "is_disabled": 0, "type": "electric_scooter", "lat": 38.890392166666665, "lon": -76.95137683333333, "is_reserved": 0, "fusion_lon": 0.0}, {"rental_uris": {"ios": "https://dc.lft.to/lastmile_qr_scan", "android": "https://dc.lft.to/lastmile_qr_scan"}, "fusion_lat": 0.0, "name": "62792a234838d88c7ee63807af5bf48b", "bike_id": "62792a234838d88c7ee63807af5bf48b", "is_disabled": 0, "type": "electric_scooter", "lat": 38.89764783333333, "lon": -77.03170916666667, "is_reserved": 0, "fusion_lon": 0.0}, {"rental_uris": {"ios": "https://dc.lft.to/lastmile_qr_scan", "android": "https://dc.lft.to/lastmile_qr_scan"}, "fusion_lat": 0.0, "name": "b6f29cee18ff76d3d7f4b291a04d69c4", "bike_id": "b6f29cee18ff76d3d7f4b291a04d69c4", "is_disabled": 0, "type": "electric_bike", "lat": 38.962228, "lon": -77.02627633333333, "is_reserved": 0, "fusion_lon": 0.0}, {"rental_uris": {"ios": "https://dc.lft.to/lastmile_qr_scan", "android": "https://dc.lft.to/lastmile_qr_scan"}, "fusion_lat": 0.0, "name": "7d031e18897917a834f227d71d927270", "bike_id": "7d031e18897917a834f227d71d927270", "is_disabled": 0, "type": "electric_scooter", "lat": 38.8956605, "lon": -77.02981066666666, "is_reserved": 0, "fusion_lon": 0.0}, {"rental_uris": {"ios": "https://dc.lft.to/lastmile_qr_scan", "android": "https://dc.lft.to/lastmile_qr_scan"}, "fusion_lat": 0.0, "name": "024e8b9d095b39e1eb0993208aad5045", "bike_id": "024e8b9d095b39e1eb0993208aad5045", "is_disabled": 0, "type": "electric_scooter", "lat": 38.9210095, "lon": -77.0317205, "is_reserved": 0, "fusion_lon": 0.0}, {"rental_uris": {"ios": "https://dc.lft.to/lastmile_qr_scan", "android": "https://dc.lft.to/lastmile_qr_scan"}, "fusion_lat": 0.0, "name": "5fd99a61805d74e31f80fa39a6222ac9", "bike_id": "5fd99a61805d74e31f80fa39a6222ac9", "is_disabled": 0, "type": "electric_scooter", "lat": 38.920922833333336, "lon": -77.03162183333333, "is_reserved": 0, "fusion_lon": 0.0}, {"rental_uris": {"ios": "https://dc.lft.to/lastmile_qr_scan", "android": "https://dc.lft.to/lastmile_qr_scan"}, "fusion_lat": 0.0, "name": "739f277c6d0eb6eaf2541bc2515cb77f", "bike_id": "739f277c6d0eb6eaf2541bc2515cb77f", "is_disabled": 0, "type": "electric_scooter", "lat": 38.938907, "lon": -77.0248565, "is_reserved": 0, "fusion_lon": 0.0}, {"rental_uris": {"ios": "https://dc.lft.to/lastmile_qr_scan", "android": "https://dc.lft.to/lastmile_qr_scan"}, "fusion_lat": 0.0, "name": "a29813da6e35746f2e044151668c9302", "bike_id": "a29813da6e35746f2e044151668c9302", "is_disabled": 0, "type": "electric_scooter", "lat": 38.91688333333333, "lon": -77.02950766666666, "is_reserved": 0, "fusion_lon": 0.0}, {"rental_uris": {"ios": "https://dc.lft.to/lastmile_qr_scan", "android": "https://dc.lft.to/lastmile_qr_scan"}, "fusion_lat": 0.0, "name": "8a423ce6ca905c1271d3a8968bdd98d3", "bike_id": "8a423ce6ca905c1271d3a8968bdd98d3", "is_disabled": 0, "type": "electric_bike", "lat": 38.998126, "lon": -76.8836775, "is_reserved": 0, "fusion_lon": 0.0}, {"rental_uris": {"ios": "https://dc.lft.to/lastmile_qr_scan", "android": "https://dc.lft.to/lastmile_qr_scan"}, "fusion_lat": 0.0, "name": "8c10e5b4aa8259a5b5ca01367a40dd53", "bike_id": "8c10e5b4aa8259a5b5ca01367a40dd53", "is_disabled": 0, "type": "electric_scooter", "lat": 38.898862666666666, "lon": -76.9317565, "is_reserved": 0, "fusion_lon": 0.0}, {"rental_uris": {"ios": "https://dc.lft.to/lastmile_qr_scan", "android": "https://dc.lft.to/lastmile_qr_scan"}, "fusion_lat": 0.0, "name": "4a2921a8a5af87c721b23b1044aa6c10", "bike_id": "4a2921a8a5af87c721b23b1044aa6c10", "is_disabled": 0, "type": "electric_bike", "lat": 38.94913366666667, "lon": -76.97701, "is_reserved": 0, "fusion_lon": 0.0}, {"rental_uris": {"ios": "https://dc.lft.to/lastmile_qr_scan", "android": "https://dc.lft.to/lastmile_qr_scan"}, "fusion_lat": 0.0, "name": "f2a18d4d12a15eaaf773ab85ef7e58b8", "bike_id": "f2a18d4d12a15eaaf773ab85ef7e58b8", "is_disabled": 0, "type": "electric_scooter", "lat": 38.919904, "lon": -77.0328775, "is_reserved": 0, "fusion_lon": 0.0}, {"rental_uris": {"ios": "https://dc.lft.to/lastmile_qr_scan", "android": "https://dc.lft.to/lastmile_qr_scan"}, "fusion_lat": 0.0, "name": "6a4f14acdc4369ae6625ca5e12a7f350", "bike_id": "6a4f14acdc4369ae6625ca5e12a7f350", "is_disabled": 0, "type": "electric_scooter", "lat": 38.933574, "lon": -77.057155, "is_reserved": 0, "fusion_lon": 0.0}, {"rental_uris": {"ios": "https://dc.lft.to/lastmile_qr_scan", "android": "https://dc.lft.to/lastmile_qr_scan"}, "fusion_lat": 0.0, "name": "6fd9b220c5e7ecc05317015dbb301593", "bike_id": "6fd9b220c5e7ecc05317015dbb301593", "is_disabled": 0, "type": "electric_scooter", "lat": 38.92969166666666, "lon": -77.03768783333334, "is_reserved": 0, "fusion_lon": 0.0}, {"rental_uris": {"ios": "https://dc.lft.to/lastmile_qr_scan", "android": "https://dc.lft.to/lastmile_qr_scan"}, "fusion_lat": 0.0, "name": "5f75c57f43efb978a28179128eed82e2", "bike_id": "5f75c57f43efb978a28179128eed82e2", "is_disabled": 0, "type": "electric_scooter", "lat": 38.927525, "lon": -77.0328605, "is_reserved": 0, "fusion_lon": 0.0}, {"rental_uris": {"ios": "https://dc.lft.to/lastmile_qr_scan", "android": "https://dc.lft.to/lastmile_qr_scan"}, "fusion_lat": 0.0, "name": "d4ecaf2427c637bf7bcfec4fd1f677e2", "bike_id": "d4ecaf2427c637bf7bcfec4fd1f677e2", "is_disabled": 0, "type": "electric_scooter", "lat": 38.901328666666664, "lon": -77.02970683333334, "is_reserved": 0, "fusion_lon": 0.0}, {"rental_uris": {"ios": "https://dc.lft.to/lastmile_qr_scan", "android": "https://dc.lft.to/lastmile_qr_scan"}, "fusion_lat": 0.0, "name": "46654043898a0fef3e512b2beacf22cb", "bike_id": "46654043898a0fef3e512b2beacf22cb", "is_disabled": 0, "type": "electric_scooter", "lat": 38.8958265, "lon": -76.98180433333333, "is_reserved": 0, "fusion_lon": 0.0}, {"rental_uris": {"ios": "https://dc.lft.to/lastmile_qr_scan", "android": "https://dc.lft.to/lastmile_qr_scan"}, "fusion_lat": 0.0, "name": "e812b55c92f98428c40e9d70b0571715", "bike_id": "e812b55c92f98428c40e9d70b0571715", "is_disabled": 0, "type": "electric_scooter", "lat": 38.8624365, "lon": -76.99496483333333, "is_reserved": 0, "fusion_lon": 0.0}, {"rental_uris": {"ios": "https://dc.lft.to/lastmile_qr_scan", "android": "https://dc.lft.to/lastmile_qr_scan"}, "fusion_lat": 0.0, "name": "76adb4bdb88cc9ddaf24e9cd6308b0e5", "bike_id": "76adb4bdb88cc9ddaf24e9cd6308b0e5", "is_disabled": 0, "type": "electric_scooter", "lat": 38.89727583333333, "lon": -77.04689416666666, "is_reserved": 0, "fusion_lon": 0.0}, {"rental_uris": {"ios": "https://dc.lft.to/lastmile_qr_scan", "android": "https://dc.lft.to/lastmile_qr_scan"}, "fusion_lat": 0.0, "name": "d6ac33049f9ddc4c4d24652973d53450", "bike_id": "d6ac33049f9ddc4c4d24652973d53450", "is_disabled": 0, "type": "electric_scooter", "lat": 38.9447005, "lon": -77.02337133333333, "is_reserved": 0, "fusion_lon": 0.0}, {"rental_uris": {"ios": "https://dc.lft.to/lastmile_qr_scan", "android": "https://dc.lft.to/lastmile_qr_scan"}, "fusion_lat": 0.0, "name": "c6c4e4ae107db31927ca3e5a1f98e3c6", "bike_id": "c6c4e4ae107db31927ca3e5a1f98e3c6", "is_disabled": 0, "type": "electric_bike", "lat": 38.85397866666667, "lon": -77.1248225, "is_reserved": 0, "fusion_lon": 0.0}, {"rental_uris": {"ios": "https://dc.lft.to/lastmile_qr_scan", "android": "https://dc.lft.to/lastmile_qr_scan"}, "fusion_lat": 0.0, "name": "567f49086df5d9fd0b37c74b4c3e9895", "bike_id": "567f49086df5d9fd0b37c74b4c3e9895", "is_disabled": 0, "type": "electric_scooter", "lat": 38.896223666666664, "lon": -77.03180583333334, "is_reserved": 0, "fusion_lon": 0.0}, {"rental_uris": {"ios": "https://dc.lft.to/lastmile_qr_scan", "android": "https://dc.lft.to/lastmile_qr_scan"}, "fusion_lat": 0.0, "name": "c9036a0a4d70816027d4499b83542784", "bike_id": "c9036a0a4d70816027d4499b83542784", "is_disabled": 0, "type": "electric_scooter", "lat": 38.8837365, "lon": -76.99508683333333, "is_reserved": 0, "fusion_lon": 0.0}, {"rental_uris": {"ios": "https://dc.lft.to/lastmile_qr_scan", "android": "https://dc.lft.to/lastmile_qr_scan"}, "fusion_lat": 0.0, "name": "9db9d43f1194b9ab9b6f340810958e02", "bike_id": "9db9d43f1194b9ab9b6f340810958e02", "is_disabled": 0, "type": "electric_scooter", "lat": 38.906682333333336, "lon": -77.02703883333334, "is_reserved": 0, "fusion_lon": 0.0}, {"rental_uris": {"ios": "https://dc.lft.to/lastmile_qr_scan", "android": "https://dc.lft.to/lastmile_qr_scan"}, "fusion_lat": 0.0, "name": "9ea2a91238bc65a55a964c9a74102d65", "bike_id": "9ea2a91238bc65a55a964c9a74102d65", "is_disabled": 0, "type": "electric_bike", "lat": 38.84013233333334, "lon": -76.9752995, "is_reserved": 0, "fusion_lon": 0.0}, {"rental_uris": {"ios": "https://dc.lft.to/lastmile_qr_scan", "android": "https://dc.lft.to/lastmile_qr_scan"}, "fusion_lat": 0.0, "name": "3347427ba413e4743252535ce1abc6e3", "bike_id": "3347427ba413e4743252535ce1abc6e3", "is_disabled": 0, "type": "electric_scooter", "lat": 38.9204415, "lon": -77.04212533333333, "is_reserved": 0, "fusion_lon": 0.0}, {"rental_uris": {"ios": "https://dc.lft.to/lastmile_qr_scan", "android": "https://dc.lft.to/lastmile_qr_scan"}, "fusion_lat": 0.0, "name": "c59a886d6faf08c46eaac00144ccb553", "bike_id": "c59a886d6faf08c46eaac00144ccb553", "is_disabled": 0, "type": "electric_scooter", "lat": 38.907333666666666, "lon": -77.03952316666667, "is_reserved": 0, "fusion_lon": 0.0}, {"rental_uris": {"ios": "https://dc.lft.to/lastmile_qr_scan", "android": "https://dc.lft.to/lastmile_qr_scan"}, "fusion_lat": 0.0, "name": "d3108e49894c2a316753f08ab80b3282", "bike_id": "d3108e49894c2a316753f08ab80b3282", "is_disabled": 0, "type": "electric_scooter", "lat": 38.901549833333334, "lon": -77.04180133333334, "is_reserved": 0, "fusion_lon": 0.0}, {"rental_uris": {"ios": "https://dc.lft.to/lastmile_qr_scan", "android": "https://dc.lft.to/lastmile_qr_scan"}, "fusion_lat": 0.0, "name": "55cbea102290853dd0ac3aad95688e87", "bike_id": "55cbea102290853dd0ac3aad95688e87", "is_disabled": 0, "type": "electric_scooter", "lat": 38.885201333333335, "lon": -76.928869, "is_reserved": 0, "fusion_lon": 0.0}, {"rental_uris": {"ios": "https://dc.lft.to/lastmile_qr_scan", "android": "https://dc.lft.to/lastmile_qr_scan"}, "fusion_lat": 0.0, "name": "031923737ac4c9490796a707fcbe7f25", "bike_id": "031923737ac4c9490796a707fcbe7f25", "is_disabled": 0, "type": "electric_scooter", "lat": 38.915659833333336, "lon": -77.02214, "is_reserved": 0, "fusion_lon": 0.0}, {"rental_uris": {"ios": "https://dc.lft.to/lastmile_qr_scan", "android": "https://dc.lft.to/lastmile_qr_scan"}, "fusion_lat": 0.0, "name": "a756c6d00d30ea25bac7cf50f246cafd", "bike_id": "a756c6d00d30ea25bac7cf50f246cafd", "is_disabled": 0, "type": "electric_scooter", "lat": 38.88023883333334, "lon": -77.0024275, "is_reserved": 0, "fusion_lon": 0.0}, {"rental_uris": {"ios": "https://dc.lft.to/lastmile_qr_scan", "android": "https://dc.lft.to/lastmile_qr_scan"}, "fusion_lat": 0.0, "name": "d75185a68b8c9c766f8d53a649043c4f", "bike_id": "d75185a68b8c9c766f8d53a649043c4f", "is_disabled": 0, "type": "electric_scooter", "lat": 38.930484, "lon": -77.01994016666667, "is_reserved": 0, "fusion_lon": 0.0}, {"rental_uris": {"ios": "https://dc.lft.to/lastmile_qr_scan", "android": "https://dc.lft.to/lastmile_qr_scan"}, "fusion_lat": 0.0, "name": "d19f79894d67370148e41b28b8c664c6", "bike_id": "d19f79894d67370148e41b28b8c664c6", "is_disabled": 0, "type": "electric_bike", "lat": 38.8502735, "lon": -77.09802216666667, "is_reserved": 0, "fusion_lon": 0.0}, {"rental_uris": {"ios": "https://dc.lft.to/lastmile_qr_scan", "android": "https://dc.lft.to/lastmile_qr_scan"}, "fusion_lat": 0.0, "name": "2241a6d73bb1e1cc877fe84eaf2a8e7e", "bike_id": "2241a6d73bb1e1cc877fe84eaf2a8e7e", "is_disabled": 0, "type": "electric_bike", "lat": 38.96443083333333, "lon": -77.020655, "is_reserved": 0, "fusion_lon": 0.0}, {"rental_uris": {"ios": "https://dc.lft.to/lastmile_qr_scan", "android": "https://dc.lft.to/lastmile_qr_scan"}, "fusion_lat": 0.0, "name": "ab4068543f54226eb2e58568170c6f0e", "bike_id": "ab4068543f54226eb2e58568170c6f0e", "is_disabled": 0, "type": "electric_bike", "lat": 38.857899, "lon": -77.0996155, "is_reserved": 0, "fusion_lon": 0.0}, {"rental_uris": {"ios": "https://dc.lft.to/lastmile_qr_scan", "android": "https://dc.lft.to/lastmile_qr_scan"}, "fusion_lat": 0.0, "name": "cfd2af82220d82f7c9678a1729adf795", "bike_id": "cfd2af82220d82f7c9678a1729adf795", "is_disabled": 0, "type": "electric_scooter", "lat": 38.94520383333333, "lon": -76.979461, "is_reserved": 0, "fusion_lon": 0.0}, {"rental_uris": {"ios": "https://dc.lft.to/lastmile_qr_scan", "android": "https://dc.lft.to/lastmile_qr_scan"}, "fusion_lat": 0.0, "name": "39e69c22646803bd59950498bb0ff16a", "bike_id": "39e69c22646803bd59950498bb0ff16a", "is_disabled": 0, "type": "electric_scooter", "lat": 38.91858583333333, "lon": -77.04032983333333, "is_reserved": 0, "fusion_lon": 0.0}, {"rental_uris": {"ios": "https://dc.lft.to/lastmile_qr_scan", "android": "https://dc.lft.to/lastmile_qr_scan"}, "fusion_lat": 0.0, "name": "40ae7410edd6d8ffdae7c9bd9ae20948", "bike_id": "40ae7410edd6d8ffdae7c9bd9ae20948", "is_disabled": 0, "type": "electric_scooter", "lat": 38.915617, "lon": -77.04009816666667, "is_reserved": 0, "fusion_lon": 0.0}, {"rental_uris": {"ios": "https://dc.lft.to/lastmile_qr_scan", "android": "https://dc.lft.to/lastmile_qr_scan"}, "fusion_lat": 0.0, "name": "72d9d2913ad29b10c1564354bff4d023", "bike_id": "72d9d2913ad29b10c1564354bff4d023", "is_disabled": 0, "type": "electric_scooter", "lat": 38.91637133333333, "lon": -77.03203983333333, "is_reserved": 0, "fusion_lon": 0.0}, {"rental_uris": {"ios": "https://dc.lft.to/lastmile_qr_scan", "android": "https://dc.lft.to/lastmile_qr_scan"}, "fusion_lat": 0.0, "name": "296080c6dd6384d7eb435bdc3b1ea126", "bike_id": "296080c6dd6384d7eb435bdc3b1ea126", "is_disabled": 0, "type": "electric_scooter", "lat": 38.89220483333333, "lon": -77.02222983333333, "is_reserved": 0, "fusion_lon": 0.0}, {"rental_uris": {"ios": "https://dc.lft.to/lastmile_qr_scan", "android": "https://dc.lft.to/lastmile_qr_scan"}, "fusion_lat": 0.0, "name": "044e4a702ea8f8b3eb1140eb0e5ea6fc", "bike_id": "044e4a702ea8f8b3eb1140eb0e5ea6fc", "is_disabled": 0, "type": "electric_scooter", "lat": 38.90970383333333, "lon": -77.02477283333333, "is_reserved": 0, "fusion_lon": 0.0}, {"rental_uris": {"ios": "https://dc.lft.to/lastmile_qr_scan", "android": "https://dc.lft.to/lastmile_qr_scan"}, "fusion_lat": 0.0, "name": "b0c3cc8b42a224c47dc93cd8bc0760bc", "bike_id": "b0c3cc8b42a224c47dc93cd8bc0760bc", "is_disabled": 0, "type": "electric_bike", "lat": 38.95834933333333, "lon": -77.00166466666667, "is_reserved": 0, "fusion_lon": 0.0}, {"rental_uris": {"ios": "https://dc.lft.to/lastmile_qr_scan", "android": "https://dc.lft.to/lastmile_qr_scan"}, "fusion_lat": 0.0, "name": "c3e21b8f16af6dca7b4a20ef472b700d", "bike_id": "c3e21b8f16af6dca7b4a20ef472b700d", "is_disabled": 0, "type": "electric_scooter", "lat": 38.87183183333333, "lon": -77.00610933333333, "is_reserved": 0, "fusion_lon": 0.0}, {"rental_uris": {"ios": "https://dc.lft.to/lastmile_qr_scan", "android": "https://dc.lft.to/lastmile_qr_scan"}, "fusion_lat": 0.0, "name": "71f31b86a3d1ae3c62d21e952ae7c6f6", "bike_id": "71f31b86a3d1ae3c62d21e952ae7c6f6", "is_disabled": 0, "type": "electric_bike", "lat": 38.87082916666667, "lon": -76.978368, "is_reserved": 0, "fusion_lon": 0.0}, {"rental_uris": {"ios": "https://dc.lft.to/lastmile_qr_scan", "android": "https://dc.lft.to/lastmile_qr_scan"}, "fusion_lat": 0.0, "name": "a0dfb8cb7f51c724141b7ba2f87d8e47", "bike_id": "a0dfb8cb7f51c724141b7ba2f87d8e47", "is_disabled": 0, "type": "electric_scooter", "lat": 38.86752666666667, "lon": -77.03854483333333, "is_reserved": 0, "fusion_lon": 0.0}, {"rental_uris": {"ios": "https://dc.lft.to/lastmile_qr_scan", "android": "https://dc.lft.to/lastmile_qr_scan"}, "fusion_lat": 0.0, "name": "067cbc09bc0f645af4d3be772eb19974", "bike_id": "067cbc09bc0f645af4d3be772eb19974", "is_disabled": 0, "type": "electric_scooter", "lat": 38.9171645, "lon": -77.031817, "is_reserved": 0, "fusion_lon": 0.0}, {"rental_uris": {"ios": "https://dc.lft.to/lastmile_qr_scan", "android": "https://dc.lft.to/lastmile_qr_scan"}, "fusion_lat": 0.0, "name": "7ba2eab8cc42c44a6730528198c1ffa3", "bike_id": "7ba2eab8cc42c44a6730528198c1ffa3", "is_disabled": 0, "type": "electric_scooter", "lat": 38.915886666666665, "lon": -77.03179016666667, "is_reserved": 0, "fusion_lon": 0.0}, {"rental_uris": {"ios": "https://dc.lft.to/lastmile_qr_scan", "android": "https://dc.lft.to/lastmile_qr_scan"}, "fusion_lat": 0.0, "name": "b70a108e69db9269861d73e19e414932", "bike_id": "b70a108e69db9269861d73e19e414932", "is_disabled": 0, "type": "electric_scooter", "lat": 38.902216, "lon": -77.00889466666666, "is_reserved": 0, "fusion_lon": 0.0}, {"rental_uris": {"ios": "https://dc.lft.to/lastmile_qr_scan", "android": "https://dc.lft.to/lastmile_qr_scan"}, "fusion_lat": 0.0, "name": "62a037cb056a06e5b8967c15beef4be1", "bike_id": "62a037cb056a06e5b8967c15beef4be1", "is_disabled": 0, "type": "electric_scooter", "lat": 38.910701833333334, "lon": -77.04395216666667, "is_reserved": 0, "fusion_lon": 0.0}, {"rental_uris": {"ios": "https://dc.lft.to/lastmile_qr_scan", "android": "https://dc.lft.to/lastmile_qr_scan"}, "fusion_lat": 0.0, "name": "62beafa99a63eef58968a45922590825", "bike_id": "62beafa99a63eef58968a45922590825", "is_disabled": 0, "type": "electric_scooter", "lat": 38.907436833333335, "lon": -76.983424, "is_reserved": 0, "fusion_lon": 0.0}, {"rental_uris": {"ios": "https://dc.lft.to/lastmile_qr_scan", "android": "https://dc.lft.to/lastmile_qr_scan"}, "fusion_lat": 0.0, "name": "49a90279c2738361b9d040c19b16f6f5", "bike_id": "49a90279c2738361b9d040c19b16f6f5", "is_disabled": 0, "type": "electric_bike", "lat": 38.9451185, "lon": -77.00674766666667, "is_reserved": 0, "fusion_lon": 0.0}, {"rental_uris": {"ios": "https://dc.lft.to/lastmile_qr_scan", "android": "https://dc.lft.to/lastmile_qr_scan"}, "fusion_lat": 0.0, "name": "e0906297102950af83b6cafe8294d259", "bike_id": "e0906297102950af83b6cafe8294d259", "is_disabled": 0, "type": "electric_scooter", "lat": 38.898290333333335, "lon": -77.02968216666666, "is_reserved": 0, "fusion_lon": 0.0}, {"rental_uris": {"ios": "https://dc.lft.to/lastmile_qr_scan", "android": "https://dc.lft.to/lastmile_qr_scan"}, "fusion_lat": 0.0, "name": "48f93b2f74513178bddb3a18e6d5c0bc", "bike_id": "48f93b2f74513178bddb3a18e6d5c0bc", "is_disabled": 0, "type": "electric_scooter", "lat": 38.90717016666667, "lon": -77.0742185, "is_reserved": 0, "fusion_lon": 0.0}, {"rental_uris": {"ios": "https://dc.lft.to/lastmile_qr_scan", "android": "https://dc.lft.to/lastmile_qr_scan"}, "fusion_lat": 0.0, "name": "44883ede7291398d5691b6665f66a29d", "bike_id": "44883ede7291398d5691b6665f66a29d", "is_disabled": 0, "type": "electric_bike", "lat": 38.89403816666667, "lon": -76.9479605, "is_reserved": 0, "fusion_lon": 0.0}, {"rental_uris": {"ios": "https://dc.lft.to/lastmile_qr_scan", "android": "https://dc.lft.to/lastmile_qr_scan"}, "fusion_lat": 0.0, "name": "3a785f46908017338bfa9d9d8383a4a9", "bike_id": "3a785f46908017338bfa9d9d8383a4a9", "is_disabled": 0, "type": "electric_scooter", "lat": 38.9027515, "lon": -77.0453755, "is_reserved": 0, "fusion_lon": 0.0}, {"rental_uris": {"ios": "https://dc.lft.to/lastmile_qr_scan", "android": "https://dc.lft.to/lastmile_qr_scan"}, "fusion_lat": 0.0, "name": "c1ada96c9e0162b2ab5dd6d9edaf56f7", "bike_id": "c1ada96c9e0162b2ab5dd6d9edaf56f7", "is_disabled": 0, "type": "electric_scooter", "lat": 38.90986066666667, "lon": -76.99482233333333, "is_reserved": 0, "fusion_lon": 0.0}, {"rental_uris": {"ios": "https://dc.lft.to/lastmile_qr_scan", "android": "https://dc.lft.to/lastmile_qr_scan"}, "fusion_lat": 0.0, "name": "8319ca76220ef8ff714fd17a9073eced", "bike_id": "8319ca76220ef8ff714fd17a9073eced", "is_disabled": 0, "type": "electric_scooter", "lat": 38.887476166666666, "lon": -77.02570733333333, "is_reserved": 0, "fusion_lon": 0.0}, {"rental_uris": {"ios": "https://dc.lft.to/lastmile_qr_scan", "android": "https://dc.lft.to/lastmile_qr_scan"}, "fusion_lat": 0.0, "name": "3da3d598b847fdb780c08c1e04638ebd", "bike_id": "3da3d598b847fdb780c08c1e04638ebd", "is_disabled": 0, "type": "electric_scooter", "lat": 38.9095955, "lon": -77.04825183333334, "is_reserved": 0, "fusion_lon": 0.0}, {"rental_uris": {"ios": "https://dc.lft.to/lastmile_qr_scan", "android": "https://dc.lft.to/lastmile_qr_scan"}, "fusion_lat": 0.0, "name": "f3bf1cef7b8a1d807fb15395c88e8012", "bike_id": "f3bf1cef7b8a1d807fb15395c88e8012", "is_disabled": 0, "type": "electric_bike", "lat": 38.828785333333336, "lon": -77.00837866666667, "is_reserved": 0, "fusion_lon": 0.0}, {"rental_uris": {"ios": "https://dc.lft.to/lastmile_qr_scan", "android": "https://dc.lft.to/lastmile_qr_scan"}, "fusion_lat": 0.0, "name": "e12ec4766867bc89e10f6728bf34f789", "bike_id": "e12ec4766867bc89e10f6728bf34f789", "is_disabled": 0, "type": "electric_scooter", "lat": 38.91373266666667, "lon": -77.03205233333334, "is_reserved": 0, "fusion_lon": 0.0}, {"rental_uris": {"ios": "https://dc.lft.to/lastmile_qr_scan", "android": "https://dc.lft.to/lastmile_qr_scan"}, "fusion_lat": 0.0, "name": "efba6f22649a455c4b87359330f4cf37", "bike_id": "efba6f22649a455c4b87359330f4cf37", "is_disabled": 0, "type": "electric_scooter", "lat": 38.922960333333336, "lon": -77.03662416666667, "is_reserved": 0, "fusion_lon": 0.0}, {"rental_uris": {"ios": "https://dc.lft.to/lastmile_qr_scan", "android": "https://dc.lft.to/lastmile_qr_scan"}, "fusion_lat": 0.0, "name": "3fe4f8f9b1dfa8df81271a1af142a76a", "bike_id": "3fe4f8f9b1dfa8df81271a1af142a76a", "is_disabled": 0, "type": "electric_scooter", "lat": 38.90266483333333, "lon": -77.04367833333333, "is_reserved": 0, "fusion_lon": 0.0}, {"rental_uris": {"ios": "https://dc.lft.to/lastmile_qr_scan", "android": "https://dc.lft.to/lastmile_qr_scan"}, "fusion_lat": 0.0, "name": "29c850e1bc40db2582313e097c4297ad", "bike_id": "29c850e1bc40db2582313e097c4297ad", "is_disabled": 0, "type": "electric_bike", "lat": 38.932343, "lon": -76.97423933333333, "is_reserved": 0, "fusion_lon": 0.0}, {"rental_uris": {"ios": "https://dc.lft.to/lastmile_qr_scan", "android": "https://dc.lft.to/lastmile_qr_scan"}, "fusion_lat": 0.0, "name": "d2e14ec15137797f7364d3dede2854fc", "bike_id": "d2e14ec15137797f7364d3dede2854fc", "is_disabled": 0, "type": "electric_scooter", "lat": 38.90785833333333, "lon": -77.038584, "is_reserved": 0, "fusion_lon": 0.0}, {"rental_uris": {"ios": "https://dc.lft.to/lastmile_qr_scan", "android": "https://dc.lft.to/lastmile_qr_scan"}, "fusion_lat": 0.0, "name": "e64cfdf5da744f561fd9fdf1c52e1803", "bike_id": "e64cfdf5da744f561fd9fdf1c52e1803", "is_disabled": 0, "type": "electric_scooter", "lat": 38.862445, "lon": -76.99494833333333, "is_reserved": 0, "fusion_lon": 0.0}, {"rental_uris": {"ios": "https://dc.lft.to/lastmile_qr_scan", "android": "https://dc.lft.to/lastmile_qr_scan"}, "fusion_lat": 0.0, "name": "92e9b3a19ef6c2f0d823afb30c0adff8", "bike_id": "92e9b3a19ef6c2f0d823afb30c0adff8", "is_disabled": 0, "type": "electric_scooter", "lat": 38.916866666666664, "lon": -77.034376, "is_reserved": 0, "fusion_lon": 0.0}, {"rental_uris": {"ios": "https://dc.lft.to/lastmile_qr_scan", "android": "https://dc.lft.to/lastmile_qr_scan"}, "fusion_lat": 0.0, "name": "c1e71aa903c269eed925d159e53d1f46", "bike_id": "c1e71aa903c269eed925d159e53d1f46", "is_disabled": 0, "type": "electric_scooter", "lat": 38.8990465, "lon": -76.93351533333333, "is_reserved": 0, "fusion_lon": 0.0}, {"rental_uris": {"ios": "https://dc.lft.to/lastmile_qr_scan", "android": "https://dc.lft.to/lastmile_qr_scan"}, "fusion_lat": 0.0, "name": "5ee81e204f42aa558223d0931b354b4a", "bike_id": "5ee81e204f42aa558223d0931b354b4a", "is_disabled": 0, "type": "electric_scooter", "lat": 38.85093066666667, "lon": -76.96661116666667, "is_reserved": 0, "fusion_lon": 0.0}, {"rental_uris": {"ios": "https://dc.lft.to/lastmile_qr_scan", "android": "https://dc.lft.to/lastmile_qr_scan"}, "fusion_lat": 0.0, "name": "3280c90eda309f33a6376ab7b39c0410", "bike_id": "3280c90eda309f33a6376ab7b39c0410", "is_disabled": 0, "type": "electric_scooter", "lat": 38.895006333333335, "lon": -76.94876633333334, "is_reserved": 0, "fusion_lon": 0.0}, {"rental_uris": {"ios": "https://dc.lft.to/lastmile_qr_scan", "android": "https://dc.lft.to/lastmile_qr_scan"}, "fusion_lat": 0.0, "name": "7589e32d1b09880005767a21c4c3e5d0", "bike_id": "7589e32d1b09880005767a21c4c3e5d0", "is_disabled": 0, "type": "electric_scooter", "lat": 38.9070095, "lon": -76.98728216666666, "is_reserved": 0, "fusion_lon": 0.0}, {"rental_uris": {"ios": "https://dc.lft.to/lastmile_qr_scan", "android": "https://dc.lft.to/lastmile_qr_scan"}, "fusion_lat": 0.0, "name": "802f7911976cfecce12a322d161e6241", "bike_id": "802f7911976cfecce12a322d161e6241", "is_disabled": 0, "type": "electric_scooter", "lat": 38.91432533333333, "lon": -77.03224066666667, "is_reserved": 0, "fusion_lon": 0.0}, {"rental_uris": {"ios": "https://dc.lft.to/lastmile_qr_scan", "android": "https://dc.lft.to/lastmile_qr_scan"}, "fusion_lat": 0.0, "name": "0ad4047f26ac6c9825c39cae27d175e0", "bike_id": "0ad4047f26ac6c9825c39cae27d175e0", "is_disabled": 0, "type": "electric_bike", "lat": 38.89994, "lon": -77.02673, "is_reserved": 0, "fusion_lon": 0.0}, {"rental_uris": {"ios": "https://dc.lft.to/lastmile_qr_scan", "android": "https://dc.lft.to/lastmile_qr_scan"}, "fusion_lat": 0.0, "name": "550dd1d600c8d1b0c55ea397dd7794b4", "bike_id": "550dd1d600c8d1b0c55ea397dd7794b4", "is_disabled": 0, "type": "electric_bike", "lat": 38.901218666666665, "lon": -77.03703983333334, "is_reserved": 0, "fusion_lon": 0.0}, {"rental_uris": {"ios": "https://dc.lft.to/lastmile_qr_scan", "android": "https://dc.lft.to/lastmile_qr_scan"}, "fusion_lat": 0.0, "name": "ec3cee4485a2ef803dda2f48789db9ac", "bike_id": "ec3cee4485a2ef803dda2f48789db9ac", "is_disabled": 0, "type": "electric_scooter", "lat": 38.866507166666665, "lon": -76.98882183333333, "is_reserved": 0, "fusion_lon": 0.0}, {"rental_uris": {"ios": "https://dc.lft.to/lastmile_qr_scan", "android": "https://dc.lft.to/lastmile_qr_scan"}, "fusion_lat": 0.0, "name": "734f2718a838ecf329ef6678f74052d0", "bike_id": "734f2718a838ecf329ef6678f74052d0", "is_disabled": 0, "type": "electric_scooter", "lat": 38.90075866666667, "lon": -77.04913266666667, "is_reserved": 0, "fusion_lon": 0.0}, {"rental_uris": {"ios": "https://dc.lft.to/lastmile_qr_scan", "android": "https://dc.lft.to/lastmile_qr_scan"}, "fusion_lat": 0.0, "name": "7eb03d2bf44cd204c06f6ad04b682405", "bike_id": "7eb03d2bf44cd204c06f6ad04b682405", "is_disabled": 0, "type": "electric_scooter", "lat": 38.90358883333333, "lon": -77.03421783333333, "is_reserved": 0, "fusion_lon": 0.0}, {"rental_uris": {"ios": "https://dc.lft.to/lastmile_qr_scan", "android": "https://dc.lft.to/lastmile_qr_scan"}, "fusion_lat": 0.0, "name": "3b1008cb75912efa341581c6a8769649", "bike_id": "3b1008cb75912efa341581c6a8769649", "is_disabled": 0, "type": "electric_scooter", "lat": 38.898927, "lon": -76.99908066666667, "is_reserved": 0, "fusion_lon": 0.0}, {"rental_uris": {"ios": "https://dc.lft.to/lastmile_qr_scan", "android": "https://dc.lft.to/lastmile_qr_scan"}, "fusion_lat": 0.0, "name": "cf3a7ba8aafc9343b50b2d6b55810995", "bike_id": "cf3a7ba8aafc9343b50b2d6b55810995", "is_disabled": 0, "type": "electric_bike", "lat": 38.80062016666667, "lon": -77.07108166666667, "is_reserved": 0, "fusion_lon": 0.0}, {"rental_uris": {"ios": "https://dc.lft.to/lastmile_qr_scan", "android": "https://dc.lft.to/lastmile_qr_scan"}, "fusion_lat": 0.0, "name": "cb54f6e2d4f8345f36eb77bbdcc5a586", "bike_id": "cb54f6e2d4f8345f36eb77bbdcc5a586", "is_disabled": 0, "type": "electric_bike", "lat": 38.957847666666666, "lon": -77.02755433333333, "is_reserved": 0, "fusion_lon": 0.0}, {"rental_uris": {"ios": "https://dc.lft.to/lastmile_qr_scan", "android": "https://dc.lft.to/lastmile_qr_scan"}, "fusion_lat": 0.0, "name": "89448579da5e9f8d4fa1ba94af1ed7f1", "bike_id": "89448579da5e9f8d4fa1ba94af1ed7f1", "is_disabled": 0, "type": "electric_scooter", "lat": 38.900008, "lon": -76.9962425, "is_reserved": 0, "fusion_lon": 0.0}, {"rental_uris": {"ios": "https://dc.lft.to/lastmile_qr_scan", "android": "https://dc.lft.to/lastmile_qr_scan"}, "fusion_lat": 0.0, "name": "db171f44014a9d72bd342a25cf6054be", "bike_id": "db171f44014a9d72bd342a25cf6054be", "is_disabled": 0, "type": "electric_scooter", "lat": 38.9184895, "lon": -77.03214983333334, "is_reserved": 0, "fusion_lon": 0.0}, {"rental_uris": {"ios": "https://dc.lft.to/lastmile_qr_scan", "android": "https://dc.lft.to/lastmile_qr_scan"}, "fusion_lat": 0.0, "name": "0e0211070e255af3c032b3d3672e4dac", "bike_id": "0e0211070e255af3c032b3d3672e4dac", "is_disabled": 0, "type": "electric_scooter", "lat": 38.920472, "lon": -77.03471016666667, "is_reserved": 0, "fusion_lon": 0.0}, {"rental_uris": {"ios": "https://dc.lft.to/lastmile_qr_scan", "android": "https://dc.lft.to/lastmile_qr_scan"}, "fusion_lat": 0.0, "name": "738c02616d2f22d5b83328cee58ea591", "bike_id": "738c02616d2f22d5b83328cee58ea591", "is_disabled": 0, "type": "electric_scooter", "lat": 38.909080833333334, "lon": -76.99779566666666, "is_reserved": 0, "fusion_lon": 0.0}, {"rental_uris": {"ios": "https://dc.lft.to/lastmile_qr_scan", "android": "https://dc.lft.to/lastmile_qr_scan"}, "fusion_lat": 0.0, "name": "94a2012f102600d85422568ccd7be2da", "bike_id": "94a2012f102600d85422568ccd7be2da", "is_disabled": 0, "type": "electric_bike", "lat": 38.848039666666665, "lon": -77.075146, "is_reserved": 0, "fusion_lon": 0.0}, {"rental_uris": {"ios": "https://dc.lft.to/lastmile_qr_scan", "android": "https://dc.lft.to/lastmile_qr_scan"}, "fusion_lat": 0.0, "name": "0ffa5fae97649013b34137df522c8d66", "bike_id": "0ffa5fae97649013b34137df522c8d66", "is_disabled": 0, "type": "electric_scooter", "lat": 38.92059883333334, "lon": -77.04191366666667, "is_reserved": 0, "fusion_lon": 0.0}, {"rental_uris": {"ios": "https://dc.lft.to/lastmile_qr_scan", "android": "https://dc.lft.to/lastmile_qr_scan"}, "fusion_lat": 0.0, "name": "725318c159e611637da48ec72f72197b", "bike_id": "725318c159e611637da48ec72f72197b", "is_disabled": 0, "type": "electric_scooter", "lat": 38.887197666666665, "lon": -77.01778, "is_reserved": 0, "fusion_lon": 0.0}, {"rental_uris": {"ios": "https://dc.lft.to/lastmile_qr_scan", "android": "https://dc.lft.to/lastmile_qr_scan"}, "fusion_lat": 0.0, "name": "29935b1db13b7bc56e6b53f115fcdb33", "bike_id": "29935b1db13b7bc56e6b53f115fcdb33", "is_disabled": 0, "type": "electric_scooter", "lat": 38.924582, "lon": -77.03390616666667, "is_reserved": 0, "fusion_lon": 0.0}, {"rental_uris": {"ios": "https://dc.lft.to/lastmile_qr_scan", "android": "https://dc.lft.to/lastmile_qr_scan"}, "fusion_lat": 0.0, "name": "559dbfc61e90233ca0f03b57e15f5d73", "bike_id": "559dbfc61e90233ca0f03b57e15f5d73", "is_disabled": 0, "type": "electric_scooter", "lat": 38.91816983333333, "lon": -77.03214433333333, "is_reserved": 0, "fusion_lon": 0.0}, {"rental_uris": {"ios": "https://dc.lft.to/lastmile_qr_scan", "android": "https://dc.lft.to/lastmile_qr_scan"}, "fusion_lat": 0.0, "name": "b1c6c871fa892cb8680acc3144a13f27", "bike_id": "b1c6c871fa892cb8680acc3144a13f27", "is_disabled": 0, "type": "electric_bike", "lat": 38.813317166666664, "lon": -77.05089583333333, "is_reserved": 0, "fusion_lon": 0.0}, {"rental_uris": {"ios": "https://dc.lft.to/lastmile_qr_scan", "android": "https://dc.lft.to/lastmile_qr_scan"}, "fusion_lat": 0.0, "name": "a71beb444127baa719a361df118f50b4", "bike_id": "a71beb444127baa719a361df118f50b4", "is_disabled": 0, "type": "electric_scooter", "lat": 38.890305166666664, "lon": -76.95130183333333, "is_reserved": 0, "fusion_lon": 0.0}, {"rental_uris": {"ios": "https://dc.lft.to/lastmile_qr_scan", "android": "https://dc.lft.to/lastmile_qr_scan"}, "fusion_lat": 0.0, "name": "15dd641df0d30e9c6a13731201f5bfa5", "bike_id": "15dd641df0d30e9c6a13731201f5bfa5", "is_disabled": 0, "type": "electric_scooter", "lat": 38.90312616666667, "lon": -77.0343095, "is_reserved": 0, "fusion_lon": 0.0}, {"rental_uris": {"ios": "https://dc.lft.to/lastmile_qr_scan", "android": "https://dc.lft.to/lastmile_qr_scan"}, "fusion_lat": 0.0, "name": "5a58825be4b2ddcca5968b755fd59780", "bike_id": "5a58825be4b2ddcca5968b755fd59780", "is_disabled": 0, "type": "electric_scooter", "lat": 38.893019333333335, "lon": -77.0217945, "is_reserved": 0, "fusion_lon": 0.0}, {"rental_uris": {"ios": "https://dc.lft.to/lastmile_qr_scan", "android": "https://dc.lft.to/lastmile_qr_scan"}, "fusion_lat": 0.0, "name": "be5e42f85f5c71267f9f890d1b45ce79", "bike_id": "be5e42f85f5c71267f9f890d1b45ce79", "is_disabled": 0, "type": "electric_scooter", "lat": 38.89842766666666, "lon": -76.946356, "is_reserved": 0, "fusion_lon": 0.0}, {"rental_uris": {"ios": "https://dc.lft.to/lastmile_qr_scan", "android": "https://dc.lft.to/lastmile_qr_scan"}, "fusion_lat": 0.0, "name": "68d2d74865d4d54826f417d45d23af87", "bike_id": "68d2d74865d4d54826f417d45d23af87", "is_disabled": 0, "type": "electric_scooter", "lat": 38.88429133333333, "lon": -76.95754166666667, "is_reserved": 0, "fusion_lon": 0.0}, {"rental_uris": {"ios": "https://dc.lft.to/lastmile_qr_scan", "android": "https://dc.lft.to/lastmile_qr_scan"}, "fusion_lat": 0.0, "name": "d9eb08198da046b42aed46b48295cde7", "bike_id": "d9eb08198da046b42aed46b48295cde7", "is_disabled": 0, "type": "electric_scooter", "lat": 38.90527866666667, "lon": -77.05930183333334, "is_reserved": 0, "fusion_lon": 0.0}, {"rental_uris": {"ios": "https://dc.lft.to/lastmile_qr_scan", "android": "https://dc.lft.to/lastmile_qr_scan"}, "fusion_lat": 0.0, "name": "2536d373365472807a8d56652ccf0e62", "bike_id": "2536d373365472807a8d56652ccf0e62", "is_disabled": 0, "type": "electric_scooter", "lat": 38.919858166666664, "lon": -77.03264466666667, "is_reserved": 0, "fusion_lon": 0.0}, {"rental_uris": {"ios": "https://dc.lft.to/lastmile_qr_scan", "android": "https://dc.lft.to/lastmile_qr_scan"}, "fusion_lat": 0.0, "name": "a8da0f217ba07b6355d80b5977719f89", "bike_id": "a8da0f217ba07b6355d80b5977719f89", "is_disabled": 0, "type": "electric_scooter", "lat": 38.904517, "lon": -77.0447345, "is_reserved": 0, "fusion_lon": 0.0}, {"rental_uris": {"ios": "https://dc.lft.to/lastmile_qr_scan", "android": "https://dc.lft.to/lastmile_qr_scan"}, "fusion_lat": 0.0, "name": "62809f7da156e089506a25e8e12f0b26", "bike_id": "62809f7da156e089506a25e8e12f0b26", "is_disabled": 0, "type": "electric_scooter", "lat": 38.9008645, "lon": -77.04920966666667, "is_reserved": 0, "fusion_lon": 0.0}, {"rental_uris": {"ios": "https://dc.lft.to/lastmile_qr_scan", "android": "https://dc.lft.to/lastmile_qr_scan"}, "fusion_lat": 0.0, "name": "3a0c92ca92175c43a14c3229c31ef9bf", "bike_id": "3a0c92ca92175c43a14c3229c31ef9bf", "is_disabled": 0, "type": "electric_scooter", "lat": 38.91720866666667, "lon": -77.03710116666667, "is_reserved": 0, "fusion_lon": 0.0}, {"rental_uris": {"ios": "https://dc.lft.to/lastmile_qr_scan", "android": "https://dc.lft.to/lastmile_qr_scan"}, "fusion_lat": 0.0, "name": "24469bd010c0df5eb4cb6de43abb63fc", "bike_id": "24469bd010c0df5eb4cb6de43abb63fc", "is_disabled": 0, "type": "electric_scooter", "lat": 38.924791, "lon": -77.02719833333333, "is_reserved": 0, "fusion_lon": 0.0}, {"rental_uris": {"ios": "https://dc.lft.to/lastmile_qr_scan", "android": "https://dc.lft.to/lastmile_qr_scan"}, "fusion_lat": 0.0, "name": "0a4ba43e3edc349df822b829559f5cbb", "bike_id": "0a4ba43e3edc349df822b829559f5cbb", "is_disabled": 0, "type": "electric_scooter", "lat": 38.924620166666664, "lon": -77.05226916666666, "is_reserved": 0, "fusion_lon": 0.0}, {"rental_uris": {"ios": "https://dc.lft.to/lastmile_qr_scan", "android": "https://dc.lft.to/lastmile_qr_scan"}, "fusion_lat": 0.0, "name": "7c45fc74c254cf77d7a2d84981d6112c", "bike_id": "7c45fc74c254cf77d7a2d84981d6112c", "is_disabled": 0, "type": "electric_scooter", "lat": 38.91857783333333, "lon": -77.04595083333334, "is_reserved": 0, "fusion_lon": 0.0}, {"rental_uris": {"ios": "https://dc.lft.to/lastmile_qr_scan", "android": "https://dc.lft.to/lastmile_qr_scan"}, "fusion_lat": 0.0, "name": "1728cf28f383dbd500bca6ea6b59ec63", "bike_id": "1728cf28f383dbd500bca6ea6b59ec63", "is_disabled": 0, "type": "electric_scooter", "lat": 38.90662533333333, "lon": -77.0366605, "is_reserved": 0, "fusion_lon": 0.0}, {"rental_uris": {"ios": "https://dc.lft.to/lastmile_qr_scan", "android": "https://dc.lft.to/lastmile_qr_scan"}, "fusion_lat": 0.0, "name": "97dc772929db858c3c7f952f94bc513d", "bike_id": "97dc772929db858c3c7f952f94bc513d", "is_disabled": 0, "type": "electric_scooter", "lat": 38.89221283333333, "lon": -77.0315845, "is_reserved": 0, "fusion_lon": 0.0}, {"rental_uris": {"ios": "https://dc.lft.to/lastmile_qr_scan", "android": "https://dc.lft.to/lastmile_qr_scan"}, "fusion_lat": 0.0, "name": "ff40525128132c6e9a53f3363243eb5c", "bike_id": "ff40525128132c6e9a53f3363243eb5c", "is_disabled": 0, "type": "electric_scooter", "lat": 38.86255516666667, "lon": -76.99516, "is_reserved": 0, "fusion_lon": 0.0}, {"rental_uris": {"ios": "https://dc.lft.to/lastmile_qr_scan", "android": "https://dc.lft.to/lastmile_qr_scan"}, "fusion_lat": 0.0, "name": "90678d8975f1d19138b7b8692e20d5a5", "bike_id": "90678d8975f1d19138b7b8692e20d5a5", "is_disabled": 0, "type": "electric_scooter", "lat": 38.905688166666664, "lon": -77.04584533333333, "is_reserved": 0, "fusion_lon": 0.0}, {"rental_uris": {"ios": "https://dc.lft.to/lastmile_qr_scan", "android": "https://dc.lft.to/lastmile_qr_scan"}, "fusion_lat": 0.0, "name": "d1b997874dd382a2ee1ef6f475ee7603", "bike_id": "d1b997874dd382a2ee1ef6f475ee7603", "is_disabled": 0, "type": "electric_scooter", "lat": 38.91057566666667, "lon": -77.06194166666667, "is_reserved": 0, "fusion_lon": 0.0}, {"rental_uris": {"ios": "https://dc.lft.to/lastmile_qr_scan", "android": "https://dc.lft.to/lastmile_qr_scan"}, "fusion_lat": 0.0, "name": "c326ba4393d070bc1a673464f414d043", "bike_id": "c326ba4393d070bc1a673464f414d043", "is_disabled": 0, "type": "electric_scooter", "lat": 38.90558566666667, "lon": -77.03776966666666, "is_reserved": 0, "fusion_lon": 0.0}, {"rental_uris": {"ios": "https://dc.lft.to/lastmile_qr_scan", "android": "https://dc.lft.to/lastmile_qr_scan"}, "fusion_lat": 0.0, "name": "3ba5850a6938f7e37d7b87314043de2f", "bike_id": "3ba5850a6938f7e37d7b87314043de2f", "is_disabled": 0, "type": "electric_scooter", "lat": 38.90377, "lon": -77.03999466666667, "is_reserved": 0, "fusion_lon": 0.0}, {"rental_uris": {"ios": "https://dc.lft.to/lastmile_qr_scan", "android": "https://dc.lft.to/lastmile_qr_scan"}, "fusion_lat": 0.0, "name": "5d35cd8cc80f8257b687c72f4e372f4e", "bike_id": "5d35cd8cc80f8257b687c72f4e372f4e", "is_disabled": 0, "type": "electric_scooter", "lat": 38.899916, "lon": -77.03163, "is_reserved": 0, "fusion_lon": 0.0}, {"rental_uris": {"ios": "https://dc.lft.to/lastmile_qr_scan", "android": "https://dc.lft.to/lastmile_qr_scan"}, "fusion_lat": 0.0, "name": "367bf1930a84a6d5779d21b00980d617", "bike_id": "367bf1930a84a6d5779d21b00980d617", "is_disabled": 0, "type": "electric_scooter", "lat": 38.8673645, "lon": -76.98656333333334, "is_reserved": 0, "fusion_lon": 0.0}, {"rental_uris": {"ios": "https://dc.lft.to/lastmile_qr_scan", "android": "https://dc.lft.to/lastmile_qr_scan"}, "fusion_lat": 0.0, "name": "35f72ec3123b20743e1bdda9a8edc066", "bike_id": "35f72ec3123b20743e1bdda9a8edc066", "is_disabled": 0, "type": "electric_scooter", "lat": 38.92148433333333, "lon": -77.04228016666667, "is_reserved": 0, "fusion_lon": 0.0}, {"rental_uris": {"ios": "https://dc.lft.to/lastmile_qr_scan", "android": "https://dc.lft.to/lastmile_qr_scan"}, "fusion_lat": 0.0, "name": "8f48ab55a02e793f8425d4b3fb10fa83", "bike_id": "8f48ab55a02e793f8425d4b3fb10fa83", "is_disabled": 0, "type": "electric_scooter", "lat": 38.917101, "lon": -77.04123166666666, "is_reserved": 0, "fusion_lon": 0.0}, {"rental_uris": {"ios": "https://dc.lft.to/lastmile_qr_scan", "android": "https://dc.lft.to/lastmile_qr_scan"}, "fusion_lat": 0.0, "name": "c65c20cc8a5524e0200ff43c96fd292d", "bike_id": "c65c20cc8a5524e0200ff43c96fd292d", "is_disabled": 0, "type": "electric_scooter", "lat": 38.862454, "lon": -76.99494683333333, "is_reserved": 0, "fusion_lon": 0.0}, {"rental_uris": {"ios": "https://dc.lft.to/lastmile_qr_scan", "android": "https://dc.lft.to/lastmile_qr_scan"}, "fusion_lat": 0.0, "name": "ca3584848178362bfff818cec7b73805", "bike_id": "ca3584848178362bfff818cec7b73805", "is_disabled": 0, "type": "electric_scooter", "lat": 38.892236, "lon": -77.03184066666667, "is_reserved": 0, "fusion_lon": 0.0}, {"rental_uris": {"ios": "https://dc.lft.to/lastmile_qr_scan", "android": "https://dc.lft.to/lastmile_qr_scan"}, "fusion_lat": 0.0, "name": "3d6645e9119d23c6385106d6a94cea34", "bike_id": "3d6645e9119d23c6385106d6a94cea34", "is_disabled": 0, "type": "electric_scooter", "lat": 38.923636333333334, "lon": -77.05126616666666, "is_reserved": 0, "fusion_lon": 0.0}, {"rental_uris": {"ios": "https://dc.lft.to/lastmile_qr_scan", "android": "https://dc.lft.to/lastmile_qr_scan"}, "fusion_lat": 0.0, "name": "305463bedbdcd69659e6c4d5b622b6bc", "bike_id": "305463bedbdcd69659e6c4d5b622b6bc", "is_disabled": 0, "type": "electric_scooter", "lat": 38.9100475, "lon": -77.04422183333334, "is_reserved": 0, "fusion_lon": 0.0}, {"rental_uris": {"ios": "https://dc.lft.to/lastmile_qr_scan", "android": "https://dc.lft.to/lastmile_qr_scan"}, "fusion_lat": 0.0, "name": "f5246cbbb10a2c939848d438346d3fad", "bike_id": "f5246cbbb10a2c939848d438346d3fad", "is_disabled": 0, "type": "electric_scooter", "lat": 38.904617, "lon": -77.02713533333333, "is_reserved": 0, "fusion_lon": 0.0}, {"rental_uris": {"ios": "https://dc.lft.to/lastmile_qr_scan", "android": "https://dc.lft.to/lastmile_qr_scan"}, "fusion_lat": 0.0, "name": "9676a5326e4447d66445eb4b441ff065", "bike_id": "9676a5326e4447d66445eb4b441ff065", "is_disabled": 0, "type": "electric_scooter", "lat": 38.900238, "lon": -77.043149, "is_reserved": 0, "fusion_lon": 0.0}, {"rental_uris": {"ios": "https://dc.lft.to/lastmile_qr_scan", "android": "https://dc.lft.to/lastmile_qr_scan"}, "fusion_lat": 0.0, "name": "855f7925b61806375b9e2d89459288b8", "bike_id": "855f7925b61806375b9e2d89459288b8", "is_disabled": 0, "type": "electric_scooter", "lat": 38.9077995, "lon": -76.98006316666667, "is_reserved": 0, "fusion_lon": 0.0}, {"rental_uris": {"ios": "https://dc.lft.to/lastmile_qr_scan", "android": "https://dc.lft.to/lastmile_qr_scan"}, "fusion_lat": 0.0, "name": "139ef3db85383d785f40fa7e9acd8fdd", "bike_id": "139ef3db85383d785f40fa7e9acd8fdd", "is_disabled": 0, "type": "electric_scooter", "lat": 38.892238166666665, "lon": -77.04327533333333, "is_reserved": 0, "fusion_lon": 0.0}, {"rental_uris": {"ios": "https://dc.lft.to/lastmile_qr_scan", "android": "https://dc.lft.to/lastmile_qr_scan"}, "fusion_lat": 0.0, "name": "5cacb821c3f8c2ebf05e7d53afdfd486", "bike_id": "5cacb821c3f8c2ebf05e7d53afdfd486", "is_disabled": 0, "type": "electric_scooter", "lat": 38.8624605, "lon": -76.9949855, "is_reserved": 0, "fusion_lon": 0.0}, {"rental_uris": {"ios": "https://dc.lft.to/lastmile_qr_scan", "android": "https://dc.lft.to/lastmile_qr_scan"}, "fusion_lat": 0.0, "name": "3ab378d8dd1ef751e86f8e20710e4c62", "bike_id": "3ab378d8dd1ef751e86f8e20710e4c62", "is_disabled": 0, "type": "electric_scooter", "lat": 38.90968266666667, "lon": -77.0322125, "is_reserved": 0, "fusion_lon": 0.0}, {"rental_uris": {"ios": "https://dc.lft.to/lastmile_qr_scan", "android": "https://dc.lft.to/lastmile_qr_scan"}, "fusion_lat": 0.0, "name": "4170467afe3a1e5cb3a3d8ca4cb207ab", "bike_id": "4170467afe3a1e5cb3a3d8ca4cb207ab", "is_disabled": 0, "type": "electric_scooter", "lat": 38.9014025, "lon": -77.003464, "is_reserved": 0, "fusion_lon": 0.0}, {"rental_uris": {"ios": "https://dc.lft.to/lastmile_qr_scan", "android": "https://dc.lft.to/lastmile_qr_scan"}, "fusion_lat": 0.0, "name": "0dd8a91b2f1451ca97aa72b1127ddf82", "bike_id": "0dd8a91b2f1451ca97aa72b1127ddf82", "is_disabled": 0, "type": "electric_scooter", "lat": 38.892266, "lon": -77.04327066666667, "is_reserved": 0, "fusion_lon": 0.0}, {"rental_uris": {"ios": "https://dc.lft.to/lastmile_qr_scan", "android": "https://dc.lft.to/lastmile_qr_scan"}, "fusion_lat": 0.0, "name": "44878e324681b191b94f50bf20050969", "bike_id": "44878e324681b191b94f50bf20050969", "is_disabled": 0, "type": "electric_bike", "lat": 38.91787733333334, "lon": -76.9718795, "is_reserved": 0, "fusion_lon": 0.0}, {"rental_uris": {"ios": "https://dc.lft.to/lastmile_qr_scan", "android": "https://dc.lft.to/lastmile_qr_scan"}, "fusion_lat": 0.0, "name": "30b53f730cc037e03e4e708aa29ecdf8", "bike_id": "30b53f730cc037e03e4e708aa29ecdf8", "is_disabled": 0, "type": "electric_scooter", "lat": 38.90552516666666, "lon": -77.03994416666667, "is_reserved": 0, "fusion_lon": 0.0}, {"rental_uris": {"ios": "https://dc.lft.to/lastmile_qr_scan", "android": "https://dc.lft.to/lastmile_qr_scan"}, "fusion_lat": 0.0, "name": "f3ab5062947171073cd9fa00797f8c0f", "bike_id": "f3ab5062947171073cd9fa00797f8c0f", "is_disabled": 0, "type": "electric_scooter", "lat": 38.909939333333334, "lon": -77.0400605, "is_reserved": 0, "fusion_lon": 0.0}, {"rental_uris": {"ios": "https://dc.lft.to/lastmile_qr_scan", "android": "https://dc.lft.to/lastmile_qr_scan"}, "fusion_lat": 0.0, "name": "47e9747e08f5869b27d14c9eb0f1c64e", "bike_id": "47e9747e08f5869b27d14c9eb0f1c64e", "is_disabled": 0, "type": "electric_scooter", "lat": 38.913360833333336, "lon": -77.03187133333333, "is_reserved": 0, "fusion_lon": 0.0}, {"rental_uris": {"ios": "https://dc.lft.to/lastmile_qr_scan", "android": "https://dc.lft.to/lastmile_qr_scan"}, "fusion_lat": 0.0, "name": "23eb3bdcd937dcce764ee84c4db295e7", "bike_id": "23eb3bdcd937dcce764ee84c4db295e7", "is_disabled": 0, "type": "electric_scooter", "lat": 38.95181916666667, "lon": -77.02718716666666, "is_reserved": 0, "fusion_lon": 0.0}, {"rental_uris": {"ios": "https://dc.lft.to/lastmile_qr_scan", "android": "https://dc.lft.to/lastmile_qr_scan"}, "fusion_lat": 0.0, "name": "05b5dda2c5e08710f8c355ccc3b6e756", "bike_id": "05b5dda2c5e08710f8c355ccc3b6e756", "is_disabled": 0, "type": "electric_scooter", "lat": 38.91073133333333, "lon": -77.04416316666666, "is_reserved": 0, "fusion_lon": 0.0}, {"rental_uris": {"ios": "https://dc.lft.to/lastmile_qr_scan", "android": "https://dc.lft.to/lastmile_qr_scan"}, "fusion_lat": 0.0, "name": "f6d072698704763ad4a0d9a3e0f33a52", "bike_id": "f6d072698704763ad4a0d9a3e0f33a52", "is_disabled": 0, "type": "electric_scooter", "lat": 38.866980166666664, "lon": -76.98709283333334, "is_reserved": 0, "fusion_lon": 0.0}, {"rental_uris": {"ios": "https://dc.lft.to/lastmile_qr_scan", "android": "https://dc.lft.to/lastmile_qr_scan"}, "fusion_lat": 0.0, "name": "074c9f614a11e83316ce084b288fc960", "bike_id": "074c9f614a11e83316ce084b288fc960", "is_disabled": 0, "type": "electric_scooter", "lat": 38.92493133333333, "lon": -77.0733285, "is_reserved": 0, "fusion_lon": 0.0}, {"rental_uris": {"ios": "https://dc.lft.to/lastmile_qr_scan", "android": "https://dc.lft.to/lastmile_qr_scan"}, "fusion_lat": 0.0, "name": "96e5b079ca3677dde99e386e8785721c", "bike_id": "96e5b079ca3677dde99e386e8785721c", "is_disabled": 0, "type": "electric_scooter", "lat": 38.89900566666667, "lon": -77.040589, "is_reserved": 0, "fusion_lon": 0.0}, {"rental_uris": {"ios": "https://dc.lft.to/lastmile_qr_scan", "android": "https://dc.lft.to/lastmile_qr_scan"}, "fusion_lat": 0.0, "name": "04b468a874f2cdb497b32796cff07517", "bike_id": "04b468a874f2cdb497b32796cff07517", "is_disabled": 0, "type": "electric_scooter", "lat": 38.918101, "lon": -77.04175516666666, "is_reserved": 0, "fusion_lon": 0.0}, {"rental_uris": {"ios": "https://dc.lft.to/lastmile_qr_scan", "android": "https://dc.lft.to/lastmile_qr_scan"}, "fusion_lat": 0.0, "name": "650c847f3138bb4b243c2777fc194be8", "bike_id": "650c847f3138bb4b243c2777fc194be8", "is_disabled": 0, "type": "electric_scooter", "lat": 38.88740466666667, "lon": -77.00337083333334, "is_reserved": 0, "fusion_lon": 0.0}, {"rental_uris": {"ios": "https://dc.lft.to/lastmile_qr_scan", "android": "https://dc.lft.to/lastmile_qr_scan"}, "fusion_lat": 0.0, "name": "5e578cd2a6cc3bc753ec5da1347f167e", "bike_id": "5e578cd2a6cc3bc753ec5da1347f167e", "is_disabled": 0, "type": "electric_scooter", "lat": 38.90282116666667, "lon": -77.03666566666666, "is_reserved": 0, "fusion_lon": 0.0}, {"rental_uris": {"ios": "https://dc.lft.to/lastmile_qr_scan", "android": "https://dc.lft.to/lastmile_qr_scan"}, "fusion_lat": 0.0, "name": "373bb82e2c4e6f479362b3fcee1ad3c5", "bike_id": "373bb82e2c4e6f479362b3fcee1ad3c5", "is_disabled": 0, "type": "electric_scooter", "lat": 38.9172165, "lon": -77.0365795, "is_reserved": 0, "fusion_lon": 0.0}, {"rental_uris": {"ios": "https://dc.lft.to/lastmile_qr_scan", "android": "https://dc.lft.to/lastmile_qr_scan"}, "fusion_lat": 0.0, "name": "f38318c9d7d3b20d146bebd8ee5a1bde", "bike_id": "f38318c9d7d3b20d146bebd8ee5a1bde", "is_disabled": 0, "type": "electric_scooter", "lat": 38.90520166666667, "lon": -77.05322083333333, "is_reserved": 0, "fusion_lon": 0.0}, {"rental_uris": {"ios": "https://dc.lft.to/lastmile_qr_scan", "android": "https://dc.lft.to/lastmile_qr_scan"}, "fusion_lat": 0.0, "name": "8b43e3cd746d84ea00d6edc502937981", "bike_id": "8b43e3cd746d84ea00d6edc502937981", "is_disabled": 0, "type": "electric_scooter", "lat": 38.90666366666667, "lon": -77.02706583333334, "is_reserved": 0, "fusion_lon": 0.0}, {"rental_uris": {"ios": "https://dc.lft.to/lastmile_qr_scan", "android": "https://dc.lft.to/lastmile_qr_scan"}, "fusion_lat": 0.0, "name": "467d6be6f30ec29c28a7ff112e762a0c", "bike_id": "467d6be6f30ec29c28a7ff112e762a0c", "is_disabled": 0, "type": "electric_scooter", "lat": 38.915621333333334, "lon": -77.0228015, "is_reserved": 0, "fusion_lon": 0.0}, {"rental_uris": {"ios": "https://dc.lft.to/lastmile_qr_scan", "android": "https://dc.lft.to/lastmile_qr_scan"}, "fusion_lat": 0.0, "name": "7728382c2ad802e0c87dd9636943479d", "bike_id": "7728382c2ad802e0c87dd9636943479d", "is_disabled": 0, "type": "electric_scooter", "lat": 38.90983666666666, "lon": -77.03194883333333, "is_reserved": 0, "fusion_lon": 0.0}, {"rental_uris": {"ios": "https://dc.lft.to/lastmile_qr_scan", "android": "https://dc.lft.to/lastmile_qr_scan"}, "fusion_lat": 0.0, "name": "f552ff6bbd31eaff211b08b5652a1c33", "bike_id": "f552ff6bbd31eaff211b08b5652a1c33", "is_disabled": 0, "type": "electric_scooter", "lat": 38.91554516666667, "lon": -77.0220995, "is_reserved": 0, "fusion_lon": 0.0}, {"rental_uris": {"ios": "https://dc.lft.to/lastmile_qr_scan", "android": "https://dc.lft.to/lastmile_qr_scan"}, "fusion_lat": 0.0, "name": "adef76a20c5810310e7f06005fc578e5", "bike_id": "adef76a20c5810310e7f06005fc578e5", "is_disabled": 0, "type": "electric_scooter", "lat": 38.8767065, "lon": -77.01803416666667, "is_reserved": 0, "fusion_lon": 0.0}, {"rental_uris": {"ios": "https://dc.lft.to/lastmile_qr_scan", "android": "https://dc.lft.to/lastmile_qr_scan"}, "fusion_lat": 0.0, "name": "3b11b6c4f641fa11d4f7461f406cef77", "bike_id": "3b11b6c4f641fa11d4f7461f406cef77", "is_disabled": 0, "type": "electric_scooter", "lat": 38.918562, "lon": -77.04036683333334, "is_reserved": 0, "fusion_lon": 0.0}, {"rental_uris": {"ios": "https://dc.lft.to/lastmile_qr_scan", "android": "https://dc.lft.to/lastmile_qr_scan"}, "fusion_lat": 0.0, "name": "4b856cfb79f58b0314003a976c8bded3", "bike_id": "4b856cfb79f58b0314003a976c8bded3", "is_disabled": 0, "type": "electric_scooter", "lat": 38.916590166666666, "lon": -77.0219025, "is_reserved": 0, "fusion_lon": 0.0}, {"rental_uris": {"ios": "https://dc.lft.to/lastmile_qr_scan", "android": "https://dc.lft.to/lastmile_qr_scan"}, "fusion_lat": 0.0, "name": "5c57a9bf2ce75791f60a3b184c4854e7", "bike_id": "5c57a9bf2ce75791f60a3b184c4854e7", "is_disabled": 0, "type": "electric_scooter", "lat": 38.900336833333334, "lon": -77.00202733333333, "is_reserved": 0, "fusion_lon": 0.0}, {"rental_uris": {"ios": "https://dc.lft.to/lastmile_qr_scan", "android": "https://dc.lft.to/lastmile_qr_scan"}, "fusion_lat": 0.0, "name": "9404138abf89c2dc782452b1dd9844dc", "bike_id": "9404138abf89c2dc782452b1dd9844dc", "is_disabled": 0, "type": "electric_scooter", "lat": 38.939727166666664, "lon": -77.032548, "is_reserved": 0, "fusion_lon": 0.0}, {"rental_uris": {"ios": "https://dc.lft.to/lastmile_qr_scan", "android": "https://dc.lft.to/lastmile_qr_scan"}, "fusion_lat": 0.0, "name": "f39f28640b2c5b524543185c3d08c724", "bike_id": "f39f28640b2c5b524543185c3d08c724", "is_disabled": 0, "type": "electric_scooter", "lat": 38.861117166666666, "lon": -76.98371716666666, "is_reserved": 0, "fusion_lon": 0.0}, {"rental_uris": {"ios": "https://dc.lft.to/lastmile_qr_scan", "android": "https://dc.lft.to/lastmile_qr_scan"}, "fusion_lat": 0.0, "name": "5c559fee202d57087872babc0e87b87a", "bike_id": "5c559fee202d57087872babc0e87b87a", "is_disabled": 0, "type": "electric_scooter", "lat": 38.9305545, "lon": -77.02651666666667, "is_reserved": 0, "fusion_lon": 0.0}, {"rental_uris": {"ios": "https://dc.lft.to/lastmile_qr_scan", "android": "https://dc.lft.to/lastmile_qr_scan"}, "fusion_lat": 0.0, "name": "a52c16fbd03cdc8ca2ad1361d6f60c65", "bike_id": "a52c16fbd03cdc8ca2ad1361d6f60c65", "is_disabled": 0, "type": "electric_scooter", "lat": 38.904444166666664, "lon": -77.06120266666667, "is_reserved": 0, "fusion_lon": 0.0}, {"rental_uris": {"ios": "https://dc.lft.to/lastmile_qr_scan", "android": "https://dc.lft.to/lastmile_qr_scan"}, "fusion_lat": 0.0, "name": "904b2b0b61074ee3b7c030b9015c981d", "bike_id": "904b2b0b61074ee3b7c030b9015c981d", "is_disabled": 0, "type": "electric_scooter", "lat": 38.90822333333333, "lon": -77.03464266666667, "is_reserved": 0, "fusion_lon": 0.0}, {"rental_uris": {"ios": "https://dc.lft.to/lastmile_qr_scan", "android": "https://dc.lft.to/lastmile_qr_scan"}, "fusion_lat": 0.0, "name": "2ba37c20c6ea7183f4c82f50d17e6ebc", "bike_id": "2ba37c20c6ea7183f4c82f50d17e6ebc", "is_disabled": 0, "type": "electric_scooter", "lat": 38.9068, "lon": -77.0269275, "is_reserved": 0, "fusion_lon": 0.0}, {"rental_uris": {"ios": "https://dc.lft.to/lastmile_qr_scan", "android": "https://dc.lft.to/lastmile_qr_scan"}, "fusion_lat": 0.0, "name": "1e8d1c4cedd3e299d298228b4d6ad61e", "bike_id": "1e8d1c4cedd3e299d298228b4d6ad61e", "is_disabled": 0, "type": "electric_scooter", "lat": 38.919754166666664, "lon": -77.01210366666666, "is_reserved": 0, "fusion_lon": 0.0}, {"rental_uris": {"ios": "https://dc.lft.to/lastmile_qr_scan", "android": "https://dc.lft.to/lastmile_qr_scan"}, "fusion_lat": 0.0, "name": "ff3a5e079fe8fe4abab0c7a63c33fbab", "bike_id": "ff3a5e079fe8fe4abab0c7a63c33fbab", "is_disabled": 0, "type": "electric_scooter", "lat": 38.887403666666664, "lon": -77.01529133333334, "is_reserved": 0, "fusion_lon": 0.0}, {"rental_uris": {"ios": "https://dc.lft.to/lastmile_qr_scan", "android": "https://dc.lft.to/lastmile_qr_scan"}, "fusion_lat": 0.0, "name": "b2f617ce28cbfb633ef7651660edd52b", "bike_id": "b2f617ce28cbfb633ef7651660edd52b", "is_disabled": 0, "type": "electric_scooter", "lat": 38.92213183333333, "lon": -77.036584, "is_reserved": 0, "fusion_lon": 0.0}, {"rental_uris": {"ios": "https://dc.lft.to/lastmile_qr_scan", "android": "https://dc.lft.to/lastmile_qr_scan"}, "fusion_lat": 0.0, "name": "30b138ad64f3548151d5a5cc43bf4acd", "bike_id": "30b138ad64f3548151d5a5cc43bf4acd", "is_disabled": 0, "type": "electric_scooter", "lat": 38.9026195, "lon": -77.01757766666667, "is_reserved": 0, "fusion_lon": 0.0}, {"rental_uris": {"ios": "https://dc.lft.to/lastmile_qr_scan", "android": "https://dc.lft.to/lastmile_qr_scan"}, "fusion_lat": 0.0, "name": "8d9a2832e219e61b8d127102e7603929", "bike_id": "8d9a2832e219e61b8d127102e7603929", "is_disabled": 0, "type": "electric_scooter", "lat": 38.9374665, "lon": -77.03449883333333, "is_reserved": 0, "fusion_lon": 0.0}, {"rental_uris": {"ios": "https://dc.lft.to/lastmile_qr_scan", "android": "https://dc.lft.to/lastmile_qr_scan"}, "fusion_lat": 0.0, "name": "52e2133ea50f9210d78202e47bb7f132", "bike_id": "52e2133ea50f9210d78202e47bb7f132", "is_disabled": 0, "type": "electric_scooter", "lat": 38.89356316666667, "lon": -77.0033555, "is_reserved": 0, "fusion_lon": 0.0}, {"rental_uris": {"ios": "https://dc.lft.to/lastmile_qr_scan", "android": "https://dc.lft.to/lastmile_qr_scan"}, "fusion_lat": 0.0, "name": "fbe099a212840852fce410429fc779d3", "bike_id": "fbe099a212840852fce410429fc779d3", "is_disabled": 0, "type": "electric_scooter", "lat": 38.9097945, "lon": -77.02181466666667, "is_reserved": 0, "fusion_lon": 0.0}, {"rental_uris": {"ios": "https://dc.lft.to/lastmile_qr_scan", "android": "https://dc.lft.to/lastmile_qr_scan"}, "fusion_lat": 0.0, "name": "71eebe065a426b6f91e4c2e37a0d5ca9", "bike_id": "71eebe065a426b6f91e4c2e37a0d5ca9", "is_disabled": 0, "type": "electric_scooter", "lat": 38.887438, "lon": -77.0286545, "is_reserved": 0, "fusion_lon": 0.0}, {"rental_uris": {"ios": "https://dc.lft.to/lastmile_qr_scan", "android": "https://dc.lft.to/lastmile_qr_scan"},