{"data": {"bikes": [{"rental_uris": {"ios": "https://dc.lft.to/lastmile_qr_scan", "android": "https://dc.lft.to/lastmile_qr_scan"}, "lon": -77.01779416666666, "type": "electric_scooter", "fusion_lat": 0.0, "lat": 38.87917866666667, "name": "fe63c275dce5b3f4662e75871e96b856", "fusion_lon": 0.0, "bike_id": "fe63c275dce5b3f4662e75871e96b856", "is_disabled": 0, "is_reserved": 0}, {"rental_uris": {"ios": "https://dc.lft.to/lastmile_qr_scan", "android": "https://dc.lft.to/lastmile_qr_scan"}, "lon": -77.03683466666666, "type": "electric_scooter", "fusion_lat": 0.0, "lat": 38.9181095, "name": "883ad39f26da3a42912edf8e979c31c1", "fusion_lon": 0.0, "bike_id": "883ad39f26da3a42912edf8e979c31c1", "is_disabled": 0, "is_reserved": 0}, {"rental_uris": {"ios": "https://dc.lft.to/lastmile_qr_scan", "android": "https://dc.lft.to/lastmile_qr_scan"}, "lon": -77.09868266666666, "type": "electric_bike", "fusion_lat": 0.0, "lat": 38.85369516666667, "name": "8482b46615ea614e4ba19cd62b901c71", "fusion_lon": 0.0, "bike_id": "8482b46615ea614e4ba19cd62b901c71", "is_disabled": 0, "is_reserved": 0}, {"rental_uris": {"ios": "https://dc.lft.to/lastmile_qr_scan", "android": "https://dc.lft.to/lastmile_qr_scan"}, "lon": -77.04333033333333, "type": "electric_scooter", "fusion_lat": 0.0, "lat": 38.8922775, "name": "da2745c93c01875c25b9b0d262a85b58", "fusion_lon": 0.0, "bike_id": "da2745c93c01875c25b9b0d262a85b58", "is_disabled": 0, "is_reserved": 0}, {"rental_uris": {"ios": "https://dc.lft.to/lastmile_qr_scan", "android": "https://dc.lft.to/lastmile_qr_scan"}, "lon": -77.03266033333334, "type": "electric_scooter", "fusion_lat": 0.0, "lat": 38.9366475, "name": "0fdd1cb72a6ee17731b2e7927e8f9036", "fusion_lon": 0.0, "bike_id": "0fdd1cb72a6ee17731b2e7927e8f9036", "is_disabled": 0, "is_reserved": 0}, {"rental_uris": {"ios": "https://dc.lft.to/lastmile_qr_scan", "android": "https://dc.lft.to/lastmile_qr_scan"}, "lon": -77.00354383333334, "type": "electric_scooter", "fusion_lat": 0.0, "lat": 38.899072833333335, "name": "7793052b76ba81fce5d6e290468cd884", "fusion_lon": 0.0, "bike_id": "7793052b76ba81fce5d6e290468cd884", "is_disabled": 0, "is_reserved": 0}, {"rental_uris": {"ios": "https://dc.lft.to/lastmile_qr_scan", "android": "https://dc.lft.to/lastmile_qr_scan"}, "lon": -77.047512, "type": "electric_scooter", "fusion_lat": 0.0, "lat": 38.917693, "name": "46bd1329432a7ee61ca396bb02cc8ee5", "fusion_lon": 0.0, "bike_id": "46bd1329432a7ee61ca396bb02cc8ee5", "is_disabled": 0, "is_reserved": 0}, {"rental_uris": {"ios": "https://dc.lft.to/lastmile_qr_scan", "android": "https://dc.lft.to/lastmile_qr_scan"}, "lon": -77.033898, "type": "electric_scooter", "fusion_lat": 0.0, "lat": 38.93844583333333, "name": "0aa223aae94aebc13278cd7e6aaa52ff", "fusion_lon": 0.0, "bike_id": "0aa223aae94aebc13278cd7e6aaa52ff", "is_disabled": 0, "is_reserved": 0}, {"rental_uris": {"ios": "https://dc.lft.to/lastmile_qr_scan", "android": "https://dc.lft.to/lastmile_qr_scan"}, "lon": -77.0894095, "type": "electric_bike", "fusion_lat": 0.0, "lat": 38.841096666666665, "name": "dfcecbf23098d958f43dc7c3f7cba174", "fusion_lon": 0.0, "bike_id": "dfcecbf23098d958f43dc7c3f7cba174", "is_disabled": 0, "is_reserved": 0}, {"rental_uris": {"ios": "https://dc.lft.to/lastmile_qr_scan", "android": "https://dc.lft.to/lastmile_qr_scan"}, "lon": -77.0319215, "type": "electric_scooter", "fusion_lat": 0.0, "lat": 38.919602833333336, "name": "6ab310e1794062347a101eb00065a6b8", "fusion_lon": 0.0, "bike_id": "6ab310e1794062347a101eb00065a6b8", "is_disabled": 0, "is_reserved": 0}, {"rental_uris": {"ios": "https://dc.lft.to/lastmile_qr_scan", "android": "https://dc.lft.to/lastmile_qr_scan"}, "lon": -77.00185016666667, "type": "electric_scooter", "fusion_lat": 0.0, "lat": 38.873852166666666, "name": "4522e1851eaa549190753c3e1e277a96", "fusion_lon": 0.0, "bike_id": "4522e1851eaa549190753c3e1e277a96", "is_disabled": 0, "is_reserved": 0}, {"rental_uris": {"ios": "https://dc.lft.to/lastmile_qr_scan", "android": "https://dc.lft.to/lastmile_qr_scan"}, "lon": -77.04175716666667, "type": "electric_scooter", "fusion_lat": 0.0, "lat": 38.90543, "name": "a71948220996bd01cbc2ca74cea6d1ec", "fusion_lon": 0.0, "bike_id": "a71948220996bd01cbc2ca74cea6d1ec", "is_disabled": 0, "is_reserved": 0}, {"rental_uris": {"ios": "https://dc.lft.to/lastmile_qr_scan", "android": "https://dc.lft.to/lastmile_qr_scan"}, "lon": -77.0694115, "type": "electric_scooter", "fusion_lat": 0.0, "lat": 38.9050695, "name": "61a0237a8ed63474d1cde8fb2c1f2934", "fusion_lon": 0.0, "bike_id": "61a0237a8ed63474d1cde8fb2c1f2934", "is_disabled": 0, "is_reserved": 0}, {"rental_uris": {"ios": "https://dc.lft.to/lastmile_qr_scan", "android": "https://dc.lft.to/lastmile_qr_scan"}, "lon": -77.02230383333334, "type": "electric_scooter", "fusion_lat": 0.0, "lat": 38.89195, "name": "9647e3d85e33d58799faec3272879124", "fusion_lon": 0.0, "bike_id": "9647e3d85e33d58799faec3272879124", "is_disabled": 0, "is_reserved": 0}, {"rental_uris": {"ios": "https://dc.lft.to/lastmile_qr_scan", "android": "https://dc.lft.to/lastmile_qr_scan"}, "lon": -77.0384275, "type": "electric_scooter", "fusion_lat": 0.0, "lat": 38.91090333333333, "name": "b135dec9f678c00b0e17ae10d59c82de", "fusion_lon": 0.0, "bike_id": "b135dec9f678c00b0e17ae10d59c82de", "is_disabled": 0, "is_reserved": 0}, {"rental_uris": {"ios": "https://dc.lft.to/lastmile_qr_scan", "android": "https://dc.lft.to/lastmile_qr_scan"}, "lon": -76.953585, "type": "electric_bike", "fusion_lat": 0.0, "lat": 38.939546666666665, "name": "dc544bd99ed9d8cb2b1aa917fbd102ae", "fusion_lon": 0.0, "bike_id": "dc544bd99ed9d8cb2b1aa917fbd102ae", "is_disabled": 0, "is_reserved": 0}, {"rental_uris": {"ios": "https://dc.lft.to/lastmile_qr_scan", "android": "https://dc.lft.to/lastmile_qr_scan"}, "lon": -77.048645, "type": "electric_scooter", "fusion_lat": 0.0, "lat": 38.90851133333334, "name": "debd6f991d69c66d46f63f468169b1bc", "fusion_lon": 0.0, "bike_id": "debd6f991d69c66d46f63f468169b1bc", "is_disabled": 0, "is_reserved": 0}, {"rental_uris": {"ios": "https://dc.lft.to/lastmile_qr_scan", "android": "https://dc.lft.to/lastmile_qr_scan"}, "lon": -77.178404, "type": "electric_bike", "fusion_lat": 0.0, "lat": 39.0885765, "name": "50a4b697031d2a8629dd5e2986cd6245", "fusion_lon": 0.0, "bike_id": "50a4b697031d2a8629dd5e2986cd6245", "is_disabled": 0, "is_reserved": 0}, {"rental_uris": {"ios": "https://dc.lft.to/lastmile_qr_scan", "android": "https://dc.lft.to/lastmile_qr_scan"}, "lon": -77.02128733333333, "type": "electric_scooter", "fusion_lat": 0.0, "lat": 38.91611116666667, "name": "cc8421c539ca9a932eff061d75432efb", "fusion_lon": 0.0, "bike_id": "cc8421c539ca9a932eff061d75432efb", "is_disabled": 0, "is_reserved": 0}, {"rental_uris": {"ios": "https://dc.lft.to/lastmile_qr_scan", "android": "https://dc.lft.to/lastmile_qr_scan"}, "lon": -77.04335416666666, "type": "electric_scooter", "fusion_lat": 0.0, "lat": 38.89224633333333, "name": "d99f2aec04d9be68d379b6879a055091", "fusion_lon": 0.0, "bike_id": "d99f2aec04d9be68d379b6879a055091", "is_disabled": 0, "is_reserved": 0}, {"rental_uris": {"ios": "https://dc.lft.to/lastmile_qr_scan", "android": "https://dc.lft.to/lastmile_qr_scan"}, "lon": -77.047716, "type": "electric_bike", "fusion_lat": 0.0, "lat": 39.053199, "name": "d1e27e7845fd4be106696c425e88a0dd", "fusion_lon": 0.0, "bike_id": "d1e27e7845fd4be106696c425e88a0dd", "is_disabled": 0, "is_reserved": 0}, {"rental_uris": {"ios": "https://dc.lft.to/lastmile_qr_scan", "android": "https://dc.lft.to/lastmile_qr_scan"}, "lon": -76.99501916666667, "type": "electric_scooter", "fusion_lat": 0.0, "lat": 38.862474, "name": "c549136da1166c7185243c714f4a9e7f", "fusion_lon": 0.0, "bike_id": "c549136da1166c7185243c714f4a9e7f", "is_disabled": 0, "is_reserved": 0}, {"rental_uris": {"ios": "https://dc.lft.to/lastmile_qr_scan", "android": "https://dc.lft.to/lastmile_qr_scan"}, "lon": -76.98906566666666, "type": "electric_scooter", "fusion_lat": 0.0, "lat": 38.8669415, "name": "44c622db324ee209ecef6fb0d17d1c69", "fusion_lon": 0.0, "bike_id": "44c622db324ee209ecef6fb0d17d1c69", "is_disabled": 0, "is_reserved": 0}, {"rental_uris": {"ios": "https://dc.lft.to/lastmile_qr_scan", "android": "https://dc.lft.to/lastmile_qr_scan"}, "lon": -77.05700583333333, "type": "electric_scooter", "fusion_lat": 0.0, "lat": 38.9054055, "name": "0b54333798847382886cdfedfb3a01f7", "fusion_lon": 0.0, "bike_id": "0b54333798847382886cdfedfb3a01f7", "is_disabled": 0, "is_reserved": 0}, {"rental_uris": {"ios": "https://dc.lft.to/lastmile_qr_scan", "android": "https://dc.lft.to/lastmile_qr_scan"}, "lon": -77.02171116666666, "type": "electric_scooter", "fusion_lat": 0.0, "lat": 38.942893, "name": "4fcb3119d67d6b8089a7eca76cc76efe", "fusion_lon": 0.0, "bike_id": "4fcb3119d67d6b8089a7eca76cc76efe", "is_disabled": 0, "is_reserved": 0}, {"rental_uris": {"ios": "https://dc.lft.to/lastmile_qr_scan", "android": "https://dc.lft.to/lastmile_qr_scan"}, "lon": -77.03630633333333, "type": "electric_bike", "fusion_lat": 0.0, "lat": 38.9560615, "name": "acbe12a8c1efc233110e31efd3ae25b9", "fusion_lon": 0.0, "bike_id": "acbe12a8c1efc233110e31efd3ae25b9", "is_disabled": 0, "is_reserved": 0}, {"rental_uris": {"ios": "https://dc.lft.to/lastmile_qr_scan", "android": "https://dc.lft.to/lastmile_qr_scan"}, "lon": -76.9787725, "type": "electric_scooter", "fusion_lat": 0.0, "lat": 38.887644, "name": "4eb164aa4cc8dd908557a8522a0a49dd", "fusion_lon": 0.0, "bike_id": "4eb164aa4cc8dd908557a8522a0a49dd", "is_disabled": 0, "is_reserved": 0}, {"rental_uris": {"ios": "https://dc.lft.to/lastmile_qr_scan", "android": "https://dc.lft.to/lastmile_qr_scan"}, "lon": -77.03248466666666, "type": "electric_scooter", "fusion_lat": 0.0, "lat": 38.9244675, "name": "9966f1016b2c112789c1c62dfed7681e", "fusion_lon": 0.0, "bike_id": "9966f1016b2c112789c1c62dfed7681e", "is_disabled": 0, "is_reserved": 0}, {"rental_uris": {"ios": "https://dc.lft.to/lastmile_qr_scan", "android": "https://dc.lft.to/lastmile_qr_scan"}, "lon": -77.04178716666667, "type": "electric_scooter", "fusion_lat": 0.0, "lat": 38.911467333333334, "name": "0b82a150e7ffcbe5d134a177838c8a84", "fusion_lon": 0.0, "bike_id": "0b82a150e7ffcbe5d134a177838c8a84", "is_disabled": 0, "is_reserved": 0}, {"rental_uris": {"ios": "https://dc.lft.to/lastmile_qr_scan", "android": "https://dc.lft.to/lastmile_qr_scan"}, "lon": -77.02529266666667, "type": "electric_scooter", "fusion_lat": 0.0, "lat": 38.94300033333333, "name": "b1443abf416c1863725bf94d91d537cc", "fusion_lon": 0.0, "bike_id": "b1443abf416c1863725bf94d91d537cc", "is_disabled": 0, "is_reserved": 0}, {"rental_uris": {"ios": "https://dc.lft.to/lastmile_qr_scan", "android": "https://dc.lft.to/lastmile_qr_scan"}, "lon": -77.03823383333334, "type": "electric_scooter", "fusion_lat": 0.0, "lat": 38.898908166666665, "name": "7217ba7d64be037b62981169680bf3ec", "fusion_lon": 0.0, "bike_id": "7217ba7d64be037b62981169680bf3ec", "is_disabled": 0, "is_reserved": 0}, {"rental_uris": {"ios": "https://dc.lft.to/lastmile_qr_scan", "android": "https://dc.lft.to/lastmile_qr_scan"}, "lon": -76.9897455, "type": "electric_scooter", "fusion_lat": 0.0, "lat": 38.859171333333336, "name": "5e9503caa4c2cb451bcba28fa14f6473", "fusion_lon": 0.0, "bike_id": "5e9503caa4c2cb451bcba28fa14f6473", "is_disabled": 0, "is_reserved": 0}, {"rental_uris": {"ios": "https://dc.lft.to/lastmile_qr_scan", "android": "https://dc.lft.to/lastmile_qr_scan"}, "lon": -76.9608445, "type": "electric_scooter", "fusion_lat": 0.0, "lat": 38.874206666666666, "name": "9cba07e854ed0f3d096708ba23db017e", "fusion_lon": 0.0, "bike_id": "9cba07e854ed0f3d096708ba23db017e", "is_disabled": 0, "is_reserved": 0}, {"rental_uris": {"ios": "https://dc.lft.to/lastmile_qr_scan", "android": "https://dc.lft.to/lastmile_qr_scan"}, "lon": -77.038095, "type": "electric_scooter", "fusion_lat": 0.0, "lat": 38.9339795, "name": "c6b317dce99ad10d3ce58f96dc1b70a4", "fusion_lon": 0.0, "bike_id": "c6b317dce99ad10d3ce58f96dc1b70a4", "is_disabled": 0, "is_reserved": 0}, {"rental_uris": {"ios": "https://dc.lft.to/lastmile_qr_scan", "android": "https://dc.lft.to/lastmile_qr_scan"}, "lon": -77.00665833333333, "type": "electric_scooter", "fusion_lat": 0.0, "lat": 38.90005333333333, "name": "9e38e58f08d65d45d74b3560ace8a84e", "fusion_lon": 0.0, "bike_id": "9e38e58f08d65d45d74b3560ace8a84e", "is_disabled": 0, "is_reserved": 0}, {"rental_uris": {"ios": "https://dc.lft.to/lastmile_qr_scan", "android": "https://dc.lft.to/lastmile_qr_scan"}, "lon": -76.95000583333334, "type": "electric_scooter", "fusion_lat": 0.0, "lat": 38.893745333333335, "name": "691642658cf66ec00ed8d1716fe8b896", "fusion_lon": 0.0, "bike_id": "691642658cf66ec00ed8d1716fe8b896", "is_disabled": 0, "is_reserved": 0}, {"rental_uris": {"ios": "https://dc.lft.to/lastmile_qr_scan", "android": "https://dc.lft.to/lastmile_qr_scan"}, "lon": -76.98788566666667, "type": "electric_bike", "fusion_lat": 0.0, "lat": 38.90418733333333, "name": "e73b452885d907353344617da73d05e6", "fusion_lon": 0.0, "bike_id": "e73b452885d907353344617da73d05e6", "is_disabled": 0, "is_reserved": 0}, {"rental_uris": {"ios": "https://dc.lft.to/lastmile_qr_scan", "android": "https://dc.lft.to/lastmile_qr_scan"}, "lon": -77.11799416666666, "type": "electric_bike", "fusion_lat": 0.0, "lat": 38.89835866666667, "name": "f71c12440291bc093ef4ee0f70dba16d", "fusion_lon": 0.0, "bike_id": "f71c12440291bc093ef4ee0f70dba16d", "is_disabled": 0, "is_reserved": 0}, {"rental_uris": {"ios": "https://dc.lft.to/lastmile_qr_scan", "android": "https://dc.lft.to/lastmile_qr_scan"}, "lon": -77.032087, "type": "electric_scooter", "fusion_lat": 0.0, "lat": 38.912506666666665, "name": "1859e139146d6281ab6adfe9a2f48205", "fusion_lon": 0.0, "bike_id": "1859e139146d6281ab6adfe9a2f48205", "is_disabled": 0, "is_reserved": 0}, {"rental_uris": {"ios": "https://dc.lft.to/lastmile_qr_scan", "android": "https://dc.lft.to/lastmile_qr_scan"}, "lon": -76.97462266666666, "type": "electric_scooter", "fusion_lat": 0.0, "lat": 38.86542583333333, "name": "06b4e2a1910a6c25f3fdde071ca6bf58", "fusion_lon": 0.0, "bike_id": "06b4e2a1910a6c25f3fdde071ca6bf58", "is_disabled": 0, "is_reserved": 0}, {"rental_uris": {"ios": "https://dc.lft.to/lastmile_qr_scan", "android": "https://dc.lft.to/lastmile_qr_scan"}, "lon": -76.99065083333333, "type": "electric_scooter", "fusion_lat": 0.0, "lat": 38.8635865, "name": "1c995775fe16189865fadc3e4cd5c1fa", "fusion_lon": 0.0, "bike_id": "1c995775fe16189865fadc3e4cd5c1fa", "is_disabled": 0, "is_reserved": 0}, {"rental_uris": {"ios": "https://dc.lft.to/lastmile_qr_scan", "android": "https://dc.lft.to/lastmile_qr_scan"}, "lon": -77.02935566666666, "type": "electric_scooter", "fusion_lat": 0.0, "lat": 38.9071675, "name": "dc648f5a8294943bb58724e6946ad736", "fusion_lon": 0.0, "bike_id": "dc648f5a8294943bb58724e6946ad736", "is_disabled": 0, "is_reserved": 0}, {"rental_uris": {"ios": "https://dc.lft.to/lastmile_qr_scan", "android": "https://dc.lft.to/lastmile_qr_scan"}, "lon": -77.04157066666667, "type": "electric_scooter", "fusion_lat": 0.0, "lat": 38.91613866666667, "name": "98944b64fcf8f43a2b5caf02bf9de8bc", "fusion_lon": 0.0, "bike_id": "98944b64fcf8f43a2b5caf02bf9de8bc", "is_disabled": 0, "is_reserved": 0}, {"rental_uris": {"ios": "https://dc.lft.to/lastmile_qr_scan", "android": "https://dc.lft.to/lastmile_qr_scan"}, "lon": -77.03231783333334, "type": "electric_scooter", "fusion_lat": 0.0, "lat": 38.91995283333333, "name": "6bbddf6d0da80e67a57e2aefbfe43e61", "fusion_lon": 0.0, "bike_id": "6bbddf6d0da80e67a57e2aefbfe43e61", "is_disabled": 0, "is_reserved": 0}, {"rental_uris": {"ios": "https://dc.lft.to/lastmile_qr_scan", "android": "https://dc.lft.to/lastmile_qr_scan"}, "lon": -77.00766033333333, "type": "electric_scooter", "fusion_lat": 0.0, "lat": 38.90730216666667, "name": "908bdb47c4c189be76dac968040b2340", "fusion_lon": 0.0, "bike_id": "908bdb47c4c189be76dac968040b2340", "is_disabled": 0, "is_reserved": 0}, {"rental_uris": {"ios": "https://dc.lft.to/lastmile_qr_scan", "android": "https://dc.lft.to/lastmile_qr_scan"}, "lon": -77.01239466666667, "type": "electric_scooter", "fusion_lat": 0.0, "lat": 38.917060666666664, "name": "a1f52fe3775e734e13ed580df8386c68", "fusion_lon": 0.0, "bike_id": "a1f52fe3775e734e13ed580df8386c68", "is_disabled": 0, "is_reserved": 0}, {"rental_uris": {"ios": "https://dc.lft.to/lastmile_qr_scan", "android": "https://dc.lft.to/lastmile_qr_scan"}, "lon": -77.02962533333333, "type": "electric_scooter", "fusion_lat": 0.0, "lat": 38.9256695, "name": "1c8ddd708542fb39d21dafff58fe02f7", "fusion_lon": 0.0, "bike_id": "1c8ddd708542fb39d21dafff58fe02f7", "is_disabled": 0, "is_reserved": 0}, {"rental_uris": {"ios": "https://dc.lft.to/lastmile_qr_scan", "android": "https://dc.lft.to/lastmile_qr_scan"}, "lon": -77.0522245, "type": "electric_scooter", "fusion_lat": 0.0, "lat": 38.898098166666664, "name": "2f4c7fe42362b4e0307844897cbed7a5", "fusion_lon": 0.0, "bike_id": "2f4c7fe42362b4e0307844897cbed7a5", "is_disabled": 0, "is_reserved": 0}, {"rental_uris": {"ios": "https://dc.lft.to/lastmile_qr_scan", "android": "https://dc.lft.to/lastmile_qr_scan"}, "lon": -77.00943416666667, "type": "electric_scooter", "fusion_lat": 0.0, "lat": 38.8719605, "name": "9a1ab2de66e09ce7f436393f14a958a9", "fusion_lon": 0.0, "bike_id": "9a1ab2de66e09ce7f436393f14a958a9", "is_disabled": 0, "is_reserved": 0}, {"rental_uris": {"ios": "https://dc.lft.to/lastmile_qr_scan", "android": "https://dc.lft.to/lastmile_qr_scan"}, "lon": -77.041236, "type": "electric_scooter", "fusion_lat": 0.0, "lat": 38.933362833333334, "name": "50203aa9f4c0676dfe1bbe53fa228131", "fusion_lon": 0.0, "bike_id": "50203aa9f4c0676dfe1bbe53fa228131", "is_disabled": 0, "is_reserved": 0}, {"rental_uris": {"ios": "https://dc.lft.to/lastmile_qr_scan", "android": "https://dc.lft.to/lastmile_qr_scan"}, "lon": -77.05980283333334, "type": "electric_scooter", "fusion_lat": 0.0, "lat": 38.93548833333333, "name": "4e2fdd97cb56fb628fc9ebba3df4e583", "fusion_lon": 0.0, "bike_id": "4e2fdd97cb56fb628fc9ebba3df4e583", "is_disabled": 0, "is_reserved": 0}, {"rental_uris": {"ios": "https://dc.lft.to/lastmile_qr_scan", "android": "https://dc.lft.to/lastmile_qr_scan"}, "lon": -77.01512016666666, "type": "electric_scooter", "fusion_lat": 0.0, "lat": 38.8873775, "name": "57bb87b00f2b42b01f15a354e412b4c6", "fusion_lon": 0.0, "bike_id": "57bb87b00f2b42b01f15a354e412b4c6", "is_disabled": 0, "is_reserved": 0}, {"rental_uris": {"ios": "https://dc.lft.to/lastmile_qr_scan", "android": "https://dc.lft.to/lastmile_qr_scan"}, "lon": -77.02694866666667, "type": "electric_scooter", "fusion_lat": 0.0, "lat": 38.916299333333335, "name": "70540265a2b2de8303a1ba4d4cf1e74c", "fusion_lon": 0.0, "bike_id": "70540265a2b2de8303a1ba4d4cf1e74c", "is_disabled": 0, "is_reserved": 0}, {"rental_uris": {"ios": "https://dc.lft.to/lastmile_qr_scan", "android": "https://dc.lft.to/lastmile_qr_scan"}, "lon": -77.03202183333333, "type": "electric_scooter", "fusion_lat": 0.0, "lat": 38.9110485, "name": "e49c7fc540dddaf7a539ba5fa4c5fd59", "fusion_lon": 0.0, "bike_id": "e49c7fc540dddaf7a539ba5fa4c5fd59", "is_disabled": 0, "is_reserved": 0}, {"rental_uris": {"ios": "https://dc.lft.to/lastmile_qr_scan", "android": "https://dc.lft.to/lastmile_qr_scan"}, "lon": -77.03191, "type": "electric_scooter", "fusion_lat": 0.0, "lat": 38.90029833333333, "name": "f94d8d8668f06836a808c11e362c5af4", "fusion_lon": 0.0, "bike_id": "f94d8d8668f06836a808c11e362c5af4", "is_disabled": 0, "is_reserved": 0}, {"rental_uris": {"ios": "https://dc.lft.to/lastmile_qr_scan", "android": "https://dc.lft.to/lastmile_qr_scan"}, "lon": -76.95467333333333, "type": "electric_bike", "fusion_lat": 0.0, "lat": 38.88637833333333, "name": "bcdd0f7cd979ec95bf6d651afc53783c", "fusion_lon": 0.0, "bike_id": "bcdd0f7cd979ec95bf6d651afc53783c", "is_disabled": 0, "is_reserved": 0}, {"rental_uris": {"ios": "https://dc.lft.to/lastmile_qr_scan", "android": "https://dc.lft.to/lastmile_qr_scan"}, "lon": -77.05268833333334, "type": "electric_scooter", "fusion_lat": 0.0, "lat": 38.91026083333333, "name": "2532a6a5587a44cd80bdce6c5318bb1a", "fusion_lon": 0.0, "bike_id": "2532a6a5587a44cd80bdce6c5318bb1a", "is_disabled": 0, "is_reserved": 0}, {"rental_uris": {"ios": "https://dc.lft.to/lastmile_qr_scan", "android": "https://dc.lft.to/lastmile_qr_scan"}, "lon": -77.00713066666667, "type": "electric_scooter", "fusion_lat": 0.0, "lat": 38.913417, "name": "6084d1cc3454f31858f889f8d67c5c6c", "fusion_lon": 0.0, "bike_id": "6084d1cc3454f31858f889f8d67c5c6c", "is_disabled": 0, "is_reserved": 0}, {"rental_uris": {"ios": "https://dc.lft.to/lastmile_qr_scan", "android": "https://dc.lft.to/lastmile_qr_scan"}, "lon": -77.00118616666667, "type": "electric_scooter", "fusion_lat": 0.0, "lat": 38.87484033333333, "name": "63c51473754f8b4b8fde12c1b65b265c", "fusion_lon": 0.0, "bike_id": "63c51473754f8b4b8fde12c1b65b265c", "is_disabled": 0, "is_reserved": 0}, {"rental_uris": {"ios": "https://dc.lft.to/lastmile_qr_scan", "android": "https://dc.lft.to/lastmile_qr_scan"}, "lon": -77.0318005, "type": "electric_scooter", "fusion_lat": 0.0, "lat": 38.918047666666666, "name": "458222b24c851e48ce7dde9bf7365754", "fusion_lon": 0.0, "bike_id": "458222b24c851e48ce7dde9bf7365754", "is_disabled": 0, "is_reserved": 0}, {"rental_uris": {"ios": "https://dc.lft.to/lastmile_qr_scan", "android": "https://dc.lft.to/lastmile_qr_scan"}, "lon": -77.02865733333333, "type": "electric_scooter", "fusion_lat": 0.0, "lat": 38.90315533333333, "name": "cfa711eae7bd5833394008ff1f645fb6", "fusion_lon": 0.0, "bike_id": "cfa711eae7bd5833394008ff1f645fb6", "is_disabled": 0, "is_reserved": 0}, {"rental_uris": {"ios": "https://dc.lft.to/lastmile_qr_scan", "android": "https://dc.lft.to/lastmile_qr_scan"}, "lon": -76.9395675, "type": "electric_scooter", "fusion_lat": 0.0, "lat": 38.89417183333333, "name": "cc88429b764930ac83aadec6fe98b862", "fusion_lon": 0.0, "bike_id": "cc88429b764930ac83aadec6fe98b862", "is_disabled": 0, "is_reserved": 0}, {"rental_uris": {"ios": "https://dc.lft.to/lastmile_qr_scan", "android": "https://dc.lft.to/lastmile_qr_scan"}, "lon": -76.929971, "type": "electric_bike", "fusion_lat": 0.0, "lat": 38.8879955, "name": "ff86d39c88e402184a427221461b9452", "fusion_lon": 0.0, "bike_id": "ff86d39c88e402184a427221461b9452", "is_disabled": 0, "is_reserved": 0}, {"rental_uris": {"ios": "https://dc.lft.to/lastmile_qr_scan", "android": "https://dc.lft.to/lastmile_qr_scan"}, "lon": -77.0721465, "type": "electric_scooter", "fusion_lat": 0.0, "lat": 38.921073, "name": "1195d037e5c6bb05dbbf91f0526be578", "fusion_lon": 0.0, "bike_id": "1195d037e5c6bb05dbbf91f0526be578", "is_disabled": 0, "is_reserved": 0}, {"rental_uris": {"ios": "https://dc.lft.to/lastmile_qr_scan", "android": "https://dc.lft.to/lastmile_qr_scan"}, "lon": -77.056238, "type": "electric_bike", "fusion_lat": 0.0, "lat": 38.9241045, "name": "634bf48ef9a92f26acd1138c0ff0f274", "fusion_lon": 0.0, "bike_id": "634bf48ef9a92f26acd1138c0ff0f274", "is_disabled": 0, "is_reserved": 0}, {"rental_uris": {"ios": "https://dc.lft.to/lastmile_qr_scan", "android": "https://dc.lft.to/lastmile_qr_scan"}, "lon": -77.02338833333333, "type": "electric_scooter", "fusion_lat": 0.0, "lat": 38.925149833333336, "name": "365e021359f35931ea47dcc5d698705b", "fusion_lon": 0.0, "bike_id": "365e021359f35931ea47dcc5d698705b", "is_disabled": 0, "is_reserved": 0}, {"rental_uris": {"ios": "https://dc.lft.to/lastmile_qr_scan", "android": "https://dc.lft.to/lastmile_qr_scan"}, "lon": -77.05809783333333, "type": "electric_scooter", "fusion_lat": 0.0, "lat": 38.93450266666667, "name": "6def88be572201cd18b337cb8da0522d", "fusion_lon": 0.0, "bike_id": "6def88be572201cd18b337cb8da0522d", "is_disabled": 0, "is_reserved": 0}, {"rental_uris": {"ios": "https://dc.lft.to/lastmile_qr_scan", "android": "https://dc.lft.to/lastmile_qr_scan"}, "lon": -77.0322725, "type": "electric_scooter", "fusion_lat": 0.0, "lat": 38.92668183333333, "name": "4707891debbd69bfe560b706d4acc7c7", "fusion_lon": 0.0, "bike_id": "4707891debbd69bfe560b706d4acc7c7", "is_disabled": 0, "is_reserved": 0}, {"rental_uris": {"ios": "https://dc.lft.to/lastmile_qr_scan", "android": "https://dc.lft.to/lastmile_qr_scan"}, "lon": -77.03522883333333, "type": "electric_scooter", "fusion_lat": 0.0, "lat": 38.9359385, "name": "868d2d133830a236887134ddf4443b2a", "fusion_lon": 0.0, "bike_id": "868d2d133830a236887134ddf4443b2a", "is_disabled": 0, "is_reserved": 0}, {"rental_uris": {"ios": "https://dc.lft.to/lastmile_qr_scan", "android": "https://dc.lft.to/lastmile_qr_scan"}, "lon": -77.0065475, "type": "electric_scooter", "fusion_lat": 0.0, "lat": 38.87176683333333, "name": "8f9475ecf48c2707248d41bd12864a03", "fusion_lon": 0.0, "bike_id": "8f9475ecf48c2707248d41bd12864a03", "is_disabled": 0, "is_reserved": 0}, {"rental_uris": {"ios": "https://dc.lft.to/lastmile_qr_scan", "android": "https://dc.lft.to/lastmile_qr_scan"}, "lon": -76.97405933333333, "type": "electric_scooter", "fusion_lat": 0.0, "lat": 38.90156433333333, "name": "cdaef78c020b8fee9310d4d932e3307a", "fusion_lon": 0.0, "bike_id": "cdaef78c020b8fee9310d4d932e3307a", "is_disabled": 0, "is_reserved": 0}, {"rental_uris": {"ios": "https://dc.lft.to/lastmile_qr_scan", "android": "https://dc.lft.to/lastmile_qr_scan"}, "lon": -76.97489883333333, "type": "electric_bike", "fusion_lat": 0.0, "lat": 38.920076333333334, "name": "45f6b3206404671068a8f839445498f5", "fusion_lon": 0.0, "bike_id": "45f6b3206404671068a8f839445498f5", "is_disabled": 0, "is_reserved": 0}, {"rental_uris": {"ios": "https://dc.lft.to/lastmile_qr_scan", "android": "https://dc.lft.to/lastmile_qr_scan"}, "lon": -76.937229, "type": "electric_scooter", "fusion_lat": 0.0, "lat": 38.895902666666665, "name": "b44e9af673e42656fb4b0ba1a340c3b2", "fusion_lon": 0.0, "bike_id": "b44e9af673e42656fb4b0ba1a340c3b2", "is_disabled": 0, "is_reserved": 0}, {"rental_uris": {"ios": "https://dc.lft.to/lastmile_qr_scan", "android": "https://dc.lft.to/lastmile_qr_scan"}, "lon": -77.041096, "type": "electric_scooter", "fusion_lat": 0.0, "lat": 38.92441916666667, "name": "fef7968e32b6c85b5d84f3e6bb6049aa", "fusion_lon": 0.0, "bike_id": "fef7968e32b6c85b5d84f3e6bb6049aa", "is_disabled": 0, "is_reserved": 0}, {"rental_uris": {"ios": "https://dc.lft.to/lastmile_qr_scan", "android": "https://dc.lft.to/lastmile_qr_scan"}, "lon": -77.04293183333333, "type": "electric_scooter", "fusion_lat": 0.0, "lat": 38.908032166666665, "name": "344e8b9b5e08bb0bdebab285e174f54b", "fusion_lon": 0.0, "bike_id": "344e8b9b5e08bb0bdebab285e174f54b", "is_disabled": 0, "is_reserved": 0}, {"rental_uris": {"ios": "https://dc.lft.to/lastmile_qr_scan", "android": "https://dc.lft.to/lastmile_qr_scan"}, "lon": -77.025986, "type": "electric_scooter", "fusion_lat": 0.0, "lat": 38.89263533333333, "name": "22953eff13ed44ca7649dadd6d3986b6", "fusion_lon": 0.0, "bike_id": "22953eff13ed44ca7649dadd6d3986b6", "is_disabled": 0, "is_reserved": 0}, {"rental_uris": {"ios": "https://dc.lft.to/lastmile_qr_scan", "android": "https://dc.lft.to/lastmile_qr_scan"}, "lon": -77.03848466666666, "type": "electric_scooter", "fusion_lat": 0.0, "lat": 38.9101855, "name": "df9fa80c1b03a512bafc231140f5aa8a", "fusion_lon": 0.0, "bike_id": "df9fa80c1b03a512bafc231140f5aa8a", "is_disabled": 0, "is_reserved": 0}, {"rental_uris": {"ios": "https://dc.lft.to/lastmile_qr_scan", "android": "https://dc.lft.to/lastmile_qr_scan"}, "lon": -77.048636, "type": "electric_scooter", "fusion_lat": 0.0, "lat": 38.90852683333333, "name": "09d6f1e40f52b6f2b510ea98e71bcfdd", "fusion_lon": 0.0, "bike_id": "09d6f1e40f52b6f2b510ea98e71bcfdd", "is_disabled": 0, "is_reserved": 0}, {"rental_uris": {"ios": "https://dc.lft.to/lastmile_qr_scan", "android": "https://dc.lft.to/lastmile_qr_scan"}, "lon": -76.98653283333333, "type": "electric_scooter", "fusion_lat": 0.0, "lat": 38.85806383333333, "name": "d1ca0ed03622ac47da7f975377fb2840", "fusion_lon": 0.0, "bike_id": "d1ca0ed03622ac47da7f975377fb2840", "is_disabled": 0, "is_reserved": 0}, {"rental_uris": {"ios": "https://dc.lft.to/lastmile_qr_scan", "android": "https://dc.lft.to/lastmile_qr_scan"}, "lon": -76.98088416666667, "type": "electric_scooter", "fusion_lat": 0.0, "lat": 38.8572065, "name": "c5162852190cdccf653ada49a9d464cd", "fusion_lon": 0.0, "bike_id": "c5162852190cdccf653ada49a9d464cd", "is_disabled": 0, "is_reserved": 0}, {"rental_uris": {"ios": "https://dc.lft.to/lastmile_qr_scan", "android": "https://dc.lft.to/lastmile_qr_scan"}, "lon": -76.98753783333333, "type": "electric_scooter", "fusion_lat": 0.0, "lat": 38.84501916666667, "name": "1298b2a806431b68edf8c6c88c09497e", "fusion_lon": 0.0, "bike_id": "1298b2a806431b68edf8c6c88c09497e", "is_disabled": 0, "is_reserved": 0}, {"rental_uris": {"ios": "https://dc.lft.to/lastmile_qr_scan", "android": "https://dc.lft.to/lastmile_qr_scan"}, "lon": -76.99205166666667, "type": "electric_scooter", "fusion_lat": 0.0, "lat": 38.846806, "name": "c9c9a44505efdd5081f728724128e94f", "fusion_lon": 0.0, "bike_id": "c9c9a44505efdd5081f728724128e94f", "is_disabled": 0, "is_reserved": 0}, {"rental_uris": {"ios": "https://dc.lft.to/lastmile_qr_scan", "android": "https://dc.lft.to/lastmile_qr_scan"}, "lon": -77.02239133333333, "type": "electric_scooter", "fusion_lat": 0.0, "lat": 38.96219816666667, "name": "60fce5f98953f6d3db4639323a572e3a", "fusion_lon": 0.0, "bike_id": "60fce5f98953f6d3db4639323a572e3a", "is_disabled": 0, "is_reserved": 0}, {"rental_uris": {"ios": "https://dc.lft.to/lastmile_qr_scan", "android": "https://dc.lft.to/lastmile_qr_scan"}, "lon": -77.03324383333333, "type": "electric_scooter", "fusion_lat": 0.0, "lat": 38.90020233333333, "name": "b2a9f234795f74ae72ddbcede3527aff", "fusion_lon": 0.0, "bike_id": "b2a9f234795f74ae72ddbcede3527aff", "is_disabled": 0, "is_reserved": 0}, {"rental_uris": {"ios": "https://dc.lft.to/lastmile_qr_scan", "android": "https://dc.lft.to/lastmile_qr_scan"}, "lon": -76.97656383333333, "type": "electric_scooter", "fusion_lat": 0.0, "lat": 38.898562166666665, "name": "bcc7de12b1de6654e5d146a3feae80f7", "fusion_lon": 0.0, "bike_id": "bcc7de12b1de6654e5d146a3feae80f7", "is_disabled": 0, "is_reserved": 0}, {"rental_uris": {"ios": "https://dc.lft.to/lastmile_qr_scan", "android": "https://dc.lft.to/lastmile_qr_scan"}, "lon": -76.94654166666666, "type": "electric_scooter", "fusion_lat": 0.0, "lat": 38.898259333333336, "name": "c51ede9acf9f1957dd0ea9488790abb5", "fusion_lon": 0.0, "bike_id": "c51ede9acf9f1957dd0ea9488790abb5", "is_disabled": 0, "is_reserved": 0}, {"rental_uris": {"ios": "https://dc.lft.to/lastmile_qr_scan", "android": "https://dc.lft.to/lastmile_qr_scan"}, "lon": -77.003518, "type": "electric_scooter", "fusion_lat": 0.0, "lat": 38.8977355, "name": "0849b19178ae93a450f4c41bc218b4e0", "fusion_lon": 0.0, "bike_id": "0849b19178ae93a450f4c41bc218b4e0", "is_disabled": 0, "is_reserved": 0}, {"rental_uris": {"ios": "https://dc.lft.to/lastmile_qr_scan", "android": "https://dc.lft.to/lastmile_qr_scan"}, "lon": -76.98571666666666, "type": "electric_scooter", "fusion_lat": 0.0, "lat": 38.898866166666664, "name": "90616becfb508f5e3483d6270dcc0a2c", "fusion_lon": 0.0, "bike_id": "90616becfb508f5e3483d6270dcc0a2c", "is_disabled": 0, "is_reserved": 0}, {"rental_uris": {"ios": "https://dc.lft.to/lastmile_qr_scan", "android": "https://dc.lft.to/lastmile_qr_scan"}, "lon": -77.02601633333333, "type": "electric_scooter", "fusion_lat": 0.0, "lat": 38.8965695, "name": "1afceacce96228e62a9f4b3e128d4f67", "fusion_lon": 0.0, "bike_id": "1afceacce96228e62a9f4b3e128d4f67", "is_disabled": 0, "is_reserved": 0}, {"rental_uris": {"ios": "https://dc.lft.to/lastmile_qr_scan", "android": "https://dc.lft.to/lastmile_qr_scan"}, "lon": -77.0319845, "type": "electric_scooter", "fusion_lat": 0.0, "lat": 38.90989533333333, "name": "df83fbe6bcdd73c9db34dc018ad8ebb1", "fusion_lon": 0.0, "bike_id": "df83fbe6bcdd73c9db34dc018ad8ebb1", "is_disabled": 0, "is_reserved": 0}, {"rental_uris": {"ios": "https://dc.lft.to/lastmile_qr_scan", "android": "https://dc.lft.to/lastmile_qr_scan"}, "lon": -77.10028983333333, "type": "electric_bike", "fusion_lat": 0.0, "lat": 38.99060983333333, "name": "b36e010f5e055ae4fe2a13b0844bd8a8", "fusion_lon": 0.0, "bike_id": "b36e010f5e055ae4fe2a13b0844bd8a8", "is_disabled": 0, "is_reserved": 0}, {"rental_uris": {"ios": "https://dc.lft.to/lastmile_qr_scan", "android": "https://dc.lft.to/lastmile_qr_scan"}, "lon": -77.04238833333334, "type": "electric_scooter", "fusion_lat": 0.0, "lat": 38.9220825, "name": "b6f121e51f27d301ecbb5b34424b200b", "fusion_lon": 0.0, "bike_id": "b6f121e51f27d301ecbb5b34424b200b", "is_disabled": 0, "is_reserved": 0}, {"rental_uris": {"ios": "https://dc.lft.to/lastmile_qr_scan", "android": "https://dc.lft.to/lastmile_qr_scan"}, "lon": -77.0167355, "type": "electric_scooter", "fusion_lat": 0.0, "lat": 38.90466033333333, "name": "24f593b17538fdb318234072f7bbfcb3", "fusion_lon": 0.0, "bike_id": "24f593b17538fdb318234072f7bbfcb3", "is_disabled": 0, "is_reserved": 0}, {"rental_uris": {"ios": "https://dc.lft.to/lastmile_qr_scan", "android": "https://dc.lft.to/lastmile_qr_scan"}, "lon": -77.02506483333333, "type": "electric_scooter", "fusion_lat": 0.0, "lat": 38.90718483333333, "name": "bbb5ced67fe552d30217793c232a2069", "fusion_lon": 0.0, "bike_id": "bbb5ced67fe552d30217793c232a2069", "is_disabled": 0, "is_reserved": 0}, {"rental_uris": {"ios": "https://dc.lft.to/lastmile_qr_scan", "android": "https://dc.lft.to/lastmile_qr_scan"}, "lon": -77.01619366666667, "type": "electric_scooter", "fusion_lat": 0.0, "lat": 38.899776333333335, "name": "ddf43edec480562521c2e08a0ad1cbc2", "fusion_lon": 0.0, "bike_id": "ddf43edec480562521c2e08a0ad1cbc2", "is_disabled": 0, "is_reserved": 0}, {"rental_uris": {"ios": "https://dc.lft.to/lastmile_qr_scan", "android": "https://dc.lft.to/lastmile_qr_scan"}, "lon": -76.94996133333333, "type": "electric_scooter", "fusion_lat": 0.0, "lat": 38.893734, "name": "1686f8bf4586ce0c7a66aae20943cd28", "fusion_lon": 0.0, "bike_id": "1686f8bf4586ce0c7a66aae20943cd28", "is_disabled": 0, "is_reserved": 0}, {"rental_uris": {"ios": "https://dc.lft.to/lastmile_qr_scan", "android": "https://dc.lft.to/lastmile_qr_scan"}, "lon": -77.07137083333333, "type": "electric_scooter", "fusion_lat": 0.0, "lat": 38.92728, "name": "b433980aa9ab3fc53e1053db91d50863", "fusion_lon": 0.0, "bike_id": "b433980aa9ab3fc53e1053db91d50863", "is_disabled": 0, "is_reserved": 0}, {"rental_uris": {"ios": "https://dc.lft.to/lastmile_qr_scan", "android": "https://dc.lft.to/lastmile_qr_scan"}, "lon": -77.03324883333333, "type": "electric_scooter", "fusion_lat": 0.0, "lat": 38.90139033333333, "name": "197b9dd9061c8cbd5ddd983de7a1f3b5", "fusion_lon": 0.0, "bike_id": "197b9dd9061c8cbd5ddd983de7a1f3b5", "is_disabled": 0, "is_reserved": 0}, {"rental_uris": {"ios": "https://dc.lft.to/lastmile_qr_scan", "android": "https://dc.lft.to/lastmile_qr_scan"}, "lon": -77.18290883333333, "type": "electric_bike", "fusion_lat": 0.0, "lat": 38.883468666666666, "name": "4171fa277390709c1880c9ee9a04922a", "fusion_lon": 0.0, "bike_id": "4171fa277390709c1880c9ee9a04922a", "is_disabled": 0, "is_reserved": 0}, {"rental_uris": {"ios": "https://dc.lft.to/lastmile_qr_scan", "android": "https://dc.lft.to/lastmile_qr_scan"}, "lon": -76.978226, "type": "electric_scooter", "fusion_lat": 0.0, "lat": 38.895178666666666, "name": "24416cade68fe513afbb737773904a8b", "fusion_lon": 0.0, "bike_id": "24416cade68fe513afbb737773904a8b", "is_disabled": 0, "is_reserved": 0}, {"rental_uris": {"ios": "https://dc.lft.to/lastmile_qr_scan", "android": "https://dc.lft.to/lastmile_qr_scan"}, "lon": -76.97429083333333, "type": "electric_bike", "fusion_lat": 0.0, "lat": 38.93205866666667, "name": "854de7e4cd75c3f66fe58c9921ba4ed4", "fusion_lon": 0.0, "bike_id": "854de7e4cd75c3f66fe58c9921ba4ed4", "is_disabled": 0, "is_reserved": 0}, {"rental_uris": {"ios": "https://dc.lft.to/lastmile_qr_scan", "android": "https://dc.lft.to/lastmile_qr_scan"}, "lon": -77.0227885, "type": "electric_scooter", "fusion_lat": 0.0, "lat": 38.90962666666667, "name": "c7f263be39fb3583e01db4a62d6e76ea", "fusion_lon": 0.0, "bike_id": "c7f263be39fb3583e01db4a62d6e76ea", "is_disabled": 0, "is_reserved": 0}, {"rental_uris": {"ios": "https://dc.lft.to/lastmile_qr_scan", "android": "https://dc.lft.to/lastmile_qr_scan"}, "lon": -77.12961883333334, "type": "electric_bike", "fusion_lat": 0.0, "lat": 38.80791516666667, "name": "b61660e5719d775f4a058a1da1eb06ef", "fusion_lon": 0.0, "bike_id": "b61660e5719d775f4a058a1da1eb06ef", "is_disabled": 0, "is_reserved": 0}, {"rental_uris": {"ios": "https://dc.lft.to/lastmile_qr_scan", "android": "https://dc.lft.to/lastmile_qr_scan"}, "lon": -77.08391483333334, "type": "electric_scooter", "fusion_lat": 0.0, "lat": 38.96097266666666, "name": "7c7ba37bcca5befaf4f02b130701b26d", "fusion_lon": 0.0, "bike_id": "7c7ba37bcca5befaf4f02b130701b26d", "is_disabled": 0, "is_reserved": 0}, {"rental_uris": {"ios": "https://dc.lft.to/lastmile_qr_scan", "android": "https://dc.lft.to/lastmile_qr_scan"}, "lon": -77.01282183333333, "type": "electric_bike", "fusion_lat": 0.0, "lat": 39.003842666666664, "name": "33d53003d35a23e9db524ee1cb22bc92", "fusion_lon": 0.0, "bike_id": "33d53003d35a23e9db524ee1cb22bc92", "is_disabled": 0, "is_reserved": 0}, {"rental_uris": {"ios": "https://dc.lft.to/lastmile_qr_scan", "android": "https://dc.lft.to/lastmile_qr_scan"}, "lon": -77.03184666666667, "type": "electric_scooter", "fusion_lat": 0.0, "lat": 38.887375, "name": "96a3d21245163865979915a84110790b", "fusion_lon": 0.0, "bike_id": "96a3d21245163865979915a84110790b", "is_disabled": 0, "is_reserved": 0}, {"rental_uris": {"ios": "https://dc.lft.to/lastmile_qr_scan", "android": "https://dc.lft.to/lastmile_qr_scan"}, "lon": -77.01576866666667, "type": "electric_scooter", "fusion_lat": 0.0, "lat": 38.901922, "name": "5517533d1689454c06ebe95900c5dc74", "fusion_lon": 0.0, "bike_id": "5517533d1689454c06ebe95900c5dc74", "is_disabled": 0, "is_reserved": 0}, {"rental_uris": {"ios": "https://dc.lft.to/lastmile_qr_scan", "android": "https://dc.lft.to/lastmile_qr_scan"}, "lon": -77.02948583333334, "type": "electric_scooter", "fusion_lat": 0.0, "lat": 38.90847983333333, "name": "cff0eefe590a8edf0661741e11415627", "fusion_lon": 0.0, "bike_id": "cff0eefe590a8edf0661741e11415627", "is_disabled": 0, "is_reserved": 0}, {"rental_uris": {"ios": "https://dc.lft.to/lastmile_qr_scan", "android": "https://dc.lft.to/lastmile_qr_scan"}, "lon": -76.99037966666667, "type": "electric_scooter", "fusion_lat": 0.0, "lat": 38.856618, "name": "7f89c3a81c98fd4bd2016180dc315e2e", "fusion_lon": 0.0, "bike_id": "7f89c3a81c98fd4bd2016180dc315e2e", "is_disabled": 0, "is_reserved": 0}, {"rental_uris": {"ios": "https://dc.lft.to/lastmile_qr_scan", "android": "https://dc.lft.to/lastmile_qr_scan"}, "lon": -77.04646566666666, "type": "electric_bike", "fusion_lat": 0.0, "lat": 38.85213066666667, "name": "fafd5f120c6ddaeb1516f6d99f21837d", "fusion_lon": 0.0, "bike_id": "fafd5f120c6ddaeb1516f6d99f21837d", "is_disabled": 0, "is_reserved": 0}, {"rental_uris": {"ios": "https://dc.lft.to/lastmile_qr_scan", "android": "https://dc.lft.to/lastmile_qr_scan"}, "lon": -77.046671, "type": "electric_scooter", "fusion_lat": 0.0, "lat": 38.932962833333335, "name": "1bfa90b3fc3eede46ed2d947de11a5f7", "fusion_lon": 0.0, "bike_id": "1bfa90b3fc3eede46ed2d947de11a5f7", "is_disabled": 0, "is_reserved": 0}, {"rental_uris": {"ios": "https://dc.lft.to/lastmile_qr_scan", "android": "https://dc.lft.to/lastmile_qr_scan"}, "lon": -76.932426, "type": "electric_scooter", "fusion_lat": 0.0, "lat": 38.894038333333334, "name": "8b6ca32bb7a4da58c862298b97c7f188", "fusion_lon": 0.0, "bike_id": "8b6ca32bb7a4da58c862298b97c7f188", "is_disabled": 0, "is_reserved": 0}, {"rental_uris": {"ios": "https://dc.lft.to/lastmile_qr_scan", "android": "https://dc.lft.to/lastmile_qr_scan"}, "lon": -77.03342316666667, "type": "electric_scooter", "fusion_lat": 0.0, "lat": 38.8968455, "name": "2218998002e82e6ba86523f360ea4166", "fusion_lon": 0.0, "bike_id": "2218998002e82e6ba86523f360ea4166", "is_disabled": 0, "is_reserved": 0}, {"rental_uris": {"ios": "https://dc.lft.to/lastmile_qr_scan", "android": "https://dc.lft.to/lastmile_qr_scan"}, "lon": -77.0285435, "type": "electric_scooter", "fusion_lat": 0.0, "lat": 38.888743166666664, "name": "ad5fc07831206003da85445d3c926550", "fusion_lon": 0.0, "bike_id": "ad5fc07831206003da85445d3c926550", "is_disabled": 0, "is_reserved": 0}, {"rental_uris": {"ios": "https://dc.lft.to/lastmile_qr_scan", "android": "https://dc.lft.to/lastmile_qr_scan"}, "lon": -77.03203266666667, "type": "electric_scooter", "fusion_lat": 0.0, "lat": 38.91541, "name": "0dee90edc2c2ca67aa77d7968f0f68ab", "fusion_lon": 0.0, "bike_id": "0dee90edc2c2ca67aa77d7968f0f68ab", "is_disabled": 0, "is_reserved": 0}, {"rental_uris": {"ios": "https://dc.lft.to/lastmile_qr_scan", "android": "https://dc.lft.to/lastmile_qr_scan"}, "lon": -77.055238, "type": "electric_scooter", "fusion_lat": 0.0, "lat": 38.92797016666667, "name": "da557da3238d11b72841c94570c9f4e0", "fusion_lon": 0.0, "bike_id": "da557da3238d11b72841c94570c9f4e0", "is_disabled": 0, "is_reserved": 0}, {"rental_uris": {"ios": "https://dc.lft.to/lastmile_qr_scan", "android": "https://dc.lft.to/lastmile_qr_scan"}, "lon": -77.0387665, "type": "electric_scooter", "fusion_lat": 0.0, "lat": 38.93437483333334, "name": "c9ecfa411238f0287da8da15ec8f40d8", "fusion_lon": 0.0, "bike_id": "c9ecfa411238f0287da8da15ec8f40d8", "is_disabled": 0, "is_reserved": 0}, {"rental_uris": {"ios": "https://dc.lft.to/lastmile_qr_scan", "android": "https://dc.lft.to/lastmile_qr_scan"}, "lon": -77.0222335, "type": "electric_scooter", "fusion_lat": 0.0, "lat": 38.89220133333333, "name": "b1f5729480b04d625f5e2585d8045b64", "fusion_lon": 0.0, "bike_id": "b1f5729480b04d625f5e2585d8045b64", "is_disabled": 0, "is_reserved": 0}, {"rental_uris": {"ios": "https://dc.lft.to/lastmile_qr_scan", "android": "https://dc.lft.to/lastmile_qr_scan"}, "lon": -77.03348066666666, "type": "electric_scooter", "fusion_lat": 0.0, "lat": 38.91693383333333, "name": "a54ebc6c7af82ed1dbaf06b5811fd127", "fusion_lon": 0.0, "bike_id": "a54ebc6c7af82ed1dbaf06b5811fd127", "is_disabled": 0, "is_reserved": 0}, {"rental_uris": {"ios": "https://dc.lft.to/lastmile_qr_scan", "android": "https://dc.lft.to/lastmile_qr_scan"}, "lon": -77.0319355, "type": "electric_scooter", "fusion_lat": 0.0, "lat": 38.91860583333333, "name": "bd31bb4c27ae7d32fa3857e7d29cc396", "fusion_lon": 0.0, "bike_id": "bd31bb4c27ae7d32fa3857e7d29cc396", "is_disabled": 0, "is_reserved": 0}, {"rental_uris": {"ios": "https://dc.lft.to/lastmile_qr_scan", "android": "https://dc.lft.to/lastmile_qr_scan"}, "lon": -77.02126716666666, "type": "electric_scooter", "fusion_lat": 0.0, "lat": 38.91609533333333, "name": "1d027b42f191cdd2e58e1030c943cc44", "fusion_lon": 0.0, "bike_id": "1d027b42f191cdd2e58e1030c943cc44", "is_disabled": 0, "is_reserved": 0}, {"rental_uris": {"ios": "https://dc.lft.to/lastmile_qr_scan", "android": "https://dc.lft.to/lastmile_qr_scan"}, "lon": -77.0258125, "type": "electric_scooter", "fusion_lat": 0.0, "lat": 38.88735533333333, "name": "dd05e25cc9439b72ee696de8c56c1f74", "fusion_lon": 0.0, "bike_id": "dd05e25cc9439b72ee696de8c56c1f74", "is_disabled": 0, "is_reserved": 0}, {"rental_uris": {"ios": "https://dc.lft.to/lastmile_qr_scan", "android": "https://dc.lft.to/lastmile_qr_scan"}, "lon": -76.93364716666666, "type": "electric_scooter", "fusion_lat": 0.0, "lat": 38.89916383333333, "name": "a4285867df15aac8b425ff09a66f1224", "fusion_lon": 0.0, "bike_id": "a4285867df15aac8b425ff09a66f1224", "is_disabled": 0, "is_reserved": 0}, {"rental_uris": {"ios": "https://dc.lft.to/lastmile_qr_scan", "android": "https://dc.lft.to/lastmile_qr_scan"}, "lon": -77.03442866666667, "type": "electric_scooter", "fusion_lat": 0.0, "lat": 38.90738266666666, "name": "f5e7f0fe90d5ef3b090426f65d6a941e", "fusion_lon": 0.0, "bike_id": "f5e7f0fe90d5ef3b090426f65d6a941e", "is_disabled": 0, "is_reserved": 0}, {"rental_uris": {"ios": "https://dc.lft.to/lastmile_qr_scan", "android": "https://dc.lft.to/lastmile_qr_scan"}, "lon": -77.06173783333334, "type": "electric_scooter", "fusion_lat": 0.0, "lat": 38.948066833333336, "name": "8f996520ae616a467797ce1351dbaae9", "fusion_lon": 0.0, "bike_id": "8f996520ae616a467797ce1351dbaae9", "is_disabled": 0, "is_reserved": 0}, {"rental_uris": {"ios": "https://dc.lft.to/lastmile_qr_scan", "android": "https://dc.lft.to/lastmile_qr_scan"}, "lon": -77.03593466666666, "type": "electric_scooter", "fusion_lat": 0.0, "lat": 38.932336, "name": "f257bf70726b7d78abbd4eb6cbde6ad7", "fusion_lon": 0.0, "bike_id": "f257bf70726b7d78abbd4eb6cbde6ad7", "is_disabled": 0, "is_reserved": 0}, {"rental_uris": {"ios": "https://dc.lft.to/lastmile_qr_scan", "android": "https://dc.lft.to/lastmile_qr_scan"}, "lon": -77.04820583333333, "type": "electric_scooter", "fusion_lat": 0.0, "lat": 38.907935333333334, "name": "3ace511bbd6fed7b2bedfa3f32309e19", "fusion_lon": 0.0, "bike_id": "3ace511bbd6fed7b2bedfa3f32309e19", "is_disabled": 0, "is_reserved": 0}, {"rental_uris": {"ios": "https://dc.lft.to/lastmile_qr_scan", "android": "https://dc.lft.to/lastmile_qr_scan"}, "lon": -77.03421666666667, "type": "electric_scooter", "fusion_lat": 0.0, "lat": 38.90961316666667, "name": "7c25525198bcf961310590b7a7312f77", "fusion_lon": 0.0, "bike_id": "7c25525198bcf961310590b7a7312f77", "is_disabled": 0, "is_reserved": 0}, {"rental_uris": {"ios": "https://dc.lft.to/lastmile_qr_scan", "android": "https://dc.lft.to/lastmile_qr_scan"}, "lon": -77.02170233333334, "type": "electric_scooter", "fusion_lat": 0.0, "lat": 38.942931333333334, "name": "53697bcf7c169206a973572dd2444d5f", "fusion_lon": 0.0, "bike_id": "53697bcf7c169206a973572dd2444d5f", "is_disabled": 0, "is_reserved": 0}, {"rental_uris": {"ios": "https://dc.lft.to/lastmile_qr_scan", "android": "https://dc.lft.to/lastmile_qr_scan"}, "lon": -77.03379316666667, "type": "electric_scooter", "fusion_lat": 0.0, "lat": 38.909714666666666, "name": "4b79661f4f868947117520ef36301b8d", "fusion_lon": 0.0, "bike_id": "4b79661f4f868947117520ef36301b8d", "is_disabled": 0, "is_reserved": 0}, {"rental_uris": {"ios": "https://dc.lft.to/lastmile_qr_scan", "android": "https://dc.lft.to/lastmile_qr_scan"}, "lon": -77.03173, "type": "electric_scooter", "fusion_lat": 0.0, "lat": 38.91342066666667, "name": "ac2b83133bb6cb6d0c709469ff6aa4b1", "fusion_lon": 0.0, "bike_id": "ac2b83133bb6cb6d0c709469ff6aa4b1", "is_disabled": 0, "is_reserved": 0}, {"rental_uris": {"ios": "https://dc.lft.to/lastmile_qr_scan", "android": "https://dc.lft.to/lastmile_qr_scan"}, "lon": -77.06330183333333, "type": "electric_bike", "fusion_lat": 0.0, "lat": 38.92107883333333, "name": "0b5972d4c34b2b5cb1699e76486207c2", "fusion_lon": 0.0, "bike_id": "0b5972d4c34b2b5cb1699e76486207c2", "is_disabled": 0, "is_reserved": 0}, {"rental_uris": {"ios": "https://dc.lft.to/lastmile_qr_scan", "android": "https://dc.lft.to/lastmile_qr_scan"}, "lon": -77.04836416666667, "type": "electric_scooter", "fusion_lat": 0.0, "lat": 38.903731, "name": "439c9d610ada1a7a7b3744f5f0bf213e", "fusion_lon": 0.0, "bike_id": "439c9d610ada1a7a7b3744f5f0bf213e", "is_disabled": 0, "is_reserved": 0}, {"rental_uris": {"ios": "https://dc.lft.to/lastmile_qr_scan", "android": "https://dc.lft.to/lastmile_qr_scan"}, "lon": -77.01368533333333, "type": "electric_scooter", "fusion_lat": 0.0, "lat": 38.863701, "name": "4bdbb725f6fc6a16019ec3dc9c1e4901", "fusion_lon": 0.0, "bike_id": "4bdbb725f6fc6a16019ec3dc9c1e4901", "is_disabled": 0, "is_reserved": 0}, {"rental_uris": {"ios": "https://dc.lft.to/lastmile_qr_scan", "android": "https://dc.lft.to/lastmile_qr_scan"}, "lon": -77.0120995, "type": "electric_bike", "fusion_lat": 0.0, "lat": 38.87089266666667, "name": "8638e91efadd2df7733661996cd34716", "fusion_lon": 0.0, "bike_id": "8638e91efadd2df7733661996cd34716", "is_disabled": 0, "is_reserved": 0}, {"rental_uris": {"ios": "https://dc.lft.to/lastmile_qr_scan", "android": "https://dc.lft.to/lastmile_qr_scan"}, "lon": -77.02224416666667, "type": "electric_scooter", "fusion_lat": 0.0, "lat": 38.89219833333333, "name": "9dd5b9869e67123a9114a01b9edf8c1a", "fusion_lon": 0.0, "bike_id": "9dd5b9869e67123a9114a01b9edf8c1a", "is_disabled": 0, "is_reserved": 0}, {"rental_uris": {"ios": "https://dc.lft.to/lastmile_qr_scan", "android": "https://dc.lft.to/lastmile_qr_scan"}, "lon": -77.0317545, "type": "electric_scooter", "fusion_lat": 0.0, "lat": 38.9127775, "name": "dbfc1673dc50a300a47979171efb88e0", "fusion_lon": 0.0, "bike_id": "dbfc1673dc50a300a47979171efb88e0", "is_disabled": 0, "is_reserved": 0}, {"rental_uris": {"ios": "https://dc.lft.to/lastmile_qr_scan", "android": "https://dc.lft.to/lastmile_qr_scan"}, "lon": -77.0320065, "type": "electric_scooter", "fusion_lat": 0.0, "lat": 38.89968666666667, "name": "185d56877426c209bcd33c44e8103caa", "fusion_lon": 0.0, "bike_id": "185d56877426c209bcd33c44e8103caa", "is_disabled": 0, "is_reserved": 0}, {"rental_uris": {"ios": "https://dc.lft.to/lastmile_qr_scan", "android": "https://dc.lft.to/lastmile_qr_scan"}, "lon": -76.96624416666667, "type": "electric_bike", "fusion_lat": 0.0, "lat": 38.94198266666667, "name": "de74d72815fa60860fbbf6d731f21c08", "fusion_lon": 0.0, "bike_id": "de74d72815fa60860fbbf6d731f21c08", "is_disabled": 0, "is_reserved": 0}, {"rental_uris": {"ios": "https://dc.lft.to/lastmile_qr_scan", "android": "https://dc.lft.to/lastmile_qr_scan"}, "lon": -77.00188466666667, "type": "electric_scooter", "fusion_lat": 0.0, "lat": 38.874926, "name": "f7f394fb1325053fe78f7e87e26f82b4", "fusion_lon": 0.0, "bike_id": "f7f394fb1325053fe78f7e87e26f82b4", "is_disabled": 0, "is_reserved": 0}, {"rental_uris": {"ios": "https://dc.lft.to/lastmile_qr_scan", "android": "https://dc.lft.to/lastmile_qr_scan"}, "lon": -76.9289325, "type": "electric_scooter", "fusion_lat": 0.0, "lat": 38.893293, "name": "f810df77acd2b346e72e23f3470cfec6", "fusion_lon": 0.0, "bike_id": "f810df77acd2b346e72e23f3470cfec6", "is_disabled": 0, "is_reserved": 0}, {"rental_uris": {"ios": "https://dc.lft.to/lastmile_qr_scan", "android": "https://dc.lft.to/lastmile_qr_scan"}, "lon": -77.02781, "type": "electric_scooter", "fusion_lat": 0.0, "lat": 38.89221333333333, "name": "6279f43aa10114d52cfbd73bf3cf7848", "fusion_lon": 0.0, "bike_id": "6279f43aa10114d52cfbd73bf3cf7848", "is_disabled": 0, "is_reserved": 0}, {"rental_uris": {"ios": "https://dc.lft.to/lastmile_qr_scan", "android": "https://dc.lft.to/lastmile_qr_scan"}, "lon": -77.02698716666667, "type": "electric_scooter", "fusion_lat": 0.0, "lat": 38.94978283333333, "name": "5ca6e759e6c9d1bbf677a3a45568204f", "fusion_lon": 0.0, "bike_id": "5ca6e759e6c9d1bbf677a3a45568204f", "is_disabled": 0, "is_reserved": 0}, {"rental_uris": {"ios": "https://dc.lft.to/lastmile_qr_scan", "android": "https://dc.lft.to/lastmile_qr_scan"}, "lon": -77.04607733333333, "type": "electric_scooter", "fusion_lat": 0.0, "lat": 38.90380416666667, "name": "a889e29d251e003cc06170052e5fe841", "fusion_lon": 0.0, "bike_id": "a889e29d251e003cc06170052e5fe841", "is_disabled": 0, "is_reserved": 0}, {"rental_uris": {"ios": "https://dc.lft.to/lastmile_qr_scan", "android": "https://dc.lft.to/lastmile_qr_scan"}, "lon": -77.01992866666667, "type": "electric_scooter", "fusion_lat": 0.0, "lat": 38.900728, "name": "5366b35419470769e6d5e6dad906b64f", "fusion_lon": 0.0, "bike_id": "5366b35419470769e6d5e6dad906b64f", "is_disabled": 0, "is_reserved": 0}, {"rental_uris": {"ios": "https://dc.lft.to/lastmile_qr_scan", "android": "https://dc.lft.to/lastmile_qr_scan"}, "lon": -77.0553705, "type": "electric_bike", "fusion_lat": 0.0, "lat": 38.92534233333333, "name": "2a5d6535af80d1a194f8a1f3c1a73969", "fusion_lon": 0.0, "bike_id": "2a5d6535af80d1a194f8a1f3c1a73969", "is_disabled": 0, "is_reserved": 0}, {"rental_uris": {"ios": "https://dc.lft.to/lastmile_qr_scan", "android": "https://dc.lft.to/lastmile_qr_scan"}, "lon": -77.04863933333333, "type": "electric_scooter", "fusion_lat": 0.0, "lat": 38.89222783333334, "name": "96dc821a1f88038c213a060bc477dca6", "fusion_lon": 0.0, "bike_id": "96dc821a1f88038c213a060bc477dca6", "is_disabled": 0, "is_reserved": 0}, {"rental_uris": {"ios": "https://dc.lft.to/lastmile_qr_scan", "android": "https://dc.lft.to/lastmile_qr_scan"}, "lon": -77.02969533333334, "type": "electric_scooter", "fusion_lat": 0.0, "lat": 38.90835416666667, "name": "cbda0b1e855d890ba6f0b6be98f58c62", "fusion_lon": 0.0, "bike_id": "cbda0b1e855d890ba6f0b6be98f58c62", "is_disabled": 0, "is_reserved": 0}, {"rental_uris": {"ios": "https://dc.lft.to/lastmile_qr_scan", "android": "https://dc.lft.to/lastmile_qr_scan"}, "lon": -77.043672, "type": "electric_scooter", "fusion_lat": 0.0, "lat": 38.93339233333333, "name": "93571ae5622362fe028e42ea902c2684", "fusion_lon": 0.0, "bike_id": "93571ae5622362fe028e42ea902c2684", "is_disabled": 0, "is_reserved": 0}, {"rental_uris": {"ios": "https://dc.lft.to/lastmile_qr_scan", "android": "https://dc.lft.to/lastmile_qr_scan"}, "lon": -76.94624583333334, "type": "electric_bike", "fusion_lat": 0.0, "lat": 38.83235633333334, "name": "cf3669f01d3d378f771ac02c7c812564", "fusion_lon": 0.0, "bike_id": "cf3669f01d3d378f771ac02c7c812564", "is_disabled": 0, "is_reserved": 0}, {"rental_uris": {"ios": "https://dc.lft.to/lastmile_qr_scan", "android": "https://dc.lft.to/lastmile_qr_scan"}, "lon": -76.985427, "type": "electric_scooter", "fusion_lat": 0.0, "lat": 38.904205166666664, "name": "0db1e36ad5a53aa0ea13eca3b0b76356", "fusion_lon": 0.0, "bike_id": "0db1e36ad5a53aa0ea13eca3b0b76356", "is_disabled": 0, "is_reserved": 0}, {"rental_uris": {"ios": "https://dc.lft.to/lastmile_qr_scan", "android": "https://dc.lft.to/lastmile_qr_scan"}, "lon": -76.939281, "type": "electric_scooter", "fusion_lat": 0.0, "lat": 38.892994, "name": "bf87d2185159d7c5081e8c1ac0ce0731", "fusion_lon": 0.0, "bike_id": "bf87d2185159d7c5081e8c1ac0ce0731", "is_disabled": 0, "is_reserved": 0}, {"rental_uris": {"ios": "https://dc.lft.to/lastmile_qr_scan", "android": "https://dc.lft.to/lastmile_qr_scan"}, "lon": -76.98070266666667, "type": "electric_scooter", "fusion_lat": 0.0, "lat": 38.9017055, "name": "1b89e573f76eda0a7b9c845912fffdce", "fusion_lon": 0.0, "bike_id": "1b89e573f76eda0a7b9c845912fffdce", "is_disabled": 0, "is_reserved": 0}, {"rental_uris": {"ios": "https://dc.lft.to/lastmile_qr_scan", "android": "https://dc.lft.to/lastmile_qr_scan"}, "lon": -77.02527616666667, "type": "electric_scooter", "fusion_lat": 0.0, "lat": 38.90101133333334, "name": "1803fab1f1a62a383f8c4435600e7b6b", "fusion_lon": 0.0, "bike_id": "1803fab1f1a62a383f8c4435600e7b6b", "is_disabled": 0, "is_reserved": 0}, {"rental_uris": {"ios": "https://dc.lft.to/lastmile_qr_scan", "android": "https://dc.lft.to/lastmile_qr_scan"}, "lon": -76.9961045, "type": "electric_scooter", "fusion_lat": 0.0, "lat": 38.886237, "name": "9bf5ffb9c6a69a2a48b8e97b33f573c7", "fusion_lon": 0.0, "bike_id": "9bf5ffb9c6a69a2a48b8e97b33f573c7", "is_disabled": 0, "is_reserved": 0}, {"rental_uris": {"ios": "https://dc.lft.to/lastmile_qr_scan", "android": "https://dc.lft.to/lastmile_qr_scan"}, "lon": -77.00517533333333, "type": "electric_scooter", "fusion_lat": 0.0, "lat": 38.874692833333334, "name": "8f0b1919d9eaca0a21ed151636c9715d", "fusion_lon": 0.0, "bike_id": "8f0b1919d9eaca0a21ed151636c9715d", "is_disabled": 0, "is_reserved": 0}, {"rental_uris": {"ios": "https://dc.lft.to/lastmile_qr_scan", "android": "https://dc.lft.to/lastmile_qr_scan"}, "lon": -77.0110365, "type": "electric_scooter", "fusion_lat": 0.0, "lat": 38.89507866666667, "name": "5e33047c7a27beffc2969f3eeaba8be4", "fusion_lon": 0.0, "bike_id": "5e33047c7a27beffc2969f3eeaba8be4", "is_disabled": 0, "is_reserved": 0}, {"rental_uris": {"ios": "https://dc.lft.to/lastmile_qr_scan", "android": "https://dc.lft.to/lastmile_qr_scan"}, "lon": -76.98885916666667, "type": "electric_scooter", "fusion_lat": 0.0, "lat": 38.866575166666664, "name": "676673a3089862396ad35f5d9b49845d", "fusion_lon": 0.0, "bike_id": "676673a3089862396ad35f5d9b49845d", "is_disabled": 0, "is_reserved": 0}, {"rental_uris": {"ios": "https://dc.lft.to/lastmile_qr_scan", "android": "https://dc.lft.to/lastmile_qr_scan"}, "lon": -76.97801533333333, "type": "electric_scooter", "fusion_lat": 0.0, "lat": 38.90315183333333, "name": "376889ca063ce5ba0b57aa41c5bf852f", "fusion_lon": 0.0, "bike_id": "376889ca063ce5ba0b57aa41c5bf852f", "is_disabled": 0, "is_reserved": 0}, {"rental_uris": {"ios": "https://dc.lft.to/lastmile_qr_scan", "android": "https://dc.lft.to/lastmile_qr_scan"}, "lon": -76.99774033333334, "type": "electric_bike", "fusion_lat": 0.0, "lat": 38.909263833333334, "name": "19cbf0dbe282856f01080948c7f40dfb", "fusion_lon": 0.0, "bike_id": "19cbf0dbe282856f01080948c7f40dfb", "is_disabled": 0, "is_reserved": 0}, {"rental_uris": {"ios": "https://dc.lft.to/lastmile_qr_scan", "android": "https://dc.lft.to/lastmile_qr_scan"}, "lon": -77.02783916666667, "type": "electric_scooter", "fusion_lat": 0.0, "lat": 38.918140333333334, "name": "59a4093b4a13ac90d9f233eaa6cd8fc8", "fusion_lon": 0.0, "bike_id": "59a4093b4a13ac90d9f233eaa6cd8fc8", "is_disabled": 0, "is_reserved": 0}, {"rental_uris": {"ios": "https://dc.lft.to/lastmile_qr_scan", "android": "https://dc.lft.to/lastmile_qr_scan"}, "lon": -77.04533566666667, "type": "electric_scooter", "fusion_lat": 0.0, "lat": 38.913298, "name": "781a5c843a6ce5e2d9e4330fffe6de0a", "fusion_lon": 0.0, "bike_id": "781a5c843a6ce5e2d9e4330fffe6de0a", "is_disabled": 0, "is_reserved": 0}, {"rental_uris": {"ios": "https://dc.lft.to/lastmile_qr_scan", "android": "https://dc.lft.to/lastmile_qr_scan"}, "lon": -77.04483183333333, "type": "electric_scooter", "fusion_lat": 0.0, "lat": 38.89679533333333, "name": "cf03be63808284adb60cc497d4930c6d", "fusion_lon": 0.0, "bike_id": "cf03be63808284adb60cc497d4930c6d", "is_disabled": 0, "is_reserved": 0}, {"rental_uris": {"ios": "https://dc.lft.to/lastmile_qr_scan", "android": "https://dc.lft.to/lastmile_qr_scan"}, "lon": -76.97553416666666, "type": "electric_scooter", "fusion_lat": 0.0, "lat": 38.904410666666664, "name": "43bc8ead91cda56aa60604b42bfaaa50", "fusion_lon": 0.0, "bike_id": "43bc8ead91cda56aa60604b42bfaaa50", "is_disabled": 0, "is_reserved": 0}, {"rental_uris": {"ios": "https://dc.lft.to/lastmile_qr_scan", "android": "https://dc.lft.to/lastmile_qr_scan"}, "lon": -77.04293616666666, "type": "electric_scooter", "fusion_lat": 0.0, "lat": 38.90550016666667, "name": "dda27f37e4ec061aeb895c8e7c962529", "fusion_lon": 0.0, "bike_id": "dda27f37e4ec061aeb895c8e7c962529", "is_disabled": 0, "is_reserved": 0}, {"rental_uris": {"ios": "https://dc.lft.to/lastmile_qr_scan", "android": "https://dc.lft.to/lastmile_qr_scan"}, "lon": -77.04225016666666, "type": "electric_scooter", "fusion_lat": 0.0, "lat": 38.921237166666664, "name": "66c373ea6cc4bd94c47232346a80a964", "fusion_lon": 0.0, "bike_id": "66c373ea6cc4bd94c47232346a80a964", "is_disabled": 0, "is_reserved": 0}, {"rental_uris": {"ios": "https://dc.lft.to/lastmile_qr_scan", "android": "https://dc.lft.to/lastmile_qr_scan"}, "lon": -77.00351066666667, "type": "electric_scooter", "fusion_lat": 0.0, "lat": 38.90821366666667, "name": "ded2ed337466dbc2c5ff2cb1ce45d4a9", "fusion_lon": 0.0, "bike_id": "ded2ed337466dbc2c5ff2cb1ce45d4a9", "is_disabled": 0, "is_reserved": 0}, {"rental_uris": {"ios": "https://dc.lft.to/lastmile_qr_scan", "android": "https://dc.lft.to/lastmile_qr_scan"}, "lon": -76.98563583333333, "type": "electric_scooter", "fusion_lat": 0.0, "lat": 38.8614415, "name": "d3bafd9487a89e01bec367d5ec567663", "fusion_lon": 0.0, "bike_id": "d3bafd9487a89e01bec367d5ec567663", "is_disabled": 0, "is_reserved": 0}, {"rental_uris": {"ios": "https://dc.lft.to/lastmile_qr_scan", "android": "https://dc.lft.to/lastmile_qr_scan"}, "lon": -76.99056183333333, "type": "electric_scooter", "fusion_lat": 0.0, "lat": 38.86353916666667, "name": "a219e0c351a2105b4302569d6eb60c2a", "fusion_lon": 0.0, "bike_id": "a219e0c351a2105b4302569d6eb60c2a", "is_disabled": 0, "is_reserved": 0}, {"rental_uris": {"ios": "https://dc.lft.to/lastmile_qr_scan", "android": "https://dc.lft.to/lastmile_qr_scan"}, "lon": -77.03195416666667, "type": "electric_scooter", "fusion_lat": 0.0, "lat": 38.912574666666664, "name": "2ba1b60125d421ea084f3d5bda3cc8c1", "fusion_lon": 0.0, "bike_id": "2ba1b60125d421ea084f3d5bda3cc8c1", "is_disabled": 0, "is_reserved": 0}, {"rental_uris": {"ios": "https://dc.lft.to/lastmile_qr_scan", "android": "https://dc.lft.to/lastmile_qr_scan"}, "lon": -77.00372716666666, "type": "electric_bike", "fusion_lat": 0.0, "lat": 38.8360465, "name": "3b309d516731231cce5fb39b3b1c3d8d", "fusion_lon": 0.0, "bike_id": "3b309d516731231cce5fb39b3b1c3d8d", "is_disabled": 0, "is_reserved": 0}, {"rental_uris": {"ios": "https://dc.lft.to/lastmile_qr_scan", "android": "https://dc.lft.to/lastmile_qr_scan"}, "lon": -77.02258433333333, "type": "electric_scooter", "fusion_lat": 0.0, "lat": 38.924483, "name": "147409df5536ca7910cf692b89be5e40", "fusion_lon": 0.0, "bike_id": "147409df5536ca7910cf692b89be5e40", "is_disabled": 0, "is_reserved": 0}, {"rental_uris": {"ios": "https://dc.lft.to/lastmile_qr_scan", "android": "https://dc.lft.to/lastmile_qr_scan"}, "lon": -77.0181455, "type": "electric_scooter", "fusion_lat": 0.0, "lat": 38.892428333333335, "name": "7d10d5d51d9bf3d8742e9b3b9debfa94", "fusion_lon": 0.0, "bike_id": "7d10d5d51d9bf3d8742e9b3b9debfa94", "is_disabled": 0, "is_reserved": 0}, {"rental_uris": {"ios": "https://dc.lft.to/lastmile_qr_scan", "android": "https://dc.lft.to/lastmile_qr_scan"}, "lon": -76.93160616666667, "type": "electric_bike", "fusion_lat": 0.0, "lat": 38.90863366666667, "name": "15f94988877bc99b50628c91721e7fc6", "fusion_lon": 0.0, "bike_id": "15f94988877bc99b50628c91721e7fc6", "is_disabled": 0, "is_reserved": 0}, {"rental_uris": {"ios": "https://dc.lft.to/lastmile_qr_scan", "android": "https://dc.lft.to/lastmile_qr_scan"}, "lon": -77.02812716666666, "type": "electric_scooter", "fusion_lat": 0.0, "lat": 38.96132133333333, "name": "08d9aaa00e7b7991d4d3cdcbaed2950b", "fusion_lon": 0.0, "bike_id": "08d9aaa00e7b7991d4d3cdcbaed2950b", "is_disabled": 0, "is_reserved": 0}, {"rental_uris": {"ios": "https://dc.lft.to/lastmile_qr_scan", "android": "https://dc.lft.to/lastmile_qr_scan"}, "lon": -77.04423, "type": "electric_scooter", "fusion_lat": 0.0, "lat": 38.91131633333333, "name": "966d44c53c2d030bd927fec632117b58", "fusion_lon": 0.0, "bike_id": "966d44c53c2d030bd927fec632117b58", "is_disabled": 0, "is_reserved": 0}, {"rental_uris": {"ios": "https://dc.lft.to/lastmile_qr_scan", "android": "https://dc.lft.to/lastmile_qr_scan"}, "lon": -76.9700625, "type": "electric_bike", "fusion_lat": 0.0, "lat": 38.8637255, "name": "2a5267163e10eeb9632b0abaaeef93c1", "fusion_lon": 0.0, "bike_id": "2a5267163e10eeb9632b0abaaeef93c1", "is_disabled": 0, "is_reserved": 0}, {"rental_uris": {"ios": "https://dc.lft.to/lastmile_qr_scan", "android": "https://dc.lft.to/lastmile_qr_scan"}, "lon": -77.01897133333334, "type": "electric_scooter", "fusion_lat": 0.0, "lat": 38.876619833333336, "name": "06203325aa619b2ae25e0190f105589b", "fusion_lon": 0.0, "bike_id": "06203325aa619b2ae25e0190f105589b", "is_disabled": 0, "is_reserved": 0}, {"rental_uris": {"ios": "https://dc.lft.to/lastmile_qr_scan", "android": "https://dc.lft.to/lastmile_qr_scan"}, "lon": -77.061244, "type": "electric_bike", "fusion_lat": 0.0, "lat": 38.90198216666667, "name": "8209cd907834df3825016033b33265df", "fusion_lon": 0.0, "bike_id": "8209cd907834df3825016033b33265df", "is_disabled": 0, "is_reserved": 0}, {"rental_uris": {"ios": "https://dc.lft.to/lastmile_qr_scan", "android": "https://dc.lft.to/lastmile_qr_scan"}, "lon": -77.03469216666667, "type": "electric_scooter", "fusion_lat": 0.0, "lat": 38.921531, "name": "ac35ffa8655b27f13fd55531390eb760", "fusion_lon": 0.0, "bike_id": "ac35ffa8655b27f13fd55531390eb760", "is_disabled": 0, "is_reserved": 0}, {"rental_uris": {"ios": "https://dc.lft.to/lastmile_qr_scan", "android": "https://dc.lft.to/lastmile_qr_scan"}, "lon": -77.02619233333333, "type": "electric_scooter", "fusion_lat": 0.0, "lat": 38.90543016666667, "name": "d845735e43bbadb0d938d9325520e2c9", "fusion_lon": 0.0, "bike_id": "d845735e43bbadb0d938d9325520e2c9", "is_disabled": 0, "is_reserved": 0}, {"rental_uris": {"ios": "https://dc.lft.to/lastmile_qr_scan", "android": "https://dc.lft.to/lastmile_qr_scan"}, "lon": -77.01742583333333, "type": "electric_bike", "fusion_lat": 0.0, "lat": 39.000143666666666, "name": "8b5d9793c9a24d499dafd14f101a7a3e", "fusion_lon": 0.0, "bike_id": "8b5d9793c9a24d499dafd14f101a7a3e", "is_disabled": 0, "is_reserved": 0}, {"rental_uris": {"ios": "https://dc.lft.to/lastmile_qr_scan", "android": "https://dc.lft.to/lastmile_qr_scan"}, "lon": -77.05526283333333, "type": "electric_scooter", "fusion_lat": 0.0, "lat": 38.927895, "name": "587b06286c3f17c4eaf4e3abb08710bd", "fusion_lon": 0.0, "bike_id": "587b06286c3f17c4eaf4e3abb08710bd", "is_disabled": 0, "is_reserved": 0}, {"rental_uris": {"ios": "https://dc.lft.to/lastmile_qr_scan", "android": "https://dc.lft.to/lastmile_qr_scan"}, "lon": -77.027493, "type": "electric_scooter", "fusion_lat": 0.0, "lat": 38.9396145, "name": "0c89a8669132aa812f2a74320c438ea9", "fusion_lon": 0.0, "bike_id": "0c89a8669132aa812f2a74320c438ea9", "is_disabled": 0, "is_reserved": 0}, {"rental_uris": {"ios": "https://dc.lft.to/lastmile_qr_scan", "android": "https://dc.lft.to/lastmile_qr_scan"}, "lon": -77.0214405, "type": "electric_scooter", "fusion_lat": 0.0, "lat": 38.894851333333335, "name": "8ad9bb4622a8197abf9c992b9fe06ff7", "fusion_lon": 0.0, "bike_id": "8ad9bb4622a8197abf9c992b9fe06ff7", "is_disabled": 0, "is_reserved": 0}, {"rental_uris": {"ios": "https://dc.lft.to/lastmile_qr_scan", "android": "https://dc.lft.to/lastmile_qr_scan"}, "lon": -76.9849565, "type": "electric_scooter", "fusion_lat": 0.0, "lat": 38.8604515, "name": "4b6643f93f7a5819c65b77c0d7cf6239", "fusion_lon": 0.0, "bike_id": "4b6643f93f7a5819c65b77c0d7cf6239", "is_disabled": 0, "is_reserved": 0}, {"rental_uris": {"ios": "https://dc.lft.to/lastmile_qr_scan", "android": "https://dc.lft.to/lastmile_qr_scan"}, "lon": -76.97890183333334, "type": "electric_scooter", "fusion_lat": 0.0, "lat": 38.904221666666665, "name": "04ca3f3b5b65bde7bf324e12894d1263", "fusion_lon": 0.0, "bike_id": "04ca3f3b5b65bde7bf324e12894d1263", "is_disabled": 0, "is_reserved": 0}, {"rental_uris": {"ios": "https://dc.lft.to/lastmile_qr_scan", "android": "https://dc.lft.to/lastmile_qr_scan"}, "lon": -77.03915983333333, "type": "electric_scooter", "fusion_lat": 0.0, "lat": 38.89914783333333, "name": "dbab1aef595c1939b5fdcca3c69c7169", "fusion_lon": 0.0, "bike_id": "dbab1aef595c1939b5fdcca3c69c7169", "is_disabled": 0, "is_reserved": 0}, {"rental_uris": {"ios": "https://dc.lft.to/lastmile_qr_scan", "android": "https://dc.lft.to/lastmile_qr_scan"}, "lon": -76.98742483333334, "type": "electric_bike", "fusion_lat": 0.0, "lat": 38.857942666666666, "name": "abc9393fc51794b43c57bfaef18c9a2c", "fusion_lon": 0.0, "bike_id": "abc9393fc51794b43c57bfaef18c9a2c", "is_disabled": 0, "is_reserved": 0}, {"rental_uris": {"ios": "https://dc.lft.to/lastmile_qr_scan", "android": "https://dc.lft.to/lastmile_qr_scan"}, "lon": -77.02046283333334, "type": "electric_scooter", "fusion_lat": 0.0, "lat": 38.9155575, "name": "87fba915a222635cfdae1483d44c8bf4", "fusion_lon": 0.0, "bike_id": "87fba915a222635cfdae1483d44c8bf4", "is_disabled": 0, "is_reserved": 0}, {"rental_uris": {"ios": "https://dc.lft.to/lastmile_qr_scan", "android": "https://dc.lft.to/lastmile_qr_scan"}, "lon": -76.99596283333334, "type": "electric_scooter", "fusion_lat": 0.0, "lat": 38.8454155, "name": "4dbe859d368b547ffadbd4b8ede982c9", "fusion_lon": 0.0, "bike_id": "4dbe859d368b547ffadbd4b8ede982c9", "is_disabled": 0, "is_reserved": 0}, {"rental_uris": {"ios": "https://dc.lft.to/lastmile_qr_scan", "android": "https://dc.lft.to/lastmile_qr_scan"}, "lon": -77.0153165, "type": "electric_scooter", "fusion_lat": 0.0, "lat": 38.90200033333333, "name": "f467cf78d72c528790aa3ce9139ba8c7", "fusion_lon": 0.0, "bike_id": "f467cf78d72c528790aa3ce9139ba8c7", "is_disabled": 0, "is_reserved": 0}, {"rental_uris": {"ios": "https://dc.lft.to/lastmile_qr_scan", "android": "https://dc.lft.to/lastmile_qr_scan"}, "lon": -77.01389033333334, "type": "electric_scooter", "fusion_lat": 0.0, "lat": 38.970142333333335, "name": "09a90c194d1aa608a6649400b24b91ba", "fusion_lon": 0.0, "bike_id": "09a90c194d1aa608a6649400b24b91ba", "is_disabled": 0, "is_reserved": 0}, {"rental_uris": {"ios": "https://dc.lft.to/lastmile_qr_scan", "android": "https://dc.lft.to/lastmile_qr_scan"}, "lon": -77.03172783333333, "type": "electric_scooter", "fusion_lat": 0.0, "lat": 38.913381666666666, "name": "6f53e0d955a7c73a3972cc50b860fec4", "fusion_lon": 0.0, "bike_id": "6f53e0d955a7c73a3972cc50b860fec4", "is_disabled": 0, "is_reserved": 0}, {"rental_uris": {"ios": "https://dc.lft.to/lastmile_qr_scan", "android": "https://dc.lft.to/lastmile_qr_scan"}, "lon": -77.10086216666667, "type": "electric_bike", "fusion_lat": 0.0, "lat": 38.959583, "name": "dadd6fff507c6a3da19833b09916610f", "fusion_lon": 0.0, "bike_id": "dadd6fff507c6a3da19833b09916610f", "is_disabled": 0, "is_reserved": 0}, {"rental_uris": {"ios": "https://dc.lft.to/lastmile_qr_scan", "android": "https://dc.lft.to/lastmile_qr_scan"}, "lon": -77.04469316666666, "type": "electric_scooter", "fusion_lat": 0.0, "lat": 38.91109483333334, "name": "961c4bb86a04f06c75f1cca299279a0e", "fusion_lon": 0.0, "bike_id": "961c4bb86a04f06c75f1cca299279a0e", "is_disabled": 0, "is_reserved": 0}, {"rental_uris": {"ios": "https://dc.lft.to/lastmile_qr_scan", "android": "https://dc.lft.to/lastmile_qr_scan"}, "lon": -77.03666783333334, "type": "electric_scooter", "fusion_lat": 0.0, "lat": 38.918157, "name": "1dee9ced92295f60ade0f8fb9673f8e1", "fusion_lon": 0.0, "bike_id": "1dee9ced92295f60ade0f8fb9673f8e1", "is_disabled": 0, "is_reserved": 0}, {"rental_uris": {"ios": "https://dc.lft.to/lastmile_qr_scan", "android": "https://dc.lft.to/lastmile_qr_scan"}, "lon": -77.02708333333334, "type": "electric_scooter", "fusion_lat": 0.0, "lat": 38.91806716666667, "name": "02276f4b7b53daed37677f35c608fa30", "fusion_lon": 0.0, "bike_id": "02276f4b7b53daed37677f35c608fa30", "is_disabled": 0, "is_reserved": 0}, {"rental_uris": {"ios": "https://dc.lft.to/lastmile_qr_scan", "android": "https://dc.lft.to/lastmile_qr_scan"}, "lon": -77.03867316666667, "type": "electric_scooter", "fusion_lat": 0.0, "lat": 38.921519833333335, "name": "f3d1749ac035ee271ac7993b90f222e3", "fusion_lon": 0.0, "bike_id": "f3d1749ac035ee271ac7993b90f222e3", "is_disabled": 0, "is_reserved": 0}, {"rental_uris": {"ios": "https://dc.lft.to/lastmile_qr_scan", "android": "https://dc.lft.to/lastmile_qr_scan"}, "lon": -77.03195266666667, "type": "electric_scooter", "fusion_lat": 0.0, "lat": 38.91671616666667, "name": "29826a4844fe5e1b919f42e9bfc3f3f8", "fusion_lon": 0.0, "bike_id": "29826a4844fe5e1b919f42e9bfc3f3f8", "is_disabled": 0, "is_reserved": 0}, {"rental_uris": {"ios": "https://dc.lft.to/lastmile_qr_scan", "android": "https://dc.lft.to/lastmile_qr_scan"}, "lon": -76.98955783333334, "type": "electric_scooter", "fusion_lat": 0.0, "lat": 38.90135766666667, "name": "08d554fe9d2abbc4f844460da60b3e08", "fusion_lon": 0.0, "bike_id": "08d554fe9d2abbc4f844460da60b3e08", "is_disabled": 0, "is_reserved": 0}, {"rental_uris": {"ios": "https://dc.lft.to/lastmile_qr_scan", "android": "https://dc.lft.to/lastmile_qr_scan"}, "lon": -76.9883965, "type": "electric_bike", "fusion_lat": 0.0, "lat": 38.842773666666666, "name": "737ff316fbf5a297d93c582048daab4f", "fusion_lon": 0.0, "bike_id": "737ff316fbf5a297d93c582048daab4f", "is_disabled": 0, "is_reserved": 0}, {"rental_uris": {"ios": "https://dc.lft.to/lastmile_qr_scan", "android": "https://dc.lft.to/lastmile_qr_scan"}, "lon": -77.0197495, "type": "electric_scooter", "fusion_lat": 0.0, "lat": 38.88744066666667, "name": "8e8f6913ad724e12158ade119e5a1422", "fusion_lon": 0.0, "bike_id": "8e8f6913ad724e12158ade119e5a1422", "is_disabled": 0, "is_reserved": 0}, {"rental_uris": {"ios": "https://dc.lft.to/lastmile_qr_scan", "android": "https://dc.lft.to/lastmile_qr_scan"}, "lon": -77.04358516666667, "type": "electric_scooter", "fusion_lat": 0.0, "lat": 38.892310333333334, "name": "0d61e5f04bef36fc631eee64050a80f6", "fusion_lon": 0.0, "bike_id": "0d61e5f04bef36fc631eee64050a80f6", "is_disabled": 0, "is_reserved": 0}, {"rental_uris": {"ios": "https://dc.lft.to/lastmile_qr_scan", "android": "https://dc.lft.to/lastmile_qr_scan"}, "lon": -77.00829233333333, "type": "electric_scooter", "fusion_lat": 0.0, "lat": 38.879124166666664, "name": "77319de2538eb01f372d91f7da98ba0b", "fusion_lon": 0.0, "bike_id": "77319de2538eb01f372d91f7da98ba0b", "is_disabled": 0, "is_reserved": 0}, {"rental_uris": {"ios": "https://dc.lft.to/lastmile_qr_scan", "android": "https://dc.lft.to/lastmile_qr_scan"}, "lon": -77.01227183333333, "type": "electric_scooter", "fusion_lat": 0.0, "lat": 38.900424, "name": "983ad604f03b1097070d3fd75ea2dd46", "fusion_lon": 0.0, "bike_id": "983ad604f03b1097070d3fd75ea2dd46", "is_disabled": 0, "is_reserved": 0}, {"rental_uris": {"ios": "https://dc.lft.to/lastmile_qr_scan", "android": "https://dc.lft.to/lastmile_qr_scan"}, "lon": -77.03795433333333, "type": "electric_scooter", "fusion_lat": 0.0, "lat": 38.92630533333333, "name": "84240415c9f1aef6efb3c642a9197971", "fusion_lon": 0.0, "bike_id": "84240415c9f1aef6efb3c642a9197971", "is_disabled": 0, "is_reserved": 0}, {"rental_uris": {"ios": "https://dc.lft.to/lastmile_qr_scan", "android": "https://dc.lft.to/lastmile_qr_scan"}, "lon": -77.07776816666667, "type": "electric_scooter", "fusion_lat": 0.0, "lat": 38.9456185, "name": "32ee722c991e638bbe677aaaaac29a2a", "fusion_lon": 0.0, "bike_id": "32ee722c991e638bbe677aaaaac29a2a", "is_disabled": 0, "is_reserved": 0}, {"rental_uris": {"ios": "https://dc.lft.to/lastmile_qr_scan", "android": "https://dc.lft.to/lastmile_qr_scan"}, "lon": -77.02591033333333, "type": "electric_bike", "fusion_lat": 0.0, "lat": 38.92738, "name": "f9c146e22171fa5699f5f744c1c11af9", "fusion_lon": 0.0, "bike_id": "f9c146e22171fa5699f5f744c1c11af9", "is_disabled": 0, "is_reserved": 0}, {"rental_uris": {"ios": "https://dc.lft.to/lastmile_qr_scan", "android": "https://dc.lft.to/lastmile_qr_scan"}, "lon": -77.06235883333333, "type": "electric_scooter", "fusion_lat": 0.0, "lat": 38.90684783333333, "name": "6e199de09424b5dfec96ecbb775deeb3", "fusion_lon": 0.0, "bike_id": "6e199de09424b5dfec96ecbb775deeb3", "is_disabled": 0, "is_reserved": 0}, {"rental_uris": {"ios": "https://dc.lft.to/lastmile_qr_scan", "android": "https://dc.lft.to/lastmile_qr_scan"}, "lon": -77.03848666666667, "type": "electric_scooter", "fusion_lat": 0.0, "lat": 38.9047035, "name": "12182115dc4dad7f3460ab3007d1d6f4", "fusion_lon": 0.0, "bike_id": "12182115dc4dad7f3460ab3007d1d6f4", "is_disabled": 0, "is_reserved": 0}, {"rental_uris": {"ios": "https://dc.lft.to/lastmile_qr_scan", "android": "https://dc.lft.to/lastmile_qr_scan"}, "lon": -77.04062366666666, "type": "electric_scooter", "fusion_lat": 0.0, "lat": 38.91772233333333, "name": "fbf6374e9dcafed6c8bd5b554b36aba9", "fusion_lon": 0.0, "bike_id": "fbf6374e9dcafed6c8bd5b554b36aba9", "is_disabled": 0, "is_reserved": 0}, {"rental_uris": {"ios": "https://dc.lft.to/lastmile_qr_scan", "android": "https://dc.lft.to/lastmile_qr_scan"}, "lon": -77.043357, "type": "electric_scooter", "fusion_lat": 0.0, "lat": 38.892222333333336, "name": "891ef5d323dc3c9df7a448472a763fc5", "fusion_lon": 0.0, "bike_id": "891ef5d323dc3c9df7a448472a763fc5", "is_disabled": 0, "is_reserved": 0}, {"rental_uris": {"ios": "https://dc.lft.to/lastmile_qr_scan", "android": "https://dc.lft.to/lastmile_qr_scan"}, "lon": -77.03381966666667, "type": "electric_scooter", "fusion_lat": 0.0, "lat": 38.899681333333334, "name": "e87a4b34f1ca484a60bd05e48105eba0", "fusion_lon": 0.0, "bike_id": "e87a4b34f1ca484a60bd05e48105eba0", "is_disabled": 0, "is_reserved": 0}, {"rental_uris": {"ios": "https://dc.lft.to/lastmile_qr_scan", "android": "https://dc.lft.to/lastmile_qr_scan"}, "lon": -77.02076516666666, "type": "electric_scooter", "fusion_lat": 0.0, "lat": 38.91553183333333, "name": "8b2a69f6b744fe54a6fa2d5896ade177", "fusion_lon": 0.0, "bike_id": "8b2a69f6b744fe54a6fa2d5896ade177", "is_disabled": 0, "is_reserved": 0}, {"rental_uris": {"ios": "https://dc.lft.to/lastmile_qr_scan", "android": "https://dc.lft.to/lastmile_qr_scan"}, "lon": -77.04756283333333, "type": "electric_scooter", "fusion_lat": 0.0, "lat": 38.91240483333333, "name": "8925fa188e24d67c4d5a871ef9ed6e03", "fusion_lon": 0.0, "bike_id": "8925fa188e24d67c4d5a871ef9ed6e03", "is_disabled": 0, "is_reserved": 0}, {"rental_uris": {"ios": "https://dc.lft.to/lastmile_qr_scan", "android": "https://dc.lft.to/lastmile_qr_scan"}, "lon": -77.00785666666667, "type": "electric_bike", "fusion_lat": 0.0, "lat": 38.92693633333333, "name": "783122ed3db62837a4f7741e502b26a6", "fusion_lon": 0.0, "bike_id": "783122ed3db62837a4f7741e502b26a6", "is_disabled": 0, "is_reserved": 0}, {"rental_uris": {"ios": "https://dc.lft.to/lastmile_qr_scan", "android": "https://dc.lft.to/lastmile_qr_scan"}, "lon": -77.0522595, "type": "electric_scooter", "fusion_lat": 0.0, "lat": 38.8981555, "name": "18960b33524d2141ba01035988446408", "fusion_lon": 0.0, "bike_id": "18960b33524d2141ba01035988446408", "is_disabled": 0, "is_reserved": 0}, {"rental_uris": {"ios": "https://dc.lft.to/lastmile_qr_scan", "android": "https://dc.lft.to/lastmile_qr_scan"}, "lon": -77.03183683333333, "type": "electric_scooter", "fusion_lat": 0.0, "lat": 38.887419, "name": "d49c898f2721641711160bf6bb51d4db", "fusion_lon": 0.0, "bike_id": "d49c898f2721641711160bf6bb51d4db", "is_disabled": 0, "is_reserved": 0}, {"rental_uris": {"ios": "https://dc.lft.to/lastmile_qr_scan", "android": "https://dc.lft.to/lastmile_qr_scan"}, "lon": -76.983684, "type": "electric_bike", "fusion_lat": 0.0, "lat": 38.902294, "name": "6a19fa346f7b87432df39a46e960bccc", "fusion_lon": 0.0, "bike_id": "6a19fa346f7b87432df39a46e960bccc", "is_disabled": 0, "is_reserved": 0}, {"rental_uris": {"ios": "https://dc.lft.to/lastmile_qr_scan", "android": "https://dc.lft.to/lastmile_qr_scan"}, "lon": -77.36096066666667, "type": "electric_bike", "fusion_lat": 0.0, "lat": 38.9395485, "name": "9b5eacbcbdfc2602fdc466e2e705b52c", "fusion_lon": 0.0, "bike_id": "9b5eacbcbdfc2602fdc466e2e705b52c", "is_disabled": 0, "is_reserved": 0}, {"rental_uris": {"ios": "https://dc.lft.to/lastmile_qr_scan", "android": "https://dc.lft.to/lastmile_qr_scan"}, "lon": -77.0532645, "type": "electric_scooter", "fusion_lat": 0.0, "lat": 38.900208166666665, "name": "2cd51d346103689de09bbb786eb0a946", "fusion_lon": 0.0, "bike_id": "2cd51d346103689de09bbb786eb0a946", "is_disabled": 0, "is_reserved": 0}, {"rental_uris": {"ios": "https://dc.lft.to/lastmile_qr_scan", "android": "https://dc.lft.to/lastmile_qr_scan"}, "lon": -77.01982783333334, "type": "electric_scooter", "fusion_lat": 0.0, "lat": 38.886279333333334, "name": "89b85fb8fa819143abc9722544a48631", "fusion_lon": 0.0, "bike_id": "89b85fb8fa819143abc9722544a48631", "is_disabled": 0, "is_reserved": 0}, {"rental_uris": {"ios": "https://dc.lft.to/lastmile_qr_scan", "android": "https://dc.lft.to/lastmile_qr_scan"}, "lon": -76.979852, "type": "electric_bike", "fusion_lat": 0.0, "lat": 38.87752, "name": "5ec29c20c1841f174bee1766489d9783", "fusion_lon": 0.0, "bike_id": "5ec29c20c1841f174bee1766489d9783", "is_disabled": 0, "is_reserved": 0}, {"rental_uris": {"ios": "https://dc.lft.to/lastmile_qr_scan", "android": "https://dc.lft.to/lastmile_qr_scan"}, "lon": -77.0092485, "type": "electric_scooter", "fusion_lat": 0.0, "lat": 38.902439, "name": "ea1c365b40fcf3560984c7833621e924", "fusion_lon": 0.0, "bike_id": "ea1c365b40fcf3560984c7833621e924", "is_disabled": 0, "is_reserved": 0}, {"rental_uris": {"ios": "https://dc.lft.to/lastmile_qr_scan", "android": "https://dc.lft.to/lastmile_qr_scan"}, "lon": -76.94752733333334, "type": "electric_scooter", "fusion_lat": 0.0, "lat": 38.900528666666666, "name": "541b4b8aba2accadccc399e7faf4f60f", "fusion_lon": 0.0, "bike_id": "541b4b8aba2accadccc399e7faf4f60f", "is_disabled": 0, "is_reserved": 0}, {"rental_uris": {"ios": "https://dc.lft.to/lastmile_qr_scan", "android": "https://dc.lft.to/lastmile_qr_scan"}, "lon": -77.0364315, "type": "electric_scooter", "fusion_lat": 0.0, "lat": 38.9173265, "name": "e689c17253f710c62315c30b9e9d467f", "fusion_lon": 0.0, "bike_id": "e689c17253f710c62315c30b9e9d467f", "is_disabled": 0, "is_reserved": 0}, {"rental_uris": {"ios": "https://dc.lft.to/lastmile_qr_scan", "android": "https://dc.lft.to/lastmile_qr_scan"}, "lon": -76.96526933333334, "type": "electric_scooter", "fusion_lat": 0.0, "lat": 38.87628433333333, "name": "c9db2296ece119c0c7e6f56c75cfc6e7", "fusion_lon": 0.0, "bike_id": "c9db2296ece119c0c7e6f56c75cfc6e7", "is_disabled": 0, "is_reserved": 0}, {"rental_uris": {"ios": "https://dc.lft.to/lastmile_qr_scan", "android": "https://dc.lft.to/lastmile_qr_scan"}, "lon": -77.03184333333333, "type": "electric_scooter", "fusion_lat": 0.0, "lat": 38.9181825, "name": "c440221e83f49b0ce3d86c7dc96dfdc1", "fusion_lon": 0.0, "bike_id": "c440221e83f49b0ce3d86c7dc96dfdc1", "is_disabled": 0, "is_reserved": 0}, {"rental_uris": {"ios": "https://dc.lft.to/lastmile_qr_scan", "android": "https://dc.lft.to/lastmile_qr_scan"}, "lon": -76.96376283333333, "type": "electric_bike", "fusion_lat": 0.0, "lat": 38.948952166666665, "name": "9403eee53fc41e1ecab16089ffb42720", "fusion_lon": 0.0, "bike_id": "9403eee53fc41e1ecab16089ffb42720", "is_disabled": 0, "is_reserved": 0}, {"rental_uris": {"ios": "https://dc.lft.to/lastmile_qr_scan", "android": "https://dc.lft.to/lastmile_qr_scan"}, "lon": -77.03439566666667, "type": "electric_scooter", "fusion_lat": 0.0, "lat": 38.91822233333333, "name": "f869c5a0e74a17ea935b0f247b002245", "fusion_lon": 0.0, "bike_id": "f869c5a0e74a17ea935b0f247b002245", "is_disabled": 0, "is_reserved": 0}, {"rental_uris": {"ios": "https://dc.lft.to/lastmile_qr_scan", "android": "https://dc.lft.to/lastmile_qr_scan"}, "lon": -77.029632, "type": "electric_scooter", "fusion_lat": 0.0, "lat": 38.9268575, "name": "bb5e63d0208d0b090e56a65bfd8257c6", "fusion_lon": 0.0, "bike_id": "bb5e63d0208d0b090e56a65bfd8257c6", "is_disabled": 0, "is_reserved": 0}, {"rental_uris": {"ios": "https://dc.lft.to/lastmile_qr_scan", "android": "https://dc.lft.to/lastmile_qr_scan"}, "lon": -77.03222383333333, "type": "electric_scooter", "fusion_lat": 0.0, "lat": 38.92582316666667, "name": "54092c06a41b4a57303a506f5ad89435", "fusion_lon": 0.0, "bike_id": "54092c06a41b4a57303a506f5ad89435", "is_disabled": 0, "is_reserved": 0}, {"rental_uris": {"ios": "https://dc.lft.to/lastmile_qr_scan", "android": "https://dc.lft.to/lastmile_qr_scan"}, "lon": -77.02573466666666, "type": "electric_bike", "fusion_lat": 0.0, "lat": 38.8958885, "name": "cec19fdb6df25abce4729e8d3fe84cd8", "fusion_lon": 0.0, "bike_id": "cec19fdb6df25abce4729e8d3fe84cd8", "is_disabled": 0, "is_reserved": 0}, {"rental_uris": {"ios": "https://dc.lft.to/lastmile_qr_scan", "android": "https://dc.lft.to/lastmile_qr_scan"}, "lon": -77.024704, "type": "electric_scooter", "fusion_lat": 0.0, "lat": 38.9382105, "name": "039d7cd5dd0571734ac92cc8e47a3e07", "fusion_lon": 0.0, "bike_id": "039d7cd5dd0571734ac92cc8e47a3e07", "is_disabled": 0, "is_reserved": 0}, {"rental_uris": {"ios": "https://dc.lft.to/lastmile_qr_scan", "android": "https://dc.lft.to/lastmile_qr_scan"}, "lon": -77.01111866666666, "type": "electric_scooter", "fusion_lat": 0.0, "lat": 38.90360233333333, "name": "74f1d82d067357504e01bb019f5ca387", "fusion_lon": 0.0, "bike_id": "74f1d82d067357504e01bb019f5ca387", "is_disabled": 0, "is_reserved": 0}, {"rental_uris": {"ios": "https://dc.lft.to/lastmile_qr_scan", "android": "https://dc.lft.to/lastmile_qr_scan"}, "lon": -77.11522833333333, "type": "electric_bike", "fusion_lat": 0.0, "lat": 38.854912666666664, "name": "b089bdd52136a69a85901a15359cb187", "fusion_lon": 0.0, "bike_id": "b089bdd52136a69a85901a15359cb187", "is_disabled": 0, "is_reserved": 0}, {"rental_uris": {"ios": "https://dc.lft.to/lastmile_qr_scan", "android": "https://dc.lft.to/lastmile_qr_scan"}, "lon": -77.0514085, "type": "electric_scooter", "fusion_lat": 0.0, "lat": 38.906326, "name": "d9f4c67bfaac79400e9baff20854bb7b", "fusion_lon": 0.0, "bike_id": "d9f4c67bfaac79400e9baff20854bb7b", "is_disabled": 0, "is_reserved": 0}, {"rental_uris": {"ios": "https://dc.lft.to/lastmile_qr_scan", "android": "https://dc.lft.to/lastmile_qr_scan"}, "lon": -77.04474583333334, "type": "electric_scooter", "fusion_lat": 0.0, "lat": 38.91118483333333, "name": "c0c11b1dd3f4e91708aa7b97f0db0b4f", "fusion_lon": 0.0, "bike_id": "c0c11b1dd3f4e91708aa7b97f0db0b4f", "is_disabled": 0, "is_reserved": 0}, {"rental_uris": {"ios": "https://dc.lft.to/lastmile_qr_scan", "android": "https://dc.lft.to/lastmile_qr_scan"}, "lon": -77.07093633333334, "type": "electric_scooter", "fusion_lat": 0.0, "lat": 38.8991185, "name": "6b3ad3d9a76c508538e30dd842c65e70", "fusion_lon": 0.0, "bike_id": "6b3ad3d9a76c508538e30dd842c65e70", "is_disabled": 0, "is_reserved": 0}, {"rental_uris": {"ios": "https://dc.lft.to/lastmile_qr_scan", "android": "https://dc.lft.to/lastmile_qr_scan"}, "lon": -76.98194833333334, "type": "electric_scooter", "fusion_lat": 0.0, "lat": 38.903927833333334, "name": "c394045696d4b68e08efad6b7252a892", "fusion_lon": 0.0, "bike_id": "c394045696d4b68e08efad6b7252a892", "is_disabled": 0, "is_reserved": 0}, {"rental_uris": {"ios": "https://dc.lft.to/lastmile_qr_scan", "android": "https://dc.lft.to/lastmile_qr_scan"}, "lon": -77.0020955, "type": "electric_scooter", "fusion_lat": 0.0, "lat": 38.89720616666666, "name": "50ba7b5b26aab9a3f5c7a4a2acb5e3ba", "fusion_lon": 0.0, "bike_id": "50ba7b5b26aab9a3f5c7a4a2acb5e3ba", "is_disabled": 0, "is_reserved": 0}, {"rental_uris": {"ios": "https://dc.lft.to/lastmile_qr_scan", "android": "https://dc.lft.to/lastmile_qr_scan"}, "lon": -77.03139383333334, "type": "electric_scooter", "fusion_lat": 0.0, "lat": 38.91124466666667, "name": "a567705dc941fd7b6cd03e12e9662b5d", "fusion_lon": 0.0, "bike_id": "a567705dc941fd7b6cd03e12e9662b5d", "is_disabled": 0, "is_reserved": 0}, {"rental_uris": {"ios": "https://dc.lft.to/lastmile_qr_scan", "android": "https://dc.lft.to/lastmile_qr_scan"}, "lon": -76.99256283333334, "type": "electric_scooter", "fusion_lat": 0.0, "lat": 38.91966583333333, "name": "7ef3e78a03be0813ed5c7c5007bb15af", "fusion_lon": 0.0, "bike_id": "7ef3e78a03be0813ed5c7c5007bb15af", "is_disabled": 0, "is_reserved": 0}, {"rental_uris": {"ios": "https://dc.lft.to/lastmile_qr_scan", "android": "https://dc.lft.to/lastmile_qr_scan"}, "lon": -77.03185966666666, "type": "electric_scooter", "fusion_lat": 0.0, "lat": 38.88744533333333, "name": "6dc4efe39846e4205985959a71ad70e5", "fusion_lon": 0.0, "bike_id": "6dc4efe39846e4205985959a71ad70e5", "is_disabled": 0, "is_reserved": 0}, {"rental_uris": {"ios": "https://dc.lft.to/lastmile_qr_scan", "android": "https://dc.lft.to/lastmile_qr_scan"}, "lon": -77.05506766666667, "type": "electric_scooter", "fusion_lat": 0.0, "lat": 38.929772166666666, "name": "6acf69c50b56fdb32ab2c6c7c9025898", "fusion_lon": 0.0, "bike_id": "6acf69c50b56fdb32ab2c6c7c9025898", "is_disabled": 0, "is_reserved": 0}, {"rental_uris": {"ios": "https://dc.lft.to/lastmile_qr_scan", "android": "https://dc.lft.to/lastmile_qr_scan"}, "lon": -77.00972366666667, "type": "electric_scooter", "fusion_lat": 0.0, "lat": 38.91412366666667, "name": "091c994d97591172b99135c6344e99cf", "fusion_lon": 0.0, "bike_id": "091c994d97591172b99135c6344e99cf", "is_disabled": 0, "is_reserved": 0}, {"rental_uris": {"ios": "https://dc.lft.to/lastmile_qr_scan", "android": "https://dc.lft.to/lastmile_qr_scan"}, "lon": -77.03983883333333, "type": "electric_scooter", "fusion_lat": 0.0, "lat": 38.892216833333336, "name": "a6461d6e3a14f1d8124f102ae50e45aa", "fusion_lon": 0.0, "bike_id": "a6461d6e3a14f1d8124f102ae50e45aa", "is_disabled": 0, "is_reserved": 0}, {"rental_uris": {"ios": "https://dc.lft.to/lastmile_qr_scan", "android": "https://dc.lft.to/lastmile_qr_scan"}, "lon": -76.91664316666666, "type": "electric_bike", "fusion_lat": 0.0, "lat": 38.86870783333333, "name": "fcdf6c2bfc6810e0e8fb1eee4559f372", "fusion_lon": 0.0, "bike_id": "fcdf6c2bfc6810e0e8fb1eee4559f372", "is_disabled": 0, "is_reserved": 0}, {"rental_uris": {"ios": "https://dc.lft.to/lastmile_qr_scan", "android": "https://dc.lft.to/lastmile_qr_scan"}, "lon": -76.94853233333333, "type": "electric_scooter", "fusion_lat": 0.0, "lat": 38.895931166666664, "name": "adda01d6cdae8ed1d7cc54e5d28f01db", "fusion_lon": 0.0, "bike_id": "adda01d6cdae8ed1d7cc54e5d28f01db", "is_disabled": 0, "is_reserved": 0}, {"rental_uris": {"ios": "https://dc.lft.to/lastmile_qr_scan", "android": "https://dc.lft.to/lastmile_qr_scan"}, "lon": -77.03292066666667, "type": "electric_scooter", "fusion_lat": 0.0, "lat": 38.90979683333333, "name": "a02348a6dbb097a9dc3d43312551326b", "fusion_lon": 0.0, "bike_id": "a02348a6dbb097a9dc3d43312551326b", "is_disabled": 0, "is_reserved": 0}, {"rental_uris": {"ios": "https://dc.lft.to/lastmile_qr_scan", "android": "https://dc.lft.to/lastmile_qr_scan"}, "lon": -77.16228283333334, "type": "electric_bike", "fusion_lat": 0.0, "lat": 38.886609666666665, "name": "a47503974ca21b013fcb2fb9f7febe88", "fusion_lon": 0.0, "bike_id": "a47503974ca21b013fcb2fb9f7febe88", "is_disabled": 0, "is_reserved": 0}, {"rental_uris": {"ios": "https://dc.lft.to/lastmile_qr_scan", "android": "https://dc.lft.to/lastmile_qr_scan"}, "lon": -77.01069016666666, "type": "electric_scooter", "fusion_lat": 0.0, "lat": 38.87475333333333, "name": "f390173524015d0cdc4ff34905520791", "fusion_lon": 0.0, "bike_id": "f390173524015d0cdc4ff34905520791", "is_disabled": 0, "is_reserved": 0}, {"rental_uris": {"ios": "https://dc.lft.to/lastmile_qr_scan", "android": "https://dc.lft.to/lastmile_qr_scan"}, "lon": -77.028016, "type": "electric_scooter", "fusion_lat": 0.0, "lat": 38.910688, "name": "bfee28d986a1eff082bfca711a9aa03c", "fusion_lon": 0.0, "bike_id": "bfee28d986a1eff082bfca711a9aa03c", "is_disabled": 0, "is_reserved": 0}, {"rental_uris": {"ios": "https://dc.lft.to/lastmile_qr_scan", "android": "https://dc.lft.to/lastmile_qr_scan"}, "lon": -77.02794266666666, "type": "electric_scooter", "fusion_lat": 0.0, "lat": 38.887377666666666, "name": "e6c0ee7ab9bc647b4ab1bd0c19d03e27", "fusion_lon": 0.0, "bike_id": "e6c0ee7ab9bc647b4ab1bd0c19d03e27", "is_disabled": 0, "is_reserved": 0}, {"rental_uris": {"ios": "https://dc.lft.to/lastmile_qr_scan", "android": "https://dc.lft.to/lastmile_qr_scan"}, "lon": -76.99004466666666, "type": "electric_scooter", "fusion_lat": 0.0, "lat": 38.90391183333333, "name": "918bc5f65006b2af602e59da50e43faf", "fusion_lon": 0.0, "bike_id": "918bc5f65006b2af602e59da50e43faf", "is_disabled": 0, "is_reserved": 0}, {"rental_uris": {"ios": "https://dc.lft.to/lastmile_qr_scan", "android": "https://dc.lft.to/lastmile_qr_scan"}, "lon": -77.12500966666667, "type": "electric_bike", "fusion_lat": 0.0, "lat": 39.024160333333334, "name": "b2656bbbb3db56ed139f481eb304c13e", "fusion_lon": 0.0, "bike_id": "b2656bbbb3db56ed139f481eb304c13e", "is_disabled": 0, "is_reserved": 0}, {"rental_uris": {"ios": "https://dc.lft.to/lastmile_qr_scan", "android": "https://dc.lft.to/lastmile_qr_scan"}, "lon": -77.00202316666666, "type": "electric_scooter", "fusion_lat": 0.0, "lat": 38.900395333333336, "name": "79d6b6095d5287cf248fcc162365ea5e", "fusion_lon": 0.0, "bike_id": "79d6b6095d5287cf248fcc162365ea5e", "is_disabled": 0, "is_reserved": 0}, {"rental_uris": {"ios": "https://dc.lft.to/lastmile_qr_scan", "android": "https://dc.lft.to/lastmile_qr_scan"}, "lon": -77.00589433333333, "type": "electric_scooter", "fusion_lat": 0.0, "lat": 38.915632, "name": "d097e0382c41f48f664d3f320d02a656", "fusion_lon": 0.0, "bike_id": "d097e0382c41f48f664d3f320d02a656", "is_disabled": 0, "is_reserved": 0}, {"rental_uris": {"ios": "https://dc.lft.to/lastmile_qr_scan", "android": "https://dc.lft.to/lastmile_qr_scan"}, "lon": -77.0469545, "type": "electric_scooter", "fusion_lat": 0.0, "lat": 38.897461, "name": "7f9a78221452a10b6847906a4a3ab2ca", "fusion_lon": 0.0, "bike_id": "7f9a78221452a10b6847906a4a3ab2ca", "is_disabled": 0, "is_reserved": 0}, {"rental_uris": {"ios": "https://dc.lft.to/lastmile_qr_scan", "android": "https://dc.lft.to/lastmile_qr_scan"}, "lon": -77.02221916666667, "type": "electric_scooter", "fusion_lat": 0.0, "lat": 38.892217333333335, "name": "2dd4ea8bd404764600a8d5ac1a7cf911", "fusion_lon": 0.0, "bike_id": "2dd4ea8bd404764600a8d5ac1a7cf911", "is_disabled": 0, "is_reserved": 0}, {"rental_uris": {"ios": "https://dc.lft.to/lastmile_qr_scan", "android": "https://dc.lft.to/lastmile_qr_scan"}, "lon": -77.02466866666667, "type": "electric_scooter", "fusion_lat": 0.0, "lat": 38.9309965, "name": "79dc4fcfd41de8c97a6a2f1a87f8c284", "fusion_lon": 0.0, "bike_id": "79dc4fcfd41de8c97a6a2f1a87f8c284", "is_disabled": 0, "is_reserved": 0}, {"rental_uris": {"ios": "https://dc.lft.to/lastmile_qr_scan", "android": "https://dc.lft.to/lastmile_qr_scan"}, "lon": -77.03869533333334, "type": "electric_scooter", "fusion_lat": 0.0, "lat": 38.902706333333334, "name": "4c85d693b1fbdeed2de8bb3baa661957", "fusion_lon": 0.0, "bike_id": "4c85d693b1fbdeed2de8bb3baa661957", "is_disabled": 0, "is_reserved": 0}, {"rental_uris": {"ios": "https://dc.lft.to/lastmile_qr_scan", "android": "https://dc.lft.to/lastmile_qr_scan"}, "lon": -77.0451855, "type": "electric_scooter", "fusion_lat": 0.0, "lat": 38.91288566666667, "name": "09fb3685adcd6ce472ed3d029c12e384", "fusion_lon": 0.0, "bike_id": "09fb3685adcd6ce472ed3d029c12e384", "is_disabled": 0, "is_reserved": 0}, {"rental_uris": {"ios": "https://dc.lft.to/lastmile_qr_scan", "android": "https://dc.lft.to/lastmile_qr_scan"}, "lon": -77.01358, "type": "electric_scooter", "fusion_lat": 0.0, "lat": 38.89573816666667, "name": "977e6fc6e5144faa61dd911e54ce0a91", "fusion_lon": 0.0, "bike_id": "977e6fc6e5144faa61dd911e54ce0a91", "is_disabled": 0, "is_reserved": 0}, {"rental_uris": {"ios": "https://dc.lft.to/lastmile_qr_scan", "android": "https://dc.lft.to/lastmile_qr_scan"}, "lon": -77.024653, "type": "electric_scooter", "fusion_lat": 0.0, "lat": 38.938593166666664, "name": "8b0810ee5c5b7f260c4aab0f81850992", "fusion_lon": 0.0, "bike_id": "8b0810ee5c5b7f260c4aab0f81850992", "is_disabled": 0, "is_reserved": 0}, {"rental_uris": {"ios": "https://dc.lft.to/lastmile_qr_scan", "android": "https://dc.lft.to/lastmile_qr_scan"}, "lon": -77.02652633333334, "type": "electric_scooter", "fusion_lat": 0.0, "lat": 38.90564116666667, "name": "54fc75bb1af4d987bec9a2781e2bc517", "fusion_lon": 0.0, "bike_id": "54fc75bb1af4d987bec9a2781e2bc517", "is_disabled": 0, "is_reserved": 0}, {"rental_uris": {"ios": "https://dc.lft.to/lastmile_qr_scan", "android": "https://dc.lft.to/lastmile_qr_scan"}, "lon": -77.027614, "type": "electric_scooter", "fusion_lat": 0.0, "lat": 38.91548933333333, "name": "8645b0399de8d80e25f6df3e350ec92f", "fusion_lon": 0.0, "bike_id": "8645b0399de8d80e25f6df3e350ec92f", "is_disabled": 0, "is_reserved": 0}, {"rental_uris": {"ios": "https://dc.lft.to/lastmile_qr_scan", "android": "https://dc.lft.to/lastmile_qr_scan"}, "lon": -77.03178416666667, "type": "electric_scooter", "fusion_lat": 0.0, "lat": 38.899603166666665, "name": "15fe69e240b92303fdd166b1c8ba4acf", "fusion_lon": 0.0, "bike_id": "15fe69e240b92303fdd166b1c8ba4acf", "is_disabled": 0, "is_reserved": 0}, {"rental_uris": {"ios": "https://dc.lft.to/lastmile_qr_scan", "android": "https://dc.lft.to/lastmile_qr_scan"}, "lon": -77.02798333333334, "type": "electric_scooter", "fusion_lat": 0.0, "lat": 38.89223616666666, "name": "3814a71279dfef957526cdf3acc5064a", "fusion_lon": 0.0, "bike_id": "3814a71279dfef957526cdf3acc5064a", "is_disabled": 0, "is_reserved": 0}, {"rental_uris": {"ios": "https://dc.lft.to/lastmile_qr_scan", "android": "https://dc.lft.to/lastmile_qr_scan"}, "lon": -77.05383333333333, "type": "electric_scooter", "fusion_lat": 0.0, "lat": 38.9026865, "name": "0b919e91b7e1b4850af785960717c0e4", "fusion_lon": 0.0, "bike_id": "0b919e91b7e1b4850af785960717c0e4", "is_disabled": 0, "is_reserved": 0}, {"rental_uris": {"ios": "https://dc.lft.to/lastmile_qr_scan", "android": "https://dc.lft.to/lastmile_qr_scan"}, "lon": -77.01686216666667, "type": "electric_bike", "fusion_lat": 0.0, "lat": 38.97522266666667, "name": "ceeaeda47c4c7c9edaeb4d2ca05afcf4", "fusion_lon": 0.0, "bike_id": "ceeaeda47c4c7c9edaeb4d2ca05afcf4", "is_disabled": 0, "is_reserved": 0}, {"rental_uris": {"ios": "https://dc.lft.to/lastmile_qr_scan", "android": "https://dc.lft.to/lastmile_qr_scan"}, "lon": -76.99275516666667, "type": "electric_scooter", "fusion_lat": 0.0, "lat": 38.9213265, "name": "a4aabd74c81d302d6cd1a377e96b81c8", "fusion_lon": 0.0, "bike_id": "a4aabd74c81d302d6cd1a377e96b81c8", "is_disabled": 0, "is_reserved": 0}, {"rental_uris": {"ios": "https://dc.lft.to/lastmile_qr_scan", "android": "https://dc.lft.to/lastmile_qr_scan"}, "lon": -77.063983, "type": "electric_bike", "fusion_lat": 0.0, "lat": 38.843457, "name": "ce9cc205dd1d8354c3747d63737e9b4d", "fusion_lon": 0.0, "bike_id": "ce9cc205dd1d8354c3747d63737e9b4d", "is_disabled": 0, "is_reserved": 0}, {"rental_uris": {"ios": "https://dc.lft.to/lastmile_qr_scan", "android": "https://dc.lft.to/lastmile_qr_scan"}, "lon": -77.07061016666667, "type": "electric_scooter", "fusion_lat": 0.0, "lat": 38.90108883333333, "name": "863ecfa780be31028f939125f9d8455d", "fusion_lon": 0.0, "bike_id": "863ecfa780be31028f939125f9d8455d", "is_disabled": 0, "is_reserved": 0}, {"rental_uris": {"ios": "https://dc.lft.to/lastmile_qr_scan", "android": "https://dc.lft.to/lastmile_qr_scan"}, "lon": -76.99636033333333, "type": "electric_bike", "fusion_lat": 0.0, "lat": 38.84665183333333, "name": "928c6dc1dfaae5ea9bcac7d5c1de7711", "fusion_lon": 0.0, "bike_id": "928c6dc1dfaae5ea9bcac7d5c1de7711", "is_disabled": 0, "is_reserved": 0}, {"rental_uris": {"ios": "https://dc.lft.to/lastmile_qr_scan", "android": "https://dc.lft.to/lastmile_qr_scan"}, "lon": -77.035571, "type": "electric_scooter", "fusion_lat": 0.0, "lat": 38.92743266666667, "name": "3d1a1a1da436e97fc15ee6758771c458", "fusion_lon": 0.0, "bike_id": "3d1a1a1da436e97fc15ee6758771c458", "is_disabled": 0, "is_reserved": 0}, {"rental_uris": {"ios": "https://dc.lft.to/lastmile_qr_scan", "android": "https://dc.lft.to/lastmile_qr_scan"}, "lon": -77.12371983333334, "type": "electric_bike", "fusion_lat": 0.0, "lat": 38.8474075, "name": "83d34c9e02a7b4a2b1aa364b2f7d1442", "fusion_lon": 0.0, "bike_id": "83d34c9e02a7b4a2b1aa364b2f7d1442", "is_disabled": 0, "is_reserved": 0}, {"rental_uris": {"ios": "https://dc.lft.to/lastmile_qr_scan", "android": "https://dc.lft.to/lastmile_qr_scan"}, "lon": -76.988312, "type": "electric_scooter", "fusion_lat": 0.0, "lat": 38.8802555, "name": "fd8db749034030592f5fe57658425626", "fusion_lon": 0.0, "bike_id": "fd8db749034030592f5fe57658425626", "is_disabled": 0, "is_reserved": 0}, {"rental_uris": {"ios": "https://dc.lft.to/lastmile_qr_scan", "android": "https://dc.lft.to/lastmile_qr_scan"}, "lon": -77.03507, "type": "electric_scooter", "fusion_lat": 0.0, "lat": 38.93107333333333, "name": "18d3aef2ddcd625f359f522c0ea4c34d", "fusion_lon": 0.0, "bike_id": "18d3aef2ddcd625f359f522c0ea4c34d", "is_disabled": 0, "is_reserved": 0}, {"rental_uris": {"ios": "https://dc.lft.to/lastmile_qr_scan", "android": "https://dc.lft.to/lastmile_qr_scan"}, "lon": -77.02526116666667, "type": "electric_scooter", "fusion_lat": 0.0, "lat": 38.9406085, "name": "2af460f074e7572fa777907d3c7242cf", "fusion_lon": 0.0, "bike_id": "2af460f074e7572fa777907d3c7242cf", "is_disabled": 0, "is_reserved": 0}, {"rental_uris": {"ios": "https://dc.lft.to/lastmile_qr_scan", "android": "https://dc.lft.to/lastmile_qr_scan"}, "lon": -77.02855316666667, "type": "electric_scooter", "fusion_lat": 0.0, "lat": 38.888751166666665, "name": "d21baaa02a920657006ec6f085ec5b5c", "fusion_lon": 0.0, "bike_id": "d21baaa02a920657006ec6f085ec5b5c", "is_disabled": 0, "is_reserved": 0}, {"rental_uris": {"ios": "https://dc.lft.to/lastmile_qr_scan", "android": "https://dc.lft.to/lastmile_qr_scan"},