{"data": {"bikes": [{"lon": -77.02816066666666, "bike_id": "26835cab491937304ee00956c17b4f4c", "lat": 38.961459833333336, "fusion_lon": 0.0, "fusion_lat": 0.0, "type": "electric_scooter", "name": "26835cab491937304ee00956c17b4f4c", "is_disabled": 0, "rental_uris": {"ios": "https://dc.lft.to/lastmile_qr_scan", "android": "https://dc.lft.to/lastmile_qr_scan"}, "is_reserved": 0}, {"lon": -77.02490333333333, "bike_id": "fac5d53916571127932c2067c596cc4b", "lat": 38.919915833333334, "fusion_lon": 0.0, "fusion_lat": 0.0, "type": "electric_scooter", "name": "fac5d53916571127932c2067c596cc4b", "is_disabled": 0, "rental_uris": {"ios": "https://dc.lft.to/lastmile_qr_scan", "android": "https://dc.lft.to/lastmile_qr_scan"}, "is_reserved": 0}, {"lon": -77.02200133333334, "bike_id": "778d26060c1aef2314cd608d3bebebfb", "lat": 38.911289833333335, "fusion_lon": 0.0, "fusion_lat": 0.0, "type": "electric_scooter", "name": "778d26060c1aef2314cd608d3bebebfb", "is_disabled": 0, "rental_uris": {"ios": "https://dc.lft.to/lastmile_qr_scan", "android": "https://dc.lft.to/lastmile_qr_scan"}, "is_reserved": 0}, {"lon": -77.045959, "bike_id": "ea9a5a2c2765ee7cb586b2b34690f7b2", "lat": 38.92183816666667, "fusion_lon": 0.0, "fusion_lat": 0.0, "type": "electric_scooter", "name": "ea9a5a2c2765ee7cb586b2b34690f7b2", "is_disabled": 0, "rental_uris": {"ios": "https://dc.lft.to/lastmile_qr_scan", "android": "https://dc.lft.to/lastmile_qr_scan"}, "is_reserved": 0}, {"lon": -77.0236945, "bike_id": "32a595a7973831582e12750354cdc988", "lat": 38.903059, "fusion_lon": 0.0, "fusion_lat": 0.0, "type": "electric_scooter", "name": "32a595a7973831582e12750354cdc988", "is_disabled": 0, "rental_uris": {"ios": "https://dc.lft.to/lastmile_qr_scan", "android": "https://dc.lft.to/lastmile_qr_scan"}, "is_reserved": 0}, {"lon": -77.02853966666666, "bike_id": "3e85e9d7d6e031b93d7d1e18d823f0db", "lat": 38.91702883333333, "fusion_lon": 0.0, "fusion_lat": 0.0, "type": "electric_scooter", "name": "3e85e9d7d6e031b93d7d1e18d823f0db", "is_disabled": 0, "rental_uris": {"ios": "https://dc.lft.to/lastmile_qr_scan", "android": "https://dc.lft.to/lastmile_qr_scan"}, "is_reserved": 0}, {"lon": -77.051199, "bike_id": "0a2e3fff2ea35d55acba5ad4aebfc5de", "lat": 38.923019, "fusion_lon": 0.0, "fusion_lat": 0.0, "type": "electric_scooter", "name": "0a2e3fff2ea35d55acba5ad4aebfc5de", "is_disabled": 0, "rental_uris": {"ios": "https://dc.lft.to/lastmile_qr_scan", "android": "https://dc.lft.to/lastmile_qr_scan"}, "is_reserved": 0}, {"lon": -77.05230283333333, "bike_id": "f4807c96924fb6c0a93dc519ca1e02b7", "lat": 38.92361916666667, "fusion_lon": 0.0, "fusion_lat": 0.0, "type": "electric_scooter", "name": "f4807c96924fb6c0a93dc519ca1e02b7", "is_disabled": 0, "rental_uris": {"ios": "https://dc.lft.to/lastmile_qr_scan", "android": "https://dc.lft.to/lastmile_qr_scan"}, "is_reserved": 0}, {"lon": -77.00636833333333, "bike_id": "ff4ee02bd673472d0b93b5075abb5a03", "lat": 38.88081533333333, "fusion_lon": 0.0, "fusion_lat": 0.0, "type": "electric_scooter", "name": "ff4ee02bd673472d0b93b5075abb5a03", "is_disabled": 0, "rental_uris": {"ios": "https://dc.lft.to/lastmile_qr_scan", "android": "https://dc.lft.to/lastmile_qr_scan"}, "is_reserved": 0}, {"lon": -77.0547325, "bike_id": "6f80905a3f4942f44fc5418754932a57", "lat": 38.8979445, "fusion_lon": 0.0, "fusion_lat": 0.0, "type": "electric_scooter", "name": "6f80905a3f4942f44fc5418754932a57", "is_disabled": 0, "rental_uris": {"ios": "https://dc.lft.to/lastmile_qr_scan", "android": "https://dc.lft.to/lastmile_qr_scan"}, "is_reserved": 0}, {"lon": -77.03349183333333, "bike_id": "3a1aea8730bba191793f50a013066a2a", "lat": 38.8961405, "fusion_lon": 0.0, "fusion_lat": 0.0, "type": "electric_scooter", "name": "3a1aea8730bba191793f50a013066a2a", "is_disabled": 0, "rental_uris": {"ios": "https://dc.lft.to/lastmile_qr_scan", "android": "https://dc.lft.to/lastmile_qr_scan"}, "is_reserved": 0}, {"lon": -77.02616816666666, "bike_id": "f757bdaf3c854407c32b04083829f780", "lat": 38.9298585, "fusion_lon": 0.0, "fusion_lat": 0.0, "type": "electric_scooter", "name": "f757bdaf3c854407c32b04083829f780", "is_disabled": 0, "rental_uris": {"ios": "https://dc.lft.to/lastmile_qr_scan", "android": "https://dc.lft.to/lastmile_qr_scan"}, "is_reserved": 0}, {"lon": -77.0182, "bike_id": "28465973239c4fdf1e30bbce755b8332", "lat": 38.919761, "fusion_lon": 0.0, "fusion_lat": 0.0, "type": "electric_scooter", "name": "28465973239c4fdf1e30bbce755b8332", "is_disabled": 0, "rental_uris": {"ios": "https://dc.lft.to/lastmile_qr_scan", "android": "https://dc.lft.to/lastmile_qr_scan"}, "is_reserved": 0}, {"lon": -77.0311505, "bike_id": "7de8b4e2186554cd112b4dc4c2bf7a1a", "lat": 38.914961166666664, "fusion_lon": 0.0, "fusion_lat": 0.0, "type": "electric_scooter", "name": "7de8b4e2186554cd112b4dc4c2bf7a1a", "is_disabled": 0, "rental_uris": {"ios": "https://dc.lft.to/lastmile_qr_scan", "android": "https://dc.lft.to/lastmile_qr_scan"}, "is_reserved": 0}, {"lon": -76.94973916666666, "bike_id": "903610d26ab5b5516ff9c0634d53a222", "lat": 38.904943833333334, "fusion_lon": 0.0, "fusion_lat": 0.0, "type": "electric_scooter", "name": "903610d26ab5b5516ff9c0634d53a222", "is_disabled": 0, "rental_uris": {"ios": "https://dc.lft.to/lastmile_qr_scan", "android": "https://dc.lft.to/lastmile_qr_scan"}, "is_reserved": 0}, {"lon": -77.00740716666667, "bike_id": "8f51a1828a377ec84b52015ea839a7ec", "lat": 38.925290833333335, "fusion_lon": 0.0, "fusion_lat": 0.0, "type": "electric_scooter", "name": "8f51a1828a377ec84b52015ea839a7ec", "is_disabled": 0, "rental_uris": {"ios": "https://dc.lft.to/lastmile_qr_scan", "android": "https://dc.lft.to/lastmile_qr_scan"}, "is_reserved": 0}, {"lon": -77.0425935, "bike_id": "351e4990ff944de3d1328e251904c6e9", "lat": 38.91031816666667, "fusion_lon": 0.0, "fusion_lat": 0.0, "type": "electric_scooter", "name": "351e4990ff944de3d1328e251904c6e9", "is_disabled": 0, "rental_uris": {"ios": "https://dc.lft.to/lastmile_qr_scan", "android": "https://dc.lft.to/lastmile_qr_scan"}, "is_reserved": 0}, {"lon": -77.01430766666667, "bike_id": "7f405497c49f144df3ef85b29259c56a", "lat": 38.997899833333335, "fusion_lon": 0.0, "fusion_lat": 0.0, "type": "electric_bike", "name": "7f405497c49f144df3ef85b29259c56a", "is_disabled": 0, "rental_uris": {"ios": "https://dc.lft.to/lastmile_qr_scan", "android": "https://dc.lft.to/lastmile_qr_scan"}, "is_reserved": 0}, {"lon": -76.9575685, "bike_id": "a9f686d22adb464eb00f4967f7d92526", "lat": 38.884320333333335, "fusion_lon": 0.0, "fusion_lat": 0.0, "type": "electric_scooter", "name": "a9f686d22adb464eb00f4967f7d92526", "is_disabled": 0, "rental_uris": {"ios": "https://dc.lft.to/lastmile_qr_scan", "android": "https://dc.lft.to/lastmile_qr_scan"}, "is_reserved": 0}, {"lon": -77.02219933333333, "bike_id": "d43c3acaf7425a0ab2a45ee27f33150a", "lat": 38.887061, "fusion_lon": 0.0, "fusion_lat": 0.0, "type": "electric_scooter", "name": "d43c3acaf7425a0ab2a45ee27f33150a", "is_disabled": 0, "rental_uris": {"ios": "https://dc.lft.to/lastmile_qr_scan", "android": "https://dc.lft.to/lastmile_qr_scan"}, "is_reserved": 0}, {"lon": -77.0306015, "bike_id": "dc6e75152ad410fbba8a926351576560", "lat": 38.93096933333333, "fusion_lon": 0.0, "fusion_lat": 0.0, "type": "electric_scooter", "name": "dc6e75152ad410fbba8a926351576560", "is_disabled": 0, "rental_uris": {"ios": "https://dc.lft.to/lastmile_qr_scan", "android": "https://dc.lft.to/lastmile_qr_scan"}, "is_reserved": 0}, {"lon": -77.01304583333334, "bike_id": "95f0515936ba9dfa4c563f92a093cc9f", "lat": 38.91143983333333, "fusion_lon": 0.0, "fusion_lat": 0.0, "type": "electric_scooter", "name": "95f0515936ba9dfa4c563f92a093cc9f", "is_disabled": 0, "rental_uris": {"ios": "https://dc.lft.to/lastmile_qr_scan", "android": "https://dc.lft.to/lastmile_qr_scan"}, "is_reserved": 0}, {"lon": -76.93647433333334, "bike_id": "808150a5460db3844e4bbd8e72af796d", "lat": 38.90063083333333, "fusion_lon": 0.0, "fusion_lat": 0.0, "type": "electric_scooter", "name": "808150a5460db3844e4bbd8e72af796d", "is_disabled": 0, "rental_uris": {"ios": "https://dc.lft.to/lastmile_qr_scan", "android": "https://dc.lft.to/lastmile_qr_scan"}, "is_reserved": 0}, {"lon": -77.02120516666666, "bike_id": "53ff508e6fce4c91a5f69411d05c2ce8", "lat": 38.90291633333333, "fusion_lon": 0.0, "fusion_lat": 0.0, "type": "electric_scooter", "name": "53ff508e6fce4c91a5f69411d05c2ce8", "is_disabled": 0, "rental_uris": {"ios": "https://dc.lft.to/lastmile_qr_scan", "android": "https://dc.lft.to/lastmile_qr_scan"}, "is_reserved": 0}, {"lon": -76.93174516666667, "bike_id": "2e2c53b221fe7d0c88a22a04e63119db", "lat": 38.89881183333333, "fusion_lon": 0.0, "fusion_lat": 0.0, "type": "electric_scooter", "name": "2e2c53b221fe7d0c88a22a04e63119db", "is_disabled": 0, "rental_uris": {"ios": "https://dc.lft.to/lastmile_qr_scan", "android": "https://dc.lft.to/lastmile_qr_scan"}, "is_reserved": 0}, {"lon": -77.04893833333334, "bike_id": "53d97d65f86593a4f93bb4a2a625b7d3", "lat": 38.89237166666667, "fusion_lon": 0.0, "fusion_lat": 0.0, "type": "electric_scooter", "name": "53d97d65f86593a4f93bb4a2a625b7d3", "is_disabled": 0, "rental_uris": {"ios": "https://dc.lft.to/lastmile_qr_scan", "android": "https://dc.lft.to/lastmile_qr_scan"}, "is_reserved": 0}, {"lon": -77.04369466666667, "bike_id": "e2fc8ac6f6eeca363b45e0d957370ba7", "lat": 38.902351, "fusion_lon": 0.0, "fusion_lat": 0.0, "type": "electric_scooter", "name": "e2fc8ac6f6eeca363b45e0d957370ba7", "is_disabled": 0, "rental_uris": {"ios": "https://dc.lft.to/lastmile_qr_scan", "android": "https://dc.lft.to/lastmile_qr_scan"}, "is_reserved": 0}, {"lon": -77.03295183333333, "bike_id": "945c50502fce71044cc7ac536e08e653", "lat": 38.9565525, "fusion_lon": 0.0, "fusion_lat": 0.0, "type": "electric_scooter", "name": "945c50502fce71044cc7ac536e08e653", "is_disabled": 0, "rental_uris": {"ios": "https://dc.lft.to/lastmile_qr_scan", "android": "https://dc.lft.to/lastmile_qr_scan"}, "is_reserved": 0}, {"lon": -76.93022433333333, "bike_id": "afd470df1f773443a7d8bad115b1c398", "lat": 38.89641566666667, "fusion_lon": 0.0, "fusion_lat": 0.0, "type": "electric_bike", "name": "afd470df1f773443a7d8bad115b1c398", "is_disabled": 0, "rental_uris": {"ios": "https://dc.lft.to/lastmile_qr_scan", "android": "https://dc.lft.to/lastmile_qr_scan"}, "is_reserved": 0}, {"lon": -77.025159, "bike_id": "59d313bce94833b165b6e7957119c9d7", "lat": 38.90492783333333, "fusion_lon": 0.0, "fusion_lat": 0.0, "type": "electric_scooter", "name": "59d313bce94833b165b6e7957119c9d7", "is_disabled": 0, "rental_uris": {"ios": "https://dc.lft.to/lastmile_qr_scan", "android": "https://dc.lft.to/lastmile_qr_scan"}, "is_reserved": 0}, {"lon": -77.03267, "bike_id": "af952b98b42e27562433b25743dab2ad", "lat": 38.9198545, "fusion_lon": 0.0, "fusion_lat": 0.0, "type": "electric_scooter", "name": "af952b98b42e27562433b25743dab2ad", "is_disabled": 0, "rental_uris": {"ios": "https://dc.lft.to/lastmile_qr_scan", "android": "https://dc.lft.to/lastmile_qr_scan"}, "is_reserved": 0}, {"lon": -77.01862383333334, "bike_id": "174fb0fa837b61e64f696c0677087df3", "lat": 38.898576, "fusion_lon": 0.0, "fusion_lat": 0.0, "type": "electric_scooter", "name": "174fb0fa837b61e64f696c0677087df3", "is_disabled": 0, "rental_uris": {"ios": "https://dc.lft.to/lastmile_qr_scan", "android": "https://dc.lft.to/lastmile_qr_scan"}, "is_reserved": 0}, {"lon": -77.01994416666666, "bike_id": "dbf91f5958e0d3e54628c604ed5583af", "lat": 38.966251166666666, "fusion_lon": 0.0, "fusion_lat": 0.0, "type": "electric_scooter", "name": "dbf91f5958e0d3e54628c604ed5583af", "is_disabled": 0, "rental_uris": {"ios": "https://dc.lft.to/lastmile_qr_scan", "android": "https://dc.lft.to/lastmile_qr_scan"}, "is_reserved": 0}, {"lon": -77.017634, "bike_id": "190920ac3e4d085a9969be2d15c3f4a0", "lat": 38.897450166666665, "fusion_lon": 0.0, "fusion_lat": 0.0, "type": "electric_scooter", "name": "190920ac3e4d085a9969be2d15c3f4a0", "is_disabled": 0, "rental_uris": {"ios": "https://dc.lft.to/lastmile_qr_scan", "android": "https://dc.lft.to/lastmile_qr_scan"}, "is_reserved": 0}, {"lon": -76.9846495, "bike_id": "dc22ea74dd49b2e8a04dffac2170ad76", "lat": 38.9039715, "fusion_lon": 0.0, "fusion_lat": 0.0, "type": "electric_scooter", "name": "dc22ea74dd49b2e8a04dffac2170ad76", "is_disabled": 0, "rental_uris": {"ios": "https://dc.lft.to/lastmile_qr_scan", "android": "https://dc.lft.to/lastmile_qr_scan"}, "is_reserved": 0}, {"lon": -77.0347385, "bike_id": "e0cfb772cd160185ba4d2ec7a3f78c60", "lat": 38.92046933333334, "fusion_lon": 0.0, "fusion_lat": 0.0, "type": "electric_scooter", "name": "e0cfb772cd160185ba4d2ec7a3f78c60", "is_disabled": 0, "rental_uris": {"ios": "https://dc.lft.to/lastmile_qr_scan", "android": "https://dc.lft.to/lastmile_qr_scan"}, "is_reserved": 0}, {"lon": -77.01513866666667, "bike_id": "8cb39c08063029d74b90e4c5741a3e7c", "lat": 38.9272535, "fusion_lon": 0.0, "fusion_lat": 0.0, "type": "electric_scooter", "name": "8cb39c08063029d74b90e4c5741a3e7c", "is_disabled": 0, "rental_uris": {"ios": "https://dc.lft.to/lastmile_qr_scan", "android": "https://dc.lft.to/lastmile_qr_scan"}, "is_reserved": 0}, {"lon": -77.02557033333333, "bike_id": "d42ae5bdcf062782fb9140b8831b80d7", "lat": 38.931112166666665, "fusion_lon": 0.0, "fusion_lat": 0.0, "type": "electric_scooter", "name": "d42ae5bdcf062782fb9140b8831b80d7", "is_disabled": 0, "rental_uris": {"ios": "https://dc.lft.to/lastmile_qr_scan", "android": "https://dc.lft.to/lastmile_qr_scan"}, "is_reserved": 0}, {"lon": -77.027735, "bike_id": "a79f38707bde085c68a37123b7f97d32", "lat": 38.95425733333333, "fusion_lon": 0.0, "fusion_lat": 0.0, "type": "electric_scooter", "name": "a79f38707bde085c68a37123b7f97d32", "is_disabled": 0, "rental_uris": {"ios": "https://dc.lft.to/lastmile_qr_scan", "android": "https://dc.lft.to/lastmile_qr_scan"}, "is_reserved": 0}, {"lon": -77.01677133333334, "bike_id": "dcbd64a5f7530861e2fc38c072c57f98", "lat": 38.877045833333334, "fusion_lon": 0.0, "fusion_lat": 0.0, "type": "electric_scooter", "name": "dcbd64a5f7530861e2fc38c072c57f98", "is_disabled": 0, "rental_uris": {"ios": "https://dc.lft.to/lastmile_qr_scan", "android": "https://dc.lft.to/lastmile_qr_scan"}, "is_reserved": 0}, {"lon": -77.04660533333333, "bike_id": "f40258dc66283e8809c94552e416eef3", "lat": 38.9037355, "fusion_lon": 0.0, "fusion_lat": 0.0, "type": "electric_scooter", "name": "f40258dc66283e8809c94552e416eef3", "is_disabled": 0, "rental_uris": {"ios": "https://dc.lft.to/lastmile_qr_scan", "android": "https://dc.lft.to/lastmile_qr_scan"}, "is_reserved": 0}, {"lon": -77.0235305, "bike_id": "63fdd75d665b7f16bc2830bf73341843", "lat": 38.896035833333336, "fusion_lon": 0.0, "fusion_lat": 0.0, "type": "electric_scooter", "name": "63fdd75d665b7f16bc2830bf73341843", "is_disabled": 0, "rental_uris": {"ios": "https://dc.lft.to/lastmile_qr_scan", "android": "https://dc.lft.to/lastmile_qr_scan"}, "is_reserved": 0}, {"lon": -77.0346395, "bike_id": "b592c6c574add248d67cb500ce0a3717", "lat": 38.9263915, "fusion_lon": 0.0, "fusion_lat": 0.0, "type": "electric_scooter", "name": "b592c6c574add248d67cb500ce0a3717", "is_disabled": 0, "rental_uris": {"ios": "https://dc.lft.to/lastmile_qr_scan", "android": "https://dc.lft.to/lastmile_qr_scan"}, "is_reserved": 0}, {"lon": -77.04934216666666, "bike_id": "be409269f877208c475f29468d213177", "lat": 39.02925, "fusion_lon": 0.0, "fusion_lat": 0.0, "type": "electric_bike", "name": "be409269f877208c475f29468d213177", "is_disabled": 0, "rental_uris": {"ios": "https://dc.lft.to/lastmile_qr_scan", "android": "https://dc.lft.to/lastmile_qr_scan"}, "is_reserved": 0}, {"lon": -77.04227416666667, "bike_id": "aa423d9135b95313958df48a6873bcfa", "lat": 38.92123133333333, "fusion_lon": 0.0, "fusion_lat": 0.0, "type": "electric_scooter", "name": "aa423d9135b95313958df48a6873bcfa", "is_disabled": 0, "rental_uris": {"ios": "https://dc.lft.to/lastmile_qr_scan", "android": "https://dc.lft.to/lastmile_qr_scan"}, "is_reserved": 0}, {"lon": -77.02604216666667, "bike_id": "bdeb0e36b43f4ea84b47b3f91e9c6e87", "lat": 38.92652983333333, "fusion_lon": 0.0, "fusion_lat": 0.0, "type": "electric_scooter", "name": "bdeb0e36b43f4ea84b47b3f91e9c6e87", "is_disabled": 0, "rental_uris": {"ios": "https://dc.lft.to/lastmile_qr_scan", "android": "https://dc.lft.to/lastmile_qr_scan"}, "is_reserved": 0}, {"lon": -77.03992966666667, "bike_id": "130630f35631647be258b0d7daaad7e6", "lat": 38.9245045, "fusion_lon": 0.0, "fusion_lat": 0.0, "type": "electric_scooter", "name": "130630f35631647be258b0d7daaad7e6", "is_disabled": 0, "rental_uris": {"ios": "https://dc.lft.to/lastmile_qr_scan", "android": "https://dc.lft.to/lastmile_qr_scan"}, "is_reserved": 0}, {"lon": -77.02095533333333, "bike_id": "b37a93fa8a7deea02ec0f649fdd71dcd", "lat": 38.899759333333336, "fusion_lon": 0.0, "fusion_lat": 0.0, "type": "electric_scooter", "name": "b37a93fa8a7deea02ec0f649fdd71dcd", "is_disabled": 0, "rental_uris": {"ios": "https://dc.lft.to/lastmile_qr_scan", "android": "https://dc.lft.to/lastmile_qr_scan"}, "is_reserved": 0}, {"lon": -77.04451383333334, "bike_id": "352e0e02326902d2ad2f59bc43675d5c", "lat": 38.918825166666664, "fusion_lon": 0.0, "fusion_lat": 0.0, "type": "electric_scooter", "name": "352e0e02326902d2ad2f59bc43675d5c", "is_disabled": 0, "rental_uris": {"ios": "https://dc.lft.to/lastmile_qr_scan", "android": "https://dc.lft.to/lastmile_qr_scan"}, "is_reserved": 0}, {"lon": -77.036393, "bike_id": "f089f5f3e4f47d537a847509bb547132", "lat": 38.924591666666664, "fusion_lon": 0.0, "fusion_lat": 0.0, "type": "electric_scooter", "name": "f089f5f3e4f47d537a847509bb547132", "is_disabled": 0, "rental_uris": {"ios": "https://dc.lft.to/lastmile_qr_scan", "android": "https://dc.lft.to/lastmile_qr_scan"}, "is_reserved": 0}, {"lon": -77.00045533333333, "bike_id": "e51f34bbda0d1572f3ee279229e60c95", "lat": 38.90012266666667, "fusion_lon": 0.0, "fusion_lat": 0.0, "type": "electric_scooter", "name": "e51f34bbda0d1572f3ee279229e60c95", "is_disabled": 0, "rental_uris": {"ios": "https://dc.lft.to/lastmile_qr_scan", "android": "https://dc.lft.to/lastmile_qr_scan"}, "is_reserved": 0}, {"lon": -77.03596983333334, "bike_id": "6e74f268ba3606177abde02003efb0b4", "lat": 38.9366275, "fusion_lon": 0.0, "fusion_lat": 0.0, "type": "electric_scooter", "name": "6e74f268ba3606177abde02003efb0b4", "is_disabled": 0, "rental_uris": {"ios": "https://dc.lft.to/lastmile_qr_scan", "android": "https://dc.lft.to/lastmile_qr_scan"}, "is_reserved": 0}, {"lon": -76.98883, "bike_id": "8a4d6a74a0ddc91afa1fdf13e938af80", "lat": 38.866581333333336, "fusion_lon": 0.0, "fusion_lat": 0.0, "type": "electric_scooter", "name": "8a4d6a74a0ddc91afa1fdf13e938af80", "is_disabled": 0, "rental_uris": {"ios": "https://dc.lft.to/lastmile_qr_scan", "android": "https://dc.lft.to/lastmile_qr_scan"}, "is_reserved": 0}, {"lon": -77.03081116666667, "bike_id": "e4236fedf1d5ebbfd4d4a58945580ad8", "lat": 38.880334, "fusion_lon": 0.0, "fusion_lat": 0.0, "type": "electric_scooter", "name": "e4236fedf1d5ebbfd4d4a58945580ad8", "is_disabled": 0, "rental_uris": {"ios": "https://dc.lft.to/lastmile_qr_scan", "android": "https://dc.lft.to/lastmile_qr_scan"}, "is_reserved": 0}, {"lon": -77.02303566666667, "bike_id": "f6a03935742971f5f92dc3d475a355c0", "lat": 38.940901, "fusion_lon": 0.0, "fusion_lat": 0.0, "type": "electric_scooter", "name": "f6a03935742971f5f92dc3d475a355c0", "is_disabled": 0, "rental_uris": {"ios": "https://dc.lft.to/lastmile_qr_scan", "android": "https://dc.lft.to/lastmile_qr_scan"}, "is_reserved": 0}, {"lon": -77.06136783333334, "bike_id": "33f607a83dccc05d75b27d30b0a49f9b", "lat": 38.943717166666666, "fusion_lon": 0.0, "fusion_lat": 0.0, "type": "electric_scooter", "name": "33f607a83dccc05d75b27d30b0a49f9b", "is_disabled": 0, "rental_uris": {"ios": "https://dc.lft.to/lastmile_qr_scan", "android": "https://dc.lft.to/lastmile_qr_scan"}, "is_reserved": 0}, {"lon": -77.00165166666666, "bike_id": "4ec1c239e8edc9c801e516ac7db91026", "lat": 38.91950033333333, "fusion_lon": 0.0, "fusion_lat": 0.0, "type": "electric_scooter", "name": "4ec1c239e8edc9c801e516ac7db91026", "is_disabled": 0, "rental_uris": {"ios": "https://dc.lft.to/lastmile_qr_scan", "android": "https://dc.lft.to/lastmile_qr_scan"}, "is_reserved": 0}, {"lon": -77.009317, "bike_id": "bf055101cf1b7953037698bebc0d785c", "lat": 38.918015833333335, "fusion_lon": 0.0, "fusion_lat": 0.0, "type": "electric_scooter", "name": "bf055101cf1b7953037698bebc0d785c", "is_disabled": 0, "rental_uris": {"ios": "https://dc.lft.to/lastmile_qr_scan", "android": "https://dc.lft.to/lastmile_qr_scan"}, "is_reserved": 0}, {"lon": -76.99778066666667, "bike_id": "d719269300e36b1a1baf726e754eb382", "lat": 38.91054466666667, "fusion_lon": 0.0, "fusion_lat": 0.0, "type": "electric_scooter", "name": "d719269300e36b1a1baf726e754eb382", "is_disabled": 0, "rental_uris": {"ios": "https://dc.lft.to/lastmile_qr_scan", "android": "https://dc.lft.to/lastmile_qr_scan"}, "is_reserved": 0}, {"lon": -77.039999, "bike_id": "ecd13f858ac38ed86a39c56478a9decc", "lat": 38.9181925, "fusion_lon": 0.0, "fusion_lat": 0.0, "type": "electric_scooter", "name": "ecd13f858ac38ed86a39c56478a9decc", "is_disabled": 0, "rental_uris": {"ios": "https://dc.lft.to/lastmile_qr_scan", "android": "https://dc.lft.to/lastmile_qr_scan"}, "is_reserved": 0}, {"lon": -77.03243966666666, "bike_id": "229626eddaa48a40541c632b111c6df9", "lat": 38.915622166666665, "fusion_lon": 0.0, "fusion_lat": 0.0, "type": "electric_scooter", "name": "229626eddaa48a40541c632b111c6df9", "is_disabled": 0, "rental_uris": {"ios": "https://dc.lft.to/lastmile_qr_scan", "android": "https://dc.lft.to/lastmile_qr_scan"}, "is_reserved": 0}, {"lon": -76.9700205, "bike_id": "67a801472b3e021dc9e6946bc6374446", "lat": 38.87369, "fusion_lon": 0.0, "fusion_lat": 0.0, "type": "electric_scooter", "name": "67a801472b3e021dc9e6946bc6374446", "is_disabled": 0, "rental_uris": {"ios": "https://dc.lft.to/lastmile_qr_scan", "android": "https://dc.lft.to/lastmile_qr_scan"}, "is_reserved": 0}, {"lon": -77.05327966666667, "bike_id": "48fe6eabdc5e0e1a764576d39fd0d3ce", "lat": 38.90733316666667, "fusion_lon": 0.0, "fusion_lat": 0.0, "type": "electric_scooter", "name": "48fe6eabdc5e0e1a764576d39fd0d3ce", "is_disabled": 0, "rental_uris": {"ios": "https://dc.lft.to/lastmile_qr_scan", "android": "https://dc.lft.to/lastmile_qr_scan"}, "is_reserved": 0}, {"lon": -77.02505166666667, "bike_id": "ebd10c2485ce68c7e4d58eb25b359452", "lat": 38.883941166666666, "fusion_lon": 0.0, "fusion_lat": 0.0, "type": "electric_scooter", "name": "ebd10c2485ce68c7e4d58eb25b359452", "is_disabled": 0, "rental_uris": {"ios": "https://dc.lft.to/lastmile_qr_scan", "android": "https://dc.lft.to/lastmile_qr_scan"}, "is_reserved": 0}, {"lon": -77.02533433333333, "bike_id": "ac4a7dd601d53a6134ece4fea3a9c124", "lat": 38.943028, "fusion_lon": 0.0, "fusion_lat": 0.0, "type": "electric_scooter", "name": "ac4a7dd601d53a6134ece4fea3a9c124", "is_disabled": 0, "rental_uris": {"ios": "https://dc.lft.to/lastmile_qr_scan", "android": "https://dc.lft.to/lastmile_qr_scan"}, "is_reserved": 0}, {"lon": -77.02604066666666, "bike_id": "efcfed7b64446a06add9ce0ad6515091", "lat": 38.903502833333334, "fusion_lon": 0.0, "fusion_lat": 0.0, "type": "electric_scooter", "name": "efcfed7b64446a06add9ce0ad6515091", "is_disabled": 0, "rental_uris": {"ios": "https://dc.lft.to/lastmile_qr_scan", "android": "https://dc.lft.to/lastmile_qr_scan"}, "is_reserved": 0}, {"lon": -77.00136, "bike_id": "9a48539c62fc0dbabf98c0cb6bed8dd5", "lat": 38.88515433333333, "fusion_lon": 0.0, "fusion_lat": 0.0, "type": "electric_scooter", "name": "9a48539c62fc0dbabf98c0cb6bed8dd5", "is_disabled": 0, "rental_uris": {"ios": "https://dc.lft.to/lastmile_qr_scan", "android": "https://dc.lft.to/lastmile_qr_scan"}, "is_reserved": 0}, {"lon": -77.0779505, "bike_id": "1fc4e74cb35e503eef02ca15dabf597e", "lat": 38.9960365, "fusion_lon": 0.0, "fusion_lat": 0.0, "type": "electric_bike", "name": "1fc4e74cb35e503eef02ca15dabf597e", "is_disabled": 0, "rental_uris": {"ios": "https://dc.lft.to/lastmile_qr_scan", "android": "https://dc.lft.to/lastmile_qr_scan"}, "is_reserved": 0}, {"lon": -77.02313716666667, "bike_id": "d98af14302cab9e78072da52758668e4", "lat": 38.9551945, "fusion_lon": 0.0, "fusion_lat": 0.0, "type": "electric_scooter", "name": "d98af14302cab9e78072da52758668e4", "is_disabled": 0, "rental_uris": {"ios": "https://dc.lft.to/lastmile_qr_scan", "android": "https://dc.lft.to/lastmile_qr_scan"}, "is_reserved": 0}, {"lon": -77.02480033333333, "bike_id": "f8b70b16887dc12d0637c63ab68188c4", "lat": 38.902363, "fusion_lon": 0.0, "fusion_lat": 0.0, "type": "electric_scooter", "name": "f8b70b16887dc12d0637c63ab68188c4", "is_disabled": 0, "rental_uris": {"ios": "https://dc.lft.to/lastmile_qr_scan", "android": "https://dc.lft.to/lastmile_qr_scan"}, "is_reserved": 0}, {"lon": -77.03515066666667, "bike_id": "cf224e4fc56a33e5693dc04ea80896ca", "lat": 38.91490066666667, "fusion_lon": 0.0, "fusion_lat": 0.0, "type": "electric_scooter", "name": "cf224e4fc56a33e5693dc04ea80896ca", "is_disabled": 0, "rental_uris": {"ios": "https://dc.lft.to/lastmile_qr_scan", "android": "https://dc.lft.to/lastmile_qr_scan"}, "is_reserved": 0}, {"lon": -77.03869616666667, "bike_id": "01fea5c30d465a8b9e03ed2d251d0c34", "lat": 38.914115833333334, "fusion_lon": 0.0, "fusion_lat": 0.0, "type": "electric_scooter", "name": "01fea5c30d465a8b9e03ed2d251d0c34", "is_disabled": 0, "rental_uris": {"ios": "https://dc.lft.to/lastmile_qr_scan", "android": "https://dc.lft.to/lastmile_qr_scan"}, "is_reserved": 0}, {"lon": -77.0056355, "bike_id": "9b0ced975aed78d6362456d1a16f7ab7", "lat": 38.87436016666667, "fusion_lon": 0.0, "fusion_lat": 0.0, "type": "electric_scooter", "name": "9b0ced975aed78d6362456d1a16f7ab7", "is_disabled": 0, "rental_uris": {"ios": "https://dc.lft.to/lastmile_qr_scan", "android": "https://dc.lft.to/lastmile_qr_scan"}, "is_reserved": 0}, {"lon": -77.043285, "bike_id": "e66084f0bbe338f56cd6310e42a6e60d", "lat": 38.918839166666665, "fusion_lon": 0.0, "fusion_lat": 0.0, "type": "electric_scooter", "name": "e66084f0bbe338f56cd6310e42a6e60d", "is_disabled": 0, "rental_uris": {"ios": "https://dc.lft.to/lastmile_qr_scan", "android": "https://dc.lft.to/lastmile_qr_scan"}, "is_reserved": 0}, {"lon": -77.02713, "bike_id": "ed9e6a8f78dbd7045392f83425394135", "lat": 38.900737, "fusion_lon": 0.0, "fusion_lat": 0.0, "type": "electric_scooter", "name": "ed9e6a8f78dbd7045392f83425394135", "is_disabled": 0, "rental_uris": {"ios": "https://dc.lft.to/lastmile_qr_scan", "android": "https://dc.lft.to/lastmile_qr_scan"}, "is_reserved": 0}, {"lon": -77.01449116666667, "bike_id": "e4c9ab57372e51a0ad57c84b984dbff6", "lat": 38.9125405, "fusion_lon": 0.0, "fusion_lat": 0.0, "type": "electric_scooter", "name": "e4c9ab57372e51a0ad57c84b984dbff6", "is_disabled": 0, "rental_uris": {"ios": "https://dc.lft.to/lastmile_qr_scan", "android": "https://dc.lft.to/lastmile_qr_scan"}, "is_reserved": 0}, {"lon": -76.98534966666666, "bike_id": "9a8d63084178a125ed16b6693a94c353", "lat": 38.89943516666666, "fusion_lon": 0.0, "fusion_lat": 0.0, "type": "electric_scooter", "name": "9a8d63084178a125ed16b6693a94c353", "is_disabled": 0, "rental_uris": {"ios": "https://dc.lft.to/lastmile_qr_scan", "android": "https://dc.lft.to/lastmile_qr_scan"}, "is_reserved": 0}, {"lon": -76.94659833333333, "bike_id": "d5c3b66984e41d1c5a099d83c721ef96", "lat": 38.9369485, "fusion_lon": 0.0, "fusion_lat": 0.0, "type": "electric_bike", "name": "d5c3b66984e41d1c5a099d83c721ef96", "is_disabled": 0, "rental_uris": {"ios": "https://dc.lft.to/lastmile_qr_scan", "android": "https://dc.lft.to/lastmile_qr_scan"}, "is_reserved": 0}, {"lon": -77.02382983333334, "bike_id": "6464bcfab1e4883166be426da44b0e30", "lat": 38.906307, "fusion_lon": 0.0, "fusion_lat": 0.0, "type": "electric_scooter", "name": "6464bcfab1e4883166be426da44b0e30", "is_disabled": 0, "rental_uris": {"ios": "https://dc.lft.to/lastmile_qr_scan", "android": "https://dc.lft.to/lastmile_qr_scan"}, "is_reserved": 0}, {"lon": -77.078163, "bike_id": "dd50d589297007c1e0caf799243be147", "lat": 38.92454216666667, "fusion_lon": 0.0, "fusion_lat": 0.0, "type": "electric_scooter", "name": "dd50d589297007c1e0caf799243be147", "is_disabled": 0, "rental_uris": {"ios": "https://dc.lft.to/lastmile_qr_scan", "android": "https://dc.lft.to/lastmile_qr_scan"}, "is_reserved": 0}, {"lon": -77.01265916666667, "bike_id": "3b2f75277b5eddf9afa4b4ee1e2e6bcb", "lat": 38.91567583333333, "fusion_lon": 0.0, "fusion_lat": 0.0, "type": "electric_scooter", "name": "3b2f75277b5eddf9afa4b4ee1e2e6bcb", "is_disabled": 0, "rental_uris": {"ios": "https://dc.lft.to/lastmile_qr_scan", "android": "https://dc.lft.to/lastmile_qr_scan"}, "is_reserved": 0}, {"lon": -77.00921616666666, "bike_id": "c47f36ab26a3290e705146f0b9f4398a", "lat": 38.89641316666667, "fusion_lon": 0.0, "fusion_lat": 0.0, "type": "electric_scooter", "name": "c47f36ab26a3290e705146f0b9f4398a", "is_disabled": 0, "rental_uris": {"ios": "https://dc.lft.to/lastmile_qr_scan", "android": "https://dc.lft.to/lastmile_qr_scan"}, "is_reserved": 0}, {"lon": -77.0242545, "bike_id": "e6112f205d6bdd86733481207133ea49", "lat": 38.91826616666667, "fusion_lon": 0.0, "fusion_lat": 0.0, "type": "electric_bike", "name": "e6112f205d6bdd86733481207133ea49", "is_disabled": 0, "rental_uris": {"ios": "https://dc.lft.to/lastmile_qr_scan", "android": "https://dc.lft.to/lastmile_qr_scan"}, "is_reserved": 0}, {"lon": -76.9897445, "bike_id": "d513ada10e162f21cd038f859e9d6416", "lat": 38.856910166666665, "fusion_lon": 0.0, "fusion_lat": 0.0, "type": "electric_scooter", "name": "d513ada10e162f21cd038f859e9d6416", "is_disabled": 0, "rental_uris": {"ios": "https://dc.lft.to/lastmile_qr_scan", "android": "https://dc.lft.to/lastmile_qr_scan"}, "is_reserved": 0}, {"lon": -77.02607266666666, "bike_id": "a36b5c7fe019b4c6d6d88a8eb8dc4cd3", "lat": 38.884291166666664, "fusion_lon": 0.0, "fusion_lat": 0.0, "type": "electric_scooter", "name": "a36b5c7fe019b4c6d6d88a8eb8dc4cd3", "is_disabled": 0, "rental_uris": {"ios": "https://dc.lft.to/lastmile_qr_scan", "android": "https://dc.lft.to/lastmile_qr_scan"}, "is_reserved": 0}, {"lon": -77.0218885, "bike_id": "297bf9cb5e48ab745a4b8c6895e24817", "lat": 38.919343166666664, "fusion_lon": 0.0, "fusion_lat": 0.0, "type": "electric_scooter", "name": "297bf9cb5e48ab745a4b8c6895e24817", "is_disabled": 0, "rental_uris": {"ios": "https://dc.lft.to/lastmile_qr_scan", "android": "https://dc.lft.to/lastmile_qr_scan"}, "is_reserved": 0}, {"lon": -76.98259516666667, "bike_id": "2382059c0438eaf0c8ffb0ea03014ebf", "lat": 38.9085285, "fusion_lon": 0.0, "fusion_lat": 0.0, "type": "electric_scooter", "name": "2382059c0438eaf0c8ffb0ea03014ebf", "is_disabled": 0, "rental_uris": {"ios": "https://dc.lft.to/lastmile_qr_scan", "android": "https://dc.lft.to/lastmile_qr_scan"}, "is_reserved": 0}, {"lon": -77.0259345, "bike_id": "1cf290f186243d1b4c9440d0957c641d", "lat": 38.892844833333335, "fusion_lon": 0.0, "fusion_lat": 0.0, "type": "electric_scooter", "name": "1cf290f186243d1b4c9440d0957c641d", "is_disabled": 0, "rental_uris": {"ios": "https://dc.lft.to/lastmile_qr_scan", "android": "https://dc.lft.to/lastmile_qr_scan"}, "is_reserved": 0}, {"lon": -76.9518505, "bike_id": "848949b347718c374538b894ec5517bc", "lat": 38.907395333333334, "fusion_lon": 0.0, "fusion_lat": 0.0, "type": "electric_scooter", "name": "848949b347718c374538b894ec5517bc", "is_disabled": 0, "rental_uris": {"ios": "https://dc.lft.to/lastmile_qr_scan", "android": "https://dc.lft.to/lastmile_qr_scan"}, "is_reserved": 0}, {"lon": -77.03176683333334, "bike_id": "1add89e0de894f4e305ee7599c381050", "lat": 38.92088583333334, "fusion_lon": 0.0, "fusion_lat": 0.0, "type": "electric_scooter", "name": "1add89e0de894f4e305ee7599c381050", "is_disabled": 0, "rental_uris": {"ios": "https://dc.lft.to/lastmile_qr_scan", "android": "https://dc.lft.to/lastmile_qr_scan"}, "is_reserved": 0}, {"lon": -76.98195383333334, "bike_id": "40cdb830a82d1fbdb02b3691f17c3515", "lat": 38.89946533333333, "fusion_lon": 0.0, "fusion_lat": 0.0, "type": "electric_scooter", "name": "40cdb830a82d1fbdb02b3691f17c3515", "is_disabled": 0, "rental_uris": {"ios": "https://dc.lft.to/lastmile_qr_scan", "android": "https://dc.lft.to/lastmile_qr_scan"}, "is_reserved": 0}, {"lon": -76.98715883333334, "bike_id": "596d682a6e86f6e31067a2ee6c1f9007", "lat": 38.866262, "fusion_lon": 0.0, "fusion_lat": 0.0, "type": "electric_scooter", "name": "596d682a6e86f6e31067a2ee6c1f9007", "is_disabled": 0, "rental_uris": {"ios": "https://dc.lft.to/lastmile_qr_scan", "android": "https://dc.lft.to/lastmile_qr_scan"}, "is_reserved": 0}, {"lon": -76.97997583333333, "bike_id": "be804a868767382ef429bb50c50b0707", "lat": 38.906791, "fusion_lon": 0.0, "fusion_lat": 0.0, "type": "electric_scooter", "name": "be804a868767382ef429bb50c50b0707", "is_disabled": 0, "rental_uris": {"ios": "https://dc.lft.to/lastmile_qr_scan", "android": "https://dc.lft.to/lastmile_qr_scan"}, "is_reserved": 0}, {"lon": -77.04358233333333, "bike_id": "e24692f24a2b5c6acf49949829c2dbcb", "lat": 38.915922, "fusion_lon": 0.0, "fusion_lat": 0.0, "type": "electric_scooter", "name": "e24692f24a2b5c6acf49949829c2dbcb", "is_disabled": 0, "rental_uris": {"ios": "https://dc.lft.to/lastmile_qr_scan", "android": "https://dc.lft.to/lastmile_qr_scan"}, "is_reserved": 0}, {"lon": -77.00751833333334, "bike_id": "4b9478e2b42a8152a8c666045569834d", "lat": 38.89843283333333, "fusion_lon": 0.0, "fusion_lat": 0.0, "type": "electric_scooter", "name": "4b9478e2b42a8152a8c666045569834d", "is_disabled": 0, "rental_uris": {"ios": "https://dc.lft.to/lastmile_qr_scan", "android": "https://dc.lft.to/lastmile_qr_scan"}, "is_reserved": 0}, {"lon": -77.00215033333333, "bike_id": "c68d85632e130dd74b291d4dc34fcbe9", "lat": 38.885117666666666, "fusion_lon": 0.0, "fusion_lat": 0.0, "type": "electric_scooter", "name": "c68d85632e130dd74b291d4dc34fcbe9", "is_disabled": 0, "rental_uris": {"ios": "https://dc.lft.to/lastmile_qr_scan", "android": "https://dc.lft.to/lastmile_qr_scan"}, "is_reserved": 0}, {"lon": -77.02597283333333, "bike_id": "053b00106105c6345be5564d8016c1b4", "lat": 38.895964, "fusion_lon": 0.0, "fusion_lat": 0.0, "type": "electric_bike", "name": "053b00106105c6345be5564d8016c1b4", "is_disabled": 0, "rental_uris": {"ios": "https://dc.lft.to/lastmile_qr_scan", "android": "https://dc.lft.to/lastmile_qr_scan"}, "is_reserved": 0}, {"lon": -76.997561, "bike_id": "886b3998d4ababac610053c9b30180d2", "lat": 38.95009866666667, "fusion_lon": 0.0, "fusion_lat": 0.0, "type": "electric_bike", "name": "886b3998d4ababac610053c9b30180d2", "is_disabled": 0, "rental_uris": {"ios": "https://dc.lft.to/lastmile_qr_scan", "android": "https://dc.lft.to/lastmile_qr_scan"}, "is_reserved": 0}, {"lon": -77.02366716666667, "bike_id": "bc0124a3d0ba2904b5c1e22289b690fe", "lat": 38.903076666666664, "fusion_lon": 0.0, "fusion_lat": 0.0, "type": "electric_scooter", "name": "bc0124a3d0ba2904b5c1e22289b690fe", "is_disabled": 0, "rental_uris": {"ios": "https://dc.lft.to/lastmile_qr_scan", "android": "https://dc.lft.to/lastmile_qr_scan"}, "is_reserved": 0}, {"lon": -77.0759995, "bike_id": "2a88a0a912ad93c23632fb4be3bcb5ca", "lat": 38.912144833333336, "fusion_lon": 0.0, "fusion_lat": 0.0, "type": "electric_scooter", "name": "2a88a0a912ad93c23632fb4be3bcb5ca", "is_disabled": 0, "rental_uris": {"ios": "https://dc.lft.to/lastmile_qr_scan", "android": "https://dc.lft.to/lastmile_qr_scan"}, "is_reserved": 0}, {"lon": -76.950008, "bike_id": "b4cdaa74db21c1460dbac3ef6e63b0d3", "lat": 38.8938155, "fusion_lon": 0.0, "fusion_lat": 0.0, "type": "electric_scooter", "name": "b4cdaa74db21c1460dbac3ef6e63b0d3", "is_disabled": 0, "rental_uris": {"ios": "https://dc.lft.to/lastmile_qr_scan", "android": "https://dc.lft.to/lastmile_qr_scan"}, "is_reserved": 0}, {"lon": -77.02257866666666, "bike_id": "5659a402d1c9746abc01590fc602925f", "lat": 38.92524066666667, "fusion_lon": 0.0, "fusion_lat": 0.0, "type": "electric_scooter", "name": "5659a402d1c9746abc01590fc602925f", "is_disabled": 0, "rental_uris": {"ios": "https://dc.lft.to/lastmile_qr_scan", "android": "https://dc.lft.to/lastmile_qr_scan"}, "is_reserved": 0}, {"lon": -76.98829783333333, "bike_id": "04a376b13e984a339912f7f9af238928", "lat": 38.900518166666664, "fusion_lon": 0.0, "fusion_lat": 0.0, "type": "electric_scooter", "name": "04a376b13e984a339912f7f9af238928", "is_disabled": 0, "rental_uris": {"ios": "https://dc.lft.to/lastmile_qr_scan", "android": "https://dc.lft.to/lastmile_qr_scan"}, "is_reserved": 0}, {"lon": -77.015433, "bike_id": "b822a413d4ef66e7b7174f9eed68d5c1", "lat": 38.88498, "fusion_lon": 0.0, "fusion_lat": 0.0, "type": "electric_scooter", "name": "b822a413d4ef66e7b7174f9eed68d5c1", "is_disabled": 0, "rental_uris": {"ios": "https://dc.lft.to/lastmile_qr_scan", "android": "https://dc.lft.to/lastmile_qr_scan"}, "is_reserved": 0}, {"lon": -77.02202633333333, "bike_id": "84970d4cdb92ff9af5dae0656e574764", "lat": 38.905530166666665, "fusion_lon": 0.0, "fusion_lat": 0.0, "type": "electric_scooter", "name": "84970d4cdb92ff9af5dae0656e574764", "is_disabled": 0, "rental_uris": {"ios": "https://dc.lft.to/lastmile_qr_scan", "android": "https://dc.lft.to/lastmile_qr_scan"}, "is_reserved": 0}, {"lon": -77.03759316666667, "bike_id": "d7e1b23228ae1cadba79c935d959564c", "lat": 38.911759833333335, "fusion_lon": 0.0, "fusion_lat": 0.0, "type": "electric_scooter", "name": "d7e1b23228ae1cadba79c935d959564c", "is_disabled": 0, "rental_uris": {"ios": "https://dc.lft.to/lastmile_qr_scan", "android": "https://dc.lft.to/lastmile_qr_scan"}, "is_reserved": 0}, {"lon": -77.03178166666666, "bike_id": "c7f48e2735af8b838e7e7c44c02b80e7", "lat": 38.93602516666667, "fusion_lon": 0.0, "fusion_lat": 0.0, "type": "electric_scooter", "name": "c7f48e2735af8b838e7e7c44c02b80e7", "is_disabled": 0, "rental_uris": {"ios": "https://dc.lft.to/lastmile_qr_scan", "android": "https://dc.lft.to/lastmile_qr_scan"}, "is_reserved": 0}, {"lon": -77.040424, "bike_id": "5b9227ba3e8399202d774f60243b290f", "lat": 38.91859616666667, "fusion_lon": 0.0, "fusion_lat": 0.0, "type": "electric_scooter", "name": "5b9227ba3e8399202d774f60243b290f", "is_disabled": 0, "rental_uris": {"ios": "https://dc.lft.to/lastmile_qr_scan", "android": "https://dc.lft.to/lastmile_qr_scan"}, "is_reserved": 0}, {"lon": -77.04182033333333, "bike_id": "26b9ca28997c9d65d90281dab2162128", "lat": 38.918666333333334, "fusion_lon": 0.0, "fusion_lat": 0.0, "type": "electric_scooter", "name": "26b9ca28997c9d65d90281dab2162128", "is_disabled": 0, "rental_uris": {"ios": "https://dc.lft.to/lastmile_qr_scan", "android": "https://dc.lft.to/lastmile_qr_scan"}, "is_reserved": 0}, {"lon": -77.03129116666666, "bike_id": "82acd9606207b7b4cf8d8af8abd6ca73", "lat": 38.944976833333335, "fusion_lon": 0.0, "fusion_lat": 0.0, "type": "electric_scooter", "name": "82acd9606207b7b4cf8d8af8abd6ca73", "is_disabled": 0, "rental_uris": {"ios": "https://dc.lft.to/lastmile_qr_scan", "android": "https://dc.lft.to/lastmile_qr_scan"}, "is_reserved": 0}, {"lon": -77.03162266666666, "bike_id": "c808d53246f158097d38c762fb28e6f7", "lat": 38.92102533333333, "fusion_lon": 0.0, "fusion_lat": 0.0, "type": "electric_bike", "name": "c808d53246f158097d38c762fb28e6f7", "is_disabled": 0, "rental_uris": {"ios": "https://dc.lft.to/lastmile_qr_scan", "android": "https://dc.lft.to/lastmile_qr_scan"}, "is_reserved": 0}, {"lon": -77.03467516666667, "bike_id": "2d2bf588775130d45968d1b1c9fc8892", "lat": 38.90555233333333, "fusion_lon": 0.0, "fusion_lat": 0.0, "type": "electric_scooter", "name": "2d2bf588775130d45968d1b1c9fc8892", "is_disabled": 0, "rental_uris": {"ios": "https://dc.lft.to/lastmile_qr_scan", "android": "https://dc.lft.to/lastmile_qr_scan"}, "is_reserved": 0}, {"lon": -76.99766516666666, "bike_id": "bbd99d452cb3bdb3b055d450721bce73", "lat": 38.901248833333334, "fusion_lon": 0.0, "fusion_lat": 0.0, "type": "electric_scooter", "name": "bbd99d452cb3bdb3b055d450721bce73", "is_disabled": 0, "rental_uris": {"ios": "https://dc.lft.to/lastmile_qr_scan", "android": "https://dc.lft.to/lastmile_qr_scan"}, "is_reserved": 0}, {"lon": -76.98771916666666, "bike_id": "0acdbc8b67c09c7ad4da992ce2f4912f", "lat": 38.86603433333333, "fusion_lon": 0.0, "fusion_lat": 0.0, "type": "electric_bike", "name": "0acdbc8b67c09c7ad4da992ce2f4912f", "is_disabled": 0, "rental_uris": {"ios": "https://dc.lft.to/lastmile_qr_scan", "android": "https://dc.lft.to/lastmile_qr_scan"}, "is_reserved": 0}, {"lon": -77.18565533333333, "bike_id": "8ddf2683e27a7a08700d2d69c232b91e", "lat": 39.09971983333333, "fusion_lon": 0.0, "fusion_lat": 0.0, "type": "electric_bike", "name": "8ddf2683e27a7a08700d2d69c232b91e", "is_disabled": 0, "rental_uris": {"ios": "https://dc.lft.to/lastmile_qr_scan", "android": "https://dc.lft.to/lastmile_qr_scan"}, "is_reserved": 0}, {"lon": -76.9774825, "bike_id": "53d5ffd0940a5788f265fe87d59d44a7", "lat": 38.864847166666664, "fusion_lon": 0.0, "fusion_lat": 0.0, "type": "electric_bike", "name": "53d5ffd0940a5788f265fe87d59d44a7", "is_disabled": 0, "rental_uris": {"ios": "https://dc.lft.to/lastmile_qr_scan", "android": "https://dc.lft.to/lastmile_qr_scan"}, "is_reserved": 0}, {"lon": -77.02311733333333, "bike_id": "37b6d16464c2788249e289d41e2a8861", "lat": 38.916058166666666, "fusion_lon": 0.0, "fusion_lat": 0.0, "type": "electric_scooter", "name": "37b6d16464c2788249e289d41e2a8861", "is_disabled": 0, "rental_uris": {"ios": "https://dc.lft.to/lastmile_qr_scan", "android": "https://dc.lft.to/lastmile_qr_scan"}, "is_reserved": 0}, {"lon": -77.00087766666667, "bike_id": "d2342dfb77a7a9269884cfdfbf4de81b", "lat": 38.87602366666667, "fusion_lon": 0.0, "fusion_lat": 0.0, "type": "electric_scooter", "name": "d2342dfb77a7a9269884cfdfbf4de81b", "is_disabled": 0, "rental_uris": {"ios": "https://dc.lft.to/lastmile_qr_scan", "android": "https://dc.lft.to/lastmile_qr_scan"}, "is_reserved": 0}, {"lon": -77.03534566666667, "bike_id": "ed051a43c45f52645834ac1961762956", "lat": 38.92415883333334, "fusion_lon": 0.0, "fusion_lat": 0.0, "type": "electric_scooter", "name": "ed051a43c45f52645834ac1961762956", "is_disabled": 0, "rental_uris": {"ios": "https://dc.lft.to/lastmile_qr_scan", "android": "https://dc.lft.to/lastmile_qr_scan"}, "is_reserved": 0}, {"lon": -77.13105433333334, "bike_id": "82dfbc1bf686e065f6bb2cc49475caca", "lat": 39.02430433333333, "fusion_lon": 0.0, "fusion_lat": 0.0, "type": "electric_bike", "name": "82dfbc1bf686e065f6bb2cc49475caca", "is_disabled": 0, "rental_uris": {"ios": "https://dc.lft.to/lastmile_qr_scan", "android": "https://dc.lft.to/lastmile_qr_scan"}, "is_reserved": 0}, {"lon": -77.01119383333334, "bike_id": "071c10e9eebeecd4344ad93d7d6255ea", "lat": 38.8854825, "fusion_lon": 0.0, "fusion_lat": 0.0, "type": "electric_scooter", "name": "071c10e9eebeecd4344ad93d7d6255ea", "is_disabled": 0, "rental_uris": {"ios": "https://dc.lft.to/lastmile_qr_scan", "android": "https://dc.lft.to/lastmile_qr_scan"}, "is_reserved": 0}, {"lon": -77.04338166666666, "bike_id": "689522e93ba53fced3f2c0270a2c5f03", "lat": 38.9063395, "fusion_lon": 0.0, "fusion_lat": 0.0, "type": "electric_scooter", "name": "689522e93ba53fced3f2c0270a2c5f03", "is_disabled": 0, "rental_uris": {"ios": "https://dc.lft.to/lastmile_qr_scan", "android": "https://dc.lft.to/lastmile_qr_scan"}, "is_reserved": 0}, {"lon": -77.056268, "bike_id": "8a3bef7ae323d41e373b529252062857", "lat": 38.9607365, "fusion_lon": 0.0, "fusion_lat": 0.0, "type": "electric_scooter", "name": "8a3bef7ae323d41e373b529252062857", "is_disabled": 0, "rental_uris": {"ios": "https://dc.lft.to/lastmile_qr_scan", "android": "https://dc.lft.to/lastmile_qr_scan"}, "is_reserved": 0}, {"lon": -77.02969033333333, "bike_id": "32d324ec455417793d905ea6b7f1333a", "lat": 38.91685233333333, "fusion_lon": 0.0, "fusion_lat": 0.0, "type": "electric_scooter", "name": "32d324ec455417793d905ea6b7f1333a", "is_disabled": 0, "rental_uris": {"ios": "https://dc.lft.to/lastmile_qr_scan", "android": "https://dc.lft.to/lastmile_qr_scan"}, "is_reserved": 0}, {"lon": -76.98836083333333, "bike_id": "ad5a1fb5452fd686ea37475920443a9a", "lat": 38.900509166666666, "fusion_lon": 0.0, "fusion_lat": 0.0, "type": "electric_scooter", "name": "ad5a1fb5452fd686ea37475920443a9a", "is_disabled": 0, "rental_uris": {"ios": "https://dc.lft.to/lastmile_qr_scan", "android": "https://dc.lft.to/lastmile_qr_scan"}, "is_reserved": 0}, {"lon": -77.07694866666667, "bike_id": "0edd86df5d77691a40e19172f75bbcd1", "lat": 38.888597, "fusion_lon": 0.0, "fusion_lat": 0.0, "type": "electric_bike", "name": "0edd86df5d77691a40e19172f75bbcd1", "is_disabled": 0, "rental_uris": {"ios": "https://dc.lft.to/lastmile_qr_scan", "android": "https://dc.lft.to/lastmile_qr_scan"}, "is_reserved": 0}, {"lon": -77.0037555, "bike_id": "fc998292991e5f1cb93bf5602eb7a366", "lat": 38.88697, "fusion_lon": 0.0, "fusion_lat": 0.0, "type": "electric_scooter", "name": "fc998292991e5f1cb93bf5602eb7a366", "is_disabled": 0, "rental_uris": {"ios": "https://dc.lft.to/lastmile_qr_scan", "android": "https://dc.lft.to/lastmile_qr_scan"}, "is_reserved": 0}, {"lon": -77.052919, "bike_id": "1827320ff051458b1668ef9d1374af7a", "lat": 38.903350333333336, "fusion_lon": 0.0, "fusion_lat": 0.0, "type": "electric_scooter", "name": "1827320ff051458b1668ef9d1374af7a", "is_disabled": 0, "rental_uris": {"ios": "https://dc.lft.to/lastmile_qr_scan", "android": "https://dc.lft.to/lastmile_qr_scan"}, "is_reserved": 0}, {"lon": -77.0034055, "bike_id": "4a2e2136986ee0a733c038ea90c9e3d7", "lat": 38.903583833333336, "fusion_lon": 0.0, "fusion_lat": 0.0, "type": "electric_scooter", "name": "4a2e2136986ee0a733c038ea90c9e3d7", "is_disabled": 0, "rental_uris": {"ios": "https://dc.lft.to/lastmile_qr_scan", "android": "https://dc.lft.to/lastmile_qr_scan"}, "is_reserved": 0}, {"lon": -76.9412425, "bike_id": "3fa945043f2feb31cfa77f67d19313b8", "lat": 38.9081455, "fusion_lon": 0.0, "fusion_lat": 0.0, "type": "electric_scooter", "name": "3fa945043f2feb31cfa77f67d19313b8", "is_disabled": 0, "rental_uris": {"ios": "https://dc.lft.to/lastmile_qr_scan", "android": "https://dc.lft.to/lastmile_qr_scan"}, "is_reserved": 0}, {"lon": -77.03075433333333, "bike_id": "e83a9f587c26f44564823a5910cd10cf", "lat": 38.907637, "fusion_lon": 0.0, "fusion_lat": 0.0, "type": "electric_scooter", "name": "e83a9f587c26f44564823a5910cd10cf", "is_disabled": 0, "rental_uris": {"ios": "https://dc.lft.to/lastmile_qr_scan", "android": "https://dc.lft.to/lastmile_qr_scan"}, "is_reserved": 0}, {"lon": -77.00712483333334, "bike_id": "7d1785262cf46301126f8b8fb011a25f", "lat": 38.88488483333333, "fusion_lon": 0.0, "fusion_lat": 0.0, "type": "electric_scooter", "name": "7d1785262cf46301126f8b8fb011a25f", "is_disabled": 0, "rental_uris": {"ios": "https://dc.lft.to/lastmile_qr_scan", "android": "https://dc.lft.to/lastmile_qr_scan"}, "is_reserved": 0}, {"lon": -77.03852983333333, "bike_id": "3e163612b71d30f8d7c096cdae098772", "lat": 38.915732166666665, "fusion_lon": 0.0, "fusion_lat": 0.0, "type": "electric_scooter", "name": "3e163612b71d30f8d7c096cdae098772", "is_disabled": 0, "rental_uris": {"ios": "https://dc.lft.to/lastmile_qr_scan", "android": "https://dc.lft.to/lastmile_qr_scan"}, "is_reserved": 0}, {"lon": -76.948178, "bike_id": "9f4c0fe80f064ef5ffdfebff73ee1ed6", "lat": 38.861869666666664, "fusion_lon": 0.0, "fusion_lat": 0.0, "type": "electric_bike", "name": "9f4c0fe80f064ef5ffdfebff73ee1ed6", "is_disabled": 0, "rental_uris": {"ios": "https://dc.lft.to/lastmile_qr_scan", "android": "https://dc.lft.to/lastmile_qr_scan"}, "is_reserved": 0}, {"lon": -77.01713783333334, "bike_id": "6fda45c35925536d091001589d9cc3d6", "lat": 38.917444833333334, "fusion_lon": 0.0, "fusion_lat": 0.0, "type": "electric_scooter", "name": "6fda45c35925536d091001589d9cc3d6", "is_disabled": 0, "rental_uris": {"ios": "https://dc.lft.to/lastmile_qr_scan", "android": "https://dc.lft.to/lastmile_qr_scan"}, "is_reserved": 0}, {"lon": -77.0075525, "bike_id": "af7236cefc9759368298344b8f0f5e0e", "lat": 38.903633666666664, "fusion_lon": 0.0, "fusion_lat": 0.0, "type": "electric_bike", "name": "af7236cefc9759368298344b8f0f5e0e", "is_disabled": 0, "rental_uris": {"ios": "https://dc.lft.to/lastmile_qr_scan", "android": "https://dc.lft.to/lastmile_qr_scan"}, "is_reserved": 0}, {"lon": -77.03382833333333, "bike_id": "478fe936945ed6122f7acaaf37c74dd1", "lat": 38.9385915, "fusion_lon": 0.0, "fusion_lat": 0.0, "type": "electric_scooter", "name": "478fe936945ed6122f7acaaf37c74dd1", "is_disabled": 0, "rental_uris": {"ios": "https://dc.lft.to/lastmile_qr_scan", "android": "https://dc.lft.to/lastmile_qr_scan"}, "is_reserved": 0}, {"lon": -77.0250955, "bike_id": "34bc6380004a7aa63482b83981475e41", "lat": 38.9398785, "fusion_lon": 0.0, "fusion_lat": 0.0, "type": "electric_scooter", "name": "34bc6380004a7aa63482b83981475e41", "is_disabled": 0, "rental_uris": {"ios": "https://dc.lft.to/lastmile_qr_scan", "android": "https://dc.lft.to/lastmile_qr_scan"}, "is_reserved": 0}, {"lon": -77.00682883333333, "bike_id": "7cc5eaa7ea35a6bd855c53ec46001b74", "lat": 38.834865666666666, "fusion_lon": 0.0, "fusion_lat": 0.0, "type": "electric_scooter", "name": "7cc5eaa7ea35a6bd855c53ec46001b74", "is_disabled": 0, "rental_uris": {"ios": "https://dc.lft.to/lastmile_qr_scan", "android": "https://dc.lft.to/lastmile_qr_scan"}, "is_reserved": 0}, {"lon": -77.03473116666666, "bike_id": "de3d7d1c9805452a0b9dd6037e69a419", "lat": 38.8848475, "fusion_lon": 0.0, "fusion_lat": 0.0, "type": "electric_scooter", "name": "de3d7d1c9805452a0b9dd6037e69a419", "is_disabled": 0, "rental_uris": {"ios": "https://dc.lft.to/lastmile_qr_scan", "android": "https://dc.lft.to/lastmile_qr_scan"}, "is_reserved": 0}, {"lon": -77.00767866666666, "bike_id": "11565001583cf38159950efc5d885d30", "lat": 38.871092166666664, "fusion_lon": 0.0, "fusion_lat": 0.0, "type": "electric_scooter", "name": "11565001583cf38159950efc5d885d30", "is_disabled": 0, "rental_uris": {"ios": "https://dc.lft.to/lastmile_qr_scan", "android": "https://dc.lft.to/lastmile_qr_scan"}, "is_reserved": 0}, {"lon": -77.36089866666667, "bike_id": "c38080bedb1a7d1659d7eee66ca685af", "lat": 38.93964416666667, "fusion_lon": 0.0, "fusion_lat": 0.0, "type": "electric_bike", "name": "c38080bedb1a7d1659d7eee66ca685af", "is_disabled": 0, "rental_uris": {"ios": "https://dc.lft.to/lastmile_qr_scan", "android": "https://dc.lft.to/lastmile_qr_scan"}, "is_reserved": 0}, {"lon": -77.02429383333333, "bike_id": "9bec811bde20385849c2b339ed88f341", "lat": 38.920457999999996, "fusion_lon": 0.0, "fusion_lat": 0.0, "type": "electric_scooter", "name": "9bec811bde20385849c2b339ed88f341", "is_disabled": 0, "rental_uris": {"ios": "https://dc.lft.to/lastmile_qr_scan", "android": "https://dc.lft.to/lastmile_qr_scan"}, "is_reserved": 0}, {"lon": -76.94726766666666, "bike_id": "3ee9a95b17e152c37f1bc00aeabc93c3", "lat": 38.897394166666665, "fusion_lon": 0.0, "fusion_lat": 0.0, "type": "electric_scooter", "name": "3ee9a95b17e152c37f1bc00aeabc93c3", "is_disabled": 0, "rental_uris": {"ios": "https://dc.lft.to/lastmile_qr_scan", "android": "https://dc.lft.to/lastmile_qr_scan"}, "is_reserved": 0}, {"lon": -77.022832, "bike_id": "23fd93603aeaf76a234c7745378d8d40", "lat": 38.909558, "fusion_lon": 0.0, "fusion_lat": 0.0, "type": "electric_scooter", "name": "23fd93603aeaf76a234c7745378d8d40", "is_disabled": 0, "rental_uris": {"ios": "https://dc.lft.to/lastmile_qr_scan", "android": "https://dc.lft.to/lastmile_qr_scan"}, "is_reserved": 0}, {"lon": -77.01619966666667, "bike_id": "aff513282eadf6cb56524dafbf9f3ac8", "lat": 38.965807, "fusion_lon": 0.0, "fusion_lat": 0.0, "type": "electric_scooter", "name": "aff513282eadf6cb56524dafbf9f3ac8", "is_disabled": 0, "rental_uris": {"ios": "https://dc.lft.to/lastmile_qr_scan", "android": "https://dc.lft.to/lastmile_qr_scan"}, "is_reserved": 0}, {"lon": -77.02684, "bike_id": "805c654f4377acdee9aa5660052c74c8", "lat": 38.912517, "fusion_lon": 0.0, "fusion_lat": 0.0, "type": "electric_scooter", "name": "805c654f4377acdee9aa5660052c74c8", "is_disabled": 0, "rental_uris": {"ios": "https://dc.lft.to/lastmile_qr_scan", "android": "https://dc.lft.to/lastmile_qr_scan"}, "is_reserved": 0}, {"lon": -76.90604866666666, "bike_id": "0a73e4e61a2dd9e23f374e3128004d17", "lat": 39.00457516666667, "fusion_lon": 0.0, "fusion_lat": 0.0, "type": "electric_bike", "name": "0a73e4e61a2dd9e23f374e3128004d17", "is_disabled": 0, "rental_uris": {"ios": "https://dc.lft.to/lastmile_qr_scan", "android": "https://dc.lft.to/lastmile_qr_scan"}, "is_reserved": 0}, {"lon": -77.01213183333333, "bike_id": "104851ce3fba630b6f034cd121fc968a", "lat": 38.88558733333333, "fusion_lon": 0.0, "fusion_lat": 0.0, "type": "electric_scooter", "name": "104851ce3fba630b6f034cd121fc968a", "is_disabled": 0, "rental_uris": {"ios": "https://dc.lft.to/lastmile_qr_scan", "android": "https://dc.lft.to/lastmile_qr_scan"}, "is_reserved": 0}, {"lon": -77.04163116666666, "bike_id": "cf4fb2897d9412ee5e9abe62c76bc52c", "lat": 38.915103333333334, "fusion_lon": 0.0, "fusion_lat": 0.0, "type": "electric_scooter", "name": "cf4fb2897d9412ee5e9abe62c76bc52c", "is_disabled": 0, "rental_uris": {"ios": "https://dc.lft.to/lastmile_qr_scan", "android": "https://dc.lft.to/lastmile_qr_scan"}, "is_reserved": 0}, {"lon": -76.977052, "bike_id": "48368f3a20a4113980d64661dbf1d988", "lat": 38.94915783333333, "fusion_lon": 0.0, "fusion_lat": 0.0, "type": "electric_bike", "name": "48368f3a20a4113980d64661dbf1d988", "is_disabled": 0, "rental_uris": {"ios": "https://dc.lft.to/lastmile_qr_scan", "android": "https://dc.lft.to/lastmile_qr_scan"}, "is_reserved": 0}, {"lon": -77.03211666666667, "bike_id": "d345219a891b426276865bb877e40ed5", "lat": 38.916812166666666, "fusion_lon": 0.0, "fusion_lat": 0.0, "type": "electric_scooter", "name": "d345219a891b426276865bb877e40ed5", "is_disabled": 0, "rental_uris": {"ios": "https://dc.lft.to/lastmile_qr_scan", "android": "https://dc.lft.to/lastmile_qr_scan"}, "is_reserved": 0}, {"lon": -77.03863633333333, "bike_id": "43ab68b8147c6c123e77abc3efb8e957", "lat": 38.91558116666667, "fusion_lon": 0.0, "fusion_lat": 0.0, "type": "electric_scooter", "name": "43ab68b8147c6c123e77abc3efb8e957", "is_disabled": 0, "rental_uris": {"ios": "https://dc.lft.to/lastmile_qr_scan", "android": "https://dc.lft.to/lastmile_qr_scan"}, "is_reserved": 0}, {"lon": -77.032651, "bike_id": "9fe0424357f8fdeaa02f9dbe612973e0", "lat": 38.91404716666667, "fusion_lon": 0.0, "fusion_lat": 0.0, "type": "electric_scooter", "name": "9fe0424357f8fdeaa02f9dbe612973e0", "is_disabled": 0, "rental_uris": {"ios": "https://dc.lft.to/lastmile_qr_scan", "android": "https://dc.lft.to/lastmile_qr_scan"}, "is_reserved": 0}, {"lon": -76.98895166666667, "bike_id": "73da8f706121a1a28d567d2b2315fbb9", "lat": 38.866524166666665, "fusion_lon": 0.0, "fusion_lat": 0.0, "type": "electric_scooter", "name": "73da8f706121a1a28d567d2b2315fbb9", "is_disabled": 0, "rental_uris": {"ios": "https://dc.lft.to/lastmile_qr_scan", "android": "https://dc.lft.to/lastmile_qr_scan"}, "is_reserved": 0}, {"lon": -77.037668, "bike_id": "539b6e08de750f2277aced8e77aa4ef9", "lat": 38.929422, "fusion_lon": 0.0, "fusion_lat": 0.0, "type": "electric_scooter", "name": "539b6e08de750f2277aced8e77aa4ef9", "is_disabled": 0, "rental_uris": {"ios": "https://dc.lft.to/lastmile_qr_scan", "android": "https://dc.lft.to/lastmile_qr_scan"}, "is_reserved": 0}, {"lon": -77.0004025, "bike_id": "039a8764ab5ae23e2575d37739b4f39f", "lat": 38.96833616666667, "fusion_lon": 0.0, "fusion_lat": 0.0, "type": "electric_bike", "name": "039a8764ab5ae23e2575d37739b4f39f", "is_disabled": 0, "rental_uris": {"ios": "https://dc.lft.to/lastmile_qr_scan", "android": "https://dc.lft.to/lastmile_qr_scan"}, "is_reserved": 0}, {"lon": -76.97689266666667, "bike_id": "715a36316dfd2aacc8e7675df8c64980", "lat": 38.896165833333335, "fusion_lon": 0.0, "fusion_lat": 0.0, "type": "electric_scooter", "name": "715a36316dfd2aacc8e7675df8c64980", "is_disabled": 0, "rental_uris": {"ios": "https://dc.lft.to/lastmile_qr_scan", "android": "https://dc.lft.to/lastmile_qr_scan"}, "is_reserved": 0}, {"lon": -77.04423, "bike_id": "735fc8bea70f61f09b1ef6efcaa86e3f", "lat": 38.9094555, "fusion_lon": 0.0, "fusion_lat": 0.0, "type": "electric_scooter", "name": "735fc8bea70f61f09b1ef6efcaa86e3f", "is_disabled": 0, "rental_uris": {"ios": "https://dc.lft.to/lastmile_qr_scan", "android": "https://dc.lft.to/lastmile_qr_scan"}, "is_reserved": 0}, {"lon": -77.021593, "bike_id": "589fce9ac9c5262f4bdfa3837104b0f7", "lat": 38.89304816666667, "fusion_lon": 0.0, "fusion_lat": 0.0, "type": "electric_scooter", "name": "589fce9ac9c5262f4bdfa3837104b0f7", "is_disabled": 0, "rental_uris": {"ios": "https://dc.lft.to/lastmile_qr_scan", "android": "https://dc.lft.to/lastmile_qr_scan"}, "is_reserved": 0}, {"lon": -76.98657783333333, "bike_id": "f8b2c2c28a77246004bcad93046477cf", "lat": 38.901399833333336, "fusion_lon": 0.0, "fusion_lat": 0.0, "type": "electric_scooter", "name": "f8b2c2c28a77246004bcad93046477cf", "is_disabled": 0, "rental_uris": {"ios": "https://dc.lft.to/lastmile_qr_scan", "android": "https://dc.lft.to/lastmile_qr_scan"}, "is_reserved": 0}, {"lon": -77.03848983333333, "bike_id": "f227178a9aeec103fd0982d1863cc7ad", "lat": 38.91576383333334, "fusion_lon": 0.0, "fusion_lat": 0.0, "type": "electric_scooter", "name": "f227178a9aeec103fd0982d1863cc7ad", "is_disabled": 0, "rental_uris": {"ios": "https://dc.lft.to/lastmile_qr_scan", "android": "https://dc.lft.to/lastmile_qr_scan"}, "is_reserved": 0}, {"lon": -77.05415783333333, "bike_id": "721355bf5718756aae34db5ae3381114", "lat": 38.9014215, "fusion_lon": 0.0, "fusion_lat": 0.0, "type": "electric_scooter", "name": "721355bf5718756aae34db5ae3381114", "is_disabled": 0, "rental_uris": {"ios": "https://dc.lft.to/lastmile_qr_scan", "android": "https://dc.lft.to/lastmile_qr_scan"}, "is_reserved": 0}, {"lon": -77.03203166666667, "bike_id": "337d4b26c02aa5415f44cc4578896d51", "lat": 38.944061833333336, "fusion_lon": 0.0, "fusion_lat": 0.0, "type": "electric_scooter", "name": "337d4b26c02aa5415f44cc4578896d51", "is_disabled": 0, "rental_uris": {"ios": "https://dc.lft.to/lastmile_qr_scan", "android": "https://dc.lft.to/lastmile_qr_scan"}, "is_reserved": 0}, {"lon": -77.02027933333333, "bike_id": "7398ffa95ca341ef8710e0098c2df882", "lat": 38.90137516666667, "fusion_lon": 0.0, "fusion_lat": 0.0, "type": "electric_scooter", "name": "7398ffa95ca341ef8710e0098c2df882", "is_disabled": 0, "rental_uris": {"ios": "https://dc.lft.to/lastmile_qr_scan", "android": "https://dc.lft.to/lastmile_qr_scan"}, "is_reserved": 0}, {"lon": -77.03354833333333, "bike_id": "7a0adb6207498cf8ca5d94b7aff88bfe", "lat": 38.9028235, "fusion_lon": 0.0, "fusion_lat": 0.0, "type": "electric_scooter", "name": "7a0adb6207498cf8ca5d94b7aff88bfe", "is_disabled": 0, "rental_uris": {"ios": "https://dc.lft.to/lastmile_qr_scan", "android": "https://dc.lft.to/lastmile_qr_scan"}, "is_reserved": 0}, {"lon": -76.950132, "bike_id": "d9aac0db2fbf400f09d0f1481a25cfc3", "lat": 38.89396433333334, "fusion_lon": 0.0, "fusion_lat": 0.0, "type": "electric_scooter", "name": "d9aac0db2fbf400f09d0f1481a25cfc3", "is_disabled": 0, "rental_uris": {"ios": "https://dc.lft.to/lastmile_qr_scan", "android": "https://dc.lft.to/lastmile_qr_scan"}, "is_reserved": 0}, {"lon": -77.04325716666666, "bike_id": "3e4ce94706374d0916943353e6384e09", "lat": 38.918727833333335, "fusion_lon": 0.0, "fusion_lat": 0.0, "type": "electric_scooter", "name": "3e4ce94706374d0916943353e6384e09", "is_disabled": 0, "rental_uris": {"ios": "https://dc.lft.to/lastmile_qr_scan", "android": "https://dc.lft.to/lastmile_qr_scan"}, "is_reserved": 0}, {"lon": -77.02711516666666, "bike_id": "c408770bb82d13c3c2ec2e39ee7db9fb", "lat": 38.91730483333333, "fusion_lon": 0.0, "fusion_lat": 0.0, "type": "electric_scooter", "name": "c408770bb82d13c3c2ec2e39ee7db9fb", "is_disabled": 0, "rental_uris": {"ios": "https://dc.lft.to/lastmile_qr_scan", "android": "https://dc.lft.to/lastmile_qr_scan"}, "is_reserved": 0}, {"lon": -77.02693183333334, "bike_id": "0fac14583b1f15641a7e25db581ac20f", "lat": 38.94887083333333, "fusion_lon": 0.0, "fusion_lat": 0.0, "type": "electric_scooter", "name": "0fac14583b1f15641a7e25db581ac20f", "is_disabled": 0, "rental_uris": {"ios": "https://dc.lft.to/lastmile_qr_scan", "android": "https://dc.lft.to/lastmile_qr_scan"}, "is_reserved": 0}, {"lon": -76.98540683333333, "bike_id": "8a38a9a050944d9bfe79bf4008661f9c", "lat": 38.910185166666665, "fusion_lon": 0.0, "fusion_lat": 0.0, "type": "electric_scooter", "name": "8a38a9a050944d9bfe79bf4008661f9c", "is_disabled": 0, "rental_uris": {"ios": "https://dc.lft.to/lastmile_qr_scan", "android": "https://dc.lft.to/lastmile_qr_scan"}, "is_reserved": 0}, {"lon": -77.026847, "bike_id": "cb121172a062d19bbf328fbc17f31087", "lat": 38.98490266666667, "fusion_lon": 0.0, "fusion_lat": 0.0, "type": "electric_scooter", "name": "cb121172a062d19bbf328fbc17f31087", "is_disabled": 0, "rental_uris": {"ios": "https://dc.lft.to/lastmile_qr_scan", "android": "https://dc.lft.to/lastmile_qr_scan"}, "is_reserved": 0}, {"lon": -77.0150885, "bike_id": "544e8651a33c927df33083e2a4861db5", "lat": 38.926745333333336, "fusion_lon": 0.0, "fusion_lat": 0.0, "type": "electric_scooter", "name": "544e8651a33c927df33083e2a4861db5", "is_disabled": 0, "rental_uris": {"ios": "https://dc.lft.to/lastmile_qr_scan", "android": "https://dc.lft.to/lastmile_qr_scan"}, "is_reserved": 0}, {"lon": -77.01982466666666, "bike_id": "6d91ba93813e0c3164ea7f3402123b6c", "lat": 38.96026, "fusion_lon": 0.0, "fusion_lat": 0.0, "type": "electric_scooter", "name": "6d91ba93813e0c3164ea7f3402123b6c", "is_disabled": 0, "rental_uris": {"ios": "https://dc.lft.to/lastmile_qr_scan", "android": "https://dc.lft.to/lastmile_qr_scan"}, "is_reserved": 0}, {"lon": -77.01546233333333, "bike_id": "41e8a5a59ebd0b9c7c380c3990c27af0", "lat": 38.883235666666664, "fusion_lon": 0.0, "fusion_lat": 0.0, "type": "electric_scooter", "name": "41e8a5a59ebd0b9c7c380c3990c27af0", "is_disabled": 0, "rental_uris": {"ios": "https://dc.lft.to/lastmile_qr_scan", "android": "https://dc.lft.to/lastmile_qr_scan"}, "is_reserved": 0}, {"lon": -77.06884166666667, "bike_id": "95d3890dcc2a4ba05c3716574bbd3fd5", "lat": 38.9528805, "fusion_lon": 0.0, "fusion_lat": 0.0, "type": "electric_scooter", "name": "95d3890dcc2a4ba05c3716574bbd3fd5", "is_disabled": 0, "rental_uris": {"ios": "https://dc.lft.to/lastmile_qr_scan", "android": "https://dc.lft.to/lastmile_qr_scan"}, "is_reserved": 0}, {"lon": -77.00139066666667, "bike_id": "3a90c0314f3535e23d74e950cd77ee29", "lat": 38.8428215, "fusion_lon": 0.0, "fusion_lat": 0.0, "type": "electric_scooter", "name": "3a90c0314f3535e23d74e950cd77ee29", "is_disabled": 0, "rental_uris": {"ios": "https://dc.lft.to/lastmile_qr_scan", "android": "https://dc.lft.to/lastmile_qr_scan"}, "is_reserved": 0}, {"lon": -77.03226033333333, "bike_id": "c07029e6951a17ab180485d25ce0dd95", "lat": 38.91402166666666, "fusion_lon": 0.0, "fusion_lat": 0.0, "type": "electric_scooter", "name": "c07029e6951a17ab180485d25ce0dd95", "is_disabled": 0, "rental_uris": {"ios": "https://dc.lft.to/lastmile_qr_scan", "android": "https://dc.lft.to/lastmile_qr_scan"}, "is_reserved": 0}, {"lon": -77.031816, "bike_id": "2c245991f85027bc56d1418697df1920", "lat": 38.8841465, "fusion_lon": 0.0, "fusion_lat": 0.0, "type": "electric_scooter", "name": "2c245991f85027bc56d1418697df1920", "is_disabled": 0, "rental_uris": {"ios": "https://dc.lft.to/lastmile_qr_scan", "android": "https://dc.lft.to/lastmile_qr_scan"}, "is_reserved": 0}, {"lon": -76.93180116666667, "bike_id": "3f1ad1032c8e209e223299cac4ef29b3", "lat": 38.89881366666667, "fusion_lon": 0.0, "fusion_lat": 0.0, "type": "electric_scooter", "name": "3f1ad1032c8e209e223299cac4ef29b3", "is_disabled": 0, "rental_uris": {"ios": "https://dc.lft.to/lastmile_qr_scan", "android": "https://dc.lft.to/lastmile_qr_scan"}, "is_reserved": 0}, {"lon": -77.02372816666667, "bike_id": "87789fe7cbd16592dc1091adedd25dde", "lat": 38.93327933333333, "fusion_lon": 0.0, "fusion_lat": 0.0, "type": "electric_scooter", "name": "87789fe7cbd16592dc1091adedd25dde", "is_disabled": 0, "rental_uris": {"ios": "https://dc.lft.to/lastmile_qr_scan", "android": "https://dc.lft.to/lastmile_qr_scan"}, "is_reserved": 0}, {"lon": -76.9875635, "bike_id": "792705363c8f7f03e258f079de2d94fa", "lat": 38.90378233333333, "fusion_lon": 0.0, "fusion_lat": 0.0, "type": "electric_scooter", "name": "792705363c8f7f03e258f079de2d94fa", "is_disabled": 0, "rental_uris": {"ios": "https://dc.lft.to/lastmile_qr_scan", "android": "https://dc.lft.to/lastmile_qr_scan"}, "is_reserved": 0}, {"lon": -77.014153, "bike_id": "78547dc63faadf1c2bd5f8305c386f47", "lat": 38.928408833333336, "fusion_lon": 0.0, "fusion_lat": 0.0, "type": "electric_scooter", "name": "78547dc63faadf1c2bd5f8305c386f47", "is_disabled": 0, "rental_uris": {"ios": "https://dc.lft.to/lastmile_qr_scan", "android": "https://dc.lft.to/lastmile_qr_scan"}, "is_reserved": 0}, {"lon": -76.98345833333333, "bike_id": "d50c24932e09e279648a949a4fa37b1a", "lat": 38.9029395, "fusion_lon": 0.0, "fusion_lat": 0.0, "type": "electric_scooter", "name": "d50c24932e09e279648a949a4fa37b1a", "is_disabled": 0, "rental_uris": {"ios": "https://dc.lft.to/lastmile_qr_scan", "android": "https://dc.lft.to/lastmile_qr_scan"}, "is_reserved": 0}, {"lon": -77.05255366666667, "bike_id": "816e3ac3d07cd266eacce329d8521fde", "lat": 38.92372733333333, "fusion_lon": 0.0, "fusion_lat": 0.0, "type": "electric_scooter", "name": "816e3ac3d07cd266eacce329d8521fde", "is_disabled": 0, "rental_uris": {"ios": "https://dc.lft.to/lastmile_qr_scan", "android": "https://dc.lft.to/lastmile_qr_scan"}, "is_reserved": 0}, {"lon": -77.012192, "bike_id": "bb32ccf4c51caf1eabd3c3f989699041", "lat": 38.870952333333335, "fusion_lon": 0.0, "fusion_lat": 0.0, "type": "electric_bike", "name": "bb32ccf4c51caf1eabd3c3f989699041", "is_disabled": 0, "rental_uris": {"ios": "https://dc.lft.to/lastmile_qr_scan", "android": "https://dc.lft.to/lastmile_qr_scan"}, "is_reserved": 0}, {"lon": -77.03937433333333, "bike_id": "2d1aa167c92df49237ebca83614d85e0", "lat": 38.90079016666667, "fusion_lon": 0.0, "fusion_lat": 0.0, "type": "electric_scooter", "name": "2d1aa167c92df49237ebca83614d85e0", "is_disabled": 0, "rental_uris": {"ios": "https://dc.lft.to/lastmile_qr_scan", "android": "https://dc.lft.to/lastmile_qr_scan"}, "is_reserved": 0}, {"lon": -77.02440533333333, "bike_id": "62d76a9dfc4d2467974fdab48d93f87f", "lat": 38.91685783333333, "fusion_lon": 0.0, "fusion_lat": 0.0, "type": "electric_scooter", "name": "62d76a9dfc4d2467974fdab48d93f87f", "is_disabled": 0, "rental_uris": {"ios": "https://dc.lft.to/lastmile_qr_scan", "android": "https://dc.lft.to/lastmile_qr_scan"}, "is_reserved": 0}, {"lon": -76.993745, "bike_id": "885ab3513c57725f47ac35150333be3a", "lat": 38.9718635, "fusion_lon": 0.0, "fusion_lat": 0.0, "type": "electric_bike", "name": "885ab3513c57725f47ac35150333be3a", "is_disabled": 0, "rental_uris": {"ios": "https://dc.lft.to/lastmile_qr_scan", "android": "https://dc.lft.to/lastmile_qr_scan"}, "is_reserved": 0}, {"lon": -77.08070516666666, "bike_id": "b41790ff47764f6f92a4c6ab8fbaefea", "lat": 38.96315966666667, "fusion_lon": 0.0, "fusion_lat": 0.0, "type": "electric_bike", "name": "b41790ff47764f6f92a4c6ab8fbaefea", "is_disabled": 0, "rental_uris": {"ios": "https://dc.lft.to/lastmile_qr_scan", "android": "https://dc.lft.to/lastmile_qr_scan"}, "is_reserved": 0}, {"lon": -77.07010166666667, "bike_id": "71e718916e756a38f529edddde8b7e63", "lat": 38.95847716666667, "fusion_lon": 0.0, "fusion_lat": 0.0, "type": "electric_scooter", "name": "71e718916e756a38f529edddde8b7e63", "is_disabled": 0, "rental_uris": {"ios": "https://dc.lft.to/lastmile_qr_scan", "android": "https://dc.lft.to/lastmile_qr_scan"}, "is_reserved": 0}, {"lon": -77.02490783333333, "bike_id": "7f478689373f7b0cfbec904a061e9750", "lat": 38.941823, "fusion_lon": 0.0, "fusion_lat": 0.0, "type": "electric_scooter", "name": "7f478689373f7b0cfbec904a061e9750", "is_disabled": 0, "rental_uris": {"ios": "https://dc.lft.to/lastmile_qr_scan", "android": "https://dc.lft.to/lastmile_qr_scan"}, "is_reserved": 0}, {"lon": -76.97855783333333, "bike_id": "8adf8f12865142c7fd8b34483ef5b03f", "lat": 38.92553916666667, "fusion_lon": 0.0, "fusion_lat": 0.0, "type": "electric_bike", "name": "8adf8f12865142c7fd8b34483ef5b03f", "is_disabled": 0, "rental_uris": {"ios": "https://dc.lft.to/lastmile_qr_scan", "android": "https://dc.lft.to/lastmile_qr_scan"}, "is_reserved": 0}, {"lon": -77.0058465, "bike_id": "759b91959545f069551610a084497ef9", "lat": 38.83580116666667, "fusion_lon": 0.0, "fusion_lat": 0.0, "type": "electric_scooter", "name": "759b91959545f069551610a084497ef9", "is_disabled": 0, "rental_uris": {"ios": "https://dc.lft.to/lastmile_qr_scan", "android": "https://dc.lft.to/lastmile_qr_scan"}, "is_reserved": 0}, {"lon": -76.94896933333334, "bike_id": "a241b7f3e2d821afc1df25b2bd3e07cd", "lat": 38.895429, "fusion_lon": 0.0, "fusion_lat": 0.0, "type": "electric_scooter", "name": "a241b7f3e2d821afc1df25b2bd3e07cd", "is_disabled": 0, "rental_uris": {"ios": "https://dc.lft.to/lastmile_qr_scan", "android": "https://dc.lft.to/lastmile_qr_scan"}, "is_reserved": 0}, {"lon": -77.0160355, "bike_id": "72831ab9bc8afbaf6c2f062ee6d0e50d", "lat": 38.8996885, "fusion_lon": 0.0, "fusion_lat": 0.0, "type": "electric_scooter", "name": "72831ab9bc8afbaf6c2f062ee6d0e50d", "is_disabled": 0, "rental_uris": {"ios": "https://dc.lft.to/lastmile_qr_scan", "android": "https://dc.lft.to/lastmile_qr_scan"}, "is_reserved": 0}, {"lon": -77.08458716666667, "bike_id": "226ed9ba655d98b912e1c31f8abc68f8", "lat": 38.84814816666667, "fusion_lon": 0.0, "fusion_lat": 0.0, "type": "electric_bike", "name": "226ed9ba655d98b912e1c31f8abc68f8", "is_disabled": 0, "rental_uris": {"ios": "https://dc.lft.to/lastmile_qr_scan", "android": "https://dc.lft.to/lastmile_qr_scan"}, "is_reserved": 0}, {"lon": -77.071517, "bike_id": "8743c3b0c3656b5fdde01ec86e2ad7f5", "lat": 38.908715666666666, "fusion_lon": 0.0, "fusion_lat": 0.0, "type": "electric_scooter", "name": "8743c3b0c3656b5fdde01ec86e2ad7f5", "is_disabled": 0, "rental_uris": {"ios": "https://dc.lft.to/lastmile_qr_scan", "android": "https://dc.lft.to/lastmile_qr_scan"}, "is_reserved": 0}, {"lon": -77.02426616666666, "bike_id": "0b09f47b1ee9f0340f9d3b61f93253d0", "lat": 38.926555, "fusion_lon": 0.0, "fusion_lat": 0.0, "type": "electric_scooter", "name": "0b09f47b1ee9f0340f9d3b61f93253d0", "is_disabled": 0, "rental_uris": {"ios": "https://dc.lft.to/lastmile_qr_scan", "android": "https://dc.lft.to/lastmile_qr_scan"}, "is_reserved": 0}, {"lon": -77.03273533333333, "bike_id": "5bb61383faf66ff1f086e33da8f64d0b", "lat": 38.91807633333333, "fusion_lon": 0.0, "fusion_lat": 0.0, "type": "electric_scooter", "name": "5bb61383faf66ff1f086e33da8f64d0b", "is_disabled": 0, "rental_uris": {"ios": "https://dc.lft.to/lastmile_qr_scan", "android": "https://dc.lft.to/lastmile_qr_scan"}, "is_reserved": 0}, {"lon": -77.04237083333334, "bike_id": "350169f4278ae53c74c08c6327f9c58f", "lat": 38.9217375, "fusion_lon": 0.0, "fusion_lat": 0.0, "type": "electric_scooter", "name": "350169f4278ae53c74c08c6327f9c58f", "is_disabled": 0, "rental_uris": {"ios": "https://dc.lft.to/lastmile_qr_scan", "android": "https://dc.lft.to/lastmile_qr_scan"}, "is_reserved": 0}, {"lon": -77.003566, "bike_id": "cba0ca35d138194035fcbb8c965afaab", "lat": 38.92046833333333, "fusion_lon": 0.0, "fusion_lat": 0.0, "type": "electric_scooter", "name": "cba0ca35d138194035fcbb8c965afaab", "is_disabled": 0, "rental_uris": {"ios": "https://dc.lft.to/lastmile_qr_scan", "android": "https://dc.lft.to/lastmile_qr_scan"}, "is_reserved": 0}, {"lon": -77.03408583333334, "bike_id": "5d2c0e56bbc51ea0fcfab34f63a17f78", "lat": 38.922570666666665, "fusion_lon": 0.0, "fusion_lat": 0.0, "type": "electric_scooter", "name": "5d2c0e56bbc51ea0fcfab34f63a17f78", "is_disabled": 0, "rental_uris": {"ios": "https://dc.lft.to/lastmile_qr_scan", "android": "https://dc.lft.to/lastmile_qr_scan"}, "is_reserved": 0}, {"lon": -77.0415695, "bike_id": "983d3799afc908d257e7740f7794e86d", "lat": 38.9036905, "fusion_lon": 0.0, "fusion_lat": 0.0, "type": "electric_scooter", "name": "983d3799afc908d257e7740f7794e86d", "is_disabled": 0, "rental_uris": {"ios": "https://dc.lft.to/lastmile_qr_scan", "android": "https://dc.lft.to/lastmile_qr_scan"}, "is_reserved": 0}, {"lon": -77.18742366666666, "bike_id": "0f0acdf4157d4f4d592a0ce031096efa", "lat": 38.893521, "fusion_lon": 0.0, "fusion_lat": 0.0, "type": "electric_bike", "name": "0f0acdf4157d4f4d592a0ce031096efa", "is_disabled": 0, "rental_uris": {"ios": "https://dc.lft.to/lastmile_qr_scan", "android": "https://dc.lft.to/lastmile_qr_scan"}, "is_reserved": 0}, {"lon": -77.01326483333334, "bike_id": "81dff9621f3f68decc67ac2b5ed68684", "lat": 38.879175000000004, "fusion_lon": 0.0, "fusion_lat": 0.0, "type": "electric_scooter", "name": "81dff9621f3f68decc67ac2b5ed68684", "is_disabled": 0, "rental_uris": {"ios": "https://dc.lft.to/lastmile_qr_scan", "android": "https://dc.lft.to/lastmile_qr_scan"}, "is_reserved": 0}, {"lon": -77.0312075, "bike_id": "fe5e7126650d0c50106ea1dbb7b56491", "lat": 38.92015933333333, "fusion_lon": 0.0, "fusion_lat": 0.0, "type": "electric_scooter", "name": "fe5e7126650d0c50106ea1dbb7b56491", "is_disabled": 0, "rental_uris": {"ios": "https://dc.lft.to/lastmile_qr_scan", "android": "https://dc.lft.to/lastmile_qr_scan"}, "is_reserved": 0}, {"lon": -77.039117, "bike_id": "22b7b345f8911c8d27ba53165ccddc6f", "lat": 38.923529, "fusion_lon": 0.0, "fusion_lat": 0.0, "type": "electric_scooter", "name": "22b7b345f8911c8d27ba53165ccddc6f", "is_disabled": 0, "rental_uris": {"ios": "https://dc.lft.to/lastmile_qr_scan", "android": "https://dc.lft.to/lastmile_qr_scan"}, "is_reserved": 0}, {"lon": -77.05535666666667, "bike_id": "fa0efd951d6582d547a75b9ae5ded630", "lat": 38.934294666666666, "fusion_lon": 0.0, "fusion_lat": 0.0, "type": "electric_scooter", "name": "fa0efd951d6582d547a75b9ae5ded630", "is_disabled": 0, "rental_uris": {"ios": "https://dc.lft.to/lastmile_qr_scan", "android": "https://dc.lft.to/lastmile_qr_scan"}, "is_reserved": 0}, {"lon": -77.034995, "bike_id": "0fc1efe52a5df4360988186ca58a27d4", "lat": 38.937481166666664, "fusion_lon": 0.0, "fusion_lat": 0.0, "type": "electric_scooter", "name": "0fc1efe52a5df4360988186ca58a27d4", "is_disabled": 0, "rental_uris": {"ios": "https://dc.lft.to/lastmile_qr_scan", "android": "https://dc.lft.to/lastmile_qr_scan"}, "is_reserved": 0}, {"lon": -77.02415583333334, "bike_id": "0739d069b0ed0a04241a3ad24efdc968", "lat": 38.909721166666664, "fusion_lon": 0.0, "fusion_lat": 0.0, "type": "electric_scooter", "name": "0739d069b0ed0a04241a3ad24efdc968", "is_disabled": 0, "rental_uris": {"ios": "https://dc.lft.to/lastmile_qr_scan", "android": "https://dc.lft.to/lastmile_qr_scan"}, "is_reserved": 0}, {"lon": -76.98837916666666, "bike_id": "76c9593738323b72b41ec61db1d45aa8", "lat": 38.90080716666667, "fusion_lon": 0.0, "fusion_lat": 0.0, "type": "electric_scooter", "name": "76c9593738323b72b41ec61db1d45aa8", "is_disabled": 0, "rental_uris": {"ios": "https://dc.lft.to/lastmile_qr_scan", "android": "https://dc.lft.to/lastmile_qr_scan"}, "is_reserved": 0}, {"lon": -77.03467333333333, "bike_id": "fbe2b3a807b950efb6e7f8e861b067a7", "lat": 38.928759, "fusion_lon": 0.0, "fusion_lat": 0.0, "type": "electric_scooter", "name": "fbe2b3a807b950efb6e7f8e861b067a7", "is_disabled": 0, "rental_uris": {"ios": "https://dc.lft.to/lastmile_qr_scan", "android": "https://dc.lft.to/lastmile_qr_scan"}, "is_reserved": 0}, {"lon": -76.97860933333334, "bike_id": "42e76f9e1938bf337119020ad5a750f2", "lat": 38.87079966666667, "fusion_lon": 0.0, "fusion_lat": 0.0, "type": "electric_scooter", "name": "42e76f9e1938bf337119020ad5a750f2", "is_disabled": 0, "rental_uris": {"ios": "https://dc.lft.to/lastmile_qr_scan", "android": "https://dc.lft.to/lastmile_qr_scan"}, "is_reserved": 0}, {"lon": -77.03037216666667, "bike_id": "b04f63ace8c3240910006afaf3503158", "lat": 38.916916666666665, "fusion_lon": 0.0, "fusion_lat": 0.0, "type": "electric_scooter", "name": "b04f63ace8c3240910006afaf3503158", "is_disabled": 0, "rental_uris": {"ios": "https://dc.lft.to/lastmile_qr_scan", "android": "https://dc.lft.to/lastmile_qr_scan"}, "is_reserved": 0}, {"lon": -77.02953616666667, "bike_id": "bae3596359bc047981cfd97c1334111e", "lat": 38.921753333333335, "fusion_lon": 0.0, "fusion_lat": 0.0, "type": "electric_scooter", "name": "bae3596359bc047981cfd97c1334111e", "is_disabled": 0, "rental_uris": {"ios": "https://dc.lft.to/lastmile_qr_scan", "android": "https://dc.lft.to/lastmile_qr_scan"}, "is_reserved": 0}, {"lon": -77.00187016666666, "bike_id": "8de6b9a52cbbf66d141fbae42c23fd47", "lat": 38.91469683333333, "fusion_lon": 0.0, "fusion_lat": 0.0, "type": "electric_scooter", "name": "8de6b9a52cbbf66d141fbae42c23fd47", "is_disabled": 0, "rental_uris": {"ios": "https://dc.lft.to/lastmile_qr_scan", "android": "https://dc.lft.to/lastmile_qr_scan"}, "is_reserved": 0}, {"lon": -77.04879966666667, "bike_id": "7fdbf093f400db3cbc0763969e11e539", "lat": 38.892965, "fusion_lon": 0.0, "fusion_lat": 0.0, "type": "electric_scooter", "name": "7fdbf093f400db3cbc0763969e11e539", "is_disabled": 0, "rental_uris": {"ios": "https://dc.lft.to/lastmile_qr_scan", "android": "https://dc.lft.to/lastmile_qr_scan"}, "is_reserved": 0}, {"lon": -77.06405983333333, "bike_id": "891fa873e8352ba05368965b418f5efd", "lat": 38.840519, "fusion_lon": 0.0, "fusion_lat": 0.0, "type": "electric_bike", "name": "891fa873e8352ba05368965b418f5efd", "is_disabled": 0, "rental_uris": {"ios": "https://dc.lft.to/lastmile_qr_scan", "android": "https://dc.lft.to/lastmile_qr_scan"}, "is_reserved": 0}, {"lon": -77.02383716666667, "bike_id": "7fc906e691a4d554b90349370db75e49", "lat": 38.90082866666667, "fusion_lon": 0.0, "fusion_lat": 0.0, "type": "electric_scooter", "name": "7fc906e691a4d554b90349370db75e49", "is_disabled": 0, "rental_uris": {"ios": "https://dc.lft.to/lastmile_qr_scan", "android": "https://dc.lft.to/lastmile_qr_scan"}, "is_reserved": 0}, {"lon": -76.93510083333334, "bike_id": "c7b7edec226492533f76943f908276fa", "lat": 38.887231666666665, "fusion_lon": 0.0, "fusion_lat": 0.0, "type": "electric_bike", "name": "c7b7edec226492533f76943f908276fa", "is_disabled": 0, "rental_uris": {"ios": "https://dc.lft.to/lastmile_qr_scan", "android": "https://dc.lft.to/lastmile_qr_scan"}, "is_reserved": 0}, {"lon": -77.02445983333334, "bike_id": "39331865248dde1a7cc7f29c2126897e", "lat": 38.89949883333333, "fusion_lon": 0.0, "fusion_lat": 0.0, "type": "electric_scooter", "name": "39331865248dde1a7cc7f29c2126897e", "is_disabled": 0, "rental_uris": {"ios": "https://dc.lft.to/lastmile_qr_scan", "android": "https://dc.lft.to/lastmile_qr_scan"}, "is_reserved": 0}, {"lon": -77.0178375, "bike_id": "1bbae8acab248b81341dfa3a5e1ab369", "lat": 38.9014215, "fusion_lon": 0.0, "fusion_lat": 0.0, "type": "electric_scooter", "name": "1bbae8acab248b81341dfa3a5e1ab369", "is_disabled": 0, "rental_uris": {"ios": "https://dc.lft.to/lastmile_qr_scan", "android": "https://dc.lft.to/lastmile_qr_scan"}, "is_reserved": 0}, {"lon": -76.99523583333334, "bike_id": "9cf2a931e27b87b0a0dc05a498efb8e8", "lat": 38.90006, "fusion_lon": 0.0, "fusion_lat": 0.0, "type": "electric_scooter", "name": "9cf2a931e27b87b0a0dc05a498efb8e8", "is_disabled": 0, "rental_uris": {"ios": "https://dc.lft.to/lastmile_qr_scan", "android": "https://dc.lft.to/lastmile_qr_scan"}, "is_reserved": 0}, {"lon": -76.997823, "bike_id": "89cd7af57e3778d4994c2fd3cc4e2896", "lat": 38.844342, "fusion_lon": 0.0, "fusion_lat": 0.0, "type": "electric_scooter", "name": "89cd7af57e3778d4994c2fd3cc4e2896", "is_disabled": 0, "rental_uris": {"ios": "https://dc.lft.to/lastmile_qr_scan", "android": "https://dc.lft.to/lastmile_qr_scan"}, "is_reserved": 0}, {"lon": -77.0339885, "bike_id": "d72a0e5dd06328e3df04dc9fec903700", "lat": 38.96020883333333, "fusion_lon": 0.0, "fusion_lat": 0.0, "type": "electric_bike", "name": "d72a0e5dd06328e3df04dc9fec903700", "is_disabled": 0, "rental_uris": {"ios": "https://dc.lft.to/lastmile_qr_scan", "android": "https://dc.lft.to/lastmile_qr_scan"}, "is_reserved": 0}, {"lon": -77.04316, "bike_id": "0515fb9802c218c4bda885668021f097", "lat": 38.918799, "fusion_lon": 0.0, "fusion_lat": 0.0, "type": "electric_scooter", "name": "0515fb9802c218c4bda885668021f097", "is_disabled": 0, "rental_uris": {"ios": "https://dc.lft.to/lastmile_qr_scan", "android": "https://dc.lft.to/lastmile_qr_scan"}, "is_reserved": 0}, {"lon": -77.02232, "bike_id": "67a344329ea3b55a5d62d047a728f6c2", "lat": 38.90187733333333, "fusion_lon": 0.0, "fusion_lat": 0.0, "type": "electric_scooter", "name": "67a344329ea3b55a5d62d047a728f6c2", "is_disabled": 0, "rental_uris": {"ios": "https://dc.lft.to/lastmile_qr_scan", "android": "https://dc.lft.to/lastmile_qr_scan"}, "is_reserved": 0}, {"lon": -77.02435366666667, "bike_id": "bba9d86ec2eca71b26183846357dc83c", "lat": 38.92748983333333, "fusion_lon": 0.0, "fusion_lat": 0.0, "type": "electric_scooter", "name": "bba9d86ec2eca71b26183846357dc83c", "is_disabled": 0, "rental_uris": {"ios": "https://dc.lft.to/lastmile_qr_scan", "android": "https://dc.lft.to/lastmile_qr_scan"}, "is_reserved": 0}, {"lon": -77.03182366666667, "bike_id": "b26e26c95687cbff00650f97778321b1", "lat": 38.909103, "fusion_lon": 0.0, "fusion_lat": 0.0, "type": "electric_scooter", "name": "b26e26c95687cbff00650f97778321b1", "is_disabled": 0, "rental_uris": {"ios": "https://dc.lft.to/lastmile_qr_scan", "android": "https://dc.lft.to/lastmile_qr_scan"}, "is_reserved": 0}, {"lon": -77.02625183333333, "bike_id": "661a3b7ea937b23a5426137664cce099", "lat": 38.915303333333334, "fusion_lon": 0.0, "fusion_lat": 0.0, "type": "electric_scooter", "name": "661a3b7ea937b23a5426137664cce099", "is_disabled": 0, "rental_uris": {"ios": "https://dc.lft.to/lastmile_qr_scan", "android": "https://dc.lft.to/lastmile_qr_scan"}, "is_reserved": 0}, {"lon": -77.00104866666666, "bike_id": "8a9d07934f2895bf0b99a4c1d9f5d828", "lat": 38.89473483333333, "fusion_lon": 0.0, "fusion_lat": 0.0, "type": "electric_scooter", "name": "8a9d07934f2895bf0b99a4c1d9f5d828", "is_disabled": 0, "rental_uris": {"ios": "https://dc.lft.to/lastmile_qr_scan", "android": "https://dc.lft.to/lastmile_qr_scan"}, "is_reserved": 0}, {"lon": -77.00287766666666, "bike_id": "7e6f51613b002076788b9fe55833475f", "lat": 38.956988333333335, "fusion_lon": 0.0, "fusion_lat": 0.0, "type": "electric_bike", "name": "7e6f51613b002076788b9fe55833475f", "is_disabled": 0, "rental_uris": {"ios": "https://dc.lft.to/lastmile_qr_scan", "android": "https://dc.lft.to/lastmile_qr_scan"}, "is_reserved": 0}, {"lon": -76.9658165, "bike_id": "9fcff3db6cc9bcd6472601925af9a788", "lat": 38.87134183333333, "fusion_lon": 0.0, "fusion_lat": 0.0, "type": "electric_scooter", "name": "9fcff3db6cc9bcd6472601925af9a788", "is_disabled": 0, "rental_uris": {"ios": "https://dc.lft.to/lastmile_qr_scan", "android": "https://dc.lft.to/lastmile_qr_scan"}, "is_reserved": 0}, {"lon": -77.1248435, "bike_id": "b409c8473b4a605eddba605c437a0cff", "lat": 38.827758, "fusion_lon": 0.0, "fusion_lat": 0.0, "type": "electric_bike", "name": "b409c8473b4a605eddba605c437a0cff", "is_disabled": 0, "rental_uris": {"ios": "https://dc.lft.to/lastmile_qr_scan", "android": "https://dc.lft.to/lastmile_qr_scan"}, "is_reserved": 0}, {"lon": -76.992283, "bike_id": "d741d8c839e383479c269e3fe35588b1", "lat": 38.92211866666667, "fusion_lon": 0.0, "fusion_lat": 0.0, "type": "electric_scooter", "name": "d741d8c839e383479c269e3fe35588b1", "is_disabled": 0, "rental_uris": {"ios": "https://dc.lft.to/lastmile_qr_scan", "android": "https://dc.lft.to/lastmile_qr_scan"}, "is_reserved": 0}, {"lon": -77.0642905, "bike_id": "f7216def05f487787a0588df8f4da90a", "lat": 38.908886, "fusion_lon": 0.0, "fusion_lat": 0.0, "type": "electric_scooter", "name": "f7216def05f487787a0588df8f4da90a", "is_disabled": 0, "rental_uris": {"ios": "https://dc.lft.to/lastmile_qr_scan", "android": "https://dc.lft.to/lastmile_qr_scan"}, "is_reserved": 0}, {"lon": -77.0305975, "bike_id": "c5ebd32ea5f61f587b7b8a36a9884ef1", "lat": 38.92479316666667, "fusion_lon": 0.0, "fusion_lat": 0.0, "type": "electric_scooter", "name": "c5ebd32ea5f61f587b7b8a36a9884ef1", "is_disabled": 0, "rental_uris": {"ios": "https://dc.lft.to/lastmile_qr_scan", "android": "https://dc.lft.to/lastmile_qr_scan"}, "is_reserved": 0}, {"lon": -77.0613535, "bike_id": "a4b7a42f98fc4da714d2c9e2f6232b5b", "lat": 38.90534816666667, "fusion_lon": 0.0, "fusion_lat": 0.0, "type": "electric_scooter", "name": "a4b7a42f98fc4da714d2c9e2f6232b5b", "is_disabled": 0, "rental_uris": {"ios": "https://dc.lft.to/lastmile_qr_scan", "android": "https://dc.lft.to/lastmile_qr_scan"}, "is_reserved": 0}, {"lon": -77.000247, "bike_id": "68e50e8fbc4fb1e1be36cf386f48666c", "lat": 38.8735185, "fusion_lon": 0.0, "fusion_lat": 0.0, "type": "electric_scooter", "name": "68e50e8fbc4fb1e1be36cf386f48666c", "is_disabled": 0, "rental_uris": {"ios": "https://dc.lft.to/lastmile_qr_scan", "android": "https://dc.lft.to/lastmile_qr_scan"}, "is_reserved": 0}, {"lon": -76.99771216666667, "bike_id": "94b063f77b60c8d594f8b5d1058b2d42", "lat": 38.92449583333333, "fusion_lon": 0.0, "fusion_lat": 0.0, "type": "electric_scooter", "name": "94b063f77b60c8d594f8b5d1058b2d42", "is_disabled": 0, "rental_uris": {"ios": "https://dc.lft.to/lastmile_qr_scan", "android": "https://dc.lft.to/lastmile_qr_scan"}, "is_reserved": 0}, {"lon": -77.023122, "bike_id": "5998c4eeeee13bd4b9e94337b5451308", "lat": 38.90953966666667, "fusion_lon": 0.0, "fusion_lat": 0.0, "type": "electric_scooter", "name": "5998c4eeeee13bd4b9e94337b5451308", "is_disabled": 0, "rental_uris": {"ios": "https://dc.lft.to/lastmile_qr_scan", "android": "https://dc.lft.to/lastmile_qr_scan"}, "is_reserved": 0}, {"lon": -77.02990716666666, "bike_id": "063ff4418b78e7c45b6c55841603d519", "lat": 38.974379, "fusion_lon": 0.0, "fusion_lat": 0.0, "type": "electric_bike", "name": "063ff4418b78e7c45b6c55841603d519", "is_disabled": 0, "rental_uris": {"ios": "https://dc.lft.to/lastmile_qr_scan", "android": "https://dc.lft.to/lastmile_qr_scan"}, "is_reserved": 0}, {"lon": -77.05854666666667, "bike_id": "efad423e854a76d473d8f85c6afcc79a", "lat": 38.93601783333333, "fusion_lon": 0.0, "fusion_lat": 0.0, "type": "electric_scooter", "name": "efad423e854a76d473d8f85c6afcc79a", "is_disabled": 0, "rental_uris": {"ios": "https://dc.lft.to/lastmile_qr_scan", "android": "https://dc.lft.to/lastmile_qr_scan"}, "is_reserved": 0}, {"lon": -77.0503765, "bike_id": "6289ad90e040a89f9557e036559e72d3", "lat": 38.897766, "fusion_lon": 0.0, "fusion_lat": 0.0, "type": "electric_scooter", "name": "6289ad90e040a89f9557e036559e72d3", "is_disabled": 0, "rental_uris": {"ios": "https://dc.lft.to/lastmile_qr_scan", "android": "https://dc.lft.to/lastmile_qr_scan"}, "is_reserved": 0}, {"lon": -77.05133716666667, "bike_id": "e041483c93e3d9f4d7dbe8e43be8945d", "lat": 38.92359616666667, "fusion_lon": 0.0, "fusion_lat": 0.0, "type": "electric_scooter", "name": "e041483c93e3d9f4d7dbe8e43be8945d", "is_disabled": 0, "rental_uris": {"ios": "https://dc.lft.to/lastmile_qr_scan", "android": "https://dc.lft.to/lastmile_qr_scan"}, "is_reserved": 0}, {"lon": -77.03071833333334, "bike_id": "3f8c3291b56733005c96ca46d68a7708", "lat": 38.88582516666666, "fusion_lon": 0.0, "fusion_lat": 0.0, "type": "electric_scooter", "name": "3f8c3291b56733005c96ca46d68a7708", "is_disabled": 0, "rental_uris": {"ios": "https://dc.lft.to/lastmile_qr_scan", "android": "https://dc.lft.to/lastmile_qr_scan"}, "is_reserved": 0}, {"lon": -77.04148966666666, "bike_id": "d16f3e6dacbac3d4ace1d136470e83a7", "lat": 38.922962, "fusion_lon": 0.0, "fusion_lat": 0.0, "type": "electric_scooter", "name": "d16f3e6dacbac3d4ace1d136470e83a7", "is_disabled": 0, "rental_uris": {"ios": "https://dc.lft.to/lastmile_qr_scan", "android": "https://dc.lft.to/lastmile_qr_scan"}, "is_reserved": 0}, {"lon": -76.97844316666666, "bike_id": "20665ca9eb109b7a5e51a763c8d44c84", "lat": 38.865785333333335, "fusion_lon": 0.0, "fusion_lat": 0.0, "type": "electric_bike", "name": "20665ca9eb109b7a5e51a763c8d44c84", "is_disabled": 0, "rental_uris": {"ios": "https://dc.lft.to/lastmile_qr_scan", "android": "https://dc.lft.to/lastmile_qr_scan"}, "is_reserved": 0}, {"lon": -76.9835085, "bike_id": "bf65081799357724f18a238dc0960410", "lat": 38.9029295, "fusion_lon": 0.0, "fusion_lat": 0.0, "type": "electric_scooter", "name": "bf65081799357724f18a238dc0960410", "is_disabled": 0, "rental_uris": {"ios": "https://dc.lft.to/lastmile_qr_scan", "android": "https://dc.lft.to/lastmile_qr_scan"}, "is_reserved": 0}, {"lon": -77.05836383333333, "bike_id": "e1b2eb156ccfaf1a6c1737458a2ef42a", "lat": 38.9052755, "fusion_lon": 0.0, "fusion_lat": 0.0, "type": "electric_scooter", "name": "e1b2eb156ccfaf1a6c1737458a2ef42a", "is_disabled": 0, "rental_uris": {"ios": "https://dc.lft.to/lastmile_qr_scan", "android": "https://dc.lft.to/lastmile_qr_scan"}, "is_reserved": 0}, {"lon": -77.03280766666667, "bike_id": "866a1509775fc3d81a36f3b4c648dc67", "lat": 38.923367166666665, "fusion_lon": 0.0, "fusion_lat": 0.0, "type": "electric_scooter", "name": "866a1509775fc3d81a36f3b4c648dc67", "is_disabled": 0, "rental_uris": {"ios": "https://dc.lft.to/lastmile_qr_scan", "android": "https://dc.lft.to/lastmile_qr_scan"}, "is_reserved": 0}, {"lon": -77.06295483333334, "bike_id": "2406cedd981483bce89e8967f0dcf490", "lat": 38.903971166666665, "fusion_lon": 0.0, "fusion_lat": 0.0, "type": "electric_scooter", "name": "2406cedd981483bce89e8967f0dcf490", "is_disabled": 0, "rental_uris": {"ios": "https://dc.lft.to/lastmile_qr_scan", "android": "https://dc.lft.to/lastmile_qr_scan"}, "is_reserved": 0}, {"lon": -76.944025, "bike_id": "fd5575ede445fafc54148eee9d0b98b0", "lat": 38.881364166666664, "fusion_lon": 0.0, "fusion_lat": 0.0, "type": "electric_scooter", "name": "fd5575ede445fafc54148eee9d0b98b0", "is_disabled": 0, "rental_uris": {"ios": "https://dc.lft.to/lastmile_qr_scan", "android": "https://dc.lft.to/lastmile_qr_scan"}, "is_reserved": 0}, {"lon": -77.03074583333333, "bike_id": "68182186bf248a963efa0a5741918c86", "lat": 38.9076205, "fusion_lon": 0.0, "fusion_lat": 0.0, "type": "electric_scooter", "name": "68182186bf248a963efa0a5741918c86", "is_disabled": 0, "rental_uris": {"ios": "https://dc.lft.to/lastmile_qr_scan", "android": "https://dc.lft.to/lastmile_qr_scan"}, "is_reserved": 0}, {"lon": -77.0220455, "bike_id": "1fc433122cd1a67aa9c479be4eb53056", "lat": 38.900064666666665, "fusion_lon": 0.0, "fusion_lat": 0.0, "type": "electric_scooter", "name": "1fc433122cd1a67aa9c479be4eb53056", "is_disabled": 0, "rental_uris": {"ios": "https://dc.lft.to/lastmile_qr_scan", "android": "https://dc.lft.to/lastmile_qr_scan"}, "is_reserved": 0}, {"lon": -77.0227435, "bike_id": "745f4baa312afcc818129f4e2e1d567c", "lat": 38.927215, "fusion_lon": 0.0, "fusion_lat": 0.0, "type": "electric_scooter", "name": "745f4baa312afcc818129f4e2e1d567c", "is_disabled": 0, "rental_uris": {"ios": "https://dc.lft.to/lastmile_qr_scan", "android": "https://dc.lft.to/lastmile_qr_scan"}, "is_reserved": 0}, {"lon": -76.9749785, "bike_id": "8f1d2f7d671c7be74aabad4478041522", "lat": 38.9192125, "fusion_lon": 0.0, "fusion_lat": 0.0, "type": "electric_scooter", "name": "8f1d2f7d671c7be74aabad4478041522", "is_disabled": 0, "rental_uris": {"ios": "https://dc.lft.to/lastmile_qr_scan", "android": "https://dc.lft.to/lastmile_qr_scan"}, "is_reserved": 0}, {"lon": -77.04572733333333, "bike_id": "02bd592c7402c5f3bbb00d881dbc7d1c", "lat": 38.92131716666667, "fusion_lon": 0.0, "fusion_lat": 0.0, "type": "electric_scooter", "name": "02bd592c7402c5f3bbb00d881dbc7d1c", "is_disabled": 0, "rental_uris": {"ios": "https://dc.lft.to/lastmile_qr_scan", "android": "https://dc.lft.to/lastmile_qr_scan"}, "is_reserved": 0}, {"lon": -76.99355616666666, "bike_id": "5c1b2b8e3f0268f0f07e6634c47b9519", "lat": 38.84504316666667, "fusion_lon": 0.0, "fusion_lat": 0.0, "type": "electric_bike", "name": "5c1b2b8e3f0268f0f07e6634c47b9519", "is_disabled": 0, "rental_uris": {"ios": "https://dc.lft.to/lastmile_qr_scan", "android": "https://dc.lft.to/lastmile_qr_scan"}, "is_reserved": 0}, {"lon": -77.0593, "bike_id": "f695fe2b4d320fb429cbd2415cf8f456", "lat": 38.8624855, "fusion_lon": 0.0, "fusion_lat": 0.0, "type": "electric_scooter", "name": "f695fe2b4d320fb429cbd2415cf8f456", "is_disabled": 0, "rental_uris": {"ios": "https://dc.lft.to/lastmile_qr_scan", "android": "https://dc.lft.to/lastmile_qr_scan"}, "is_reserved": 0}, {"lon": -77.01970583333333, "bike_id": "0b43858e41d1949d7547c5c52ca6534a", "lat": 38.977463, "fusion_lon": 0.0, "fusion_lat": 0.0, "type": "electric_scooter", "name": "0b43858e41d1949d7547c5c52ca6534a", "is_disabled": 0, "rental_uris": {"ios": "https://dc.lft.to/lastmile_qr_scan", "android": "https://dc.lft.to/lastmile_qr_scan"}, "is_reserved": 0}, {"lon": -77.02936, "bike_id": "3904ff4cfaa15f0327b342307fe65b4f", "lat": 38.920801166666664, "fusion_lon": 0.0, "fusion_lat": 0.0, "type": "electric_scooter", "name": "3904ff4cfaa15f0327b342307fe65b4f", "is_disabled": 0, "rental_uris": {"ios": "https://dc.lft.to/lastmile_qr_scan", "android": "https://dc.lft.to/lastmile_qr_scan"}, "is_reserved": 0}, {"lon": -77.00203316666666, "bike_id": "eb8e6c61e454842b48db6b5d00eb564d", "lat": 38.90239366666667, "fusion_lon": 0.0, "fusion_lat": 0.0, "type": "electric_scooter", "name": "eb8e6c61e454842b48db6b5d00eb564d", "is_disabled": 0, "rental_uris": {"ios": "https://dc.lft.to/lastmile_qr_scan", "android": "https://dc.lft.to/lastmile_qr_scan"}, "is_reserved": 0}, {"lon": -77.042528, "bike_id": "3df34c4405c213df110d5e6f5421f478", "lat": 38.922517666666664, "fusion_lon": 0.0, "fusion_lat": 0.0, "type": "electric_scooter", "name": "3df34c4405c213df110d5e6f5421f478", "is_disabled": 0, "rental_uris": {"ios": "https://dc.lft.to/lastmile_qr_scan", "android": "https://dc.lft.to/lastmile_qr_scan"}, "is_reserved": 0}, {"lon": -77.029904, "bike_id": "401bbbe7e89c88b554c0ec21bf52449b", "lat": 38.90284233333333, "fusion_lon": 0.0, "fusion_lat": 0.0, "type": "electric_scooter", "name": "401bbbe7e89c88b554c0ec21bf52449b", "is_disabled": 0, "rental_uris": {"ios": "https://dc.lft.to/lastmile_qr_scan", "android": "https://dc.lft.to/lastmile_qr_scan"}, "is_reserved": 0}, {"lon": -77.05233316666667, "bike_id": "54450ca6e9587808629a22eba93db608", "lat": 38.924566166666665, "fusion_lon": 0.0, "fusion_lat": 0.0, "type": "electric_scooter", "name": "54450ca6e9587808629a22eba93db608", "is_disabled": 0, "rental_uris": {"ios": "https://dc.lft.to/lastmile_qr_scan", "android": "https://dc.lft.to/lastmile_qr_scan"}, "is_reserved": 0}, {"lon": -77.00839166666667, "bike_id": "0d0b64b2066fd9ed4e19de1c9a54c494", "lat": 38.91626083333333, "fusion_lon": 0.0, "fusion_lat": 0.0, "type": "electric_scooter", "name": "0d0b64b2066fd9ed4e19de1c9a54c494", "is_disabled": 0, "rental_uris": {"ios": "https://dc.lft.to/lastmile_qr_scan", "android": "https://dc.lft.to/lastmile_qr_scan"}, "is_reserved": 0}, {"lon": -77.02050216666666, "bike_id": "2f4f9438f83b0fc2c908614023b0535f", "lat": 38.91555816666666, "fusion_lon": 0.0, "fusion_lat": 0.0, "type": "electric_scooter", "name": "2f4f9438f83b0fc2c908614023b0535f", "is_disabled": 0, "rental_uris": {"ios": "https://dc.lft.to/lastmile_qr_scan", "android": "https://dc.lft.to/lastmile_qr_scan"}, "is_reserved": 0}, {"lon": -77.0419625, "bike_id": "aec97a54826d99888c3c38396b693ad7", "lat": 38.920725, "fusion_lon": 0.0, "fusion_lat": 0.0, "type": "electric_scooter", "name": "aec97a54826d99888c3c38396b693ad7", "is_disabled": 0, "rental_uris": {"ios": "https://dc.lft.to/lastmile_qr_scan", "android": "https://dc.lft.to/lastmile_qr_scan"}, "is_reserved": 0}, {"lon": -77.04150666666666, "bike_id": "de2a7a8a99bb3cdfe838b4bad07f0e51", "lat": 38.90375066666667, "fusion_lon": 0.0, "fusion_lat": 0.0, "type": "electric_scooter", "name": "de2a7a8a99bb3cdfe838b4bad07f0e51", "is_disabled": 0, "rental_uris": {"ios": "https://dc.lft.to/lastmile_qr_scan", "android": "https://dc.lft.to/lastmile_qr_scan"}, "is_reserved": 0}, {"lon": -76.98896183333333, "bike_id": "6412b0719704ff52a744aa286b0d9f7f", "lat": 38.91349266666667, "fusion_lon": 0.0, "fusion_lat": 0.0, "type": "electric_scooter", "name": "6412b0719704ff52a744aa286b0d9f7f", "is_disabled": 0, "rental_uris": {"ios": "https://dc.lft.to/lastmile_qr_scan", "android": "https://dc.lft.to/lastmile_qr_scan"}, "is_reserved": 0}, {"lon": -77.01453083333334, "bike_id": "f731138c95ef8f73737282ff467c19ac", "lat": 38.8993935, "fusion_lon": 0.0, "fusion_lat": 0.0, "type": "electric_scooter", "name": "f731138c95ef8f73737282ff467c19ac", "is_disabled": 0, "rental_uris": {"ios": "https://dc.lft.to/lastmile_qr_scan", "android": "https://dc.lft.to/lastmile_qr_scan"}, "is_reserved": 0}, {"lon": -77.02351716666666, "bike_id": "42d969f61c25eb23d7fb1a218292bf9a", "lat": 38.9319765, "fusion_lon": 0.0, "fusion_lat": 0.0, "type": "electric_scooter", "name": "42d969f61c25eb23d7fb1a218292bf9a", "is_disabled": 0, "rental_uris": {"ios": "https://dc.lft.to/lastmile_qr_scan", "android": "https://dc.lft.to/lastmile_qr_scan"}, "is_reserved": 0}, {"lon": -77.02390383333334, "bike_id": "feade4d5df5e9964863bd4c8e59ad174", "lat": 38.91961766666667, "fusion_lon": 0.0, "fusion_lat": 0.0, "type": "electric_scooter", "name": "feade4d5df5e9964863bd4c8e59ad174", "is_disabled": 0, "rental_uris": {"ios": "https://dc.lft.to/lastmile_qr_scan", "android": "https://dc.lft.to/lastmile_qr_scan"}, "is_reserved": 0}, {"lon": -76.94153633333333, "bike_id": "6824e9ce96b87072dee004cdc23781fd", "lat": 38.87903566666667, "fusion_lon": 0.0, "fusion_lat": 0.0, "type": "electric_scooter", "name": "6824e9ce96b87072dee004cdc23781fd", "is_disabled": 0, "rental_uris": {"ios": "https://dc.lft.to/lastmile_qr_scan", "android": "https://dc.lft.to/lastmile_qr_scan"}, "is_reserved": 0}, {"lon": -77.05229233333333, "bike_id": "a59131695b7346daa12657ee878bfce2", "lat": 38.92360333333333, "fusion_lon": 0.0, "fusion_lat": 0.0, "type": "electric_scooter", "name": "a59131695b7346daa12657ee878bfce2", "is_disabled": 0, "rental_uris": {"ios": "https://dc.lft.to/lastmile_qr_scan", "android": "https://dc.lft.to/lastmile_qr_scan"}, "is_reserved": 0}, {"lon": -77.00712616666667, "bike_id": "0a5ba2b62cff082722c6722313783649", "lat": 38.88495966666667, "fusion_lon": 0.0, "fusion_lat": 0.0, "type": "electric_scooter", "name": "0a5ba2b62cff082722c6722313783649", "is_disabled": 0, "rental_uris": {"ios": "https://dc.lft.to/lastmile_qr_scan", "android": "https://dc.lft.to/lastmile_qr_scan"}, "is_reserved": 0}, {"lon": -77.0460835, "bike_id": "44c419b71dc5728a6ae5bb454ff3de5c", "lat": 38.9217705, "fusion_lon": 0.0, "fusion_lat": 0.0, "type": "electric_scooter", "name": "44c419b71dc5728a6ae5bb454ff3de5c", "is_disabled": 0, "rental_uris": {"ios": "https://dc.lft.to/lastmile_qr_scan", "android": "https://dc.lft.to/lastmile_qr_scan"}, "is_reserved": 0}, {"lon": -77.08819433333333, "bike_id": "cf54448f48a6cd1a534825aa3e5d7ca7", "lat": 38.909684, "fusion_lon": 0.0, "fusion_lat": 0.0, "type": "electric_scooter", "name": "cf54448f48a6cd1a534825aa3e5d7ca7", "is_disabled": 0, "rental_uris": {"ios": "https://dc.lft.to/lastmile_qr_scan", "android": "https://dc.lft.to/lastmile_qr_scan"}, "is_reserved": 0}, {"lon": -76.98332066666667, "bike_id": "7270894f3adc7adf5cdadc55c371a336", "lat": 38.90090216666667, "fusion_lon": 0.0, "fusion_lat": 0.0, "type": "electric_scooter", "name": "7270894f3adc7adf5cdadc55c371a336", "is_disabled": 0, "rental_uris": {"ios": "https://dc.lft.to/lastmile_qr_scan", "android": "https://dc.lft.to/lastmile_qr_scan"}, "is_reserved": 0}, {"lon": -76.9926765, "bike_id": "a4b70c8424dd7378f92d3f43e99c577e", "lat": 38.89768983333333, "fusion_lon": 0.0, "fusion_lat": 0.0, "type": "electric_scooter", "name": "a4b70c8424dd7378f92d3f43e99c577e", "is_disabled": 0, "rental_uris": {"ios": "https://dc.lft.to/lastmile_qr_scan", "android": "https://dc.lft.to/lastmile_qr_scan"}, "is_reserved": 0},