{"data": {"bikes": [{"bike_id": "60d7d77a3e349f713047dadf8770faca", "is_reserved": 0, "name": "60d7d77a3e349f713047dadf8770faca", "lat": 38.901778666666665, "fusion_lat": 0.0, "lon": -77.0272875, "is_disabled": 0, "fusion_lon": 0.0, "rental_uris": {"android": "https://dc.lft.to/lastmile_qr_scan", "ios": "https://dc.lft.to/lastmile_qr_scan"}, "type": "electric_scooter"}, {"bike_id": "d9a25ea53c80e9d4b191bf2ebe133935", "is_reserved": 0, "name": "d9a25ea53c80e9d4b191bf2ebe133935", "lat": 38.923694833333336, "fusion_lat": 0.0, "lon": -77.01953033333334, "is_disabled": 0, "fusion_lon": 0.0, "rental_uris": {"android": "https://dc.lft.to/lastmile_qr_scan", "ios": "https://dc.lft.to/lastmile_qr_scan"}, "type": "electric_scooter"}, {"bike_id": "3dc41e132a06a8b6920d874204c53e31", "is_reserved": 0, "name": "3dc41e132a06a8b6920d874204c53e31", "lat": 38.884964833333335, "fusion_lat": 0.0, "lon": -76.980585, "is_disabled": 0, "fusion_lon": 0.0, "rental_uris": {"android": "https://dc.lft.to/lastmile_qr_scan", "ios": "https://dc.lft.to/lastmile_qr_scan"}, "type": "electric_scooter"}, {"bike_id": "835adf99cd8612aa7186597a15e61c87", "is_reserved": 0, "name": "835adf99cd8612aa7186597a15e61c87", "lat": 38.90125283333333, "fusion_lat": 0.0, "lon": -77.04363466666666, "is_disabled": 0, "fusion_lon": 0.0, "rental_uris": {"android": "https://dc.lft.to/lastmile_qr_scan", "ios": "https://dc.lft.to/lastmile_qr_scan"}, "type": "electric_scooter"}, {"bike_id": "1c72e15f916bc1f8e5353dc5142706c5", "is_reserved": 0, "name": "1c72e15f916bc1f8e5353dc5142706c5", "lat": 38.8673065, "fusion_lat": 0.0, "lon": -76.9879005, "is_disabled": 0, "fusion_lon": 0.0, "rental_uris": {"android": "https://dc.lft.to/lastmile_qr_scan", "ios": "https://dc.lft.to/lastmile_qr_scan"}, "type": "electric_scooter"}, {"bike_id": "af75d3eeb581355344c58cfd78f54776", "is_reserved": 0, "name": "af75d3eeb581355344c58cfd78f54776", "lat": 38.96185116666667, "fusion_lat": 0.0, "lon": -77.0526535, "is_disabled": 0, "fusion_lon": 0.0, "rental_uris": {"android": "https://dc.lft.to/lastmile_qr_scan", "ios": "https://dc.lft.to/lastmile_qr_scan"}, "type": "electric_bike"}, {"bike_id": "a492d501495075677a0fbfe7677739d2", "is_reserved": 0, "name": "a492d501495075677a0fbfe7677739d2", "lat": 38.965768, "fusion_lat": 0.0, "lon": -77.00264466666667, "is_disabled": 0, "fusion_lon": 0.0, "rental_uris": {"android": "https://dc.lft.to/lastmile_qr_scan", "ios": "https://dc.lft.to/lastmile_qr_scan"}, "type": "electric_scooter"}, {"bike_id": "f1a8dd509e71a6b00e5bb21dd0177314", "is_reserved": 0, "name": "f1a8dd509e71a6b00e5bb21dd0177314", "lat": 38.89844333333333, "fusion_lat": 0.0, "lon": -77.03040033333333, "is_disabled": 0, "fusion_lon": 0.0, "rental_uris": {"android": "https://dc.lft.to/lastmile_qr_scan", "ios": "https://dc.lft.to/lastmile_qr_scan"}, "type": "electric_scooter"}, {"bike_id": "c0d9d200d132022823182e24d85f0eef", "is_reserved": 0, "name": "c0d9d200d132022823182e24d85f0eef", "lat": 38.886122666666665, "fusion_lat": 0.0, "lon": -76.99536333333333, "is_disabled": 0, "fusion_lon": 0.0, "rental_uris": {"android": "https://dc.lft.to/lastmile_qr_scan", "ios": "https://dc.lft.to/lastmile_qr_scan"}, "type": "electric_scooter"}, {"bike_id": "9bb02fbcbd3a8662376e69d709d77657", "is_reserved": 0, "name": "9bb02fbcbd3a8662376e69d709d77657", "lat": 38.90490233333333, "fusion_lat": 0.0, "lon": -77.02116033333333, "is_disabled": 0, "fusion_lon": 0.0, "rental_uris": {"android": "https://dc.lft.to/lastmile_qr_scan", "ios": "https://dc.lft.to/lastmile_qr_scan"}, "type": "electric_scooter"}, {"bike_id": "c2a07dcaf8e562eaedfb0fea1151fa46", "is_reserved": 0, "name": "c2a07dcaf8e562eaedfb0fea1151fa46", "lat": 38.9242165, "fusion_lat": 0.0, "lon": -77.05748166666666, "is_disabled": 0, "fusion_lon": 0.0, "rental_uris": {"android": "https://dc.lft.to/lastmile_qr_scan", "ios": "https://dc.lft.to/lastmile_qr_scan"}, "type": "electric_scooter"}, {"bike_id": "f17209a51687d18bc71b3089c87cbee1", "is_reserved": 0, "name": "f17209a51687d18bc71b3089c87cbee1", "lat": 38.8737215, "fusion_lat": 0.0, "lon": -77.00126966666667, "is_disabled": 0, "fusion_lon": 0.0, "rental_uris": {"android": "https://dc.lft.to/lastmile_qr_scan", "ios": "https://dc.lft.to/lastmile_qr_scan"}, "type": "electric_scooter"}, {"bike_id": "3729f2c9488b83b6828d3892c2918f6f", "is_reserved": 0, "name": "3729f2c9488b83b6828d3892c2918f6f", "lat": 38.9170725, "fusion_lat": 0.0, "lon": -77.027072, "is_disabled": 0, "fusion_lon": 0.0, "rental_uris": {"android": "https://dc.lft.to/lastmile_qr_scan", "ios": "https://dc.lft.to/lastmile_qr_scan"}, "type": "electric_scooter"}, {"bike_id": "32eb5bf3ce0e78cf8bee8c1c4656f910", "is_reserved": 0, "name": "32eb5bf3ce0e78cf8bee8c1c4656f910", "lat": 38.90850783333333, "fusion_lat": 0.0, "lon": -77.01968716666667, "is_disabled": 0, "fusion_lon": 0.0, "rental_uris": {"android": "https://dc.lft.to/lastmile_qr_scan", "ios": "https://dc.lft.to/lastmile_qr_scan"}, "type": "electric_scooter"}, {"bike_id": "e4873c8dff2cee1bde27599573167f4b", "is_reserved": 0, "name": "e4873c8dff2cee1bde27599573167f4b", "lat": 38.892224666666664, "fusion_lat": 0.0, "lon": -77.02626716666667, "is_disabled": 0, "fusion_lon": 0.0, "rental_uris": {"android": "https://dc.lft.to/lastmile_qr_scan", "ios": "https://dc.lft.to/lastmile_qr_scan"}, "type": "electric_scooter"}, {"bike_id": "49bd42e3d2ec0f80b15d03951641eeca", "is_reserved": 0, "name": "49bd42e3d2ec0f80b15d03951641eeca", "lat": 38.91618533333333, "fusion_lat": 0.0, "lon": -77.03186133333334, "is_disabled": 0, "fusion_lon": 0.0, "rental_uris": {"android": "https://dc.lft.to/lastmile_qr_scan", "ios": "https://dc.lft.to/lastmile_qr_scan"}, "type": "electric_scooter"}, {"bike_id": "d639b0ec8591108c778e2ec01bfb8411", "is_reserved": 0, "name": "d639b0ec8591108c778e2ec01bfb8411", "lat": 38.917478, "fusion_lat": 0.0, "lon": -77.04159583333333, "is_disabled": 0, "fusion_lon": 0.0, "rental_uris": {"android": "https://dc.lft.to/lastmile_qr_scan", "ios": "https://dc.lft.to/lastmile_qr_scan"}, "type": "electric_scooter"}, {"bike_id": "659396e99c6f7fff021ac3586ab08692", "is_reserved": 0, "name": "659396e99c6f7fff021ac3586ab08692", "lat": 38.898323, "fusion_lat": 0.0, "lon": -76.946327, "is_disabled": 0, "fusion_lon": 0.0, "rental_uris": {"android": "https://dc.lft.to/lastmile_qr_scan", "ios": "https://dc.lft.to/lastmile_qr_scan"}, "type": "electric_scooter"}, {"bike_id": "b17a7604cd722e4c42ee4da3b98f2aa0", "is_reserved": 0, "name": "b17a7604cd722e4c42ee4da3b98f2aa0", "lat": 38.9237925, "fusion_lat": 0.0, "lon": -77.03539016666667, "is_disabled": 0, "fusion_lon": 0.0, "rental_uris": {"android": "https://dc.lft.to/lastmile_qr_scan", "ios": "https://dc.lft.to/lastmile_qr_scan"}, "type": "electric_scooter"}, {"bike_id": "a597b901434b51734531b1006f866db4", "is_reserved": 0, "name": "a597b901434b51734531b1006f866db4", "lat": 38.913093333333336, "fusion_lat": 0.0, "lon": -77.02695533333333, "is_disabled": 0, "fusion_lon": 0.0, "rental_uris": {"android": "https://dc.lft.to/lastmile_qr_scan", "ios": "https://dc.lft.to/lastmile_qr_scan"}, "type": "electric_scooter"}, {"bike_id": "6b18706ccd491bf604d651d20835c6fa", "is_reserved": 0, "name": "6b18706ccd491bf604d651d20835c6fa", "lat": 38.90370016666667, "fusion_lat": 0.0, "lon": -77.03190683333334, "is_disabled": 0, "fusion_lon": 0.0, "rental_uris": {"android": "https://dc.lft.to/lastmile_qr_scan", "ios": "https://dc.lft.to/lastmile_qr_scan"}, "type": "electric_scooter"}, {"bike_id": "bb0dfb75267a039369ed2d7c80ecbb0e", "is_reserved": 0, "name": "bb0dfb75267a039369ed2d7c80ecbb0e", "lat": 38.90222833333333, "fusion_lat": 0.0, "lon": -77.0161255, "is_disabled": 0, "fusion_lon": 0.0, "rental_uris": {"android": "https://dc.lft.to/lastmile_qr_scan", "ios": "https://dc.lft.to/lastmile_qr_scan"}, "type": "electric_scooter"}, {"bike_id": "a49952968d7b77998e06938ae6e30210", "is_reserved": 0, "name": "a49952968d7b77998e06938ae6e30210", "lat": 38.881186166666666, "fusion_lat": 0.0, "lon": -77.01635883333333, "is_disabled": 0, "fusion_lon": 0.0, "rental_uris": {"android": "https://dc.lft.to/lastmile_qr_scan", "ios": "https://dc.lft.to/lastmile_qr_scan"}, "type": "electric_scooter"}, {"bike_id": "bec6c59c5b150989976cb086944ab884", "is_reserved": 0, "name": "bec6c59c5b150989976cb086944ab884", "lat": 38.91547, "fusion_lat": 0.0, "lon": -76.98355416666666, "is_disabled": 0, "fusion_lon": 0.0, "rental_uris": {"android": "https://dc.lft.to/lastmile_qr_scan", "ios": "https://dc.lft.to/lastmile_qr_scan"}, "type": "electric_bike"}, {"bike_id": "daf87b3bbc6df5fceae75322e79e725b", "is_reserved": 0, "name": "daf87b3bbc6df5fceae75322e79e725b", "lat": 38.90736016666666, "fusion_lat": 0.0, "lon": -77.043222, "is_disabled": 0, "fusion_lon": 0.0, "rental_uris": {"android": "https://dc.lft.to/lastmile_qr_scan", "ios": "https://dc.lft.to/lastmile_qr_scan"}, "type": "electric_scooter"}, {"bike_id": "ed2ab2c467db7a84324dc8eb20e4bb6a", "is_reserved": 0, "name": "ed2ab2c467db7a84324dc8eb20e4bb6a", "lat": 38.901759166666665, "fusion_lat": 0.0, "lon": -77.02486666666667, "is_disabled": 0, "fusion_lon": 0.0, "rental_uris": {"android": "https://dc.lft.to/lastmile_qr_scan", "ios": "https://dc.lft.to/lastmile_qr_scan"}, "type": "electric_scooter"}, {"bike_id": "a7c8716740fb8b744abd10df421b3328", "is_reserved": 0, "name": "a7c8716740fb8b744abd10df421b3328", "lat": 38.900615333333334, "fusion_lat": 0.0, "lon": -76.933836, "is_disabled": 0, "fusion_lon": 0.0, "rental_uris": {"android": "https://dc.lft.to/lastmile_qr_scan", "ios": "https://dc.lft.to/lastmile_qr_scan"}, "type": "electric_scooter"}, {"bike_id": "f1b87bee4a30803afe67b0c10dd80a46", "is_reserved": 0, "name": "f1b87bee4a30803afe67b0c10dd80a46", "lat": 38.916908666666664, "fusion_lat": 0.0, "lon": -77.03039283333334, "is_disabled": 0, "fusion_lon": 0.0, "rental_uris": {"android": "https://dc.lft.to/lastmile_qr_scan", "ios": "https://dc.lft.to/lastmile_qr_scan"}, "type": "electric_scooter"}, {"bike_id": "0c637c0285d483d1b2fa6613445b4367", "is_reserved": 0, "name": "0c637c0285d483d1b2fa6613445b4367", "lat": 38.876565, "fusion_lat": 0.0, "lon": -77.00073283333333, "is_disabled": 0, "fusion_lon": 0.0, "rental_uris": {"android": "https://dc.lft.to/lastmile_qr_scan", "ios": "https://dc.lft.to/lastmile_qr_scan"}, "type": "electric_scooter"}, {"bike_id": "68067f918afd3f9c30b3704039d7429a", "is_reserved": 0, "name": "68067f918afd3f9c30b3704039d7429a", "lat": 38.92012883333334, "fusion_lat": 0.0, "lon": -77.031681, "is_disabled": 0, "fusion_lon": 0.0, "rental_uris": {"android": "https://dc.lft.to/lastmile_qr_scan", "ios": "https://dc.lft.to/lastmile_qr_scan"}, "type": "electric_scooter"}, {"bike_id": "7c7804ee791f0d34c61655045ee1ddf1", "is_reserved": 0, "name": "7c7804ee791f0d34c61655045ee1ddf1", "lat": 38.9541865, "fusion_lat": 0.0, "lon": -77.02767516666667, "is_disabled": 0, "fusion_lon": 0.0, "rental_uris": {"android": "https://dc.lft.to/lastmile_qr_scan", "ios": "https://dc.lft.to/lastmile_qr_scan"}, "type": "electric_scooter"}, {"bike_id": "43c77ea061fcbb5682e49c01d3aa4f73", "is_reserved": 0, "name": "43c77ea061fcbb5682e49c01d3aa4f73", "lat": 38.919677666666665, "fusion_lat": 0.0, "lon": -76.991979, "is_disabled": 0, "fusion_lon": 0.0, "rental_uris": {"android": "https://dc.lft.to/lastmile_qr_scan", "ios": "https://dc.lft.to/lastmile_qr_scan"}, "type": "electric_bike"}, {"bike_id": "1feaef71c65c96ab7ba60ab9d335db18", "is_reserved": 0, "name": "1feaef71c65c96ab7ba60ab9d335db18", "lat": 38.91852383333333, "fusion_lat": 0.0, "lon": -77.02318016666666, "is_disabled": 0, "fusion_lon": 0.0, "rental_uris": {"android": "https://dc.lft.to/lastmile_qr_scan", "ios": "https://dc.lft.to/lastmile_qr_scan"}, "type": "electric_scooter"}, {"bike_id": "5cdbf2c2e662a458538efcb6ba8105df", "is_reserved": 0, "name": "5cdbf2c2e662a458538efcb6ba8105df", "lat": 38.90007083333333, "fusion_lat": 0.0, "lon": -76.998353, "is_disabled": 0, "fusion_lon": 0.0, "rental_uris": {"android": "https://dc.lft.to/lastmile_qr_scan", "ios": "https://dc.lft.to/lastmile_qr_scan"}, "type": "electric_scooter"}, {"bike_id": "80948677e568038816b9a065eb883c04", "is_reserved": 0, "name": "80948677e568038816b9a065eb883c04", "lat": 38.90988083333333, "fusion_lat": 0.0, "lon": -77.032041, "is_disabled": 0, "fusion_lon": 0.0, "rental_uris": {"android": "https://dc.lft.to/lastmile_qr_scan", "ios": "https://dc.lft.to/lastmile_qr_scan"}, "type": "electric_scooter"}, {"bike_id": "49cd28102759bd50810f8cd7f9d4c8a8", "is_reserved": 0, "name": "49cd28102759bd50810f8cd7f9d4c8a8", "lat": 38.91632, "fusion_lat": 0.0, "lon": -77.050724, "is_disabled": 0, "fusion_lon": 0.0, "rental_uris": {"android": "https://dc.lft.to/lastmile_qr_scan", "ios": "https://dc.lft.to/lastmile_qr_scan"}, "type": "electric_scooter"}, {"bike_id": "2bd6410eb0600d168e7486d27f0bd085", "is_reserved": 0, "name": "2bd6410eb0600d168e7486d27f0bd085", "lat": 38.91274133333334, "fusion_lat": 0.0, "lon": -77.02386366666667, "is_disabled": 0, "fusion_lon": 0.0, "rental_uris": {"android": "https://dc.lft.to/lastmile_qr_scan", "ios": "https://dc.lft.to/lastmile_qr_scan"}, "type": "electric_scooter"}, {"bike_id": "9db9fd5a9bb77c6ad5d074635b0e1ca3", "is_reserved": 0, "name": "9db9fd5a9bb77c6ad5d074635b0e1ca3", "lat": 38.889321333333335, "fusion_lat": 0.0, "lon": -77.0150305, "is_disabled": 0, "fusion_lon": 0.0, "rental_uris": {"android": "https://dc.lft.to/lastmile_qr_scan", "ios": "https://dc.lft.to/lastmile_qr_scan"}, "type": "electric_scooter"}, {"bike_id": "88c45708902ac5721e554e48dd1818e8", "is_reserved": 0, "name": "88c45708902ac5721e554e48dd1818e8", "lat": 38.893533, "fusion_lat": 0.0, "lon": -76.98653666666667, "is_disabled": 0, "fusion_lon": 0.0, "rental_uris": {"android": "https://dc.lft.to/lastmile_qr_scan", "ios": "https://dc.lft.to/lastmile_qr_scan"}, "type": "electric_scooter"}, {"bike_id": "1ba03a67e646a694c3f2b93830ebac6a", "is_reserved": 0, "name": "1ba03a67e646a694c3f2b93830ebac6a", "lat": 38.900051, "fusion_lat": 0.0, "lon": -76.99318833333334, "is_disabled": 0, "fusion_lon": 0.0, "rental_uris": {"android": "https://dc.lft.to/lastmile_qr_scan", "ios": "https://dc.lft.to/lastmile_qr_scan"}, "type": "electric_scooter"}, {"bike_id": "9ba7bd7b43f51e72bc9f7e09cfa8b6c3", "is_reserved": 0, "name": "9ba7bd7b43f51e72bc9f7e09cfa8b6c3", "lat": 38.921758833333335, "fusion_lat": 0.0, "lon": -77.02104633333333, "is_disabled": 0, "fusion_lon": 0.0, "rental_uris": {"android": "https://dc.lft.to/lastmile_qr_scan", "ios": "https://dc.lft.to/lastmile_qr_scan"}, "type": "electric_scooter"}, {"bike_id": "907805cad25e8195c1b90ad1616790a7", "is_reserved": 0, "name": "907805cad25e8195c1b90ad1616790a7", "lat": 38.9036195, "fusion_lat": 0.0, "lon": -77.0384645, "is_disabled": 0, "fusion_lon": 0.0, "rental_uris": {"android": "https://dc.lft.to/lastmile_qr_scan", "ios": "https://dc.lft.to/lastmile_qr_scan"}, "type": "electric_scooter"}, {"bike_id": "324c14cdd3ab5baebab763d59b90f021", "is_reserved": 0, "name": "324c14cdd3ab5baebab763d59b90f021", "lat": 38.917111166666665, "fusion_lat": 0.0, "lon": -77.02894183333333, "is_disabled": 0, "fusion_lon": 0.0, "rental_uris": {"android": "https://dc.lft.to/lastmile_qr_scan", "ios": "https://dc.lft.to/lastmile_qr_scan"}, "type": "electric_scooter"}, {"bike_id": "9e140cb07712d70ea36e6cfdad29b0d4", "is_reserved": 0, "name": "9e140cb07712d70ea36e6cfdad29b0d4", "lat": 38.91315633333333, "fusion_lat": 0.0, "lon": -77.03646016666667, "is_disabled": 0, "fusion_lon": 0.0, "rental_uris": {"android": "https://dc.lft.to/lastmile_qr_scan", "ios": "https://dc.lft.to/lastmile_qr_scan"}, "type": "electric_scooter"}, {"bike_id": "273adb002170a66c2c9b25b63679bc06", "is_reserved": 0, "name": "273adb002170a66c2c9b25b63679bc06", "lat": 38.90889466666667, "fusion_lat": 0.0, "lon": -77.04394483333333, "is_disabled": 0, "fusion_lon": 0.0, "rental_uris": {"android": "https://dc.lft.to/lastmile_qr_scan", "ios": "https://dc.lft.to/lastmile_qr_scan"}, "type": "electric_scooter"}, {"bike_id": "e886c74d5e5403895f0a168e372b9dd3", "is_reserved": 0, "name": "e886c74d5e5403895f0a168e372b9dd3", "lat": 38.897693833333335, "fusion_lat": 0.0, "lon": -77.02721116666666, "is_disabled": 0, "fusion_lon": 0.0, "rental_uris": {"android": "https://dc.lft.to/lastmile_qr_scan", "ios": "https://dc.lft.to/lastmile_qr_scan"}, "type": "electric_scooter"}, {"bike_id": "62708c14fdd7d21b3b4463451cc9bf65", "is_reserved": 0, "name": "62708c14fdd7d21b3b4463451cc9bf65", "lat": 38.897157166666666, "fusion_lat": 0.0, "lon": -77.00795383333333, "is_disabled": 0, "fusion_lon": 0.0, "rental_uris": {"android": "https://dc.lft.to/lastmile_qr_scan", "ios": "https://dc.lft.to/lastmile_qr_scan"}, "type": "electric_scooter"}, {"bike_id": "fcb839576a881f8e7c3e3546f4829e67", "is_reserved": 0, "name": "fcb839576a881f8e7c3e3546f4829e67", "lat": 38.90162766666667, "fusion_lat": 0.0, "lon": -77.02589416666666, "is_disabled": 0, "fusion_lon": 0.0, "rental_uris": {"android": "https://dc.lft.to/lastmile_qr_scan", "ios": "https://dc.lft.to/lastmile_qr_scan"}, "type": "electric_scooter"}, {"bike_id": "1c08e41c03875b566fe33d7c7d143d7b", "is_reserved": 0, "name": "1c08e41c03875b566fe33d7c7d143d7b", "lat": 38.922636833333335, "fusion_lat": 0.0, "lon": -77.0187465, "is_disabled": 0, "fusion_lon": 0.0, "rental_uris": {"android": "https://dc.lft.to/lastmile_qr_scan", "ios": "https://dc.lft.to/lastmile_qr_scan"}, "type": "electric_scooter"}, {"bike_id": "11346a87470ceda658328a69b06ec9c2", "is_reserved": 0, "name": "11346a87470ceda658328a69b06ec9c2", "lat": 38.896012666666664, "fusion_lat": 0.0, "lon": -77.044289, "is_disabled": 0, "fusion_lon": 0.0, "rental_uris": {"android": "https://dc.lft.to/lastmile_qr_scan", "ios": "https://dc.lft.to/lastmile_qr_scan"}, "type": "electric_scooter"}, {"bike_id": "db52a298d0bf5fbd57e925811c1da317", "is_reserved": 0, "name": "db52a298d0bf5fbd57e925811c1da317", "lat": 38.926127, "fusion_lat": 0.0, "lon": -77.07565916666667, "is_disabled": 0, "fusion_lon": 0.0, "rental_uris": {"android": "https://dc.lft.to/lastmile_qr_scan", "ios": "https://dc.lft.to/lastmile_qr_scan"}, "type": "electric_scooter"}, {"bike_id": "2e447001542ca860d1c81001ee9e2781", "is_reserved": 0, "name": "2e447001542ca860d1c81001ee9e2781", "lat": 38.9104725, "fusion_lat": 0.0, "lon": -77.043706, "is_disabled": 0, "fusion_lon": 0.0, "rental_uris": {"android": "https://dc.lft.to/lastmile_qr_scan", "ios": "https://dc.lft.to/lastmile_qr_scan"}, "type": "electric_scooter"}, {"bike_id": "3ca37ed900494939aede9c9401a833ad", "is_reserved": 0, "name": "3ca37ed900494939aede9c9401a833ad", "lat": 38.91702516666667, "fusion_lat": 0.0, "lon": -77.04075733333333, "is_disabled": 0, "fusion_lon": 0.0, "rental_uris": {"android": "https://dc.lft.to/lastmile_qr_scan", "ios": "https://dc.lft.to/lastmile_qr_scan"}, "type": "electric_scooter"}, {"bike_id": "68d25b140b87b67ec9100909e0e1d37d", "is_reserved": 0, "name": "68d25b140b87b67ec9100909e0e1d37d", "lat": 38.9285935, "fusion_lat": 0.0, "lon": -77.013766, "is_disabled": 0, "fusion_lon": 0.0, "rental_uris": {"android": "https://dc.lft.to/lastmile_qr_scan", "ios": "https://dc.lft.to/lastmile_qr_scan"}, "type": "electric_scooter"}, {"bike_id": "b10b59a14e276603ed9e022739adbc4b", "is_reserved": 0, "name": "b10b59a14e276603ed9e022739adbc4b", "lat": 38.903605, "fusion_lat": 0.0, "lon": -77.038486, "is_disabled": 0, "fusion_lon": 0.0, "rental_uris": {"android": "https://dc.lft.to/lastmile_qr_scan", "ios": "https://dc.lft.to/lastmile_qr_scan"}, "type": "electric_scooter"}, {"bike_id": "ce123a3e1f08a1641c548d9f252fa8e9", "is_reserved": 0, "name": "ce123a3e1f08a1641c548d9f252fa8e9", "lat": 38.901119333333334, "fusion_lat": 0.0, "lon": -76.97423766666667, "is_disabled": 0, "fusion_lon": 0.0, "rental_uris": {"android": "https://dc.lft.to/lastmile_qr_scan", "ios": "https://dc.lft.to/lastmile_qr_scan"}, "type": "electric_scooter"}, {"bike_id": "78537e2a0cefa3145d1580d844cbf0ec", "is_reserved": 0, "name": "78537e2a0cefa3145d1580d844cbf0ec", "lat": 38.92298683333333, "fusion_lat": 0.0, "lon": -77.023247, "is_disabled": 0, "fusion_lon": 0.0, "rental_uris": {"android": "https://dc.lft.to/lastmile_qr_scan", "ios": "https://dc.lft.to/lastmile_qr_scan"}, "type": "electric_scooter"}, {"bike_id": "79edec6253eb1ca4fda7d6f4e2099ba0", "is_reserved": 0, "name": "79edec6253eb1ca4fda7d6f4e2099ba0", "lat": 38.91265666666666, "fusion_lat": 0.0, "lon": -77.0329895, "is_disabled": 0, "fusion_lon": 0.0, "rental_uris": {"android": "https://dc.lft.to/lastmile_qr_scan", "ios": "https://dc.lft.to/lastmile_qr_scan"}, "type": "electric_scooter"}, {"bike_id": "f6e9652e581fa2d29076b620b67ccde6", "is_reserved": 0, "name": "f6e9652e581fa2d29076b620b67ccde6", "lat": 38.9081035, "fusion_lat": 0.0, "lon": -77.03454383333333, "is_disabled": 0, "fusion_lon": 0.0, "rental_uris": {"android": "https://dc.lft.to/lastmile_qr_scan", "ios": "https://dc.lft.to/lastmile_qr_scan"}, "type": "electric_scooter"}, {"bike_id": "885a9196616ad22788adc46be02a795c", "is_reserved": 0, "name": "885a9196616ad22788adc46be02a795c", "lat": 38.91946333333333, "fusion_lat": 0.0, "lon": -77.02492616666666, "is_disabled": 0, "fusion_lon": 0.0, "rental_uris": {"android": "https://dc.lft.to/lastmile_qr_scan", "ios": "https://dc.lft.to/lastmile_qr_scan"}, "type": "electric_scooter"}, {"bike_id": "21a46667541d253203cfb9a51dfad4a7", "is_reserved": 0, "name": "21a46667541d253203cfb9a51dfad4a7", "lat": 38.9573235, "fusion_lat": 0.0, "lon": -77.02401233333333, "is_disabled": 0, "fusion_lon": 0.0, "rental_uris": {"android": "https://dc.lft.to/lastmile_qr_scan", "ios": "https://dc.lft.to/lastmile_qr_scan"}, "type": "electric_scooter"}, {"bike_id": "95059bea54a03fe26578126cf4d88d61", "is_reserved": 0, "name": "95059bea54a03fe26578126cf4d88d61", "lat": 38.90582283333333, "fusion_lat": 0.0, "lon": -77.00594283333334, "is_disabled": 0, "fusion_lon": 0.0, "rental_uris": {"android": "https://dc.lft.to/lastmile_qr_scan", "ios": "https://dc.lft.to/lastmile_qr_scan"}, "type": "electric_scooter"}, {"bike_id": "c202dcc7ea22e26f8b6a3303cc13c10a", "is_reserved": 0, "name": "c202dcc7ea22e26f8b6a3303cc13c10a", "lat": 38.91844116666667, "fusion_lat": 0.0, "lon": -76.965344, "is_disabled": 0, "fusion_lon": 0.0, "rental_uris": {"android": "https://dc.lft.to/lastmile_qr_scan", "ios": "https://dc.lft.to/lastmile_qr_scan"}, "type": "electric_scooter"}, {"bike_id": "a609bcefc9fa27a857d94f918c413e1f", "is_reserved": 0, "name": "a609bcefc9fa27a857d94f918c413e1f", "lat": 38.92858433333333, "fusion_lat": 0.0, "lon": -77.035219, "is_disabled": 0, "fusion_lon": 0.0, "rental_uris": {"android": "https://dc.lft.to/lastmile_qr_scan", "ios": "https://dc.lft.to/lastmile_qr_scan"}, "type": "electric_scooter"}, {"bike_id": "4ba6c8ed1c89f91cdc03b36435231aba", "is_reserved": 0, "name": "4ba6c8ed1c89f91cdc03b36435231aba", "lat": 38.917947833333336, "fusion_lat": 0.0, "lon": -77.04170266666667, "is_disabled": 0, "fusion_lon": 0.0, "rental_uris": {"android": "https://dc.lft.to/lastmile_qr_scan", "ios": "https://dc.lft.to/lastmile_qr_scan"}, "type": "electric_scooter"}, {"bike_id": "c0e6f4638def7e300e09b83ec9e742ca", "is_reserved": 0, "name": "c0e6f4638def7e300e09b83ec9e742ca", "lat": 38.87394783333333, "fusion_lat": 0.0, "lon": -77.00202416666667, "is_disabled": 0, "fusion_lon": 0.0, "rental_uris": {"android": "https://dc.lft.to/lastmile_qr_scan", "ios": "https://dc.lft.to/lastmile_qr_scan"}, "type": "electric_scooter"}, {"bike_id": "13be731f432516763ee699e72ebc7aaa", "is_reserved": 0, "name": "13be731f432516763ee699e72ebc7aaa", "lat": 38.919145666666665, "fusion_lat": 0.0, "lon": -77.03226883333333, "is_disabled": 0, "fusion_lon": 0.0, "rental_uris": {"android": "https://dc.lft.to/lastmile_qr_scan", "ios": "https://dc.lft.to/lastmile_qr_scan"}, "type": "electric_scooter"}, {"bike_id": "71b748489abc2b4e11a4d3f8a7a54544", "is_reserved": 0, "name": "71b748489abc2b4e11a4d3f8a7a54544", "lat": 38.909091, "fusion_lat": 0.0, "lon": -77.04404733333334, "is_disabled": 0, "fusion_lon": 0.0, "rental_uris": {"android": "https://dc.lft.to/lastmile_qr_scan", "ios": "https://dc.lft.to/lastmile_qr_scan"}, "type": "electric_scooter"}, {"bike_id": "2c7f2e8be05e6bb9f190b6410a5a5218", "is_reserved": 0, "name": "2c7f2e8be05e6bb9f190b6410a5a5218", "lat": 38.88732916666667, "fusion_lat": 0.0, "lon": -77.02381783333334, "is_disabled": 0, "fusion_lon": 0.0, "rental_uris": {"android": "https://dc.lft.to/lastmile_qr_scan", "ios": "https://dc.lft.to/lastmile_qr_scan"}, "type": "electric_scooter"}, {"bike_id": "2c4ec77c7dd16f78fabf54635b24a099", "is_reserved": 0, "name": "2c4ec77c7dd16f78fabf54635b24a099", "lat": 38.9212645, "fusion_lat": 0.0, "lon": -77.04218716666666, "is_disabled": 0, "fusion_lon": 0.0, "rental_uris": {"android": "https://dc.lft.to/lastmile_qr_scan", "ios": "https://dc.lft.to/lastmile_qr_scan"}, "type": "electric_scooter"}, {"bike_id": "aa47cb3a581725e02b09b392fd51c357", "is_reserved": 0, "name": "aa47cb3a581725e02b09b392fd51c357", "lat": 38.90208916666667, "fusion_lat": 0.0, "lon": -76.9860835, "is_disabled": 0, "fusion_lon": 0.0, "rental_uris": {"android": "https://dc.lft.to/lastmile_qr_scan", "ios": "https://dc.lft.to/lastmile_qr_scan"}, "type": "electric_scooter"}, {"bike_id": "c6e55c8f40f6eb2122524d7844aad022", "is_reserved": 0, "name": "c6e55c8f40f6eb2122524d7844aad022", "lat": 38.91661, "fusion_lat": 0.0, "lon": -77.04391383333333, "is_disabled": 0, "fusion_lon": 0.0, "rental_uris": {"android": "https://dc.lft.to/lastmile_qr_scan", "ios": "https://dc.lft.to/lastmile_qr_scan"}, "type": "electric_scooter"}, {"bike_id": "0b9ec9157f9e4fcc32a1112ca0a2ef53", "is_reserved": 0, "name": "0b9ec9157f9e4fcc32a1112ca0a2ef53", "lat": 38.923176166666664, "fusion_lat": 0.0, "lon": -77.03409666666667, "is_disabled": 0, "fusion_lon": 0.0, "rental_uris": {"android": "https://dc.lft.to/lastmile_qr_scan", "ios": "https://dc.lft.to/lastmile_qr_scan"}, "type": "electric_scooter"}, {"bike_id": "569cdd92714ca7a77fc17bccdeaaf30f", "is_reserved": 0, "name": "569cdd92714ca7a77fc17bccdeaaf30f", "lat": 38.903680666666666, "fusion_lat": 0.0, "lon": -77.0384275, "is_disabled": 0, "fusion_lon": 0.0, "rental_uris": {"android": "https://dc.lft.to/lastmile_qr_scan", "ios": "https://dc.lft.to/lastmile_qr_scan"}, "type": "electric_scooter"}, {"bike_id": "153f376e601e6a123ebbea8d23e15468", "is_reserved": 0, "name": "153f376e601e6a123ebbea8d23e15468", "lat": 38.8922055, "fusion_lat": 0.0, "lon": -77.04867733333333, "is_disabled": 0, "fusion_lon": 0.0, "rental_uris": {"android": "https://dc.lft.to/lastmile_qr_scan", "ios": "https://dc.lft.to/lastmile_qr_scan"}, "type": "electric_scooter"}, {"bike_id": "973de6b4515cefed27e455e9dcc21caf", "is_reserved": 0, "name": "973de6b4515cefed27e455e9dcc21caf", "lat": 38.9473705, "fusion_lat": 0.0, "lon": -77.01613266666666, "is_disabled": 0, "fusion_lon": 0.0, "rental_uris": {"android": "https://dc.lft.to/lastmile_qr_scan", "ios": "https://dc.lft.to/lastmile_qr_scan"}, "type": "electric_scooter"}, {"bike_id": "0d61c50830cb9e3f455f42df354bc7ef", "is_reserved": 0, "name": "0d61c50830cb9e3f455f42df354bc7ef", "lat": 38.934756166666666, "fusion_lat": 0.0, "lon": -77.02714683333333, "is_disabled": 0, "fusion_lon": 0.0, "rental_uris": {"android": "https://dc.lft.to/lastmile_qr_scan", "ios": "https://dc.lft.to/lastmile_qr_scan"}, "type": "electric_scooter"}, {"bike_id": "4cee54a064095b598f4cbc7841c8049c", "is_reserved": 0, "name": "4cee54a064095b598f4cbc7841c8049c", "lat": 38.90479766666667, "fusion_lat": 0.0, "lon": -77.00731566666667, "is_disabled": 0, "fusion_lon": 0.0, "rental_uris": {"android": "https://dc.lft.to/lastmile_qr_scan", "ios": "https://dc.lft.to/lastmile_qr_scan"}, "type": "electric_scooter"}, {"bike_id": "d8d1debb4644be9c12358d6dd86473cd", "is_reserved": 0, "name": "d8d1debb4644be9c12358d6dd86473cd", "lat": 38.9068695, "fusion_lat": 0.0, "lon": -77.03831683333334, "is_disabled": 0, "fusion_lon": 0.0, "rental_uris": {"android": "https://dc.lft.to/lastmile_qr_scan", "ios": "https://dc.lft.to/lastmile_qr_scan"}, "type": "electric_scooter"}, {"bike_id": "874dc96eef562a83c1b1c7c7323da3f2", "is_reserved": 0, "name": "874dc96eef562a83c1b1c7c7323da3f2", "lat": 38.9129525, "fusion_lat": 0.0, "lon": -77.0222875, "is_disabled": 0, "fusion_lon": 0.0, "rental_uris": {"android": "https://dc.lft.to/lastmile_qr_scan", "ios": "https://dc.lft.to/lastmile_qr_scan"}, "type": "electric_scooter"}, {"bike_id": "3a7b5319ff56dd69b14d8ae43ee2b98d", "is_reserved": 0, "name": "3a7b5319ff56dd69b14d8ae43ee2b98d", "lat": 38.91196583333333, "fusion_lat": 0.0, "lon": -77.04122083333333, "is_disabled": 0, "fusion_lon": 0.0, "rental_uris": {"android": "https://dc.lft.to/lastmile_qr_scan", "ios": "https://dc.lft.to/lastmile_qr_scan"}, "type": "electric_scooter"}, {"bike_id": "2c3faa4147c81a651a2d004a18e73f2d", "is_reserved": 0, "name": "2c3faa4147c81a651a2d004a18e73f2d", "lat": 38.898974, "fusion_lat": 0.0, "lon": -76.94557466666667, "is_disabled": 0, "fusion_lon": 0.0, "rental_uris": {"android": "https://dc.lft.to/lastmile_qr_scan", "ios": "https://dc.lft.to/lastmile_qr_scan"}, "type": "electric_scooter"}, {"bike_id": "b84dbc31f1083c65d319f4f364241dfb", "is_reserved": 0, "name": "b84dbc31f1083c65d319f4f364241dfb", "lat": 38.832481, "fusion_lat": 0.0, "lon": -77.00721016666667, "is_disabled": 0, "fusion_lon": 0.0, "rental_uris": {"android": "https://dc.lft.to/lastmile_qr_scan", "ios": "https://dc.lft.to/lastmile_qr_scan"}, "type": "electric_bike"}, {"bike_id": "74eee4aff76d137099cdef9ec7720e0b", "is_reserved": 0, "name": "74eee4aff76d137099cdef9ec7720e0b", "lat": 38.892362, "fusion_lat": 0.0, "lon": -77.023817, "is_disabled": 0, "fusion_lon": 0.0, "rental_uris": {"android": "https://dc.lft.to/lastmile_qr_scan", "ios": "https://dc.lft.to/lastmile_qr_scan"}, "type": "electric_scooter"}, {"bike_id": "aa048fa9ccca8e91f43507789a63ce1c", "is_reserved": 0, "name": "aa048fa9ccca8e91f43507789a63ce1c", "lat": 38.9140455, "fusion_lat": 0.0, "lon": -77.00845133333333, "is_disabled": 0, "fusion_lon": 0.0, "rental_uris": {"android": "https://dc.lft.to/lastmile_qr_scan", "ios": "https://dc.lft.to/lastmile_qr_scan"}, "type": "electric_scooter"}, {"bike_id": "af2fbf8494b7484ba009271f6c3eff16", "is_reserved": 0, "name": "af2fbf8494b7484ba009271f6c3eff16", "lat": 38.90232116666667, "fusion_lat": 0.0, "lon": -77.06138433333334, "is_disabled": 0, "fusion_lon": 0.0, "rental_uris": {"android": "https://dc.lft.to/lastmile_qr_scan", "ios": "https://dc.lft.to/lastmile_qr_scan"}, "type": "electric_scooter"}, {"bike_id": "c00c2ca2a016cb9391db1d91c3c4cfd8", "is_reserved": 0, "name": "c00c2ca2a016cb9391db1d91c3c4cfd8", "lat": 38.89636266666667, "fusion_lat": 0.0, "lon": -77.02689133333334, "is_disabled": 0, "fusion_lon": 0.0, "rental_uris": {"android": "https://dc.lft.to/lastmile_qr_scan", "ios": "https://dc.lft.to/lastmile_qr_scan"}, "type": "electric_scooter"}, {"bike_id": "60bbd2eef2bb784425a84943d72a64da", "is_reserved": 0, "name": "60bbd2eef2bb784425a84943d72a64da", "lat": 38.90071533333333, "fusion_lat": 0.0, "lon": -77.0335805, "is_disabled": 0, "fusion_lon": 0.0, "rental_uris": {"android": "https://dc.lft.to/lastmile_qr_scan", "ios": "https://dc.lft.to/lastmile_qr_scan"}, "type": "electric_scooter"}, {"bike_id": "8bb47f30ce9417247b67fdae44497273", "is_reserved": 0, "name": "8bb47f30ce9417247b67fdae44497273", "lat": 38.907477666666665, "fusion_lat": 0.0, "lon": -77.04154666666666, "is_disabled": 0, "fusion_lon": 0.0, "rental_uris": {"android": "https://dc.lft.to/lastmile_qr_scan", "ios": "https://dc.lft.to/lastmile_qr_scan"}, "type": "electric_scooter"}, {"bike_id": "863b0b942dc56868c5946b8876c1f005", "is_reserved": 0, "name": "863b0b942dc56868c5946b8876c1f005", "lat": 38.887457, "fusion_lat": 0.0, "lon": -77.01775266666667, "is_disabled": 0, "fusion_lon": 0.0, "rental_uris": {"android": "https://dc.lft.to/lastmile_qr_scan", "ios": "https://dc.lft.to/lastmile_qr_scan"}, "type": "electric_scooter"}, {"bike_id": "fd625ff78f34ef53e7c0f060cd6c1ded", "is_reserved": 0, "name": "fd625ff78f34ef53e7c0f060cd6c1ded", "lat": 38.90268583333334, "fusion_lat": 0.0, "lon": -77.03836083333333, "is_disabled": 0, "fusion_lon": 0.0, "rental_uris": {"android": "https://dc.lft.to/lastmile_qr_scan", "ios": "https://dc.lft.to/lastmile_qr_scan"}, "type": "electric_scooter"}, {"bike_id": "e01d7ae96aa69c86cc6bdba042a63f67", "is_reserved": 0, "name": "e01d7ae96aa69c86cc6bdba042a63f67", "lat": 38.909493166666664, "fusion_lat": 0.0, "lon": -77.02713766666666, "is_disabled": 0, "fusion_lon": 0.0, "rental_uris": {"android": "https://dc.lft.to/lastmile_qr_scan", "ios": "https://dc.lft.to/lastmile_qr_scan"}, "type": "electric_scooter"}, {"bike_id": "4379c0c997ca3bf31df904c57feefc55", "is_reserved": 0, "name": "4379c0c997ca3bf31df904c57feefc55", "lat": 38.940105333333335, "fusion_lat": 0.0, "lon": -77.02537466666666, "is_disabled": 0, "fusion_lon": 0.0, "rental_uris": {"android": "https://dc.lft.to/lastmile_qr_scan", "ios": "https://dc.lft.to/lastmile_qr_scan"}, "type": "electric_scooter"}, {"bike_id": "b2b86f77f444730947e6de8425ccc667", "is_reserved": 0, "name": "b2b86f77f444730947e6de8425ccc667", "lat": 38.9170775, "fusion_lat": 0.0, "lon": -77.02737983333333, "is_disabled": 0, "fusion_lon": 0.0, "rental_uris": {"android": "https://dc.lft.to/lastmile_qr_scan", "ios": "https://dc.lft.to/lastmile_qr_scan"}, "type": "electric_scooter"}, {"bike_id": "bd2cd0fcefaffeb9a7a5a9165aaf557d", "is_reserved": 0, "name": "bd2cd0fcefaffeb9a7a5a9165aaf557d", "lat": 38.94677016666667, "fusion_lat": 0.0, "lon": -76.95671266666666, "is_disabled": 0, "fusion_lon": 0.0, "rental_uris": {"android": "https://dc.lft.to/lastmile_qr_scan", "ios": "https://dc.lft.to/lastmile_qr_scan"}, "type": "electric_bike"}, {"bike_id": "a5238c38a920aca9fc2ded7f89aae39d", "is_reserved": 0, "name": "a5238c38a920aca9fc2ded7f89aae39d", "lat": 38.9185735, "fusion_lat": 0.0, "lon": -77.04169583333334, "is_disabled": 0, "fusion_lon": 0.0, "rental_uris": {"android": "https://dc.lft.to/lastmile_qr_scan", "ios": "https://dc.lft.to/lastmile_qr_scan"}, "type": "electric_scooter"}, {"bike_id": "a4a999204762f0342054aad1c39b259f", "is_reserved": 0, "name": "a4a999204762f0342054aad1c39b259f", "lat": 38.887406, "fusion_lat": 0.0, "lon": -77.021225, "is_disabled": 0, "fusion_lon": 0.0, "rental_uris": {"android": "https://dc.lft.to/lastmile_qr_scan", "ios": "https://dc.lft.to/lastmile_qr_scan"}, "type": "electric_scooter"}, {"bike_id": "79130d8edab5e007508d3ec891e84e9e", "is_reserved": 0, "name": "79130d8edab5e007508d3ec891e84e9e", "lat": 38.91601266666667, "fusion_lat": 0.0, "lon": -77.04903566666667, "is_disabled": 0, "fusion_lon": 0.0, "rental_uris": {"android": "https://dc.lft.to/lastmile_qr_scan", "ios": "https://dc.lft.to/lastmile_qr_scan"}, "type": "electric_scooter"}, {"bike_id": "a1cac8f8c159c57e3eb44f7bb8241b2d", "is_reserved": 0, "name": "a1cac8f8c159c57e3eb44f7bb8241b2d", "lat": 38.9210225, "fusion_lat": 0.0, "lon": -77.043871, "is_disabled": 0, "fusion_lon": 0.0, "rental_uris": {"android": "https://dc.lft.to/lastmile_qr_scan", "ios": "https://dc.lft.to/lastmile_qr_scan"}, "type": "electric_scooter"}, {"bike_id": "7409e33c55027fa785a88667de3a5443", "is_reserved": 0, "name": "7409e33c55027fa785a88667de3a5443", "lat": 38.914101, "fusion_lat": 0.0, "lon": -77.02483333333333, "is_disabled": 0, "fusion_lon": 0.0, "rental_uris": {"android": "https://dc.lft.to/lastmile_qr_scan", "ios": "https://dc.lft.to/lastmile_qr_scan"}, "type": "electric_scooter"}, {"bike_id": "204dd52c810f165671bcb2ca3be9529d", "is_reserved": 0, "name": "204dd52c810f165671bcb2ca3be9529d", "lat": 38.89881533333333, "fusion_lat": 0.0, "lon": -77.04474616666667, "is_disabled": 0, "fusion_lon": 0.0, "rental_uris": {"android": "https://dc.lft.to/lastmile_qr_scan", "ios": "https://dc.lft.to/lastmile_qr_scan"}, "type": "electric_scooter"}, {"bike_id": "74069ad74f3cafb4625272a5e862e992", "is_reserved": 0, "name": "74069ad74f3cafb4625272a5e862e992", "lat": 38.92033133333334, "fusion_lat": 0.0, "lon": -76.989932, "is_disabled": 0, "fusion_lon": 0.0, "rental_uris": {"android": "https://dc.lft.to/lastmile_qr_scan", "ios": "https://dc.lft.to/lastmile_qr_scan"}, "type": "electric_scooter"}, {"bike_id": "c57443a429bca34f637b366def6079ea", "is_reserved": 0, "name": "c57443a429bca34f637b366def6079ea", "lat": 38.909762, "fusion_lat": 0.0, "lon": -77.088252, "is_disabled": 0, "fusion_lon": 0.0, "rental_uris": {"android": "https://dc.lft.to/lastmile_qr_scan", "ios": "https://dc.lft.to/lastmile_qr_scan"}, "type": "electric_bike"}, {"bike_id": "fe05e7ad8be327925876ad12cd36c926", "is_reserved": 0, "name": "fe05e7ad8be327925876ad12cd36c926", "lat": 38.897226, "fusion_lat": 0.0, "lon": -77.0020755, "is_disabled": 0, "fusion_lon": 0.0, "rental_uris": {"android": "https://dc.lft.to/lastmile_qr_scan", "ios": "https://dc.lft.to/lastmile_qr_scan"}, "type": "electric_scooter"}, {"bike_id": "62470c0df28ee956100e29ffb785d91c", "is_reserved": 0, "name": "62470c0df28ee956100e29ffb785d91c", "lat": 38.92884433333333, "fusion_lat": 0.0, "lon": -77.03254433333333, "is_disabled": 0, "fusion_lon": 0.0, "rental_uris": {"android": "https://dc.lft.to/lastmile_qr_scan", "ios": "https://dc.lft.to/lastmile_qr_scan"}, "type": "electric_bike"}, {"bike_id": "c5ecdd50d853c5371059b0ea8088333b", "is_reserved": 0, "name": "c5ecdd50d853c5371059b0ea8088333b", "lat": 38.90965333333333, "fusion_lat": 0.0, "lon": -77.0328805, "is_disabled": 0, "fusion_lon": 0.0, "rental_uris": {"android": "https://dc.lft.to/lastmile_qr_scan", "ios": "https://dc.lft.to/lastmile_qr_scan"}, "type": "electric_scooter"}, {"bike_id": "e598a33055027aaba901e11c697fdd7d", "is_reserved": 0, "name": "e598a33055027aaba901e11c697fdd7d", "lat": 38.903489, "fusion_lat": 0.0, "lon": -77.03434433333334, "is_disabled": 0, "fusion_lon": 0.0, "rental_uris": {"android": "https://dc.lft.to/lastmile_qr_scan", "ios": "https://dc.lft.to/lastmile_qr_scan"}, "type": "electric_scooter"}, {"bike_id": "8a06c8f8b53abe436dec767537583c97", "is_reserved": 0, "name": "8a06c8f8b53abe436dec767537583c97", "lat": 38.9296385, "fusion_lat": 0.0, "lon": -77.0327225, "is_disabled": 0, "fusion_lon": 0.0, "rental_uris": {"android": "https://dc.lft.to/lastmile_qr_scan", "ios": "https://dc.lft.to/lastmile_qr_scan"}, "type": "electric_scooter"}, {"bike_id": "0a552f2fac9fd98bb78e8402c8bd40e5", "is_reserved": 0, "name": "0a552f2fac9fd98bb78e8402c8bd40e5", "lat": 38.93452033333333, "fusion_lat": 0.0, "lon": -77.03865766666667, "is_disabled": 0, "fusion_lon": 0.0, "rental_uris": {"android": "https://dc.lft.to/lastmile_qr_scan", "ios": "https://dc.lft.to/lastmile_qr_scan"}, "type": "electric_scooter"}, {"bike_id": "74e538e25238339786a93a03950f8522", "is_reserved": 0, "name": "74e538e25238339786a93a03950f8522", "lat": 38.92864316666667, "fusion_lat": 0.0, "lon": -77.0328155, "is_disabled": 0, "fusion_lon": 0.0, "rental_uris": {"android": "https://dc.lft.to/lastmile_qr_scan", "ios": "https://dc.lft.to/lastmile_qr_scan"}, "type": "electric_scooter"}, {"bike_id": "dcb0469ab3970f0f5c5a5d57d47e5861", "is_reserved": 0, "name": "dcb0469ab3970f0f5c5a5d57d47e5861", "lat": 38.905463166666664, "fusion_lat": 0.0, "lon": -77.00588633333334, "is_disabled": 0, "fusion_lon": 0.0, "rental_uris": {"android": "https://dc.lft.to/lastmile_qr_scan", "ios": "https://dc.lft.to/lastmile_qr_scan"}, "type": "electric_scooter"}, {"bike_id": "03e81219ac4214f97996c62a38e33bcb", "is_reserved": 0, "name": "03e81219ac4214f97996c62a38e33bcb", "lat": 38.962336, "fusion_lat": 0.0, "lon": -76.9279405, "is_disabled": 0, "fusion_lon": 0.0, "rental_uris": {"android": "https://dc.lft.to/lastmile_qr_scan", "ios": "https://dc.lft.to/lastmile_qr_scan"}, "type": "electric_bike"}, {"bike_id": "a5b2e03a4e8b25224b4aa95c52dbe239", "is_reserved": 0, "name": "a5b2e03a4e8b25224b4aa95c52dbe239", "lat": 38.892228833333334, "fusion_lat": 0.0, "lon": -77.04502783333334, "is_disabled": 0, "fusion_lon": 0.0, "rental_uris": {"android": "https://dc.lft.to/lastmile_qr_scan", "ios": "https://dc.lft.to/lastmile_qr_scan"}, "type": "electric_scooter"}, {"bike_id": "73b14490aeb5b633805f7aa415c4c398", "is_reserved": 0, "name": "73b14490aeb5b633805f7aa415c4c398", "lat": 38.8972845, "fusion_lat": 0.0, "lon": -77.0186695, "is_disabled": 0, "fusion_lon": 0.0, "rental_uris": {"android": "https://dc.lft.to/lastmile_qr_scan", "ios": "https://dc.lft.to/lastmile_qr_scan"}, "type": "electric_scooter"}, {"bike_id": "b55ef016005fa17f9b7797ba601dace5", "is_reserved": 0, "name": "b55ef016005fa17f9b7797ba601dace5", "lat": 38.91118016666667, "fusion_lat": 0.0, "lon": -77.04362883333333, "is_disabled": 0, "fusion_lon": 0.0, "rental_uris": {"android": "https://dc.lft.to/lastmile_qr_scan", "ios": "https://dc.lft.to/lastmile_qr_scan"}, "type": "electric_scooter"}, {"bike_id": "cf53f5d9c0022bb53c941b8e5412d424", "is_reserved": 0, "name": "cf53f5d9c0022bb53c941b8e5412d424", "lat": 38.90025216666667, "fusion_lat": 0.0, "lon": -76.99131166666666, "is_disabled": 0, "fusion_lon": 0.0, "rental_uris": {"android": "https://dc.lft.to/lastmile_qr_scan", "ios": "https://dc.lft.to/lastmile_qr_scan"}, "type": "electric_scooter"}, {"bike_id": "996f6b82eab135176ecbcc0d01ca00a7", "is_reserved": 0, "name": "996f6b82eab135176ecbcc0d01ca00a7", "lat": 38.902736, "fusion_lat": 0.0, "lon": -76.92900033333333, "is_disabled": 0, "fusion_lon": 0.0, "rental_uris": {"android": "https://dc.lft.to/lastmile_qr_scan", "ios": "https://dc.lft.to/lastmile_qr_scan"}, "type": "electric_scooter"}, {"bike_id": "b72abb5c97c79ef0512a0ac75b415e72", "is_reserved": 0, "name": "b72abb5c97c79ef0512a0ac75b415e72", "lat": 38.91045483333333, "fusion_lat": 0.0, "lon": -77.034136, "is_disabled": 0, "fusion_lon": 0.0, "rental_uris": {"android": "https://dc.lft.to/lastmile_qr_scan", "ios": "https://dc.lft.to/lastmile_qr_scan"}, "type": "electric_scooter"}, {"bike_id": "8e73781bfbd4c6ee72efcfaa6d748b51", "is_reserved": 0, "name": "8e73781bfbd4c6ee72efcfaa6d748b51", "lat": 38.90178933333333, "fusion_lat": 0.0, "lon": -77.01614683333334, "is_disabled": 0, "fusion_lon": 0.0, "rental_uris": {"android": "https://dc.lft.to/lastmile_qr_scan", "ios": "https://dc.lft.to/lastmile_qr_scan"}, "type": "electric_scooter"}, {"bike_id": "50f65814efc873b986d9be26757c0df5", "is_reserved": 0, "name": "50f65814efc873b986d9be26757c0df5", "lat": 38.90044416666667, "fusion_lat": 0.0, "lon": -77.04881933333333, "is_disabled": 0, "fusion_lon": 0.0, "rental_uris": {"android": "https://dc.lft.to/lastmile_qr_scan", "ios": "https://dc.lft.to/lastmile_qr_scan"}, "type": "electric_scooter"}, {"bike_id": "2d35866913eb6635e63d8d5c99cacc65", "is_reserved": 0, "name": "2d35866913eb6635e63d8d5c99cacc65", "lat": 38.907333666666666, "fusion_lat": 0.0, "lon": -77.02946983333334, "is_disabled": 0, "fusion_lon": 0.0, "rental_uris": {"android": "https://dc.lft.to/lastmile_qr_scan", "ios": "https://dc.lft.to/lastmile_qr_scan"}, "type": "electric_scooter"}, {"bike_id": "d69e3594d318d2b0d81486dca2cd14ce", "is_reserved": 0, "name": "d69e3594d318d2b0d81486dca2cd14ce", "lat": 38.9020335, "fusion_lat": 0.0, "lon": -77.02347966666666, "is_disabled": 0, "fusion_lon": 0.0, "rental_uris": {"android": "https://dc.lft.to/lastmile_qr_scan", "ios": "https://dc.lft.to/lastmile_qr_scan"}, "type": "electric_scooter"}, {"bike_id": "3cc6d4f84aa0585551148d69d81cab24", "is_reserved": 0, "name": "3cc6d4f84aa0585551148d69d81cab24", "lat": 38.92388233333333, "fusion_lat": 0.0, "lon": -77.02162633333333, "is_disabled": 0, "fusion_lon": 0.0, "rental_uris": {"android": "https://dc.lft.to/lastmile_qr_scan", "ios": "https://dc.lft.to/lastmile_qr_scan"}, "type": "electric_scooter"}, {"bike_id": "d2ac694e613b3a69bcd811f4469a3844", "is_reserved": 0, "name": "d2ac694e613b3a69bcd811f4469a3844", "lat": 38.930522333333336, "fusion_lat": 0.0, "lon": -77.01863933333334, "is_disabled": 0, "fusion_lon": 0.0, "rental_uris": {"android": "https://dc.lft.to/lastmile_qr_scan", "ios": "https://dc.lft.to/lastmile_qr_scan"}, "type": "electric_scooter"}, {"bike_id": "6fb519fda916da6f8280f963080817c6", "is_reserved": 0, "name": "6fb519fda916da6f8280f963080817c6", "lat": 38.89820433333333, "fusion_lat": 0.0, "lon": -77.027877, "is_disabled": 0, "fusion_lon": 0.0, "rental_uris": {"android": "https://dc.lft.to/lastmile_qr_scan", "ios": "https://dc.lft.to/lastmile_qr_scan"}, "type": "electric_scooter"}, {"bike_id": "344dbf8751b2aa27b579e22faea26f89", "is_reserved": 0, "name": "344dbf8751b2aa27b579e22faea26f89", "lat": 38.928327333333336, "fusion_lat": 0.0, "lon": -76.99589583333334, "is_disabled": 0, "fusion_lon": 0.0, "rental_uris": {"android": "https://dc.lft.to/lastmile_qr_scan", "ios": "https://dc.lft.to/lastmile_qr_scan"}, "type": "electric_scooter"}, {"bike_id": "1b234c426ce818d7bcbdd54354850332", "is_reserved": 0, "name": "1b234c426ce818d7bcbdd54354850332", "lat": 38.917133166666666, "fusion_lat": 0.0, "lon": -76.976493, "is_disabled": 0, "fusion_lon": 0.0, "rental_uris": {"android": "https://dc.lft.to/lastmile_qr_scan", "ios": "https://dc.lft.to/lastmile_qr_scan"}, "type": "electric_scooter"}, {"bike_id": "1423991cd99aa254386084ccbed27ee1", "is_reserved": 0, "name": "1423991cd99aa254386084ccbed27ee1", "lat": 38.90382816666666, "fusion_lat": 0.0, "lon": -77.060092, "is_disabled": 0, "fusion_lon": 0.0, "rental_uris": {"android": "https://dc.lft.to/lastmile_qr_scan", "ios": "https://dc.lft.to/lastmile_qr_scan"}, "type": "electric_scooter"}, {"bike_id": "3dc622ffe702a0fb6f434c7a8d04b4d8", "is_reserved": 0, "name": "3dc622ffe702a0fb6f434c7a8d04b4d8", "lat": 38.887449333333336, "fusion_lat": 0.0, "lon": -77.021294, "is_disabled": 0, "fusion_lon": 0.0, "rental_uris": {"android": "https://dc.lft.to/lastmile_qr_scan", "ios": "https://dc.lft.to/lastmile_qr_scan"}, "type": "electric_scooter"}, {"bike_id": "eaf4954153e220b2684f08986b5ced58", "is_reserved": 0, "name": "eaf4954153e220b2684f08986b5ced58", "lat": 38.939134, "fusion_lat": 0.0, "lon": -77.0246695, "is_disabled": 0, "fusion_lon": 0.0, "rental_uris": {"android": "https://dc.lft.to/lastmile_qr_scan", "ios": "https://dc.lft.to/lastmile_qr_scan"}, "type": "electric_scooter"}, {"bike_id": "9d92776601a3b5ff613e579b18c05b59", "is_reserved": 0, "name": "9d92776601a3b5ff613e579b18c05b59", "lat": 38.90041633333333, "fusion_lat": 0.0, "lon": -77.00200983333333, "is_disabled": 0, "fusion_lon": 0.0, "rental_uris": {"android": "https://dc.lft.to/lastmile_qr_scan", "ios": "https://dc.lft.to/lastmile_qr_scan"}, "type": "electric_scooter"}, {"bike_id": "ab8222ef7585988bf8d5ed2ad77b112b", "is_reserved": 0, "name": "ab8222ef7585988bf8d5ed2ad77b112b", "lat": 38.912561, "fusion_lat": 0.0, "lon": -77.04439983333333, "is_disabled": 0, "fusion_lon": 0.0, "rental_uris": {"android": "https://dc.lft.to/lastmile_qr_scan", "ios": "https://dc.lft.to/lastmile_qr_scan"}, "type": "electric_scooter"}, {"bike_id": "149d1ca1f5d12931a486f7140f44bb12", "is_reserved": 0, "name": "149d1ca1f5d12931a486f7140f44bb12", "lat": 38.9095965, "fusion_lat": 0.0, "lon": -77.04648683333333, "is_disabled": 0, "fusion_lon": 0.0, "rental_uris": {"android": "https://dc.lft.to/lastmile_qr_scan", "ios": "https://dc.lft.to/lastmile_qr_scan"}, "type": "electric_scooter"}, {"bike_id": "5927ea725f9d8614f4216e6b7a6db624", "is_reserved": 0, "name": "5927ea725f9d8614f4216e6b7a6db624", "lat": 38.90517583333333, "fusion_lat": 0.0, "lon": -77.04345066666667, "is_disabled": 0, "fusion_lon": 0.0, "rental_uris": {"android": "https://dc.lft.to/lastmile_qr_scan", "ios": "https://dc.lft.to/lastmile_qr_scan"}, "type": "electric_scooter"}, {"bike_id": "940b23eee816dffe5c7f643bce599fa1", "is_reserved": 0, "name": "940b23eee816dffe5c7f643bce599fa1", "lat": 38.90522883333333, "fusion_lat": 0.0, "lon": -77.04880316666667, "is_disabled": 0, "fusion_lon": 0.0, "rental_uris": {"android": "https://dc.lft.to/lastmile_qr_scan", "ios": "https://dc.lft.to/lastmile_qr_scan"}, "type": "electric_bike"}, {"bike_id": "6a3a581e38e42d9e93e5b9ed9be88bb3", "is_reserved": 0, "name": "6a3a581e38e42d9e93e5b9ed9be88bb3", "lat": 38.910420333333334, "fusion_lat": 0.0, "lon": -77.04266616666666, "is_disabled": 0, "fusion_lon": 0.0, "rental_uris": {"android": "https://dc.lft.to/lastmile_qr_scan", "ios": "https://dc.lft.to/lastmile_qr_scan"}, "type": "electric_scooter"}, {"bike_id": "03207a34ecbfa815d1583acde7a8d8fa", "is_reserved": 0, "name": "03207a34ecbfa815d1583acde7a8d8fa", "lat": 38.87445, "fusion_lat": 0.0, "lon": -77.009183, "is_disabled": 0, "fusion_lon": 0.0, "rental_uris": {"android": "https://dc.lft.to/lastmile_qr_scan", "ios": "https://dc.lft.to/lastmile_qr_scan"}, "type": "electric_scooter"}, {"bike_id": "38f2fca15ff9603b753380d8587f4cbb", "is_reserved": 0, "name": "38f2fca15ff9603b753380d8587f4cbb", "lat": 38.905779, "fusion_lat": 0.0, "lon": -77.0569695, "is_disabled": 0, "fusion_lon": 0.0, "rental_uris": {"android": "https://dc.lft.to/lastmile_qr_scan", "ios": "https://dc.lft.to/lastmile_qr_scan"}, "type": "electric_scooter"}, {"bike_id": "0880651fd66d05053c8acdaea5a98ee0", "is_reserved": 0, "name": "0880651fd66d05053c8acdaea5a98ee0", "lat": 38.90017666666667, "fusion_lat": 0.0, "lon": -76.9985725, "is_disabled": 0, "fusion_lon": 0.0, "rental_uris": {"android": "https://dc.lft.to/lastmile_qr_scan", "ios": "https://dc.lft.to/lastmile_qr_scan"}, "type": "electric_scooter"}, {"bike_id": "f3d5c45eeff734cf02b227ec98874e66", "is_reserved": 0, "name": "f3d5c45eeff734cf02b227ec98874e66", "lat": 38.881856666666664, "fusion_lat": 0.0, "lon": -77.0035285, "is_disabled": 0, "fusion_lon": 0.0, "rental_uris": {"android": "https://dc.lft.to/lastmile_qr_scan", "ios": "https://dc.lft.to/lastmile_qr_scan"}, "type": "electric_scooter"}, {"bike_id": "3e2a3a851e94f3a59f0d4e5c896313f6", "is_reserved": 0, "name": "3e2a3a851e94f3a59f0d4e5c896313f6", "lat": 38.90866166666667, "fusion_lat": 0.0, "lon": -77.07113233333334, "is_disabled": 0, "fusion_lon": 0.0, "rental_uris": {"android": "https://dc.lft.to/lastmile_qr_scan", "ios": "https://dc.lft.to/lastmile_qr_scan"}, "type": "electric_scooter"}, {"bike_id": "79e8a16eef847a0c9f58b4da2c2c22c7", "is_reserved": 0, "name": "79e8a16eef847a0c9f58b4da2c2c22c7", "lat": 38.91796683333333, "fusion_lat": 0.0, "lon": -77.02710116666667, "is_disabled": 0, "fusion_lon": 0.0, "rental_uris": {"android": "https://dc.lft.to/lastmile_qr_scan", "ios": "https://dc.lft.to/lastmile_qr_scan"}, "type": "electric_scooter"}, {"bike_id": "5eb934960c3898192f6eca459b9caa08", "is_reserved": 0, "name": "5eb934960c3898192f6eca459b9caa08", "lat": 38.921359333333335, "fusion_lat": 0.0, "lon": -77.009392, "is_disabled": 0, "fusion_lon": 0.0, "rental_uris": {"android": "https://dc.lft.to/lastmile_qr_scan", "ios": "https://dc.lft.to/lastmile_qr_scan"}, "type": "electric_scooter"}, {"bike_id": "b6072e4dcf58512b6c75dc85d962408e", "is_reserved": 0, "name": "b6072e4dcf58512b6c75dc85d962408e", "lat": 38.91676133333333, "fusion_lat": 0.0, "lon": -77.00198866666666, "is_disabled": 0, "fusion_lon": 0.0, "rental_uris": {"android": "https://dc.lft.to/lastmile_qr_scan", "ios": "https://dc.lft.to/lastmile_qr_scan"}, "type": "electric_scooter"}, {"bike_id": "e8ceee51a331676f4411669eafc9d200", "is_reserved": 0, "name": "e8ceee51a331676f4411669eafc9d200", "lat": 38.90384516666667, "fusion_lat": 0.0, "lon": -76.97616933333333, "is_disabled": 0, "fusion_lon": 0.0, "rental_uris": {"android": "https://dc.lft.to/lastmile_qr_scan", "ios": "https://dc.lft.to/lastmile_qr_scan"}, "type": "electric_scooter"}, {"bike_id": "5b178379e2e02bb8503552b121e24b57", "is_reserved": 0, "name": "5b178379e2e02bb8503552b121e24b57", "lat": 38.903783833333335, "fusion_lat": 0.0, "lon": -77.033181, "is_disabled": 0, "fusion_lon": 0.0, "rental_uris": {"android": "https://dc.lft.to/lastmile_qr_scan", "ios": "https://dc.lft.to/lastmile_qr_scan"}, "type": "electric_scooter"}, {"bike_id": "923f72bd82904c5182ec7af20322a58d", "is_reserved": 0, "name": "923f72bd82904c5182ec7af20322a58d", "lat": 38.923707666666665, "fusion_lat": 0.0, "lon": -77.02816333333334, "is_disabled": 0, "fusion_lon": 0.0, "rental_uris": {"android": "https://dc.lft.to/lastmile_qr_scan", "ios": "https://dc.lft.to/lastmile_qr_scan"}, "type": "electric_scooter"}, {"bike_id": "3fcde62e0457ce02ac7a8e765edf9d87", "is_reserved": 0, "name": "3fcde62e0457ce02ac7a8e765edf9d87", "lat": 38.892322, "fusion_lat": 0.0, "lon": -77.0487515, "is_disabled": 0, "fusion_lon": 0.0, "rental_uris": {"android": "https://dc.lft.to/lastmile_qr_scan", "ios": "https://dc.lft.to/lastmile_qr_scan"}, "type": "electric_scooter"}, {"bike_id": "044c396b904868957b3ac6cf55f1d638", "is_reserved": 0, "name": "044c396b904868957b3ac6cf55f1d638", "lat": 38.8972685, "fusion_lat": 0.0, "lon": -77.01870833333334, "is_disabled": 0, "fusion_lon": 0.0, "rental_uris": {"android": "https://dc.lft.to/lastmile_qr_scan", "ios": "https://dc.lft.to/lastmile_qr_scan"}, "type": "electric_scooter"}, {"bike_id": "48a0de0e9b18c6ad74f0074b40247fe9", "is_reserved": 0, "name": "48a0de0e9b18c6ad74f0074b40247fe9", "lat": 38.904422333333336, "fusion_lat": 0.0, "lon": -77.05318, "is_disabled": 0, "fusion_lon": 0.0, "rental_uris": {"android": "https://dc.lft.to/lastmile_qr_scan", "ios": "https://dc.lft.to/lastmile_qr_scan"}, "type": "electric_scooter"}, {"bike_id": "f5d6c3ae7278d93c7078a2a66e2f93aa", "is_reserved": 0, "name": "f5d6c3ae7278d93c7078a2a66e2f93aa", "lat": 38.91463666666667, "fusion_lat": 0.0, "lon": -77.03865933333333, "is_disabled": 0, "fusion_lon": 0.0, "rental_uris": {"android": "https://dc.lft.to/lastmile_qr_scan", "ios": "https://dc.lft.to/lastmile_qr_scan"}, "type": "electric_scooter"}, {"bike_id": "589fbd152979370b17612950598540a6", "is_reserved": 0, "name": "589fbd152979370b17612950598540a6", "lat": 38.91597483333334, "fusion_lat": 0.0, "lon": -77.03209066666666, "is_disabled": 0, "fusion_lon": 0.0, "rental_uris": {"android": "https://dc.lft.to/lastmile_qr_scan", "ios": "https://dc.lft.to/lastmile_qr_scan"}, "type": "electric_scooter"}, {"bike_id": "25cf5551e9433dccf717a32c75bb5412", "is_reserved": 0, "name": "25cf5551e9433dccf717a32c75bb5412", "lat": 38.90268666666667, "fusion_lat": 0.0, "lon": -77.05311716666667, "is_disabled": 0, "fusion_lon": 0.0, "rental_uris": {"android": "https://dc.lft.to/lastmile_qr_scan", "ios": "https://dc.lft.to/lastmile_qr_scan"}, "type": "electric_scooter"}, {"bike_id": "cfa5c7a6516da49bce336304bfe45a76", "is_reserved": 0, "name": "cfa5c7a6516da49bce336304bfe45a76", "lat": 38.90572183333333, "fusion_lat": 0.0, "lon": -77.022077, "is_disabled": 0, "fusion_lon": 0.0, "rental_uris": {"android": "https://dc.lft.to/lastmile_qr_scan", "ios": "https://dc.lft.to/lastmile_qr_scan"}, "type": "electric_scooter"}, {"bike_id": "8f1480afc2eb3c1dde67e5583c73affb", "is_reserved": 0, "name": "8f1480afc2eb3c1dde67e5583c73affb", "lat": 38.9164545, "fusion_lat": 0.0, "lon": -77.02395366666667, "is_disabled": 0, "fusion_lon": 0.0, "rental_uris": {"android": "https://dc.lft.to/lastmile_qr_scan", "ios": "https://dc.lft.to/lastmile_qr_scan"}, "type": "electric_scooter"}, {"bike_id": "006b4685b3754f5ed0dd10fd300e9291", "is_reserved": 0, "name": "006b4685b3754f5ed0dd10fd300e9291", "lat": 38.94193083333333, "fusion_lat": 0.0, "lon": -77.04112283333333, "is_disabled": 0, "fusion_lon": 0.0, "rental_uris": {"android": "https://dc.lft.to/lastmile_qr_scan", "ios": "https://dc.lft.to/lastmile_qr_scan"}, "type": "electric_scooter"}, {"bike_id": "a26f237e8cb8ac5056d390fb89dc4fba", "is_reserved": 0, "name": "a26f237e8cb8ac5056d390fb89dc4fba", "lat": 38.980489666666664, "fusion_lat": 0.0, "lon": -76.957846, "is_disabled": 0, "fusion_lon": 0.0, "rental_uris": {"android": "https://dc.lft.to/lastmile_qr_scan", "ios": "https://dc.lft.to/lastmile_qr_scan"}, "type": "electric_bike"}, {"bike_id": "a905ace19c1e5f6dfc16e88c5cc20849", "is_reserved": 0, "name": "a905ace19c1e5f6dfc16e88c5cc20849", "lat": 38.92499166666666, "fusion_lat": 0.0, "lon": -77.02401266666666, "is_disabled": 0, "fusion_lon": 0.0, "rental_uris": {"android": "https://dc.lft.to/lastmile_qr_scan", "ios": "https://dc.lft.to/lastmile_qr_scan"}, "type": "electric_scooter"}, {"bike_id": "393e706932492d49102540591d6615a1", "is_reserved": 0, "name": "393e706932492d49102540591d6615a1", "lat": 38.899223, "fusion_lat": 0.0, "lon": -77.0127185, "is_disabled": 0, "fusion_lon": 0.0, "rental_uris": {"android": "https://dc.lft.to/lastmile_qr_scan", "ios": "https://dc.lft.to/lastmile_qr_scan"}, "type": "electric_scooter"}, {"bike_id": "5a4aa5d79434edab101796ac1ba50586", "is_reserved": 0, "name": "5a4aa5d79434edab101796ac1ba50586", "lat": 38.95733883333333, "fusion_lat": 0.0, "lon": -77.023977, "is_disabled": 0, "fusion_lon": 0.0, "rental_uris": {"android": "https://dc.lft.to/lastmile_qr_scan", "ios": "https://dc.lft.to/lastmile_qr_scan"}, "type": "electric_scooter"}, {"bike_id": "4bb4f72eaba05d8ca57505db45634ab1", "is_reserved": 0, "name": "4bb4f72eaba05d8ca57505db45634ab1", "lat": 38.89550166666667, "fusion_lat": 0.0, "lon": -77.00916266666667, "is_disabled": 0, "fusion_lon": 0.0, "rental_uris": {"android": "https://dc.lft.to/lastmile_qr_scan", "ios": "https://dc.lft.to/lastmile_qr_scan"}, "type": "electric_scooter"}, {"bike_id": "36265901d0a02eac480261630cb2423c", "is_reserved": 0, "name": "36265901d0a02eac480261630cb2423c", "lat": 38.902322, "fusion_lat": 0.0, "lon": -77.0344035, "is_disabled": 0, "fusion_lon": 0.0, "rental_uris": {"android": "https://dc.lft.to/lastmile_qr_scan", "ios": "https://dc.lft.to/lastmile_qr_scan"}, "type": "electric_scooter"}, {"bike_id": "2601b367d100fc68ab28bfbab7457a2b", "is_reserved": 0, "name": "2601b367d100fc68ab28bfbab7457a2b", "lat": 38.925419833333336, "fusion_lat": 0.0, "lon": -77.03536233333334, "is_disabled": 0, "fusion_lon": 0.0, "rental_uris": {"android": "https://dc.lft.to/lastmile_qr_scan", "ios": "https://dc.lft.to/lastmile_qr_scan"}, "type": "electric_scooter"}, {"bike_id": "57c8b2eaa77e1fa64a96044dbf3e04b9", "is_reserved": 0, "name": "57c8b2eaa77e1fa64a96044dbf3e04b9", "lat": 38.95091716666667, "fusion_lat": 0.0, "lon": -77.0122515, "is_disabled": 0, "fusion_lon": 0.0, "rental_uris": {"android": "https://dc.lft.to/lastmile_qr_scan", "ios": "https://dc.lft.to/lastmile_qr_scan"}, "type": "electric_bike"}, {"bike_id": "1b245ca840b92c17ee2b2071a896ba27", "is_reserved": 0, "name": "1b245ca840b92c17ee2b2071a896ba27", "lat": 38.898503833333336, "fusion_lat": 0.0, "lon": -77.02184316666667, "is_disabled": 0, "fusion_lon": 0.0, "rental_uris": {"android": "https://dc.lft.to/lastmile_qr_scan", "ios": "https://dc.lft.to/lastmile_qr_scan"}, "type": "electric_scooter"}, {"bike_id": "c01fb9dbc7d20364982f3423c7da7df0", "is_reserved": 0, "name": "c01fb9dbc7d20364982f3423c7da7df0", "lat": 38.842822, "fusion_lat": 0.0, "lon": -77.04498866666667, "is_disabled": 0, "fusion_lon": 0.0, "rental_uris": {"android": "https://dc.lft.to/lastmile_qr_scan", "ios": "https://dc.lft.to/lastmile_qr_scan"}, "type": "electric_bike"}, {"bike_id": "c21fa7da19183f1cc5ca4d39c3242b99", "is_reserved": 0, "name": "c21fa7da19183f1cc5ca4d39c3242b99", "lat": 38.887514, "fusion_lat": 0.0, "lon": -76.99602783333333, "is_disabled": 0, "fusion_lon": 0.0, "rental_uris": {"android": "https://dc.lft.to/lastmile_qr_scan", "ios": "https://dc.lft.to/lastmile_qr_scan"}, "type": "electric_scooter"}, {"bike_id": "fbb151b55082ac9e2fff90230b9271f3", "is_reserved": 0, "name": "fbb151b55082ac9e2fff90230b9271f3", "lat": 38.92750383333333, "fusion_lat": 0.0, "lon": -77.02445166666666, "is_disabled": 0, "fusion_lon": 0.0, "rental_uris": {"android": "https://dc.lft.to/lastmile_qr_scan", "ios": "https://dc.lft.to/lastmile_qr_scan"}, "type": "electric_scooter"}, {"bike_id": "218710a366857f2081d3fceb36ff1e4b", "is_reserved": 0, "name": "218710a366857f2081d3fceb36ff1e4b", "lat": 38.956290833333334, "fusion_lat": 0.0, "lon": -77.0199185, "is_disabled": 0, "fusion_lon": 0.0, "rental_uris": {"android": "https://dc.lft.to/lastmile_qr_scan", "ios": "https://dc.lft.to/lastmile_qr_scan"}, "type": "electric_scooter"}, {"bike_id": "95d42c76d8820638d1745a22357f8782", "is_reserved": 0, "name": "95d42c76d8820638d1745a22357f8782", "lat": 38.9044775, "fusion_lat": 0.0, "lon": -76.982204, "is_disabled": 0, "fusion_lon": 0.0, "rental_uris": {"android": "https://dc.lft.to/lastmile_qr_scan", "ios": "https://dc.lft.to/lastmile_qr_scan"}, "type": "electric_scooter"}, {"bike_id": "e58f4a7f0b40fec1eec3f9a3dfc4e663", "is_reserved": 0, "name": "e58f4a7f0b40fec1eec3f9a3dfc4e663", "lat": 38.911055, "fusion_lat": 0.0, "lon": -77.04840033333333, "is_disabled": 0, "fusion_lon": 0.0, "rental_uris": {"android": "https://dc.lft.to/lastmile_qr_scan", "ios": "https://dc.lft.to/lastmile_qr_scan"}, "type": "electric_scooter"}, {"bike_id": "dacc23c38240e474e477f0f04c5df87f", "is_reserved": 0, "name": "dacc23c38240e474e477f0f04c5df87f", "lat": 38.937002, "fusion_lat": 0.0, "lon": -77.05597166666666, "is_disabled": 0, "fusion_lon": 0.0, "rental_uris": {"android": "https://dc.lft.to/lastmile_qr_scan", "ios": "https://dc.lft.to/lastmile_qr_scan"}, "type": "electric_scooter"}, {"bike_id": "1699f31368e89f7a1dcb104617724bc0", "is_reserved": 0, "name": "1699f31368e89f7a1dcb104617724bc0", "lat": 38.90330616666667, "fusion_lat": 0.0, "lon": -76.97523566666666, "is_disabled": 0, "fusion_lon": 0.0, "rental_uris": {"android": "https://dc.lft.to/lastmile_qr_scan", "ios": "https://dc.lft.to/lastmile_qr_scan"}, "type": "electric_bike"}, {"bike_id": "66b6e104673824d2e5310f97a8587f81", "is_reserved": 0, "name": "66b6e104673824d2e5310f97a8587f81", "lat": 38.895038166666666, "fusion_lat": 0.0, "lon": -77.01614633333334, "is_disabled": 0, "fusion_lon": 0.0, "rental_uris": {"android": "https://dc.lft.to/lastmile_qr_scan", "ios": "https://dc.lft.to/lastmile_qr_scan"}, "type": "electric_scooter"}, {"bike_id": "d37ede88e262b7e05aecd03ba0548326", "is_reserved": 0, "name": "d37ede88e262b7e05aecd03ba0548326", "lat": 38.93565316666667, "fusion_lat": 0.0, "lon": -77.07461666666667, "is_disabled": 0, "fusion_lon": 0.0, "rental_uris": {"android": "https://dc.lft.to/lastmile_qr_scan", "ios": "https://dc.lft.to/lastmile_qr_scan"}, "type": "electric_scooter"}, {"bike_id": "408085d14f3868a6b71087aa635959c3", "is_reserved": 0, "name": "408085d14f3868a6b71087aa635959c3", "lat": 38.90261016666667, "fusion_lat": 0.0, "lon": -77.03422166666667, "is_disabled": 0, "fusion_lon": 0.0, "rental_uris": {"android": "https://dc.lft.to/lastmile_qr_scan", "ios": "https://dc.lft.to/lastmile_qr_scan"}, "type": "electric_scooter"}, {"bike_id": "f283765a9f29bc1da16691c433021345", "is_reserved": 0, "name": "f283765a9f29bc1da16691c433021345", "lat": 38.90842683333333, "fusion_lat": 0.0, "lon": -77.04301866666667, "is_disabled": 0, "fusion_lon": 0.0, "rental_uris": {"android": "https://dc.lft.to/lastmile_qr_scan", "ios": "https://dc.lft.to/lastmile_qr_scan"}, "type": "electric_scooter"}, {"bike_id": "e52de25c9edc6f7e2af54b2af19bef7f", "is_reserved": 0, "name": "e52de25c9edc6f7e2af54b2af19bef7f", "lat": 38.921535666666664, "fusion_lat": 0.0, "lon": -77.03379933333333, "is_disabled": 0, "fusion_lon": 0.0, "rental_uris": {"android": "https://dc.lft.to/lastmile_qr_scan", "ios": "https://dc.lft.to/lastmile_qr_scan"}, "type": "electric_scooter"}, {"bike_id": "58ad69c278b451cf2ae9a9608687ae2e", "is_reserved": 0, "name": "58ad69c278b451cf2ae9a9608687ae2e", "lat": 38.910296333333335, "fusion_lat": 0.0, "lon": -77.033107, "is_disabled": 0, "fusion_lon": 0.0, "rental_uris": {"android": "https://dc.lft.to/lastmile_qr_scan", "ios": "https://dc.lft.to/lastmile_qr_scan"}, "type": "electric_scooter"}, {"bike_id": "e9804d4553fa223093b6e8f28e067322", "is_reserved": 0, "name": "e9804d4553fa223093b6e8f28e067322", "lat": 38.897305333333335, "fusion_lat": 0.0, "lon": -77.0037485, "is_disabled": 0, "fusion_lon": 0.0, "rental_uris": {"android": "https://dc.lft.to/lastmile_qr_scan", "ios": "https://dc.lft.to/lastmile_qr_scan"}, "type": "electric_scooter"}, {"bike_id": "78a7053196c2f8039e20ef77009a5aa9", "is_reserved": 0, "name": "78a7053196c2f8039e20ef77009a5aa9", "lat": 38.92848516666667, "fusion_lat": 0.0, "lon": -77.01582516666667, "is_disabled": 0, "fusion_lon": 0.0, "rental_uris": {"android": "https://dc.lft.to/lastmile_qr_scan", "ios": "https://dc.lft.to/lastmile_qr_scan"}, "type": "electric_scooter"}, {"bike_id": "7a3e0f6e090b10498cf77721be0420a9", "is_reserved": 0, "name": "7a3e0f6e090b10498cf77721be0420a9", "lat": 38.90021433333333, "fusion_lat": 0.0, "lon": -76.99349583333333, "is_disabled": 0, "fusion_lon": 0.0, "rental_uris": {"android": "https://dc.lft.to/lastmile_qr_scan", "ios": "https://dc.lft.to/lastmile_qr_scan"}, "type": "electric_scooter"}, {"bike_id": "c2758770d2b17198e37bab5a939e1f25", "is_reserved": 0, "name": "c2758770d2b17198e37bab5a939e1f25", "lat": 38.858109, "fusion_lat": 0.0, "lon": -77.05137966666666, "is_disabled": 0, "fusion_lon": 0.0, "rental_uris": {"android": "https://dc.lft.to/lastmile_qr_scan", "ios": "https://dc.lft.to/lastmile_qr_scan"}, "type": "electric_bike"}, {"bike_id": "99cd231e12e769fe6078687410233f08", "is_reserved": 0, "name": "99cd231e12e769fe6078687410233f08", "lat": 38.892204666666665, "fusion_lat": 0.0, "lon": -77.02634, "is_disabled": 0, "fusion_lon": 0.0, "rental_uris": {"android": "https://dc.lft.to/lastmile_qr_scan", "ios": "https://dc.lft.to/lastmile_qr_scan"}, "type": "electric_scooter"}, {"bike_id": "bd6fce0535c466daf6e5e3a1cb12c2e5", "is_reserved": 0, "name": "bd6fce0535c466daf6e5e3a1cb12c2e5", "lat": 38.91994483333333, "fusion_lat": 0.0, "lon": -77.04758683333333, "is_disabled": 0, "fusion_lon": 0.0, "rental_uris": {"android": "https://dc.lft.to/lastmile_qr_scan", "ios": "https://dc.lft.to/lastmile_qr_scan"}, "type": "electric_scooter"}, {"bike_id": "5190f60fb3fc5f4bf27c2615932f5fde", "is_reserved": 0, "name": "5190f60fb3fc5f4bf27c2615932f5fde", "lat": 38.93774833333333, "fusion_lat": 0.0, "lon": -77.01906233333334, "is_disabled": 0, "fusion_lon": 0.0, "rental_uris": {"android": "https://dc.lft.to/lastmile_qr_scan", "ios": "https://dc.lft.to/lastmile_qr_scan"}, "type": "electric_bike"}, {"bike_id": "0471257237024047c2d57d3b6500ed7a", "is_reserved": 0, "name": "0471257237024047c2d57d3b6500ed7a", "lat": 38.9230905, "fusion_lat": 0.0, "lon": -77.029562, "is_disabled": 0, "fusion_lon": 0.0, "rental_uris": {"android": "https://dc.lft.to/lastmile_qr_scan", "ios": "https://dc.lft.to/lastmile_qr_scan"}, "type": "electric_scooter"}, {"bike_id": "4c0640898725a6c506d1824c40b3c9da", "is_reserved": 0, "name": "4c0640898725a6c506d1824c40b3c9da", "lat": 38.907394333333336, "fusion_lat": 0.0, "lon": -77.02803683333333, "is_disabled": 0, "fusion_lon": 0.0, "rental_uris": {"android": "https://dc.lft.to/lastmile_qr_scan", "ios": "https://dc.lft.to/lastmile_qr_scan"}, "type": "electric_scooter"}, {"bike_id": "22cedd7bef23c39e4ead5b3d00cf40db", "is_reserved": 0, "name": "22cedd7bef23c39e4ead5b3d00cf40db", "lat": 38.907726333333336, "fusion_lat": 0.0, "lon": -76.99713733333333, "is_disabled": 0, "fusion_lon": 0.0, "rental_uris": {"android": "https://dc.lft.to/lastmile_qr_scan", "ios": "https://dc.lft.to/lastmile_qr_scan"}, "type": "electric_scooter"}, {"bike_id": "b4aa762d5e23ea8912a8ef550255b211", "is_reserved": 0, "name": "b4aa762d5e23ea8912a8ef550255b211", "lat": 38.89193566666667, "fusion_lat": 0.0, "lon": -76.99851033333333, "is_disabled": 0, "fusion_lon": 0.0, "rental_uris": {"android": "https://dc.lft.to/lastmile_qr_scan", "ios": "https://dc.lft.to/lastmile_qr_scan"}, "type": "electric_scooter"}, {"bike_id": "c2ae88061688860449829b5bf9477e3d", "is_reserved": 0, "name": "c2ae88061688860449829b5bf9477e3d", "lat": 38.91402016666667, "fusion_lat": 0.0, "lon": -77.031636, "is_disabled": 0, "fusion_lon": 0.0, "rental_uris": {"android": "https://dc.lft.to/lastmile_qr_scan", "ios": "https://dc.lft.to/lastmile_qr_scan"}, "type": "electric_scooter"}, {"bike_id": "5b766914c60a16eac7c011dea4c6a8c6", "is_reserved": 0, "name": "5b766914c60a16eac7c011dea4c6a8c6", "lat": 38.9410975, "fusion_lat": 0.0, "lon": -77.000473, "is_disabled": 0, "fusion_lon": 0.0, "rental_uris": {"android": "https://dc.lft.to/lastmile_qr_scan", "ios": "https://dc.lft.to/lastmile_qr_scan"}, "type": "electric_scooter"}, {"bike_id": "1193ac4781c1593ae5efb014316c9943", "is_reserved": 0, "name": "1193ac4781c1593ae5efb014316c9943", "lat": 38.922609333333334, "fusion_lat": 0.0, "lon": -77.04286466666667, "is_disabled": 0, "fusion_lon": 0.0, "rental_uris": {"android": "https://dc.lft.to/lastmile_qr_scan", "ios": "https://dc.lft.to/lastmile_qr_scan"}, "type": "electric_scooter"}, {"bike_id": "a4d1de440e3f1d97da4401fc90f807f2", "is_reserved": 0, "name": "a4d1de440e3f1d97da4401fc90f807f2", "lat": 38.9006895, "fusion_lat": 0.0, "lon": -77.04763866666667, "is_disabled": 0, "fusion_lon": 0.0, "rental_uris": {"android": "https://dc.lft.to/lastmile_qr_scan", "ios": "https://dc.lft.to/lastmile_qr_scan"}, "type": "electric_scooter"}, {"bike_id": "9917bb5664159c99438903039676194c", "is_reserved": 0, "name": "9917bb5664159c99438903039676194c", "lat": 38.944955666666665, "fusion_lat": 0.0, "lon": -77.006814, "is_disabled": 0, "fusion_lon": 0.0, "rental_uris": {"android": "https://dc.lft.to/lastmile_qr_scan", "ios": "https://dc.lft.to/lastmile_qr_scan"}, "type": "electric_bike"}, {"bike_id": "c59ec14237601ae792a4d5314fdc9f34", "is_reserved": 0, "name": "c59ec14237601ae792a4d5314fdc9f34", "lat": 38.90406766666667, "fusion_lat": 0.0, "lon": -77.00190983333333, "is_disabled": 0, "fusion_lon": 0.0, "rental_uris": {"android": "https://dc.lft.to/lastmile_qr_scan", "ios": "https://dc.lft.to/lastmile_qr_scan"}, "type": "electric_scooter"}, {"bike_id": "1f935eb36400c9617b9b7171972f1206", "is_reserved": 0, "name": "1f935eb36400c9617b9b7171972f1206", "lat": 38.917966666666665, "fusion_lat": 0.0, "lon": -77.04171816666667, "is_disabled": 0, "fusion_lon": 0.0, "rental_uris": {"android": "https://dc.lft.to/lastmile_qr_scan", "ios": "https://dc.lft.to/lastmile_qr_scan"}, "type": "electric_scooter"}, {"bike_id": "e45cb057dfb5785ba5195f970e7dbce3", "is_reserved": 0, "name": "e45cb057dfb5785ba5195f970e7dbce3", "lat": 38.90513266666667, "fusion_lat": 0.0, "lon": -77.065425, "is_disabled": 0, "fusion_lon": 0.0, "rental_uris": {"android": "https://dc.lft.to/lastmile_qr_scan", "ios": "https://dc.lft.to/lastmile_qr_scan"}, "type": "electric_scooter"}, {"bike_id": "c6b2b6cbdd952515bd3618e03eeb6c1d", "is_reserved": 0, "name": "c6b2b6cbdd952515bd3618e03eeb6c1d", "lat": 38.93540383333333, "fusion_lat": 0.0, "lon": -77.05742066666667, "is_disabled": 0, "fusion_lon": 0.0, "rental_uris": {"android": "https://dc.lft.to/lastmile_qr_scan", "ios": "https://dc.lft.to/lastmile_qr_scan"}, "type": "electric_scooter"}, {"bike_id": "8bbe7bd0d7e30b3e9c6672a4309274b4", "is_reserved": 0, "name": "8bbe7bd0d7e30b3e9c6672a4309274b4", "lat": 38.89304966666667, "fusion_lat": 0.0, "lon": -77.012416, "is_disabled": 0, "fusion_lon": 0.0, "rental_uris": {"android": "https://dc.lft.to/lastmile_qr_scan", "ios": "https://dc.lft.to/lastmile_qr_scan"}, "type": "electric_scooter"}, {"bike_id": "b07e91208aa066ab98dbdfae270e809a", "is_reserved": 0, "name": "b07e91208aa066ab98dbdfae270e809a", "lat": 38.9018945, "fusion_lat": 0.0, "lon": -77.0212675, "is_disabled": 0, "fusion_lon": 0.0, "rental_uris": {"android": "https://dc.lft.to/lastmile_qr_scan", "ios": "https://dc.lft.to/lastmile_qr_scan"}, "type": "electric_scooter"}, {"bike_id": "02648d24ab23ae5355fb022ca267ce2a", "is_reserved": 0, "name": "02648d24ab23ae5355fb022ca267ce2a", "lat": 38.89767283333333, "fusion_lat": 0.0, "lon": -76.9258845, "is_disabled": 0, "fusion_lon": 0.0, "rental_uris": {"android": "https://dc.lft.to/lastmile_qr_scan", "ios": "https://dc.lft.to/lastmile_qr_scan"}, "type": "electric_scooter"}, {"bike_id": "32c0c07830c70e2285c5428bc693c348", "is_reserved": 0, "name": "32c0c07830c70e2285c5428bc693c348", "lat": 38.90992416666667, "fusion_lat": 0.0, "lon": -77.04658633333334, "is_disabled": 0, "fusion_lon": 0.0, "rental_uris": {"android": "https://dc.lft.to/lastmile_qr_scan", "ios": "https://dc.lft.to/lastmile_qr_scan"}, "type": "electric_scooter"}, {"bike_id": "4454ffc91705a1e23a748868f96ded8b", "is_reserved": 0, "name": "4454ffc91705a1e23a748868f96ded8b", "lat": 38.992117, "fusion_lat": 0.0, "lon": -77.032193, "is_disabled": 0, "fusion_lon": 0.0, "rental_uris": {"android": "https://dc.lft.to/lastmile_qr_scan", "ios": "https://dc.lft.to/lastmile_qr_scan"}, "type": "electric_bike"}, {"bike_id": "752033a115ee14c5cb7b1e91d57a0ab1", "is_reserved": 0, "name": "752033a115ee14c5cb7b1e91d57a0ab1", "lat": 38.938456, "fusion_lat": 0.0, "lon": -77.072305, "is_disabled": 0, "fusion_lon": 0.0, "rental_uris": {"android": "https://dc.lft.to/lastmile_qr_scan", "ios": "https://dc.lft.to/lastmile_qr_scan"}, "type": "electric_scooter"}, {"bike_id": "203de54d834fa3ec0aa51c75a3cbc30b", "is_reserved": 0, "name": "203de54d834fa3ec0aa51c75a3cbc30b", "lat": 38.91803933333333, "fusion_lat": 0.0, "lon": -77.03207366666666, "is_disabled": 0, "fusion_lon": 0.0, "rental_uris": {"android": "https://dc.lft.to/lastmile_qr_scan", "ios": "https://dc.lft.to/lastmile_qr_scan"}, "type": "electric_scooter"}, {"bike_id": "583bd3b4a4308b2f03805f1e164a92e1", "is_reserved": 0, "name": "583bd3b4a4308b2f03805f1e164a92e1", "lat": 38.90231283333333, "fusion_lat": 0.0, "lon": -77.05337683333333, "is_disabled": 0, "fusion_lon": 0.0, "rental_uris": {"android": "https://dc.lft.to/lastmile_qr_scan", "ios": "https://dc.lft.to/lastmile_qr_scan"}, "type": "electric_scooter"}, {"bike_id": "00c720efc33c61a29d7c2db2911fa1e7", "is_reserved": 0, "name": "00c720efc33c61a29d7c2db2911fa1e7", "lat": 38.921153333333336, "fusion_lat": 0.0, "lon": -77.02552533333333, "is_disabled": 0, "fusion_lon": 0.0, "rental_uris": {"android": "https://dc.lft.to/lastmile_qr_scan", "ios": "https://dc.lft.to/lastmile_qr_scan"}, "type": "electric_scooter"}, {"bike_id": "8cdd0331476738ed119a15402e561785", "is_reserved": 0, "name": "8cdd0331476738ed119a15402e561785", "lat": 38.994479166666665, "fusion_lat": 0.0, "lon": -76.99585, "is_disabled": 0, "fusion_lon": 0.0, "rental_uris": {"android": "https://dc.lft.to/lastmile_qr_scan", "ios": "https://dc.lft.to/lastmile_qr_scan"}, "type": "electric_bike"}, {"bike_id": "8715fa676383ea2d97fd9f8ae4519a4c", "is_reserved": 0, "name": "8715fa676383ea2d97fd9f8ae4519a4c", "lat": 38.91664516666667, "fusion_lat": 0.0, "lon": -77.03700083333334, "is_disabled": 0, "fusion_lon": 0.0, "rental_uris": {"android": "https://dc.lft.to/lastmile_qr_scan", "ios": "https://dc.lft.to/lastmile_qr_scan"}, "type": "electric_scooter"}, {"bike_id": "d855a9e34a7fffe4c66106eb0022d092", "is_reserved": 0, "name": "d855a9e34a7fffe4c66106eb0022d092", "lat": 38.906384333333335, "fusion_lat": 0.0, "lon": -77.034658, "is_disabled": 0, "fusion_lon": 0.0, "rental_uris": {"android": "https://dc.lft.to/lastmile_qr_scan", "ios": "https://dc.lft.to/lastmile_qr_scan"}, "type": "electric_scooter"}, {"bike_id": "4ece2bbff4dbbb8e929a6343f7238c1a", "is_reserved": 0, "name": "4ece2bbff4dbbb8e929a6343f7238c1a", "lat": 38.917587833333336, "fusion_lat": 0.0, "lon": -77.03203366666666, "is_disabled": 0, "fusion_lon": 0.0, "rental_uris": {"android": "https://dc.lft.to/lastmile_qr_scan", "ios": "https://dc.lft.to/lastmile_qr_scan"}, "type": "electric_scooter"}, {"bike_id": "89c8b10964f996206194269e48207cdb", "is_reserved": 0, "name": "89c8b10964f996206194269e48207cdb", "lat": 38.89081083333333, "fusion_lat": 0.0, "lon": -77.04039116666667, "is_disabled": 0, "fusion_lon": 0.0, "rental_uris": {"android": "https://dc.lft.to/lastmile_qr_scan", "ios": "https://dc.lft.to/lastmile_qr_scan"}, "type": "electric_scooter"}, {"bike_id": "813d2ccd48534cf9a1e7a8207ce60ea7", "is_reserved": 0, "name": "813d2ccd48534cf9a1e7a8207ce60ea7", "lat": 38.9249265, "fusion_lat": 0.0, "lon": -77.0254725, "is_disabled": 0, "fusion_lon": 0.0, "rental_uris": {"android": "https://dc.lft.to/lastmile_qr_scan", "ios": "https://dc.lft.to/lastmile_qr_scan"}, "type": "electric_scooter"}, {"bike_id": "d7e073bc040dfd71df919d50906dcaa0", "is_reserved": 0, "name": "d7e073bc040dfd71df919d50906dcaa0", "lat": 38.88745466666667, "fusion_lat": 0.0, "lon": -77.025669, "is_disabled": 0, "fusion_lon": 0.0, "rental_uris": {"android": "https://dc.lft.to/lastmile_qr_scan", "ios": "https://dc.lft.to/lastmile_qr_scan"}, "type": "electric_scooter"}, {"bike_id": "1bfa220f84a19ac8640373473a75fd13", "is_reserved": 0, "name": "1bfa220f84a19ac8640373473a75fd13", "lat": 38.87395, "fusion_lat": 0.0, "lon": -77.0002275, "is_disabled": 0, "fusion_lon": 0.0, "rental_uris": {"android": "https://dc.lft.to/lastmile_qr_scan", "ios": "https://dc.lft.to/lastmile_qr_scan"}, "type": "electric_scooter"}, {"bike_id": "5cbdc58831cf44e8430bc374dbcb770b", "is_reserved": 0, "name": "5cbdc58831cf44e8430bc374dbcb770b", "lat": 38.92098283333333, "fusion_lat": 0.0, "lon": -77.02533, "is_disabled": 0, "fusion_lon": 0.0, "rental_uris": {"android": "https://dc.lft.to/lastmile_qr_scan", "ios": "https://dc.lft.to/lastmile_qr_scan"}, "type": "electric_scooter"}, {"bike_id": "c8e73720b6391c05849c9c48744f32b8", "is_reserved": 0, "name": "c8e73720b6391c05849c9c48744f32b8", "lat": 38.88331266666667, "fusion_lat": 0.0, "lon": -77.0048305, "is_disabled": 0, "fusion_lon": 0.0, "rental_uris": {"android": "https://dc.lft.to/lastmile_qr_scan", "ios": "https://dc.lft.to/lastmile_qr_scan"}, "type": "electric_scooter"}, {"bike_id": "c81379bc6fb04d30d222dd9cccb539df", "is_reserved": 0, "name": "c81379bc6fb04d30d222dd9cccb539df", "lat": 38.902209, "fusion_lat": 0.0, "lon": -77.04602583333333, "is_disabled": 0, "fusion_lon": 0.0, "rental_uris": {"android": "https://dc.lft.to/lastmile_qr_scan", "ios": "https://dc.lft.to/lastmile_qr_scan"}, "type": "electric_scooter"}, {"bike_id": "2975805895699b232928911467448c72", "is_reserved": 0, "name": "2975805895699b232928911467448c72", "lat": 38.9029505, "fusion_lat": 0.0, "lon": -77.0612355, "is_disabled": 0, "fusion_lon": 0.0, "rental_uris": {"android": "https://dc.lft.to/lastmile_qr_scan", "ios": "https://dc.lft.to/lastmile_qr_scan"}, "type": "electric_scooter"}, {"bike_id": "1e74e78cadf28bfd0200af887bc6bacf", "is_reserved": 0, "name": "1e74e78cadf28bfd0200af887bc6bacf", "lat": 38.911843, "fusion_lat": 0.0, "lon": -77.0218885, "is_disabled": 0, "fusion_lon": 0.0, "rental_uris": {"android": "https://dc.lft.to/lastmile_qr_scan", "ios": "https://dc.lft.to/lastmile_qr_scan"}, "type": "electric_scooter"}, {"bike_id": "dfbcc047606fb56f6e7ad4cab5548dfb", "is_reserved": 0, "name": "dfbcc047606fb56f6e7ad4cab5548dfb", "lat": 38.92105433333333, "fusion_lat": 0.0, "lon": -77.0393005, "is_disabled": 0, "fusion_lon": 0.0, "rental_uris": {"android": "https://dc.lft.to/lastmile_qr_scan", "ios": "https://dc.lft.to/lastmile_qr_scan"}, "type": "electric_scooter"}, {"bike_id": "a71b7f2f51b37c9f9f31eab6210d5e0d", "is_reserved": 0, "name": "a71b7f2f51b37c9f9f31eab6210d5e0d", "lat": 38.920593833333335, "fusion_lat": 0.0, "lon": -77.04242416666666, "is_disabled": 0, "fusion_lon": 0.0, "rental_uris": {"android": "https://dc.lft.to/lastmile_qr_scan", "ios": "https://dc.lft.to/lastmile_qr_scan"}, "type": "electric_scooter"}, {"bike_id": "3e579235138e9e802fc5e7869bbc1656", "is_reserved": 0, "name": "3e579235138e9e802fc5e7869bbc1656", "lat": 38.92419783333333, "fusion_lat": 0.0, "lon": -77.01946066666666, "is_disabled": 0, "fusion_lon": 0.0, "rental_uris": {"android": "https://dc.lft.to/lastmile_qr_scan", "ios": "https://dc.lft.to/lastmile_qr_scan"}, "type": "electric_scooter"}, {"bike_id": "b8c8c335fcd19803f05ad312788fbf5d", "is_reserved": 0, "name": "b8c8c335fcd19803f05ad312788fbf5d", "lat": 38.88768133333333, "fusion_lat": 0.0, "lon": -77.02173633333334, "is_disabled": 0, "fusion_lon": 0.0, "rental_uris": {"android": "https://dc.lft.to/lastmile_qr_scan", "ios": "https://dc.lft.to/lastmile_qr_scan"}, "type": "electric_bike"}, {"bike_id": "2a96e364e673db564561aaac02be3df8", "is_reserved": 0, "name": "2a96e364e673db564561aaac02be3df8", "lat": 38.9223165, "fusion_lat": 0.0, "lon": -77.04248466666667, "is_disabled": 0, "fusion_lon": 0.0, "rental_uris": {"android": "https://dc.lft.to/lastmile_qr_scan", "ios": "https://dc.lft.to/lastmile_qr_scan"}, "type": "electric_scooter"}, {"bike_id": "d3b9f78845c06d52f0bd9e7fa116de5d", "is_reserved": 0, "name": "d3b9f78845c06d52f0bd9e7fa116de5d", "lat": 38.898858, "fusion_lat": 0.0, "lon": -76.93173766666666, "is_disabled": 0, "fusion_lon": 0.0, "rental_uris": {"android": "https://dc.lft.to/lastmile_qr_scan", "ios": "https://dc.lft.to/lastmile_qr_scan"}, "type": "electric_scooter"}, {"bike_id": "6d1957670b40a195016a2cfc0631cc7d", "is_reserved": 0, "name": "6d1957670b40a195016a2cfc0631cc7d", "lat": 38.901508666666665, "fusion_lat": 0.0, "lon": -76.93065333333334, "is_disabled": 0, "fusion_lon": 0.0, "rental_uris": {"android": "https://dc.lft.to/lastmile_qr_scan", "ios": "https://dc.lft.to/lastmile_qr_scan"}, "type": "electric_scooter"}, {"bike_id": "22a5ec65ff7709140e0f54dc5a38b2be", "is_reserved": 0, "name": "22a5ec65ff7709140e0f54dc5a38b2be", "lat": 38.91088966666667, "fusion_lat": 0.0, "lon": -77.044959, "is_disabled": 0, "fusion_lon": 0.0, "rental_uris": {"android": "https://dc.lft.to/lastmile_qr_scan", "ios": "https://dc.lft.to/lastmile_qr_scan"}, "type": "electric_scooter"}, {"bike_id": "1887f7d037a298c2238d465385c58d39", "is_reserved": 0, "name": "1887f7d037a298c2238d465385c58d39", "lat": 38.901962833333336, "fusion_lat": 0.0, "lon": -77.02372383333334, "is_disabled": 0, "fusion_lon": 0.0, "rental_uris": {"android": "https://dc.lft.to/lastmile_qr_scan", "ios": "https://dc.lft.to/lastmile_qr_scan"}, "type": "electric_scooter"}, {"bike_id": "d0f224f1dc935b7b0268c6b7cf39e95c", "is_reserved": 0, "name": "d0f224f1dc935b7b0268c6b7cf39e95c", "lat": 38.938655, "fusion_lat": 0.0, "lon": -77.02648083333334, "is_disabled": 0, "fusion_lon": 0.0, "rental_uris": {"android": "https://dc.lft.to/lastmile_qr_scan", "ios": "https://dc.lft.to/lastmile_qr_scan"}, "type": "electric_bike"}, {"bike_id": "30fb22b85466cae265a93e4b4d0fce99", "is_reserved": 0, "name": "30fb22b85466cae265a93e4b4d0fce99", "lat": 38.906829333333334, "fusion_lat": 0.0, "lon": -76.94490766666667, "is_disabled": 0, "fusion_lon": 0.0, "rental_uris": {"android": "https://dc.lft.to/lastmile_qr_scan", "ios": "https://dc.lft.to/lastmile_qr_scan"}, "type": "electric_bike"}, {"bike_id": "f9137e2b66f9b52fba23f322881cd413", "is_reserved": 0, "name": "f9137e2b66f9b52fba23f322881cd413", "lat": 38.87555866666667, "fusion_lat": 0.0, "lon": -77.00595983333334, "is_disabled": 0, "fusion_lon": 0.0, "rental_uris": {"android": "https://dc.lft.to/lastmile_qr_scan", "ios": "https://dc.lft.to/lastmile_qr_scan"}, "type": "electric_scooter"}, {"bike_id": "37f7012b1d041f49c5e21e671ce2b204", "is_reserved": 0, "name": "37f7012b1d041f49c5e21e671ce2b204", "lat": 38.87148783333333, "fusion_lat": 0.0, "lon": -77.01185066666666, "is_disabled": 0, "fusion_lon": 0.0, "rental_uris": {"android": "https://dc.lft.to/lastmile_qr_scan", "ios": "https://dc.lft.to/lastmile_qr_scan"}, "type": "electric_bike"}, {"bike_id": "0027350772e71204de2439cb5cd2f5ba", "is_reserved": 0, "name": "0027350772e71204de2439cb5cd2f5ba", "lat": 38.950559, "fusion_lat": 0.0, "lon": -77.0802595, "is_disabled": 0, "fusion_lon": 0.0, "rental_uris": {"android": "https://dc.lft.to/lastmile_qr_scan", "ios": "https://dc.lft.to/lastmile_qr_scan"}, "type": "electric_scooter"}, {"bike_id": "1b647cecd0de6967f9ee5d1538884b58", "is_reserved": 0, "name": "1b647cecd0de6967f9ee5d1538884b58", "lat": 38.899605333333334, "fusion_lat": 0.0, "lon": -77.01616433333334, "is_disabled": 0, "fusion_lon": 0.0, "rental_uris": {"android": "https://dc.lft.to/lastmile_qr_scan", "ios": "https://dc.lft.to/lastmile_qr_scan"}, "type": "electric_scooter"}, {"bike_id": "8c0627bc2b40115320e6fde2eb181ee8", "is_reserved": 0, "name": "8c0627bc2b40115320e6fde2eb181ee8", "lat": 38.917083833333336, "fusion_lat": 0.0, "lon": -77.02424216666667, "is_disabled": 0, "fusion_lon": 0.0, "rental_uris": {"android": "https://dc.lft.to/lastmile_qr_scan", "ios": "https://dc.lft.to/lastmile_qr_scan"}, "type": "electric_scooter"}, {"bike_id": "72ad5056be1cfee450e069be8e6d4251", "is_reserved": 0, "name": "72ad5056be1cfee450e069be8e6d4251", "lat": 38.93484, "fusion_lat": 0.0, "lon": -77.07262583333333, "is_disabled": 0, "fusion_lon": 0.0, "rental_uris": {"android": "https://dc.lft.to/lastmile_qr_scan", "ios": "https://dc.lft.to/lastmile_qr_scan"}, "type": "electric_scooter"}, {"bike_id": "377f17f1e0ed02e015ddf76a451ac959", "is_reserved": 0, "name": "377f17f1e0ed02e015ddf76a451ac959", "lat": 38.9224735, "fusion_lat": 0.0, "lon": -77.03518533333333, "is_disabled": 0, "fusion_lon": 0.0, "rental_uris": {"android": "https://dc.lft.to/lastmile_qr_scan", "ios": "https://dc.lft.to/lastmile_qr_scan"}, "type": "electric_scooter"}, {"bike_id": "7709cf40237bd408bcc3c8f9e66680ac", "is_reserved": 0, "name": "7709cf40237bd408bcc3c8f9e66680ac", "lat": 38.923677, "fusion_lat": 0.0, "lon": -77.02961033333334, "is_disabled": 0, "fusion_lon": 0.0, "rental_uris": {"android": "https://dc.lft.to/lastmile_qr_scan", "ios": "https://dc.lft.to/lastmile_qr_scan"}, "type": "electric_scooter"}, {"bike_id": "4b751f6396841872e62a3e3c61833585", "is_reserved": 0, "name": "4b751f6396841872e62a3e3c61833585", "lat": 38.912252333333335, "fusion_lat": 0.0, "lon": -77.0321225, "is_disabled": 0, "fusion_lon": 0.0, "rental_uris": {"android": "https://dc.lft.to/lastmile_qr_scan", "ios": "https://dc.lft.to/lastmile_qr_scan"}, "type": "electric_scooter"}, {"bike_id": "94c0531ca9a6da02671842748adab5ad", "is_reserved": 0, "name": "94c0531ca9a6da02671842748adab5ad", "lat": 38.920345166666664, "fusion_lat": 0.0, "lon": -77.02582, "is_disabled": 0, "fusion_lon": 0.0, "rental_uris": {"android": "https://dc.lft.to/lastmile_qr_scan", "ios": "https://dc.lft.to/lastmile_qr_scan"}, "type": "electric_scooter"}, {"bike_id": "404e422f7874eabe4e98f5b4a98e9c99", "is_reserved": 0, "name": "404e422f7874eabe4e98f5b4a98e9c99", "lat": 38.92484616666667, "fusion_lat": 0.0, "lon": -77.02593633333333, "is_disabled": 0, "fusion_lon": 0.0, "rental_uris": {"android": "https://dc.lft.to/lastmile_qr_scan", "ios": "https://dc.lft.to/lastmile_qr_scan"}, "type": "electric_scooter"}, {"bike_id": "4cb011a5773c7867ed97287bb200b0f8", "is_reserved": 0, "name": "4cb011a5773c7867ed97287bb200b0f8", "lat": 38.903802, "fusion_lat": 0.0, "lon": -77.050354, "is_disabled": 0, "fusion_lon": 0.0, "rental_uris": {"android": "https://dc.lft.to/lastmile_qr_scan", "ios": "https://dc.lft.to/lastmile_qr_scan"}, "type": "electric_scooter"}, {"bike_id": "a4660b8486c2d7e1e24b7d0c34c61467", "is_reserved": 0, "name": "a4660b8486c2d7e1e24b7d0c34c61467", "lat": 38.899185, "fusion_lat": 0.0, "lon": -77.01987483333333, "is_disabled": 0, "fusion_lon": 0.0, "rental_uris": {"android": "https://dc.lft.to/lastmile_qr_scan", "ios": "https://dc.lft.to/lastmile_qr_scan"}, "type": "electric_scooter"}, {"bike_id": "3241abbc3d4c2aa45d9fcc340587f832", "is_reserved": 0, "name": "3241abbc3d4c2aa45d9fcc340587f832", "lat": 38.8787315, "fusion_lat": 0.0, "lon": -76.99938583333333, "is_disabled": 0, "fusion_lon": 0.0, "rental_uris": {"android": "https://dc.lft.to/lastmile_qr_scan", "ios": "https://dc.lft.to/lastmile_qr_scan"}, "type": "electric_scooter"}, {"bike_id": "8f7c7688d180dce663448384b37d344c", "is_reserved": 0, "name": "8f7c7688d180dce663448384b37d344c", "lat": 38.905514, "fusion_lat": 0.0, "lon": -77.0059335, "is_disabled": 0, "fusion_lon": 0.0, "rental_uris": {"android": "https://dc.lft.to/lastmile_qr_scan", "ios": "https://dc.lft.to/lastmile_qr_scan"}, "type": "electric_scooter"}, {"bike_id": "69284c3aece2f59f4904068a3271b0e5", "is_reserved": 0, "name": "69284c3aece2f59f4904068a3271b0e5", "lat": 38.908101333333335, "fusion_lat": 0.0, "lon": -77.0217275, "is_disabled": 0, "fusion_lon": 0.0, "rental_uris": {"android": "https://dc.lft.to/lastmile_qr_scan", "ios": "https://dc.lft.to/lastmile_qr_scan"}, "type": "electric_scooter"}, {"bike_id": "73f5432afc7665f1276e4aa42f921525", "is_reserved": 0, "name": "73f5432afc7665f1276e4aa42f921525", "lat": 38.897699833333334, "fusion_lat": 0.0, "lon": -77.02724966666666, "is_disabled": 0, "fusion_lon": 0.0, "rental_uris": {"android": "https://dc.lft.to/lastmile_qr_scan", "ios": "https://dc.lft.to/lastmile_qr_scan"}, "type": "electric_bike"}, {"bike_id": "e34741f6d725f470c4a4d4c2be3c6e73", "is_reserved": 0, "name": "e34741f6d725f470c4a4d4c2be3c6e73", "lat": 38.902758166666665, "fusion_lat": 0.0, "lon": -77.04615566666666, "is_disabled": 0, "fusion_lon": 0.0, "rental_uris": {"android": "https://dc.lft.to/lastmile_qr_scan", "ios": "https://dc.lft.to/lastmile_qr_scan"}, "type": "electric_scooter"}, {"bike_id": "b6c8d1245bc38542f371a41a4cae073d", "is_reserved": 0, "name": "b6c8d1245bc38542f371a41a4cae073d", "lat": 38.923018166666665, "fusion_lat": 0.0, "lon": -77.04138983333333, "is_disabled": 0, "fusion_lon": 0.0, "rental_uris": {"android": "https://dc.lft.to/lastmile_qr_scan", "ios": "https://dc.lft.to/lastmile_qr_scan"}, "type": "electric_scooter"}, {"bike_id": "c0d7f737f6a52b232b1c2c5d9661bbc7", "is_reserved": 0, "name": "c0d7f737f6a52b232b1c2c5d9661bbc7", "lat": 38.89235933333333, "fusion_lat": 0.0, "lon": -77.03180516666667, "is_disabled": 0, "fusion_lon": 0.0, "rental_uris": {"android": "https://dc.lft.to/lastmile_qr_scan", "ios": "https://dc.lft.to/lastmile_qr_scan"}, "type": "electric_scooter"}, {"bike_id": "43ba788e271b19a5abf014e38bd7badd", "is_reserved": 0, "name": "43ba788e271b19a5abf014e38bd7badd", "lat": 38.844260166666665, "fusion_lat": 0.0, "lon": -76.99777016666667, "is_disabled": 0, "fusion_lon": 0.0, "rental_uris": {"android": "https://dc.lft.to/lastmile_qr_scan", "ios": "https://dc.lft.to/lastmile_qr_scan"}, "type": "electric_scooter"}, {"bike_id": "f0544bde1711476d8ac44562217dfda6", "is_reserved": 0, "name": "f0544bde1711476d8ac44562217dfda6", "lat": 38.8768725, "fusion_lat": 0.0, "lon": -77.00715733333334, "is_disabled": 0, "fusion_lon": 0.0, "rental_uris": {"android": "https://dc.lft.to/lastmile_qr_scan", "ios": "https://dc.lft.to/lastmile_qr_scan"}, "type": "electric_scooter"}, {"bike_id": "ef9f88993d77449f0044bd7ee2dbcaf9", "is_reserved": 0, "name": "ef9f88993d77449f0044bd7ee2dbcaf9", "lat": 38.892223333333334, "fusion_lat": 0.0, "lon": -77.03219766666666, "is_disabled": 0, "fusion_lon": 0.0, "rental_uris": {"android": "https://dc.lft.to/lastmile_qr_scan", "ios": "https://dc.lft.to/lastmile_qr_scan"}, "type": "electric_scooter"}, {"bike_id": "4880b2bbd69df50b0ea2156ccae1ca3b", "is_reserved": 0, "name": "4880b2bbd69df50b0ea2156ccae1ca3b", "lat": 38.95367683333333, "fusion_lat": 0.0, "lon": -76.9983645, "is_disabled": 0, "fusion_lon": 0.0, "rental_uris": {"android": "https://dc.lft.to/lastmile_qr_scan", "ios": "https://dc.lft.to/lastmile_qr_scan"}, "type": "electric_scooter"}, {"bike_id": "ee1b9eabd72b36bfd130f5ab6f0a6acb", "is_reserved": 0, "name": "ee1b9eabd72b36bfd130f5ab6f0a6acb", "lat": 38.896123, "fusion_lat": 0.0, "lon": -77.00559733333333, "is_disabled": 0, "fusion_lon": 0.0, "rental_uris": {"android": "https://dc.lft.to/lastmile_qr_scan", "ios": "https://dc.lft.to/lastmile_qr_scan"}, "type": "electric_scooter"}, {"bike_id": "c0e2d4d8c3e3a18824b98a658533fa99", "is_reserved": 0, "name": "c0e2d4d8c3e3a18824b98a658533fa99", "lat": 38.917048666666666, "fusion_lat": 0.0, "lon": -77.0229775, "is_disabled": 0, "fusion_lon": 0.0, "rental_uris": {"android": "https://dc.lft.to/lastmile_qr_scan", "ios": "https://dc.lft.to/lastmile_qr_scan"}, "type": "electric_scooter"}, {"bike_id": "969c271afed071542790e2f9124d3dc6", "is_reserved": 0, "name": "969c271afed071542790e2f9124d3dc6", "lat": 38.909517666666666, "fusion_lat": 0.0, "lon": -77.02712616666666, "is_disabled": 0, "fusion_lon": 0.0, "rental_uris": {"android": "https://dc.lft.to/lastmile_qr_scan", "ios": "https://dc.lft.to/lastmile_qr_scan"}, "type": "electric_scooter"}, {"bike_id": "430d73ec0120f5e98a44bb9d8425acf5", "is_reserved": 0, "name": "430d73ec0120f5e98a44bb9d8425acf5", "lat": 38.902528833333335, "fusion_lat": 0.0, "lon": -77.02852633333333, "is_disabled": 0, "fusion_lon": 0.0, "rental_uris": {"android": "https://dc.lft.to/lastmile_qr_scan", "ios": "https://dc.lft.to/lastmile_qr_scan"}, "type": "electric_scooter"}, {"bike_id": "e3650a0fc767d4564eb4c95d671045dd", "is_reserved": 0, "name": "e3650a0fc767d4564eb4c95d671045dd", "lat": 38.8935635, "fusion_lat": 0.0, "lon": -77.00331816666667, "is_disabled": 0, "fusion_lon": 0.0, "rental_uris": {"android": "https://dc.lft.to/lastmile_qr_scan", "ios": "https://dc.lft.to/lastmile_qr_scan"}, "type": "electric_scooter"}, {"bike_id": "de235e535bd72a112f7fc47d037e64ed", "is_reserved": 0, "name": "de235e535bd72a112f7fc47d037e64ed", "lat": 38.90553533333333, "fusion_lat": 0.0, "lon": -76.9946405, "is_disabled": 0, "fusion_lon": 0.0, "rental_uris": {"android": "https://dc.lft.to/lastmile_qr_scan", "ios": "https://dc.lft.to/lastmile_qr_scan"}, "type": "electric_scooter"}, {"bike_id": "98ea589bc5b12ff9faef6ced6541cd49", "is_reserved": 0, "name": "98ea589bc5b12ff9faef6ced6541cd49", "lat": 38.884068, "fusion_lat": 0.0, "lon": -76.99381633333333, "is_disabled": 0, "fusion_lon": 0.0, "rental_uris": {"android": "https://dc.lft.to/lastmile_qr_scan", "ios": "https://dc.lft.to/lastmile_qr_scan"}, "type": "electric_scooter"}, {"bike_id": "2179ecdb1d4bd87e74d049b243c8a2a5", "is_reserved": 0, "name": "2179ecdb1d4bd87e74d049b243c8a2a5", "lat": 38.92189916666667, "fusion_lat": 0.0, "lon": -77.03976983333334, "is_disabled": 0, "fusion_lon": 0.0, "rental_uris": {"android": "https://dc.lft.to/lastmile_qr_scan", "ios": "https://dc.lft.to/lastmile_qr_scan"}, "type": "electric_scooter"}, {"bike_id": "0c3587a0ddbb8b8684a973e52bc33288", "is_reserved": 0, "name": "0c3587a0ddbb8b8684a973e52bc33288", "lat": 38.89216, "fusion_lat": 0.0, "lon": -77.02657133333334, "is_disabled": 0, "fusion_lon": 0.0, "rental_uris": {"android": "https://dc.lft.to/lastmile_qr_scan", "ios": "https://dc.lft.to/lastmile_qr_scan"}, "type": "electric_scooter"}, {"bike_id": "468af8fec363ad6a4eca6be98a9cb2b1", "is_reserved": 0, "name": "468af8fec363ad6a4eca6be98a9cb2b1", "lat": 38.924396333333334, "fusion_lat": 0.0, "lon": -77.0201855, "is_disabled": 0, "fusion_lon": 0.0, "rental_uris": {"android": "https://dc.lft.to/lastmile_qr_scan", "ios": "https://dc.lft.to/lastmile_qr_scan"}, "type": "electric_scooter"}, {"bike_id": "d7d102a812590f17a27754573f147681", "is_reserved": 0, "name": "d7d102a812590f17a27754573f147681", "lat": 38.92124916666667, "fusion_lat": 0.0, "lon": -77.025423, "is_disabled": 0, "fusion_lon": 0.0, "rental_uris": {"android": "https://dc.lft.to/lastmile_qr_scan", "ios": "https://dc.lft.to/lastmile_qr_scan"}, "type": "electric_scooter"}, {"bike_id": "eac82e06d57b107b1c76f669ceb3532d", "is_reserved": 0, "name": "eac82e06d57b107b1c76f669ceb3532d", "lat": 38.9000155, "fusion_lat": 0.0, "lon": -77.041517, "is_disabled": 0, "fusion_lon": 0.0, "rental_uris": {"android": "https://dc.lft.to/lastmile_qr_scan", "ios": "https://dc.lft.to/lastmile_qr_scan"}, "type": "electric_scooter"}, {"bike_id": "484c14166df705e750fa38274a49b4a3", "is_reserved": 0, "name": "484c14166df705e750fa38274a49b4a3", "lat": 38.950072166666665, "fusion_lat": 0.0, "lon": -77.08058516666667, "is_disabled": 0, "fusion_lon": 0.0, "rental_uris": {"android": "https://dc.lft.to/lastmile_qr_scan", "ios": "https://dc.lft.to/lastmile_qr_scan"}, "type": "electric_scooter"}, {"bike_id": "180d57d2075d7b2ac55a816582eb910f", "is_reserved": 0, "name": "180d57d2075d7b2ac55a816582eb910f", "lat": 38.908802666666666, "fusion_lat": 0.0, "lon": -77.03173566666666, "is_disabled": 0, "fusion_lon": 0.0, "rental_uris": {"android": "https://dc.lft.to/lastmile_qr_scan", "ios": "https://dc.lft.to/lastmile_qr_scan"}, "type": "electric_scooter"}, {"bike_id": "38b9cc3bec3abf3f7a12f30ae01d47a6", "is_reserved": 0, "name": "38b9cc3bec3abf3f7a12f30ae01d47a6", "lat": 38.903632333333334, "fusion_lat": 0.0, "lon": -77.00978566666667, "is_disabled": 0, "fusion_lon": 0.0, "rental_uris": {"android": "https://dc.lft.to/lastmile_qr_scan", "ios": "https://dc.lft.to/lastmile_qr_scan"}, "type": "electric_scooter"}, {"bike_id": "74aae281b33ab4ef41dbb8700097fa20", "is_reserved": 0, "name": "74aae281b33ab4ef41dbb8700097fa20", "lat": 38.923532333333334, "fusion_lat": 0.0, "lon": -77.018959, "is_disabled": 0, "fusion_lon": 0.0, "rental_uris": {"android": "https://dc.lft.to/lastmile_qr_scan", "ios": "https://dc.lft.to/lastmile_qr_scan"}, "type": "electric_scooter"}, {"bike_id": "9a5c05039de0b84844b838abe2fb457c", "is_reserved": 0, "name": "9a5c05039de0b84844b838abe2fb457c", "lat": 38.877616833333335, "fusion_lat": 0.0, "lon": -77.00591016666667, "is_disabled": 0, "fusion_lon": 0.0, "rental_uris": {"android": "https://dc.lft.to/lastmile_qr_scan", "ios": "https://dc.lft.to/lastmile_qr_scan"}, "type": "electric_scooter"}, {"bike_id": "d2cc8d937045cf3405a9a4a811145d19", "is_reserved": 0, "name": "d2cc8d937045cf3405a9a4a811145d19", "lat": 38.91578666666667, "fusion_lat": 0.0, "lon": -76.98385666666667, "is_disabled": 0, "fusion_lon": 0.0, "rental_uris": {"android": "https://dc.lft.to/lastmile_qr_scan", "ios": "https://dc.lft.to/lastmile_qr_scan"}, "type": "electric_scooter"}, {"bike_id": "1bffa034f8a1ffc2a656212f14dc4136", "is_reserved": 0, "name": "1bffa034f8a1ffc2a656212f14dc4136", "lat": 38.904478166666664, "fusion_lat": 0.0, "lon": -77.04872816666666, "is_disabled": 0, "fusion_lon": 0.0, "rental_uris": {"android": "https://dc.lft.to/lastmile_qr_scan", "ios": "https://dc.lft.to/lastmile_qr_scan"}, "type": "electric_scooter"}, {"bike_id": "0e4982c581d86e9a142a18785efcbb70", "is_reserved": 0, "name": "0e4982c581d86e9a142a18785efcbb70", "lat": 38.91219533333334, "fusion_lat": 0.0, "lon": -77.03165766666666, "is_disabled": 0, "fusion_lon": 0.0, "rental_uris": {"android": "https://dc.lft.to/lastmile_qr_scan", "ios": "https://dc.lft.to/lastmile_qr_scan"}, "type": "electric_scooter"}, {"bike_id": "4d6fbce335a3bfd75513193bcdfc3408", "is_reserved": 0, "name": "4d6fbce335a3bfd75513193bcdfc3408", "lat": 38.903105833333335, "fusion_lat": 0.0, "lon": -76.9780395, "is_disabled": 0, "fusion_lon": 0.0, "rental_uris": {"android": "https://dc.lft.to/lastmile_qr_scan", "ios": "https://dc.lft.to/lastmile_qr_scan"}, "type": "electric_scooter"}, {"bike_id": "f18d6910bc3238db1681a573c3e74466", "is_reserved": 0, "name": "f18d6910bc3238db1681a573c3e74466", "lat": 38.9258165, "fusion_lat": 0.0, "lon": -77.02811133333333, "is_disabled": 0, "fusion_lon": 0.0, "rental_uris": {"android": "https://dc.lft.to/lastmile_qr_scan", "ios": "https://dc.lft.to/lastmile_qr_scan"}, "type": "electric_scooter"}, {"bike_id": "a33656efc70bbd759bcf7f3ac08866c5", "is_reserved": 0, "name": "a33656efc70bbd759bcf7f3ac08866c5", "lat": 38.8981925, "fusion_lat": 0.0, "lon": -77.04282083333334, "is_disabled": 0, "fusion_lon": 0.0, "rental_uris": {"android": "https://dc.lft.to/lastmile_qr_scan", "ios": "https://dc.lft.to/lastmile_qr_scan"}, "type": "electric_scooter"}, {"bike_id": "3117a60a233e103579a90f6d8c999f31", "is_reserved": 0, "name": "3117a60a233e103579a90f6d8c999f31", "lat": 38.88721533333333, "fusion_lat": 0.0, "lon": -77.02577066666667, "is_disabled": 0, "fusion_lon": 0.0, "rental_uris": {"android": "https://dc.lft.to/lastmile_qr_scan", "ios": "https://dc.lft.to/lastmile_qr_scan"}, "type": "electric_scooter"}, {"bike_id": "1334424e5d673383018607f9b35a0588", "is_reserved": 0, "name": "1334424e5d673383018607f9b35a0588", "lat": 38.92057666666667, "fusion_lat": 0.0, "lon": -77.03388083333333, "is_disabled": 0, "fusion_lon": 0.0, "rental_uris": {"android": "https://dc.lft.to/lastmile_qr_scan", "ios": "https://dc.lft.to/lastmile_qr_scan"}, "type": "electric_scooter"}, {"bike_id": "87c17afebce2a4fcceb98c658e469882", "is_reserved": 0, "name": "87c17afebce2a4fcceb98c658e469882", "lat": 38.92243833333333, "fusion_lat": 0.0, "lon": -77.07313633333334, "is_disabled": 0, "fusion_lon": 0.0, "rental_uris": {"android": "https://dc.lft.to/lastmile_qr_scan", "ios": "https://dc.lft.to/lastmile_qr_scan"}, "type": "electric_scooter"},