{"data": {"bikes": [{"name": "496e650419b0059276c5ad6fbf7e0e5f", "type": "electric_scooter", "lat": 38.96229816666666, "is_reserved": 0, "lon": -77.029796, "fusion_lon": 0.0, "is_disabled": 0, "fusion_lat": 0.0, "bike_id": "496e650419b0059276c5ad6fbf7e0e5f", "rental_uris": {"ios": "https://dc.lft.to/lastmile_qr_scan", "android": "https://dc.lft.to/lastmile_qr_scan"}}, {"name": "eba9eee4bac9706308db1c2fbd392fa8", "type": "electric_scooter", "lat": 38.902719, "is_reserved": 0, "lon": -77.03331766666666, "fusion_lon": 0.0, "is_disabled": 0, "fusion_lat": 0.0, "bike_id": "eba9eee4bac9706308db1c2fbd392fa8", "rental_uris": {"ios": "https://dc.lft.to/lastmile_qr_scan", "android": "https://dc.lft.to/lastmile_qr_scan"}}, {"name": "3232c1ca4aaace97649be5e543f81f78", "type": "electric_scooter", "lat": 38.921293666666664, "is_reserved": 0, "lon": -77.04425816666667, "fusion_lon": 0.0, "is_disabled": 0, "fusion_lat": 0.0, "bike_id": "3232c1ca4aaace97649be5e543f81f78", "rental_uris": {"ios": "https://dc.lft.to/lastmile_qr_scan", "android": "https://dc.lft.to/lastmile_qr_scan"}}, {"name": "c8c745f70c53bc679254120c218ba515", "type": "electric_scooter", "lat": 38.9408495, "is_reserved": 0, "lon": -77.0619095, "fusion_lon": 0.0, "is_disabled": 0, "fusion_lat": 0.0, "bike_id": "c8c745f70c53bc679254120c218ba515", "rental_uris": {"ios": "https://dc.lft.to/lastmile_qr_scan", "android": "https://dc.lft.to/lastmile_qr_scan"}}, {"name": "0ae03335a45db90348e5819212cad908", "type": "electric_scooter", "lat": 38.912541833333336, "is_reserved": 0, "lon": -77.00931616666666, "fusion_lon": 0.0, "is_disabled": 0, "fusion_lat": 0.0, "bike_id": "0ae03335a45db90348e5819212cad908", "rental_uris": {"ios": "https://dc.lft.to/lastmile_qr_scan", "android": "https://dc.lft.to/lastmile_qr_scan"}}, {"name": "df4cd9d00a68fd0edfa38053b1d25bcc", "type": "electric_scooter", "lat": 38.877818500000004, "is_reserved": 0, "lon": -77.008172, "fusion_lon": 0.0, "is_disabled": 0, "fusion_lat": 0.0, "bike_id": "df4cd9d00a68fd0edfa38053b1d25bcc", "rental_uris": {"ios": "https://dc.lft.to/lastmile_qr_scan", "android": "https://dc.lft.to/lastmile_qr_scan"}}, {"name": "5267255ae9e3d10aaa03476a058f9c32", "type": "electric_scooter", "lat": 38.89550166666667, "is_reserved": 0, "lon": -76.926558, "fusion_lon": 0.0, "is_disabled": 0, "fusion_lat": 0.0, "bike_id": "5267255ae9e3d10aaa03476a058f9c32", "rental_uris": {"ios": "https://dc.lft.to/lastmile_qr_scan", "android": "https://dc.lft.to/lastmile_qr_scan"}}, {"name": "3f31839a88729bafca6a78c652c3cd60", "type": "electric_scooter", "lat": 38.92347266666667, "is_reserved": 0, "lon": -77.032023, "fusion_lon": 0.0, "is_disabled": 0, "fusion_lat": 0.0, "bike_id": "3f31839a88729bafca6a78c652c3cd60", "rental_uris": {"ios": "https://dc.lft.to/lastmile_qr_scan", "android": "https://dc.lft.to/lastmile_qr_scan"}}, {"name": "a7e6874fdb2e50cbba3051f0f6379c97", "type": "electric_scooter", "lat": 38.92003916666667, "is_reserved": 0, "lon": -76.95817783333334, "fusion_lon": 0.0, "is_disabled": 0, "fusion_lat": 0.0, "bike_id": "a7e6874fdb2e50cbba3051f0f6379c97", "rental_uris": {"ios": "https://dc.lft.to/lastmile_qr_scan", "android": "https://dc.lft.to/lastmile_qr_scan"}}, {"name": "ebbbd6084a726a7b4185f1eb3616e90b", "type": "electric_scooter", "lat": 38.903035833333334, "is_reserved": 0, "lon": -77.03808233333334, "fusion_lon": 0.0, "is_disabled": 0, "fusion_lat": 0.0, "bike_id": "ebbbd6084a726a7b4185f1eb3616e90b", "rental_uris": {"ios": "https://dc.lft.to/lastmile_qr_scan", "android": "https://dc.lft.to/lastmile_qr_scan"}}, {"name": "d35d049d0eeb960fea0c2a18d66ee9a9", "type": "electric_scooter", "lat": 38.92911483333334, "is_reserved": 0, "lon": -77.02187966666666, "fusion_lon": 0.0, "is_disabled": 0, "fusion_lat": 0.0, "bike_id": "d35d049d0eeb960fea0c2a18d66ee9a9", "rental_uris": {"ios": "https://dc.lft.to/lastmile_qr_scan", "android": "https://dc.lft.to/lastmile_qr_scan"}}, {"name": "8fc41c920bf88309ca98af56155fde73", "type": "electric_bike", "lat": 38.958942666666665, "is_reserved": 0, "lon": -76.92492633333333, "fusion_lon": 0.0, "is_disabled": 0, "fusion_lat": 0.0, "bike_id": "8fc41c920bf88309ca98af56155fde73", "rental_uris": {"ios": "https://dc.lft.to/lastmile_qr_scan", "android": "https://dc.lft.to/lastmile_qr_scan"}}, {"name": "cd582622001806988ffbe6a13eac8740", "type": "electric_scooter", "lat": 38.90003766666667, "is_reserved": 0, "lon": -76.99444016666666, "fusion_lon": 0.0, "is_disabled": 0, "fusion_lat": 0.0, "bike_id": "cd582622001806988ffbe6a13eac8740", "rental_uris": {"ios": "https://dc.lft.to/lastmile_qr_scan", "android": "https://dc.lft.to/lastmile_qr_scan"}}, {"name": "958c50f2058665a68ac84a5056480c29", "type": "electric_scooter", "lat": 38.90376666666667, "is_reserved": 0, "lon": -77.0398715, "fusion_lon": 0.0, "is_disabled": 0, "fusion_lat": 0.0, "bike_id": "958c50f2058665a68ac84a5056480c29", "rental_uris": {"ios": "https://dc.lft.to/lastmile_qr_scan", "android": "https://dc.lft.to/lastmile_qr_scan"}}, {"name": "f640d86198556f08d37aba2342281828", "type": "electric_bike", "lat": 38.83862, "is_reserved": 0, "lon": -77.08862133333334, "fusion_lon": 0.0, "is_disabled": 0, "fusion_lat": 0.0, "bike_id": "f640d86198556f08d37aba2342281828", "rental_uris": {"ios": "https://dc.lft.to/lastmile_qr_scan", "android": "https://dc.lft.to/lastmile_qr_scan"}}, {"name": "01b4044b971d01f1611a9b985ab7796d", "type": "electric_bike", "lat": 38.90082966666667, "is_reserved": 0, "lon": -76.98005533333334, "fusion_lon": 0.0, "is_disabled": 0, "fusion_lat": 0.0, "bike_id": "01b4044b971d01f1611a9b985ab7796d", "rental_uris": {"ios": "https://dc.lft.to/lastmile_qr_scan", "android": "https://dc.lft.to/lastmile_qr_scan"}}, {"name": "335eb909c38ad6a495c00433c22ad839", "type": "electric_bike", "lat": 38.973218833333334, "is_reserved": 0, "lon": -77.02147483333333, "fusion_lon": 0.0, "is_disabled": 0, "fusion_lat": 0.0, "bike_id": "335eb909c38ad6a495c00433c22ad839", "rental_uris": {"ios": "https://dc.lft.to/lastmile_qr_scan", "android": "https://dc.lft.to/lastmile_qr_scan"}}, {"name": "e0c257bb77be3cd85edf0754fae9f8de", "type": "electric_scooter", "lat": 38.932250833333335, "is_reserved": 0, "lon": -77.0353775, "fusion_lon": 0.0, "is_disabled": 0, "fusion_lat": 0.0, "bike_id": "e0c257bb77be3cd85edf0754fae9f8de", "rental_uris": {"ios": "https://dc.lft.to/lastmile_qr_scan", "android": "https://dc.lft.to/lastmile_qr_scan"}}, {"name": "400849964a4873d441af7613fe1c4969", "type": "electric_scooter", "lat": 38.88938533333334, "is_reserved": 0, "lon": -76.94816683333333, "fusion_lon": 0.0, "is_disabled": 0, "fusion_lat": 0.0, "bike_id": "400849964a4873d441af7613fe1c4969", "rental_uris": {"ios": "https://dc.lft.to/lastmile_qr_scan", "android": "https://dc.lft.to/lastmile_qr_scan"}}, {"name": "75c9eec7edd397aa76f8b9976d5ef3b6", "type": "electric_bike", "lat": 38.857991, "is_reserved": 0, "lon": -76.98752366666666, "fusion_lon": 0.0, "is_disabled": 0, "fusion_lat": 0.0, "bike_id": "75c9eec7edd397aa76f8b9976d5ef3b6", "rental_uris": {"ios": "https://dc.lft.to/lastmile_qr_scan", "android": "https://dc.lft.to/lastmile_qr_scan"}}, {"name": "b92f694768c062adf27b2af50ead6349", "type": "electric_scooter", "lat": 38.89733583333334, "is_reserved": 0, "lon": -76.94725783333334, "fusion_lon": 0.0, "is_disabled": 0, "fusion_lat": 0.0, "bike_id": "b92f694768c062adf27b2af50ead6349", "rental_uris": {"ios": "https://dc.lft.to/lastmile_qr_scan", "android": "https://dc.lft.to/lastmile_qr_scan"}}, {"name": "189985109c08e19a4585196e806dcaba", "type": "electric_scooter", "lat": 38.9747275, "is_reserved": 0, "lon": -77.01894916666667, "fusion_lon": 0.0, "is_disabled": 0, "fusion_lat": 0.0, "bike_id": "189985109c08e19a4585196e806dcaba", "rental_uris": {"ios": "https://dc.lft.to/lastmile_qr_scan", "android": "https://dc.lft.to/lastmile_qr_scan"}}, {"name": "54bd38e8888a623b8c28a7eeb560a9cd", "type": "electric_scooter", "lat": 38.9154945, "is_reserved": 0, "lon": -77.07273283333333, "fusion_lon": 0.0, "is_disabled": 0, "fusion_lat": 0.0, "bike_id": "54bd38e8888a623b8c28a7eeb560a9cd", "rental_uris": {"ios": "https://dc.lft.to/lastmile_qr_scan", "android": "https://dc.lft.to/lastmile_qr_scan"}}, {"name": "c01a62ce386a8e1114244957a481f3ae", "type": "electric_scooter", "lat": 38.90153933333333, "is_reserved": 0, "lon": -77.04458016666666, "fusion_lon": 0.0, "is_disabled": 0, "fusion_lat": 0.0, "bike_id": "c01a62ce386a8e1114244957a481f3ae", "rental_uris": {"ios": "https://dc.lft.to/lastmile_qr_scan", "android": "https://dc.lft.to/lastmile_qr_scan"}}, {"name": "48084244db278fbff90e050bfeaee318", "type": "electric_scooter", "lat": 38.8975815, "is_reserved": 0, "lon": -77.05136916666666, "fusion_lon": 0.0, "is_disabled": 0, "fusion_lat": 0.0, "bike_id": "48084244db278fbff90e050bfeaee318", "rental_uris": {"ios": "https://dc.lft.to/lastmile_qr_scan", "android": "https://dc.lft.to/lastmile_qr_scan"}}, {"name": "7d554fcfbc3bd6e50e1f72154798afe0", "type": "electric_scooter", "lat": 38.952724833333335, "is_reserved": 0, "lon": -77.06836816666667, "fusion_lon": 0.0, "is_disabled": 0, "fusion_lat": 0.0, "bike_id": "7d554fcfbc3bd6e50e1f72154798afe0", "rental_uris": {"ios": "https://dc.lft.to/lastmile_qr_scan", "android": "https://dc.lft.to/lastmile_qr_scan"}}, {"name": "62d864365098007dfdab55eac254cab7", "type": "electric_scooter", "lat": 38.918196333333334, "is_reserved": 0, "lon": -77.034443, "fusion_lon": 0.0, "is_disabled": 0, "fusion_lat": 0.0, "bike_id": "62d864365098007dfdab55eac254cab7", "rental_uris": {"ios": "https://dc.lft.to/lastmile_qr_scan", "android": "https://dc.lft.to/lastmile_qr_scan"}}, {"name": "c4a2f3ff6bada43cc567a4de223af4d8", "type": "electric_scooter", "lat": 38.9329575, "is_reserved": 0, "lon": -77.02792616666666, "fusion_lon": 0.0, "is_disabled": 0, "fusion_lat": 0.0, "bike_id": "c4a2f3ff6bada43cc567a4de223af4d8", "rental_uris": {"ios": "https://dc.lft.to/lastmile_qr_scan", "android": "https://dc.lft.to/lastmile_qr_scan"}}, {"name": "4383562ccb36da54513fae1753ec689e", "type": "electric_scooter", "lat": 38.9202915, "is_reserved": 0, "lon": -77.011153, "fusion_lon": 0.0, "is_disabled": 0, "fusion_lat": 0.0, "bike_id": "4383562ccb36da54513fae1753ec689e", "rental_uris": {"ios": "https://dc.lft.to/lastmile_qr_scan", "android": "https://dc.lft.to/lastmile_qr_scan"}}, {"name": "4da100d6714137c6b75d3de21bd2b586", "type": "electric_scooter", "lat": 38.9037865, "is_reserved": 0, "lon": -77.04040383333333, "fusion_lon": 0.0, "is_disabled": 0, "fusion_lat": 0.0, "bike_id": "4da100d6714137c6b75d3de21bd2b586", "rental_uris": {"ios": "https://dc.lft.to/lastmile_qr_scan", "android": "https://dc.lft.to/lastmile_qr_scan"}}, {"name": "cb5bd098fe82ff5f13d1d8171d65ad6e", "type": "electric_scooter", "lat": 38.84291666666667, "is_reserved": 0, "lon": -76.99943866666666, "fusion_lon": 0.0, "is_disabled": 0, "fusion_lat": 0.0, "bike_id": "cb5bd098fe82ff5f13d1d8171d65ad6e", "rental_uris": {"ios": "https://dc.lft.to/lastmile_qr_scan", "android": "https://dc.lft.to/lastmile_qr_scan"}}, {"name": "928cc57ea243d3e1f7bb626558ef1e2c", "type": "electric_bike", "lat": 38.99089466666667, "is_reserved": 0, "lon": -76.87496266666666, "fusion_lon": 0.0, "is_disabled": 0, "fusion_lat": 0.0, "bike_id": "928cc57ea243d3e1f7bb626558ef1e2c", "rental_uris": {"ios": "https://dc.lft.to/lastmile_qr_scan", "android": "https://dc.lft.to/lastmile_qr_scan"}}, {"name": "c98962466f2e327f64e258e7fa42aa1d", "type": "electric_scooter", "lat": 38.913307333333336, "is_reserved": 0, "lon": -77.0304465, "fusion_lon": 0.0, "is_disabled": 0, "fusion_lat": 0.0, "bike_id": "c98962466f2e327f64e258e7fa42aa1d", "rental_uris": {"ios": "https://dc.lft.to/lastmile_qr_scan", "android": "https://dc.lft.to/lastmile_qr_scan"}}, {"name": "6b967a0483c606c4366265b212d9166f", "type": "electric_scooter", "lat": 38.93099316666667, "is_reserved": 0, "lon": -77.026664, "fusion_lon": 0.0, "is_disabled": 0, "fusion_lat": 0.0, "bike_id": "6b967a0483c606c4366265b212d9166f", "rental_uris": {"ios": "https://dc.lft.to/lastmile_qr_scan", "android": "https://dc.lft.to/lastmile_qr_scan"}}, {"name": "c77a54ade4103cb66c33c0e1773d669b", "type": "electric_scooter", "lat": 38.941518333333335, "is_reserved": 0, "lon": -77.03654116666667, "fusion_lon": 0.0, "is_disabled": 0, "fusion_lat": 0.0, "bike_id": "c77a54ade4103cb66c33c0e1773d669b", "rental_uris": {"ios": "https://dc.lft.to/lastmile_qr_scan", "android": "https://dc.lft.to/lastmile_qr_scan"}}, {"name": "93b6d6acebdb6eb1dced0147e357d0f2", "type": "electric_bike", "lat": 38.9053045, "is_reserved": 0, "lon": -76.99806533333333, "fusion_lon": 0.0, "is_disabled": 0, "fusion_lat": 0.0, "bike_id": "93b6d6acebdb6eb1dced0147e357d0f2", "rental_uris": {"ios": "https://dc.lft.to/lastmile_qr_scan", "android": "https://dc.lft.to/lastmile_qr_scan"}}, {"name": "ac2a0658bcf795b569744fd051d2f13e", "type": "electric_scooter", "lat": 38.8990545, "is_reserved": 0, "lon": -77.0069205, "fusion_lon": 0.0, "is_disabled": 0, "fusion_lat": 0.0, "bike_id": "ac2a0658bcf795b569744fd051d2f13e", "rental_uris": {"ios": "https://dc.lft.to/lastmile_qr_scan", "android": "https://dc.lft.to/lastmile_qr_scan"}}, {"name": "dfc0ab6d30277591981f4ce1fff77c5e", "type": "electric_scooter", "lat": 38.898262, "is_reserved": 0, "lon": -76.926392, "fusion_lon": 0.0, "is_disabled": 0, "fusion_lat": 0.0, "bike_id": "dfc0ab6d30277591981f4ce1fff77c5e", "rental_uris": {"ios": "https://dc.lft.to/lastmile_qr_scan", "android": "https://dc.lft.to/lastmile_qr_scan"}}, {"name": "6f9838172cc2cca2f54ddad052942afd", "type": "electric_scooter", "lat": 38.866942, "is_reserved": 0, "lon": -76.9870625, "fusion_lon": 0.0, "is_disabled": 0, "fusion_lat": 0.0, "bike_id": "6f9838172cc2cca2f54ddad052942afd", "rental_uris": {"ios": "https://dc.lft.to/lastmile_qr_scan", "android": "https://dc.lft.to/lastmile_qr_scan"}}, {"name": "be904cf32fb700c71c6453b53dac1e4a", "type": "electric_scooter", "lat": 38.906693, "is_reserved": 0, "lon": -77.03828083333333, "fusion_lon": 0.0, "is_disabled": 0, "fusion_lat": 0.0, "bike_id": "be904cf32fb700c71c6453b53dac1e4a", "rental_uris": {"ios": "https://dc.lft.to/lastmile_qr_scan", "android": "https://dc.lft.to/lastmile_qr_scan"}}, {"name": "c70b788b8723fe12662282b813c4bf2d", "type": "electric_scooter", "lat": 38.937134666666665, "is_reserved": 0, "lon": -77.03650433333334, "fusion_lon": 0.0, "is_disabled": 0, "fusion_lat": 0.0, "bike_id": "c70b788b8723fe12662282b813c4bf2d", "rental_uris": {"ios": "https://dc.lft.to/lastmile_qr_scan", "android": "https://dc.lft.to/lastmile_qr_scan"}}, {"name": "53af8b8f9ebd5f3853b6bb8fafe385ec", "type": "electric_scooter", "lat": 38.8967155, "is_reserved": 0, "lon": -77.05398516666666, "fusion_lon": 0.0, "is_disabled": 0, "fusion_lat": 0.0, "bike_id": "53af8b8f9ebd5f3853b6bb8fafe385ec", "rental_uris": {"ios": "https://dc.lft.to/lastmile_qr_scan", "android": "https://dc.lft.to/lastmile_qr_scan"}}, {"name": "df1b877c9db726dfe58661db12dc9feb", "type": "electric_scooter", "lat": 38.9229025, "is_reserved": 0, "lon": -77.02079383333333, "fusion_lon": 0.0, "is_disabled": 0, "fusion_lat": 0.0, "bike_id": "df1b877c9db726dfe58661db12dc9feb", "rental_uris": {"ios": "https://dc.lft.to/lastmile_qr_scan", "android": "https://dc.lft.to/lastmile_qr_scan"}}, {"name": "7fcbdfeda9c71228288ab1f81b21c20c", "type": "electric_scooter", "lat": 38.89818783333333, "is_reserved": 0, "lon": -77.0330365, "fusion_lon": 0.0, "is_disabled": 0, "fusion_lat": 0.0, "bike_id": "7fcbdfeda9c71228288ab1f81b21c20c", "rental_uris": {"ios": "https://dc.lft.to/lastmile_qr_scan", "android": "https://dc.lft.to/lastmile_qr_scan"}}, {"name": "252ea39b9982eb605e3fa95c76476877", "type": "electric_bike", "lat": 38.83932016666667, "is_reserved": 0, "lon": -77.07896566666666, "fusion_lon": 0.0, "is_disabled": 0, "fusion_lat": 0.0, "bike_id": "252ea39b9982eb605e3fa95c76476877", "rental_uris": {"ios": "https://dc.lft.to/lastmile_qr_scan", "android": "https://dc.lft.to/lastmile_qr_scan"}}, {"name": "0aaca4f2777480202cae8b4693f9dc05", "type": "electric_scooter", "lat": 38.911078, "is_reserved": 0, "lon": -77.03477266666667, "fusion_lon": 0.0, "is_disabled": 0, "fusion_lat": 0.0, "bike_id": "0aaca4f2777480202cae8b4693f9dc05", "rental_uris": {"ios": "https://dc.lft.to/lastmile_qr_scan", "android": "https://dc.lft.to/lastmile_qr_scan"}}, {"name": "efc80d0e31410d3a3c5645700578e1cc", "type": "electric_scooter", "lat": 38.903312, "is_reserved": 0, "lon": -77.0334505, "fusion_lon": 0.0, "is_disabled": 0, "fusion_lat": 0.0, "bike_id": "efc80d0e31410d3a3c5645700578e1cc", "rental_uris": {"ios": "https://dc.lft.to/lastmile_qr_scan", "android": "https://dc.lft.to/lastmile_qr_scan"}}, {"name": "f17aea0bb4aa89dfa7a19f6121e5ed68", "type": "electric_scooter", "lat": 38.939796333333334, "is_reserved": 0, "lon": -77.025979, "fusion_lon": 0.0, "is_disabled": 0, "fusion_lat": 0.0, "bike_id": "f17aea0bb4aa89dfa7a19f6121e5ed68", "rental_uris": {"ios": "https://dc.lft.to/lastmile_qr_scan", "android": "https://dc.lft.to/lastmile_qr_scan"}}, {"name": "ec3898f3927dac6f017c129ab4e233c1", "type": "electric_bike", "lat": 38.84269183333333, "is_reserved": 0, "lon": -76.98844666666666, "fusion_lon": 0.0, "is_disabled": 0, "fusion_lat": 0.0, "bike_id": "ec3898f3927dac6f017c129ab4e233c1", "rental_uris": {"ios": "https://dc.lft.to/lastmile_qr_scan", "android": "https://dc.lft.to/lastmile_qr_scan"}}, {"name": "3e3d2b8b3c12841e0f2cd1b1754a164c", "type": "electric_scooter", "lat": 38.9156935, "is_reserved": 0, "lon": -77.02206933333333, "fusion_lon": 0.0, "is_disabled": 0, "fusion_lat": 0.0, "bike_id": "3e3d2b8b3c12841e0f2cd1b1754a164c", "rental_uris": {"ios": "https://dc.lft.to/lastmile_qr_scan", "android": "https://dc.lft.to/lastmile_qr_scan"}}, {"name": "9252cb23af8cc605f91d966e6b121e5f", "type": "electric_scooter", "lat": 38.91476516666667, "is_reserved": 0, "lon": -77.03913333333334, "fusion_lon": 0.0, "is_disabled": 0, "fusion_lat": 0.0, "bike_id": "9252cb23af8cc605f91d966e6b121e5f", "rental_uris": {"ios": "https://dc.lft.to/lastmile_qr_scan", "android": "https://dc.lft.to/lastmile_qr_scan"}}, {"name": "c74ad3968e42830f05a3d567c791e541", "type": "electric_scooter", "lat": 38.905897833333334, "is_reserved": 0, "lon": -77.016076, "fusion_lon": 0.0, "is_disabled": 0, "fusion_lat": 0.0, "bike_id": "c74ad3968e42830f05a3d567c791e541", "rental_uris": {"ios": "https://dc.lft.to/lastmile_qr_scan", "android": "https://dc.lft.to/lastmile_qr_scan"}}, {"name": "9082cd621a7e61243aa77878f3d4c5c8", "type": "electric_scooter", "lat": 38.9146165, "is_reserved": 0, "lon": -77.0385355, "fusion_lon": 0.0, "is_disabled": 0, "fusion_lat": 0.0, "bike_id": "9082cd621a7e61243aa77878f3d4c5c8", "rental_uris": {"ios": "https://dc.lft.to/lastmile_qr_scan", "android": "https://dc.lft.to/lastmile_qr_scan"}}, {"name": "80692c4cd97d30c8a8a84d8b208a1ea8", "type": "electric_scooter", "lat": 38.900243333333336, "is_reserved": 0, "lon": -77.01161633333334, "fusion_lon": 0.0, "is_disabled": 0, "fusion_lat": 0.0, "bike_id": "80692c4cd97d30c8a8a84d8b208a1ea8", "rental_uris": {"ios": "https://dc.lft.to/lastmile_qr_scan", "android": "https://dc.lft.to/lastmile_qr_scan"}}, {"name": "136e563ed63e45ff6e63ffdb126c7933", "type": "electric_bike", "lat": 38.880420666666666, "is_reserved": 0, "lon": -77.01323866666667, "fusion_lon": 0.0, "is_disabled": 0, "fusion_lat": 0.0, "bike_id": "136e563ed63e45ff6e63ffdb126c7933", "rental_uris": {"ios": "https://dc.lft.to/lastmile_qr_scan", "android": "https://dc.lft.to/lastmile_qr_scan"}}, {"name": "9dd53fc7e05894d2a816d012d8281a59", "type": "electric_scooter", "lat": 38.91325616666666, "is_reserved": 0, "lon": -77.0317075, "fusion_lon": 0.0, "is_disabled": 0, "fusion_lat": 0.0, "bike_id": "9dd53fc7e05894d2a816d012d8281a59", "rental_uris": {"ios": "https://dc.lft.to/lastmile_qr_scan", "android": "https://dc.lft.to/lastmile_qr_scan"}}, {"name": "4ab1b768e617c2d1444ea7fd88825ed0", "type": "electric_bike", "lat": 38.8398185, "is_reserved": 0, "lon": -77.00569766666666, "fusion_lon": 0.0, "is_disabled": 0, "fusion_lat": 0.0, "bike_id": "4ab1b768e617c2d1444ea7fd88825ed0", "rental_uris": {"ios": "https://dc.lft.to/lastmile_qr_scan", "android": "https://dc.lft.to/lastmile_qr_scan"}}, {"name": "f28f6861337cec0c2a7017ab856f2d54", "type": "electric_bike", "lat": 38.92204866666667, "is_reserved": 0, "lon": -77.08205516666666, "fusion_lon": 0.0, "is_disabled": 0, "fusion_lat": 0.0, "bike_id": "f28f6861337cec0c2a7017ab856f2d54", "rental_uris": {"ios": "https://dc.lft.to/lastmile_qr_scan", "android": "https://dc.lft.to/lastmile_qr_scan"}}, {"name": "00f9aca389caf1c252d6ba634f7aa368", "type": "electric_scooter", "lat": 38.93767716666667, "is_reserved": 0, "lon": -77.022641, "fusion_lon": 0.0, "is_disabled": 0, "fusion_lat": 0.0, "bike_id": "00f9aca389caf1c252d6ba634f7aa368", "rental_uris": {"ios": "https://dc.lft.to/lastmile_qr_scan", "android": "https://dc.lft.to/lastmile_qr_scan"}}, {"name": "bf1a42dd7c2d5ce5a825cab0072885a1", "type": "electric_scooter", "lat": 38.91917616666667, "is_reserved": 0, "lon": -77.03420433333334, "fusion_lon": 0.0, "is_disabled": 0, "fusion_lat": 0.0, "bike_id": "bf1a42dd7c2d5ce5a825cab0072885a1", "rental_uris": {"ios": "https://dc.lft.to/lastmile_qr_scan", "android": "https://dc.lft.to/lastmile_qr_scan"}}, {"name": "2b70dc4eaa52b846fce0612203f51c01", "type": "electric_scooter", "lat": 38.930650666666665, "is_reserved": 0, "lon": -77.0291965, "fusion_lon": 0.0, "is_disabled": 0, "fusion_lat": 0.0, "bike_id": "2b70dc4eaa52b846fce0612203f51c01", "rental_uris": {"ios": "https://dc.lft.to/lastmile_qr_scan", "android": "https://dc.lft.to/lastmile_qr_scan"}}, {"name": "e73489c5beca4b58cc6eb01c0facb26b", "type": "electric_scooter", "lat": 38.92482033333334, "is_reserved": 0, "lon": -77.0288535, "fusion_lon": 0.0, "is_disabled": 0, "fusion_lat": 0.0, "bike_id": "e73489c5beca4b58cc6eb01c0facb26b", "rental_uris": {"ios": "https://dc.lft.to/lastmile_qr_scan", "android": "https://dc.lft.to/lastmile_qr_scan"}}, {"name": "304b82dd555dc43d202fbfdf9cf60960", "type": "electric_scooter", "lat": 38.905635, "is_reserved": 0, "lon": -77.02174633333334, "fusion_lon": 0.0, "is_disabled": 0, "fusion_lat": 0.0, "bike_id": "304b82dd555dc43d202fbfdf9cf60960", "rental_uris": {"ios": "https://dc.lft.to/lastmile_qr_scan", "android": "https://dc.lft.to/lastmile_qr_scan"}}, {"name": "1b4a147f4fe5c3963f7cdd7b0bfe65b6", "type": "electric_scooter", "lat": 38.89957, "is_reserved": 0, "lon": -76.98568183333333, "fusion_lon": 0.0, "is_disabled": 0, "fusion_lat": 0.0, "bike_id": "1b4a147f4fe5c3963f7cdd7b0bfe65b6", "rental_uris": {"ios": "https://dc.lft.to/lastmile_qr_scan", "android": "https://dc.lft.to/lastmile_qr_scan"}}, {"name": "8a94bdaa1b94d8c282e971c58317f69a", "type": "electric_scooter", "lat": 38.866576, "is_reserved": 0, "lon": -76.99014966666667, "fusion_lon": 0.0, "is_disabled": 0, "fusion_lat": 0.0, "bike_id": "8a94bdaa1b94d8c282e971c58317f69a", "rental_uris": {"ios": "https://dc.lft.to/lastmile_qr_scan", "android": "https://dc.lft.to/lastmile_qr_scan"}}, {"name": "ad8d690e8c9cdcaa6a75bc80e72b2be1", "type": "electric_scooter", "lat": 38.91415633333333, "is_reserved": 0, "lon": -77.02279883333334, "fusion_lon": 0.0, "is_disabled": 0, "fusion_lat": 0.0, "bike_id": "ad8d690e8c9cdcaa6a75bc80e72b2be1", "rental_uris": {"ios": "https://dc.lft.to/lastmile_qr_scan", "android": "https://dc.lft.to/lastmile_qr_scan"}}, {"name": "eb576b7800a0379221f095b074aed875", "type": "electric_scooter", "lat": 38.900556333333334, "is_reserved": 0, "lon": -77.05083116666667, "fusion_lon": 0.0, "is_disabled": 0, "fusion_lat": 0.0, "bike_id": "eb576b7800a0379221f095b074aed875", "rental_uris": {"ios": "https://dc.lft.to/lastmile_qr_scan", "android": "https://dc.lft.to/lastmile_qr_scan"}}, {"name": "e29b6e4ff54203651b44ec423f62dddc", "type": "electric_scooter", "lat": 38.89825066666667, "is_reserved": 0, "lon": -76.94652766666667, "fusion_lon": 0.0, "is_disabled": 0, "fusion_lat": 0.0, "bike_id": "e29b6e4ff54203651b44ec423f62dddc", "rental_uris": {"ios": "https://dc.lft.to/lastmile_qr_scan", "android": "https://dc.lft.to/lastmile_qr_scan"}}, {"name": "e0c0f4bc181b5e1b75796668f90af486", "type": "electric_scooter", "lat": 38.930642666666664, "is_reserved": 0, "lon": -77.029844, "fusion_lon": 0.0, "is_disabled": 0, "fusion_lat": 0.0, "bike_id": "e0c0f4bc181b5e1b75796668f90af486", "rental_uris": {"ios": "https://dc.lft.to/lastmile_qr_scan", "android": "https://dc.lft.to/lastmile_qr_scan"}}, {"name": "1d9753c25a13790951f5d8e4c52b5506", "type": "electric_scooter", "lat": 38.90537883333333, "is_reserved": 0, "lon": -77.05935116666667, "fusion_lon": 0.0, "is_disabled": 0, "fusion_lat": 0.0, "bike_id": "1d9753c25a13790951f5d8e4c52b5506", "rental_uris": {"ios": "https://dc.lft.to/lastmile_qr_scan", "android": "https://dc.lft.to/lastmile_qr_scan"}}, {"name": "2f7ea6a3e47aecbdbd1fb66c34254281", "type": "electric_scooter", "lat": 38.9192915, "is_reserved": 0, "lon": -77.03123883333333, "fusion_lon": 0.0, "is_disabled": 0, "fusion_lat": 0.0, "bike_id": "2f7ea6a3e47aecbdbd1fb66c34254281", "rental_uris": {"ios": "https://dc.lft.to/lastmile_qr_scan", "android": "https://dc.lft.to/lastmile_qr_scan"}}, {"name": "92c61c7f073dc4807532183592d136fe", "type": "electric_scooter", "lat": 38.876341333333336, "is_reserved": 0, "lon": -77.009172, "fusion_lon": 0.0, "is_disabled": 0, "fusion_lat": 0.0, "bike_id": "92c61c7f073dc4807532183592d136fe", "rental_uris": {"ios": "https://dc.lft.to/lastmile_qr_scan", "android": "https://dc.lft.to/lastmile_qr_scan"}}, {"name": "192ce701c6fa393d33727f6421ee3bc3", "type": "electric_scooter", "lat": 38.8840915, "is_reserved": 0, "lon": -77.01530916666667, "fusion_lon": 0.0, "is_disabled": 0, "fusion_lat": 0.0, "bike_id": "192ce701c6fa393d33727f6421ee3bc3", "rental_uris": {"ios": "https://dc.lft.to/lastmile_qr_scan", "android": "https://dc.lft.to/lastmile_qr_scan"}}, {"name": "203540e69b0a7e238acc17d19dba2b56", "type": "electric_scooter", "lat": 38.924453666666665, "is_reserved": 0, "lon": -77.03352433333333, "fusion_lon": 0.0, "is_disabled": 0, "fusion_lat": 0.0, "bike_id": "203540e69b0a7e238acc17d19dba2b56", "rental_uris": {"ios": "https://dc.lft.to/lastmile_qr_scan", "android": "https://dc.lft.to/lastmile_qr_scan"}}, {"name": "4c881187bb5b3b34ded8b714e9f440bc", "type": "electric_scooter", "lat": 38.905668166666665, "is_reserved": 0, "lon": -77.04877833333333, "fusion_lon": 0.0, "is_disabled": 0, "fusion_lat": 0.0, "bike_id": "4c881187bb5b3b34ded8b714e9f440bc", "rental_uris": {"ios": "https://dc.lft.to/lastmile_qr_scan", "android": "https://dc.lft.to/lastmile_qr_scan"}}, {"name": "51b1cdb2b608d079a4eff801621c07ad", "type": "electric_scooter", "lat": 38.90023716666666, "is_reserved": 0, "lon": -77.01116583333334, "fusion_lon": 0.0, "is_disabled": 0, "fusion_lat": 0.0, "bike_id": "51b1cdb2b608d079a4eff801621c07ad", "rental_uris": {"ios": "https://dc.lft.to/lastmile_qr_scan", "android": "https://dc.lft.to/lastmile_qr_scan"}}, {"name": "7abd114852feb2070aac1c58073dd285", "type": "electric_bike", "lat": 38.9909125, "is_reserved": 0, "lon": -76.87494633333333, "fusion_lon": 0.0, "is_disabled": 0, "fusion_lat": 0.0, "bike_id": "7abd114852feb2070aac1c58073dd285", "rental_uris": {"ios": "https://dc.lft.to/lastmile_qr_scan", "android": "https://dc.lft.to/lastmile_qr_scan"}}, {"name": "2b90e5a11e0bb8517cc7a5271222752a", "type": "electric_bike", "lat": 38.82872616666667, "is_reserved": 0, "lon": -77.11217733333334, "fusion_lon": 0.0, "is_disabled": 0, "fusion_lat": 0.0, "bike_id": "2b90e5a11e0bb8517cc7a5271222752a", "rental_uris": {"ios": "https://dc.lft.to/lastmile_qr_scan", "android": "https://dc.lft.to/lastmile_qr_scan"}}, {"name": "92b8d881c9080bef110622a8b13d40ce", "type": "electric_scooter", "lat": 38.892296333333334, "is_reserved": 0, "lon": -77.02207733333333, "fusion_lon": 0.0, "is_disabled": 0, "fusion_lat": 0.0, "bike_id": "92b8d881c9080bef110622a8b13d40ce", "rental_uris": {"ios": "https://dc.lft.to/lastmile_qr_scan", "android": "https://dc.lft.to/lastmile_qr_scan"}}, {"name": "7afcec6a70dd39e6b5afa35f713c4694", "type": "electric_scooter", "lat": 38.91715033333333, "is_reserved": 0, "lon": -77.03859283333334, "fusion_lon": 0.0, "is_disabled": 0, "fusion_lat": 0.0, "bike_id": "7afcec6a70dd39e6b5afa35f713c4694", "rental_uris": {"ios": "https://dc.lft.to/lastmile_qr_scan", "android": "https://dc.lft.to/lastmile_qr_scan"}}, {"name": "b54bc8b91aca16fd68a96b82842a0219", "type": "electric_scooter", "lat": 38.912639666666664, "is_reserved": 0, "lon": -77.00638283333333, "fusion_lon": 0.0, "is_disabled": 0, "fusion_lat": 0.0, "bike_id": "b54bc8b91aca16fd68a96b82842a0219", "rental_uris": {"ios": "https://dc.lft.to/lastmile_qr_scan", "android": "https://dc.lft.to/lastmile_qr_scan"}}, {"name": "3a66fdc026a143e3bc0383b4909ab008", "type": "electric_bike", "lat": 38.965012, "is_reserved": 0, "lon": -77.02827666666667, "fusion_lon": 0.0, "is_disabled": 0, "fusion_lat": 0.0, "bike_id": "3a66fdc026a143e3bc0383b4909ab008", "rental_uris": {"ios": "https://dc.lft.to/lastmile_qr_scan", "android": "https://dc.lft.to/lastmile_qr_scan"}}, {"name": "4c608f010836b5676ce6ce3d43478edf", "type": "electric_scooter", "lat": 38.89220683333333, "is_reserved": 0, "lon": -77.02145, "fusion_lon": 0.0, "is_disabled": 0, "fusion_lat": 0.0, "bike_id": "4c608f010836b5676ce6ce3d43478edf", "rental_uris": {"ios": "https://dc.lft.to/lastmile_qr_scan", "android": "https://dc.lft.to/lastmile_qr_scan"}}, {"name": "f4de067d4c32a84f44ab124768d5cfdd", "type": "electric_bike", "lat": 39.03043, "is_reserved": 0, "lon": -77.09480233333333, "fusion_lon": 0.0, "is_disabled": 0, "fusion_lat": 0.0, "bike_id": "f4de067d4c32a84f44ab124768d5cfdd", "rental_uris": {"ios": "https://dc.lft.to/lastmile_qr_scan", "android": "https://dc.lft.to/lastmile_qr_scan"}}, {"name": "fd795a3e8f7de2a8edf6299b975aa15c", "type": "electric_scooter", "lat": 38.92844783333334, "is_reserved": 0, "lon": -77.05424983333333, "fusion_lon": 0.0, "is_disabled": 0, "fusion_lat": 0.0, "bike_id": "fd795a3e8f7de2a8edf6299b975aa15c", "rental_uris": {"ios": "https://dc.lft.to/lastmile_qr_scan", "android": "https://dc.lft.to/lastmile_qr_scan"}}, {"name": "f19a7e50eba1a5b0eafd3a18408cd4ce", "type": "electric_scooter", "lat": 38.903748, "is_reserved": 0, "lon": -77.0074305, "fusion_lon": 0.0, "is_disabled": 0, "fusion_lat": 0.0, "bike_id": "f19a7e50eba1a5b0eafd3a18408cd4ce", "rental_uris": {"ios": "https://dc.lft.to/lastmile_qr_scan", "android": "https://dc.lft.to/lastmile_qr_scan"}}, {"name": "1e54dcf8c4fb792638594483889bf60b", "type": "electric_scooter", "lat": 38.908310666666665, "is_reserved": 0, "lon": -76.99701166666667, "fusion_lon": 0.0, "is_disabled": 0, "fusion_lat": 0.0, "bike_id": "1e54dcf8c4fb792638594483889bf60b", "rental_uris": {"ios": "https://dc.lft.to/lastmile_qr_scan", "android": "https://dc.lft.to/lastmile_qr_scan"}}, {"name": "6e82d473a321262f5c5be8e22289ca66", "type": "electric_scooter", "lat": 38.891248, "is_reserved": 0, "lon": -77.00346833333333, "fusion_lon": 0.0, "is_disabled": 0, "fusion_lat": 0.0, "bike_id": "6e82d473a321262f5c5be8e22289ca66", "rental_uris": {"ios": "https://dc.lft.to/lastmile_qr_scan", "android": "https://dc.lft.to/lastmile_qr_scan"}}, {"name": "e76e49708c3e9e0fa6d7ab39d78f36b7", "type": "electric_scooter", "lat": 38.87963516666667, "is_reserved": 0, "lon": -76.985491, "fusion_lon": 0.0, "is_disabled": 0, "fusion_lat": 0.0, "bike_id": "e76e49708c3e9e0fa6d7ab39d78f36b7", "rental_uris": {"ios": "https://dc.lft.to/lastmile_qr_scan", "android": "https://dc.lft.to/lastmile_qr_scan"}}, {"name": "4c237652bb4f42804c4df882dd347123", "type": "electric_scooter", "lat": 38.8919535, "is_reserved": 0, "lon": -77.01548583333333, "fusion_lon": 0.0, "is_disabled": 0, "fusion_lat": 0.0, "bike_id": "4c237652bb4f42804c4df882dd347123", "rental_uris": {"ios": "https://dc.lft.to/lastmile_qr_scan", "android": "https://dc.lft.to/lastmile_qr_scan"}}, {"name": "f8a1bdd01613151541d2f46ce87a2e0e", "type": "electric_scooter", "lat": 38.8957845, "is_reserved": 0, "lon": -77.0258335, "fusion_lon": 0.0, "is_disabled": 0, "fusion_lat": 0.0, "bike_id": "f8a1bdd01613151541d2f46ce87a2e0e", "rental_uris": {"ios": "https://dc.lft.to/lastmile_qr_scan", "android": "https://dc.lft.to/lastmile_qr_scan"}}, {"name": "178b9453816027f399a4cc91d0bb58ad", "type": "electric_scooter", "lat": 38.87679083333333, "is_reserved": 0, "lon": -77.000761, "fusion_lon": 0.0, "is_disabled": 0, "fusion_lat": 0.0, "bike_id": "178b9453816027f399a4cc91d0bb58ad", "rental_uris": {"ios": "https://dc.lft.to/lastmile_qr_scan", "android": "https://dc.lft.to/lastmile_qr_scan"}}, {"name": "9a64ef3771fa280a3cf88af526272b18", "type": "electric_scooter", "lat": 38.902871166666664, "is_reserved": 0, "lon": -77.018152, "fusion_lon": 0.0, "is_disabled": 0, "fusion_lat": 0.0, "bike_id": "9a64ef3771fa280a3cf88af526272b18", "rental_uris": {"ios": "https://dc.lft.to/lastmile_qr_scan", "android": "https://dc.lft.to/lastmile_qr_scan"}}, {"name": "de4c3e5734edece5653b35fc568b6469", "type": "electric_scooter", "lat": 38.9050975, "is_reserved": 0, "lon": -77.0512165, "fusion_lon": 0.0, "is_disabled": 0, "fusion_lat": 0.0, "bike_id": "de4c3e5734edece5653b35fc568b6469", "rental_uris": {"ios": "https://dc.lft.to/lastmile_qr_scan", "android": "https://dc.lft.to/lastmile_qr_scan"}}, {"name": "fb46b9bab7d1eaccd87dfeb96af5d534", "type": "electric_scooter", "lat": 38.937865, "is_reserved": 0, "lon": -77.02460083333334, "fusion_lon": 0.0, "is_disabled": 0, "fusion_lat": 0.0, "bike_id": "fb46b9bab7d1eaccd87dfeb96af5d534", "rental_uris": {"ios": "https://dc.lft.to/lastmile_qr_scan", "android": "https://dc.lft.to/lastmile_qr_scan"}}, {"name": "efca8b818a817889fc67cbffa00f875b", "type": "electric_scooter", "lat": 38.9180505, "is_reserved": 0, "lon": -77.00162516666667, "fusion_lon": 0.0, "is_disabled": 0, "fusion_lat": 0.0, "bike_id": "efca8b818a817889fc67cbffa00f875b", "rental_uris": {"ios": "https://dc.lft.to/lastmile_qr_scan", "android": "https://dc.lft.to/lastmile_qr_scan"}}, {"name": "4a5d665198559aa0175359514c9d0421", "type": "electric_scooter", "lat": 38.90392216666667, "is_reserved": 0, "lon": -77.01772666666666, "fusion_lon": 0.0, "is_disabled": 0, "fusion_lat": 0.0, "bike_id": "4a5d665198559aa0175359514c9d0421", "rental_uris": {"ios": "https://dc.lft.to/lastmile_qr_scan", "android": "https://dc.lft.to/lastmile_qr_scan"}}, {"name": "544e419c69a471dcef436a1c2894723c", "type": "electric_scooter", "lat": 38.908867, "is_reserved": 0, "lon": -77.00557916666666, "fusion_lon": 0.0, "is_disabled": 0, "fusion_lat": 0.0, "bike_id": "544e419c69a471dcef436a1c2894723c", "rental_uris": {"ios": "https://dc.lft.to/lastmile_qr_scan", "android": "https://dc.lft.to/lastmile_qr_scan"}}, {"name": "54598ad2b6b8cb89128a5fc36971162a", "type": "electric_bike", "lat": 38.96120416666667, "is_reserved": 0, "lon": -77.032793, "fusion_lon": 0.0, "is_disabled": 0, "fusion_lat": 0.0, "bike_id": "54598ad2b6b8cb89128a5fc36971162a", "rental_uris": {"ios": "https://dc.lft.to/lastmile_qr_scan", "android": "https://dc.lft.to/lastmile_qr_scan"}}, {"name": "91ff60a83cdf5baa43c0c4229b94c4c2", "type": "electric_scooter", "lat": 38.91268, "is_reserved": 0, "lon": -77.0332715, "fusion_lon": 0.0, "is_disabled": 0, "fusion_lat": 0.0, "bike_id": "91ff60a83cdf5baa43c0c4229b94c4c2", "rental_uris": {"ios": "https://dc.lft.to/lastmile_qr_scan", "android": "https://dc.lft.to/lastmile_qr_scan"}}, {"name": "c6b63a0e9218d95d007ff52eb1ad7e95", "type": "electric_scooter", "lat": 38.8987495, "is_reserved": 0, "lon": -76.931595, "fusion_lon": 0.0, "is_disabled": 0, "fusion_lat": 0.0, "bike_id": "c6b63a0e9218d95d007ff52eb1ad7e95", "rental_uris": {"ios": "https://dc.lft.to/lastmile_qr_scan", "android": "https://dc.lft.to/lastmile_qr_scan"}}, {"name": "536e5635d4c3e851bdbc715ae0ce638d", "type": "electric_scooter", "lat": 38.94395133333333, "is_reserved": 0, "lon": -77.03891933333334, "fusion_lon": 0.0, "is_disabled": 0, "fusion_lat": 0.0, "bike_id": "536e5635d4c3e851bdbc715ae0ce638d", "rental_uris": {"ios": "https://dc.lft.to/lastmile_qr_scan", "android": "https://dc.lft.to/lastmile_qr_scan"}}, {"name": "c6168cc68bac6d7cd58bcc5bc600d6fd", "type": "electric_scooter", "lat": 38.919009333333335, "is_reserved": 0, "lon": -77.0417945, "fusion_lon": 0.0, "is_disabled": 0, "fusion_lat": 0.0, "bike_id": "c6168cc68bac6d7cd58bcc5bc600d6fd", "rental_uris": {"ios": "https://dc.lft.to/lastmile_qr_scan", "android": "https://dc.lft.to/lastmile_qr_scan"}}, {"name": "38816be1ab1d97e8bd81be7a0beb0408", "type": "electric_scooter", "lat": 38.92755566666666, "is_reserved": 0, "lon": -77.02418716666666, "fusion_lon": 0.0, "is_disabled": 0, "fusion_lat": 0.0, "bike_id": "38816be1ab1d97e8bd81be7a0beb0408", "rental_uris": {"ios": "https://dc.lft.to/lastmile_qr_scan", "android": "https://dc.lft.to/lastmile_qr_scan"}}, {"name": "6d03ed2b8d33886ce8bd2c036fc52765", "type": "electric_scooter", "lat": 38.91731566666667, "is_reserved": 0, "lon": -77.010266, "fusion_lon": 0.0, "is_disabled": 0, "fusion_lat": 0.0, "bike_id": "6d03ed2b8d33886ce8bd2c036fc52765", "rental_uris": {"ios": "https://dc.lft.to/lastmile_qr_scan", "android": "https://dc.lft.to/lastmile_qr_scan"}}, {"name": "f1f06c10dfeb1b69de08a6e7059c1dbc", "type": "electric_scooter", "lat": 38.9055715, "is_reserved": 0, "lon": -77.0281695, "fusion_lon": 0.0, "is_disabled": 0, "fusion_lat": 0.0, "bike_id": "f1f06c10dfeb1b69de08a6e7059c1dbc", "rental_uris": {"ios": "https://dc.lft.to/lastmile_qr_scan", "android": "https://dc.lft.to/lastmile_qr_scan"}}, {"name": "71df865478194cc8dc641836eb713b68", "type": "electric_scooter", "lat": 38.92445683333333, "is_reserved": 0, "lon": -76.99333983333334, "fusion_lon": 0.0, "is_disabled": 0, "fusion_lat": 0.0, "bike_id": "71df865478194cc8dc641836eb713b68", "rental_uris": {"ios": "https://dc.lft.to/lastmile_qr_scan", "android": "https://dc.lft.to/lastmile_qr_scan"}}, {"name": "3d024029737a1c1d7a00888a37fed55d", "type": "electric_scooter", "lat": 38.91556766666667, "is_reserved": 0, "lon": -77.04617883333333, "fusion_lon": 0.0, "is_disabled": 0, "fusion_lat": 0.0, "bike_id": "3d024029737a1c1d7a00888a37fed55d", "rental_uris": {"ios": "https://dc.lft.to/lastmile_qr_scan", "android": "https://dc.lft.to/lastmile_qr_scan"}}, {"name": "278f8135cda0195920f7814dbd13681c", "type": "electric_scooter", "lat": 38.906231, "is_reserved": 0, "lon": -76.9831625, "fusion_lon": 0.0, "is_disabled": 0, "fusion_lat": 0.0, "bike_id": "278f8135cda0195920f7814dbd13681c", "rental_uris": {"ios": "https://dc.lft.to/lastmile_qr_scan", "android": "https://dc.lft.to/lastmile_qr_scan"}}, {"name": "86aa5a557d6da722d941dbec13950173", "type": "electric_scooter", "lat": 38.8609285, "is_reserved": 0, "lon": -76.98376083333333, "fusion_lon": 0.0, "is_disabled": 0, "fusion_lat": 0.0, "bike_id": "86aa5a557d6da722d941dbec13950173", "rental_uris": {"ios": "https://dc.lft.to/lastmile_qr_scan", "android": "https://dc.lft.to/lastmile_qr_scan"}}, {"name": "268d06c4d58febc1f9aba31acf4e39b6", "type": "electric_bike", "lat": 38.936867666666664, "is_reserved": 0, "lon": -77.05646233333333, "fusion_lon": 0.0, "is_disabled": 0, "fusion_lat": 0.0, "bike_id": "268d06c4d58febc1f9aba31acf4e39b6", "rental_uris": {"ios": "https://dc.lft.to/lastmile_qr_scan", "android": "https://dc.lft.to/lastmile_qr_scan"}}, {"name": "03bfb82700854055437a4c1163c8ead4", "type": "electric_scooter", "lat": 38.902407333333336, "is_reserved": 0, "lon": -77.002041, "fusion_lon": 0.0, "is_disabled": 0, "fusion_lat": 0.0, "bike_id": "03bfb82700854055437a4c1163c8ead4", "rental_uris": {"ios": "https://dc.lft.to/lastmile_qr_scan", "android": "https://dc.lft.to/lastmile_qr_scan"}}, {"name": "79213e71e4529b0986bb4f5d715d33ec", "type": "electric_scooter", "lat": 38.891025166666665, "is_reserved": 0, "lon": -76.98705916666667, "fusion_lon": 0.0, "is_disabled": 0, "fusion_lat": 0.0, "bike_id": "79213e71e4529b0986bb4f5d715d33ec", "rental_uris": {"ios": "https://dc.lft.to/lastmile_qr_scan", "android": "https://dc.lft.to/lastmile_qr_scan"}}, {"name": "1f4e5010fb6868f3d1184ecfcb9232bd", "type": "electric_bike", "lat": 38.936979, "is_reserved": 0, "lon": -77.02980766666667, "fusion_lon": 0.0, "is_disabled": 0, "fusion_lat": 0.0, "bike_id": "1f4e5010fb6868f3d1184ecfcb9232bd", "rental_uris": {"ios": "https://dc.lft.to/lastmile_qr_scan", "android": "https://dc.lft.to/lastmile_qr_scan"}}, {"name": "0ad8ba96a4368a57668b4f6f4d4abae9", "type": "electric_scooter", "lat": 38.911052, "is_reserved": 0, "lon": -77.042307, "fusion_lon": 0.0, "is_disabled": 0, "fusion_lat": 0.0, "bike_id": "0ad8ba96a4368a57668b4f6f4d4abae9", "rental_uris": {"ios": "https://dc.lft.to/lastmile_qr_scan", "android": "https://dc.lft.to/lastmile_qr_scan"}}, {"name": "27d67dbf21d41d6ab9df287ae440d79b", "type": "electric_scooter", "lat": 38.9231345, "is_reserved": 0, "lon": -77.03910133333333, "fusion_lon": 0.0, "is_disabled": 0, "fusion_lat": 0.0, "bike_id": "27d67dbf21d41d6ab9df287ae440d79b", "rental_uris": {"ios": "https://dc.lft.to/lastmile_qr_scan", "android": "https://dc.lft.to/lastmile_qr_scan"}}, {"name": "711da63548c85435af385da32b4b26b5", "type": "electric_scooter", "lat": 38.93536866666667, "is_reserved": 0, "lon": -77.03697416666667, "fusion_lon": 0.0, "is_disabled": 0, "fusion_lat": 0.0, "bike_id": "711da63548c85435af385da32b4b26b5", "rental_uris": {"ios": "https://dc.lft.to/lastmile_qr_scan", "android": "https://dc.lft.to/lastmile_qr_scan"}}, {"name": "af89046fce2cc05fb6941a957b3abff6", "type": "electric_scooter", "lat": 38.918731333333334, "is_reserved": 0, "lon": -77.04381116666667, "fusion_lon": 0.0, "is_disabled": 0, "fusion_lat": 0.0, "bike_id": "af89046fce2cc05fb6941a957b3abff6", "rental_uris": {"ios": "https://dc.lft.to/lastmile_qr_scan", "android": "https://dc.lft.to/lastmile_qr_scan"}}, {"name": "950073eff6f532deca07e582525b4f0a", "type": "electric_bike", "lat": 38.87980666666667, "is_reserved": 0, "lon": -76.91599983333333, "fusion_lon": 0.0, "is_disabled": 0, "fusion_lat": 0.0, "bike_id": "950073eff6f532deca07e582525b4f0a", "rental_uris": {"ios": "https://dc.lft.to/lastmile_qr_scan", "android": "https://dc.lft.to/lastmile_qr_scan"}}, {"name": "e4fdfb223a165a8b2d14c4d7193ec42d", "type": "electric_scooter", "lat": 38.925313833333334, "is_reserved": 0, "lon": -77.05549016666667, "fusion_lon": 0.0, "is_disabled": 0, "fusion_lat": 0.0, "bike_id": "e4fdfb223a165a8b2d14c4d7193ec42d", "rental_uris": {"ios": "https://dc.lft.to/lastmile_qr_scan", "android": "https://dc.lft.to/lastmile_qr_scan"}}, {"name": "cc29c0172bf6ee1a1df7e9d6020f3089", "type": "electric_scooter", "lat": 38.935780333333334, "is_reserved": 0, "lon": -76.99106133333333, "fusion_lon": 0.0, "is_disabled": 0, "fusion_lat": 0.0, "bike_id": "cc29c0172bf6ee1a1df7e9d6020f3089", "rental_uris": {"ios": "https://dc.lft.to/lastmile_qr_scan", "android": "https://dc.lft.to/lastmile_qr_scan"}}, {"name": "a9888f1b47182a0dc5ef6762737a6448", "type": "electric_scooter", "lat": 38.915802666666664, "is_reserved": 0, "lon": -77.0446625, "fusion_lon": 0.0, "is_disabled": 0, "fusion_lat": 0.0, "bike_id": "a9888f1b47182a0dc5ef6762737a6448", "rental_uris": {"ios": "https://dc.lft.to/lastmile_qr_scan", "android": "https://dc.lft.to/lastmile_qr_scan"}}, {"name": "b20435859c5eff0209d09ae31ecf5645", "type": "electric_scooter", "lat": 38.922393166666666, "is_reserved": 0, "lon": -77.033409, "fusion_lon": 0.0, "is_disabled": 0, "fusion_lat": 0.0, "bike_id": "b20435859c5eff0209d09ae31ecf5645", "rental_uris": {"ios": "https://dc.lft.to/lastmile_qr_scan", "android": "https://dc.lft.to/lastmile_qr_scan"}}, {"name": "961617330eed511008c395c2d09b86b0", "type": "electric_scooter", "lat": 38.90149266666667, "is_reserved": 0, "lon": -76.9306375, "fusion_lon": 0.0, "is_disabled": 0, "fusion_lat": 0.0, "bike_id": "961617330eed511008c395c2d09b86b0", "rental_uris": {"ios": "https://dc.lft.to/lastmile_qr_scan", "android": "https://dc.lft.to/lastmile_qr_scan"}}, {"name": "503f8a4f9c89ccf2e14ad31e0aa72880", "type": "electric_scooter", "lat": 38.926852833333335, "is_reserved": 0, "lon": -77.09555133333333, "fusion_lon": 0.0, "is_disabled": 0, "fusion_lat": 0.0, "bike_id": "503f8a4f9c89ccf2e14ad31e0aa72880", "rental_uris": {"ios": "https://dc.lft.to/lastmile_qr_scan", "android": "https://dc.lft.to/lastmile_qr_scan"}}, {"name": "6d5b21692d6fe443062007209ee7874b", "type": "electric_scooter", "lat": 38.924662, "is_reserved": 0, "lon": -77.03760766666667, "fusion_lon": 0.0, "is_disabled": 0, "fusion_lat": 0.0, "bike_id": "6d5b21692d6fe443062007209ee7874b", "rental_uris": {"ios": "https://dc.lft.to/lastmile_qr_scan", "android": "https://dc.lft.to/lastmile_qr_scan"}}, {"name": "aed769a672f3a6d98b8c9cdbc99b632a", "type": "electric_scooter", "lat": 38.924713833333335, "is_reserved": 0, "lon": -77.02834083333333, "fusion_lon": 0.0, "is_disabled": 0, "fusion_lat": 0.0, "bike_id": "aed769a672f3a6d98b8c9cdbc99b632a", "rental_uris": {"ios": "https://dc.lft.to/lastmile_qr_scan", "android": "https://dc.lft.to/lastmile_qr_scan"}}, {"name": "7a713ce80d679f6706e95d53e3873ea0", "type": "electric_scooter", "lat": 38.9108505, "is_reserved": 0, "lon": -77.03843333333333, "fusion_lon": 0.0, "is_disabled": 0, "fusion_lat": 0.0, "bike_id": "7a713ce80d679f6706e95d53e3873ea0", "rental_uris": {"ios": "https://dc.lft.to/lastmile_qr_scan", "android": "https://dc.lft.to/lastmile_qr_scan"}}, {"name": "07df2b6fffa121bbf4ff0a64d41374fa", "type": "electric_scooter", "lat": 38.9084075, "is_reserved": 0, "lon": -77.02693333333333, "fusion_lon": 0.0, "is_disabled": 0, "fusion_lat": 0.0, "bike_id": "07df2b6fffa121bbf4ff0a64d41374fa", "rental_uris": {"ios": "https://dc.lft.to/lastmile_qr_scan", "android": "https://dc.lft.to/lastmile_qr_scan"}}, {"name": "d0bfb7a8ba6addb41ff861268158c338", "type": "electric_scooter", "lat": 38.89396966666666, "is_reserved": 0, "lon": -76.9480375, "fusion_lon": 0.0, "is_disabled": 0, "fusion_lat": 0.0, "bike_id": "d0bfb7a8ba6addb41ff861268158c338", "rental_uris": {"ios": "https://dc.lft.to/lastmile_qr_scan", "android": "https://dc.lft.to/lastmile_qr_scan"}}, {"name": "43bbd81e8a7a5e585b168b6de57df093", "type": "electric_scooter", "lat": 38.90314383333333, "is_reserved": 0, "lon": -77.0602885, "fusion_lon": 0.0, "is_disabled": 0, "fusion_lat": 0.0, "bike_id": "43bbd81e8a7a5e585b168b6de57df093", "rental_uris": {"ios": "https://dc.lft.to/lastmile_qr_scan", "android": "https://dc.lft.to/lastmile_qr_scan"}}, {"name": "2b0c1df77a75b82680fb037046b038e0", "type": "electric_scooter", "lat": 38.91122033333333, "is_reserved": 0, "lon": -77.002621, "fusion_lon": 0.0, "is_disabled": 0, "fusion_lat": 0.0, "bike_id": "2b0c1df77a75b82680fb037046b038e0", "rental_uris": {"ios": "https://dc.lft.to/lastmile_qr_scan", "android": "https://dc.lft.to/lastmile_qr_scan"}}, {"name": "2fcfc24720deebed3ea18a2c07bc91b8", "type": "electric_scooter", "lat": 38.932040666666666, "is_reserved": 0, "lon": -77.02388216666667, "fusion_lon": 0.0, "is_disabled": 0, "fusion_lat": 0.0, "bike_id": "2fcfc24720deebed3ea18a2c07bc91b8", "rental_uris": {"ios": "https://dc.lft.to/lastmile_qr_scan", "android": "https://dc.lft.to/lastmile_qr_scan"}}, {"name": "8aeb0d3320357e1b166ae34beec4364d", "type": "electric_scooter", "lat": 38.88353133333333, "is_reserved": 0, "lon": -76.98563366666667, "fusion_lon": 0.0, "is_disabled": 0, "fusion_lat": 0.0, "bike_id": "8aeb0d3320357e1b166ae34beec4364d", "rental_uris": {"ios": "https://dc.lft.to/lastmile_qr_scan", "android": "https://dc.lft.to/lastmile_qr_scan"}}, {"name": "ae3ecf0214c0fee0c6ff34a0476c5010", "type": "electric_scooter", "lat": 38.87849883333333, "is_reserved": 0, "lon": -77.0228135, "fusion_lon": 0.0, "is_disabled": 0, "fusion_lat": 0.0, "bike_id": "ae3ecf0214c0fee0c6ff34a0476c5010", "rental_uris": {"ios": "https://dc.lft.to/lastmile_qr_scan", "android": "https://dc.lft.to/lastmile_qr_scan"}}, {"name": "71a385ed2c1a565efd1720eb52373582", "type": "electric_scooter", "lat": 38.939654166666664, "is_reserved": 0, "lon": -77.05321116666667, "fusion_lon": 0.0, "is_disabled": 0, "fusion_lat": 0.0, "bike_id": "71a385ed2c1a565efd1720eb52373582", "rental_uris": {"ios": "https://dc.lft.to/lastmile_qr_scan", "android": "https://dc.lft.to/lastmile_qr_scan"}}, {"name": "2e66f708e1a53394b6ba24a4e36c212d", "type": "electric_scooter", "lat": 38.938972166666666, "is_reserved": 0, "lon": -77.0176015, "fusion_lon": 0.0, "is_disabled": 0, "fusion_lat": 0.0, "bike_id": "2e66f708e1a53394b6ba24a4e36c212d", "rental_uris": {"ios": "https://dc.lft.to/lastmile_qr_scan", "android": "https://dc.lft.to/lastmile_qr_scan"}}, {"name": "8347400457ac7df46cdbacee1a85980f", "type": "electric_scooter", "lat": 38.90594633333333, "is_reserved": 0, "lon": -77.051169, "fusion_lon": 0.0, "is_disabled": 0, "fusion_lat": 0.0, "bike_id": "8347400457ac7df46cdbacee1a85980f", "rental_uris": {"ios": "https://dc.lft.to/lastmile_qr_scan", "android": "https://dc.lft.to/lastmile_qr_scan"}}, {"name": "3303be372352714aaafe5a49a4c57790", "type": "electric_scooter", "lat": 38.89726066666667, "is_reserved": 0, "lon": -77.0015095, "fusion_lon": 0.0, "is_disabled": 0, "fusion_lat": 0.0, "bike_id": "3303be372352714aaafe5a49a4c57790", "rental_uris": {"ios": "https://dc.lft.to/lastmile_qr_scan", "android": "https://dc.lft.to/lastmile_qr_scan"}}, {"name": "74ea96f67ef8fc796a930524b0093b97", "type": "electric_scooter", "lat": 38.9298525, "is_reserved": 0, "lon": -77.03473616666666, "fusion_lon": 0.0, "is_disabled": 0, "fusion_lat": 0.0, "bike_id": "74ea96f67ef8fc796a930524b0093b97", "rental_uris": {"ios": "https://dc.lft.to/lastmile_qr_scan", "android": "https://dc.lft.to/lastmile_qr_scan"}}, {"name": "3380b38f865ec9ba61a3260625989d99", "type": "electric_bike", "lat": 38.87729866666667, "is_reserved": 0, "lon": -77.118465, "fusion_lon": 0.0, "is_disabled": 0, "fusion_lat": 0.0, "bike_id": "3380b38f865ec9ba61a3260625989d99", "rental_uris": {"ios": "https://dc.lft.to/lastmile_qr_scan", "android": "https://dc.lft.to/lastmile_qr_scan"}}, {"name": "90fbd79f44033f201ef98b0715f05bc2", "type": "electric_scooter", "lat": 38.930623, "is_reserved": 0, "lon": -77.03807933333333, "fusion_lon": 0.0, "is_disabled": 0, "fusion_lat": 0.0, "bike_id": "90fbd79f44033f201ef98b0715f05bc2", "rental_uris": {"ios": "https://dc.lft.to/lastmile_qr_scan", "android": "https://dc.lft.to/lastmile_qr_scan"}}, {"name": "c02a8b8520fe04e970a1f4f975d1fe5b", "type": "electric_scooter", "lat": 38.912208166666666, "is_reserved": 0, "lon": -77.02803, "fusion_lon": 0.0, "is_disabled": 0, "fusion_lat": 0.0, "bike_id": "c02a8b8520fe04e970a1f4f975d1fe5b", "rental_uris": {"ios": "https://dc.lft.to/lastmile_qr_scan", "android": "https://dc.lft.to/lastmile_qr_scan"}}, {"name": "da779ddb633dcba915d000ef9344a41a", "type": "electric_scooter", "lat": 38.906612, "is_reserved": 0, "lon": -77.03842783333333, "fusion_lon": 0.0, "is_disabled": 0, "fusion_lat": 0.0, "bike_id": "da779ddb633dcba915d000ef9344a41a", "rental_uris": {"ios": "https://dc.lft.to/lastmile_qr_scan", "android": "https://dc.lft.to/lastmile_qr_scan"}}, {"name": "9f583cd0a8789dac53866ec331d721ee", "type": "electric_scooter", "lat": 38.90523866666667, "is_reserved": 0, "lon": -77.0500775, "fusion_lon": 0.0, "is_disabled": 0, "fusion_lat": 0.0, "bike_id": "9f583cd0a8789dac53866ec331d721ee", "rental_uris": {"ios": "https://dc.lft.to/lastmile_qr_scan", "android": "https://dc.lft.to/lastmile_qr_scan"}}, {"name": "5af47e0c54c58370efb6140a12b5b6d6", "type": "electric_scooter", "lat": 38.9154515, "is_reserved": 0, "lon": -77.03858133333334, "fusion_lon": 0.0, "is_disabled": 0, "fusion_lat": 0.0, "bike_id": "5af47e0c54c58370efb6140a12b5b6d6", "rental_uris": {"ios": "https://dc.lft.to/lastmile_qr_scan", "android": "https://dc.lft.to/lastmile_qr_scan"}}, {"name": "e95749db66cc675061f139b2e7448234", "type": "electric_bike", "lat": 38.95687383333333, "is_reserved": 0, "lon": -77.022282, "fusion_lon": 0.0, "is_disabled": 0, "fusion_lat": 0.0, "bike_id": "e95749db66cc675061f139b2e7448234", "rental_uris": {"ios": "https://dc.lft.to/lastmile_qr_scan", "android": "https://dc.lft.to/lastmile_qr_scan"}}, {"name": "2f37dacab389123e5524bb60633801ac", "type": "electric_scooter", "lat": 38.8982595, "is_reserved": 0, "lon": -76.94653, "fusion_lon": 0.0, "is_disabled": 0, "fusion_lat": 0.0, "bike_id": "2f37dacab389123e5524bb60633801ac", "rental_uris": {"ios": "https://dc.lft.to/lastmile_qr_scan", "android": "https://dc.lft.to/lastmile_qr_scan"}}, {"name": "dd0eeb5156b61a42aaf9da06dc7aeb97", "type": "electric_scooter", "lat": 38.898244166666665, "is_reserved": 0, "lon": -76.94651083333333, "fusion_lon": 0.0, "is_disabled": 0, "fusion_lat": 0.0, "bike_id": "dd0eeb5156b61a42aaf9da06dc7aeb97", "rental_uris": {"ios": "https://dc.lft.to/lastmile_qr_scan", "android": "https://dc.lft.to/lastmile_qr_scan"}}, {"name": "288d46f1057af3507702bc589f4c324b", "type": "electric_scooter", "lat": 38.922534166666665, "is_reserved": 0, "lon": -77.03487, "fusion_lon": 0.0, "is_disabled": 0, "fusion_lat": 0.0, "bike_id": "288d46f1057af3507702bc589f4c324b", "rental_uris": {"ios": "https://dc.lft.to/lastmile_qr_scan", "android": "https://dc.lft.to/lastmile_qr_scan"}}, {"name": "8ec8ae848e66e14d8f601b6c8c9c9dcd", "type": "electric_scooter", "lat": 38.89484366666667, "is_reserved": 0, "lon": -77.021275, "fusion_lon": 0.0, "is_disabled": 0, "fusion_lat": 0.0, "bike_id": "8ec8ae848e66e14d8f601b6c8c9c9dcd", "rental_uris": {"ios": "https://dc.lft.to/lastmile_qr_scan", "android": "https://dc.lft.to/lastmile_qr_scan"}}, {"name": "f2997ca66ca07dc77590316f27eb9e0c", "type": "electric_scooter", "lat": 38.9296675, "is_reserved": 0, "lon": -77.00531183333334, "fusion_lon": 0.0, "is_disabled": 0, "fusion_lat": 0.0, "bike_id": "f2997ca66ca07dc77590316f27eb9e0c", "rental_uris": {"ios": "https://dc.lft.to/lastmile_qr_scan", "android": "https://dc.lft.to/lastmile_qr_scan"}}, {"name": "bc3364b61921c2ec4eb7e574827c4448", "type": "electric_scooter", "lat": 38.887713, "is_reserved": 0, "lon": -76.93262916666667, "fusion_lon": 0.0, "is_disabled": 0, "fusion_lat": 0.0, "bike_id": "bc3364b61921c2ec4eb7e574827c4448", "rental_uris": {"ios": "https://dc.lft.to/lastmile_qr_scan", "android": "https://dc.lft.to/lastmile_qr_scan"}}, {"name": "e1dc24a02fb01ffee1478898d80a50ad", "type": "electric_scooter", "lat": 38.92647433333333, "is_reserved": 0, "lon": -77.03468816666667, "fusion_lon": 0.0, "is_disabled": 0, "fusion_lat": 0.0, "bike_id": "e1dc24a02fb01ffee1478898d80a50ad", "rental_uris": {"ios": "https://dc.lft.to/lastmile_qr_scan", "android": "https://dc.lft.to/lastmile_qr_scan"}}, {"name": "12a3ee8c5d7ddeb409a4414f8db96df7", "type": "electric_scooter", "lat": 38.93865383333333, "is_reserved": 0, "lon": -77.02674333333333, "fusion_lon": 0.0, "is_disabled": 0, "fusion_lat": 0.0, "bike_id": "12a3ee8c5d7ddeb409a4414f8db96df7", "rental_uris": {"ios": "https://dc.lft.to/lastmile_qr_scan", "android": "https://dc.lft.to/lastmile_qr_scan"}}, {"name": "caf23755acf8d5e02c73e807722c6440", "type": "electric_scooter", "lat": 38.89673033333333, "is_reserved": 0, "lon": -77.02620033333334, "fusion_lon": 0.0, "is_disabled": 0, "fusion_lat": 0.0, "bike_id": "caf23755acf8d5e02c73e807722c6440", "rental_uris": {"ios": "https://dc.lft.to/lastmile_qr_scan", "android": "https://dc.lft.to/lastmile_qr_scan"}}, {"name": "60bc33863596f478123018953d0b36ce", "type": "electric_scooter", "lat": 38.92792816666667, "is_reserved": 0, "lon": -77.0435905, "fusion_lon": 0.0, "is_disabled": 0, "fusion_lat": 0.0, "bike_id": "60bc33863596f478123018953d0b36ce", "rental_uris": {"ios": "https://dc.lft.to/lastmile_qr_scan", "android": "https://dc.lft.to/lastmile_qr_scan"}}, {"name": "2afaa21bcd869c7c5f2ba1d1480f382c", "type": "electric_scooter", "lat": 38.949433, "is_reserved": 0, "lon": -77.0162415, "fusion_lon": 0.0, "is_disabled": 0, "fusion_lat": 0.0, "bike_id": "2afaa21bcd869c7c5f2ba1d1480f382c", "rental_uris": {"ios": "https://dc.lft.to/lastmile_qr_scan", "android": "https://dc.lft.to/lastmile_qr_scan"}}, {"name": "9c292651b87da172666cf4ec6b24bce5", "type": "electric_scooter", "lat": 38.90049416666667, "is_reserved": 0, "lon": -77.02605883333334, "fusion_lon": 0.0, "is_disabled": 0, "fusion_lat": 0.0, "bike_id": "9c292651b87da172666cf4ec6b24bce5", "rental_uris": {"ios": "https://dc.lft.to/lastmile_qr_scan", "android": "https://dc.lft.to/lastmile_qr_scan"}}, {"name": "6fbb3f2d2ce3a4d67722209a7787fd22", "type": "electric_scooter", "lat": 38.91103366666667, "is_reserved": 0, "lon": -77.04673283333334, "fusion_lon": 0.0, "is_disabled": 0, "fusion_lat": 0.0, "bike_id": "6fbb3f2d2ce3a4d67722209a7787fd22", "rental_uris": {"ios": "https://dc.lft.to/lastmile_qr_scan", "android": "https://dc.lft.to/lastmile_qr_scan"}}, {"name": "ad1d5e0e90d31e40beec907eb4fc8f07", "type": "electric_scooter", "lat": 38.9031395, "is_reserved": 0, "lon": -77.03805033333333, "fusion_lon": 0.0, "is_disabled": 0, "fusion_lat": 0.0, "bike_id": "ad1d5e0e90d31e40beec907eb4fc8f07", "rental_uris": {"ios": "https://dc.lft.to/lastmile_qr_scan", "android": "https://dc.lft.to/lastmile_qr_scan"}}, {"name": "91e19784d3828efded1d976658ce6115", "type": "electric_scooter", "lat": 38.915683333333334, "is_reserved": 0, "lon": -77.04665083333333, "fusion_lon": 0.0, "is_disabled": 0, "fusion_lat": 0.0, "bike_id": "91e19784d3828efded1d976658ce6115", "rental_uris": {"ios": "https://dc.lft.to/lastmile_qr_scan", "android": "https://dc.lft.to/lastmile_qr_scan"}}, {"name": "fd0953e3ebc6dd7d4dc06d8665d243da", "type": "electric_scooter", "lat": 38.898147, "is_reserved": 0, "lon": -77.03315683333334, "fusion_lon": 0.0, "is_disabled": 0, "fusion_lat": 0.0, "bike_id": "fd0953e3ebc6dd7d4dc06d8665d243da", "rental_uris": {"ios": "https://dc.lft.to/lastmile_qr_scan", "android": "https://dc.lft.to/lastmile_qr_scan"}}, {"name": "1bfe57ef8aa193493326bc02f97bdedd", "type": "electric_scooter", "lat": 38.89345933333333, "is_reserved": 0, "lon": -76.99144233333334, "fusion_lon": 0.0, "is_disabled": 0, "fusion_lat": 0.0, "bike_id": "1bfe57ef8aa193493326bc02f97bdedd", "rental_uris": {"ios": "https://dc.lft.to/lastmile_qr_scan", "android": "https://dc.lft.to/lastmile_qr_scan"}}, {"name": "8c50a232ea88ea37c92c87c79a0b561a", "type": "electric_scooter", "lat": 38.924727833333336, "is_reserved": 0, "lon": -77.02833, "fusion_lon": 0.0, "is_disabled": 0, "fusion_lat": 0.0, "bike_id": "8c50a232ea88ea37c92c87c79a0b561a", "rental_uris": {"ios": "https://dc.lft.to/lastmile_qr_scan", "android": "https://dc.lft.to/lastmile_qr_scan"}}, {"name": "23236e3aae49c10adccaec0531b38703", "type": "electric_scooter", "lat": 38.90355133333333, "is_reserved": 0, "lon": -77.03884, "fusion_lon": 0.0, "is_disabled": 0, "fusion_lat": 0.0, "bike_id": "23236e3aae49c10adccaec0531b38703", "rental_uris": {"ios": "https://dc.lft.to/lastmile_qr_scan", "android": "https://dc.lft.to/lastmile_qr_scan"}}, {"name": "4fafa29e1a8836fea6bf9e29a6cc724b", "type": "electric_scooter", "lat": 38.9287475, "is_reserved": 0, "lon": -77.03480966666666, "fusion_lon": 0.0, "is_disabled": 0, "fusion_lat": 0.0, "bike_id": "4fafa29e1a8836fea6bf9e29a6cc724b", "rental_uris": {"ios": "https://dc.lft.to/lastmile_qr_scan", "android": "https://dc.lft.to/lastmile_qr_scan"}}, {"name": "229f668c32cead7723489b5bea98dfc8", "type": "electric_scooter", "lat": 38.92278683333333, "is_reserved": 0, "lon": -77.03664133333334, "fusion_lon": 0.0, "is_disabled": 0, "fusion_lat": 0.0, "bike_id": "229f668c32cead7723489b5bea98dfc8", "rental_uris": {"ios": "https://dc.lft.to/lastmile_qr_scan", "android": "https://dc.lft.to/lastmile_qr_scan"}}, {"name": "0034fa1fda03ddabd315ffbb58b2d565", "type": "electric_scooter", "lat": 38.902589166666665, "is_reserved": 0, "lon": -77.05401216666667, "fusion_lon": 0.0, "is_disabled": 0, "fusion_lat": 0.0, "bike_id": "0034fa1fda03ddabd315ffbb58b2d565", "rental_uris": {"ios": "https://dc.lft.to/lastmile_qr_scan", "android": "https://dc.lft.to/lastmile_qr_scan"}}, {"name": "761ba23d76dc0115787c586d3ccc585d", "type": "electric_scooter", "lat": 38.8947535, "is_reserved": 0, "lon": -76.9953755, "fusion_lon": 0.0, "is_disabled": 0, "fusion_lat": 0.0, "bike_id": "761ba23d76dc0115787c586d3ccc585d", "rental_uris": {"ios": "https://dc.lft.to/lastmile_qr_scan", "android": "https://dc.lft.to/lastmile_qr_scan"}}, {"name": "8fbdb5a01293f28a7be3655844dec1e6", "type": "electric_scooter", "lat": 38.88590633333333, "is_reserved": 0, "lon": -77.02001583333333, "fusion_lon": 0.0, "is_disabled": 0, "fusion_lat": 0.0, "bike_id": "8fbdb5a01293f28a7be3655844dec1e6", "rental_uris": {"ios": "https://dc.lft.to/lastmile_qr_scan", "android": "https://dc.lft.to/lastmile_qr_scan"}}, {"name": "64009df4278101e27231976d98eb2174", "type": "electric_scooter", "lat": 38.91732316666667, "is_reserved": 0, "lon": -77.02295533333333, "fusion_lon": 0.0, "is_disabled": 0, "fusion_lat": 0.0, "bike_id": "64009df4278101e27231976d98eb2174", "rental_uris": {"ios": "https://dc.lft.to/lastmile_qr_scan", "android": "https://dc.lft.to/lastmile_qr_scan"}}, {"name": "5c48f2aa80df9f7686dc699f08a55a78", "type": "electric_scooter", "lat": 38.92287783333333, "is_reserved": 0, "lon": -77.04255166666667, "fusion_lon": 0.0, "is_disabled": 0, "fusion_lat": 0.0, "bike_id": "5c48f2aa80df9f7686dc699f08a55a78", "rental_uris": {"ios": "https://dc.lft.to/lastmile_qr_scan", "android": "https://dc.lft.to/lastmile_qr_scan"}}, {"name": "ac58149b209de729da4f51f3763fb535", "type": "electric_scooter", "lat": 38.879139333333335, "is_reserved": 0, "lon": -77.01738133333333, "fusion_lon": 0.0, "is_disabled": 0, "fusion_lat": 0.0, "bike_id": "ac58149b209de729da4f51f3763fb535", "rental_uris": {"ios": "https://dc.lft.to/lastmile_qr_scan", "android": "https://dc.lft.to/lastmile_qr_scan"}}, {"name": "ebe9918b5065ea1c10966718fcc1f777", "type": "electric_scooter", "lat": 38.922744333333334, "is_reserved": 0, "lon": -77.036622, "fusion_lon": 0.0, "is_disabled": 0, "fusion_lat": 0.0, "bike_id": "ebe9918b5065ea1c10966718fcc1f777", "rental_uris": {"ios": "https://dc.lft.to/lastmile_qr_scan", "android": "https://dc.lft.to/lastmile_qr_scan"}}, {"name": "97a1ba85fb371b2afe5016283e896f07", "type": "electric_scooter", "lat": 38.9058595, "is_reserved": 0, "lon": -77.0343085, "fusion_lon": 0.0, "is_disabled": 0, "fusion_lat": 0.0, "bike_id": "97a1ba85fb371b2afe5016283e896f07", "rental_uris": {"ios": "https://dc.lft.to/lastmile_qr_scan", "android": "https://dc.lft.to/lastmile_qr_scan"}}, {"name": "2b3c9d500ab6ad94d479e06d073803a3", "type": "electric_bike", "lat": 38.83932166666666, "is_reserved": 0, "lon": -77.07902916666667, "fusion_lon": 0.0, "is_disabled": 0, "fusion_lat": 0.0, "bike_id": "2b3c9d500ab6ad94d479e06d073803a3", "rental_uris": {"ios": "https://dc.lft.to/lastmile_qr_scan", "android": "https://dc.lft.to/lastmile_qr_scan"}}, {"name": "9e678c8e75bad82153db700992d6e095", "type": "electric_scooter", "lat": 38.93268116666667, "is_reserved": 0, "lon": -77.03284516666666, "fusion_lon": 0.0, "is_disabled": 0, "fusion_lat": 0.0, "bike_id": "9e678c8e75bad82153db700992d6e095", "rental_uris": {"ios": "https://dc.lft.to/lastmile_qr_scan", "android": "https://dc.lft.to/lastmile_qr_scan"}}, {"name": "832df252f4f30238068247634f914dfb", "type": "electric_scooter", "lat": 38.91818266666667, "is_reserved": 0, "lon": -77.02314633333333, "fusion_lon": 0.0, "is_disabled": 0, "fusion_lat": 0.0, "bike_id": "832df252f4f30238068247634f914dfb", "rental_uris": {"ios": "https://dc.lft.to/lastmile_qr_scan", "android": "https://dc.lft.to/lastmile_qr_scan"}}, {"name": "0d5c07562274c0f9f986f583e6fb3222", "type": "electric_scooter", "lat": 38.92186616666667, "is_reserved": 0, "lon": -77.04284883333334, "fusion_lon": 0.0, "is_disabled": 0, "fusion_lat": 0.0, "bike_id": "0d5c07562274c0f9f986f583e6fb3222", "rental_uris": {"ios": "https://dc.lft.to/lastmile_qr_scan", "android": "https://dc.lft.to/lastmile_qr_scan"}}, {"name": "d79570aa9a8e3721f36335968043f6e3", "type": "electric_scooter", "lat": 38.89609083333333, "is_reserved": 0, "lon": -77.05084, "fusion_lon": 0.0, "is_disabled": 0, "fusion_lat": 0.0, "bike_id": "d79570aa9a8e3721f36335968043f6e3", "rental_uris": {"ios": "https://dc.lft.to/lastmile_qr_scan", "android": "https://dc.lft.to/lastmile_qr_scan"}}, {"name": "29d3875c1a47982530d107e7c7e7b699", "type": "electric_scooter", "lat": 38.89223033333333, "is_reserved": 0, "lon": -77.04641133333334, "fusion_lon": 0.0, "is_disabled": 0, "fusion_lat": 0.0, "bike_id": "29d3875c1a47982530d107e7c7e7b699", "rental_uris": {"ios": "https://dc.lft.to/lastmile_qr_scan", "android": "https://dc.lft.to/lastmile_qr_scan"}}, {"name": "47d9526d7d924d68cfcd9aba9aebdb5d", "type": "electric_scooter", "lat": 38.921515, "is_reserved": 0, "lon": -77.03658783333333, "fusion_lon": 0.0, "is_disabled": 0, "fusion_lat": 0.0, "bike_id": "47d9526d7d924d68cfcd9aba9aebdb5d", "rental_uris": {"ios": "https://dc.lft.to/lastmile_qr_scan", "android": "https://dc.lft.to/lastmile_qr_scan"}}, {"name": "4ca69c28f7efd2292e876a83a5b3b848", "type": "electric_scooter", "lat": 38.94956083333334, "is_reserved": 0, "lon": -77.027241, "fusion_lon": 0.0, "is_disabled": 0, "fusion_lat": 0.0, "bike_id": "4ca69c28f7efd2292e876a83a5b3b848", "rental_uris": {"ios": "https://dc.lft.to/lastmile_qr_scan", "android": "https://dc.lft.to/lastmile_qr_scan"}}, {"name": "05fa26b740109bea4a891fd54148e9c0", "type": "electric_scooter", "lat": 38.9272215, "is_reserved": 0, "lon": -77.02499516666667, "fusion_lon": 0.0, "is_disabled": 0, "fusion_lat": 0.0, "bike_id": "05fa26b740109bea4a891fd54148e9c0", "rental_uris": {"ios": "https://dc.lft.to/lastmile_qr_scan", "android": "https://dc.lft.to/lastmile_qr_scan"}}, {"name": "92967b87f89faa678c368667ca01d9c4", "type": "electric_scooter", "lat": 38.927499166666664, "is_reserved": 0, "lon": -77.05378166666667, "fusion_lon": 0.0, "is_disabled": 0, "fusion_lat": 0.0, "bike_id": "92967b87f89faa678c368667ca01d9c4", "rental_uris": {"ios": "https://dc.lft.to/lastmile_qr_scan", "android": "https://dc.lft.to/lastmile_qr_scan"}}, {"name": "2a200abcf1dee250cae3f7302ff8579e", "type": "electric_scooter", "lat": 38.939452833333334, "is_reserved": 0, "lon": -77.03266716666667, "fusion_lon": 0.0, "is_disabled": 0, "fusion_lat": 0.0, "bike_id": "2a200abcf1dee250cae3f7302ff8579e", "rental_uris": {"ios": "https://dc.lft.to/lastmile_qr_scan", "android": "https://dc.lft.to/lastmile_qr_scan"}}, {"name": "564f9e0c44675fe2b4239a383495fc45", "type": "electric_bike", "lat": 38.80697033333333, "is_reserved": 0, "lon": -77.05963166666666, "fusion_lon": 0.0, "is_disabled": 0, "fusion_lat": 0.0, "bike_id": "564f9e0c44675fe2b4239a383495fc45", "rental_uris": {"ios": "https://dc.lft.to/lastmile_qr_scan", "android": "https://dc.lft.to/lastmile_qr_scan"}}, {"name": "741b0cf880757ca1e86fe9288fd4ddf7", "type": "electric_scooter", "lat": 38.922347333333335, "is_reserved": 0, "lon": -77.03526466666666, "fusion_lon": 0.0, "is_disabled": 0, "fusion_lat": 0.0, "bike_id": "741b0cf880757ca1e86fe9288fd4ddf7", "rental_uris": {"ios": "https://dc.lft.to/lastmile_qr_scan", "android": "https://dc.lft.to/lastmile_qr_scan"}}, {"name": "62b23b9f4f433c9ef68b0a8e99fa8942", "type": "electric_bike", "lat": 38.83235583333333, "is_reserved": 0, "lon": -77.0071955, "fusion_lon": 0.0, "is_disabled": 0, "fusion_lat": 0.0, "bike_id": "62b23b9f4f433c9ef68b0a8e99fa8942", "rental_uris": {"ios": "https://dc.lft.to/lastmile_qr_scan", "android": "https://dc.lft.to/lastmile_qr_scan"}}, {"name": "fb63a3234f3727a58ee52f5bcb052b3d", "type": "electric_bike", "lat": 38.85221466666667, "is_reserved": 0, "lon": -77.129608, "fusion_lon": 0.0, "is_disabled": 0, "fusion_lat": 0.0, "bike_id": "fb63a3234f3727a58ee52f5bcb052b3d", "rental_uris": {"ios": "https://dc.lft.to/lastmile_qr_scan", "android": "https://dc.lft.to/lastmile_qr_scan"}}, {"name": "ecaf0c0eda468bca49b7d1ed260f9a25", "type": "electric_scooter", "lat": 38.924847666666665, "is_reserved": 0, "lon": -77.02714233333333, "fusion_lon": 0.0, "is_disabled": 0, "fusion_lat": 0.0, "bike_id": "ecaf0c0eda468bca49b7d1ed260f9a25", "rental_uris": {"ios": "https://dc.lft.to/lastmile_qr_scan", "android": "https://dc.lft.to/lastmile_qr_scan"}}, {"name": "f3b3ebaf3ccfe34840ec4567a334625b", "type": "electric_scooter", "lat": 38.9057895, "is_reserved": 0, "lon": -77.06276966666667, "fusion_lon": 0.0, "is_disabled": 0, "fusion_lat": 0.0, "bike_id": "f3b3ebaf3ccfe34840ec4567a334625b", "rental_uris": {"ios": "https://dc.lft.to/lastmile_qr_scan", "android": "https://dc.lft.to/lastmile_qr_scan"}}, {"name": "4cfd928a0b5f9ea4a6f046101e4cc7f8", "type": "electric_bike", "lat": 38.984514833333336, "is_reserved": 0, "lon": -76.95521433333333, "fusion_lon": 0.0, "is_disabled": 0, "fusion_lat": 0.0, "bike_id": "4cfd928a0b5f9ea4a6f046101e4cc7f8", "rental_uris": {"ios": "https://dc.lft.to/lastmile_qr_scan", "android": "https://dc.lft.to/lastmile_qr_scan"}}, {"name": "dda8ad5fe10e646ede0eb320417ed916", "type": "electric_scooter", "lat": 38.882973166666666, "is_reserved": 0, "lon": -77.01780266666667, "fusion_lon": 0.0, "is_disabled": 0, "fusion_lat": 0.0, "bike_id": "dda8ad5fe10e646ede0eb320417ed916", "rental_uris": {"ios": "https://dc.lft.to/lastmile_qr_scan", "android": "https://dc.lft.to/lastmile_qr_scan"}}, {"name": "af9fc682f33a57c951d4669254c26b1c", "type": "electric_scooter", "lat": 38.93951166666667, "is_reserved": 0, "lon": -77.032664, "fusion_lon": 0.0, "is_disabled": 0, "fusion_lat": 0.0, "bike_id": "af9fc682f33a57c951d4669254c26b1c", "rental_uris": {"ios": "https://dc.lft.to/lastmile_qr_scan", "android": "https://dc.lft.to/lastmile_qr_scan"}}, {"name": "9fbdcc813fb65f1cff55644350da73b5", "type": "electric_scooter", "lat": 38.8859235, "is_reserved": 0, "lon": -76.95273766666666, "fusion_lon": 0.0, "is_disabled": 0, "fusion_lat": 0.0, "bike_id": "9fbdcc813fb65f1cff55644350da73b5", "rental_uris": {"ios": "https://dc.lft.to/lastmile_qr_scan", "android": "https://dc.lft.to/lastmile_qr_scan"}}, {"name": "cb4636a378a7a20bb54e4ddc5c65ad0b", "type": "electric_scooter", "lat": 38.90279866666667, "is_reserved": 0, "lon": -77.04060816666667, "fusion_lon": 0.0, "is_disabled": 0, "fusion_lat": 0.0, "bike_id": "cb4636a378a7a20bb54e4ddc5c65ad0b", "rental_uris": {"ios": "https://dc.lft.to/lastmile_qr_scan", "android": "https://dc.lft.to/lastmile_qr_scan"}}, {"name": "0d9a363c2bc5d063c0569dbb918b7205", "type": "electric_bike", "lat": 38.86594316666667, "is_reserved": 0, "lon": -76.93231333333334, "fusion_lon": 0.0, "is_disabled": 0, "fusion_lat": 0.0, "bike_id": "0d9a363c2bc5d063c0569dbb918b7205", "rental_uris": {"ios": "https://dc.lft.to/lastmile_qr_scan", "android": "https://dc.lft.to/lastmile_qr_scan"}}, {"name": "e442a17ae99c05f9085254aa36dd5ed9", "type": "electric_scooter", "lat": 38.90529433333333, "is_reserved": 0, "lon": -77.06516466666666, "fusion_lon": 0.0, "is_disabled": 0, "fusion_lat": 0.0, "bike_id": "e442a17ae99c05f9085254aa36dd5ed9", "rental_uris": {"ios": "https://dc.lft.to/lastmile_qr_scan", "android": "https://dc.lft.to/lastmile_qr_scan"}}, {"name": "8f108ecae7cc75b49d2c1839afc23e6a", "type": "electric_scooter", "lat": 38.9255065, "is_reserved": 0, "lon": -77.00092333333333, "fusion_lon": 0.0, "is_disabled": 0, "fusion_lat": 0.0, "bike_id": "8f108ecae7cc75b49d2c1839afc23e6a", "rental_uris": {"ios": "https://dc.lft.to/lastmile_qr_scan", "android": "https://dc.lft.to/lastmile_qr_scan"}}, {"name": "6177d0e78e9abd571e74aef14c645739", "type": "electric_scooter", "lat": 38.927209500000004, "is_reserved": 0, "lon": -77.03977216666667, "fusion_lon": 0.0, "is_disabled": 0, "fusion_lat": 0.0, "bike_id": "6177d0e78e9abd571e74aef14c645739", "rental_uris": {"ios": "https://dc.lft.to/lastmile_qr_scan", "android": "https://dc.lft.to/lastmile_qr_scan"}}, {"name": "1806577ceff0d961ef5ab07de9f0b682", "type": "electric_scooter", "lat": 38.8995825, "is_reserved": 0, "lon": -77.05270333333333, "fusion_lon": 0.0, "is_disabled": 0, "fusion_lat": 0.0, "bike_id": "1806577ceff0d961ef5ab07de9f0b682", "rental_uris": {"ios": "https://dc.lft.to/lastmile_qr_scan", "android": "https://dc.lft.to/lastmile_qr_scan"}}, {"name": "eef0817941facc2e5af390196bca5fa6", "type": "electric_scooter", "lat": 38.904837666666666, "is_reserved": 0, "lon": -77.02978366666666, "fusion_lon": 0.0, "is_disabled": 0, "fusion_lat": 0.0, "bike_id": "eef0817941facc2e5af390196bca5fa6", "rental_uris": {"ios": "https://dc.lft.to/lastmile_qr_scan", "android": "https://dc.lft.to/lastmile_qr_scan"}}, {"name": "9a0043a2f5eb33478d1c3cd7c832e693", "type": "electric_scooter", "lat": 38.901285333333334, "is_reserved": 0, "lon": -77.03312216666667, "fusion_lon": 0.0, "is_disabled": 0, "fusion_lat": 0.0, "bike_id": "9a0043a2f5eb33478d1c3cd7c832e693", "rental_uris": {"ios": "https://dc.lft.to/lastmile_qr_scan", "android": "https://dc.lft.to/lastmile_qr_scan"}}, {"name": "4638529d01ed9a4eca2ac69d1431faa7", "type": "electric_scooter", "lat": 38.91568866666667, "is_reserved": 0, "lon": -77.021956, "fusion_lon": 0.0, "is_disabled": 0, "fusion_lat": 0.0, "bike_id": "4638529d01ed9a4eca2ac69d1431faa7", "rental_uris": {"ios": "https://dc.lft.to/lastmile_qr_scan", "android": "https://dc.lft.to/lastmile_qr_scan"}}, {"name": "4bc876bffc34692657938283cda627d4", "type": "electric_scooter", "lat": 38.9196135, "is_reserved": 0, "lon": -77.01438433333334, "fusion_lon": 0.0, "is_disabled": 0, "fusion_lat": 0.0, "bike_id": "4bc876bffc34692657938283cda627d4", "rental_uris": {"ios": "https://dc.lft.to/lastmile_qr_scan", "android": "https://dc.lft.to/lastmile_qr_scan"}}, {"name": "e8e3a6e516b4ae727fcf7f5f1e07bd4b", "type": "electric_scooter", "lat": 38.927075, "is_reserved": 0, "lon": -77.02097666666667, "fusion_lon": 0.0, "is_disabled": 0, "fusion_lat": 0.0, "bike_id": "e8e3a6e516b4ae727fcf7f5f1e07bd4b", "rental_uris": {"ios": "https://dc.lft.to/lastmile_qr_scan", "android": "https://dc.lft.to/lastmile_qr_scan"}}, {"name": "d567b416a555540ba0126961c675dfd4", "type": "electric_bike", "lat": 38.93714, "is_reserved": 0, "lon": -77.02101816666666, "fusion_lon": 0.0, "is_disabled": 0, "fusion_lat": 0.0, "bike_id": "d567b416a555540ba0126961c675dfd4", "rental_uris": {"ios": "https://dc.lft.to/lastmile_qr_scan", "android": "https://dc.lft.to/lastmile_qr_scan"}}, {"name": "4d8cc222bc7fa23d5cb89aadabbb7a92", "type": "electric_bike", "lat": 38.874793833333335, "is_reserved": 0, "lon": -76.965269, "fusion_lon": 0.0, "is_disabled": 0, "fusion_lat": 0.0, "bike_id": "4d8cc222bc7fa23d5cb89aadabbb7a92", "rental_uris": {"ios": "https://dc.lft.to/lastmile_qr_scan", "android": "https://dc.lft.to/lastmile_qr_scan"}}, {"name": "8854b9b0d4cdc8dbc2679d1f27b7aea5", "type": "electric_scooter", "lat": 38.90236766666666, "is_reserved": 0, "lon": -77.0534215, "fusion_lon": 0.0, "is_disabled": 0, "fusion_lat": 0.0, "bike_id": "8854b9b0d4cdc8dbc2679d1f27b7aea5", "rental_uris": {"ios": "https://dc.lft.to/lastmile_qr_scan", "android": "https://dc.lft.to/lastmile_qr_scan"}}, {"name": "5b7b35315fe3ed41595bc6c8e1f8e946", "type": "electric_scooter", "lat": 38.90526, "is_reserved": 0, "lon": -77.0515915, "fusion_lon": 0.0, "is_disabled": 0, "fusion_lat": 0.0, "bike_id": "5b7b35315fe3ed41595bc6c8e1f8e946", "rental_uris": {"ios": "https://dc.lft.to/lastmile_qr_scan", "android": "https://dc.lft.to/lastmile_qr_scan"}}, {"name": "9da9c2bc144ff8a74b7046175608691f", "type": "electric_scooter", "lat": 38.908635833333335, "is_reserved": 0, "lon": -77.04257966666667, "fusion_lon": 0.0, "is_disabled": 0, "fusion_lat": 0.0, "bike_id": "9da9c2bc144ff8a74b7046175608691f", "rental_uris": {"ios": "https://dc.lft.to/lastmile_qr_scan", "android": "https://dc.lft.to/lastmile_qr_scan"}}, {"name": "06774fee0ca4f2231ffb8bf49c497c7c", "type": "electric_scooter", "lat": 38.89371366666666, "is_reserved": 0, "lon": -76.94984966666667, "fusion_lon": 0.0, "is_disabled": 0, "fusion_lat": 0.0, "bike_id": "06774fee0ca4f2231ffb8bf49c497c7c", "rental_uris": {"ios": "https://dc.lft.to/lastmile_qr_scan", "android": "https://dc.lft.to/lastmile_qr_scan"}}, {"name": "fedd453c6d25ea1b44907c7ee18cd343", "type": "electric_scooter", "lat": 38.8981535, "is_reserved": 0, "lon": -77.02722733333333, "fusion_lon": 0.0, "is_disabled": 0, "fusion_lat": 0.0, "bike_id": "fedd453c6d25ea1b44907c7ee18cd343", "rental_uris": {"ios": "https://dc.lft.to/lastmile_qr_scan", "android": "https://dc.lft.to/lastmile_qr_scan"}}, {"name": "707fd9807ee4452d185bcc2e31184bc4", "type": "electric_scooter", "lat": 38.882049333333335, "is_reserved": 0, "lon": -77.01449566666666, "fusion_lon": 0.0, "is_disabled": 0, "fusion_lat": 0.0, "bike_id": "707fd9807ee4452d185bcc2e31184bc4", "rental_uris": {"ios": "https://dc.lft.to/lastmile_qr_scan", "android": "https://dc.lft.to/lastmile_qr_scan"}}, {"name": "ca9bfd73392a60899d2f2c951a955594", "type": "electric_scooter", "lat": 38.906813666666665, "is_reserved": 0, "lon": -77.03821483333333, "fusion_lon": 0.0, "is_disabled": 0, "fusion_lat": 0.0, "bike_id": "ca9bfd73392a60899d2f2c951a955594", "rental_uris": {"ios": "https://dc.lft.to/lastmile_qr_scan", "android": "https://dc.lft.to/lastmile_qr_scan"}}, {"name": "1e4c2445bb746c07baff52974ba1b661", "type": "electric_scooter", "lat": 38.925208166666664, "is_reserved": 0, "lon": -77.03522883333333, "fusion_lon": 0.0, "is_disabled": 0, "fusion_lat": 0.0, "bike_id": "1e4c2445bb746c07baff52974ba1b661", "rental_uris": {"ios": "https://dc.lft.to/lastmile_qr_scan", "android": "https://dc.lft.to/lastmile_qr_scan"}}, {"name": "d2b2f2327847577a8c0221b4395105bf", "type": "electric_scooter", "lat": 38.92167116666667, "is_reserved": 0, "lon": -77.02680733333334, "fusion_lon": 0.0, "is_disabled": 0, "fusion_lat": 0.0, "bike_id": "d2b2f2327847577a8c0221b4395105bf", "rental_uris": {"ios": "https://dc.lft.to/lastmile_qr_scan", "android": "https://dc.lft.to/lastmile_qr_scan"}}, {"name": "d9b5b01bba836630b9c24b28581b87be", "type": "electric_scooter", "lat": 38.90840266666667, "is_reserved": 0, "lon": -77.02691666666666, "fusion_lon": 0.0, "is_disabled": 0, "fusion_lat": 0.0, "bike_id": "d9b5b01bba836630b9c24b28581b87be", "rental_uris": {"ios": "https://dc.lft.to/lastmile_qr_scan", "android": "https://dc.lft.to/lastmile_qr_scan"}}, {"name": "76ed69f6a316b0649dbcb3ccf2cf1815", "type": "electric_scooter", "lat": 38.912054833333336, "is_reserved": 0, "lon": -77.00660116666667, "fusion_lon": 0.0, "is_disabled": 0, "fusion_lat": 0.0, "bike_id": "76ed69f6a316b0649dbcb3ccf2cf1815", "rental_uris": {"ios": "https://dc.lft.to/lastmile_qr_scan", "android": "https://dc.lft.to/lastmile_qr_scan"}}, {"name": "992bdf7587abe5d4b833acf4ea7e87c7", "type": "electric_scooter", "lat": 38.91854766666667, "is_reserved": 0, "lon": -76.96548783333333, "fusion_lon": 0.0, "is_disabled": 0, "fusion_lat": 0.0, "bike_id": "992bdf7587abe5d4b833acf4ea7e87c7", "rental_uris": {"ios": "https://dc.lft.to/lastmile_qr_scan", "android": "https://dc.lft.to/lastmile_qr_scan"}}, {"name": "0bfc96a03ae7955da6255bca0ca94905", "type": "electric_bike", "lat": 38.95530016666667, "is_reserved": 0, "lon": -77.022966, "fusion_lon": 0.0, "is_disabled": 0, "fusion_lat": 0.0, "bike_id": "0bfc96a03ae7955da6255bca0ca94905", "rental_uris": {"ios": "https://dc.lft.to/lastmile_qr_scan", "android": "https://dc.lft.to/lastmile_qr_scan"}}, {"name": "854ed903835c1ed12fc6d58c1244e084", "type": "electric_scooter", "lat": 38.92059916666667, "is_reserved": 0, "lon": -77.02979666666667, "fusion_lon": 0.0, "is_disabled": 0, "fusion_lat": 0.0, "bike_id": "854ed903835c1ed12fc6d58c1244e084", "rental_uris": {"ios": "https://dc.lft.to/lastmile_qr_scan", "android": "https://dc.lft.to/lastmile_qr_scan"}}, {"name": "24bc18ebbe0127c1e488f4853f44c858", "type": "electric_scooter", "lat": 38.92631016666667, "is_reserved": 0, "lon": -77.03511616666667, "fusion_lon": 0.0, "is_disabled": 0, "fusion_lat": 0.0, "bike_id": "24bc18ebbe0127c1e488f4853f44c858", "rental_uris": {"ios": "https://dc.lft.to/lastmile_qr_scan", "android": "https://dc.lft.to/lastmile_qr_scan"}}, {"name": "70be502a165c1b80d96e174a583abae4", "type": "electric_scooter", "lat": 38.909709666666664, "is_reserved": 0, "lon": -77.017115, "fusion_lon": 0.0, "is_disabled": 0, "fusion_lat": 0.0, "bike_id": "70be502a165c1b80d96e174a583abae4", "rental_uris": {"ios": "https://dc.lft.to/lastmile_qr_scan", "android": "https://dc.lft.to/lastmile_qr_scan"}}, {"name": "fd68b1fed43f0fc9d56917d7c7f7c12e", "type": "electric_scooter", "lat": 38.90587766666667, "is_reserved": 0, "lon": -77.06524716666667, "fusion_lon": 0.0, "is_disabled": 0, "fusion_lat": 0.0, "bike_id": "fd68b1fed43f0fc9d56917d7c7f7c12e", "rental_uris": {"ios": "https://dc.lft.to/lastmile_qr_scan", "android": "https://dc.lft.to/lastmile_qr_scan"}}, {"name": "0a343cd09ae2db20b0fd3c7469e34da3", "type": "electric_scooter", "lat": 38.919738833333334, "is_reserved": 0, "lon": -77.00107633333333, "fusion_lon": 0.0, "is_disabled": 0, "fusion_lat": 0.0, "bike_id": "0a343cd09ae2db20b0fd3c7469e34da3", "rental_uris": {"ios": "https://dc.lft.to/lastmile_qr_scan", "android": "https://dc.lft.to/lastmile_qr_scan"}}, {"name": "4c644371440525a5c3ca746c337f7d6a", "type": "electric_scooter", "lat": 38.923413333333336, "is_reserved": 0, "lon": -77.01902033333333, "fusion_lon": 0.0, "is_disabled": 0, "fusion_lat": 0.0, "bike_id": "4c644371440525a5c3ca746c337f7d6a", "rental_uris": {"ios": "https://dc.lft.to/lastmile_qr_scan", "android": "https://dc.lft.to/lastmile_qr_scan"}}, {"name": "814486421a3ea14a7584a38dca1c9981", "type": "electric_scooter", "lat": 38.90523983333333, "is_reserved": 0, "lon": -77.06389083333333, "fusion_lon": 0.0, "is_disabled": 0, "fusion_lat": 0.0, "bike_id": "814486421a3ea14a7584a38dca1c9981", "rental_uris": {"ios": "https://dc.lft.to/lastmile_qr_scan", "android": "https://dc.lft.to/lastmile_qr_scan"}}, {"name": "7acbcc70bf52eb2783d35c3f74457695", "type": "electric_scooter", "lat": 38.90551833333333, "is_reserved": 0, "lon": -77.00584066666667, "fusion_lon": 0.0, "is_disabled": 0, "fusion_lat": 0.0, "bike_id": "7acbcc70bf52eb2783d35c3f74457695", "rental_uris": {"ios": "https://dc.lft.to/lastmile_qr_scan", "android": "https://dc.lft.to/lastmile_qr_scan"}}, {"name": "b19fb29568d9b4c8ea5594ffa3815617", "type": "electric_bike", "lat": 38.88837383333333, "is_reserved": 0, "lon": -76.99361933333333, "fusion_lon": 0.0, "is_disabled": 0, "fusion_lat": 0.0, "bike_id": "b19fb29568d9b4c8ea5594ffa3815617", "rental_uris": {"ios": "https://dc.lft.to/lastmile_qr_scan", "android": "https://dc.lft.to/lastmile_qr_scan"}}, {"name": "3b880fad63b32a93f45fe7313bfdb3d0", "type": "electric_scooter", "lat": 38.909682333333336, "is_reserved": 0, "lon": -77.011231, "fusion_lon": 0.0, "is_disabled": 0, "fusion_lat": 0.0, "bike_id": "3b880fad63b32a93f45fe7313bfdb3d0", "rental_uris": {"ios": "https://dc.lft.to/lastmile_qr_scan", "android": "https://dc.lft.to/lastmile_qr_scan"}}, {"name": "6543a2d4cb4181b735c0c8ed5a45d358", "type": "electric_scooter", "lat": 38.905897333333336, "is_reserved": 0, "lon": -77.06517833333334, "fusion_lon": 0.0, "is_disabled": 0, "fusion_lat": 0.0, "bike_id": "6543a2d4cb4181b735c0c8ed5a45d358", "rental_uris": {"ios": "https://dc.lft.to/lastmile_qr_scan", "android": "https://dc.lft.to/lastmile_qr_scan"}}, {"name": "987fcb68a3ab94cb2a058e8730ad605a", "type": "electric_scooter", "lat": 38.895285666666666, "is_reserved": 0, "lon": -77.03344916666667, "fusion_lon": 0.0, "is_disabled": 0, "fusion_lat": 0.0, "bike_id": "987fcb68a3ab94cb2a058e8730ad605a", "rental_uris": {"ios": "https://dc.lft.to/lastmile_qr_scan", "android": "https://dc.lft.to/lastmile_qr_scan"}}, {"name": "ad2c1b8e9576229c79c3ba1e246f141b", "type": "electric_scooter", "lat": 38.92341366666667, "is_reserved": 0, "lon": -77.05064983333334, "fusion_lon": 0.0, "is_disabled": 0, "fusion_lat": 0.0, "bike_id": "ad2c1b8e9576229c79c3ba1e246f141b", "rental_uris": {"ios": "https://dc.lft.to/lastmile_qr_scan", "android": "https://dc.lft.to/lastmile_qr_scan"}}, {"name": "30bfbff2193be0b93e7fb27b475e31f5", "type": "electric_scooter", "lat": 38.895073333333336, "is_reserved": 0, "lon": -77.00339883333334, "fusion_lon": 0.0, "is_disabled": 0, "fusion_lat": 0.0, "bike_id": "30bfbff2193be0b93e7fb27b475e31f5", "rental_uris": {"ios": "https://dc.lft.to/lastmile_qr_scan", "android": "https://dc.lft.to/lastmile_qr_scan"}}, {"name": "8e838f3ef67b03c647ff093c0fedbb5f", "type": "electric_scooter", "lat": 38.92070066666667, "is_reserved": 0, "lon": -77.022097, "fusion_lon": 0.0, "is_disabled": 0, "fusion_lat": 0.0, "bike_id": "8e838f3ef67b03c647ff093c0fedbb5f", "rental_uris": {"ios": "https://dc.lft.to/lastmile_qr_scan", "android": "https://dc.lft.to/lastmile_qr_scan"}}, {"name": "cd3ff1a261ca2347c4708489ee947512", "type": "electric_scooter", "lat": 38.89472216666667, "is_reserved": 0, "lon": -77.00132883333333, "fusion_lon": 0.0, "is_disabled": 0, "fusion_lat": 0.0, "bike_id": "cd3ff1a261ca2347c4708489ee947512", "rental_uris": {"ios": "https://dc.lft.to/lastmile_qr_scan", "android": "https://dc.lft.to/lastmile_qr_scan"}}, {"name": "fca9f6c5930d65468712e1c3ecd670ee", "type": "electric_scooter", "lat": 38.914980166666666, "is_reserved": 0, "lon": -77.01224366666666, "fusion_lon": 0.0, "is_disabled": 0, "fusion_lat": 0.0, "bike_id": "fca9f6c5930d65468712e1c3ecd670ee", "rental_uris": {"ios": "https://dc.lft.to/lastmile_qr_scan", "android": "https://dc.lft.to/lastmile_qr_scan"}}, {"name": "4c4676e248e12180b715ec2b70c16d9f", "type": "electric_scooter", "lat": 38.89037616666667, "is_reserved": 0, "lon": -77.02973433333334, "fusion_lon": 0.0, "is_disabled": 0, "fusion_lat": 0.0, "bike_id": "4c4676e248e12180b715ec2b70c16d9f", "rental_uris": {"ios": "https://dc.lft.to/lastmile_qr_scan", "android": "https://dc.lft.to/lastmile_qr_scan"}}, {"name": "c1980fadfcb042a9d29c03c64dea2804", "type": "electric_scooter", "lat": 38.92081833333334, "is_reserved": 0, "lon": -77.0252045, "fusion_lon": 0.0, "is_disabled": 0, "fusion_lat": 0.0, "bike_id": "c1980fadfcb042a9d29c03c64dea2804", "rental_uris": {"ios": "https://dc.lft.to/lastmile_qr_scan", "android": "https://dc.lft.to/lastmile_qr_scan"}}, {"name": "5f02cafcf679ffe63a74a9e383713793", "type": "electric_bike", "lat": 38.96491416666667, "is_reserved": 0, "lon": -77.064905, "fusion_lon": 0.0, "is_disabled": 0, "fusion_lat": 0.0, "bike_id": "5f02cafcf679ffe63a74a9e383713793", "rental_uris": {"ios": "https://dc.lft.to/lastmile_qr_scan", "android": "https://dc.lft.to/lastmile_qr_scan"}}, {"name": "c0aa118a3e53bcd943f4c1e4109334b8", "type": "electric_scooter", "lat": 38.9102925, "is_reserved": 0, "lon": -77.04386116666667, "fusion_lon": 0.0, "is_disabled": 0, "fusion_lat": 0.0, "bike_id": "c0aa118a3e53bcd943f4c1e4109334b8", "rental_uris": {"ios": "https://dc.lft.to/lastmile_qr_scan", "android": "https://dc.lft.to/lastmile_qr_scan"}}, {"name": "cb37d713fd5e4416b3c950572fb5696b", "type": "electric_scooter", "lat": 38.935360333333335, "is_reserved": 0, "lon": -77.03421166666666, "fusion_lon": 0.0, "is_disabled": 0, "fusion_lat": 0.0, "bike_id": "cb37d713fd5e4416b3c950572fb5696b", "rental_uris": {"ios": "https://dc.lft.to/lastmile_qr_scan", "android": "https://dc.lft.to/lastmile_qr_scan"}}, {"name": "d3c968a918ecefde54c64d4c9dfc9de0", "type": "electric_bike", "lat": 38.938800666666666, "is_reserved": 0, "lon": -76.95412966666666, "fusion_lon": 0.0, "is_disabled": 0, "fusion_lat": 0.0, "bike_id": "d3c968a918ecefde54c64d4c9dfc9de0", "rental_uris": {"ios": "https://dc.lft.to/lastmile_qr_scan", "android": "https://dc.lft.to/lastmile_qr_scan"}}, {"name": "50c84002f422f691efcb3db0a5c255d4", "type": "electric_scooter", "lat": 38.95744966666667, "is_reserved": 0, "lon": -77.02419633333334, "fusion_lon": 0.0, "is_disabled": 0, "fusion_lat": 0.0, "bike_id": "50c84002f422f691efcb3db0a5c255d4", "rental_uris": {"ios": "https://dc.lft.to/lastmile_qr_scan", "android": "https://dc.lft.to/lastmile_qr_scan"}}, {"name": "84b958a1352c99bf0b27342f63973fba", "type": "electric_scooter", "lat": 38.9564745, "is_reserved": 0, "lon": -77.03286366666667, "fusion_lon": 0.0, "is_disabled": 0, "fusion_lat": 0.0, "bike_id": "84b958a1352c99bf0b27342f63973fba", "rental_uris": {"ios": "https://dc.lft.to/lastmile_qr_scan", "android": "https://dc.lft.to/lastmile_qr_scan"}}, {"name": "7908644cc1ad9bc6b3aa51a6308c7964", "type": "electric_bike", "lat": 38.92484566666667, "is_reserved": 0, "lon": -77.07328183333334, "fusion_lon": 0.0, "is_disabled": 0, "fusion_lat": 0.0, "bike_id": "7908644cc1ad9bc6b3aa51a6308c7964", "rental_uris": {"ios": "https://dc.lft.to/lastmile_qr_scan", "android": "https://dc.lft.to/lastmile_qr_scan"}}, {"name": "f617b2e02598d607666916fbc8a9748c", "type": "electric_scooter", "lat": 38.865350666666664, "is_reserved": 0, "lon": -76.98704333333333, "fusion_lon": 0.0, "is_disabled": 0, "fusion_lat": 0.0, "bike_id": "f617b2e02598d607666916fbc8a9748c", "rental_uris": {"ios": "https://dc.lft.to/lastmile_qr_scan", "android": "https://dc.lft.to/lastmile_qr_scan"}}, {"name": "2c9cf48db792559e3eba3a68874e19be", "type": "electric_bike", "lat": 39.0885845, "is_reserved": 0, "lon": -77.17842066666667, "fusion_lon": 0.0, "is_disabled": 0, "fusion_lat": 0.0, "bike_id": "2c9cf48db792559e3eba3a68874e19be", "rental_uris": {"ios": "https://dc.lft.to/lastmile_qr_scan", "android": "https://dc.lft.to/lastmile_qr_scan"}}, {"name": "f72a139b8258b16a572985d26a24db4f", "type": "electric_bike", "lat": 38.9508595, "is_reserved": 0, "lon": -77.01230483333333, "fusion_lon": 0.0, "is_disabled": 0, "fusion_lat": 0.0, "bike_id": "f72a139b8258b16a572985d26a24db4f", "rental_uris": {"ios": "https://dc.lft.to/lastmile_qr_scan", "android": "https://dc.lft.to/lastmile_qr_scan"}}, {"name": "91737e0b5077cfbb350492b499e71105", "type": "electric_scooter", "lat": 38.915541, "is_reserved": 0, "lon": -77.02262266666666, "fusion_lon": 0.0, "is_disabled": 0, "fusion_lat": 0.0, "bike_id": "91737e0b5077cfbb350492b499e71105", "rental_uris": {"ios": "https://dc.lft.to/lastmile_qr_scan", "android": "https://dc.lft.to/lastmile_qr_scan"}}, {"name": "82401b5dc4b7edf37536b04b025b0eaf", "type": "electric_bike", "lat": 38.928554, "is_reserved": 0, "lon": -77.2222255, "fusion_lon": 0.0, "is_disabled": 0, "fusion_lat": 0.0, "bike_id": "82401b5dc4b7edf37536b04b025b0eaf", "rental_uris": {"ios": "https://dc.lft.to/lastmile_qr_scan", "android": "https://dc.lft.to/lastmile_qr_scan"}}, {"name": "253e33b0f513a0459ed46f69eb43d182", "type": "electric_scooter", "lat": 38.93055716666667, "is_reserved": 0, "lon": -77.02787866666667, "fusion_lon": 0.0, "is_disabled": 0, "fusion_lat": 0.0, "bike_id": "253e33b0f513a0459ed46f69eb43d182", "rental_uris": {"ios": "https://dc.lft.to/lastmile_qr_scan", "android": "https://dc.lft.to/lastmile_qr_scan"}}, {"name": "5a11ccc78b8c57146432d988693a3de4", "type": "electric_scooter", "lat": 38.9039665, "is_reserved": 0, "lon": -77.01847433333333, "fusion_lon": 0.0, "is_disabled": 0, "fusion_lat": 0.0, "bike_id": "5a11ccc78b8c57146432d988693a3de4", "rental_uris": {"ios": "https://dc.lft.to/lastmile_qr_scan", "android": "https://dc.lft.to/lastmile_qr_scan"}}, {"name": "8e6316bd3651c4878ca3f7de1ddabfb9", "type": "electric_scooter", "lat": 38.8993925, "is_reserved": 0, "lon": -76.9800955, "fusion_lon": 0.0, "is_disabled": 0, "fusion_lat": 0.0, "bike_id": "8e6316bd3651c4878ca3f7de1ddabfb9", "rental_uris": {"ios": "https://dc.lft.to/lastmile_qr_scan", "android": "https://dc.lft.to/lastmile_qr_scan"}}, {"name": "56ecfa2d040330df3087257bc3181877", "type": "electric_scooter", "lat": 38.90025466666667, "is_reserved": 0, "lon": -77.00205516666666, "fusion_lon": 0.0, "is_disabled": 0, "fusion_lat": 0.0, "bike_id": "56ecfa2d040330df3087257bc3181877", "rental_uris": {"ios": "https://dc.lft.to/lastmile_qr_scan", "android": "https://dc.lft.to/lastmile_qr_scan"}}, {"name": "2557f02beac8240c28f7eefdc46b78ec", "type": "electric_scooter", "lat": 38.937102833333334, "is_reserved": 0, "lon": -77.02935566666666, "fusion_lon": 0.0, "is_disabled": 0, "fusion_lat": 0.0, "bike_id": "2557f02beac8240c28f7eefdc46b78ec", "rental_uris": {"ios": "https://dc.lft.to/lastmile_qr_scan", "android": "https://dc.lft.to/lastmile_qr_scan"}}, {"name": "1bf829f97241b88b66329e4f1220f4f5", "type": "electric_bike", "lat": 38.950750666666664, "is_reserved": 0, "lon": -77.01207916666667, "fusion_lon": 0.0, "is_disabled": 0, "fusion_lat": 0.0, "bike_id": "1bf829f97241b88b66329e4f1220f4f5", "rental_uris": {"ios": "https://dc.lft.to/lastmile_qr_scan", "android": "https://dc.lft.to/lastmile_qr_scan"}}, {"name": "5bf80abd6473d8aa4bed349bdfb9fa72", "type": "electric_scooter", "lat": 38.885174666666664, "is_reserved": 0, "lon": -77.00567533333333, "fusion_lon": 0.0, "is_disabled": 0, "fusion_lat": 0.0, "bike_id": "5bf80abd6473d8aa4bed349bdfb9fa72", "rental_uris": {"ios": "https://dc.lft.to/lastmile_qr_scan", "android": "https://dc.lft.to/lastmile_qr_scan"}}, {"name": "39fe4c92916f36ec8faa2b5771d80286", "type": "electric_scooter", "lat": 38.90375783333333, "is_reserved": 0, "lon": -77.00556933333333, "fusion_lon": 0.0, "is_disabled": 0, "fusion_lat": 0.0, "bike_id": "39fe4c92916f36ec8faa2b5771d80286", "rental_uris": {"ios": "https://dc.lft.to/lastmile_qr_scan", "android": "https://dc.lft.to/lastmile_qr_scan"}}, {"name": "d6a333075c362e3e8c8e243faa3ac36d", "type": "electric_scooter", "lat": 38.892231833333334, "is_reserved": 0, "lon": -77.030895, "fusion_lon": 0.0, "is_disabled": 0, "fusion_lat": 0.0, "bike_id": "d6a333075c362e3e8c8e243faa3ac36d", "rental_uris": {"ios": "https://dc.lft.to/lastmile_qr_scan", "android": "https://dc.lft.to/lastmile_qr_scan"}}, {"name": "a4574967abb2a3c349fdcebe3da915fa", "type": "electric_scooter", "lat": 38.9038695, "is_reserved": 0, "lon": -77.00996683333334, "fusion_lon": 0.0, "is_disabled": 0, "fusion_lat": 0.0, "bike_id": "a4574967abb2a3c349fdcebe3da915fa", "rental_uris": {"ios": "https://dc.lft.to/lastmile_qr_scan", "android": "https://dc.lft.to/lastmile_qr_scan"}}, {"name": "988b785180b16d0f7f6753111a2bc18a", "type": "electric_scooter", "lat": 38.9343465, "is_reserved": 0, "lon": -77.03999233333333, "fusion_lon": 0.0, "is_disabled": 0, "fusion_lat": 0.0, "bike_id": "988b785180b16d0f7f6753111a2bc18a", "rental_uris": {"ios": "https://dc.lft.to/lastmile_qr_scan", "android": "https://dc.lft.to/lastmile_qr_scan"}}, {"name": "9f3fc287c8861eb0e8d1238a7f7e12b3", "type": "electric_scooter", "lat": 38.90786766666667, "is_reserved": 0, "lon": -77.04873266666667, "fusion_lon": 0.0, "is_disabled": 0, "fusion_lat": 0.0, "bike_id": "9f3fc287c8861eb0e8d1238a7f7e12b3", "rental_uris": {"ios": "https://dc.lft.to/lastmile_qr_scan", "android": "https://dc.lft.to/lastmile_qr_scan"}}, {"name": "3ecbef5d336e19af71acd6c874b792ec", "type": "electric_bike", "lat": 38.83138183333333, "is_reserved": 0, "lon": -77.113168, "fusion_lon": 0.0, "is_disabled": 0, "fusion_lat": 0.0, "bike_id": "3ecbef5d336e19af71acd6c874b792ec", "rental_uris": {"ios": "https://dc.lft.to/lastmile_qr_scan", "android": "https://dc.lft.to/lastmile_qr_scan"}}, {"name": "edc90576d7cf814ad990f00ce0887efd", "type": "electric_bike", "lat": 38.884063166666664, "is_reserved": 0, "lon": -76.9605765, "fusion_lon": 0.0, "is_disabled": 0, "fusion_lat": 0.0, "bike_id": "edc90576d7cf814ad990f00ce0887efd", "rental_uris": {"ios": "https://dc.lft.to/lastmile_qr_scan", "android": "https://dc.lft.to/lastmile_qr_scan"}}, {"name": "5d5a34886443a81b1d287fbcaed749f0", "type": "electric_scooter", "lat": 38.904823666666665, "is_reserved": 0, "lon": -77.02979, "fusion_lon": 0.0, "is_disabled": 0, "fusion_lat": 0.0, "bike_id": "5d5a34886443a81b1d287fbcaed749f0", "rental_uris": {"ios": "https://dc.lft.to/lastmile_qr_scan", "android": "https://dc.lft.to/lastmile_qr_scan"}}, {"name": "21d75dea6656b279c652042f9fac768e", "type": "electric_scooter", "lat": 38.939677833333334, "is_reserved": 0, "lon": -77.032588, "fusion_lon": 0.0, "is_disabled": 0, "fusion_lat": 0.0, "bike_id": "21d75dea6656b279c652042f9fac768e", "rental_uris": {"ios": "https://dc.lft.to/lastmile_qr_scan", "android": "https://dc.lft.to/lastmile_qr_scan"}}, {"name": "2d6c1be16e62d34d42a3235b4c893ddb", "type": "electric_scooter", "lat": 38.89480566666667, "is_reserved": 0, "lon": -76.9487015, "fusion_lon": 0.0, "is_disabled": 0, "fusion_lat": 0.0, "bike_id": "2d6c1be16e62d34d42a3235b4c893ddb", "rental_uris": {"ios": "https://dc.lft.to/lastmile_qr_scan", "android": "https://dc.lft.to/lastmile_qr_scan"}}, {"name": "bf5a4363def9d55fd076771fffb41e28", "type": "electric_scooter", "lat": 38.93732983333334, "is_reserved": 0, "lon": -77.0240335, "fusion_lon": 0.0, "is_disabled": 0, "fusion_lat": 0.0, "bike_id": "bf5a4363def9d55fd076771fffb41e28", "rental_uris": {"ios": "https://dc.lft.to/lastmile_qr_scan", "android": "https://dc.lft.to/lastmile_qr_scan"}}, {"name": "9e73cca1076dbf57702d93e4e3108cd3", "type": "electric_scooter", "lat": 38.922802833333336, "is_reserved": 0, "lon": -77.03667383333334, "fusion_lon": 0.0, "is_disabled": 0, "fusion_lat": 0.0, "bike_id": "9e73cca1076dbf57702d93e4e3108cd3", "rental_uris": {"ios": "https://dc.lft.to/lastmile_qr_scan", "android": "https://dc.lft.to/lastmile_qr_scan"}}, {"name": "5c8b19462bb63db85ec902f95cd49338", "type": "electric_scooter", "lat": 38.91418516666667, "is_reserved": 0, "lon": -77.04644783333333, "fusion_lon": 0.0, "is_disabled": 0, "fusion_lat": 0.0, "bike_id": "5c8b19462bb63db85ec902f95cd49338", "rental_uris": {"ios": "https://dc.lft.to/lastmile_qr_scan", "android": "https://dc.lft.to/lastmile_qr_scan"}}, {"name": "5d1244cbfe744f51ca3e58dfb144f38b", "type": "electric_scooter", "lat": 38.90945333333333, "is_reserved": 0, "lon": -76.99887966666667, "fusion_lon": 0.0, "is_disabled": 0, "fusion_lat": 0.0, "bike_id": "5d1244cbfe744f51ca3e58dfb144f38b", "rental_uris": {"ios": "https://dc.lft.to/lastmile_qr_scan", "android": "https://dc.lft.to/lastmile_qr_scan"}}, {"name": "95f599b90ce87338c9405ef62f906290", "type": "electric_scooter", "lat": 38.924854, "is_reserved": 0, "lon": -77.0271705, "fusion_lon": 0.0, "is_disabled": 0, "fusion_lat": 0.0, "bike_id": "95f599b90ce87338c9405ef62f906290", "rental_uris": {"ios": "https://dc.lft.to/lastmile_qr_scan", "android": "https://dc.lft.to/lastmile_qr_scan"}}, {"name": "b9cbb5db906a386df54a4502747baa74", "type": "electric_scooter", "lat": 38.9299755, "is_reserved": 0, "lon": -77.079432, "fusion_lon": 0.0, "is_disabled": 0, "fusion_lat": 0.0, "bike_id": "b9cbb5db906a386df54a4502747baa74", "rental_uris": {"ios": "https://dc.lft.to/lastmile_qr_scan", "android": "https://dc.lft.to/lastmile_qr_scan"}}, {"name": "7b167fcb61dd9a92714b89cce78e3669", "type": "electric_scooter", "lat": 38.93111483333333, "is_reserved": 0, "lon": -77.03818466666667, "fusion_lon": 0.0, "is_disabled": 0, "fusion_lat": 0.0, "bike_id": "7b167fcb61dd9a92714b89cce78e3669", "rental_uris": {"ios": "https://dc.lft.to/lastmile_qr_scan", "android": "https://dc.lft.to/lastmile_qr_scan"}}, {"name": "cf1fc996d8e234af2016cf52222dfcc7", "type": "electric_bike", "lat": 38.83238983333333, "is_reserved": 0, "lon": -76.94624233333333, "fusion_lon": 0.0, "is_disabled": 0, "fusion_lat": 0.0, "bike_id": "cf1fc996d8e234af2016cf52222dfcc7", "rental_uris": {"ios": "https://dc.lft.to/lastmile_qr_scan", "android": "https://dc.lft.to/lastmile_qr_scan"}}, {"name": "1e549017c7bd901c0ef6bb00765377fa", "type": "electric_scooter", "lat": 38.905705, "is_reserved": 0, "lon": -77.02938333333333, "fusion_lon": 0.0, "is_disabled": 0, "fusion_lat": 0.0, "bike_id": "1e549017c7bd901c0ef6bb00765377fa", "rental_uris": {"ios": "https://dc.lft.to/lastmile_qr_scan", "android": "https://dc.lft.to/lastmile_qr_scan"}}, {"name": "5fc0908cd4803a0626d226286945c16b", "type": "electric_scooter", "lat": 38.941301333333335, "is_reserved": 0, "lon": -77.0154625, "fusion_lon": 0.0, "is_disabled": 0, "fusion_lat": 0.0, "bike_id": "5fc0908cd4803a0626d226286945c16b", "rental_uris": {"ios": "https://dc.lft.to/lastmile_qr_scan", "android": "https://dc.lft.to/lastmile_qr_scan"}}, {"name": "5cf07f3b555d8b1414b36a1ebe9c4493", "type": "electric_scooter", "lat": 38.915912, "is_reserved": 0, "lon": -76.98380016666667, "fusion_lon": 0.0, "is_disabled": 0, "fusion_lat": 0.0, "bike_id": "5cf07f3b555d8b1414b36a1ebe9c4493", "rental_uris": {"ios": "https://dc.lft.to/lastmile_qr_scan", "android": "https://dc.lft.to/lastmile_qr_scan"}},