{"data": {"bikes": [{"bike_id": "37fb9c2771a0b73084fff1ddc02af1ec", "fusion_lon": 0.0, "lon": -77.032619, "name": "37fb9c2771a0b73084fff1ddc02af1ec", "is_disabled": 0, "rental_uris": {"android": "https://dc.lft.to/lastmile_qr_scan", "ios": "https://dc.lft.to/lastmile_qr_scan"}, "type": "electric_scooter", "lat": 38.9340305, "is_reserved": 0, "fusion_lat": 0.0}, {"bike_id": "fd20ca764eb0ca1c90fe1e15504db714", "fusion_lon": 0.0, "lon": -77.04016016666667, "name": "fd20ca764eb0ca1c90fe1e15504db714", "is_disabled": 0, "rental_uris": {"android": "https://dc.lft.to/lastmile_qr_scan", "ios": "https://dc.lft.to/lastmile_qr_scan"}, "type": "electric_scooter", "lat": 38.92268583333333, "is_reserved": 0, "fusion_lat": 0.0}, {"bike_id": "102c6ef3541987e0a6248aacaef87793", "fusion_lon": 0.0, "lon": -77.023026, "name": "102c6ef3541987e0a6248aacaef87793", "is_disabled": 0, "rental_uris": {"android": "https://dc.lft.to/lastmile_qr_scan", "ios": "https://dc.lft.to/lastmile_qr_scan"}, "type": "electric_scooter", "lat": 38.915456, "is_reserved": 0, "fusion_lat": 0.0}, {"bike_id": "43b9569dfde14f73e30dc393f6181b04", "fusion_lon": 0.0, "lon": -77.02809033333334, "name": "43b9569dfde14f73e30dc393f6181b04", "is_disabled": 0, "rental_uris": {"android": "https://dc.lft.to/lastmile_qr_scan", "ios": "https://dc.lft.to/lastmile_qr_scan"}, "type": "electric_scooter", "lat": 38.91132983333333, "is_reserved": 0, "fusion_lat": 0.0}, {"bike_id": "ec9a489f273ab8da2a326ff5d69eb264", "fusion_lon": 0.0, "lon": -77.00615733333333, "name": "ec9a489f273ab8da2a326ff5d69eb264", "is_disabled": 0, "rental_uris": {"android": "https://dc.lft.to/lastmile_qr_scan", "ios": "https://dc.lft.to/lastmile_qr_scan"}, "type": "electric_scooter", "lat": 38.8777245, "is_reserved": 0, "fusion_lat": 0.0}, {"bike_id": "3b8b03054a6b7c02759c11c696be5707", "fusion_lon": 0.0, "lon": -77.02177933333333, "name": "3b8b03054a6b7c02759c11c696be5707", "is_disabled": 0, "rental_uris": {"android": "https://dc.lft.to/lastmile_qr_scan", "ios": "https://dc.lft.to/lastmile_qr_scan"}, "type": "electric_scooter", "lat": 38.925053, "is_reserved": 0, "fusion_lat": 0.0}, {"bike_id": "23ec7f2a845e713674fbe9a97a48fe6f", "fusion_lon": 0.0, "lon": -77.0342055, "name": "23ec7f2a845e713674fbe9a97a48fe6f", "is_disabled": 0, "rental_uris": {"android": "https://dc.lft.to/lastmile_qr_scan", "ios": "https://dc.lft.to/lastmile_qr_scan"}, "type": "electric_scooter", "lat": 38.91919883333333, "is_reserved": 0, "fusion_lat": 0.0}, {"bike_id": "ff41e89caa85a2f60c81b3c0c3d99dcf", "fusion_lon": 0.0, "lon": -77.04133333333333, "name": "ff41e89caa85a2f60c81b3c0c3d99dcf", "is_disabled": 0, "rental_uris": {"android": "https://dc.lft.to/lastmile_qr_scan", "ios": "https://dc.lft.to/lastmile_qr_scan"}, "type": "electric_bike", "lat": 38.80509283333333, "is_reserved": 0, "fusion_lat": 0.0}, {"bike_id": "2671d855f856df663e41b0ea67ac7720", "fusion_lon": 0.0, "lon": -77.048473, "name": "2671d855f856df663e41b0ea67ac7720", "is_disabled": 0, "rental_uris": {"android": "https://dc.lft.to/lastmile_qr_scan", "ios": "https://dc.lft.to/lastmile_qr_scan"}, "type": "electric_scooter", "lat": 38.91182233333333, "is_reserved": 0, "fusion_lat": 0.0}, {"bike_id": "1e8a7e6ab95c024b39f3f7350a355e5e", "fusion_lon": 0.0, "lon": -77.02298866666666, "name": "1e8a7e6ab95c024b39f3f7350a355e5e", "is_disabled": 0, "rental_uris": {"android": "https://dc.lft.to/lastmile_qr_scan", "ios": "https://dc.lft.to/lastmile_qr_scan"}, "type": "electric_scooter", "lat": 38.916046, "is_reserved": 0, "fusion_lat": 0.0}, {"bike_id": "256b29c6896dd9de5aded22d9ce2ce05", "fusion_lon": 0.0, "lon": -77.04133433333334, "name": "256b29c6896dd9de5aded22d9ce2ce05", "is_disabled": 0, "rental_uris": {"android": "https://dc.lft.to/lastmile_qr_scan", "ios": "https://dc.lft.to/lastmile_qr_scan"}, "type": "electric_scooter", "lat": 38.92140033333333, "is_reserved": 0, "fusion_lat": 0.0}, {"bike_id": "343e91a4c4b592d756e7f51acc8be278", "fusion_lon": 0.0, "lon": -77.02967433333333, "name": "343e91a4c4b592d756e7f51acc8be278", "is_disabled": 0, "rental_uris": {"android": "https://dc.lft.to/lastmile_qr_scan", "ios": "https://dc.lft.to/lastmile_qr_scan"}, "type": "electric_scooter", "lat": 38.922828833333334, "is_reserved": 0, "fusion_lat": 0.0}, {"bike_id": "48891cebae450abd4a50e5ee0061ed40", "fusion_lon": 0.0, "lon": -77.04002683333333, "name": "48891cebae450abd4a50e5ee0061ed40", "is_disabled": 0, "rental_uris": {"android": "https://dc.lft.to/lastmile_qr_scan", "ios": "https://dc.lft.to/lastmile_qr_scan"}, "type": "electric_scooter", "lat": 38.90479533333333, "is_reserved": 0, "fusion_lat": 0.0}, {"bike_id": "7e102f29a7109a893c2b7d918a8bc7c5", "fusion_lon": 0.0, "lon": -77.02694433333333, "name": "7e102f29a7109a893c2b7d918a8bc7c5", "is_disabled": 0, "rental_uris": {"android": "https://dc.lft.to/lastmile_qr_scan", "ios": "https://dc.lft.to/lastmile_qr_scan"}, "type": "electric_scooter", "lat": 38.927791, "is_reserved": 0, "fusion_lat": 0.0}, {"bike_id": "52b6149f2fd698e1d1cac14badd5cfa1", "fusion_lon": 0.0, "lon": -77.00200583333333, "name": "52b6149f2fd698e1d1cac14badd5cfa1", "is_disabled": 0, "rental_uris": {"android": "https://dc.lft.to/lastmile_qr_scan", "ios": "https://dc.lft.to/lastmile_qr_scan"}, "type": "electric_bike", "lat": 38.819384166666666, "is_reserved": 0, "fusion_lat": 0.0}, {"bike_id": "74faa73bc1072bec7f4c9928ec7c6ec8", "fusion_lon": 0.0, "lon": -76.94877016666666, "name": "74faa73bc1072bec7f4c9928ec7c6ec8", "is_disabled": 0, "rental_uris": {"android": "https://dc.lft.to/lastmile_qr_scan", "ios": "https://dc.lft.to/lastmile_qr_scan"}, "type": "electric_scooter", "lat": 38.89496233333333, "is_reserved": 0, "fusion_lat": 0.0}, {"bike_id": "7fa1a3b513f0163988d052d786314734", "fusion_lon": 0.0, "lon": -76.9646645, "name": "7fa1a3b513f0163988d052d786314734", "is_disabled": 0, "rental_uris": {"android": "https://dc.lft.to/lastmile_qr_scan", "ios": "https://dc.lft.to/lastmile_qr_scan"}, "type": "electric_scooter", "lat": 38.93444916666667, "is_reserved": 0, "fusion_lat": 0.0}, {"bike_id": "d5f583ed772cc586dc94f6b818efa700", "fusion_lon": 0.0, "lon": -77.04454366666667, "name": "d5f583ed772cc586dc94f6b818efa700", "is_disabled": 0, "rental_uris": {"android": "https://dc.lft.to/lastmile_qr_scan", "ios": "https://dc.lft.to/lastmile_qr_scan"}, "type": "electric_scooter", "lat": 38.911893666666664, "is_reserved": 0, "fusion_lat": 0.0}, {"bike_id": "bbb148e829ee2bb30adb19d20016de76", "fusion_lon": 0.0, "lon": -76.9959845, "name": "bbb148e829ee2bb30adb19d20016de76", "is_disabled": 0, "rental_uris": {"android": "https://dc.lft.to/lastmile_qr_scan", "ios": "https://dc.lft.to/lastmile_qr_scan"}, "type": "electric_bike", "lat": 38.95074533333333, "is_reserved": 0, "fusion_lat": 0.0}, {"bike_id": "caf72a083cc8e0342b98b2f390b9b420", "fusion_lon": 0.0, "lon": -76.99949016666666, "name": "caf72a083cc8e0342b98b2f390b9b420", "is_disabled": 0, "rental_uris": {"android": "https://dc.lft.to/lastmile_qr_scan", "ios": "https://dc.lft.to/lastmile_qr_scan"}, "type": "electric_scooter", "lat": 38.84291616666667, "is_reserved": 0, "fusion_lat": 0.0}, {"bike_id": "9686ec4edb360f132a42ed983b7cb64a", "fusion_lon": 0.0, "lon": -77.03184866666666, "name": "9686ec4edb360f132a42ed983b7cb64a", "is_disabled": 0, "rental_uris": {"android": "https://dc.lft.to/lastmile_qr_scan", "ios": "https://dc.lft.to/lastmile_qr_scan"}, "type": "electric_scooter", "lat": 38.92482866666667, "is_reserved": 0, "fusion_lat": 0.0}, {"bike_id": "fb03d4d870e133399fafd3b5a2d581b3", "fusion_lon": 0.0, "lon": -77.03848133333334, "name": "fb03d4d870e133399fafd3b5a2d581b3", "is_disabled": 0, "rental_uris": {"android": "https://dc.lft.to/lastmile_qr_scan", "ios": "https://dc.lft.to/lastmile_qr_scan"}, "type": "electric_scooter", "lat": 38.915484666666664, "is_reserved": 0, "fusion_lat": 0.0}, {"bike_id": "ddd48edbbc8ed86430fa5859f7faeedb", "fusion_lon": 0.0, "lon": -77.01848283333334, "name": "ddd48edbbc8ed86430fa5859f7faeedb", "is_disabled": 0, "rental_uris": {"android": "https://dc.lft.to/lastmile_qr_scan", "ios": "https://dc.lft.to/lastmile_qr_scan"}, "type": "electric_scooter", "lat": 38.877120166666664, "is_reserved": 0, "fusion_lat": 0.0}, {"bike_id": "04e61ed0d242a9da4fb4972a1d143e7f", "fusion_lon": 0.0, "lon": -77.02478966666666, "name": "04e61ed0d242a9da4fb4972a1d143e7f", "is_disabled": 0, "rental_uris": {"android": "https://dc.lft.to/lastmile_qr_scan", "ios": "https://dc.lft.to/lastmile_qr_scan"}, "type": "electric_scooter", "lat": 38.90326483333333, "is_reserved": 0, "fusion_lat": 0.0}, {"bike_id": "d319b4ab1fa99674ddd18c71a31e1e9e", "fusion_lon": 0.0, "lon": -77.02804466666667, "name": "d319b4ab1fa99674ddd18c71a31e1e9e", "is_disabled": 0, "rental_uris": {"android": "https://dc.lft.to/lastmile_qr_scan", "ios": "https://dc.lft.to/lastmile_qr_scan"}, "type": "electric_scooter", "lat": 38.916812, "is_reserved": 0, "fusion_lat": 0.0}, {"bike_id": "b2eb856b4791b8e158dde4fe460bd493", "fusion_lon": 0.0, "lon": -77.04397433333334, "name": "b2eb856b4791b8e158dde4fe460bd493", "is_disabled": 0, "rental_uris": {"android": "https://dc.lft.to/lastmile_qr_scan", "ios": "https://dc.lft.to/lastmile_qr_scan"}, "type": "electric_scooter", "lat": 38.9108445, "is_reserved": 0, "fusion_lat": 0.0}, {"bike_id": "87ef2ee8e5630357366ecc25731a1000", "fusion_lon": 0.0, "lon": -77.058902, "name": "87ef2ee8e5630357366ecc25731a1000", "is_disabled": 0, "rental_uris": {"android": "https://dc.lft.to/lastmile_qr_scan", "ios": "https://dc.lft.to/lastmile_qr_scan"}, "type": "electric_scooter", "lat": 38.93607433333333, "is_reserved": 0, "fusion_lat": 0.0}, {"bike_id": "6ad8a0531cbb85c8a832ca2c7356497a", "fusion_lon": 0.0, "lon": -77.0858965, "name": "6ad8a0531cbb85c8a832ca2c7356497a", "is_disabled": 0, "rental_uris": {"android": "https://dc.lft.to/lastmile_qr_scan", "ios": "https://dc.lft.to/lastmile_qr_scan"}, "type": "electric_scooter", "lat": 38.90870016666667, "is_reserved": 0, "fusion_lat": 0.0}, {"bike_id": "615807e97690c3cbc834abf175d7943e", "fusion_lon": 0.0, "lon": -77.02212016666667, "name": "615807e97690c3cbc834abf175d7943e", "is_disabled": 0, "rental_uris": {"android": "https://dc.lft.to/lastmile_qr_scan", "ios": "https://dc.lft.to/lastmile_qr_scan"}, "type": "electric_scooter", "lat": 38.915615, "is_reserved": 0, "fusion_lat": 0.0}, {"bike_id": "306a5de338fe6ab6c87346d4a3a2d689", "fusion_lon": 0.0, "lon": -77.04329466666667, "name": "306a5de338fe6ab6c87346d4a3a2d689", "is_disabled": 0, "rental_uris": {"android": "https://dc.lft.to/lastmile_qr_scan", "ios": "https://dc.lft.to/lastmile_qr_scan"}, "type": "electric_scooter", "lat": 38.89522, "is_reserved": 0, "fusion_lat": 0.0}, {"bike_id": "53b75f87afdd4ea3d6252fb8daff1cc4", "fusion_lon": 0.0, "lon": -77.05857983333334, "name": "53b75f87afdd4ea3d6252fb8daff1cc4", "is_disabled": 0, "rental_uris": {"android": "https://dc.lft.to/lastmile_qr_scan", "ios": "https://dc.lft.to/lastmile_qr_scan"}, "type": "electric_scooter", "lat": 38.936074833333336, "is_reserved": 0, "fusion_lat": 0.0}, {"bike_id": "29c5158dc572b4cafdf237e6d9ab926d", "fusion_lon": 0.0, "lon": -76.96530266666667, "name": "29c5158dc572b4cafdf237e6d9ab926d", "is_disabled": 0, "rental_uris": {"android": "https://dc.lft.to/lastmile_qr_scan", "ios": "https://dc.lft.to/lastmile_qr_scan"}, "type": "electric_scooter", "lat": 38.876267666666664, "is_reserved": 0, "fusion_lat": 0.0}, {"bike_id": "ba896ba7a19e7d6b89c0c74d462b5c9f", "fusion_lon": 0.0, "lon": -77.02636433333333, "name": "ba896ba7a19e7d6b89c0c74d462b5c9f", "is_disabled": 0, "rental_uris": {"android": "https://dc.lft.to/lastmile_qr_scan", "ios": "https://dc.lft.to/lastmile_qr_scan"}, "type": "electric_scooter", "lat": 38.92530383333333, "is_reserved": 0, "fusion_lat": 0.0}, {"bike_id": "753c9fa14353cfb07f687699f3ea57b9", "fusion_lon": 0.0, "lon": -77.04202766666667, "name": "753c9fa14353cfb07f687699f3ea57b9", "is_disabled": 0, "rental_uris": {"android": "https://dc.lft.to/lastmile_qr_scan", "ios": "https://dc.lft.to/lastmile_qr_scan"}, "type": "electric_scooter", "lat": 38.91127383333333, "is_reserved": 0, "fusion_lat": 0.0}, {"bike_id": "d5accd2a6cff6e7973755ef82d0187d3", "fusion_lon": 0.0, "lon": -76.9246085, "name": "d5accd2a6cff6e7973755ef82d0187d3", "is_disabled": 0, "rental_uris": {"android": "https://dc.lft.to/lastmile_qr_scan", "ios": "https://dc.lft.to/lastmile_qr_scan"}, "type": "electric_bike", "lat": 38.95888216666667, "is_reserved": 0, "fusion_lat": 0.0}, {"bike_id": "1b8c496106913c3684d49192b6d8ab56", "fusion_lon": 0.0, "lon": -76.99649616666666, "name": "1b8c496106913c3684d49192b6d8ab56", "is_disabled": 0, "rental_uris": {"android": "https://dc.lft.to/lastmile_qr_scan", "ios": "https://dc.lft.to/lastmile_qr_scan"}, "type": "electric_bike", "lat": 38.9882585, "is_reserved": 0, "fusion_lat": 0.0}, {"bike_id": "175710b5fa0974586262349cd39f9ee0", "fusion_lon": 0.0, "lon": -77.02179766666667, "name": "175710b5fa0974586262349cd39f9ee0", "is_disabled": 0, "rental_uris": {"android": "https://dc.lft.to/lastmile_qr_scan", "ios": "https://dc.lft.to/lastmile_qr_scan"}, "type": "electric_bike", "lat": 38.906981333333334, "is_reserved": 0, "fusion_lat": 0.0}, {"bike_id": "7c6814ba61f21788d810dd88221e844b", "fusion_lon": 0.0, "lon": -77.00207583333334, "name": "7c6814ba61f21788d810dd88221e844b", "is_disabled": 0, "rental_uris": {"android": "https://dc.lft.to/lastmile_qr_scan", "ios": "https://dc.lft.to/lastmile_qr_scan"}, "type": "electric_scooter", "lat": 38.90077566666667, "is_reserved": 0, "fusion_lat": 0.0}, {"bike_id": "6f5f29b7b7c623f217f6710442c37730", "fusion_lon": 0.0, "lon": -77.03879016666667, "name": "6f5f29b7b7c623f217f6710442c37730", "is_disabled": 0, "rental_uris": {"android": "https://dc.lft.to/lastmile_qr_scan", "ios": "https://dc.lft.to/lastmile_qr_scan"}, "type": "electric_scooter", "lat": 38.925046, "is_reserved": 0, "fusion_lat": 0.0}, {"bike_id": "e92fa248ed39ed4cbff027cbd01abc69", "fusion_lon": 0.0, "lon": -76.99960383333334, "name": "e92fa248ed39ed4cbff027cbd01abc69", "is_disabled": 0, "rental_uris": {"android": "https://dc.lft.to/lastmile_qr_scan", "ios": "https://dc.lft.to/lastmile_qr_scan"}, "type": "electric_scooter", "lat": 38.918968666666665, "is_reserved": 0, "fusion_lat": 0.0}, {"bike_id": "34bbd535cd7dac20a4267c462a45f30e", "fusion_lon": 0.0, "lon": -77.02660366666667, "name": "34bbd535cd7dac20a4267c462a45f30e", "is_disabled": 0, "rental_uris": {"android": "https://dc.lft.to/lastmile_qr_scan", "ios": "https://dc.lft.to/lastmile_qr_scan"}, "type": "electric_bike", "lat": 38.98814266666667, "is_reserved": 0, "fusion_lat": 0.0}, {"bike_id": "07307f6330a12498d06413829ec03e32", "fusion_lon": 0.0, "lon": -77.00198633333333, "name": "07307f6330a12498d06413829ec03e32", "is_disabled": 0, "rental_uris": {"android": "https://dc.lft.to/lastmile_qr_scan", "ios": "https://dc.lft.to/lastmile_qr_scan"}, "type": "electric_scooter", "lat": 38.9023645, "is_reserved": 0, "fusion_lat": 0.0}, {"bike_id": "3ca8d9f08741199bee9cb190ec9df7fb", "fusion_lon": 0.0, "lon": -76.981805, "name": "3ca8d9f08741199bee9cb190ec9df7fb", "is_disabled": 0, "rental_uris": {"android": "https://dc.lft.to/lastmile_qr_scan", "ios": "https://dc.lft.to/lastmile_qr_scan"}, "type": "electric_bike", "lat": 38.846279, "is_reserved": 0, "fusion_lat": 0.0}, {"bike_id": "8709f08543164ecb39d23efdef916d7f", "fusion_lon": 0.0, "lon": -77.00213583333333, "name": "8709f08543164ecb39d23efdef916d7f", "is_disabled": 0, "rental_uris": {"android": "https://dc.lft.to/lastmile_qr_scan", "ios": "https://dc.lft.to/lastmile_qr_scan"}, "type": "electric_scooter", "lat": 38.90029333333333, "is_reserved": 0, "fusion_lat": 0.0}, {"bike_id": "8c8b6fa6fa17fc2fc2ec5b36c3e47272", "fusion_lon": 0.0, "lon": -77.03237916666667, "name": "8c8b6fa6fa17fc2fc2ec5b36c3e47272", "is_disabled": 0, "rental_uris": {"android": "https://dc.lft.to/lastmile_qr_scan", "ios": "https://dc.lft.to/lastmile_qr_scan"}, "type": "electric_scooter", "lat": 38.927568666666666, "is_reserved": 0, "fusion_lat": 0.0}, {"bike_id": "4a9b68f1a32e92b01dac2c43cc142fe6", "fusion_lon": 0.0, "lon": -77.05755233333333, "name": "4a9b68f1a32e92b01dac2c43cc142fe6", "is_disabled": 0, "rental_uris": {"android": "https://dc.lft.to/lastmile_qr_scan", "ios": "https://dc.lft.to/lastmile_qr_scan"}, "type": "electric_scooter", "lat": 38.925569833333334, "is_reserved": 0, "fusion_lat": 0.0}, {"bike_id": "16d29ff97baf5619088787906e71144a", "fusion_lon": 0.0, "lon": -77.01215133333334, "name": "16d29ff97baf5619088787906e71144a", "is_disabled": 0, "rental_uris": {"android": "https://dc.lft.to/lastmile_qr_scan", "ios": "https://dc.lft.to/lastmile_qr_scan"}, "type": "electric_scooter", "lat": 38.91706833333333, "is_reserved": 0, "fusion_lat": 0.0}, {"bike_id": "9be5bbf3ba0c848c173776b7b6835cac", "fusion_lon": 0.0, "lon": -77.07332183333334, "name": "9be5bbf3ba0c848c173776b7b6835cac", "is_disabled": 0, "rental_uris": {"android": "https://dc.lft.to/lastmile_qr_scan", "ios": "https://dc.lft.to/lastmile_qr_scan"}, "type": "electric_scooter", "lat": 38.925614, "is_reserved": 0, "fusion_lat": 0.0}, {"bike_id": "ebc2539998167418a1a6ec1f6be04292", "fusion_lon": 0.0, "lon": -76.97477583333334, "name": "ebc2539998167418a1a6ec1f6be04292", "is_disabled": 0, "rental_uris": {"android": "https://dc.lft.to/lastmile_qr_scan", "ios": "https://dc.lft.to/lastmile_qr_scan"}, "type": "electric_scooter", "lat": 38.90350866666667, "is_reserved": 0, "fusion_lat": 0.0}, {"bike_id": "fed3814aaf0d7d7396877a37f38e14fa", "fusion_lon": 0.0, "lon": -77.02096183333333, "name": "fed3814aaf0d7d7396877a37f38e14fa", "is_disabled": 0, "rental_uris": {"android": "https://dc.lft.to/lastmile_qr_scan", "ios": "https://dc.lft.to/lastmile_qr_scan"}, "type": "electric_scooter", "lat": 38.922085833333334, "is_reserved": 0, "fusion_lat": 0.0}, {"bike_id": "2d90ccf9a89655c68eed232001169759", "fusion_lon": 0.0, "lon": -77.02222966666666, "name": "2d90ccf9a89655c68eed232001169759", "is_disabled": 0, "rental_uris": {"android": "https://dc.lft.to/lastmile_qr_scan", "ios": "https://dc.lft.to/lastmile_qr_scan"}, "type": "electric_scooter", "lat": 38.89218316666667, "is_reserved": 0, "fusion_lat": 0.0}, {"bike_id": "0bb1547fc572f12f57b4daaf7b1b2c44", "fusion_lon": 0.0, "lon": -77.01407866666666, "name": "0bb1547fc572f12f57b4daaf7b1b2c44", "is_disabled": 0, "rental_uris": {"android": "https://dc.lft.to/lastmile_qr_scan", "ios": "https://dc.lft.to/lastmile_qr_scan"}, "type": "electric_scooter", "lat": 38.8812175, "is_reserved": 0, "fusion_lat": 0.0}, {"bike_id": "d4100331a33c51e717150222986c4af4", "fusion_lon": 0.0, "lon": -76.936157, "name": "d4100331a33c51e717150222986c4af4", "is_disabled": 0, "rental_uris": {"android": "https://dc.lft.to/lastmile_qr_scan", "ios": "https://dc.lft.to/lastmile_qr_scan"}, "type": "electric_bike", "lat": 38.9706525, "is_reserved": 0, "fusion_lat": 0.0}, {"bike_id": "3b2c1fed61ef8e3b1f59e2c0acb0cdce", "fusion_lon": 0.0, "lon": -77.01441166666666, "name": "3b2c1fed61ef8e3b1f59e2c0acb0cdce", "is_disabled": 0, "rental_uris": {"android": "https://dc.lft.to/lastmile_qr_scan", "ios": "https://dc.lft.to/lastmile_qr_scan"}, "type": "electric_scooter", "lat": 38.919611333333336, "is_reserved": 0, "fusion_lat": 0.0}, {"bike_id": "f97a32a5f84dd12625df058ed1db13e2", "fusion_lon": 0.0, "lon": -77.028845, "name": "f97a32a5f84dd12625df058ed1db13e2", "is_disabled": 0, "rental_uris": {"android": "https://dc.lft.to/lastmile_qr_scan", "ios": "https://dc.lft.to/lastmile_qr_scan"}, "type": "electric_scooter", "lat": 38.939826, "is_reserved": 0, "fusion_lat": 0.0}, {"bike_id": "e497863eef02316e44e4ca46c67f0200", "fusion_lon": 0.0, "lon": -77.04119166666666, "name": "e497863eef02316e44e4ca46c67f0200", "is_disabled": 0, "rental_uris": {"android": "https://dc.lft.to/lastmile_qr_scan", "ios": "https://dc.lft.to/lastmile_qr_scan"}, "type": "electric_scooter", "lat": 38.909555166666664, "is_reserved": 0, "fusion_lat": 0.0}, {"bike_id": "bd12fdd42e8660ad7571a2bb8409a61c", "fusion_lon": 0.0, "lon": -77.00906033333334, "name": "bd12fdd42e8660ad7571a2bb8409a61c", "is_disabled": 0, "rental_uris": {"android": "https://dc.lft.to/lastmile_qr_scan", "ios": "https://dc.lft.to/lastmile_qr_scan"}, "type": "electric_scooter", "lat": 38.88165933333333, "is_reserved": 0, "fusion_lat": 0.0}, {"bike_id": "1102aacc90d6058da561dfd64adcfaf7", "fusion_lon": 0.0, "lon": -77.0440375, "name": "1102aacc90d6058da561dfd64adcfaf7", "is_disabled": 0, "rental_uris": {"android": "https://dc.lft.to/lastmile_qr_scan", "ios": "https://dc.lft.to/lastmile_qr_scan"}, "type": "electric_scooter", "lat": 38.901357833333336, "is_reserved": 0, "fusion_lat": 0.0}, {"bike_id": "dd446b0a832126b38370010962dc66bb", "fusion_lon": 0.0, "lon": -77.0316265, "name": "dd446b0a832126b38370010962dc66bb", "is_disabled": 0, "rental_uris": {"android": "https://dc.lft.to/lastmile_qr_scan", "ios": "https://dc.lft.to/lastmile_qr_scan"}, "type": "electric_bike", "lat": 38.99946333333333, "is_reserved": 0, "fusion_lat": 0.0}, {"bike_id": "878f7185bc39804bce929cb23bbda8e8", "fusion_lon": 0.0, "lon": -77.00203966666666, "name": "878f7185bc39804bce929cb23bbda8e8", "is_disabled": 0, "rental_uris": {"android": "https://dc.lft.to/lastmile_qr_scan", "ios": "https://dc.lft.to/lastmile_qr_scan"}, "type": "electric_scooter", "lat": 38.90238516666667, "is_reserved": 0, "fusion_lat": 0.0}, {"bike_id": "9b9bd1ebafdb10bddfa093d5ef90c65b", "fusion_lon": 0.0, "lon": -76.98369833333334, "name": "9b9bd1ebafdb10bddfa093d5ef90c65b", "is_disabled": 0, "rental_uris": {"android": "https://dc.lft.to/lastmile_qr_scan", "ios": "https://dc.lft.to/lastmile_qr_scan"}, "type": "electric_scooter", "lat": 38.885878, "is_reserved": 0, "fusion_lat": 0.0}, {"bike_id": "1b5cf552e89f6fe29e35c5efe82dd474", "fusion_lon": 0.0, "lon": -77.0355925, "name": "1b5cf552e89f6fe29e35c5efe82dd474", "is_disabled": 0, "rental_uris": {"android": "https://dc.lft.to/lastmile_qr_scan", "ios": "https://dc.lft.to/lastmile_qr_scan"}, "type": "electric_scooter", "lat": 38.928631, "is_reserved": 0, "fusion_lat": 0.0}, {"bike_id": "5a0bd3946c17214536116e07513b438c", "fusion_lon": 0.0, "lon": -77.04461283333333, "name": "5a0bd3946c17214536116e07513b438c", "is_disabled": 0, "rental_uris": {"android": "https://dc.lft.to/lastmile_qr_scan", "ios": "https://dc.lft.to/lastmile_qr_scan"}, "type": "electric_scooter", "lat": 38.91851466666667, "is_reserved": 0, "fusion_lat": 0.0}, {"bike_id": "804ee50b179efcaace4c6dde28194927", "fusion_lon": 0.0, "lon": -77.0393315, "name": "804ee50b179efcaace4c6dde28194927", "is_disabled": 0, "rental_uris": {"android": "https://dc.lft.to/lastmile_qr_scan", "ios": "https://dc.lft.to/lastmile_qr_scan"}, "type": "electric_scooter", "lat": 38.924926166666665, "is_reserved": 0, "fusion_lat": 0.0}, {"bike_id": "e8de0e07f2b03782dbe3ef52a24eb0ef", "fusion_lon": 0.0, "lon": -77.03293516666666, "name": "e8de0e07f2b03782dbe3ef52a24eb0ef", "is_disabled": 0, "rental_uris": {"android": "https://dc.lft.to/lastmile_qr_scan", "ios": "https://dc.lft.to/lastmile_qr_scan"}, "type": "electric_scooter", "lat": 38.920467333333335, "is_reserved": 0, "fusion_lat": 0.0}, {"bike_id": "a8c00c420ba7020b3cc7c5830fd44df7", "fusion_lon": 0.0, "lon": -77.03779083333333, "name": "a8c00c420ba7020b3cc7c5830fd44df7", "is_disabled": 0, "rental_uris": {"android": "https://dc.lft.to/lastmile_qr_scan", "ios": "https://dc.lft.to/lastmile_qr_scan"}, "type": "electric_scooter", "lat": 38.925493833333334, "is_reserved": 0, "fusion_lat": 0.0}, {"bike_id": "e43c482071956bb7bf4cf7aeb464cde9", "fusion_lon": 0.0, "lon": -77.02963866666667, "name": "e43c482071956bb7bf4cf7aeb464cde9", "is_disabled": 0, "rental_uris": {"android": "https://dc.lft.to/lastmile_qr_scan", "ios": "https://dc.lft.to/lastmile_qr_scan"}, "type": "electric_bike", "lat": 38.95050233333333, "is_reserved": 0, "fusion_lat": 0.0}, {"bike_id": "57a81c3e07d1aad8c03b7a31e757305c", "fusion_lon": 0.0, "lon": -77.03363166666666, "name": "57a81c3e07d1aad8c03b7a31e757305c", "is_disabled": 0, "rental_uris": {"android": "https://dc.lft.to/lastmile_qr_scan", "ios": "https://dc.lft.to/lastmile_qr_scan"}, "type": "electric_scooter", "lat": 38.93150416666667, "is_reserved": 0, "fusion_lat": 0.0}, {"bike_id": "d59a34625440e5fab227a37e9c22601f", "fusion_lon": 0.0, "lon": -77.03591416666667, "name": "d59a34625440e5fab227a37e9c22601f", "is_disabled": 0, "rental_uris": {"android": "https://dc.lft.to/lastmile_qr_scan", "ios": "https://dc.lft.to/lastmile_qr_scan"}, "type": "electric_scooter", "lat": 38.936746, "is_reserved": 0, "fusion_lat": 0.0}, {"bike_id": "06b970c0060999ce81bcf7b0c65eb15c", "fusion_lon": 0.0, "lon": -77.045942, "name": "06b970c0060999ce81bcf7b0c65eb15c", "is_disabled": 0, "rental_uris": {"android": "https://dc.lft.to/lastmile_qr_scan", "ios": "https://dc.lft.to/lastmile_qr_scan"}, "type": "electric_scooter", "lat": 38.908636333333334, "is_reserved": 0, "fusion_lat": 0.0}, {"bike_id": "228abf356cabc1d52f615cd7ec1d4501", "fusion_lon": 0.0, "lon": -77.01348466666667, "name": "228abf356cabc1d52f615cd7ec1d4501", "is_disabled": 0, "rental_uris": {"android": "https://dc.lft.to/lastmile_qr_scan", "ios": "https://dc.lft.to/lastmile_qr_scan"}, "type": "electric_scooter", "lat": 38.91962016666667, "is_reserved": 0, "fusion_lat": 0.0}, {"bike_id": "ae937bb0a9641f98df32d5cdb14522b0", "fusion_lon": 0.0, "lon": -77.01310716666667, "name": "ae937bb0a9641f98df32d5cdb14522b0", "is_disabled": 0, "rental_uris": {"android": "https://dc.lft.to/lastmile_qr_scan", "ios": "https://dc.lft.to/lastmile_qr_scan"}, "type": "electric_scooter", "lat": 38.914039333333335, "is_reserved": 0, "fusion_lat": 0.0}, {"bike_id": "a6252812e9a81db957340d10153e5d18", "fusion_lon": 0.0, "lon": -77.029708, "name": "a6252812e9a81db957340d10153e5d18", "is_disabled": 0, "rental_uris": {"android": "https://dc.lft.to/lastmile_qr_scan", "ios": "https://dc.lft.to/lastmile_qr_scan"}, "type": "electric_scooter", "lat": 38.931909166666664, "is_reserved": 0, "fusion_lat": 0.0}, {"bike_id": "9af74f8c00d61236b47af79786552a60", "fusion_lon": 0.0, "lon": -77.05063833333334, "name": "9af74f8c00d61236b47af79786552a60", "is_disabled": 0, "rental_uris": {"android": "https://dc.lft.to/lastmile_qr_scan", "ios": "https://dc.lft.to/lastmile_qr_scan"}, "type": "electric_scooter", "lat": 38.9233675, "is_reserved": 0, "fusion_lat": 0.0}, {"bike_id": "568a49ae9a68a5ccf05f5beb5764dfbe", "fusion_lon": 0.0, "lon": -77.04350616666666, "name": "568a49ae9a68a5ccf05f5beb5764dfbe", "is_disabled": 0, "rental_uris": {"android": "https://dc.lft.to/lastmile_qr_scan", "ios": "https://dc.lft.to/lastmile_qr_scan"}, "type": "electric_scooter", "lat": 38.913012, "is_reserved": 0, "fusion_lat": 0.0}, {"bike_id": "14861f0c24731281abd2d3bddb0ec6c7", "fusion_lon": 0.0, "lon": -77.00342766666667, "name": "14861f0c24731281abd2d3bddb0ec6c7", "is_disabled": 0, "rental_uris": {"android": "https://dc.lft.to/lastmile_qr_scan", "ios": "https://dc.lft.to/lastmile_qr_scan"}, "type": "electric_scooter", "lat": 38.88994816666667, "is_reserved": 0, "fusion_lat": 0.0}, {"bike_id": "07127a32a6ebbed428187d852aa53c18", "fusion_lon": 0.0, "lon": -76.9759315, "name": "07127a32a6ebbed428187d852aa53c18", "is_disabled": 0, "rental_uris": {"android": "https://dc.lft.to/lastmile_qr_scan", "ios": "https://dc.lft.to/lastmile_qr_scan"}, "type": "electric_scooter", "lat": 38.9032995, "is_reserved": 0, "fusion_lat": 0.0}, {"bike_id": "9221e0eecfe2dfbd3494e47ab50a9448", "fusion_lon": 0.0, "lon": -76.971913, "name": "9221e0eecfe2dfbd3494e47ab50a9448", "is_disabled": 0, "rental_uris": {"android": "https://dc.lft.to/lastmile_qr_scan", "ios": "https://dc.lft.to/lastmile_qr_scan"}, "type": "electric_bike", "lat": 38.9331615, "is_reserved": 0, "fusion_lat": 0.0}, {"bike_id": "aaa5c8375f023b2152eec6b8dc493b36", "fusion_lon": 0.0, "lon": -77.07823516666667, "name": "aaa5c8375f023b2152eec6b8dc493b36", "is_disabled": 0, "rental_uris": {"android": "https://dc.lft.to/lastmile_qr_scan", "ios": "https://dc.lft.to/lastmile_qr_scan"}, "type": "electric_scooter", "lat": 38.912716833333334, "is_reserved": 0, "fusion_lat": 0.0}, {"bike_id": "78fc555b7a21449f2ddfa73f70e1402f", "fusion_lon": 0.0, "lon": -77.032577, "name": "78fc555b7a21449f2ddfa73f70e1402f", "is_disabled": 0, "rental_uris": {"android": "https://dc.lft.to/lastmile_qr_scan", "ios": "https://dc.lft.to/lastmile_qr_scan"}, "type": "electric_scooter", "lat": 38.914006666666666, "is_reserved": 0, "fusion_lat": 0.0}, {"bike_id": "4ff344337fd572b3427327d0d96a27e0", "fusion_lon": 0.0, "lon": -77.0270835, "name": "4ff344337fd572b3427327d0d96a27e0", "is_disabled": 0, "rental_uris": {"android": "https://dc.lft.to/lastmile_qr_scan", "ios": "https://dc.lft.to/lastmile_qr_scan"}, "type": "electric_scooter", "lat": 38.920604833333336, "is_reserved": 0, "fusion_lat": 0.0}, {"bike_id": "b017f5a03d5e298aabe248fc5563771b", "fusion_lon": 0.0, "lon": -77.014697, "name": "b017f5a03d5e298aabe248fc5563771b", "is_disabled": 0, "rental_uris": {"android": "https://dc.lft.to/lastmile_qr_scan", "ios": "https://dc.lft.to/lastmile_qr_scan"}, "type": "electric_scooter", "lat": 38.91772866666667, "is_reserved": 0, "fusion_lat": 0.0}, {"bike_id": "14efff164e4c2a77e9e841670633d091", "fusion_lon": 0.0, "lon": -77.02293666666667, "name": "14efff164e4c2a77e9e841670633d091", "is_disabled": 0, "rental_uris": {"android": "https://dc.lft.to/lastmile_qr_scan", "ios": "https://dc.lft.to/lastmile_qr_scan"}, "type": "electric_scooter", "lat": 38.9180845, "is_reserved": 0, "fusion_lat": 0.0}, {"bike_id": "9cc77f4f894d58c4d38284684df222cb", "fusion_lon": 0.0, "lon": -77.0533265, "name": "9cc77f4f894d58c4d38284684df222cb", "is_disabled": 0, "rental_uris": {"android": "https://dc.lft.to/lastmile_qr_scan", "ios": "https://dc.lft.to/lastmile_qr_scan"}, "type": "electric_scooter", "lat": 38.904068333333335, "is_reserved": 0, "fusion_lat": 0.0}, {"bike_id": "eed9be76975e607d68a4ecb2dddffa24", "fusion_lon": 0.0, "lon": -77.02734416666667, "name": "eed9be76975e607d68a4ecb2dddffa24", "is_disabled": 0, "rental_uris": {"android": "https://dc.lft.to/lastmile_qr_scan", "ios": "https://dc.lft.to/lastmile_qr_scan"}, "type": "electric_scooter", "lat": 38.927645, "is_reserved": 0, "fusion_lat": 0.0}, {"bike_id": "e47573e222275b1ffe9608d694d185d6", "fusion_lon": 0.0, "lon": -76.98833583333334, "name": "e47573e222275b1ffe9608d694d185d6", "is_disabled": 0, "rental_uris": {"android": "https://dc.lft.to/lastmile_qr_scan", "ios": "https://dc.lft.to/lastmile_qr_scan"}, "type": "electric_scooter", "lat": 38.90022483333333, "is_reserved": 0, "fusion_lat": 0.0}, {"bike_id": "3fb2454f1b3460615b20488bdcd37943", "fusion_lon": 0.0, "lon": -76.9870045, "name": "3fb2454f1b3460615b20488bdcd37943", "is_disabled": 0, "rental_uris": {"android": "https://dc.lft.to/lastmile_qr_scan", "ios": "https://dc.lft.to/lastmile_qr_scan"}, "type": "electric_scooter", "lat": 38.862531, "is_reserved": 0, "fusion_lat": 0.0}, {"bike_id": "3cc17e2222abf2608f196d637c43181b", "fusion_lon": 0.0, "lon": -77.02763316666666, "name": "3cc17e2222abf2608f196d637c43181b", "is_disabled": 0, "rental_uris": {"android": "https://dc.lft.to/lastmile_qr_scan", "ios": "https://dc.lft.to/lastmile_qr_scan"}, "type": "electric_scooter", "lat": 38.9542725, "is_reserved": 0, "fusion_lat": 0.0}, {"bike_id": "ae6b0f514ce705f3d28cf21cccfc5629", "fusion_lon": 0.0, "lon": -76.99508683333333, "name": "ae6b0f514ce705f3d28cf21cccfc5629", "is_disabled": 0, "rental_uris": {"android": "https://dc.lft.to/lastmile_qr_scan", "ios": "https://dc.lft.to/lastmile_qr_scan"}, "type": "electric_scooter", "lat": 38.88249716666667, "is_reserved": 0, "fusion_lat": 0.0}, {"bike_id": "e079eb0a38485e8e05a0b8c0936f818b", "fusion_lon": 0.0, "lon": -77.03078233333333, "name": "e079eb0a38485e8e05a0b8c0936f818b", "is_disabled": 0, "rental_uris": {"android": "https://dc.lft.to/lastmile_qr_scan", "ios": "https://dc.lft.to/lastmile_qr_scan"}, "type": "electric_scooter", "lat": 38.9237345, "is_reserved": 0, "fusion_lat": 0.0}, {"bike_id": "7169519cc61c2fba6443c5d34e977f7d", "fusion_lon": 0.0, "lon": -77.021797, "name": "7169519cc61c2fba6443c5d34e977f7d", "is_disabled": 0, "rental_uris": {"android": "https://dc.lft.to/lastmile_qr_scan", "ios": "https://dc.lft.to/lastmile_qr_scan"}, "type": "electric_scooter", "lat": 38.91422716666667, "is_reserved": 0, "fusion_lat": 0.0}, {"bike_id": "b9208cbe3da564e9dd12e5559499fe62", "fusion_lon": 0.0, "lon": -77.05002466666667, "name": "b9208cbe3da564e9dd12e5559499fe62", "is_disabled": 0, "rental_uris": {"android": "https://dc.lft.to/lastmile_qr_scan", "ios": "https://dc.lft.to/lastmile_qr_scan"}, "type": "electric_scooter", "lat": 38.892319, "is_reserved": 0, "fusion_lat": 0.0}, {"bike_id": "b910c06f48486b2d78ea61d80499ea9a", "fusion_lon": 0.0, "lon": -77.03133683333333, "name": "b910c06f48486b2d78ea61d80499ea9a", "is_disabled": 0, "rental_uris": {"android": "https://dc.lft.to/lastmile_qr_scan", "ios": "https://dc.lft.to/lastmile_qr_scan"}, "type": "electric_scooter", "lat": 38.92380633333333, "is_reserved": 0, "fusion_lat": 0.0}, {"bike_id": "8432c4269b1918480f8310e3d87a0a93", "fusion_lon": 0.0, "lon": -77.05324566666667, "name": "8432c4269b1918480f8310e3d87a0a93", "is_disabled": 0, "rental_uris": {"android": "https://dc.lft.to/lastmile_qr_scan", "ios": "https://dc.lft.to/lastmile_qr_scan"}, "type": "electric_scooter", "lat": 38.923508, "is_reserved": 0, "fusion_lat": 0.0}, {"bike_id": "0083b7def69692ebec3a9d24e872a9d6", "fusion_lon": 0.0, "lon": -77.0466275, "name": "0083b7def69692ebec3a9d24e872a9d6", "is_disabled": 0, "rental_uris": {"android": "https://dc.lft.to/lastmile_qr_scan", "ios": "https://dc.lft.to/lastmile_qr_scan"}, "type": "electric_scooter", "lat": 38.892485666666666, "is_reserved": 0, "fusion_lat": 0.0}, {"bike_id": "6593ab485b37bd4d7aaac715244f5228", "fusion_lon": 0.0, "lon": -76.91601316666667, "name": "6593ab485b37bd4d7aaac715244f5228", "is_disabled": 0, "rental_uris": {"android": "https://dc.lft.to/lastmile_qr_scan", "ios": "https://dc.lft.to/lastmile_qr_scan"}, "type": "electric_bike", "lat": 38.87980233333333, "is_reserved": 0, "fusion_lat": 0.0}, {"bike_id": "b1fb388e54e0d439f78147e3adba57d4", "fusion_lon": 0.0, "lon": -77.023149, "name": "b1fb388e54e0d439f78147e3adba57d4", "is_disabled": 0, "rental_uris": {"android": "https://dc.lft.to/lastmile_qr_scan", "ios": "https://dc.lft.to/lastmile_qr_scan"}, "type": "electric_scooter", "lat": 38.895584666666664, "is_reserved": 0, "fusion_lat": 0.0}, {"bike_id": "c77fca89eeebbd79baf0ea4a9eb6ce3a", "fusion_lon": 0.0, "lon": -77.01845983333334, "name": "c77fca89eeebbd79baf0ea4a9eb6ce3a", "is_disabled": 0, "rental_uris": {"android": "https://dc.lft.to/lastmile_qr_scan", "ios": "https://dc.lft.to/lastmile_qr_scan"}, "type": "electric_scooter", "lat": 38.9001525, "is_reserved": 0, "fusion_lat": 0.0}, {"bike_id": "cf3eafdb7d1699b4d72a2b8e1c459d34", "fusion_lon": 0.0, "lon": -77.01605133333334, "name": "cf3eafdb7d1699b4d72a2b8e1c459d34", "is_disabled": 0, "rental_uris": {"android": "https://dc.lft.to/lastmile_qr_scan", "ios": "https://dc.lft.to/lastmile_qr_scan"}, "type": "electric_scooter", "lat": 38.91806116666667, "is_reserved": 0, "fusion_lat": 0.0}, {"bike_id": "77332188f067e07083c98554402c1a1b", "fusion_lon": 0.0, "lon": -77.0317205, "name": "77332188f067e07083c98554402c1a1b", "is_disabled": 0, "rental_uris": {"android": "https://dc.lft.to/lastmile_qr_scan", "ios": "https://dc.lft.to/lastmile_qr_scan"}, "type": "electric_scooter", "lat": 38.90955433333333, "is_reserved": 0, "fusion_lat": 0.0}, {"bike_id": "729bd24c7318112cc7026add0d00d1af", "fusion_lon": 0.0, "lon": -77.03072233333333, "name": "729bd24c7318112cc7026add0d00d1af", "is_disabled": 0, "rental_uris": {"android": "https://dc.lft.to/lastmile_qr_scan", "ios": "https://dc.lft.to/lastmile_qr_scan"}, "type": "electric_scooter", "lat": 38.9225135, "is_reserved": 0, "fusion_lat": 0.0}, {"bike_id": "a979aa424377732d8fdc8bc38d332247", "fusion_lon": 0.0, "lon": -77.04237883333333, "name": "a979aa424377732d8fdc8bc38d332247", "is_disabled": 0, "rental_uris": {"android": "https://dc.lft.to/lastmile_qr_scan", "ios": "https://dc.lft.to/lastmile_qr_scan"}, "type": "electric_scooter", "lat": 38.922201, "is_reserved": 0, "fusion_lat": 0.0}, {"bike_id": "c495e731a0daf2a281f36bcbc242dea6", "fusion_lon": 0.0, "lon": -77.03442333333334, "name": "c495e731a0daf2a281f36bcbc242dea6", "is_disabled": 0, "rental_uris": {"android": "https://dc.lft.to/lastmile_qr_scan", "ios": "https://dc.lft.to/lastmile_qr_scan"}, "type": "electric_scooter", "lat": 38.90727583333333, "is_reserved": 0, "fusion_lat": 0.0}, {"bike_id": "2a933d5d4daae727e95d566c61e18f5e", "fusion_lon": 0.0, "lon": -77.00596483333334, "name": "2a933d5d4daae727e95d566c61e18f5e", "is_disabled": 0, "rental_uris": {"android": "https://dc.lft.to/lastmile_qr_scan", "ios": "https://dc.lft.to/lastmile_qr_scan"}, "type": "electric_scooter", "lat": 38.905662, "is_reserved": 0, "fusion_lat": 0.0}, {"bike_id": "c067611a1bfbe8508c881720d394ef33", "fusion_lon": 0.0, "lon": -77.01550016666667, "name": "c067611a1bfbe8508c881720d394ef33", "is_disabled": 0, "rental_uris": {"android": "https://dc.lft.to/lastmile_qr_scan", "ios": "https://dc.lft.to/lastmile_qr_scan"}, "type": "electric_scooter", "lat": 38.8913615, "is_reserved": 0, "fusion_lat": 0.0}, {"bike_id": "ab52135d07bd5cd2e69d08ed97cc9329", "fusion_lon": 0.0, "lon": -77.05100933333334, "name": "ab52135d07bd5cd2e69d08ed97cc9329", "is_disabled": 0, "rental_uris": {"android": "https://dc.lft.to/lastmile_qr_scan", "ios": "https://dc.lft.to/lastmile_qr_scan"}, "type": "electric_scooter", "lat": 38.92341416666667, "is_reserved": 0, "fusion_lat": 0.0}, {"bike_id": "c633e462d046274cfb2f019cf84aeb15", "fusion_lon": 0.0, "lon": -77.049233, "name": "c633e462d046274cfb2f019cf84aeb15", "is_disabled": 0, "rental_uris": {"android": "https://dc.lft.to/lastmile_qr_scan", "ios": "https://dc.lft.to/lastmile_qr_scan"}, "type": "electric_bike", "lat": 38.81347683333333, "is_reserved": 0, "fusion_lat": 0.0}, {"bike_id": "a7f47a4f5369631697042eeeaa2be584", "fusion_lon": 0.0, "lon": -77.02409366666667, "name": "a7f47a4f5369631697042eeeaa2be584", "is_disabled": 0, "rental_uris": {"android": "https://dc.lft.to/lastmile_qr_scan", "ios": "https://dc.lft.to/lastmile_qr_scan"}, "type": "electric_scooter", "lat": 38.91746916666666, "is_reserved": 0, "fusion_lat": 0.0}, {"bike_id": "6ebe32992396d4af74300a915aa66b95", "fusion_lon": 0.0, "lon": -77.028, "name": "6ebe32992396d4af74300a915aa66b95", "is_disabled": 0, "rental_uris": {"android": "https://dc.lft.to/lastmile_qr_scan", "ios": "https://dc.lft.to/lastmile_qr_scan"}, "type": "electric_scooter", "lat": 38.930803, "is_reserved": 0, "fusion_lat": 0.0}, {"bike_id": "3abb85204792208d22c297da4a7363b3", "fusion_lon": 0.0, "lon": -77.0281835, "name": "3abb85204792208d22c297da4a7363b3", "is_disabled": 0, "rental_uris": {"android": "https://dc.lft.to/lastmile_qr_scan", "ios": "https://dc.lft.to/lastmile_qr_scan"}, "type": "electric_scooter", "lat": 38.916897166666665, "is_reserved": 0, "fusion_lat": 0.0}, {"bike_id": "09625a841ef7d42d5195474b2f47db60", "fusion_lon": 0.0, "lon": -77.01201283333333, "name": "09625a841ef7d42d5195474b2f47db60", "is_disabled": 0, "rental_uris": {"android": "https://dc.lft.to/lastmile_qr_scan", "ios": "https://dc.lft.to/lastmile_qr_scan"}, "type": "electric_scooter", "lat": 38.90008916666667, "is_reserved": 0, "fusion_lat": 0.0}, {"bike_id": "7d172b64260a6f31889e1cfc60e54a7b", "fusion_lon": 0.0, "lon": -77.02078683333333, "name": "7d172b64260a6f31889e1cfc60e54a7b", "is_disabled": 0, "rental_uris": {"android": "https://dc.lft.to/lastmile_qr_scan", "ios": "https://dc.lft.to/lastmile_qr_scan"}, "type": "electric_scooter", "lat": 38.92721233333333, "is_reserved": 0, "fusion_lat": 0.0}, {"bike_id": "0ef6a2b720f04d9605465d8d46cd7b06", "fusion_lon": 0.0, "lon": -77.04545733333333, "name": "0ef6a2b720f04d9605465d8d46cd7b06", "is_disabled": 0, "rental_uris": {"android": "https://dc.lft.to/lastmile_qr_scan", "ios": "https://dc.lft.to/lastmile_qr_scan"}, "type": "electric_scooter", "lat": 38.93407466666667, "is_reserved": 0, "fusion_lat": 0.0}, {"bike_id": "00d73f82d6210ca666c5beb676927867", "fusion_lon": 0.0, "lon": -77.03528916666667, "name": "00d73f82d6210ca666c5beb676927867", "is_disabled": 0, "rental_uris": {"android": "https://dc.lft.to/lastmile_qr_scan", "ios": "https://dc.lft.to/lastmile_qr_scan"}, "type": "electric_scooter", "lat": 38.90080316666667, "is_reserved": 0, "fusion_lat": 0.0}, {"bike_id": "410daa051136a3346284a100c14722fa", "fusion_lon": 0.0, "lon": -77.0351505, "name": "410daa051136a3346284a100c14722fa", "is_disabled": 0, "rental_uris": {"android": "https://dc.lft.to/lastmile_qr_scan", "ios": "https://dc.lft.to/lastmile_qr_scan"}, "type": "electric_bike", "lat": 38.96201716666667, "is_reserved": 0, "fusion_lat": 0.0}, {"bike_id": "f56fad2f7e865994004627223f147895", "fusion_lon": 0.0, "lon": -77.05862833333333, "name": "f56fad2f7e865994004627223f147895", "is_disabled": 0, "rental_uris": {"android": "https://dc.lft.to/lastmile_qr_scan", "ios": "https://dc.lft.to/lastmile_qr_scan"}, "type": "electric_scooter", "lat": 38.93606616666667, "is_reserved": 0, "fusion_lat": 0.0}, {"bike_id": "6ff36507be4771be761dbacbd4a14ea4", "fusion_lon": 0.0, "lon": -77.00677816666666, "name": "6ff36507be4771be761dbacbd4a14ea4", "is_disabled": 0, "rental_uris": {"android": "https://dc.lft.to/lastmile_qr_scan", "ios": "https://dc.lft.to/lastmile_qr_scan"}, "type": "electric_scooter", "lat": 38.90013483333333, "is_reserved": 0, "fusion_lat": 0.0}, {"bike_id": "fd5b8804b3527acbc107bc15c66ef951", "fusion_lon": 0.0, "lon": -77.03862983333333, "name": "fd5b8804b3527acbc107bc15c66ef951", "is_disabled": 0, "rental_uris": {"android": "https://dc.lft.to/lastmile_qr_scan", "ios": "https://dc.lft.to/lastmile_qr_scan"}, "type": "electric_scooter", "lat": 38.918186166666665, "is_reserved": 0, "fusion_lat": 0.0}, {"bike_id": "ed7566e736d858e43f9b6c1eefabd384", "fusion_lon": 0.0, "lon": -77.02548533333334, "name": "ed7566e736d858e43f9b6c1eefabd384", "is_disabled": 0, "rental_uris": {"android": "https://dc.lft.to/lastmile_qr_scan", "ios": "https://dc.lft.to/lastmile_qr_scan"}, "type": "electric_scooter", "lat": 38.94113316666667, "is_reserved": 0, "fusion_lat": 0.0}, {"bike_id": "e64189e986060d25de0cfb7ca8ff5169", "fusion_lon": 0.0, "lon": -77.02525516666667, "name": "e64189e986060d25de0cfb7ca8ff5169", "is_disabled": 0, "rental_uris": {"android": "https://dc.lft.to/lastmile_qr_scan", "ios": "https://dc.lft.to/lastmile_qr_scan"}, "type": "electric_scooter", "lat": 38.920782333333335, "is_reserved": 0, "fusion_lat": 0.0}, {"bike_id": "093cf7dfe676c4e30080eba680e58804", "fusion_lon": 0.0, "lon": -77.041915, "name": "093cf7dfe676c4e30080eba680e58804", "is_disabled": 0, "rental_uris": {"android": "https://dc.lft.to/lastmile_qr_scan", "ios": "https://dc.lft.to/lastmile_qr_scan"}, "type": "electric_scooter", "lat": 38.90588366666667, "is_reserved": 0, "fusion_lat": 0.0}, {"bike_id": "889e18746de902a5709a2b4378357dac", "fusion_lon": 0.0, "lon": -77.05171166666666, "name": "889e18746de902a5709a2b4378357dac", "is_disabled": 0, "rental_uris": {"android": "https://dc.lft.to/lastmile_qr_scan", "ios": "https://dc.lft.to/lastmile_qr_scan"}, "type": "electric_scooter", "lat": 38.90066766666666, "is_reserved": 0, "fusion_lat": 0.0}, {"bike_id": "afec917cab6c70c7f9f7d71ccff92a9b", "fusion_lon": 0.0, "lon": -77.02814416666666, "name": "afec917cab6c70c7f9f7d71ccff92a9b", "is_disabled": 0, "rental_uris": {"android": "https://dc.lft.to/lastmile_qr_scan", "ios": "https://dc.lft.to/lastmile_qr_scan"}, "type": "electric_scooter", "lat": 38.91687733333333, "is_reserved": 0, "fusion_lat": 0.0}, {"bike_id": "ba45143d97c5c8146e1672c493f62877", "fusion_lon": 0.0, "lon": -77.04098, "name": "ba45143d97c5c8146e1672c493f62877", "is_disabled": 0, "rental_uris": {"android": "https://dc.lft.to/lastmile_qr_scan", "ios": "https://dc.lft.to/lastmile_qr_scan"}, "type": "electric_scooter", "lat": 38.91777916666667, "is_reserved": 0, "fusion_lat": 0.0}, {"bike_id": "a5a7c2cf4f3429da8a1c6a74cf38f417", "fusion_lon": 0.0, "lon": -77.052241, "name": "a5a7c2cf4f3429da8a1c6a74cf38f417", "is_disabled": 0, "rental_uris": {"android": "https://dc.lft.to/lastmile_qr_scan", "ios": "https://dc.lft.to/lastmile_qr_scan"}, "type": "electric_scooter", "lat": 38.92456816666667, "is_reserved": 0, "fusion_lat": 0.0}, {"bike_id": "86f4cdadea87597192aca3f49356df6e", "fusion_lon": 0.0, "lon": -77.04203466666667, "name": "86f4cdadea87597192aca3f49356df6e", "is_disabled": 0, "rental_uris": {"android": "https://dc.lft.to/lastmile_qr_scan", "ios": "https://dc.lft.to/lastmile_qr_scan"}, "type": "electric_scooter", "lat": 38.911275, "is_reserved": 0, "fusion_lat": 0.0}, {"bike_id": "2eff416b8ac1b2f675f03b53a8dabc46", "fusion_lon": 0.0, "lon": -77.04227116666667, "name": "2eff416b8ac1b2f675f03b53a8dabc46", "is_disabled": 0, "rental_uris": {"android": "https://dc.lft.to/lastmile_qr_scan", "ios": "https://dc.lft.to/lastmile_qr_scan"}, "type": "electric_scooter", "lat": 38.92064666666667, "is_reserved": 0, "fusion_lat": 0.0}, {"bike_id": "05af4ae782f6569b02599c2dad2a9ad2", "fusion_lon": 0.0, "lon": -77.02765333333333, "name": "05af4ae782f6569b02599c2dad2a9ad2", "is_disabled": 0, "rental_uris": {"android": "https://dc.lft.to/lastmile_qr_scan", "ios": "https://dc.lft.to/lastmile_qr_scan"}, "type": "electric_scooter", "lat": 38.95426666666667, "is_reserved": 0, "fusion_lat": 0.0}, {"bike_id": "1ae84b005c2aa9b520a28c2a61e07671", "fusion_lon": 0.0, "lon": -76.96528066666667, "name": "1ae84b005c2aa9b520a28c2a61e07671", "is_disabled": 0, "rental_uris": {"android": "https://dc.lft.to/lastmile_qr_scan", "ios": "https://dc.lft.to/lastmile_qr_scan"}, "type": "electric_scooter", "lat": 38.87627116666667, "is_reserved": 0, "fusion_lat": 0.0}, {"bike_id": "5a52fe203c50c36819109617de27425b", "fusion_lon": 0.0, "lon": -77.0268615, "name": "5a52fe203c50c36819109617de27425b", "is_disabled": 0, "rental_uris": {"android": "https://dc.lft.to/lastmile_qr_scan", "ios": "https://dc.lft.to/lastmile_qr_scan"}, "type": "electric_scooter", "lat": 38.8812225, "is_reserved": 0, "fusion_lat": 0.0}, {"bike_id": "511346d73eea4e7eb4d3305688539d41", "fusion_lon": 0.0, "lon": -77.04329983333334, "name": "511346d73eea4e7eb4d3305688539d41", "is_disabled": 0, "rental_uris": {"android": "https://dc.lft.to/lastmile_qr_scan", "ios": "https://dc.lft.to/lastmile_qr_scan"}, "type": "electric_scooter", "lat": 38.892212666666666, "is_reserved": 0, "fusion_lat": 0.0}, {"bike_id": "b93750958323411076284b83971caab4", "fusion_lon": 0.0, "lon": -76.90973283333334, "name": "b93750958323411076284b83971caab4", "is_disabled": 0, "rental_uris": {"android": "https://dc.lft.to/lastmile_qr_scan", "ios": "https://dc.lft.to/lastmile_qr_scan"}, "type": "electric_bike", "lat": 38.854250666666665, "is_reserved": 0, "fusion_lat": 0.0}, {"bike_id": "9dac5b288d64c16d425a55f1d028b5ee", "fusion_lon": 0.0, "lon": -76.9955755, "name": "9dac5b288d64c16d425a55f1d028b5ee", "is_disabled": 0, "rental_uris": {"android": "https://dc.lft.to/lastmile_qr_scan", "ios": "https://dc.lft.to/lastmile_qr_scan"}, "type": "electric_scooter", "lat": 38.92029483333334, "is_reserved": 0, "fusion_lat": 0.0}, {"bike_id": "eac9687fe12008333bfe8d8e9e2be194", "fusion_lon": 0.0, "lon": -77.02513983333333, "name": "eac9687fe12008333bfe8d8e9e2be194", "is_disabled": 0, "rental_uris": {"android": "https://dc.lft.to/lastmile_qr_scan", "ios": "https://dc.lft.to/lastmile_qr_scan"}, "type": "electric_scooter", "lat": 38.946179, "is_reserved": 0, "fusion_lat": 0.0}, {"bike_id": "d3fcc8375da27a2e57a8876c6752bcd7", "fusion_lon": 0.0, "lon": -77.00573966666667, "name": "d3fcc8375da27a2e57a8876c6752bcd7", "is_disabled": 0, "rental_uris": {"android": "https://dc.lft.to/lastmile_qr_scan", "ios": "https://dc.lft.to/lastmile_qr_scan"}, "type": "electric_scooter", "lat": 38.905633333333334, "is_reserved": 0, "fusion_lat": 0.0}, {"bike_id": "2e725e8c7e0c9e72d0255596f9cb49e7", "fusion_lon": 0.0, "lon": -77.05395166666666, "name": "2e725e8c7e0c9e72d0255596f9cb49e7", "is_disabled": 0, "rental_uris": {"android": "https://dc.lft.to/lastmile_qr_scan", "ios": "https://dc.lft.to/lastmile_qr_scan"}, "type": "electric_scooter", "lat": 38.92808433333333, "is_reserved": 0, "fusion_lat": 0.0}, {"bike_id": "8b55716c5d3f748c6adfd3e9cf2fa6e1", "fusion_lon": 0.0, "lon": -77.03659633333334, "name": "8b55716c5d3f748c6adfd3e9cf2fa6e1", "is_disabled": 0, "rental_uris": {"android": "https://dc.lft.to/lastmile_qr_scan", "ios": "https://dc.lft.to/lastmile_qr_scan"}, "type": "electric_scooter", "lat": 38.9298385, "is_reserved": 0, "fusion_lat": 0.0}, {"bike_id": "e3f148d3c6e9fe97c32c5ed7d87a2830", "fusion_lon": 0.0, "lon": -77.0352885, "name": "e3f148d3c6e9fe97c32c5ed7d87a2830", "is_disabled": 0, "rental_uris": {"android": "https://dc.lft.to/lastmile_qr_scan", "ios": "https://dc.lft.to/lastmile_qr_scan"}, "type": "electric_scooter", "lat": 38.923195, "is_reserved": 0, "fusion_lat": 0.0}, {"bike_id": "0e2c2210af1f63eb3a8a2aa76a590087", "fusion_lon": 0.0, "lon": -77.01190333333334, "name": "0e2c2210af1f63eb3a8a2aa76a590087", "is_disabled": 0, "rental_uris": {"android": "https://dc.lft.to/lastmile_qr_scan", "ios": "https://dc.lft.to/lastmile_qr_scan"}, "type": "electric_scooter", "lat": 38.915559333333334, "is_reserved": 0, "fusion_lat": 0.0}, {"bike_id": "af8e7d8c07c3900b1a54a3fb33de1c62", "fusion_lon": 0.0, "lon": -77.00679666666667, "name": "af8e7d8c07c3900b1a54a3fb33de1c62", "is_disabled": 0, "rental_uris": {"android": "https://dc.lft.to/lastmile_qr_scan", "ios": "https://dc.lft.to/lastmile_qr_scan"}, "type": "electric_bike", "lat": 38.945116666666664, "is_reserved": 0, "fusion_lat": 0.0}, {"bike_id": "10a284355f502786f6e42522535df844", "fusion_lon": 0.0, "lon": -77.019473, "name": "10a284355f502786f6e42522535df844", "is_disabled": 0, "rental_uris": {"android": "https://dc.lft.to/lastmile_qr_scan", "ios": "https://dc.lft.to/lastmile_qr_scan"}, "type": "electric_scooter", "lat": 38.9241605, "is_reserved": 0, "fusion_lat": 0.0}, {"bike_id": "68a98810cddfe541ac34fd2342799faa", "fusion_lon": 0.0, "lon": -76.9871335, "name": "68a98810cddfe541ac34fd2342799faa", "is_disabled": 0, "rental_uris": {"android": "https://dc.lft.to/lastmile_qr_scan", "ios": "https://dc.lft.to/lastmile_qr_scan"}, "type": "electric_scooter", "lat": 38.866999, "is_reserved": 0, "fusion_lat": 0.0}, {"bike_id": "8b565a5c828b3e40ebec45b56a92903f", "fusion_lon": 0.0, "lon": -77.037016, "name": "8b565a5c828b3e40ebec45b56a92903f", "is_disabled": 0, "rental_uris": {"android": "https://dc.lft.to/lastmile_qr_scan", "ios": "https://dc.lft.to/lastmile_qr_scan"}, "type": "electric_scooter", "lat": 38.926341666666666, "is_reserved": 0, "fusion_lat": 0.0}, {"bike_id": "f63d12abe0b2f70fdbb9c554e623c775", "fusion_lon": 0.0, "lon": -76.9494475, "name": "f63d12abe0b2f70fdbb9c554e623c775", "is_disabled": 0, "rental_uris": {"android": "https://dc.lft.to/lastmile_qr_scan", "ios": "https://dc.lft.to/lastmile_qr_scan"}, "type": "electric_scooter", "lat": 38.89350066666667, "is_reserved": 0, "fusion_lat": 0.0}, {"bike_id": "f3c0cda4a462024a648ac02f4d556f75", "fusion_lon": 0.0, "lon": -77.01801016666667, "name": "f3c0cda4a462024a648ac02f4d556f75", "is_disabled": 0, "rental_uris": {"android": "https://dc.lft.to/lastmile_qr_scan", "ios": "https://dc.lft.to/lastmile_qr_scan"}, "type": "electric_scooter", "lat": 38.90823666666667, "is_reserved": 0, "fusion_lat": 0.0}, {"bike_id": "371eaae23feec7cba75b4ca2e03941c9", "fusion_lon": 0.0, "lon": -77.03347766666667, "name": "371eaae23feec7cba75b4ca2e03941c9", "is_disabled": 0, "rental_uris": {"android": "https://dc.lft.to/lastmile_qr_scan", "ios": "https://dc.lft.to/lastmile_qr_scan"}, "type": "electric_scooter", "lat": 38.89838616666667, "is_reserved": 0, "fusion_lat": 0.0}, {"bike_id": "2ed3ecf8d52a5893a4f39f1c458ff5d3", "fusion_lon": 0.0, "lon": -77.0165545, "name": "2ed3ecf8d52a5893a4f39f1c458ff5d3", "is_disabled": 0, "rental_uris": {"android": "https://dc.lft.to/lastmile_qr_scan", "ios": "https://dc.lft.to/lastmile_qr_scan"}, "type": "electric_scooter", "lat": 38.915864, "is_reserved": 0, "fusion_lat": 0.0}, {"bike_id": "d484da10d7799e3fbab2c8a51f91f6a1", "fusion_lon": 0.0, "lon": -76.99087716666666, "name": "d484da10d7799e3fbab2c8a51f91f6a1", "is_disabled": 0, "rental_uris": {"android": "https://dc.lft.to/lastmile_qr_scan", "ios": "https://dc.lft.to/lastmile_qr_scan"}, "type": "electric_scooter", "lat": 38.92952116666667, "is_reserved": 0, "fusion_lat": 0.0}, {"bike_id": "e22cf7b5f3fc00e9e40dece7a0c1299f", "fusion_lon": 0.0, "lon": -77.02330066666667, "name": "e22cf7b5f3fc00e9e40dece7a0c1299f", "is_disabled": 0, "rental_uris": {"android": "https://dc.lft.to/lastmile_qr_scan", "ios": "https://dc.lft.to/lastmile_qr_scan"}, "type": "electric_scooter", "lat": 38.9270265, "is_reserved": 0, "fusion_lat": 0.0}, {"bike_id": "16496488e6ff7e9125af6d04dc566a9e", "fusion_lon": 0.0, "lon": -77.0351505, "name": "16496488e6ff7e9125af6d04dc566a9e", "is_disabled": 0, "rental_uris": {"android": "https://dc.lft.to/lastmile_qr_scan", "ios": "https://dc.lft.to/lastmile_qr_scan"}, "type": "electric_scooter", "lat": 38.926338666666666, "is_reserved": 0, "fusion_lat": 0.0}, {"bike_id": "9af5b8909e64e2f7b3497dacf6a76faa", "fusion_lon": 0.0, "lon": -77.04192333333333, "name": "9af5b8909e64e2f7b3497dacf6a76faa", "is_disabled": 0, "rental_uris": {"android": "https://dc.lft.to/lastmile_qr_scan", "ios": "https://dc.lft.to/lastmile_qr_scan"}, "type": "electric_scooter", "lat": 38.92054733333333, "is_reserved": 0, "fusion_lat": 0.0}, {"bike_id": "668212dc4bbb9103c021eb8d61d3ed1d", "fusion_lon": 0.0, "lon": -77.03456316666667, "name": "668212dc4bbb9103c021eb8d61d3ed1d", "is_disabled": 0, "rental_uris": {"android": "https://dc.lft.to/lastmile_qr_scan", "ios": "https://dc.lft.to/lastmile_qr_scan"}, "type": "electric_scooter", "lat": 38.907553666666665, "is_reserved": 0, "fusion_lat": 0.0}, {"bike_id": "f98362b817df47c00cf76da0048db346", "fusion_lon": 0.0, "lon": -76.99904766666667, "name": "f98362b817df47c00cf76da0048db346", "is_disabled": 0, "rental_uris": {"android": "https://dc.lft.to/lastmile_qr_scan", "ios": "https://dc.lft.to/lastmile_qr_scan"}, "type": "electric_scooter", "lat": 38.948249, "is_reserved": 0, "fusion_lat": 0.0}, {"bike_id": "57704d069bff72033e9d95df34a83742", "fusion_lon": 0.0, "lon": -77.02717283333334, "name": "57704d069bff72033e9d95df34a83742", "is_disabled": 0, "rental_uris": {"android": "https://dc.lft.to/lastmile_qr_scan", "ios": "https://dc.lft.to/lastmile_qr_scan"}, "type": "electric_scooter", "lat": 38.9095345, "is_reserved": 0, "fusion_lat": 0.0}, {"bike_id": "8cfc8f9ef28889650f24aa206656cc58", "fusion_lon": 0.0, "lon": -77.05117283333334, "name": "8cfc8f9ef28889650f24aa206656cc58", "is_disabled": 0, "rental_uris": {"android": "https://dc.lft.to/lastmile_qr_scan", "ios": "https://dc.lft.to/lastmile_qr_scan"}, "type": "electric_scooter", "lat": 38.90509383333333, "is_reserved": 0, "fusion_lat": 0.0}, {"bike_id": "ea4f34cbe80eec1d0778577968972c84", "fusion_lon": 0.0, "lon": -76.98714833333334, "name": "ea4f34cbe80eec1d0778577968972c84", "is_disabled": 0, "rental_uris": {"android": "https://dc.lft.to/lastmile_qr_scan", "ios": "https://dc.lft.to/lastmile_qr_scan"}, "type": "electric_scooter", "lat": 38.9006385, "is_reserved": 0, "fusion_lat": 0.0}, {"bike_id": "34b48e3f9781e23a89d4d85aa199f66c", "fusion_lon": 0.0, "lon": -77.0249255, "name": "34b48e3f9781e23a89d4d85aa199f66c", "is_disabled": 0, "rental_uris": {"android": "https://dc.lft.to/lastmile_qr_scan", "ios": "https://dc.lft.to/lastmile_qr_scan"}, "type": "electric_scooter", "lat": 38.94308383333333, "is_reserved": 0, "fusion_lat": 0.0}, {"bike_id": "363d32b8e3127ba6e85df55b102bf7ab", "fusion_lon": 0.0, "lon": -76.98688433333334, "name": "363d32b8e3127ba6e85df55b102bf7ab", "is_disabled": 0, "rental_uris": {"android": "https://dc.lft.to/lastmile_qr_scan", "ios": "https://dc.lft.to/lastmile_qr_scan"}, "type": "electric_bike", "lat": 38.944724666666666, "is_reserved": 0, "fusion_lat": 0.0}, {"bike_id": "44095c95fe30f38000ae49032f11d0bc", "fusion_lon": 0.0, "lon": -77.05545883333333, "name": "44095c95fe30f38000ae49032f11d0bc", "is_disabled": 0, "rental_uris": {"android": "https://dc.lft.to/lastmile_qr_scan", "ios": "https://dc.lft.to/lastmile_qr_scan"}, "type": "electric_scooter", "lat": 38.930062166666666, "is_reserved": 0, "fusion_lat": 0.0}, {"bike_id": "cf648ccef601026fed6345e57c69fc14", "fusion_lon": 0.0, "lon": -77.02446433333333, "name": "cf648ccef601026fed6345e57c69fc14", "is_disabled": 0, "rental_uris": {"android": "https://dc.lft.to/lastmile_qr_scan", "ios": "https://dc.lft.to/lastmile_qr_scan"}, "type": "electric_scooter", "lat": 38.91271016666666, "is_reserved": 0, "fusion_lat": 0.0}, {"bike_id": "8980fecf55ad8c37ab128e614de2d361", "fusion_lon": 0.0, "lon": -77.01421933333333, "name": "8980fecf55ad8c37ab128e614de2d361", "is_disabled": 0, "rental_uris": {"android": "https://dc.lft.to/lastmile_qr_scan", "ios": "https://dc.lft.to/lastmile_qr_scan"}, "type": "electric_scooter", "lat": 38.928377833333336, "is_reserved": 0, "fusion_lat": 0.0}, {"bike_id": "52ef2a20fded7501482f314f5f70661d", "fusion_lon": 0.0, "lon": -77.060044, "name": "52ef2a20fded7501482f314f5f70661d", "is_disabled": 0, "rental_uris": {"android": "https://dc.lft.to/lastmile_qr_scan", "ios": "https://dc.lft.to/lastmile_qr_scan"}, "type": "electric_scooter", "lat": 38.901763, "is_reserved": 0, "fusion_lat": 0.0}, {"bike_id": "8b59e31da4caed273d4798044c889775", "fusion_lon": 0.0, "lon": -77.02402333333333, "name": "8b59e31da4caed273d4798044c889775", "is_disabled": 0, "rental_uris": {"android": "https://dc.lft.to/lastmile_qr_scan", "ios": "https://dc.lft.to/lastmile_qr_scan"}, "type": "electric_scooter", "lat": 38.9151565, "is_reserved": 0, "fusion_lat": 0.0}, {"bike_id": "9f967580b6cd121eb2d6765259eb0bd0", "fusion_lon": 0.0, "lon": -77.0020885, "name": "9f967580b6cd121eb2d6765259eb0bd0", "is_disabled": 0, "rental_uris": {"android": "https://dc.lft.to/lastmile_qr_scan", "ios": "https://dc.lft.to/lastmile_qr_scan"}, "type": "electric_scooter", "lat": 38.907910666666666, "is_reserved": 0, "fusion_lat": 0.0}, {"bike_id": "d53f842ccb6774e42cd7ba094c83eb70", "fusion_lon": 0.0, "lon": -77.03542316666666, "name": "d53f842ccb6774e42cd7ba094c83eb70", "is_disabled": 0, "rental_uris": {"android": "https://dc.lft.to/lastmile_qr_scan", "ios": "https://dc.lft.to/lastmile_qr_scan"}, "type": "electric_scooter", "lat": 38.9247505, "is_reserved": 0, "fusion_lat": 0.0}, {"bike_id": "f72717ff2344c41fcb4c88974007766b", "fusion_lon": 0.0, "lon": -77.03279766666667, "name": "f72717ff2344c41fcb4c88974007766b", "is_disabled": 0, "rental_uris": {"android": "https://dc.lft.to/lastmile_qr_scan", "ios": "https://dc.lft.to/lastmile_qr_scan"}, "type": "electric_scooter", "lat": 38.9161855, "is_reserved": 0, "fusion_lat": 0.0}, {"bike_id": "bd2005b905b68fe79ff6b02d5c772371", "fusion_lon": 0.0, "lon": -77.02703816666667, "name": "bd2005b905b68fe79ff6b02d5c772371", "is_disabled": 0, "rental_uris": {"android": "https://dc.lft.to/lastmile_qr_scan", "ios": "https://dc.lft.to/lastmile_qr_scan"}, "type": "electric_scooter", "lat": 38.91801816666667, "is_reserved": 0, "fusion_lat": 0.0}, {"bike_id": "fc0d1888fbfb3f5957be34ca063242f7", "fusion_lon": 0.0, "lon": -77.02439733333334, "name": "fc0d1888fbfb3f5957be34ca063242f7", "is_disabled": 0, "rental_uris": {"android": "https://dc.lft.to/lastmile_qr_scan", "ios": "https://dc.lft.to/lastmile_qr_scan"}, "type": "electric_bike", "lat": 38.94828283333333, "is_reserved": 0, "fusion_lat": 0.0}, {"bike_id": "d324092d6ae4a12d539d731628d7f727", "fusion_lon": 0.0, "lon": -77.0378385, "name": "d324092d6ae4a12d539d731628d7f727", "is_disabled": 0, "rental_uris": {"android": "https://dc.lft.to/lastmile_qr_scan", "ios": "https://dc.lft.to/lastmile_qr_scan"}, "type": "electric_scooter", "lat": 38.925048833333335, "is_reserved": 0, "fusion_lat": 0.0}, {"bike_id": "c9b83820af14c61f1069ef0ed746dce3", "fusion_lon": 0.0, "lon": -77.03479916666667, "name": "c9b83820af14c61f1069ef0ed746dce3", "is_disabled": 0, "rental_uris": {"android": "https://dc.lft.to/lastmile_qr_scan", "ios": "https://dc.lft.to/lastmile_qr_scan"}, "type": "electric_bike", "lat": 38.935362833333336, "is_reserved": 0, "fusion_lat": 0.0}, {"bike_id": "734b4e7701d6afacc769cbae7c7e9683", "fusion_lon": 0.0, "lon": -76.99430616666666, "name": "734b4e7701d6afacc769cbae7c7e9683", "is_disabled": 0, "rental_uris": {"android": "https://dc.lft.to/lastmile_qr_scan", "ios": "https://dc.lft.to/lastmile_qr_scan"}, "type": "electric_scooter", "lat": 38.90316766666667, "is_reserved": 0, "fusion_lat": 0.0}, {"bike_id": "fde4d9761044cd93ace1a589d48e7b94", "fusion_lon": 0.0, "lon": -77.02960483333334, "name": "fde4d9761044cd93ace1a589d48e7b94", "is_disabled": 0, "rental_uris": {"android": "https://dc.lft.to/lastmile_qr_scan", "ios": "https://dc.lft.to/lastmile_qr_scan"}, "type": "electric_scooter", "lat": 38.883992666666664, "is_reserved": 0, "fusion_lat": 0.0}, {"bike_id": "ee2b576ca386648aa636610782d41e3d", "fusion_lon": 0.0, "lon": -77.1009465, "name": "ee2b576ca386648aa636610782d41e3d", "is_disabled": 0, "rental_uris": {"android": "https://dc.lft.to/lastmile_qr_scan", "ios": "https://dc.lft.to/lastmile_qr_scan"}, "type": "electric_bike", "lat": 38.9595785, "is_reserved": 0, "fusion_lat": 0.0}, {"bike_id": "04b53b6ff87880e9eb614d92988ca7f5", "fusion_lon": 0.0, "lon": -77.0320015, "name": "04b53b6ff87880e9eb614d92988ca7f5", "is_disabled": 0, "rental_uris": {"android": "https://dc.lft.to/lastmile_qr_scan", "ios": "https://dc.lft.to/lastmile_qr_scan"}, "type": "electric_scooter", "lat": 38.9147725, "is_reserved": 0, "fusion_lat": 0.0}, {"bike_id": "ee9d7e5b7c851c80895d75130af53296", "fusion_lon": 0.0, "lon": -77.0379145, "name": "ee9d7e5b7c851c80895d75130af53296", "is_disabled": 0, "rental_uris": {"android": "https://dc.lft.to/lastmile_qr_scan", "ios": "https://dc.lft.to/lastmile_qr_scan"}, "type": "electric_scooter", "lat": 38.9249885, "is_reserved": 0, "fusion_lat": 0.0}, {"bike_id": "f5451cbec093ecb6147c04077383d488", "fusion_lon": 0.0, "lon": -76.98822366666667, "name": "f5451cbec093ecb6147c04077383d488", "is_disabled": 0, "rental_uris": {"android": "https://dc.lft.to/lastmile_qr_scan", "ios": "https://dc.lft.to/lastmile_qr_scan"}, "type": "electric_scooter", "lat": 38.900386166666664, "is_reserved": 0, "fusion_lat": 0.0}, {"bike_id": "34a0c10df95469c545335da4016c68a0", "fusion_lon": 0.0, "lon": -77.01662483333334, "name": "34a0c10df95469c545335da4016c68a0", "is_disabled": 0, "rental_uris": {"android": "https://dc.lft.to/lastmile_qr_scan", "ios": "https://dc.lft.to/lastmile_qr_scan"}, "type": "electric_scooter", "lat": 38.881175166666665, "is_reserved": 0, "fusion_lat": 0.0}, {"bike_id": "affcf21fb2613fe1e0f2b7c59681ba66", "fusion_lon": 0.0, "lon": -77.02311033333334, "name": "affcf21fb2613fe1e0f2b7c59681ba66", "is_disabled": 0, "rental_uris": {"android": "https://dc.lft.to/lastmile_qr_scan", "ios": "https://dc.lft.to/lastmile_qr_scan"}, "type": "electric_scooter", "lat": 38.927694833333334, "is_reserved": 0, "fusion_lat": 0.0}, {"bike_id": "a0b9932db146814b656ebe345a066f76", "fusion_lon": 0.0, "lon": -77.04901933333333, "name": "a0b9932db146814b656ebe345a066f76", "is_disabled": 0, "rental_uris": {"android": "https://dc.lft.to/lastmile_qr_scan", "ios": "https://dc.lft.to/lastmile_qr_scan"}, "type": "electric_scooter", "lat": 38.900853166666664, "is_reserved": 0, "fusion_lat": 0.0}, {"bike_id": "575f41381e150c37770ba7e5dd558d69", "fusion_lon": 0.0, "lon": -77.03579833333333, "name": "575f41381e150c37770ba7e5dd558d69", "is_disabled": 0, "rental_uris": {"android": "https://dc.lft.to/lastmile_qr_scan", "ios": "https://dc.lft.to/lastmile_qr_scan"}, "type": "electric_scooter", "lat": 38.927991166666665, "is_reserved": 0, "fusion_lat": 0.0}, {"bike_id": "787e441a9f504f28de1b9a7b60e830ce", "fusion_lon": 0.0, "lon": -77.027225, "name": "787e441a9f504f28de1b9a7b60e830ce", "is_disabled": 0, "rental_uris": {"android": "https://dc.lft.to/lastmile_qr_scan", "ios": "https://dc.lft.to/lastmile_qr_scan"}, "type": "electric_scooter", "lat": 38.9408425, "is_reserved": 0, "fusion_lat": 0.0}, {"bike_id": "607ac707fe24200a81662de080743dc1", "fusion_lon": 0.0, "lon": -77.05290833333333, "name": "607ac707fe24200a81662de080743dc1", "is_disabled": 0, "rental_uris": {"android": "https://dc.lft.to/lastmile_qr_scan", "ios": "https://dc.lft.to/lastmile_qr_scan"}, "type": "electric_scooter", "lat": 38.92718266666667, "is_reserved": 0, "fusion_lat": 0.0}, {"bike_id": "36255dd6470d06899dd2aeee5b4bea50", "fusion_lon": 0.0, "lon": -77.00310666666667, "name": "36255dd6470d06899dd2aeee5b4bea50", "is_disabled": 0, "rental_uris": {"android": "https://dc.lft.to/lastmile_qr_scan", "ios": "https://dc.lft.to/lastmile_qr_scan"}, "type": "electric_scooter", "lat": 38.90894516666667, "is_reserved": 0, "fusion_lat": 0.0}, {"bike_id": "ed1375c4e93fba2035660dfaafc64767", "fusion_lon": 0.0, "lon": -77.00590733333334, "name": "ed1375c4e93fba2035660dfaafc64767", "is_disabled": 0, "rental_uris": {"android": "https://dc.lft.to/lastmile_qr_scan", "ios": "https://dc.lft.to/lastmile_qr_scan"}, "type": "electric_scooter", "lat": 38.90556083333333, "is_reserved": 0, "fusion_lat": 0.0}, {"bike_id": "9e9ebed3789aed68f1eede483d804c4b", "fusion_lon": 0.0, "lon": -77.05427233333333, "name": "9e9ebed3789aed68f1eede483d804c4b", "is_disabled": 0, "rental_uris": {"android": "https://dc.lft.to/lastmile_qr_scan", "ios": "https://dc.lft.to/lastmile_qr_scan"}, "type": "electric_scooter", "lat": 38.92349, "is_reserved": 0, "fusion_lat": 0.0}, {"bike_id": "6027894d46a688ca7fc3e00e1e8be3cc", "fusion_lon": 0.0, "lon": -77.02288233333333, "name": "6027894d46a688ca7fc3e00e1e8be3cc", "is_disabled": 0, "rental_uris": {"android": "https://dc.lft.to/lastmile_qr_scan", "ios": "https://dc.lft.to/lastmile_qr_scan"}, "type": "electric_scooter", "lat": 38.91568316666667, "is_reserved": 0, "fusion_lat": 0.0}, {"bike_id": "10f41a4ec7233eb60688045c7ba54315", "fusion_lon": 0.0, "lon": -77.03803833333333, "name": "10f41a4ec7233eb60688045c7ba54315", "is_disabled": 0, "rental_uris": {"android": "https://dc.lft.to/lastmile_qr_scan", "ios": "https://dc.lft.to/lastmile_qr_scan"}, "type": "electric_scooter", "lat": 38.92184133333333, "is_reserved": 0, "fusion_lat": 0.0}, {"bike_id": "30f4e42800943d127e82e625040bc5b3", "fusion_lon": 0.0, "lon": -77.05328716666666, "name": "30f4e42800943d127e82e625040bc5b3", "is_disabled": 0, "rental_uris": {"android": "https://dc.lft.to/lastmile_qr_scan", "ios": "https://dc.lft.to/lastmile_qr_scan"}, "type": "electric_scooter", "lat": 38.904150666666666, "is_reserved": 0, "fusion_lat": 0.0}, {"bike_id": "1d52e817cff0e24cfa32caa68bc40d64", "fusion_lon": 0.0, "lon": -77.05269683333333, "name": "1d52e817cff0e24cfa32caa68bc40d64", "is_disabled": 0, "rental_uris": {"android": "https://dc.lft.to/lastmile_qr_scan", "ios": "https://dc.lft.to/lastmile_qr_scan"}, "type": "electric_scooter", "lat": 38.89968266666666, "is_reserved": 0, "fusion_lat": 0.0}, {"bike_id": "94156428d63e3856ff9ccbd9dfde8229", "fusion_lon": 0.0, "lon": -77.00976033333333, "name": "94156428d63e3856ff9ccbd9dfde8229", "is_disabled": 0, "rental_uris": {"android": "https://dc.lft.to/lastmile_qr_scan", "ios": "https://dc.lft.to/lastmile_qr_scan"}, "type": "electric_scooter", "lat": 38.91561516666667, "is_reserved": 0, "fusion_lat": 0.0}, {"bike_id": "7aa78f36aa9f305d137a970d1e1ea557", "fusion_lon": 0.0, "lon": -77.0383865, "name": "7aa78f36aa9f305d137a970d1e1ea557", "is_disabled": 0, "rental_uris": {"android": "https://dc.lft.to/lastmile_qr_scan", "ios": "https://dc.lft.to/lastmile_qr_scan"}, "type": "electric_scooter", "lat": 38.90960533333333, "is_reserved": 0, "fusion_lat": 0.0}, {"bike_id": "ef73ef55e07b21731f6a4f7a3ba3f24d", "fusion_lon": 0.0, "lon": -77.03483833333334, "name": "ef73ef55e07b21731f6a4f7a3ba3f24d", "is_disabled": 0, "rental_uris": {"android": "https://dc.lft.to/lastmile_qr_scan", "ios": "https://dc.lft.to/lastmile_qr_scan"}, "type": "electric_scooter", "lat": 38.93264683333334, "is_reserved": 0, "fusion_lat": 0.0}, {"bike_id": "503c0d5b43c1aa0b51aa826c8a09cf01", "fusion_lon": 0.0, "lon": -76.93528566666667, "name": "503c0d5b43c1aa0b51aa826c8a09cf01", "is_disabled": 0, "rental_uris": {"android": "https://dc.lft.to/lastmile_qr_scan", "ios": "https://dc.lft.to/lastmile_qr_scan"}, "type": "electric_scooter", "lat": 38.87892333333333, "is_reserved": 0, "fusion_lat": 0.0}, {"bike_id": "eba35cffaa9bbadf9813c3e0b8181f0e", "fusion_lon": 0.0, "lon": -77.03658033333333, "name": "eba35cffaa9bbadf9813c3e0b8181f0e", "is_disabled": 0, "rental_uris": {"android": "https://dc.lft.to/lastmile_qr_scan", "ios": "https://dc.lft.to/lastmile_qr_scan"}, "type": "electric_scooter", "lat": 38.920962333333335, "is_reserved": 0, "fusion_lat": 0.0}, {"bike_id": "8fd536e5f6c2a51d56826eb42a0236ee", "fusion_lon": 0.0, "lon": -77.03267133333334, "name": "8fd536e5f6c2a51d56826eb42a0236ee", "is_disabled": 0, "rental_uris": {"android": "https://dc.lft.to/lastmile_qr_scan", "ios": "https://dc.lft.to/lastmile_qr_scan"}, "type": "electric_scooter", "lat": 38.933033333333334, "is_reserved": 0, "fusion_lat": 0.0}, {"bike_id": "52811aced748884608585a391232c55c", "fusion_lon": 0.0, "lon": -76.99694733333334, "name": "52811aced748884608585a391232c55c", "is_disabled": 0, "rental_uris": {"android": "https://dc.lft.to/lastmile_qr_scan", "ios": "https://dc.lft.to/lastmile_qr_scan"}, "type": "electric_scooter", "lat": 38.908383, "is_reserved": 0, "fusion_lat": 0.0}, {"bike_id": "7843fcf068d5a174e67bc8b9acc8ae03", "fusion_lon": 0.0, "lon": -77.02203683333333, "name": "7843fcf068d5a174e67bc8b9acc8ae03", "is_disabled": 0, "rental_uris": {"android": "https://dc.lft.to/lastmile_qr_scan", "ios": "https://dc.lft.to/lastmile_qr_scan"}, "type": "electric_scooter", "lat": 38.9022305, "is_reserved": 0, "fusion_lat": 0.0}, {"bike_id": "16160f12b0ec9a72d70f35e3fba93e17", "fusion_lon": 0.0, "lon": -77.0187005, "name": "16160f12b0ec9a72d70f35e3fba93e17", "is_disabled": 0, "rental_uris": {"android": "https://dc.lft.to/lastmile_qr_scan", "ios": "https://dc.lft.to/lastmile_qr_scan"}, "type": "electric_scooter", "lat": 38.931535333333336, "is_reserved": 0, "fusion_lat": 0.0}, {"bike_id": "d0fd8862a1894c07083205d65e8ad2c4", "fusion_lon": 0.0, "lon": -77.0180795, "name": "d0fd8862a1894c07083205d65e8ad2c4", "is_disabled": 0, "rental_uris": {"android": "https://dc.lft.to/lastmile_qr_scan", "ios": "https://dc.lft.to/lastmile_qr_scan"}, "type": "electric_scooter", "lat": 38.904532333333336, "is_reserved": 0, "fusion_lat": 0.0}, {"bike_id": "664a3c39e71972f8df30225cac1390bb", "fusion_lon": 0.0, "lon": -77.032605, "name": "664a3c39e71972f8df30225cac1390bb", "is_disabled": 0, "rental_uris": {"android": "https://dc.lft.to/lastmile_qr_scan", "ios": "https://dc.lft.to/lastmile_qr_scan"}, "type": "electric_scooter", "lat": 38.93970366666667, "is_reserved": 0, "fusion_lat": 0.0}, {"bike_id": "d6cb55eb9ff591702ab37bfcdc7b0d2a", "fusion_lon": 0.0, "lon": -77.07314766666667, "name": "d6cb55eb9ff591702ab37bfcdc7b0d2a", "is_disabled": 0, "rental_uris": {"android": "https://dc.lft.to/lastmile_qr_scan", "ios": "https://dc.lft.to/lastmile_qr_scan"}, "type": "electric_scooter", "lat": 38.922410166666666, "is_reserved": 0, "fusion_lat": 0.0}, {"bike_id": "9cd514ea0ef0525a59adabcfb16881a5", "fusion_lon": 0.0, "lon": -77.02200116666667, "name": "9cd514ea0ef0525a59adabcfb16881a5", "is_disabled": 0, "rental_uris": {"android": "https://dc.lft.to/lastmile_qr_scan", "ios": "https://dc.lft.to/lastmile_qr_scan"}, "type": "electric_scooter", "lat": 38.918408666666664, "is_reserved": 0, "fusion_lat": 0.0}, {"bike_id": "2867b977ec2fd1bf55b3cc2f9e52b19b", "fusion_lon": 0.0, "lon": -76.98068033333334, "name": "2867b977ec2fd1bf55b3cc2f9e52b19b", "is_disabled": 0, "rental_uris": {"android": "https://dc.lft.to/lastmile_qr_scan", "ios": "https://dc.lft.to/lastmile_qr_scan"}, "type": "electric_scooter", "lat": 38.90163533333333, "is_reserved": 0, "fusion_lat": 0.0}, {"bike_id": "72fbd4ad6d736d4a182b4e87013d3953", "fusion_lon": 0.0, "lon": -77.00137166666667, "name": "72fbd4ad6d736d4a182b4e87013d3953", "is_disabled": 0, "rental_uris": {"android": "https://dc.lft.to/lastmile_qr_scan", "ios": "https://dc.lft.to/lastmile_qr_scan"}, "type": "electric_bike", "lat": 38.92552, "is_reserved": 0, "fusion_lat": 0.0}, {"bike_id": "1c95fdb110d429de64ce153a8ddd0dd1", "fusion_lon": 0.0, "lon": -76.99616916666666, "name": "1c95fdb110d429de64ce153a8ddd0dd1", "is_disabled": 0, "rental_uris": {"android": "https://dc.lft.to/lastmile_qr_scan", "ios": "https://dc.lft.to/lastmile_qr_scan"}, "type": "electric_scooter", "lat": 38.89907783333334, "is_reserved": 0, "fusion_lat": 0.0}, {"bike_id": "e605be9555fdce607f2f3e724df351d1", "fusion_lon": 0.0, "lon": -76.9717685, "name": "e605be9555fdce607f2f3e724df351d1", "is_disabled": 0, "rental_uris": {"android": "https://dc.lft.to/lastmile_qr_scan", "ios": "https://dc.lft.to/lastmile_qr_scan"}, "type": "electric_scooter", "lat": 38.854369, "is_reserved": 0, "fusion_lat": 0.0}, {"bike_id": "96779876eeee32f156ee1ced4eb8ceec", "fusion_lon": 0.0, "lon": -76.99336466666666, "name": "96779876eeee32f156ee1ced4eb8ceec", "is_disabled": 0, "rental_uris": {"android": "https://dc.lft.to/lastmile_qr_scan", "ios": "https://dc.lft.to/lastmile_qr_scan"}, "type": "electric_bike", "lat": 38.97232533333333, "is_reserved": 0, "fusion_lat": 0.0}, {"bike_id": "cbd01b0d584e1e905a19a46ce2c2fac8", "fusion_lon": 0.0, "lon": -76.93291866666667, "name": "cbd01b0d584e1e905a19a46ce2c2fac8", "is_disabled": 0, "rental_uris": {"android": "https://dc.lft.to/lastmile_qr_scan", "ios": "https://dc.lft.to/lastmile_qr_scan"}, "type": "electric_scooter", "lat": 38.8813255, "is_reserved": 0, "fusion_lat": 0.0}, {"bike_id": "f7968bf2c15c9b444a58123d83d294ee", "fusion_lon": 0.0, "lon": -77.03253716666667, "name": "f7968bf2c15c9b444a58123d83d294ee", "is_disabled": 0, "rental_uris": {"android": "https://dc.lft.to/lastmile_qr_scan", "ios": "https://dc.lft.to/lastmile_qr_scan"}, "type": "electric_scooter", "lat": 38.9285555, "is_reserved": 0, "fusion_lat": 0.0}, {"bike_id": "62be69bb696421586f2c291ddfd0e484", "fusion_lon": 0.0, "lon": -77.00865733333333, "name": "62be69bb696421586f2c291ddfd0e484", "is_disabled": 0, "rental_uris": {"android": "https://dc.lft.to/lastmile_qr_scan", "ios": "https://dc.lft.to/lastmile_qr_scan"}, "type": "electric_scooter", "lat": 38.9170875, "is_reserved": 0, "fusion_lat": 0.0}, {"bike_id": "f26e7fda70be121eba3f4c46ad7b4f9c", "fusion_lon": 0.0, "lon": -77.13477583333334, "name": "f26e7fda70be121eba3f4c46ad7b4f9c", "is_disabled": 0, "rental_uris": {"android": "https://dc.lft.to/lastmile_qr_scan", "ios": "https://dc.lft.to/lastmile_qr_scan"}, "type": "electric_bike", "lat": 38.8535, "is_reserved": 0, "fusion_lat": 0.0}, {"bike_id": "0921b41af9405c388c7778f10155a8e7", "fusion_lon": 0.0, "lon": -77.03464183333334, "name": "0921b41af9405c388c7778f10155a8e7", "is_disabled": 0, "rental_uris": {"android": "https://dc.lft.to/lastmile_qr_scan", "ios": "https://dc.lft.to/lastmile_qr_scan"}, "type": "electric_scooter", "lat": 38.9181175, "is_reserved": 0, "fusion_lat": 0.0}, {"bike_id": "93ceebef383317b378dc944b96cbbea1", "fusion_lon": 0.0, "lon": -77.01617066666667, "name": "93ceebef383317b378dc944b96cbbea1", "is_disabled": 0, "rental_uris": {"android": "https://dc.lft.to/lastmile_qr_scan", "ios": "https://dc.lft.to/lastmile_qr_scan"}, "type": "electric_scooter", "lat": 38.905907166666665, "is_reserved": 0, "fusion_lat": 0.0}, {"bike_id": "74003a8df80689f0d683109e7d01e4a1", "fusion_lon": 0.0, "lon": -77.03506183333333, "name": "74003a8df80689f0d683109e7d01e4a1", "is_disabled": 0, "rental_uris": {"android": "https://dc.lft.to/lastmile_qr_scan", "ios": "https://dc.lft.to/lastmile_qr_scan"}, "type": "electric_scooter", "lat": 38.918753, "is_reserved": 0, "fusion_lat": 0.0}, {"bike_id": "07d9442a84012788ff58e1ea6a853942", "fusion_lon": 0.0, "lon": -77.03398466666667, "name": "07d9442a84012788ff58e1ea6a853942", "is_disabled": 0, "rental_uris": {"android": "https://dc.lft.to/lastmile_qr_scan", "ios": "https://dc.lft.to/lastmile_qr_scan"}, "type": "electric_scooter", "lat": 38.93117, "is_reserved": 0, "fusion_lat": 0.0}, {"bike_id": "188bc36f1a1db7e88981b64d0d42e7e9", "fusion_lon": 0.0, "lon": -77.02717933333334, "name": "188bc36f1a1db7e88981b64d0d42e7e9", "is_disabled": 0, "rental_uris": {"android": "https://dc.lft.to/lastmile_qr_scan", "ios": "https://dc.lft.to/lastmile_qr_scan"}, "type": "electric_scooter", "lat": 38.916709, "is_reserved": 0, "fusion_lat": 0.0}, {"bike_id": "ce1892d2aae16ff8dedb44cfe298b40a", "fusion_lon": 0.0, "lon": -77.0289035, "name": "ce1892d2aae16ff8dedb44cfe298b40a", "is_disabled": 0, "rental_uris": {"android": "https://dc.lft.to/lastmile_qr_scan", "ios": "https://dc.lft.to/lastmile_qr_scan"}, "type": "electric_scooter", "lat": 38.90718116666667, "is_reserved": 0, "fusion_lat": 0.0}, {"bike_id": "682fb0feaf3260fccad02dc6b9617108", "fusion_lon": 0.0, "lon": -77.03983383333333, "name": "682fb0feaf3260fccad02dc6b9617108", "is_disabled": 0, "rental_uris": {"android": "https://dc.lft.to/lastmile_qr_scan", "ios": "https://dc.lft.to/lastmile_qr_scan"}, "type": "electric_scooter", "lat": 38.917559, "is_reserved": 0, "fusion_lat": 0.0}, {"bike_id": "38d18dd08177591cf1f85abe85a236fe", "fusion_lon": 0.0, "lon": -77.03129733333333, "name": "38d18dd08177591cf1f85abe85a236fe", "is_disabled": 0, "rental_uris": {"android": "https://dc.lft.to/lastmile_qr_scan", "ios": "https://dc.lft.to/lastmile_qr_scan"}, "type": "electric_scooter", "lat": 38.91552, "is_reserved": 0, "fusion_lat": 0.0}, {"bike_id": "4d55832c8d439845b7f3037e4b2a4922", "fusion_lon": 0.0, "lon": -76.92504383333333, "name": "4d55832c8d439845b7f3037e4b2a4922", "is_disabled": 0, "rental_uris": {"android": "https://dc.lft.to/lastmile_qr_scan", "ios": "https://dc.lft.to/lastmile_qr_scan"}, "type": "electric_bike", "lat": 38.95893433333333, "is_reserved": 0, "fusion_lat": 0.0}, {"bike_id": "e1bde29961044617c68849ee54156b89", "fusion_lon": 0.0, "lon": -77.030705, "name": "e1bde29961044617c68849ee54156b89", "is_disabled": 0, "rental_uris": {"android": "https://dc.lft.to/lastmile_qr_scan", "ios": "https://dc.lft.to/lastmile_qr_scan"}, "type": "electric_scooter", "lat": 38.897397, "is_reserved": 0, "fusion_lat": 0.0}, {"bike_id": "8a382860ba8c77417c7f814c96caf8e9", "fusion_lon": 0.0, "lon": -77.00918866666666, "name": "8a382860ba8c77417c7f814c96caf8e9", "is_disabled": 0, "rental_uris": {"android": "https://dc.lft.to/lastmile_qr_scan", "ios": "https://dc.lft.to/lastmile_qr_scan"}, "type": "electric_scooter", "lat": 38.908238, "is_reserved": 0, "fusion_lat": 0.0}, {"bike_id": "d61f8920d6b7c324c0c6eaf0cbcc8e7e", "fusion_lon": 0.0, "lon": -77.05649583333333, "name": "d61f8920d6b7c324c0c6eaf0cbcc8e7e", "is_disabled": 0, "rental_uris": {"android": "https://dc.lft.to/lastmile_qr_scan", "ios": "https://dc.lft.to/lastmile_qr_scan"}, "type": "electric_scooter", "lat": 38.90539533333333, "is_reserved": 0, "fusion_lat": 0.0}, {"bike_id": "1328ca9f823a96ac25ed5ef0f2dfead7", "fusion_lon": 0.0, "lon": -77.02778866666667, "name": "1328ca9f823a96ac25ed5ef0f2dfead7", "is_disabled": 0, "rental_uris": {"android": "https://dc.lft.to/lastmile_qr_scan", "ios": "https://dc.lft.to/lastmile_qr_scan"}, "type": "electric_scooter", "lat": 38.91691466666666, "is_reserved": 0, "fusion_lat": 0.0}, {"bike_id": "018dd4f879420d1fbb69042b3e5b7e4a", "fusion_lon": 0.0, "lon": -77.02355416666667, "name": "018dd4f879420d1fbb69042b3e5b7e4a", "is_disabled": 0, "rental_uris": {"android": "https://dc.lft.to/lastmile_qr_scan", "ios": "https://dc.lft.to/lastmile_qr_scan"}, "type": "electric_scooter", "lat": 38.88743216666667, "is_reserved": 0, "fusion_lat": 0.0}, {"bike_id": "49862428bcf14660dd20a67367c06612", "fusion_lon": 0.0, "lon": -77.02895366666667, "name": "49862428bcf14660dd20a67367c06612", "is_disabled": 0, "rental_uris": {"android": "https://dc.lft.to/lastmile_qr_scan", "ios": "https://dc.lft.to/lastmile_qr_scan"}, "type": "electric_scooter", "lat": 38.91402333333333, "is_reserved": 0, "fusion_lat": 0.0}, {"bike_id": "39f8eb8a2ca9a8d66b4cdb3eb263c728", "fusion_lon": 0.0, "lon": -77.03505416666667, "name": "39f8eb8a2ca9a8d66b4cdb3eb263c728", "is_disabled": 0, "rental_uris": {"android": "https://dc.lft.to/lastmile_qr_scan", "ios": "https://dc.lft.to/lastmile_qr_scan"}, "type": "electric_scooter", "lat": 38.92484866666667, "is_reserved": 0, "fusion_lat": 0.0}, {"bike_id": "035c40e411f019885674890503c64c40", "fusion_lon": 0.0, "lon": -77.0322395, "name": "035c40e411f019885674890503c64c40", "is_disabled": 0, "rental_uris": {"android": "https://dc.lft.to/lastmile_qr_scan", "ios": "https://dc.lft.to/lastmile_qr_scan"}, "type": "electric_scooter", "lat": 38.9140655, "is_reserved": 0, "fusion_lat": 0.0}, {"bike_id": "90e6b5ca70fca9aa366b096ca60c266c", "fusion_lon": 0.0, "lon": -77.066978, "name": "90e6b5ca70fca9aa366b096ca60c266c", "is_disabled": 0, "rental_uris": {"android": "https://dc.lft.to/lastmile_qr_scan", "ios": "https://dc.lft.to/lastmile_qr_scan"}, "type": "electric_bike", "lat": 38.83175633333333, "is_reserved": 0, "fusion_lat": 0.0}, {"bike_id": "9bd61d88ed9b600307f1b67a50c42cce", "fusion_lon": 0.0, "lon": -77.03464066666666, "name": "9bd61d88ed9b600307f1b67a50c42cce", "is_disabled": 0, "rental_uris": {"android": "https://dc.lft.to/lastmile_qr_scan", "ios": "https://dc.lft.to/lastmile_qr_scan"}, "type": "electric_scooter", "lat": 38.905551333333335, "is_reserved": 0, "fusion_lat": 0.0}, {"bike_id": "f35e270514c38e9c13f7de873ce769d9", "fusion_lon": 0.0, "lon": -76.98008033333333, "name": "f35e270514c38e9c13f7de873ce769d9", "is_disabled": 0, "rental_uris": {"android": "https://dc.lft.to/lastmile_qr_scan", "ios": "https://dc.lft.to/lastmile_qr_scan"}, "type": "electric_scooter", "lat": 38.8531945, "is_reserved": 0, "fusion_lat": 0.0}, {"bike_id": "e479b91a6576d693e42759d0afc40904", "fusion_lon": 0.0, "lon": -77.057028, "name": "e479b91a6576d693e42759d0afc40904", "is_disabled": 0, "rental_uris": {"android": "https://dc.lft.to/lastmile_qr_scan", "ios": "https://dc.lft.to/lastmile_qr_scan"}, "type": "electric_scooter", "lat": 38.9056835, "is_reserved": 0, "fusion_lat": 0.0}, {"bike_id": "ae30df0975c1ce86c876fa0bf26d90be", "fusion_lon": 0.0, "lon": -77.0326115, "name": "ae30df0975c1ce86c876fa0bf26d90be", "is_disabled": 0, "rental_uris": {"android": "https://dc.lft.to/lastmile_qr_scan", "ios": "https://dc.lft.to/lastmile_qr_scan"}, "type": "electric_scooter", "lat": 38.935588833333334, "is_reserved": 0, "fusion_lat": 0.0}, {"bike_id": "9b29d40942af029b754e833e91fffbc8", "fusion_lon": 0.0, "lon": -77.02900716666667, "name": "9b29d40942af029b754e833e91fffbc8", "is_disabled": 0, "rental_uris": {"android": "https://dc.lft.to/lastmile_qr_scan", "ios": "https://dc.lft.to/lastmile_qr_scan"}, "type": "electric_scooter", "lat": 38.888677666666666, "is_reserved": 0, "fusion_lat": 0.0}, {"bike_id": "8317109c2852aa1f9108f03556c1ef60", "fusion_lon": 0.0, "lon": -77.040202, "name": "8317109c2852aa1f9108f03556c1ef60", "is_disabled": 0, "rental_uris": {"android": "https://dc.lft.to/lastmile_qr_scan", "ios": "https://dc.lft.to/lastmile_qr_scan"}, "type": "electric_scooter", "lat": 38.92268583333333, "is_reserved": 0, "fusion_lat": 0.0}, {"bike_id": "ed9e6b423fa63b2270d5c7cf6ae31480", "fusion_lon": 0.0, "lon": -77.00247166666666, "name": "ed9e6b423fa63b2270d5c7cf6ae31480", "is_disabled": 0, "rental_uris": {"android": "https://dc.lft.to/lastmile_qr_scan", "ios": "https://dc.lft.to/lastmile_qr_scan"}, "type": "electric_scooter", "lat": 38.90858583333333, "is_reserved": 0, "fusion_lat": 0.0}, {"bike_id": "9157c8a24c901d30c40883e192daf49d", "fusion_lon": 0.0, "lon": -76.94837316666667, "name": "9157c8a24c901d30c40883e192daf49d", "is_disabled": 0, "rental_uris": {"android": "https://dc.lft.to/lastmile_qr_scan", "ios": "https://dc.lft.to/lastmile_qr_scan"}, "type": "electric_scooter", "lat": 38.89585783333333, "is_reserved": 0, "fusion_lat": 0.0}, {"bike_id": "a59a5baeea96d4544e20d32029891f8f", "fusion_lon": 0.0, "lon": -77.03177416666666, "name": "a59a5baeea96d4544e20d32029891f8f", "is_disabled": 0, "rental_uris": {"android": "https://dc.lft.to/lastmile_qr_scan", "ios": "https://dc.lft.to/lastmile_qr_scan"}, "type": "electric_scooter", "lat": 38.90957866666667, "is_reserved": 0, "fusion_lat": 0.0}, {"bike_id": "83a1e6567818a51094b5af319ebe5739", "fusion_lon": 0.0, "lon": -76.99875033333333, "name": "83a1e6567818a51094b5af319ebe5739", "is_disabled": 0, "rental_uris": {"android": "https://dc.lft.to/lastmile_qr_scan", "ios": "https://dc.lft.to/lastmile_qr_scan"}, "type": "electric_scooter", "lat": 38.90023133333333, "is_reserved": 0, "fusion_lat": 0.0}, {"bike_id": "f76196b85eb039640f7bc18e366c835d", "fusion_lon": 0.0, "lon": -77.028129, "name": "f76196b85eb039640f7bc18e366c835d", "is_disabled": 0, "rental_uris": {"android": "https://dc.lft.to/lastmile_qr_scan", "ios": "https://dc.lft.to/lastmile_qr_scan"}, "type": "electric_scooter", "lat": 38.93082483333333, "is_reserved": 0, "fusion_lat": 0.0}, {"bike_id": "2c6a9bbac831efe2fb7424fb8b514a37", "fusion_lon": 0.0, "lon": -77.05211316666667, "name": "2c6a9bbac831efe2fb7424fb8b514a37", "is_disabled": 0, "rental_uris": {"android": "https://dc.lft.to/lastmile_qr_scan", "ios": "https://dc.lft.to/lastmile_qr_scan"}, "type": "electric_scooter", "lat": 38.92433366666667, "is_reserved": 0, "fusion_lat": 0.0}, {"bike_id": "66718895b83e4b0c474cab44ba444aea", "fusion_lon": 0.0, "lon": -77.04618933333333, "name": "66718895b83e4b0c474cab44ba444aea", "is_disabled": 0, "rental_uris": {"android": "https://dc.lft.to/lastmile_qr_scan", "ios": "https://dc.lft.to/lastmile_qr_scan"}, "type": "electric_scooter", "lat": 38.9095635, "is_reserved": 0, "fusion_lat": 0.0}, {"bike_id": "28fc34b3c7860b2595332664ab2f172f", "fusion_lon": 0.0, "lon": -77.00365866666667, "name": "28fc34b3c7860b2595332664ab2f172f", "is_disabled": 0, "rental_uris": {"android": "https://dc.lft.to/lastmile_qr_scan", "ios": "https://dc.lft.to/lastmile_qr_scan"}, "type": "electric_scooter", "lat": 38.8756335, "is_reserved": 0, "fusion_lat": 0.0}, {"bike_id": "4b44cbc1b940234be3a3ee5b36e2ea56", "fusion_lon": 0.0, "lon": -76.99089366666666, "name": "4b44cbc1b940234be3a3ee5b36e2ea56", "is_disabled": 0, "rental_uris": {"android": "https://dc.lft.to/lastmile_qr_scan", "ios": "https://dc.lft.to/lastmile_qr_scan"}, "type": "electric_scooter", "lat": 38.882328, "is_reserved": 0, "fusion_lat": 0.0}, {"bike_id": "91be3ca6c16f53f7e383728edb5a1de9", "fusion_lon": 0.0, "lon": -77.05116483333333, "name": "91be3ca6c16f53f7e383728edb5a1de9", "is_disabled": 0, "rental_uris": {"android": "https://dc.lft.to/lastmile_qr_scan", "ios": "https://dc.lft.to/lastmile_qr_scan"}, "type": "electric_scooter", "lat": 38.905138666666666, "is_reserved": 0, "fusion_lat": 0.0}, {"bike_id": "c51d7a46802416fce03af7c130f342de", "fusion_lon": 0.0, "lon": -77.02825566666667, "name": "c51d7a46802416fce03af7c130f342de", "is_disabled": 0, "rental_uris": {"android": "https://dc.lft.to/lastmile_qr_scan", "ios": "https://dc.lft.to/lastmile_qr_scan"}, "type": "electric_scooter", "lat": 38.9322955, "is_reserved": 0, "fusion_lat": 0.0}, {"bike_id": "5f0a19dfa8caed166306c2702201cda9", "fusion_lon": 0.0, "lon": -77.0558485, "name": "5f0a19dfa8caed166306c2702201cda9", "is_disabled": 0, "rental_uris": {"android": "https://dc.lft.to/lastmile_qr_scan", "ios": "https://dc.lft.to/lastmile_qr_scan"}, "type": "electric_scooter", "lat": 38.893235833333335, "is_reserved": 0, "fusion_lat": 0.0}, {"bike_id": "1fac619b52f4e0b09ff384ff2319138a", "fusion_lon": 0.0, "lon": -76.98026733333333, "name": "1fac619b52f4e0b09ff384ff2319138a", "is_disabled": 0, "rental_uris": {"android": "https://dc.lft.to/lastmile_qr_scan", "ios": "https://dc.lft.to/lastmile_qr_scan"}, "type": "electric_scooter", "lat": 38.90380116666667, "is_reserved": 0, "fusion_lat": 0.0}, {"bike_id": "bb845c9f11bc678909fac77af9d87e96", "fusion_lon": 0.0, "lon": -77.0467195, "name": "bb845c9f11bc678909fac77af9d87e96", "is_disabled": 0, "rental_uris": {"android": "https://dc.lft.to/lastmile_qr_scan", "ios": "https://dc.lft.to/lastmile_qr_scan"}, "type": "electric_scooter", "lat": 38.905446166666664, "is_reserved": 0, "fusion_lat": 0.0}, {"bike_id": "e8ac45d6705e9b319615b2c93a5c180c", "fusion_lon": 0.0, "lon": -77.0244045, "name": "e8ac45d6705e9b319615b2c93a5c180c", "is_disabled": 0, "rental_uris": {"android": "https://dc.lft.to/lastmile_qr_scan", "ios": "https://dc.lft.to/lastmile_qr_scan"}, "type": "electric_scooter", "lat": 38.91883966666666, "is_reserved": 0, "fusion_lat": 0.0}, {"bike_id": "f11ba6855e0f7cbd1f9e5cc4ff28654e", "fusion_lon": 0.0, "lon": -77.0415465, "name": "f11ba6855e0f7cbd1f9e5cc4ff28654e", "is_disabled": 0, "rental_uris": {"android": "https://dc.lft.to/lastmile_qr_scan", "ios": "https://dc.lft.to/lastmile_qr_scan"}, "type": "electric_scooter", "lat": 38.915910833333335, "is_reserved": 0, "fusion_lat": 0.0}, {"bike_id": "23a60ca7ee971a36d04e1e271c355d81", "fusion_lon": 0.0, "lon": -76.99610916666667, "name": "23a60ca7ee971a36d04e1e271c355d81", "is_disabled": 0, "rental_uris": {"android": "https://dc.lft.to/lastmile_qr_scan", "ios": "https://dc.lft.to/lastmile_qr_scan"}, "type": "electric_scooter", "lat": 38.900673166666664, "is_reserved": 0, "fusion_lat": 0.0}, {"bike_id": "c1318b4dd54c373371ba1f4b053b8449", "fusion_lon": 0.0, "lon": -76.97468583333334, "name": "c1318b4dd54c373371ba1f4b053b8449", "is_disabled": 0, "rental_uris": {"android": "https://dc.lft.to/lastmile_qr_scan", "ios": "https://dc.lft.to/lastmile_qr_scan"}, "type": "electric_scooter", "lat": 38.86578566666667, "is_reserved": 0, "fusion_lat": 0.0}, {"bike_id": "9a82f615372a1cdb4e43a6442902d08f", "fusion_lon": 0.0, "lon": -77.02953666666667, "name": "9a82f615372a1cdb4e43a6442902d08f", "is_disabled": 0, "rental_uris": {"android": "https://dc.lft.to/lastmile_qr_scan", "ios": "https://dc.lft.to/lastmile_qr_scan"}, "type": "electric_scooter", "lat": 38.90491733333333, "is_reserved": 0, "fusion_lat": 0.0}, {"bike_id": "def550bd1dc5d39961c11e4b24f6592f", "fusion_lon": 0.0, "lon": -77.03056666666667, "name": "def550bd1dc5d39961c11e4b24f6592f", "is_disabled": 0, "rental_uris": {"android": "https://dc.lft.to/lastmile_qr_scan", "ios": "https://dc.lft.to/lastmile_qr_scan"}, "type": "electric_scooter", "lat": 38.884024833333335, "is_reserved": 0, "fusion_lat": 0.0}, {"bike_id": "433fa04fa0b5b724f5d34bfead3e0d43", "fusion_lon": 0.0, "lon": -77.056919, "name": "433fa04fa0b5b724f5d34bfead3e0d43", "is_disabled": 0, "rental_uris": {"android": "https://dc.lft.to/lastmile_qr_scan", "ios": "https://dc.lft.to/lastmile_qr_scan"}, "type": "electric_bike", "lat": 38.9352925, "is_reserved": 0, "fusion_lat": 0.0}, {"bike_id": "c207034e1fca6ad1292ea7ed111fe069", "fusion_lon": 0.0, "lon": -76.98275616666666, "name": "c207034e1fca6ad1292ea7ed111fe069", "is_disabled": 0, "rental_uris": {"android": "https://dc.lft.to/lastmile_qr_scan", "ios": "https://dc.lft.to/lastmile_qr_scan"}, "type": "electric_scooter", "lat": 38.904334166666665, "is_reserved": 0, "fusion_lat": 0.0}, {"bike_id": "fa48795d3779e648e91bc6701a7ecada", "fusion_lon": 0.0, "lon": -77.041634, "name": "fa48795d3779e648e91bc6701a7ecada", "is_disabled": 0, "rental_uris": {"android": "https://dc.lft.to/lastmile_qr_scan", "ios": "https://dc.lft.to/lastmile_qr_scan"}, "type": "electric_scooter", "lat": 38.91647, "is_reserved": 0, "fusion_lat": 0.0}, {"bike_id": "31fe9e2639b48309f7dd0c8ec7d5bb99", "fusion_lon": 0.0, "lon": -77.02257633333333, "name": "31fe9e2639b48309f7dd0c8ec7d5bb99", "is_disabled": 0, "rental_uris": {"android": "https://dc.lft.to/lastmile_qr_scan", "ios": "https://dc.lft.to/lastmile_qr_scan"}, "type": "electric_scooter", "lat": 38.9230735, "is_reserved": 0, "fusion_lat": 0.0}, {"bike_id": "b05b3f3f3a23e78af24dd86a41be27b7", "fusion_lon": 0.0, "lon": -77.039688, "name": "b05b3f3f3a23e78af24dd86a41be27b7", "is_disabled": 0, "rental_uris": {"android": "https://dc.lft.to/lastmile_qr_scan", "ios": "https://dc.lft.to/lastmile_qr_scan"}, "type": "electric_scooter", "lat": 38.9025465, "is_reserved": 0, "fusion_lat": 0.0}, {"bike_id": "488543e44d0e4a143345f215a243e53d", "fusion_lon": 0.0, "lon": -77.027089, "name": "488543e44d0e4a143345f215a243e53d", "is_disabled": 0, "rental_uris": {"android": "https://dc.lft.to/lastmile_qr_scan", "ios": "https://dc.lft.to/lastmile_qr_scan"}, "type": "electric_scooter", "lat": 38.8961045, "is_reserved": 0, "fusion_lat": 0.0}, {"bike_id": "2d4c307f42fc1da857ca49e6477946a1", "fusion_lon": 0.0, "lon": -76.9955355, "name": "2d4c307f42fc1da857ca49e6477946a1", "is_disabled": 0, "rental_uris": {"android": "https://dc.lft.to/lastmile_qr_scan", "ios": "https://dc.lft.to/lastmile_qr_scan"}, "type": "electric_scooter", "lat": 38.8825985, "is_reserved": 0, "fusion_lat": 0.0}, {"bike_id": "ec45be3238fe789093af2a40883a4369", "fusion_lon": 0.0, "lon": -76.9851995, "name": "ec45be3238fe789093af2a40883a4369", "is_disabled": 0, "rental_uris": {"android": "https://dc.lft.to/lastmile_qr_scan", "ios": "https://dc.lft.to/lastmile_qr_scan"}, "type": "electric_scooter", "lat": 38.86666316666667, "is_reserved": 0, "fusion_lat": 0.0}, {"bike_id": "4103e395b067888e99e3501a1591ccd4", "fusion_lon": 0.0, "lon": -76.997758, "name": "4103e395b067888e99e3501a1591ccd4", "is_disabled": 0, "rental_uris": {"android": "https://dc.lft.to/lastmile_qr_scan", "ios": "https://dc.lft.to/lastmile_qr_scan"}, "type": "electric_scooter", "lat": 38.84430833333333, "is_reserved": 0, "fusion_lat": 0.0}, {"bike_id": "3d9bded099297bbdaf1dc865ebf4b1b1", "fusion_lon": 0.0, "lon": -76.9831345, "name": "3d9bded099297bbdaf1dc865ebf4b1b1", "is_disabled": 0, "rental_uris": {"android": "https://dc.lft.to/lastmile_qr_scan", "ios": "https://dc.lft.to/lastmile_qr_scan"}, "type": "electric_scooter", "lat": 38.86891116666666, "is_reserved": 0, "fusion_lat": 0.0}, {"bike_id": "76630be777c8288b9f8c224c68a422c3", "fusion_lon": 0.0, "lon": -77.04350566666666, "name": "76630be777c8288b9f8c224c68a422c3", "is_disabled": 0, "rental_uris": {"android": "https://dc.lft.to/lastmile_qr_scan", "ios": "https://dc.lft.to/lastmile_qr_scan"}, "type": "electric_scooter", "lat": 38.92145166666667, "is_reserved": 0, "fusion_lat": 0.0}, {"bike_id": "dad0f0c5b8168c027bd62e5f9d6e3f1a", "fusion_lon": 0.0, "lon": -77.06862516666666, "name": "dad0f0c5b8168c027bd62e5f9d6e3f1a", "is_disabled": 0, "rental_uris": {"android": "https://dc.lft.to/lastmile_qr_scan", "ios": "https://dc.lft.to/lastmile_qr_scan"}, "type": "electric_scooter", "lat": 38.95279516666667, "is_reserved": 0, "fusion_lat": 0.0}, {"bike_id": "1da5c338bc7b81cd2f0a096ddf62c9d0", "fusion_lon": 0.0, "lon": -76.939915, "name": "1da5c338bc7b81cd2f0a096ddf62c9d0", "is_disabled": 0, "rental_uris": {"android": "https://dc.lft.to/lastmile_qr_scan", "ios": "https://dc.lft.to/lastmile_qr_scan"}, "type": "electric_scooter", "lat": 38.899797, "is_reserved": 0, "fusion_lat": 0.0}, {"bike_id": "cc85266918832c6d2e8bf208eb4c8a2d", "fusion_lon": 0.0, "lon": -77.02375283333333, "name": "cc85266918832c6d2e8bf208eb4c8a2d", "is_disabled": 0, "rental_uris": {"android": "https://dc.lft.to/lastmile_qr_scan", "ios": "https://dc.lft.to/lastmile_qr_scan"}, "type": "electric_scooter", "lat": 38.902005, "is_reserved": 0, "fusion_lat": 0.0}, {"bike_id": "562189eddc123601e25bac46793c7c81", "fusion_lon": 0.0, "lon": -77.02767966666667, "name": "562189eddc123601e25bac46793c7c81", "is_disabled": 0, "rental_uris": {"android": "https://dc.lft.to/lastmile_qr_scan", "ios": "https://dc.lft.to/lastmile_qr_scan"}, "type": "electric_scooter", "lat": 38.954255333333336, "is_reserved": 0, "fusion_lat": 0.0}, {"bike_id": "c408b971ffdceb96a5ef8cb1e52adefa", "fusion_lon": 0.0, "lon": -77.02944933333333, "name": "c408b971ffdceb96a5ef8cb1e52adefa", "is_disabled": 0, "rental_uris": {"android": "https://dc.lft.to/lastmile_qr_scan", "ios": "https://dc.lft.to/lastmile_qr_scan"}, "type": "electric_scooter", "lat": 38.90489066666667, "is_reserved": 0, "fusion_lat": 0.0}, {"bike_id": "c8c25374a8f1b993cdad157272037f82", "fusion_lon": 0.0, "lon": -77.044589, "name": "c8c25374a8f1b993cdad157272037f82", "is_disabled": 0, "rental_uris": {"android": "https://dc.lft.to/lastmile_qr_scan", "ios": "https://dc.lft.to/lastmile_qr_scan"}, "type": "electric_scooter", "lat": 38.9301865, "is_reserved": 0, "fusion_lat": 0.0}, {"bike_id": "a7ce0192fa560727ed17826328d3ee5a", "fusion_lon": 0.0, "lon": -76.97732683333334, "name": "a7ce0192fa560727ed17826328d3ee5a", "is_disabled": 0, "rental_uris": {"android": "https://dc.lft.to/lastmile_qr_scan", "ios": "https://dc.lft.to/lastmile_qr_scan"}, "type": "electric_scooter", "lat": 38.895186, "is_reserved": 0, "fusion_lat": 0.0}, {"bike_id": "fa2d37c88cc30c5be43c0a90cc409d72", "fusion_lon": 0.0, "lon": -77.01583316666667, "name": "fa2d37c88cc30c5be43c0a90cc409d72", "is_disabled": 0, "rental_uris": {"android": "https://dc.lft.to/lastmile_qr_scan", "ios": "https://dc.lft.to/lastmile_qr_scan"}, "type": "electric_scooter", "lat": 38.895387666666664, "is_reserved": 0, "fusion_lat": 0.0}, {"bike_id": "2ad9e63d1949f7a64a4f258b061a8cf1", "fusion_lon": 0.0, "lon": -76.991668, "name": "2ad9e63d1949f7a64a4f258b061a8cf1", "is_disabled": 0, "rental_uris": {"android": "https://dc.lft.to/lastmile_qr_scan", "ios": "https://dc.lft.to/lastmile_qr_scan"}, "type": "electric_scooter", "lat": 38.86321816666667, "is_reserved": 0, "fusion_lat": 0.0}, {"bike_id": "cd11c7eabc33776fe65ea033d0720634", "fusion_lon": 0.0, "lon": -76.99777966666667, "name": "cd11c7eabc33776fe65ea033d0720634", "is_disabled": 0, "rental_uris": {"android": "https://dc.lft.to/lastmile_qr_scan", "ios": "https://dc.lft.to/lastmile_qr_scan"}, "type": "electric_bike", "lat": 38.862103166666664, "is_reserved": 0, "fusion_lat": 0.0}, {"bike_id": "26f0b8d66cc2ae79b5c3004a84cefda2", "fusion_lon": 0.0, "lon": -77.05004666666666, "name": "26f0b8d66cc2ae79b5c3004a84cefda2", "is_disabled": 0, "rental_uris": {"android": "https://dc.lft.to/lastmile_qr_scan", "ios": "https://dc.lft.to/lastmile_qr_scan"}, "type": "electric_scooter", "lat": 38.892277666666665, "is_reserved": 0, "fusion_lat": 0.0}, {"bike_id": "ee43a5aba726fb6b2ff818f47036b1d9", "fusion_lon": 0.0, "lon": -77.0238755, "name": "ee43a5aba726fb6b2ff818f47036b1d9", "is_disabled": 0, "rental_uris": {"android": "https://dc.lft.to/lastmile_qr_scan", "ios": "https://dc.lft.to/lastmile_qr_scan"}, "type": "electric_scooter", "lat": 38.9018995, "is_reserved": 0, "fusion_lat": 0.0}, {"bike_id": "7a2e71cff92dab9d16ef0b335153320b", "fusion_lon": 0.0, "lon": -76.98515333333333, "name": "7a2e71cff92dab9d16ef0b335153320b", "is_disabled": 0, "rental_uris": {"android": "https://dc.lft.to/lastmile_qr_scan", "ios": "https://dc.lft.to/lastmile_qr_scan"}, "type": "electric_scooter", "lat": 38.866500333333335, "is_reserved": 0, "fusion_lat": 0.0}, {"bike_id": "d86efd35198047b6dc2006def66027ec", "fusion_lon": 0.0, "lon": -77.034457, "name": "d86efd35198047b6dc2006def66027ec", "is_disabled": 0, "rental_uris": {"android": "https://dc.lft.to/lastmile_qr_scan", "ios": "https://dc.lft.to/lastmile_qr_scan"}, "type": "electric_scooter", "lat": 38.907253, "is_reserved": 0, "fusion_lat": 0.0}, {"bike_id": "d8d68b3581bc21394e9a6d615910feb3", "fusion_lon": 0.0, "lon": -77.0369425, "name": "d8d68b3581bc21394e9a6d615910feb3", "is_disabled": 0, "rental_uris": {"android": "https://dc.lft.to/lastmile_qr_scan", "ios": "https://dc.lft.to/lastmile_qr_scan"}, "type": "electric_scooter", "lat": 38.91650633333333, "is_reserved": 0, "fusion_lat": 0.0}, {"bike_id": "030c5cbd2bdd342619a2ed1668f4ac4d", "fusion_lon": 0.0, "lon": -77.02952133333334, "name": "030c5cbd2bdd342619a2ed1668f4ac4d", "is_disabled": 0, "rental_uris": {"android": "https://dc.lft.to/lastmile_qr_scan", "ios": "https://dc.lft.to/lastmile_qr_scan"}, "type": "electric_scooter", "lat": 38.9050175, "is_reserved": 0, "fusion_lat": 0.0},