{"data": {"bikes": [{"fusion_lat": 0.0, "name": "5da2ff296e44ce0d1e6afb7f0e364a0c", "is_disabled": 0, "rental_uris": {"android": "https://dc.lft.to/lastmile_qr_scan", "ios": "https://dc.lft.to/lastmile_qr_scan"}, "fusion_lon": 0.0, "lat": 38.92196966666667, "bike_id": "5da2ff296e44ce0d1e6afb7f0e364a0c", "type": "electric_scooter", "is_reserved": 0, "lon": -77.02431433333334}, {"fusion_lat": 0.0, "name": "6d4ad09f7b9c664a3eaaa4c7b5bc0428", "is_disabled": 0, "rental_uris": {"android": "https://dc.lft.to/lastmile_qr_scan", "ios": "https://dc.lft.to/lastmile_qr_scan"}, "fusion_lon": 0.0, "lat": 38.931893, "bike_id": "6d4ad09f7b9c664a3eaaa4c7b5bc0428", "type": "electric_scooter", "is_reserved": 0, "lon": -77.04302183333333}, {"fusion_lat": 0.0, "name": "b71d858d05bd10d6bb16df17d1a1b834", "is_disabled": 0, "rental_uris": {"android": "https://dc.lft.to/lastmile_qr_scan", "ios": "https://dc.lft.to/lastmile_qr_scan"}, "fusion_lon": 0.0, "lat": 38.87918366666667, "bike_id": "b71d858d05bd10d6bb16df17d1a1b834", "type": "electric_scooter", "is_reserved": 0, "lon": -77.00882083333333}, {"fusion_lat": 0.0, "name": "33520ae29c7f2eba4181b621c88fcc2f", "is_disabled": 0, "rental_uris": {"android": "https://dc.lft.to/lastmile_qr_scan", "ios": "https://dc.lft.to/lastmile_qr_scan"}, "fusion_lon": 0.0, "lat": 38.92145, "bike_id": "33520ae29c7f2eba4181b621c88fcc2f", "type": "electric_scooter", "is_reserved": 0, "lon": -77.0365545}, {"fusion_lat": 0.0, "name": "c3e13f2a8bd4fbe932bba9fd9cb75f24", "is_disabled": 0, "rental_uris": {"android": "https://dc.lft.to/lastmile_qr_scan", "ios": "https://dc.lft.to/lastmile_qr_scan"}, "fusion_lon": 0.0, "lat": 38.912551, "bike_id": "c3e13f2a8bd4fbe932bba9fd9cb75f24", "type": "electric_scooter", "is_reserved": 0, "lon": -77.04306366666667}, {"fusion_lat": 0.0, "name": "d7a742e10ed1919e7a4fcfe1cef4941c", "is_disabled": 0, "rental_uris": {"android": "https://dc.lft.to/lastmile_qr_scan", "ios": "https://dc.lft.to/lastmile_qr_scan"}, "fusion_lon": 0.0, "lat": 38.93437316666667, "bike_id": "d7a742e10ed1919e7a4fcfe1cef4941c", "type": "electric_scooter", "is_reserved": 0, "lon": -77.0344585}, {"fusion_lat": 0.0, "name": "ea2d2a39eac381b5e3456f8c163712f9", "is_disabled": 0, "rental_uris": {"android": "https://dc.lft.to/lastmile_qr_scan", "ios": "https://dc.lft.to/lastmile_qr_scan"}, "fusion_lon": 0.0, "lat": 38.9219445, "bike_id": "ea2d2a39eac381b5e3456f8c163712f9", "type": "electric_scooter", "is_reserved": 0, "lon": -76.99761133333334}, {"fusion_lat": 0.0, "name": "bca6eabd44e6d475ef76dacb117c5d89", "is_disabled": 0, "rental_uris": {"android": "https://dc.lft.to/lastmile_qr_scan", "ios": "https://dc.lft.to/lastmile_qr_scan"}, "fusion_lon": 0.0, "lat": 38.898766, "bike_id": "bca6eabd44e6d475ef76dacb117c5d89", "type": "electric_scooter", "is_reserved": 0, "lon": -76.93183216666667}, {"fusion_lat": 0.0, "name": "b63cd96e03b35e4fd226ca32dc1cdb1e", "is_disabled": 0, "rental_uris": {"android": "https://dc.lft.to/lastmile_qr_scan", "ios": "https://dc.lft.to/lastmile_qr_scan"}, "fusion_lon": 0.0, "lat": 38.92823, "bike_id": "b63cd96e03b35e4fd226ca32dc1cdb1e", "type": "electric_scooter", "is_reserved": 0, "lon": -77.05444933333334}, {"fusion_lat": 0.0, "name": "2e3b8989fd1f17bbbbc3f4177dee97b9", "is_disabled": 0, "rental_uris": {"android": "https://dc.lft.to/lastmile_qr_scan", "ios": "https://dc.lft.to/lastmile_qr_scan"}, "fusion_lon": 0.0, "lat": 38.9000135, "bike_id": "2e3b8989fd1f17bbbbc3f4177dee97b9", "type": "electric_scooter", "is_reserved": 0, "lon": -77.01561133333334}, {"fusion_lat": 0.0, "name": "b87956d7896700cd77e0dc6d4e6e9987", "is_disabled": 0, "rental_uris": {"android": "https://dc.lft.to/lastmile_qr_scan", "ios": "https://dc.lft.to/lastmile_qr_scan"}, "fusion_lon": 0.0, "lat": 38.92048716666667, "bike_id": "b87956d7896700cd77e0dc6d4e6e9987", "type": "electric_scooter", "is_reserved": 0, "lon": -77.033922}, {"fusion_lat": 0.0, "name": "3a4b53dd7d1cdf179dc45cefc5826846", "is_disabled": 0, "rental_uris": {"android": "https://dc.lft.to/lastmile_qr_scan", "ios": "https://dc.lft.to/lastmile_qr_scan"}, "fusion_lon": 0.0, "lat": 38.91931483333333, "bike_id": "3a4b53dd7d1cdf179dc45cefc5826846", "type": "electric_scooter", "is_reserved": 0, "lon": -77.03423766666667}, {"fusion_lat": 0.0, "name": "98a41a99309bbb254646a812971f63eb", "is_disabled": 0, "rental_uris": {"android": "https://dc.lft.to/lastmile_qr_scan", "ios": "https://dc.lft.to/lastmile_qr_scan"}, "fusion_lon": 0.0, "lat": 38.92458416666667, "bike_id": "98a41a99309bbb254646a812971f63eb", "type": "electric_scooter", "is_reserved": 0, "lon": -76.99914133333333}, {"fusion_lat": 0.0, "name": "cbc0746beba59c7b7ceb4b0329c9b888", "is_disabled": 0, "rental_uris": {"android": "https://dc.lft.to/lastmile_qr_scan", "ios": "https://dc.lft.to/lastmile_qr_scan"}, "fusion_lon": 0.0, "lat": 38.92184133333333, "bike_id": "cbc0746beba59c7b7ceb4b0329c9b888", "type": "electric_scooter", "is_reserved": 0, "lon": -77.02539483333334}, {"fusion_lat": 0.0, "name": "51fcc68f90858728079878e392f3b9cc", "is_disabled": 0, "rental_uris": {"android": "https://dc.lft.to/lastmile_qr_scan", "ios": "https://dc.lft.to/lastmile_qr_scan"}, "fusion_lon": 0.0, "lat": 38.884066, "bike_id": "51fcc68f90858728079878e392f3b9cc", "type": "electric_bike", "is_reserved": 0, "lon": -76.95422066666667}, {"fusion_lat": 0.0, "name": "90d9565e86ce87f335bf049b2ca61652", "is_disabled": 0, "rental_uris": {"android": "https://dc.lft.to/lastmile_qr_scan", "ios": "https://dc.lft.to/lastmile_qr_scan"}, "fusion_lon": 0.0, "lat": 38.92052966666667, "bike_id": "90d9565e86ce87f335bf049b2ca61652", "type": "electric_scooter", "is_reserved": 0, "lon": -77.02190133333333}, {"fusion_lat": 0.0, "name": "0f772946765e4e843a3ac708b67298c5", "is_disabled": 0, "rental_uris": {"android": "https://dc.lft.to/lastmile_qr_scan", "ios": "https://dc.lft.to/lastmile_qr_scan"}, "fusion_lon": 0.0, "lat": 38.918209166666664, "bike_id": "0f772946765e4e843a3ac708b67298c5", "type": "electric_scooter", "is_reserved": 0, "lon": -77.041778}, {"fusion_lat": 0.0, "name": "a90ff51851e230e1a3033b2fae751be6", "is_disabled": 0, "rental_uris": {"android": "https://dc.lft.to/lastmile_qr_scan", "ios": "https://dc.lft.to/lastmile_qr_scan"}, "fusion_lon": 0.0, "lat": 38.915530333333336, "bike_id": "a90ff51851e230e1a3033b2fae751be6", "type": "electric_scooter", "is_reserved": 0, "lon": -77.03227566666666}, {"fusion_lat": 0.0, "name": "305660351ab82105bb88e2d63e642718", "is_disabled": 0, "rental_uris": {"android": "https://dc.lft.to/lastmile_qr_scan", "ios": "https://dc.lft.to/lastmile_qr_scan"}, "fusion_lon": 0.0, "lat": 38.87796266666667, "bike_id": "305660351ab82105bb88e2d63e642718", "type": "electric_scooter", "is_reserved": 0, "lon": -77.00125083333333}, {"fusion_lat": 0.0, "name": "06ca60a38d4462b8be81720c2929ef2b", "is_disabled": 0, "rental_uris": {"android": "https://dc.lft.to/lastmile_qr_scan", "ios": "https://dc.lft.to/lastmile_qr_scan"}, "fusion_lon": 0.0, "lat": 38.899616, "bike_id": "06ca60a38d4462b8be81720c2929ef2b", "type": "electric_scooter", "is_reserved": 0, "lon": -77.02819683333334}, {"fusion_lat": 0.0, "name": "73ec1088fba3021da684ec3621d9269e", "is_disabled": 0, "rental_uris": {"android": "https://dc.lft.to/lastmile_qr_scan", "ios": "https://dc.lft.to/lastmile_qr_scan"}, "fusion_lon": 0.0, "lat": 38.8794925, "bike_id": "73ec1088fba3021da684ec3621d9269e", "type": "electric_scooter", "is_reserved": 0, "lon": -77.00879833333333}, {"fusion_lat": 0.0, "name": "979e1106d1f67a5461235800db61e66a", "is_disabled": 0, "rental_uris": {"android": "https://dc.lft.to/lastmile_qr_scan", "ios": "https://dc.lft.to/lastmile_qr_scan"}, "fusion_lon": 0.0, "lat": 38.951831, "bike_id": "979e1106d1f67a5461235800db61e66a", "type": "electric_scooter", "is_reserved": 0, "lon": -77.02726866666667}, {"fusion_lat": 0.0, "name": "7f94afd6bf45654812ed8237875681d0", "is_disabled": 0, "rental_uris": {"android": "https://dc.lft.to/lastmile_qr_scan", "ios": "https://dc.lft.to/lastmile_qr_scan"}, "fusion_lon": 0.0, "lat": 38.897307, "bike_id": "7f94afd6bf45654812ed8237875681d0", "type": "electric_scooter", "is_reserved": 0, "lon": -77.04428133333333}, {"fusion_lat": 0.0, "name": "483b78c4e62840e30fc672d5ca617f6f", "is_disabled": 0, "rental_uris": {"android": "https://dc.lft.to/lastmile_qr_scan", "ios": "https://dc.lft.to/lastmile_qr_scan"}, "fusion_lon": 0.0, "lat": 38.89209116666667, "bike_id": "483b78c4e62840e30fc672d5ca617f6f", "type": "electric_scooter", "is_reserved": 0, "lon": -76.99713366666667}, {"fusion_lat": 0.0, "name": "a90282c20bc10582078f0ff5c2ae2968", "is_disabled": 0, "rental_uris": {"android": "https://dc.lft.to/lastmile_qr_scan", "ios": "https://dc.lft.to/lastmile_qr_scan"}, "fusion_lon": 0.0, "lat": 38.92981566666667, "bike_id": "a90282c20bc10582078f0ff5c2ae2968", "type": "electric_scooter", "is_reserved": 0, "lon": -77.01979066666667}, {"fusion_lat": 0.0, "name": "2cec3f9239bdddc73c4979fea88244e2", "is_disabled": 0, "rental_uris": {"android": "https://dc.lft.to/lastmile_qr_scan", "ios": "https://dc.lft.to/lastmile_qr_scan"}, "fusion_lon": 0.0, "lat": 38.9343415, "bike_id": "2cec3f9239bdddc73c4979fea88244e2", "type": "electric_scooter", "is_reserved": 0, "lon": -77.0400325}, {"fusion_lat": 0.0, "name": "a092268c371e18441269117883013f00", "is_disabled": 0, "rental_uris": {"android": "https://dc.lft.to/lastmile_qr_scan", "ios": "https://dc.lft.to/lastmile_qr_scan"}, "fusion_lon": 0.0, "lat": 38.95405433333333, "bike_id": "a092268c371e18441269117883013f00", "type": "electric_scooter", "is_reserved": 0, "lon": -77.02748466666667}, {"fusion_lat": 0.0, "name": "307e462a49a21fe00f110917602c7dec", "is_disabled": 0, "rental_uris": {"android": "https://dc.lft.to/lastmile_qr_scan", "ios": "https://dc.lft.to/lastmile_qr_scan"}, "fusion_lon": 0.0, "lat": 38.892422, "bike_id": "307e462a49a21fe00f110917602c7dec", "type": "electric_scooter", "is_reserved": 0, "lon": -77.03352966666667}, {"fusion_lat": 0.0, "name": "3b695a3f1dfbeef365c2af9a4d97aeb5", "is_disabled": 0, "rental_uris": {"android": "https://dc.lft.to/lastmile_qr_scan", "ios": "https://dc.lft.to/lastmile_qr_scan"}, "fusion_lon": 0.0, "lat": 38.9006435, "bike_id": "3b695a3f1dfbeef365c2af9a4d97aeb5", "type": "electric_scooter", "is_reserved": 0, "lon": -76.933862}, {"fusion_lat": 0.0, "name": "2d6c902395be129574ef147ca3dc0d83", "is_disabled": 0, "rental_uris": {"android": "https://dc.lft.to/lastmile_qr_scan", "ios": "https://dc.lft.to/lastmile_qr_scan"}, "fusion_lon": 0.0, "lat": 38.92236033333333, "bike_id": "2d6c902395be129574ef147ca3dc0d83", "type": "electric_scooter", "is_reserved": 0, "lon": -77.042449}, {"fusion_lat": 0.0, "name": "9cc1213bd93e7128b059040a65c33e70", "is_disabled": 0, "rental_uris": {"android": "https://dc.lft.to/lastmile_qr_scan", "ios": "https://dc.lft.to/lastmile_qr_scan"}, "fusion_lon": 0.0, "lat": 38.92110533333334, "bike_id": "9cc1213bd93e7128b059040a65c33e70", "type": "electric_scooter", "is_reserved": 0, "lon": -77.03202966666667}, {"fusion_lat": 0.0, "name": "d5421e3f400384ecbe23a0df1b5632a5", "is_disabled": 0, "rental_uris": {"android": "https://dc.lft.to/lastmile_qr_scan", "ios": "https://dc.lft.to/lastmile_qr_scan"}, "fusion_lon": 0.0, "lat": 38.835443833333336, "bike_id": "d5421e3f400384ecbe23a0df1b5632a5", "type": "electric_bike", "is_reserved": 0, "lon": -76.987237}, {"fusion_lat": 0.0, "name": "36753adc63d9682deb7f34b3e11fc9c5", "is_disabled": 0, "rental_uris": {"android": "https://dc.lft.to/lastmile_qr_scan", "ios": "https://dc.lft.to/lastmile_qr_scan"}, "fusion_lon": 0.0, "lat": 38.90565, "bike_id": "36753adc63d9682deb7f34b3e11fc9c5", "type": "electric_scooter", "is_reserved": 0, "lon": -77.005845}, {"fusion_lat": 0.0, "name": "3ec44c54eb6908e82b49a9aa9265e80c", "is_disabled": 0, "rental_uris": {"android": "https://dc.lft.to/lastmile_qr_scan", "ios": "https://dc.lft.to/lastmile_qr_scan"}, "fusion_lon": 0.0, "lat": 38.915521166666664, "bike_id": "3ec44c54eb6908e82b49a9aa9265e80c", "type": "electric_scooter", "is_reserved": 0, "lon": -77.0415065}, {"fusion_lat": 0.0, "name": "bb00c90385af7fdd3a562579497c6ec7", "is_disabled": 0, "rental_uris": {"android": "https://dc.lft.to/lastmile_qr_scan", "ios": "https://dc.lft.to/lastmile_qr_scan"}, "fusion_lon": 0.0, "lat": 38.881001833333336, "bike_id": "bb00c90385af7fdd3a562579497c6ec7", "type": "electric_scooter", "is_reserved": 0, "lon": -76.986654}, {"fusion_lat": 0.0, "name": "94532abed21d77eac5b40600657dc325", "is_disabled": 0, "rental_uris": {"android": "https://dc.lft.to/lastmile_qr_scan", "ios": "https://dc.lft.to/lastmile_qr_scan"}, "fusion_lon": 0.0, "lat": 38.886138833333334, "bike_id": "94532abed21d77eac5b40600657dc325", "type": "electric_scooter", "is_reserved": 0, "lon": -77.0155775}, {"fusion_lat": 0.0, "name": "41ed96b5043bcad839cc5ea133f9c84d", "is_disabled": 0, "rental_uris": {"android": "https://dc.lft.to/lastmile_qr_scan", "ios": "https://dc.lft.to/lastmile_qr_scan"}, "fusion_lon": 0.0, "lat": 38.93259316666666, "bike_id": "41ed96b5043bcad839cc5ea133f9c84d", "type": "electric_scooter", "is_reserved": 0, "lon": -77.03449083333334}, {"fusion_lat": 0.0, "name": "bad5c9c35f5e1f2ef2f10c08d16a3a05", "is_disabled": 0, "rental_uris": {"android": "https://dc.lft.to/lastmile_qr_scan", "ios": "https://dc.lft.to/lastmile_qr_scan"}, "fusion_lon": 0.0, "lat": 38.855260333333334, "bike_id": "bad5c9c35f5e1f2ef2f10c08d16a3a05", "type": "electric_bike", "is_reserved": 0, "lon": -77.12072316666666}, {"fusion_lat": 0.0, "name": "546074bc4be99ff9746ac8059d16ae0a", "is_disabled": 0, "rental_uris": {"android": "https://dc.lft.to/lastmile_qr_scan", "ios": "https://dc.lft.to/lastmile_qr_scan"}, "fusion_lon": 0.0, "lat": 38.937142333333334, "bike_id": "546074bc4be99ff9746ac8059d16ae0a", "type": "electric_scooter", "is_reserved": 0, "lon": -77.02527183333333}, {"fusion_lat": 0.0, "name": "787c3f7ed1ea6bacfe8b23340b3011a7", "is_disabled": 0, "rental_uris": {"android": "https://dc.lft.to/lastmile_qr_scan", "ios": "https://dc.lft.to/lastmile_qr_scan"}, "fusion_lon": 0.0, "lat": 38.90136366666667, "bike_id": "787c3f7ed1ea6bacfe8b23340b3011a7", "type": "electric_scooter", "is_reserved": 0, "lon": -76.990493}, {"fusion_lat": 0.0, "name": "e0e9570cd9b958610f0abf072c11c42e", "is_disabled": 0, "rental_uris": {"android": "https://dc.lft.to/lastmile_qr_scan", "ios": "https://dc.lft.to/lastmile_qr_scan"}, "fusion_lon": 0.0, "lat": 38.91522, "bike_id": "e0e9570cd9b958610f0abf072c11c42e", "type": "electric_scooter", "is_reserved": 0, "lon": -77.01325666666666}, {"fusion_lat": 0.0, "name": "5e883fc0855aa05f2812480e6a4906d4", "is_disabled": 0, "rental_uris": {"android": "https://dc.lft.to/lastmile_qr_scan", "ios": "https://dc.lft.to/lastmile_qr_scan"}, "fusion_lon": 0.0, "lat": 38.926346333333335, "bike_id": "5e883fc0855aa05f2812480e6a4906d4", "type": "electric_scooter", "is_reserved": 0, "lon": -77.05196083333334}, {"fusion_lat": 0.0, "name": "f4729dc8fa14cda5117e0d3ca45a615c", "is_disabled": 0, "rental_uris": {"android": "https://dc.lft.to/lastmile_qr_scan", "ios": "https://dc.lft.to/lastmile_qr_scan"}, "fusion_lon": 0.0, "lat": 38.92231116666667, "bike_id": "f4729dc8fa14cda5117e0d3ca45a615c", "type": "electric_scooter", "is_reserved": 0, "lon": -77.04649316666666}, {"fusion_lat": 0.0, "name": "c3d334352fdc40a6f4b5197dbabacf3d", "is_disabled": 0, "rental_uris": {"android": "https://dc.lft.to/lastmile_qr_scan", "ios": "https://dc.lft.to/lastmile_qr_scan"}, "fusion_lon": 0.0, "lat": 38.99225116666667, "bike_id": "c3d334352fdc40a6f4b5197dbabacf3d", "type": "electric_bike", "is_reserved": 0, "lon": -76.9441705}, {"fusion_lat": 0.0, "name": "dd58caf0d645c97e801a8ae4f13c26f3", "is_disabled": 0, "rental_uris": {"android": "https://dc.lft.to/lastmile_qr_scan", "ios": "https://dc.lft.to/lastmile_qr_scan"}, "fusion_lon": 0.0, "lat": 38.91254, "bike_id": "dd58caf0d645c97e801a8ae4f13c26f3", "type": "electric_scooter", "is_reserved": 0, "lon": -77.00777566666666}, {"fusion_lat": 0.0, "name": "6aad4d2c70ef108e578344cb78ae360c", "is_disabled": 0, "rental_uris": {"android": "https://dc.lft.to/lastmile_qr_scan", "ios": "https://dc.lft.to/lastmile_qr_scan"}, "fusion_lon": 0.0, "lat": 38.94075, "bike_id": "6aad4d2c70ef108e578344cb78ae360c", "type": "electric_scooter", "is_reserved": 0, "lon": -77.01701916666667}, {"fusion_lat": 0.0, "name": "a6738d47544950e2409860b5e89f1ec0", "is_disabled": 0, "rental_uris": {"android": "https://dc.lft.to/lastmile_qr_scan", "ios": "https://dc.lft.to/lastmile_qr_scan"}, "fusion_lon": 0.0, "lat": 38.9099935, "bike_id": "a6738d47544950e2409860b5e89f1ec0", "type": "electric_scooter", "is_reserved": 0, "lon": -77.04482283333333}, {"fusion_lat": 0.0, "name": "da7ca1e850eb20b2e8c27aeeb10272bd", "is_disabled": 0, "rental_uris": {"android": "https://dc.lft.to/lastmile_qr_scan", "ios": "https://dc.lft.to/lastmile_qr_scan"}, "fusion_lon": 0.0, "lat": 38.86557483333333, "bike_id": "da7ca1e850eb20b2e8c27aeeb10272bd", "type": "electric_scooter", "is_reserved": 0, "lon": -76.98353716666666}, {"fusion_lat": 0.0, "name": "29636990f17e1ca67d0ab0bb3e36d58e", "is_disabled": 0, "rental_uris": {"android": "https://dc.lft.to/lastmile_qr_scan", "ios": "https://dc.lft.to/lastmile_qr_scan"}, "fusion_lon": 0.0, "lat": 38.92285366666667, "bike_id": "29636990f17e1ca67d0ab0bb3e36d58e", "type": "electric_scooter", "is_reserved": 0, "lon": -77.0366055}, {"fusion_lat": 0.0, "name": "aa2a67a6f23a87732d3e768164b925dd", "is_disabled": 0, "rental_uris": {"android": "https://dc.lft.to/lastmile_qr_scan", "ios": "https://dc.lft.to/lastmile_qr_scan"}, "fusion_lon": 0.0, "lat": 38.896115333333334, "bike_id": "aa2a67a6f23a87732d3e768164b925dd", "type": "electric_scooter", "is_reserved": 0, "lon": -76.94815116666666}, {"fusion_lat": 0.0, "name": "a7587b733e1332fbea75620455dbd42c", "is_disabled": 0, "rental_uris": {"android": "https://dc.lft.to/lastmile_qr_scan", "ios": "https://dc.lft.to/lastmile_qr_scan"}, "fusion_lon": 0.0, "lat": 38.91697716666667, "bike_id": "a7587b733e1332fbea75620455dbd42c", "type": "electric_scooter", "is_reserved": 0, "lon": -77.03104266666666}, {"fusion_lat": 0.0, "name": "a380aa44f76761c0fcb45519a78e274a", "is_disabled": 0, "rental_uris": {"android": "https://dc.lft.to/lastmile_qr_scan", "ios": "https://dc.lft.to/lastmile_qr_scan"}, "fusion_lon": 0.0, "lat": 38.9082445, "bike_id": "a380aa44f76761c0fcb45519a78e274a", "type": "electric_scooter", "is_reserved": 0, "lon": -77.03850383333334}, {"fusion_lat": 0.0, "name": "0f8f82ebcd41109d9267d344fc4e6d06", "is_disabled": 0, "rental_uris": {"android": "https://dc.lft.to/lastmile_qr_scan", "ios": "https://dc.lft.to/lastmile_qr_scan"}, "fusion_lon": 0.0, "lat": 38.86336816666667, "bike_id": "0f8f82ebcd41109d9267d344fc4e6d06", "type": "electric_bike", "is_reserved": 0, "lon": -76.9872925}, {"fusion_lat": 0.0, "name": "6469674de1c86949d7f3c6aec39d6244", "is_disabled": 0, "rental_uris": {"android": "https://dc.lft.to/lastmile_qr_scan", "ios": "https://dc.lft.to/lastmile_qr_scan"}, "fusion_lon": 0.0, "lat": 38.91255566666667, "bike_id": "6469674de1c86949d7f3c6aec39d6244", "type": "electric_scooter", "is_reserved": 0, "lon": -77.04733816666666}, {"fusion_lat": 0.0, "name": "9810dc09086222e809d6ac48673b5fc7", "is_disabled": 0, "rental_uris": {"android": "https://dc.lft.to/lastmile_qr_scan", "ios": "https://dc.lft.to/lastmile_qr_scan"}, "fusion_lon": 0.0, "lat": 38.88261166666667, "bike_id": "9810dc09086222e809d6ac48673b5fc7", "type": "electric_scooter", "is_reserved": 0, "lon": -76.994888}, {"fusion_lat": 0.0, "name": "61de3d94ff06c4699e3c154bd7d01be9", "is_disabled": 0, "rental_uris": {"android": "https://dc.lft.to/lastmile_qr_scan", "ios": "https://dc.lft.to/lastmile_qr_scan"}, "fusion_lon": 0.0, "lat": 38.8949375, "bike_id": "61de3d94ff06c4699e3c154bd7d01be9", "type": "electric_scooter", "is_reserved": 0, "lon": -77.00254533333333}, {"fusion_lat": 0.0, "name": "3982d17ffa9a079892b0939a559a45ba", "is_disabled": 0, "rental_uris": {"android": "https://dc.lft.to/lastmile_qr_scan", "ios": "https://dc.lft.to/lastmile_qr_scan"}, "fusion_lon": 0.0, "lat": 38.89227, "bike_id": "3982d17ffa9a079892b0939a559a45ba", "type": "electric_scooter", "is_reserved": 0, "lon": -77.04505}, {"fusion_lat": 0.0, "name": "e8c1ea597609d841830bcb1c5e58ed26", "is_disabled": 0, "rental_uris": {"android": "https://dc.lft.to/lastmile_qr_scan", "ios": "https://dc.lft.to/lastmile_qr_scan"}, "fusion_lon": 0.0, "lat": 38.952943166666664, "bike_id": "e8c1ea597609d841830bcb1c5e58ed26", "type": "electric_bike", "is_reserved": 0, "lon": -76.99986116666666}, {"fusion_lat": 0.0, "name": "42c0ef928232c23a01c60e6388bcbc09", "is_disabled": 0, "rental_uris": {"android": "https://dc.lft.to/lastmile_qr_scan", "ios": "https://dc.lft.to/lastmile_qr_scan"}, "fusion_lon": 0.0, "lat": 38.84127566666667, "bike_id": "42c0ef928232c23a01c60e6388bcbc09", "type": "electric_bike", "is_reserved": 0, "lon": -77.06310533333334}, {"fusion_lat": 0.0, "name": "840689151d528ddc0d746679da7ac1a5", "is_disabled": 0, "rental_uris": {"android": "https://dc.lft.to/lastmile_qr_scan", "ios": "https://dc.lft.to/lastmile_qr_scan"}, "fusion_lon": 0.0, "lat": 38.897492, "bike_id": "840689151d528ddc0d746679da7ac1a5", "type": "electric_scooter", "is_reserved": 0, "lon": -77.03304133333333}, {"fusion_lat": 0.0, "name": "9f949f2084d06a54d6585df5b125dbe6", "is_disabled": 0, "rental_uris": {"android": "https://dc.lft.to/lastmile_qr_scan", "ios": "https://dc.lft.to/lastmile_qr_scan"}, "fusion_lon": 0.0, "lat": 38.899641833333334, "bike_id": "9f949f2084d06a54d6585df5b125dbe6", "type": "electric_scooter", "is_reserved": 0, "lon": -76.98166166666667}, {"fusion_lat": 0.0, "name": "a2f02c4eb947109d26198dc327fccaf2", "is_disabled": 0, "rental_uris": {"android": "https://dc.lft.to/lastmile_qr_scan", "ios": "https://dc.lft.to/lastmile_qr_scan"}, "fusion_lon": 0.0, "lat": 38.94295833333334, "bike_id": "a2f02c4eb947109d26198dc327fccaf2", "type": "electric_scooter", "is_reserved": 0, "lon": -77.02174966666666}, {"fusion_lat": 0.0, "name": "b1fd43fdc7d124a6a77966c7113a14de", "is_disabled": 0, "rental_uris": {"android": "https://dc.lft.to/lastmile_qr_scan", "ios": "https://dc.lft.to/lastmile_qr_scan"}, "fusion_lon": 0.0, "lat": 38.90276466666667, "bike_id": "b1fd43fdc7d124a6a77966c7113a14de", "type": "electric_scooter", "is_reserved": 0, "lon": -77.01761616666667}, {"fusion_lat": 0.0, "name": "6af05c8d2f79baa9c028eb3ff6a979bb", "is_disabled": 0, "rental_uris": {"android": "https://dc.lft.to/lastmile_qr_scan", "ios": "https://dc.lft.to/lastmile_qr_scan"}, "fusion_lon": 0.0, "lat": 38.898412, "bike_id": "6af05c8d2f79baa9c028eb3ff6a979bb", "type": "electric_scooter", "is_reserved": 0, "lon": -77.03180816666666}, {"fusion_lat": 0.0, "name": "20f9047d4d8307748e5e329614953b65", "is_disabled": 0, "rental_uris": {"android": "https://dc.lft.to/lastmile_qr_scan", "ios": "https://dc.lft.to/lastmile_qr_scan"}, "fusion_lon": 0.0, "lat": 38.923949, "bike_id": "20f9047d4d8307748e5e329614953b65", "type": "electric_scooter", "is_reserved": 0, "lon": -77.0430605}, {"fusion_lat": 0.0, "name": "abe3dda8e5446e6c6bb8bb94cfae664f", "is_disabled": 0, "rental_uris": {"android": "https://dc.lft.to/lastmile_qr_scan", "ios": "https://dc.lft.to/lastmile_qr_scan"}, "fusion_lon": 0.0, "lat": 38.89744666666667, "bike_id": "abe3dda8e5446e6c6bb8bb94cfae664f", "type": "electric_scooter", "is_reserved": 0, "lon": -77.02387433333334}, {"fusion_lat": 0.0, "name": "876c762e9d883efe31851425d1b48df5", "is_disabled": 0, "rental_uris": {"android": "https://dc.lft.to/lastmile_qr_scan", "ios": "https://dc.lft.to/lastmile_qr_scan"}, "fusion_lon": 0.0, "lat": 38.931239833333336, "bike_id": "876c762e9d883efe31851425d1b48df5", "type": "electric_scooter", "is_reserved": 0, "lon": -76.98442133333333}, {"fusion_lat": 0.0, "name": "ca6896d416da1b73221e07a54442ece2", "is_disabled": 0, "rental_uris": {"android": "https://dc.lft.to/lastmile_qr_scan", "ios": "https://dc.lft.to/lastmile_qr_scan"}, "fusion_lon": 0.0, "lat": 38.90644533333333, "bike_id": "ca6896d416da1b73221e07a54442ece2", "type": "electric_scooter", "is_reserved": 0, "lon": -77.0059715}, {"fusion_lat": 0.0, "name": "58270b51350e55c0e47ba9a7ad52d751", "is_disabled": 0, "rental_uris": {"android": "https://dc.lft.to/lastmile_qr_scan", "ios": "https://dc.lft.to/lastmile_qr_scan"}, "fusion_lon": 0.0, "lat": 38.933972, "bike_id": "58270b51350e55c0e47ba9a7ad52d751", "type": "electric_scooter", "is_reserved": 0, "lon": -77.02849233333333}, {"fusion_lat": 0.0, "name": "010d15cbbc1171520c50a5324d546135", "is_disabled": 0, "rental_uris": {"android": "https://dc.lft.to/lastmile_qr_scan", "ios": "https://dc.lft.to/lastmile_qr_scan"}, "fusion_lon": 0.0, "lat": 38.90954133333334, "bike_id": "010d15cbbc1171520c50a5324d546135", "type": "electric_scooter", "is_reserved": 0, "lon": -76.98536016666667}, {"fusion_lat": 0.0, "name": "7a1cf1997efd60b75eef59059b8861ef", "is_disabled": 0, "rental_uris": {"android": "https://dc.lft.to/lastmile_qr_scan", "ios": "https://dc.lft.to/lastmile_qr_scan"}, "fusion_lon": 0.0, "lat": 38.94133266666667, "bike_id": "7a1cf1997efd60b75eef59059b8861ef", "type": "electric_scooter", "is_reserved": 0, "lon": -77.0154685}, {"fusion_lat": 0.0, "name": "b210a8ffa7ed093e857fb39d6436edc1", "is_disabled": 0, "rental_uris": {"android": "https://dc.lft.to/lastmile_qr_scan", "ios": "https://dc.lft.to/lastmile_qr_scan"}, "fusion_lon": 0.0, "lat": 38.900615, "bike_id": "b210a8ffa7ed093e857fb39d6436edc1", "type": "electric_scooter", "is_reserved": 0, "lon": -77.05013483333333}, {"fusion_lat": 0.0, "name": "03ad37e71a37f50110522418906e7790", "is_disabled": 0, "rental_uris": {"android": "https://dc.lft.to/lastmile_qr_scan", "ios": "https://dc.lft.to/lastmile_qr_scan"}, "fusion_lon": 0.0, "lat": 38.95635633333333, "bike_id": "03ad37e71a37f50110522418906e7790", "type": "electric_scooter", "is_reserved": 0, "lon": -77.03303816666667}, {"fusion_lat": 0.0, "name": "5edc493e100b0bfe6253e5e2a327b136", "is_disabled": 0, "rental_uris": {"android": "https://dc.lft.to/lastmile_qr_scan", "ios": "https://dc.lft.to/lastmile_qr_scan"}, "fusion_lon": 0.0, "lat": 38.910159666666665, "bike_id": "5edc493e100b0bfe6253e5e2a327b136", "type": "electric_scooter", "is_reserved": 0, "lon": -77.0385635}, {"fusion_lat": 0.0, "name": "dc5a6fdc0712c8e0c1c4fc6e3960e66a", "is_disabled": 0, "rental_uris": {"android": "https://dc.lft.to/lastmile_qr_scan", "ios": "https://dc.lft.to/lastmile_qr_scan"}, "fusion_lon": 0.0, "lat": 38.9501815, "bike_id": "dc5a6fdc0712c8e0c1c4fc6e3960e66a", "type": "electric_scooter", "is_reserved": 0, "lon": -77.0335565}, {"fusion_lat": 0.0, "name": "3fbd6a972a433f1f86969f4a9c1c17d8", "is_disabled": 0, "rental_uris": {"android": "https://dc.lft.to/lastmile_qr_scan", "ios": "https://dc.lft.to/lastmile_qr_scan"}, "fusion_lon": 0.0, "lat": 38.88295433333333, "bike_id": "3fbd6a972a433f1f86969f4a9c1c17d8", "type": "electric_bike", "is_reserved": 0, "lon": -77.03024}, {"fusion_lat": 0.0, "name": "1f265f7c1db2ca88ab56e71cef29d15d", "is_disabled": 0, "rental_uris": {"android": "https://dc.lft.to/lastmile_qr_scan", "ios": "https://dc.lft.to/lastmile_qr_scan"}, "fusion_lon": 0.0, "lat": 38.927076, "bike_id": "1f265f7c1db2ca88ab56e71cef29d15d", "type": "electric_scooter", "is_reserved": 0, "lon": -77.023299}, {"fusion_lat": 0.0, "name": "8ecd21eca696cfbe12cbcc5a99d629ac", "is_disabled": 0, "rental_uris": {"android": "https://dc.lft.to/lastmile_qr_scan", "ios": "https://dc.lft.to/lastmile_qr_scan"}, "fusion_lon": 0.0, "lat": 38.940931166666665, "bike_id": "8ecd21eca696cfbe12cbcc5a99d629ac", "type": "electric_scooter", "is_reserved": 0, "lon": -77.02318833333334}, {"fusion_lat": 0.0, "name": "e3188ee83d4aceefb350c603a31c5393", "is_disabled": 0, "rental_uris": {"android": "https://dc.lft.to/lastmile_qr_scan", "ios": "https://dc.lft.to/lastmile_qr_scan"}, "fusion_lon": 0.0, "lat": 38.938951, "bike_id": "e3188ee83d4aceefb350c603a31c5393", "type": "electric_scooter", "is_reserved": 0, "lon": -77.033164}, {"fusion_lat": 0.0, "name": "cc822a0251a581a4b6f34a593d44221c", "is_disabled": 0, "rental_uris": {"android": "https://dc.lft.to/lastmile_qr_scan", "ios": "https://dc.lft.to/lastmile_qr_scan"}, "fusion_lon": 0.0, "lat": 38.93280933333333, "bike_id": "cc822a0251a581a4b6f34a593d44221c", "type": "electric_scooter", "is_reserved": 0, "lon": -77.02749983333334}, {"fusion_lat": 0.0, "name": "e9f106ec8a01bed1fe85150f800e40f9", "is_disabled": 0, "rental_uris": {"android": "https://dc.lft.to/lastmile_qr_scan", "ios": "https://dc.lft.to/lastmile_qr_scan"}, "fusion_lon": 0.0, "lat": 38.90080716666667, "bike_id": "e9f106ec8a01bed1fe85150f800e40f9", "type": "electric_scooter", "is_reserved": 0, "lon": -76.98341233333333}, {"fusion_lat": 0.0, "name": "ca23c5cc6520dc82c3f7853891c8234d", "is_disabled": 0, "rental_uris": {"android": "https://dc.lft.to/lastmile_qr_scan", "ios": "https://dc.lft.to/lastmile_qr_scan"}, "fusion_lon": 0.0, "lat": 38.92495683333333, "bike_id": "ca23c5cc6520dc82c3f7853891c8234d", "type": "electric_scooter", "is_reserved": 0, "lon": -77.02170183333334}, {"fusion_lat": 0.0, "name": "38785a68bf5be9bfc9aea62b0fb003f5", "is_disabled": 0, "rental_uris": {"android": "https://dc.lft.to/lastmile_qr_scan", "ios": "https://dc.lft.to/lastmile_qr_scan"}, "fusion_lon": 0.0, "lat": 38.923371, "bike_id": "38785a68bf5be9bfc9aea62b0fb003f5", "type": "electric_scooter", "is_reserved": 0, "lon": -77.036169}, {"fusion_lat": 0.0, "name": "d2dd968fd9c639563450e2ecf382968d", "is_disabled": 0, "rental_uris": {"android": "https://dc.lft.to/lastmile_qr_scan", "ios": "https://dc.lft.to/lastmile_qr_scan"}, "fusion_lon": 0.0, "lat": 38.91771083333333, "bike_id": "d2dd968fd9c639563450e2ecf382968d", "type": "electric_scooter", "is_reserved": 0, "lon": -77.0122705}, {"fusion_lat": 0.0, "name": "71fe99f2f622f7bde9fbf89a5010529f", "is_disabled": 0, "rental_uris": {"android": "https://dc.lft.to/lastmile_qr_scan", "ios": "https://dc.lft.to/lastmile_qr_scan"}, "fusion_lon": 0.0, "lat": 38.928263666666666, "bike_id": "71fe99f2f622f7bde9fbf89a5010529f", "type": "electric_scooter", "is_reserved": 0, "lon": -77.05437516666667}, {"fusion_lat": 0.0, "name": "2535310cfb789917737e69c043b4490c", "is_disabled": 0, "rental_uris": {"android": "https://dc.lft.to/lastmile_qr_scan", "ios": "https://dc.lft.to/lastmile_qr_scan"}, "fusion_lon": 0.0, "lat": 38.9419905, "bike_id": "2535310cfb789917737e69c043b4490c", "type": "electric_scooter", "is_reserved": 0, "lon": -77.02594383333333}, {"fusion_lat": 0.0, "name": "5f97966e40c205fa5cf6798d61caab5f", "is_disabled": 0, "rental_uris": {"android": "https://dc.lft.to/lastmile_qr_scan", "ios": "https://dc.lft.to/lastmile_qr_scan"}, "fusion_lon": 0.0, "lat": 38.9207795, "bike_id": "5f97966e40c205fa5cf6798d61caab5f", "type": "electric_scooter", "is_reserved": 0, "lon": -77.01425833333333}, {"fusion_lat": 0.0, "name": "293d07fd1d257d5be4e6c82fcccbc26a", "is_disabled": 0, "rental_uris": {"android": "https://dc.lft.to/lastmile_qr_scan", "ios": "https://dc.lft.to/lastmile_qr_scan"}, "fusion_lon": 0.0, "lat": 38.938448, "bike_id": "293d07fd1d257d5be4e6c82fcccbc26a", "type": "electric_scooter", "is_reserved": 0, "lon": -77.0337915}, {"fusion_lat": 0.0, "name": "ea4542c1aa096a9f2cc97046c404fdbd", "is_disabled": 0, "rental_uris": {"android": "https://dc.lft.to/lastmile_qr_scan", "ios": "https://dc.lft.to/lastmile_qr_scan"}, "fusion_lon": 0.0, "lat": 38.9640595, "bike_id": "ea4542c1aa096a9f2cc97046c404fdbd", "type": "electric_scooter", "is_reserved": 0, "lon": -77.0753125}, {"fusion_lat": 0.0, "name": "a583e845c7d808063967e667793fe4bb", "is_disabled": 0, "rental_uris": {"android": "https://dc.lft.to/lastmile_qr_scan", "ios": "https://dc.lft.to/lastmile_qr_scan"}, "fusion_lon": 0.0, "lat": 38.89405033333333, "bike_id": "a583e845c7d808063967e667793fe4bb", "type": "electric_scooter", "is_reserved": 0, "lon": -76.99490633333333}, {"fusion_lat": 0.0, "name": "d099c89d5e8e5606a6b590ff2ac6df51", "is_disabled": 0, "rental_uris": {"android": "https://dc.lft.to/lastmile_qr_scan", "ios": "https://dc.lft.to/lastmile_qr_scan"}, "fusion_lon": 0.0, "lat": 38.9253705, "bike_id": "d099c89d5e8e5606a6b590ff2ac6df51", "type": "electric_bike", "is_reserved": 0, "lon": -77.0011375}, {"fusion_lat": 0.0, "name": "8c16688c3befaa4a98bab07b4385545d", "is_disabled": 0, "rental_uris": {"android": "https://dc.lft.to/lastmile_qr_scan", "ios": "https://dc.lft.to/lastmile_qr_scan"}, "fusion_lon": 0.0, "lat": 38.903928, "bike_id": "8c16688c3befaa4a98bab07b4385545d", "type": "electric_scooter", "is_reserved": 0, "lon": -77.05146233333333}, {"fusion_lat": 0.0, "name": "a0f268dfa97db4e796670c447418fcc1", "is_disabled": 0, "rental_uris": {"android": "https://dc.lft.to/lastmile_qr_scan", "ios": "https://dc.lft.to/lastmile_qr_scan"}, "fusion_lon": 0.0, "lat": 38.88739066666667, "bike_id": "a0f268dfa97db4e796670c447418fcc1", "type": "electric_scooter", "is_reserved": 0, "lon": -77.0317185}, {"fusion_lat": 0.0, "name": "1de233db83d0353b268c4882a27c21a3", "is_disabled": 0, "rental_uris": {"android": "https://dc.lft.to/lastmile_qr_scan", "ios": "https://dc.lft.to/lastmile_qr_scan"}, "fusion_lon": 0.0, "lat": 38.92221216666667, "bike_id": "1de233db83d0353b268c4882a27c21a3", "type": "electric_bike", "is_reserved": 0, "lon": -77.20138916666667}, {"fusion_lat": 0.0, "name": "a026ec02689dfbdc4d6dcb29e8d9f5b3", "is_disabled": 0, "rental_uris": {"android": "https://dc.lft.to/lastmile_qr_scan", "ios": "https://dc.lft.to/lastmile_qr_scan"}, "fusion_lon": 0.0, "lat": 38.92107633333333, "bike_id": "a026ec02689dfbdc4d6dcb29e8d9f5b3", "type": "electric_scooter", "is_reserved": 0, "lon": -77.0469835}, {"fusion_lat": 0.0, "name": "11de1bf47f239594e951e1b4753214fc", "is_disabled": 0, "rental_uris": {"android": "https://dc.lft.to/lastmile_qr_scan", "ios": "https://dc.lft.to/lastmile_qr_scan"}, "fusion_lon": 0.0, "lat": 38.899035166666664, "bike_id": "11de1bf47f239594e951e1b4753214fc", "type": "electric_scooter", "is_reserved": 0, "lon": -76.933535}, {"fusion_lat": 0.0, "name": "272a3786a6e48e5229c3cf745c2b3f4c", "is_disabled": 0, "rental_uris": {"android": "https://dc.lft.to/lastmile_qr_scan", "ios": "https://dc.lft.to/lastmile_qr_scan"}, "fusion_lon": 0.0, "lat": 38.9002385, "bike_id": "272a3786a6e48e5229c3cf745c2b3f4c", "type": "electric_scooter", "is_reserved": 0, "lon": -77.05803966666667}, {"fusion_lat": 0.0, "name": "bc61cfaacbe1b3c15ce214f5120fce06", "is_disabled": 0, "rental_uris": {"android": "https://dc.lft.to/lastmile_qr_scan", "ios": "https://dc.lft.to/lastmile_qr_scan"}, "fusion_lon": 0.0, "lat": 38.89778883333334, "bike_id": "bc61cfaacbe1b3c15ce214f5120fce06", "type": "electric_scooter", "is_reserved": 0, "lon": -77.04670733333333}, {"fusion_lat": 0.0, "name": "0dd573f96b89760b0f68d1b717b49f58", "is_disabled": 0, "rental_uris": {"android": "https://dc.lft.to/lastmile_qr_scan", "ios": "https://dc.lft.to/lastmile_qr_scan"}, "fusion_lon": 0.0, "lat": 38.900553, "bike_id": "0dd573f96b89760b0f68d1b717b49f58", "type": "electric_scooter", "is_reserved": 0, "lon": -77.0562795}, {"fusion_lat": 0.0, "name": "01d6193535f2337b0fb8c5eb4c851533", "is_disabled": 0, "rental_uris": {"android": "https://dc.lft.to/lastmile_qr_scan", "ios": "https://dc.lft.to/lastmile_qr_scan"}, "fusion_lon": 0.0, "lat": 38.94836316666667, "bike_id": "01d6193535f2337b0fb8c5eb4c851533", "type": "electric_scooter", "is_reserved": 0, "lon": -77.02562966666666}, {"fusion_lat": 0.0, "name": "8fc88278ad77827b71f73b76e14680a7", "is_disabled": 0, "rental_uris": {"android": "https://dc.lft.to/lastmile_qr_scan", "ios": "https://dc.lft.to/lastmile_qr_scan"}, "fusion_lon": 0.0, "lat": 38.79469366666667, "bike_id": "8fc88278ad77827b71f73b76e14680a7", "type": "electric_bike", "is_reserved": 0, "lon": -76.99249466666667}, {"fusion_lat": 0.0, "name": "350ecc0831856048dc1196130cccb493", "is_disabled": 0, "rental_uris": {"android": "https://dc.lft.to/lastmile_qr_scan", "ios": "https://dc.lft.to/lastmile_qr_scan"}, "fusion_lon": 0.0, "lat": 38.91903583333333, "bike_id": "350ecc0831856048dc1196130cccb493", "type": "electric_scooter", "is_reserved": 0, "lon": -77.02758183333333}, {"fusion_lat": 0.0, "name": "d2c3f7594edcf0025fdf8108c99f520d", "is_disabled": 0, "rental_uris": {"android": "https://dc.lft.to/lastmile_qr_scan", "ios": "https://dc.lft.to/lastmile_qr_scan"}, "fusion_lon": 0.0, "lat": 38.9225255, "bike_id": "d2c3f7594edcf0025fdf8108c99f520d", "type": "electric_scooter", "is_reserved": 0, "lon": -77.02978216666666}, {"fusion_lat": 0.0, "name": "c52415231cd80a43223d342082c93d02", "is_disabled": 0, "rental_uris": {"android": "https://dc.lft.to/lastmile_qr_scan", "ios": "https://dc.lft.to/lastmile_qr_scan"}, "fusion_lon": 0.0, "lat": 38.946622166666664, "bike_id": "c52415231cd80a43223d342082c93d02", "type": "electric_bike", "is_reserved": 0, "lon": -76.956718}, {"fusion_lat": 0.0, "name": "314f5ef49830fa95ea7a4b15991da351", "is_disabled": 0, "rental_uris": {"android": "https://dc.lft.to/lastmile_qr_scan", "ios": "https://dc.lft.to/lastmile_qr_scan"}, "fusion_lon": 0.0, "lat": 38.90862516666667, "bike_id": "314f5ef49830fa95ea7a4b15991da351", "type": "electric_scooter", "is_reserved": 0, "lon": -77.04422066666666}, {"fusion_lat": 0.0, "name": "166a264def9118cffddf294f6721c903", "is_disabled": 0, "rental_uris": {"android": "https://dc.lft.to/lastmile_qr_scan", "ios": "https://dc.lft.to/lastmile_qr_scan"}, "fusion_lon": 0.0, "lat": 38.893017666666665, "bike_id": "166a264def9118cffddf294f6721c903", "type": "electric_scooter", "is_reserved": 0, "lon": -77.02153583333333}, {"fusion_lat": 0.0, "name": "6ffd34c84f1f5e76de2dce402be7efa2", "is_disabled": 0, "rental_uris": {"android": "https://dc.lft.to/lastmile_qr_scan", "ios": "https://dc.lft.to/lastmile_qr_scan"}, "fusion_lon": 0.0, "lat": 38.917476666666666, "bike_id": "6ffd34c84f1f5e76de2dce402be7efa2", "type": "electric_scooter", "is_reserved": 0, "lon": -77.04149683333333}, {"fusion_lat": 0.0, "name": "5e28637beaf3096ffa3bebe26f1a8948", "is_disabled": 0, "rental_uris": {"android": "https://dc.lft.to/lastmile_qr_scan", "ios": "https://dc.lft.to/lastmile_qr_scan"}, "fusion_lon": 0.0, "lat": 38.93117216666667, "bike_id": "5e28637beaf3096ffa3bebe26f1a8948", "type": "electric_scooter", "is_reserved": 0, "lon": -77.03026766666666}, {"fusion_lat": 0.0, "name": "e33401bc6e9c124f961d327465ecd73f", "is_disabled": 0, "rental_uris": {"android": "https://dc.lft.to/lastmile_qr_scan", "ios": "https://dc.lft.to/lastmile_qr_scan"}, "fusion_lon": 0.0, "lat": 38.901512333333336, "bike_id": "e33401bc6e9c124f961d327465ecd73f", "type": "electric_scooter", "is_reserved": 0, "lon": -77.016105}, {"fusion_lat": 0.0, "name": "c007439aca0942e6b0ccf4d4fc95dfe4", "is_disabled": 0, "rental_uris": {"android": "https://dc.lft.to/lastmile_qr_scan", "ios": "https://dc.lft.to/lastmile_qr_scan"}, "fusion_lon": 0.0, "lat": 38.916588, "bike_id": "c007439aca0942e6b0ccf4d4fc95dfe4", "type": "electric_scooter", "is_reserved": 0, "lon": -77.02819416666667}, {"fusion_lat": 0.0, "name": "4c5fe98b3f9eee53a78f957bea79abed", "is_disabled": 0, "rental_uris": {"android": "https://dc.lft.to/lastmile_qr_scan", "ios": "https://dc.lft.to/lastmile_qr_scan"}, "fusion_lon": 0.0, "lat": 38.8788735, "bike_id": "4c5fe98b3f9eee53a78f957bea79abed", "type": "electric_scooter", "is_reserved": 0, "lon": -77.02231483333334}, {"fusion_lat": 0.0, "name": "0f71483d7fec4636fa4d431e9e409c25", "is_disabled": 0, "rental_uris": {"android": "https://dc.lft.to/lastmile_qr_scan", "ios": "https://dc.lft.to/lastmile_qr_scan"}, "fusion_lon": 0.0, "lat": 38.941143333333336, "bike_id": "0f71483d7fec4636fa4d431e9e409c25", "type": "electric_scooter", "is_reserved": 0, "lon": -77.02546466666666}, {"fusion_lat": 0.0, "name": "0bd673fa8353476d9b47026a300d76e7", "is_disabled": 0, "rental_uris": {"android": "https://dc.lft.to/lastmile_qr_scan", "ios": "https://dc.lft.to/lastmile_qr_scan"}, "fusion_lon": 0.0, "lat": 38.92415533333333, "bike_id": "0bd673fa8353476d9b47026a300d76e7", "type": "electric_scooter", "is_reserved": 0, "lon": -77.04455866666666}, {"fusion_lat": 0.0, "name": "a3696500a78371f5fc4f59126875f462", "is_disabled": 0, "rental_uris": {"android": "https://dc.lft.to/lastmile_qr_scan", "ios": "https://dc.lft.to/lastmile_qr_scan"}, "fusion_lon": 0.0, "lat": 38.89617833333333, "bike_id": "a3696500a78371f5fc4f59126875f462", "type": "electric_bike", "is_reserved": 0, "lon": -76.90744066666667}, {"fusion_lat": 0.0, "name": "70030435e5ae70be2a3004ec56f29cdb", "is_disabled": 0, "rental_uris": {"android": "https://dc.lft.to/lastmile_qr_scan", "ios": "https://dc.lft.to/lastmile_qr_scan"}, "fusion_lon": 0.0, "lat": 38.923385, "bike_id": "70030435e5ae70be2a3004ec56f29cdb", "type": "electric_scooter", "is_reserved": 0, "lon": -77.05299116666667}, {"fusion_lat": 0.0, "name": "02dbf1a6f096b0ebaa2f87e2e041b285", "is_disabled": 0, "rental_uris": {"android": "https://dc.lft.to/lastmile_qr_scan", "ios": "https://dc.lft.to/lastmile_qr_scan"}, "fusion_lon": 0.0, "lat": 38.926726, "bike_id": "02dbf1a6f096b0ebaa2f87e2e041b285", "type": "electric_scooter", "is_reserved": 0, "lon": -77.014856}, {"fusion_lat": 0.0, "name": "46dd19607739f56037636931d2aa3e48", "is_disabled": 0, "rental_uris": {"android": "https://dc.lft.to/lastmile_qr_scan", "ios": "https://dc.lft.to/lastmile_qr_scan"}, "fusion_lon": 0.0, "lat": 38.931433, "bike_id": "46dd19607739f56037636931d2aa3e48", "type": "electric_scooter", "is_reserved": 0, "lon": -77.029869}, {"fusion_lat": 0.0, "name": "dad469d0b8e622887b5b2be23014eab2", "is_disabled": 0, "rental_uris": {"android": "https://dc.lft.to/lastmile_qr_scan", "ios": "https://dc.lft.to/lastmile_qr_scan"}, "fusion_lon": 0.0, "lat": 38.898297166666666, "bike_id": "dad469d0b8e622887b5b2be23014eab2", "type": "electric_scooter", "is_reserved": 0, "lon": -77.041625}, {"fusion_lat": 0.0, "name": "fa6a503fd3b3209b43ff210401f2d845", "is_disabled": 0, "rental_uris": {"android": "https://dc.lft.to/lastmile_qr_scan", "ios": "https://dc.lft.to/lastmile_qr_scan"}, "fusion_lon": 0.0, "lat": 38.927432833333334, "bike_id": "fa6a503fd3b3209b43ff210401f2d845", "type": "electric_scooter", "is_reserved": 0, "lon": -77.02539166666666}, {"fusion_lat": 0.0, "name": "905f797e7e7f2a0628fc5b33c2064ef1", "is_disabled": 0, "rental_uris": {"android": "https://dc.lft.to/lastmile_qr_scan", "ios": "https://dc.lft.to/lastmile_qr_scan"}, "fusion_lon": 0.0, "lat": 38.900330833333335, "bike_id": "905f797e7e7f2a0628fc5b33c2064ef1", "type": "electric_scooter", "is_reserved": 0, "lon": -76.996022}, {"fusion_lat": 0.0, "name": "f5fcaf42f2d3dbb0a0115c5b33dae795", "is_disabled": 0, "rental_uris": {"android": "https://dc.lft.to/lastmile_qr_scan", "ios": "https://dc.lft.to/lastmile_qr_scan"}, "fusion_lon": 0.0, "lat": 38.921431, "bike_id": "f5fcaf42f2d3dbb0a0115c5b33dae795", "type": "electric_scooter", "is_reserved": 0, "lon": -77.0470415}, {"fusion_lat": 0.0, "name": "d035752508f414cc3b792442ab57622a", "is_disabled": 0, "rental_uris": {"android": "https://dc.lft.to/lastmile_qr_scan", "ios": "https://dc.lft.to/lastmile_qr_scan"}, "fusion_lon": 0.0, "lat": 38.9245655, "bike_id": "d035752508f414cc3b792442ab57622a", "type": "electric_scooter", "is_reserved": 0, "lon": -77.02409466666667}, {"fusion_lat": 0.0, "name": "d6254085021e69b85744e00e7a56d395", "is_disabled": 0, "rental_uris": {"android": "https://dc.lft.to/lastmile_qr_scan", "ios": "https://dc.lft.to/lastmile_qr_scan"}, "fusion_lon": 0.0, "lat": 38.9349125, "bike_id": "d6254085021e69b85744e00e7a56d395", "type": "electric_scooter", "is_reserved": 0, "lon": -77.04534816666667}, {"fusion_lat": 0.0, "name": "e6f8c31d1393e58809492b03f033c24b", "is_disabled": 0, "rental_uris": {"android": "https://dc.lft.to/lastmile_qr_scan", "ios": "https://dc.lft.to/lastmile_qr_scan"}, "fusion_lon": 0.0, "lat": 38.871105666666665, "bike_id": "e6f8c31d1393e58809492b03f033c24b", "type": "electric_scooter", "is_reserved": 0, "lon": -77.00756216666667}, {"fusion_lat": 0.0, "name": "deed73e1e1d8c7882e4e5bbe3b536668", "is_disabled": 0, "rental_uris": {"android": "https://dc.lft.to/lastmile_qr_scan", "ios": "https://dc.lft.to/lastmile_qr_scan"}, "fusion_lon": 0.0, "lat": 38.871794333333334, "bike_id": "deed73e1e1d8c7882e4e5bbe3b536668", "type": "electric_scooter", "is_reserved": 0, "lon": -77.0061725}, {"fusion_lat": 0.0, "name": "6b848d43b03ed344f9de78890af6bd2d", "is_disabled": 0, "rental_uris": {"android": "https://dc.lft.to/lastmile_qr_scan", "ios": "https://dc.lft.to/lastmile_qr_scan"}, "fusion_lon": 0.0, "lat": 38.919203333333336, "bike_id": "6b848d43b03ed344f9de78890af6bd2d", "type": "electric_scooter", "is_reserved": 0, "lon": -77.02197383333333}, {"fusion_lat": 0.0, "name": "c30e3838aa43f540422eb7f9ab1985e1", "is_disabled": 0, "rental_uris": {"android": "https://dc.lft.to/lastmile_qr_scan", "ios": "https://dc.lft.to/lastmile_qr_scan"}, "fusion_lon": 0.0, "lat": 38.91522, "bike_id": "c30e3838aa43f540422eb7f9ab1985e1", "type": "electric_scooter", "is_reserved": 0, "lon": -77.07272366666666}, {"fusion_lat": 0.0, "name": "8b5e9261880e8803659e8cf605d2c190", "is_disabled": 0, "rental_uris": {"android": "https://dc.lft.to/lastmile_qr_scan", "ios": "https://dc.lft.to/lastmile_qr_scan"}, "fusion_lon": 0.0, "lat": 38.95382383333333, "bike_id": "8b5e9261880e8803659e8cf605d2c190", "type": "electric_bike", "is_reserved": 0, "lon": -76.97965916666666}, {"fusion_lat": 0.0, "name": "c6418c57abdb51e539f6c64d88bc64f8", "is_disabled": 0, "rental_uris": {"android": "https://dc.lft.to/lastmile_qr_scan", "ios": "https://dc.lft.to/lastmile_qr_scan"}, "fusion_lon": 0.0, "lat": 38.90271, "bike_id": "c6418c57abdb51e539f6c64d88bc64f8", "type": "electric_scooter", "is_reserved": 0, "lon": -76.97673966666666}, {"fusion_lat": 0.0, "name": "ed44c2dd9c08e063be2a96bf580e26d0", "is_disabled": 0, "rental_uris": {"android": "https://dc.lft.to/lastmile_qr_scan", "ios": "https://dc.lft.to/lastmile_qr_scan"}, "fusion_lon": 0.0, "lat": 38.92345916666667, "bike_id": "ed44c2dd9c08e063be2a96bf580e26d0", "type": "electric_scooter", "is_reserved": 0, "lon": -77.02017716666667}, {"fusion_lat": 0.0, "name": "d388cea599160e94c962c9ed45cbab33", "is_disabled": 0, "rental_uris": {"android": "https://dc.lft.to/lastmile_qr_scan", "ios": "https://dc.lft.to/lastmile_qr_scan"}, "fusion_lon": 0.0, "lat": 38.898729333333335, "bike_id": "d388cea599160e94c962c9ed45cbab33", "type": "electric_scooter", "is_reserved": 0, "lon": -76.93185683333333}, {"fusion_lat": 0.0, "name": "33176f64effeeb7487e42a51b57a6ae2", "is_disabled": 0, "rental_uris": {"android": "https://dc.lft.to/lastmile_qr_scan", "ios": "https://dc.lft.to/lastmile_qr_scan"}, "fusion_lon": 0.0, "lat": 38.892059, "bike_id": "33176f64effeeb7487e42a51b57a6ae2", "type": "electric_scooter", "is_reserved": 0, "lon": -76.97705866666666}, {"fusion_lat": 0.0, "name": "f03530fe469a0486eb582df97154864f", "is_disabled": 0, "rental_uris": {"android": "https://dc.lft.to/lastmile_qr_scan", "ios": "https://dc.lft.to/lastmile_qr_scan"}, "fusion_lon": 0.0, "lat": 38.900754166666665, "bike_id": "f03530fe469a0486eb582df97154864f", "type": "electric_scooter", "is_reserved": 0, "lon": -77.0131195}, {"fusion_lat": 0.0, "name": "c53b3804ffb5b11e896e36d64346c419", "is_disabled": 0, "rental_uris": {"android": "https://dc.lft.to/lastmile_qr_scan", "ios": "https://dc.lft.to/lastmile_qr_scan"}, "fusion_lon": 0.0, "lat": 38.90411916666667, "bike_id": "c53b3804ffb5b11e896e36d64346c419", "type": "electric_scooter", "is_reserved": 0, "lon": -76.97329766666667}, {"fusion_lat": 0.0, "name": "1039358429e5bf4207bd7722394c8bfb", "is_disabled": 0, "rental_uris": {"android": "https://dc.lft.to/lastmile_qr_scan", "ios": "https://dc.lft.to/lastmile_qr_scan"}, "fusion_lon": 0.0, "lat": 38.89627983333333, "bike_id": "1039358429e5bf4207bd7722394c8bfb", "type": "electric_scooter", "is_reserved": 0, "lon": -77.01164483333334}, {"fusion_lat": 0.0, "name": "be037e35d5e8f00a0fae1150d1b9a2a3", "is_disabled": 0, "rental_uris": {"android": "https://dc.lft.to/lastmile_qr_scan", "ios": "https://dc.lft.to/lastmile_qr_scan"}, "fusion_lon": 0.0, "lat": 38.909604333333334, "bike_id": "be037e35d5e8f00a0fae1150d1b9a2a3", "type": "electric_scooter", "is_reserved": 0, "lon": -77.03567066666666}, {"fusion_lat": 0.0, "name": "790e824760342f6e8522db4a266a117e", "is_disabled": 0, "rental_uris": {"android": "https://dc.lft.to/lastmile_qr_scan", "ios": "https://dc.lft.to/lastmile_qr_scan"}, "fusion_lon": 0.0, "lat": 38.87782116666666, "bike_id": "790e824760342f6e8522db4a266a117e", "type": "electric_scooter", "is_reserved": 0, "lon": -76.99414183333333}, {"fusion_lat": 0.0, "name": "829bf45132905ec5623efc24716b8f63", "is_disabled": 0, "rental_uris": {"android": "https://dc.lft.to/lastmile_qr_scan", "ios": "https://dc.lft.to/lastmile_qr_scan"}, "fusion_lon": 0.0, "lat": 38.907130333333335, "bike_id": "829bf45132905ec5623efc24716b8f63", "type": "electric_scooter", "is_reserved": 0, "lon": -77.051317}, {"fusion_lat": 0.0, "name": "130e14fdc69686db3a26a77e72b9daae", "is_disabled": 0, "rental_uris": {"android": "https://dc.lft.to/lastmile_qr_scan", "ios": "https://dc.lft.to/lastmile_qr_scan"}, "fusion_lon": 0.0, "lat": 38.914607333333336, "bike_id": "130e14fdc69686db3a26a77e72b9daae", "type": "electric_scooter", "is_reserved": 0, "lon": -77.0063995}, {"fusion_lat": 0.0, "name": "1169128c7b56d8d239261784c5218af1", "is_disabled": 0, "rental_uris": {"android": "https://dc.lft.to/lastmile_qr_scan", "ios": "https://dc.lft.to/lastmile_qr_scan"}, "fusion_lon": 0.0, "lat": 38.91406716666667, "bike_id": "1169128c7b56d8d239261784c5218af1", "type": "electric_scooter", "is_reserved": 0, "lon": -77.04869233333334}, {"fusion_lat": 0.0, "name": "4b9996d45c3167638c50c187995a7b01", "is_disabled": 0, "rental_uris": {"android": "https://dc.lft.to/lastmile_qr_scan", "ios": "https://dc.lft.to/lastmile_qr_scan"}, "fusion_lon": 0.0, "lat": 38.93305266666667, "bike_id": "4b9996d45c3167638c50c187995a7b01", "type": "electric_scooter", "is_reserved": 0, "lon": -77.030737}, {"fusion_lat": 0.0, "name": "c6f5e021d9c15db86db8c5ab18b254a6", "is_disabled": 0, "rental_uris": {"android": "https://dc.lft.to/lastmile_qr_scan", "ios": "https://dc.lft.to/lastmile_qr_scan"}, "fusion_lon": 0.0, "lat": 38.8993335, "bike_id": "c6f5e021d9c15db86db8c5ab18b254a6", "type": "electric_scooter", "is_reserved": 0, "lon": -77.041505}, {"fusion_lat": 0.0, "name": "406475784d70d15700f6070ad26034d7", "is_disabled": 0, "rental_uris": {"android": "https://dc.lft.to/lastmile_qr_scan", "ios": "https://dc.lft.to/lastmile_qr_scan"}, "fusion_lon": 0.0, "lat": 38.9004665, "bike_id": "406475784d70d15700f6070ad26034d7", "type": "electric_scooter", "is_reserved": 0, "lon": -77.03983783333334}, {"fusion_lat": 0.0, "name": "5a1809d6233cc7d1b857ccd15fbe5d62", "is_disabled": 0, "rental_uris": {"android": "https://dc.lft.to/lastmile_qr_scan", "ios": "https://dc.lft.to/lastmile_qr_scan"}, "fusion_lon": 0.0, "lat": 38.921346166666666, "bike_id": "5a1809d6233cc7d1b857ccd15fbe5d62", "type": "electric_scooter", "is_reserved": 0, "lon": -77.00959783333333}, {"fusion_lat": 0.0, "name": "7d576c870bbaca1034da88290e256664", "is_disabled": 0, "rental_uris": {"android": "https://dc.lft.to/lastmile_qr_scan", "ios": "https://dc.lft.to/lastmile_qr_scan"}, "fusion_lon": 0.0, "lat": 38.854579, "bike_id": "7d576c870bbaca1034da88290e256664", "type": "electric_scooter", "is_reserved": 0, "lon": -76.97223766666667}, {"fusion_lat": 0.0, "name": "6ce974bef48cc41e78ba055ebbc4fb0f", "is_disabled": 0, "rental_uris": {"android": "https://dc.lft.to/lastmile_qr_scan", "ios": "https://dc.lft.to/lastmile_qr_scan"}, "fusion_lon": 0.0, "lat": 38.90607, "bike_id": "6ce974bef48cc41e78ba055ebbc4fb0f", "type": "electric_scooter", "is_reserved": 0, "lon": -77.00611766666667}, {"fusion_lat": 0.0, "name": "bd6d4606828e814fdd4f655b7c8fd98e", "is_disabled": 0, "rental_uris": {"android": "https://dc.lft.to/lastmile_qr_scan", "ios": "https://dc.lft.to/lastmile_qr_scan"}, "fusion_lon": 0.0, "lat": 38.873724333333335, "bike_id": "bd6d4606828e814fdd4f655b7c8fd98e", "type": "electric_scooter", "is_reserved": 0, "lon": -77.00090766666666}, {"fusion_lat": 0.0, "name": "f491c8d7026c654aa3cb1e903af64bff", "is_disabled": 0, "rental_uris": {"android": "https://dc.lft.to/lastmile_qr_scan", "ios": "https://dc.lft.to/lastmile_qr_scan"}, "fusion_lon": 0.0, "lat": 38.90535233333333, "bike_id": "f491c8d7026c654aa3cb1e903af64bff", "type": "electric_scooter", "is_reserved": 0, "lon": -77.03487316666667}, {"fusion_lat": 0.0, "name": "ad1f22f8970307f7af6e8b4c4c9d8164", "is_disabled": 0, "rental_uris": {"android": "https://dc.lft.to/lastmile_qr_scan", "ios": "https://dc.lft.to/lastmile_qr_scan"}, "fusion_lon": 0.0, "lat": 38.8923, "bike_id": "ad1f22f8970307f7af6e8b4c4c9d8164", "type": "electric_scooter", "is_reserved": 0, "lon": -77.01715133333333}, {"fusion_lat": 0.0, "name": "fa5c2bf3a9fda6c2fb17a03f43d0654a", "is_disabled": 0, "rental_uris": {"android": "https://dc.lft.to/lastmile_qr_scan", "ios": "https://dc.lft.to/lastmile_qr_scan"}, "fusion_lon": 0.0, "lat": 38.88613183333333, "bike_id": "fa5c2bf3a9fda6c2fb17a03f43d0654a", "type": "electric_scooter", "is_reserved": 0, "lon": -77.0156005}, {"fusion_lat": 0.0, "name": "fd24b14cf5fe0968b726c22b0e19e75f", "is_disabled": 0, "rental_uris": {"android": "https://dc.lft.to/lastmile_qr_scan", "ios": "https://dc.lft.to/lastmile_qr_scan"}, "fusion_lon": 0.0, "lat": 38.915805666666664, "bike_id": "fd24b14cf5fe0968b726c22b0e19e75f", "type": "electric_scooter", "is_reserved": 0, "lon": -77.00757916666667}, {"fusion_lat": 0.0, "name": "f3f4bc655ecad4e5ae0c105f60aa9967", "is_disabled": 0, "rental_uris": {"android": "https://dc.lft.to/lastmile_qr_scan", "ios": "https://dc.lft.to/lastmile_qr_scan"}, "fusion_lon": 0.0, "lat": 38.963745833333334, "bike_id": "f3f4bc655ecad4e5ae0c105f60aa9967", "type": "electric_scooter", "is_reserved": 0, "lon": -77.02049216666667}, {"fusion_lat": 0.0, "name": "62f923c2c8acd233b090f952fa40aacd", "is_disabled": 0, "rental_uris": {"android": "https://dc.lft.to/lastmile_qr_scan", "ios": "https://dc.lft.to/lastmile_qr_scan"}, "fusion_lon": 0.0, "lat": 38.9284885, "bike_id": "62f923c2c8acd233b090f952fa40aacd", "type": "electric_scooter", "is_reserved": 0, "lon": -77.02441366666666}, {"fusion_lat": 0.0, "name": "3636551398358e2b1bc532129529c82d", "is_disabled": 0, "rental_uris": {"android": "https://dc.lft.to/lastmile_qr_scan", "ios": "https://dc.lft.to/lastmile_qr_scan"}, "fusion_lon": 0.0, "lat": 38.906936, "bike_id": "3636551398358e2b1bc532129529c82d", "type": "electric_scooter", "is_reserved": 0, "lon": -76.9850605}, {"fusion_lat": 0.0, "name": "08b75138ea79b8a9971366d581fcc585", "is_disabled": 0, "rental_uris": {"android": "https://dc.lft.to/lastmile_qr_scan", "ios": "https://dc.lft.to/lastmile_qr_scan"}, "fusion_lon": 0.0, "lat": 38.8962575, "bike_id": "08b75138ea79b8a9971366d581fcc585", "type": "electric_scooter", "is_reserved": 0, "lon": -77.00914083333333}, {"fusion_lat": 0.0, "name": "d2ddf89f5af94748d76143ddffe1ee80", "is_disabled": 0, "rental_uris": {"android": "https://dc.lft.to/lastmile_qr_scan", "ios": "https://dc.lft.to/lastmile_qr_scan"}, "fusion_lon": 0.0, "lat": 38.88764316666666, "bike_id": "d2ddf89f5af94748d76143ddffe1ee80", "type": "electric_scooter", "is_reserved": 0, "lon": -76.97748566666667}, {"fusion_lat": 0.0, "name": "dee8e8adefe201e08eda4305f431baf5", "is_disabled": 0, "rental_uris": {"android": "https://dc.lft.to/lastmile_qr_scan", "ios": "https://dc.lft.to/lastmile_qr_scan"}, "fusion_lon": 0.0, "lat": 38.900561, "bike_id": "dee8e8adefe201e08eda4305f431baf5", "type": "electric_scooter", "is_reserved": 0, "lon": -77.0188055}, {"fusion_lat": 0.0, "name": "e2eb34c7f005f70a45f05c6f03e2c01a", "is_disabled": 0, "rental_uris": {"android": "https://dc.lft.to/lastmile_qr_scan", "ios": "https://dc.lft.to/lastmile_qr_scan"}, "fusion_lon": 0.0, "lat": 38.961377666666664, "bike_id": "e2eb34c7f005f70a45f05c6f03e2c01a", "type": "electric_bike", "is_reserved": 0, "lon": -77.0333475}, {"fusion_lat": 0.0, "name": "e1c1a202c62bc3a663129c048b54698f", "is_disabled": 0, "rental_uris": {"android": "https://dc.lft.to/lastmile_qr_scan", "ios": "https://dc.lft.to/lastmile_qr_scan"}, "fusion_lon": 0.0, "lat": 38.9167035, "bike_id": "e1c1a202c62bc3a663129c048b54698f", "type": "electric_scooter", "is_reserved": 0, "lon": -77.03846733333333}, {"fusion_lat": 0.0, "name": "9f9bbfe7a8860a877fc3c2415b699cef", "is_disabled": 0, "rental_uris": {"android": "https://dc.lft.to/lastmile_qr_scan", "ios": "https://dc.lft.to/lastmile_qr_scan"}, "fusion_lon": 0.0, "lat": 38.909782166666666, "bike_id": "9f9bbfe7a8860a877fc3c2415b699cef", "type": "electric_scooter", "is_reserved": 0, "lon": -77.00904116666666}, {"fusion_lat": 0.0, "name": "da7898f74175b3f3300e185420179142", "is_disabled": 0, "rental_uris": {"android": "https://dc.lft.to/lastmile_qr_scan", "ios": "https://dc.lft.to/lastmile_qr_scan"}, "fusion_lon": 0.0, "lat": 38.934603, "bike_id": "da7898f74175b3f3300e185420179142", "type": "electric_scooter", "is_reserved": 0, "lon": -77.072667}, {"fusion_lat": 0.0, "name": "1b8ef454745a416ab99d271333833e55", "is_disabled": 0, "rental_uris": {"android": "https://dc.lft.to/lastmile_qr_scan", "ios": "https://dc.lft.to/lastmile_qr_scan"}, "fusion_lon": 0.0, "lat": 38.9229115, "bike_id": "1b8ef454745a416ab99d271333833e55", "type": "electric_scooter", "is_reserved": 0, "lon": -77.029701}, {"fusion_lat": 0.0, "name": "9ca5c7dbe72be28e6f2004c19b0ab558", "is_disabled": 0, "rental_uris": {"android": "https://dc.lft.to/lastmile_qr_scan", "ios": "https://dc.lft.to/lastmile_qr_scan"}, "fusion_lon": 0.0, "lat": 38.9287085, "bike_id": "9ca5c7dbe72be28e6f2004c19b0ab558", "type": "electric_scooter", "is_reserved": 0, "lon": -77.03521066666667}, {"fusion_lat": 0.0, "name": "08b5d090add5f1bc54205158f9f9492c", "is_disabled": 0, "rental_uris": {"android": "https://dc.lft.to/lastmile_qr_scan", "ios": "https://dc.lft.to/lastmile_qr_scan"}, "fusion_lon": 0.0, "lat": 38.916175833333334, "bike_id": "08b5d090add5f1bc54205158f9f9492c", "type": "electric_scooter", "is_reserved": 0, "lon": -77.02955166666666}, {"fusion_lat": 0.0, "name": "b20aa547dcdc2b18427ad971d6a05ddd", "is_disabled": 0, "rental_uris": {"android": "https://dc.lft.to/lastmile_qr_scan", "ios": "https://dc.lft.to/lastmile_qr_scan"}, "fusion_lon": 0.0, "lat": 38.90006183333333, "bike_id": "b20aa547dcdc2b18427ad971d6a05ddd", "type": "electric_scooter", "is_reserved": 0, "lon": -77.00673066666667}, {"fusion_lat": 0.0, "name": "98f5bbae691ac71c79d221804b20f0f2", "is_disabled": 0, "rental_uris": {"android": "https://dc.lft.to/lastmile_qr_scan", "ios": "https://dc.lft.to/lastmile_qr_scan"}, "fusion_lon": 0.0, "lat": 38.923964166666664, "bike_id": "98f5bbae691ac71c79d221804b20f0f2", "type": "electric_scooter", "is_reserved": 0, "lon": -77.042961}, {"fusion_lat": 0.0, "name": "16812abfcffc70970a71a8065d21d479", "is_disabled": 0, "rental_uris": {"android": "https://dc.lft.to/lastmile_qr_scan", "ios": "https://dc.lft.to/lastmile_qr_scan"}, "fusion_lon": 0.0, "lat": 38.90423333333333, "bike_id": "16812abfcffc70970a71a8065d21d479", "type": "electric_scooter", "is_reserved": 0, "lon": -76.949776}, {"fusion_lat": 0.0, "name": "c58eb04fe5c0438bef3ef2e582020b22", "is_disabled": 0, "rental_uris": {"android": "https://dc.lft.to/lastmile_qr_scan", "ios": "https://dc.lft.to/lastmile_qr_scan"}, "fusion_lon": 0.0, "lat": 38.8971165, "bike_id": "c58eb04fe5c0438bef3ef2e582020b22", "type": "electric_scooter", "is_reserved": 0, "lon": -77.01308566666667}, {"fusion_lat": 0.0, "name": "e68e50106eeba9f126df8c37c11866b7", "is_disabled": 0, "rental_uris": {"android": "https://dc.lft.to/lastmile_qr_scan", "ios": "https://dc.lft.to/lastmile_qr_scan"}, "fusion_lon": 0.0, "lat": 38.906503, "bike_id": "e68e50106eeba9f126df8c37c11866b7", "type": "electric_scooter", "is_reserved": 0, "lon": -77.01148633333334}, {"fusion_lat": 0.0, "name": "1c55a548410e666dde897606bc191006", "is_disabled": 0, "rental_uris": {"android": "https://dc.lft.to/lastmile_qr_scan", "ios": "https://dc.lft.to/lastmile_qr_scan"}, "fusion_lon": 0.0, "lat": 38.88518333333333, "bike_id": "1c55a548410e666dde897606bc191006", "type": "electric_scooter", "is_reserved": 0, "lon": -77.0152305}, {"fusion_lat": 0.0, "name": "881fc1837f09e3d3ca388610ab625627", "is_disabled": 0, "rental_uris": {"android": "https://dc.lft.to/lastmile_qr_scan", "ios": "https://dc.lft.to/lastmile_qr_scan"}, "fusion_lon": 0.0, "lat": 38.98820166666667, "bike_id": "881fc1837f09e3d3ca388610ab625627", "type": "electric_bike", "is_reserved": 0, "lon": -76.9964705}, {"fusion_lat": 0.0, "name": "9534c6e0f46e15a4f1e77d66af1b3489", "is_disabled": 0, "rental_uris": {"android": "https://dc.lft.to/lastmile_qr_scan", "ios": "https://dc.lft.to/lastmile_qr_scan"}, "fusion_lon": 0.0, "lat": 38.91066883333333, "bike_id": "9534c6e0f46e15a4f1e77d66af1b3489", "type": "electric_scooter", "is_reserved": 0, "lon": -76.98529383333333}, {"fusion_lat": 0.0, "name": "ed0b5fc2ed068e63694f5e96084ac536", "is_disabled": 0, "rental_uris": {"android": "https://dc.lft.to/lastmile_qr_scan", "ios": "https://dc.lft.to/lastmile_qr_scan"}, "fusion_lon": 0.0, "lat": 38.917921166666666, "bike_id": "ed0b5fc2ed068e63694f5e96084ac536", "type": "electric_scooter", "is_reserved": 0, "lon": -77.02311666666667}, {"fusion_lat": 0.0, "name": "a0007a8931cf6600939e3b8968f330e2", "is_disabled": 0, "rental_uris": {"android": "https://dc.lft.to/lastmile_qr_scan", "ios": "https://dc.lft.to/lastmile_qr_scan"}, "fusion_lon": 0.0, "lat": 38.907300666666664, "bike_id": "a0007a8931cf6600939e3b8968f330e2", "type": "electric_scooter", "is_reserved": 0, "lon": -77.0111535}, {"fusion_lat": 0.0, "name": "c06eb5da315947fed97d7a4fd191fb0f", "is_disabled": 0, "rental_uris": {"android": "https://dc.lft.to/lastmile_qr_scan", "ios": "https://dc.lft.to/lastmile_qr_scan"}, "fusion_lon": 0.0, "lat": 38.9015135, "bike_id": "c06eb5da315947fed97d7a4fd191fb0f", "type": "electric_scooter", "is_reserved": 0, "lon": -76.93065966666667}, {"fusion_lat": 0.0, "name": "d81cd909cf6f5b5721790b9401ad9d70", "is_disabled": 0, "rental_uris": {"android": "https://dc.lft.to/lastmile_qr_scan", "ios": "https://dc.lft.to/lastmile_qr_scan"}, "fusion_lon": 0.0, "lat": 38.887666833333334, "bike_id": "d81cd909cf6f5b5721790b9401ad9d70", "type": "electric_scooter", "is_reserved": 0, "lon": -76.97748483333334}, {"fusion_lat": 0.0, "name": "03a702e48aa5eb2343b5ee3fec7690af", "is_disabled": 0, "rental_uris": {"android": "https://dc.lft.to/lastmile_qr_scan", "ios": "https://dc.lft.to/lastmile_qr_scan"}, "fusion_lon": 0.0, "lat": 38.98459033333334, "bike_id": "03a702e48aa5eb2343b5ee3fec7690af", "type": "electric_bike", "is_reserved": 0, "lon": -76.97060283333333}, {"fusion_lat": 0.0, "name": "ae33555babe4615d2cfe64878615df30", "is_disabled": 0, "rental_uris": {"android": "https://dc.lft.to/lastmile_qr_scan", "ios": "https://dc.lft.to/lastmile_qr_scan"}, "fusion_lon": 0.0, "lat": 38.90685883333333, "bike_id": "ae33555babe4615d2cfe64878615df30", "type": "electric_bike", "is_reserved": 0, "lon": -76.944954}, {"fusion_lat": 0.0, "name": "ed0e3ce8c46a39e9d1ffebd7b69e841b", "is_disabled": 0, "rental_uris": {"android": "https://dc.lft.to/lastmile_qr_scan", "ios": "https://dc.lft.to/lastmile_qr_scan"}, "fusion_lon": 0.0, "lat": 38.90571166666667, "bike_id": "ed0e3ce8c46a39e9d1ffebd7b69e841b", "type": "electric_scooter", "is_reserved": 0, "lon": -77.0443565}, {"fusion_lat": 0.0, "name": "b0e5ea6878885952dd5fd2c3ebe0a737", "is_disabled": 0, "rental_uris": {"android": "https://dc.lft.to/lastmile_qr_scan", "ios": "https://dc.lft.to/lastmile_qr_scan"}, "fusion_lon": 0.0, "lat": 38.898255666666664, "bike_id": "b0e5ea6878885952dd5fd2c3ebe0a737", "type": "electric_scooter", "is_reserved": 0, "lon": -77.00755133333334}, {"fusion_lat": 0.0, "name": "2dafc818cfbf5a9e78446a218717a75c", "is_disabled": 0, "rental_uris": {"android": "https://dc.lft.to/lastmile_qr_scan", "ios": "https://dc.lft.to/lastmile_qr_scan"}, "fusion_lon": 0.0, "lat": 38.878486, "bike_id": "2dafc818cfbf5a9e78446a218717a75c", "type": "electric_bike", "is_reserved": 0, "lon": -77.03021533333333}, {"fusion_lat": 0.0, "name": "a96a4265ecb6bbb2aa8caae12bdc1cc7", "is_disabled": 0, "rental_uris": {"android": "https://dc.lft.to/lastmile_qr_scan", "ios": "https://dc.lft.to/lastmile_qr_scan"}, "fusion_lon": 0.0, "lat": 38.9206145, "bike_id": "a96a4265ecb6bbb2aa8caae12bdc1cc7", "type": "electric_scooter", "is_reserved": 0, "lon": -77.02417316666667}, {"fusion_lat": 0.0, "name": "3a045a505883e7b11cdffc69c7e2fa4d", "is_disabled": 0, "rental_uris": {"android": "https://dc.lft.to/lastmile_qr_scan", "ios": "https://dc.lft.to/lastmile_qr_scan"}, "fusion_lon": 0.0, "lat": 38.92254966666667, "bike_id": "3a045a505883e7b11cdffc69c7e2fa4d", "type": "electric_bike", "is_reserved": 0, "lon": -77.0221845}, {"fusion_lat": 0.0, "name": "4e042b42622049f5e8d05534f7f22421", "is_disabled": 0, "rental_uris": {"android": "https://dc.lft.to/lastmile_qr_scan", "ios": "https://dc.lft.to/lastmile_qr_scan"}, "fusion_lon": 0.0, "lat": 38.897302, "bike_id": "4e042b42622049f5e8d05534f7f22421", "type": "electric_scooter", "is_reserved": 0, "lon": -76.94706066666667}, {"fusion_lat": 0.0, "name": "9d2982b94b32c5448719221f1ac6cf79", "is_disabled": 0, "rental_uris": {"android": "https://dc.lft.to/lastmile_qr_scan", "ios": "https://dc.lft.to/lastmile_qr_scan"}, "fusion_lon": 0.0, "lat": 38.8957015, "bike_id": "9d2982b94b32c5448719221f1ac6cf79", "type": "electric_scooter", "is_reserved": 0, "lon": -77.02729833333333}, {"fusion_lat": 0.0, "name": "d22ebc9b1ca7315aea22c26d81bb0544", "is_disabled": 0, "rental_uris": {"android": "https://dc.lft.to/lastmile_qr_scan", "ios": "https://dc.lft.to/lastmile_qr_scan"}, "fusion_lon": 0.0, "lat": 38.9078175, "bike_id": "d22ebc9b1ca7315aea22c26d81bb0544", "type": "electric_scooter", "is_reserved": 0, "lon": -77.01109533333333}, {"fusion_lat": 0.0, "name": "e2ca6c3f9d15dfd869cb554349e05d28", "is_disabled": 0, "rental_uris": {"android": "https://dc.lft.to/lastmile_qr_scan", "ios": "https://dc.lft.to/lastmile_qr_scan"}, "fusion_lon": 0.0, "lat": 38.8981895, "bike_id": "e2ca6c3f9d15dfd869cb554349e05d28", "type": "electric_scooter", "is_reserved": 0, "lon": -77.01047433333333}, {"fusion_lat": 0.0, "name": "1b4907a40eba8bef4f9c78f344a2995a", "is_disabled": 0, "rental_uris": {"android": "https://dc.lft.to/lastmile_qr_scan", "ios": "https://dc.lft.to/lastmile_qr_scan"}, "fusion_lon": 0.0, "lat": 38.8840525, "bike_id": "1b4907a40eba8bef4f9c78f344a2995a", "type": "electric_bike", "is_reserved": 0, "lon": -76.96064566666666}, {"fusion_lat": 0.0, "name": "d0065c3eb07ff32c8a28fb60aa44611d", "is_disabled": 0, "rental_uris": {"android": "https://dc.lft.to/lastmile_qr_scan", "ios": "https://dc.lft.to/lastmile_qr_scan"}, "fusion_lon": 0.0, "lat": 38.88502183333333, "bike_id": "d0065c3eb07ff32c8a28fb60aa44611d", "type": "electric_scooter", "is_reserved": 0, "lon": -77.00702033333333}, {"fusion_lat": 0.0, "name": "570ab9095a1a1ff67bf2691cd6b2e887", "is_disabled": 0, "rental_uris": {"android": "https://dc.lft.to/lastmile_qr_scan", "ios": "https://dc.lft.to/lastmile_qr_scan"}, "fusion_lon": 0.0, "lat": 38.925832666666665, "bike_id": "570ab9095a1a1ff67bf2691cd6b2e887", "type": "electric_scooter", "is_reserved": 0, "lon": -77.03244933333333}, {"fusion_lat": 0.0, "name": "0af11036c4ad6337f6195a1d42997ddf", "is_disabled": 0, "rental_uris": {"android": "https://dc.lft.to/lastmile_qr_scan", "ios": "https://dc.lft.to/lastmile_qr_scan"}, "fusion_lon": 0.0, "lat": 38.923469, "bike_id": "0af11036c4ad6337f6195a1d42997ddf", "type": "electric_scooter", "is_reserved": 0, "lon": -77.02433366666666}, {"fusion_lat": 0.0, "name": "6d128415fbb5c6c3f340a2f9964a1b9b", "is_disabled": 0, "rental_uris": {"android": "https://dc.lft.to/lastmile_qr_scan", "ios": "https://dc.lft.to/lastmile_qr_scan"}, "fusion_lon": 0.0, "lat": 38.86556783333333, "bike_id": "6d128415fbb5c6c3f340a2f9964a1b9b", "type": "electric_scooter", "is_reserved": 0, "lon": -76.98352883333334}, {"fusion_lat": 0.0, "name": "af3cc9ae1780fb0f056e8d4d9282903b", "is_disabled": 0, "rental_uris": {"android": "https://dc.lft.to/lastmile_qr_scan", "ios": "https://dc.lft.to/lastmile_qr_scan"}, "fusion_lon": 0.0, "lat": 38.88703833333334, "bike_id": "af3cc9ae1780fb0f056e8d4d9282903b", "type": "electric_scooter", "is_reserved": 0, "lon": -77.0025155}, {"fusion_lat": 0.0, "name": "a30f9cc210eb255c3acdd3cff25ac584", "is_disabled": 0, "rental_uris": {"android": "https://dc.lft.to/lastmile_qr_scan", "ios": "https://dc.lft.to/lastmile_qr_scan"}, "fusion_lon": 0.0, "lat": 38.8970465, "bike_id": "a30f9cc210eb255c3acdd3cff25ac584", "type": "electric_scooter", "is_reserved": 0, "lon": -77.0298055}, {"fusion_lat": 0.0, "name": "a00e7a9fb928d17cb69e1e7c7875c29c", "is_disabled": 0, "rental_uris": {"android": "https://dc.lft.to/lastmile_qr_scan", "ios": "https://dc.lft.to/lastmile_qr_scan"}, "fusion_lon": 0.0, "lat": 38.9019365, "bike_id": "a00e7a9fb928d17cb69e1e7c7875c29c", "type": "electric_scooter", "is_reserved": 0, "lon": -77.02359366666667}, {"fusion_lat": 0.0, "name": "e9c4857b591fc981093d1ae49ba0c17b", "is_disabled": 0, "rental_uris": {"android": "https://dc.lft.to/lastmile_qr_scan", "ios": "https://dc.lft.to/lastmile_qr_scan"}, "fusion_lon": 0.0, "lat": 38.82174933333334, "bike_id": "e9c4857b591fc981093d1ae49ba0c17b", "type": "electric_bike", "is_reserved": 0, "lon": -76.99515116666667}, {"fusion_lat": 0.0, "name": "8178b3b9798c958d5ad61fcaccce5320", "is_disabled": 0, "rental_uris": {"android": "https://dc.lft.to/lastmile_qr_scan", "ios": "https://dc.lft.to/lastmile_qr_scan"}, "fusion_lon": 0.0, "lat": 38.89647133333333, "bike_id": "8178b3b9798c958d5ad61fcaccce5320", "type": "electric_scooter", "is_reserved": 0, "lon": -77.05120766666667}, {"fusion_lat": 0.0, "name": "12ab6986cf15edb7845e956967f62baa", "is_disabled": 0, "rental_uris": {"android": "https://dc.lft.to/lastmile_qr_scan", "ios": "https://dc.lft.to/lastmile_qr_scan"}, "fusion_lon": 0.0, "lat": 38.90125616666667, "bike_id": "12ab6986cf15edb7845e956967f62baa", "type": "electric_scooter", "is_reserved": 0, "lon": -77.05237883333334}, {"fusion_lat": 0.0, "name": "b87e2d190f0409656ec32e470a692ee8", "is_disabled": 0, "rental_uris": {"android": "https://dc.lft.to/lastmile_qr_scan", "ios": "https://dc.lft.to/lastmile_qr_scan"}, "fusion_lon": 0.0, "lat": 38.87744883333333, "bike_id": "b87e2d190f0409656ec32e470a692ee8", "type": "electric_scooter", "is_reserved": 0, "lon": -77.0142925}, {"fusion_lat": 0.0, "name": "a869a0ab046ec106fa699bee45101e7b", "is_disabled": 0, "rental_uris": {"android": "https://dc.lft.to/lastmile_qr_scan", "ios": "https://dc.lft.to/lastmile_qr_scan"}, "fusion_lon": 0.0, "lat": 38.8961245, "bike_id": "a869a0ab046ec106fa699bee45101e7b", "type": "electric_scooter", "is_reserved": 0, "lon": -76.94812816666666}, {"fusion_lat": 0.0, "name": "31cd629acd3771aeb1556b4323e68793", "is_disabled": 0, "rental_uris": {"android": "https://dc.lft.to/lastmile_qr_scan", "ios": "https://dc.lft.to/lastmile_qr_scan"}, "fusion_lon": 0.0, "lat": 38.87952766666667, "bike_id": "31cd629acd3771aeb1556b4323e68793", "type": "electric_scooter", "is_reserved": 0, "lon": -76.99011716666666}, {"fusion_lat": 0.0, "name": "fd65882c93bd92385d540caa14698b17", "is_disabled": 0, "rental_uris": {"android": "https://dc.lft.to/lastmile_qr_scan", "ios": "https://dc.lft.to/lastmile_qr_scan"}, "fusion_lon": 0.0, "lat": 38.916258666666664, "bike_id": "fd65882c93bd92385d540caa14698b17", "type": "electric_scooter", "is_reserved": 0, "lon": -77.0319175}, {"fusion_lat": 0.0, "name": "49af6612508f3b0a6a013801be724f1a", "is_disabled": 0, "rental_uris": {"android": "https://dc.lft.to/lastmile_qr_scan", "ios": "https://dc.lft.to/lastmile_qr_scan"}, "fusion_lon": 0.0, "lat": 38.88325433333333, "bike_id": "49af6612508f3b0a6a013801be724f1a", "type": "electric_scooter", "is_reserved": 0, "lon": -77.0177235}, {"fusion_lat": 0.0, "name": "9cce20d2bcbcc6b046e82d429cd4ad7d", "is_disabled": 0, "rental_uris": {"android": "https://dc.lft.to/lastmile_qr_scan", "ios": "https://dc.lft.to/lastmile_qr_scan"}, "fusion_lon": 0.0, "lat": 38.898322666666665, "bike_id": "9cce20d2bcbcc6b046e82d429cd4ad7d", "type": "electric_scooter", "is_reserved": 0, "lon": -76.94631483333333}, {"fusion_lat": 0.0, "name": "966afe9c0d1913e2ea3723a81da1e02a", "is_disabled": 0, "rental_uris": {"android": "https://dc.lft.to/lastmile_qr_scan", "ios": "https://dc.lft.to/lastmile_qr_scan"}, "fusion_lon": 0.0, "lat": 38.92602733333333, "bike_id": "966afe9c0d1913e2ea3723a81da1e02a", "type": "electric_scooter", "is_reserved": 0, "lon": -77.02156033333333}, {"fusion_lat": 0.0, "name": "b69212701ab1e2c8c5497dca16ab0006", "is_disabled": 0, "rental_uris": {"android": "https://dc.lft.to/lastmile_qr_scan", "ios": "https://dc.lft.to/lastmile_qr_scan"}, "fusion_lon": 0.0, "lat": 38.89004116666667, "bike_id": "b69212701ab1e2c8c5497dca16ab0006", "type": "electric_scooter", "is_reserved": 0, "lon": -76.93744616666666}, {"fusion_lat": 0.0, "name": "8328a369a543ed2fd966935c90d03ea5", "is_disabled": 0, "rental_uris": {"android": "https://dc.lft.to/lastmile_qr_scan", "ios": "https://dc.lft.to/lastmile_qr_scan"}, "fusion_lon": 0.0, "lat": 38.916656833333334, "bike_id": "8328a369a543ed2fd966935c90d03ea5", "type": "electric_scooter", "is_reserved": 0, "lon": -77.02821433333334}, {"fusion_lat": 0.0, "name": "2406e47f6a42492c8aab959b463c13a9", "is_disabled": 0, "rental_uris": {"android": "https://dc.lft.to/lastmile_qr_scan", "ios": "https://dc.lft.to/lastmile_qr_scan"}, "fusion_lon": 0.0, "lat": 38.876881, "bike_id": "2406e47f6a42492c8aab959b463c13a9", "type": "electric_scooter", "is_reserved": 0, "lon": -77.01755483333334}, {"fusion_lat": 0.0, "name": "e4d82a8b568b111ae9db7782b5a05642", "is_disabled": 0, "rental_uris": {"android": "https://dc.lft.to/lastmile_qr_scan", "ios": "https://dc.lft.to/lastmile_qr_scan"}, "fusion_lon": 0.0, "lat": 38.804513, "bike_id": "e4d82a8b568b111ae9db7782b5a05642", "type": "electric_bike", "is_reserved": 0, "lon": -77.0539135}, {"fusion_lat": 0.0, "name": "eb03f311aaa2a0755f750e02b605e3b2", "is_disabled": 0, "rental_uris": {"android": "https://dc.lft.to/lastmile_qr_scan", "ios": "https://dc.lft.to/lastmile_qr_scan"}, "fusion_lon": 0.0, "lat": 38.920982333333335, "bike_id": "eb03f311aaa2a0755f750e02b605e3b2", "type": "electric_scooter", "is_reserved": 0, "lon": -76.99464566666667}, {"fusion_lat": 0.0, "name": "7764428d02dcc8a85287c57041bda097", "is_disabled": 0, "rental_uris": {"android": "https://dc.lft.to/lastmile_qr_scan", "ios": "https://dc.lft.to/lastmile_qr_scan"}, "fusion_lon": 0.0, "lat": 38.91470983333333, "bike_id": "7764428d02dcc8a85287c57041bda097", "type": "electric_scooter", "is_reserved": 0, "lon": -77.045461}, {"fusion_lat": 0.0, "name": "34caf294f0fc14d6787039959939c9f1", "is_disabled": 0, "rental_uris": {"android": "https://dc.lft.to/lastmile_qr_scan", "ios": "https://dc.lft.to/lastmile_qr_scan"}, "fusion_lon": 0.0, "lat": 38.89691466666667, "bike_id": "34caf294f0fc14d6787039959939c9f1", "type": "electric_bike", "is_reserved": 0, "lon": -77.02410533333334}, {"fusion_lat": 0.0, "name": "aaabfacc0ec839dc66c0837a954a9c05", "is_disabled": 0, "rental_uris": {"android": "https://dc.lft.to/lastmile_qr_scan", "ios": "https://dc.lft.to/lastmile_qr_scan"}, "fusion_lon": 0.0, "lat": 38.900342333333334, "bike_id": "aaabfacc0ec839dc66c0837a954a9c05", "type": "electric_scooter", "is_reserved": 0, "lon": -77.0019235}, {"fusion_lat": 0.0, "name": "057fdeda015bf9b23f2d5209c35c163d", "is_disabled": 0, "rental_uris": {"android": "https://dc.lft.to/lastmile_qr_scan", "ios": "https://dc.lft.to/lastmile_qr_scan"}, "fusion_lon": 0.0, "lat": 38.90409916666667, "bike_id": "057fdeda015bf9b23f2d5209c35c163d", "type": "electric_scooter", "is_reserved": 0, "lon": -76.97333866666666}, {"fusion_lat": 0.0, "name": "88beaaee8ac7425fb8c0a844a6d37c02", "is_disabled": 0, "rental_uris": {"android": "https://dc.lft.to/lastmile_qr_scan", "ios": "https://dc.lft.to/lastmile_qr_scan"}, "fusion_lon": 0.0, "lat": 38.9273445, "bike_id": "88beaaee8ac7425fb8c0a844a6d37c02", "type": "electric_scooter", "is_reserved": 0, "lon": -77.03424433333333}, {"fusion_lat": 0.0, "name": "a3b7f8c2a117b2984ef2ec0dcd4b057f", "is_disabled": 0, "rental_uris": {"android": "https://dc.lft.to/lastmile_qr_scan", "ios": "https://dc.lft.to/lastmile_qr_scan"}, "fusion_lon": 0.0, "lat": 38.93261183333333, "bike_id": "a3b7f8c2a117b2984ef2ec0dcd4b057f", "type": "electric_scooter", "is_reserved": 0, "lon": -77.06625183333334}, {"fusion_lat": 0.0, "name": "35e119b2768370b8255adde8cdfc2c29", "is_disabled": 0, "rental_uris": {"android": "https://dc.lft.to/lastmile_qr_scan", "ios": "https://dc.lft.to/lastmile_qr_scan"}, "fusion_lon": 0.0, "lat": 38.9057925, "bike_id": "35e119b2768370b8255adde8cdfc2c29", "type": "electric_scooter", "is_reserved": 0, "lon": -77.02211916666667}, {"fusion_lat": 0.0, "name": "420bc035d72444aed622f03218dd9092", "is_disabled": 0, "rental_uris": {"android": "https://dc.lft.to/lastmile_qr_scan", "ios": "https://dc.lft.to/lastmile_qr_scan"}, "fusion_lon": 0.0, "lat": 38.890072333333336, "bike_id": "420bc035d72444aed622f03218dd9092", "type": "electric_scooter", "is_reserved": 0, "lon": -76.9374805}, {"fusion_lat": 0.0, "name": "7a50c8ff9f79ed53987377d2e0a724fe", "is_disabled": 0, "rental_uris": {"android": "https://dc.lft.to/lastmile_qr_scan", "ios": "https://dc.lft.to/lastmile_qr_scan"}, "fusion_lon": 0.0, "lat": 38.911133166666666, "bike_id": "7a50c8ff9f79ed53987377d2e0a724fe", "type": "electric_scooter", "is_reserved": 0, "lon": -77.038293}, {"fusion_lat": 0.0, "name": "27f52e1883002c2ef8d31b7c5732a7f0", "is_disabled": 0, "rental_uris": {"android": "https://dc.lft.to/lastmile_qr_scan", "ios": "https://dc.lft.to/lastmile_qr_scan"}, "fusion_lon": 0.0, "lat": 38.892396833333336, "bike_id": "27f52e1883002c2ef8d31b7c5732a7f0", "type": "electric_scooter", "is_reserved": 0, "lon": -77.0335005}, {"fusion_lat": 0.0, "name": "a202b232332d241eb54aadf36a99a6e3", "is_disabled": 0, "rental_uris": {"android": "https://dc.lft.to/lastmile_qr_scan", "ios": "https://dc.lft.to/lastmile_qr_scan"}, "fusion_lon": 0.0, "lat": 38.937047166666666, "bike_id": "a202b232332d241eb54aadf36a99a6e3", "type": "electric_scooter", "is_reserved": 0, "lon": -77.06107783333333}, {"fusion_lat": 0.0, "name": "467eaca3bbd72e625399dabf391c0a71", "is_disabled": 0, "rental_uris": {"android": "https://dc.lft.to/lastmile_qr_scan", "ios": "https://dc.lft.to/lastmile_qr_scan"}, "fusion_lon": 0.0, "lat": 38.932611666666666, "bike_id": "467eaca3bbd72e625399dabf391c0a71", "type": "electric_scooter", "is_reserved": 0, "lon": -77.0326475}, {"fusion_lat": 0.0, "name": "f6b0dfecf6863a052ad59b60e6b52cf0", "is_disabled": 0, "rental_uris": {"android": "https://dc.lft.to/lastmile_qr_scan", "ios": "https://dc.lft.to/lastmile_qr_scan"}, "fusion_lon": 0.0, "lat": 38.88718333333333, "bike_id": "f6b0dfecf6863a052ad59b60e6b52cf0", "type": "electric_scooter", "is_reserved": 0, "lon": -76.996878}, {"fusion_lat": 0.0, "name": "d10aea878030ea3857cb9c04d193c144", "is_disabled": 0, "rental_uris": {"android": "https://dc.lft.to/lastmile_qr_scan", "ios": "https://dc.lft.to/lastmile_qr_scan"}, "fusion_lon": 0.0, "lat": 38.89942466666667, "bike_id": "d10aea878030ea3857cb9c04d193c144", "type": "electric_scooter", "is_reserved": 0, "lon": -76.98166866666666}, {"fusion_lat": 0.0, "name": "f6a0aa378d49d5c3415c202bc5143b08", "is_disabled": 0, "rental_uris": {"android": "https://dc.lft.to/lastmile_qr_scan", "ios": "https://dc.lft.to/lastmile_qr_scan"}, "fusion_lon": 0.0, "lat": 38.93968516666666, "bike_id": "f6a0aa378d49d5c3415c202bc5143b08", "type": "electric_scooter", "is_reserved": 0, "lon": -77.032555}, {"fusion_lat": 0.0, "name": "57486db0f59680ea87330e65ddb5add2", "is_disabled": 0, "rental_uris": {"android": "https://dc.lft.to/lastmile_qr_scan", "ios": "https://dc.lft.to/lastmile_qr_scan"}, "fusion_lon": 0.0, "lat": 38.91681716666667, "bike_id": "57486db0f59680ea87330e65ddb5add2", "type": "electric_scooter", "is_reserved": 0, "lon": -77.041354}, {"fusion_lat": 0.0, "name": "6a590f7db5df490e6a682fe28edf3d7c", "is_disabled": 0, "rental_uris": {"android": "https://dc.lft.to/lastmile_qr_scan", "ios": "https://dc.lft.to/lastmile_qr_scan"}, "fusion_lon": 0.0, "lat": 38.884219, "bike_id": "6a590f7db5df490e6a682fe28edf3d7c", "type": "electric_scooter", "is_reserved": 0, "lon": -76.98621683333333}, {"fusion_lat": 0.0, "name": "ad2aaf213f3a8606d1cdc1ce3dfa2bc7", "is_disabled": 0, "rental_uris": {"android": "https://dc.lft.to/lastmile_qr_scan", "ios": "https://dc.lft.to/lastmile_qr_scan"}, "fusion_lon": 0.0, "lat": 38.924394, "bike_id": "ad2aaf213f3a8606d1cdc1ce3dfa2bc7", "type": "electric_scooter", "is_reserved": 0, "lon": -77.034036}, {"fusion_lat": 0.0, "name": "16426bfb1838ebbec323c8c1b8410db7", "is_disabled": 0, "rental_uris": {"android": "https://dc.lft.to/lastmile_qr_scan", "ios": "https://dc.lft.to/lastmile_qr_scan"}, "fusion_lon": 0.0, "lat": 38.924381333333336, "bike_id": "16426bfb1838ebbec323c8c1b8410db7", "type": "electric_scooter", "is_reserved": 0, "lon": -77.05185616666667}, {"fusion_lat": 0.0, "name": "b7eb60235747a025f996893e68a32003", "is_disabled": 0, "rental_uris": {"android": "https://dc.lft.to/lastmile_qr_scan", "ios": "https://dc.lft.to/lastmile_qr_scan"}, "fusion_lon": 0.0, "lat": 38.90033666666667, "bike_id": "b7eb60235747a025f996893e68a32003", "type": "electric_scooter", "is_reserved": 0, "lon": -77.01194216666667}, {"fusion_lat": 0.0, "name": "a2bdc4c9f1c06a81d36f2d62e80fcf13", "is_disabled": 0, "rental_uris": {"android": "https://dc.lft.to/lastmile_qr_scan", "ios": "https://dc.lft.to/lastmile_qr_scan"}, "fusion_lon": 0.0, "lat": 38.90779116666667, "bike_id": "a2bdc4c9f1c06a81d36f2d62e80fcf13", "type": "electric_scooter", "is_reserved": 0, "lon": -77.0385715}, {"fusion_lat": 0.0, "name": "8f3cfccda135a0aee6331d7135bc737f", "is_disabled": 0, "rental_uris": {"android": "https://dc.lft.to/lastmile_qr_scan", "ios": "https://dc.lft.to/lastmile_qr_scan"}, "fusion_lon": 0.0, "lat": 38.93540266666667, "bike_id": "8f3cfccda135a0aee6331d7135bc737f", "type": "electric_scooter", "is_reserved": 0, "lon": -77.03265366666666}, {"fusion_lat": 0.0, "name": "11ae45cf8233e3e8996ed25213375d5e", "is_disabled": 0, "rental_uris": {"android": "https://dc.lft.to/lastmile_qr_scan", "ios": "https://dc.lft.to/lastmile_qr_scan"}, "fusion_lon": 0.0, "lat": 38.907954, "bike_id": "11ae45cf8233e3e8996ed25213375d5e", "type": "electric_scooter", "is_reserved": 0, "lon": -77.0343585}, {"fusion_lat": 0.0, "name": "1d98bd15e4f9b8ce5c54f18d4228a811", "is_disabled": 0, "rental_uris": {"android": "https://dc.lft.to/lastmile_qr_scan", "ios": "https://dc.lft.to/lastmile_qr_scan"}, "fusion_lon": 0.0, "lat": 38.9057925, "bike_id": "1d98bd15e4f9b8ce5c54f18d4228a811", "type": "electric_scooter", "is_reserved": 0, "lon": -77.022098}, {"fusion_lat": 0.0, "name": "a70213e745d33c5d615133475f9f27b0", "is_disabled": 0, "rental_uris": {"android": "https://dc.lft.to/lastmile_qr_scan", "ios": "https://dc.lft.to/lastmile_qr_scan"}, "fusion_lon": 0.0, "lat": 38.913214333333336, "bike_id": "a70213e745d33c5d615133475f9f27b0", "type": "electric_scooter", "is_reserved": 0, "lon": -77.02156933333333}, {"fusion_lat": 0.0, "name": "332f238277b758a2d1a6a4555497df0c", "is_disabled": 0, "rental_uris": {"android": "https://dc.lft.to/lastmile_qr_scan", "ios": "https://dc.lft.to/lastmile_qr_scan"}, "fusion_lon": 0.0, "lat": 39.0038205, "bike_id": "332f238277b758a2d1a6a4555497df0c", "type": "electric_bike", "is_reserved": 0, "lon": -77.0128545}, {"fusion_lat": 0.0, "name": "b1f406b57cfbe746d12fff7bc21909ad", "is_disabled": 0, "rental_uris": {"android": "https://dc.lft.to/lastmile_qr_scan", "ios": "https://dc.lft.to/lastmile_qr_scan"}, "fusion_lon": 0.0, "lat": 38.88472133333333, "bike_id": "b1f406b57cfbe746d12fff7bc21909ad", "type": "electric_scooter", "is_reserved": 0, "lon": -77.01528433333333}, {"fusion_lat": 0.0, "name": "2075a60140f155dda763cf9587eded55", "is_disabled": 0, "rental_uris": {"android": "https://dc.lft.to/lastmile_qr_scan", "ios": "https://dc.lft.to/lastmile_qr_scan"}, "fusion_lon": 0.0, "lat": 38.9297115, "bike_id": "2075a60140f155dda763cf9587eded55", "type": "electric_scooter", "is_reserved": 0, "lon": -77.02791816666667}, {"fusion_lat": 0.0, "name": "a76333254c0a9799350f3e28941a45ea", "is_disabled": 0, "rental_uris": {"android": "https://dc.lft.to/lastmile_qr_scan", "ios": "https://dc.lft.to/lastmile_qr_scan"}, "fusion_lon": 0.0, "lat": 38.931846666666665, "bike_id": "a76333254c0a9799350f3e28941a45ea", "type": "electric_scooter", "is_reserved": 0, "lon": -77.0731705}, {"fusion_lat": 0.0, "name": "771303dcfd2fa42dba63433b440eddb2", "is_disabled": 0, "rental_uris": {"android": "https://dc.lft.to/lastmile_qr_scan", "ios": "https://dc.lft.to/lastmile_qr_scan"}, "fusion_lon": 0.0, "lat": 38.9237305, "bike_id": "771303dcfd2fa42dba63433b440eddb2", "type": "electric_scooter", "is_reserved": 0, "lon": -77.02139083333333}, {"fusion_lat": 0.0, "name": "d8727ba244dbfcfaab0262b95ca809aa", "is_disabled": 0, "rental_uris": {"android": "https://dc.lft.to/lastmile_qr_scan", "ios": "https://dc.lft.to/lastmile_qr_scan"}, "fusion_lon": 0.0, "lat": 38.88492766666667, "bike_id": "d8727ba244dbfcfaab0262b95ca809aa", "type": "electric_scooter", "is_reserved": 0, "lon": -77.0108595}, {"fusion_lat": 0.0, "name": "f9673b101b51c7132a45b5e4df3ac8d7", "is_disabled": 0, "rental_uris": {"android": "https://dc.lft.to/lastmile_qr_scan", "ios": "https://dc.lft.to/lastmile_qr_scan"}, "fusion_lon": 0.0, "lat": 38.88326416666666, "bike_id": "f9673b101b51c7132a45b5e4df3ac8d7", "type": "electric_scooter", "is_reserved": 0, "lon": -77.016816}, {"fusion_lat": 0.0, "name": "c1e942292b3bbedcb73da02f6c93ea8c", "is_disabled": 0, "rental_uris": {"android": "https://dc.lft.to/lastmile_qr_scan", "ios": "https://dc.lft.to/lastmile_qr_scan"}, "fusion_lon": 0.0, "lat": 38.900263833333334, "bike_id": "c1e942292b3bbedcb73da02f6c93ea8c", "type": "electric_scooter", "is_reserved": 0, "lon": -77.03195233333334}, {"fusion_lat": 0.0, "name": "1559e6daa58c2bf9805b4ea77f24c4b8", "is_disabled": 0, "rental_uris": {"android": "https://dc.lft.to/lastmile_qr_scan", "ios": "https://dc.lft.to/lastmile_qr_scan"}, "fusion_lon": 0.0, "lat": 38.90952333333333, "bike_id": "1559e6daa58c2bf9805b4ea77f24c4b8", "type": "electric_bike", "is_reserved": 0, "lon": -76.984416}, {"fusion_lat": 0.0, "name": "cf475e85d9b6709232350ee59630ddc2", "is_disabled": 0, "rental_uris": {"android": "https://dc.lft.to/lastmile_qr_scan", "ios": "https://dc.lft.to/lastmile_qr_scan"}, "fusion_lon": 0.0, "lat": 38.917641833333334, "bike_id": "cf475e85d9b6709232350ee59630ddc2", "type": "electric_scooter", "is_reserved": 0, "lon": -77.014578}, {"fusion_lat": 0.0, "name": "27be88d277eeec1bb167bbd31b7ea0ff", "is_disabled": 0, "rental_uris": {"android": "https://dc.lft.to/lastmile_qr_scan", "ios": "https://dc.lft.to/lastmile_qr_scan"}, "fusion_lon": 0.0, "lat": 38.866270166666666, "bike_id": "27be88d277eeec1bb167bbd31b7ea0ff", "type": "electric_scooter", "is_reserved": 0, "lon": -76.98713}, {"fusion_lat": 0.0, "name": "432fd8626949be7e911e3db43eb6257a", "is_disabled": 0, "rental_uris": {"android": "https://dc.lft.to/lastmile_qr_scan", "ios": "https://dc.lft.to/lastmile_qr_scan"}, "fusion_lon": 0.0, "lat": 38.897474333333335, "bike_id": "432fd8626949be7e911e3db43eb6257a", "type": "electric_scooter", "is_reserved": 0, "lon": -77.02341766666666}, {"fusion_lat": 0.0, "name": "606b527ef203721cc9bf06af994695bb", "is_disabled": 0, "rental_uris": {"android": "https://dc.lft.to/lastmile_qr_scan", "ios": "https://dc.lft.to/lastmile_qr_scan"}, "fusion_lon": 0.0, "lat": 38.92248083333333, "bike_id": "606b527ef203721cc9bf06af994695bb", "type": "electric_scooter", "is_reserved": 0, "lon": -77.02989566666666}, {"fusion_lat": 0.0, "name": "ef71647f4b8120f70616ad4c7b0c0106", "is_disabled": 0, "rental_uris": {"android": "https://dc.lft.to/lastmile_qr_scan", "ios": "https://dc.lft.to/lastmile_qr_scan"}, "fusion_lon": 0.0, "lat": 38.902704666666665, "bike_id": "ef71647f4b8120f70616ad4c7b0c0106", "type": "electric_scooter", "is_reserved": 0, "lon": -77.05316033333334}, {"fusion_lat": 0.0, "name": "7ba31523f4209428528222d99085ef33", "is_disabled": 0, "rental_uris": {"android": "https://dc.lft.to/lastmile_qr_scan", "ios": "https://dc.lft.to/lastmile_qr_scan"}, "fusion_lon": 0.0, "lat": 38.92692783333333, "bike_id": "7ba31523f4209428528222d99085ef33", "type": "electric_scooter", "is_reserved": 0, "lon": -77.02184566666666}, {"fusion_lat": 0.0, "name": "167730b86af063decd8b26b07a1759ac", "is_disabled": 0, "rental_uris": {"android": "https://dc.lft.to/lastmile_qr_scan", "ios": "https://dc.lft.to/lastmile_qr_scan"}, "fusion_lon": 0.0, "lat": 38.920510666666665, "bike_id": "167730b86af063decd8b26b07a1759ac", "type": "electric_scooter", "is_reserved": 0, "lon": -77.02198716666666}, {"fusion_lat": 0.0, "name": "4a7dcd7c3b0a4cdf6ff91ed726940d8b", "is_disabled": 0, "rental_uris": {"android": "https://dc.lft.to/lastmile_qr_scan", "ios": "https://dc.lft.to/lastmile_qr_scan"}, "fusion_lon": 0.0, "lat": 38.91985066666667, "bike_id": "4a7dcd7c3b0a4cdf6ff91ed726940d8b", "type": "electric_scooter", "is_reserved": 0, "lon": -77.023808}, {"fusion_lat": 0.0, "name": "ba246e63eaa0c393ab4917da039fe0b4", "is_disabled": 0, "rental_uris": {"android": "https://dc.lft.to/lastmile_qr_scan", "ios": "https://dc.lft.to/lastmile_qr_scan"}, "fusion_lon": 0.0, "lat": 38.925968833333336, "bike_id": "ba246e63eaa0c393ab4917da039fe0b4", "type": "electric_scooter", "is_reserved": 0, "lon": -77.04396233333334}, {"fusion_lat": 0.0, "name": "23ec5957fc637eb43d9df540217ede23", "is_disabled": 0, "rental_uris": {"android": "https://dc.lft.to/lastmile_qr_scan", "ios": "https://dc.lft.to/lastmile_qr_scan"}, "fusion_lon": 0.0, "lat": 38.90454733333333, "bike_id": "23ec5957fc637eb43d9df540217ede23", "type": "electric_scooter", "is_reserved": 0, "lon": -77.02716683333334}, {"fusion_lat": 0.0, "name": "3a0cc2fa238d739535fe25646d61fef8", "is_disabled": 0, "rental_uris": {"android": "https://dc.lft.to/lastmile_qr_scan", "ios": "https://dc.lft.to/lastmile_qr_scan"}, "fusion_lon": 0.0, "lat": 38.90633666666667, "bike_id": "3a0cc2fa238d739535fe25646d61fef8", "type": "electric_scooter", "is_reserved": 0, "lon": -77.04869483333333}, {"fusion_lat": 0.0, "name": "42d71a257d46d7499fa62637e81a2065", "is_disabled": 0, "rental_uris": {"android": "https://dc.lft.to/lastmile_qr_scan", "ios": "https://dc.lft.to/lastmile_qr_scan"}, "fusion_lon": 0.0, "lat": 38.885402666666664, "bike_id": "42d71a257d46d7499fa62637e81a2065", "type": "electric_scooter", "is_reserved": 0, "lon": -77.00050366666666}, {"fusion_lat": 0.0, "name": "2b91f29787e48a17288a0470583169e8", "is_disabled": 0, "rental_uris": {"android": "https://dc.lft.to/lastmile_qr_scan", "ios": "https://dc.lft.to/lastmile_qr_scan"}, "fusion_lon": 0.0, "lat": 38.936997, "bike_id": "2b91f29787e48a17288a0470583169e8", "type": "electric_scooter", "is_reserved": 0, "lon": -77.05598066666667}, {"fusion_lat": 0.0, "name": "6f89f76efb5da94d46631f6240680ae9", "is_disabled": 0, "rental_uris": {"android": "https://dc.lft.to/lastmile_qr_scan", "ios": "https://dc.lft.to/lastmile_qr_scan"}, "fusion_lon": 0.0, "lat": 38.911107, "bike_id": "6f89f76efb5da94d46631f6240680ae9", "type": "electric_scooter", "is_reserved": 0, "lon": -77.081336}, {"fusion_lat": 0.0, "name": "f903ca5d72f3af1d4ffab886e7c15cb0", "is_disabled": 0, "rental_uris": {"android": "https://dc.lft.to/lastmile_qr_scan", "ios": "https://dc.lft.to/lastmile_qr_scan"}, "fusion_lon": 0.0, "lat": 38.931688666666666, "bike_id": "f903ca5d72f3af1d4ffab886e7c15cb0", "type": "electric_scooter", "is_reserved": 0, "lon": -77.02848733333333}, {"fusion_lat": 0.0, "name": "bbdfac1a7e5ffb20079df9f5a18f8e4f", "is_disabled": 0, "rental_uris": {"android": "https://dc.lft.to/lastmile_qr_scan", "ios": "https://dc.lft.to/lastmile_qr_scan"}, "fusion_lon": 0.0, "lat": 38.827935333333336, "bike_id": "bbdfac1a7e5ffb20079df9f5a18f8e4f", "type": "electric_bike", "is_reserved": 0, "lon": -77.12485533333333}, {"fusion_lat": 0.0, "name": "d62ecfd8ea83fcf4f66fe9eb06c57d0a", "is_disabled": 0, "rental_uris": {"android": "https://dc.lft.to/lastmile_qr_scan", "ios": "https://dc.lft.to/lastmile_qr_scan"}, "fusion_lon": 0.0, "lat": 38.88736316666667, "bike_id": "d62ecfd8ea83fcf4f66fe9eb06c57d0a", "type": "electric_scooter", "is_reserved": 0, "lon": -77.00337266666666}, {"fusion_lat": 0.0, "name": "81406a77e1dae7fb4a8135054049a44c", "is_disabled": 0, "rental_uris": {"android": "https://dc.lft.to/lastmile_qr_scan", "ios": "https://dc.lft.to/lastmile_qr_scan"}, "fusion_lon": 0.0, "lat": 38.89721633333333, "bike_id": "81406a77e1dae7fb4a8135054049a44c", "type": "electric_scooter", "is_reserved": 0, "lon": -77.02334083333334}, {"fusion_lat": 0.0, "name": "603c3221dda306ea5d7d7dba101c127f", "is_disabled": 0, "rental_uris": {"android": "https://dc.lft.to/lastmile_qr_scan", "ios": "https://dc.lft.to/lastmile_qr_scan"}, "fusion_lon": 0.0, "lat": 38.917629833333336, "bike_id": "603c3221dda306ea5d7d7dba101c127f", "type": "electric_scooter", "is_reserved": 0, "lon": -77.030717}, {"fusion_lat": 0.0, "name": "0c7d2e8e05b7d7648f3cd06c0c88a25c", "is_disabled": 0, "rental_uris": {"android": "https://dc.lft.to/lastmile_qr_scan", "ios": "https://dc.lft.to/lastmile_qr_scan"}, "fusion_lon": 0.0, "lat": 38.909774666666664, "bike_id": "0c7d2e8e05b7d7648f3cd06c0c88a25c", "type": "electric_scooter", "is_reserved": 0, "lon": -77.020905}, {"fusion_lat": 0.0, "name": "6c56119d77a43175082a96dc725d2efa", "is_disabled": 0, "rental_uris": {"android": "https://dc.lft.to/lastmile_qr_scan", "ios": "https://dc.lft.to/lastmile_qr_scan"}, "fusion_lon": 0.0, "lat": 38.83862933333333, "bike_id": "6c56119d77a43175082a96dc725d2efa", "type": "electric_scooter", "is_reserved": 0, "lon": -76.99698583333333}, {"fusion_lat": 0.0, "name": "871f87f62989d0e15df430d475fccbf6", "is_disabled": 0, "rental_uris": {"android": "https://dc.lft.to/lastmile_qr_scan", "ios": "https://dc.lft.to/lastmile_qr_scan"}, "fusion_lon": 0.0, "lat": 38.877985833333334, "bike_id": "871f87f62989d0e15df430d475fccbf6", "type": "electric_scooter", "is_reserved": 0, "lon": -76.9901995}, {"fusion_lat": 0.0, "name": "e37795fec1c535b7a4932c6ad8dcbf7b", "is_disabled": 0, "rental_uris": {"android": "https://dc.lft.to/lastmile_qr_scan", "ios": "https://dc.lft.to/lastmile_qr_scan"}, "fusion_lon": 0.0, "lat": 39.0418155, "bike_id": "e37795fec1c535b7a4932c6ad8dcbf7b", "type": "electric_bike", "is_reserved": 0, "lon": -77.05239683333333}, {"fusion_lat": 0.0, "name": "476ee02b7bb6edb2a85a91cfe38d8243", "is_disabled": 0, "rental_uris": {"android": "https://dc.lft.to/lastmile_qr_scan", "ios": "https://dc.lft.to/lastmile_qr_scan"}, "fusion_lon": 0.0, "lat": 38.9094065, "bike_id": "476ee02b7bb6edb2a85a91cfe38d8243", "type": "electric_scooter", "is_reserved": 0, "lon": -77.0448625}, {"fusion_lat": 0.0, "name": "46e608b8fa11b8eb5a0d8556bc52b383", "is_disabled": 0, "rental_uris": {"android": "https://dc.lft.to/lastmile_qr_scan", "ios": "https://dc.lft.to/lastmile_qr_scan"}, "fusion_lon": 0.0, "lat": 38.90394783333333, "bike_id": "46e608b8fa11b8eb5a0d8556bc52b383", "type": "electric_scooter", "is_reserved": 0, "lon": -76.989419}, {"fusion_lat": 0.0, "name": "1f1b32a76cf2166963cb514a4b539dfb", "is_disabled": 0, "rental_uris": {"android": "https://dc.lft.to/lastmile_qr_scan", "ios": "https://dc.lft.to/lastmile_qr_scan"}, "fusion_lon": 0.0, "lat": 38.9082455, "bike_id": "1f1b32a76cf2166963cb514a4b539dfb", "type": "electric_scooter", "is_reserved": 0, "lon": -77.04364283333334}, {"fusion_lat": 0.0, "name": "b774f8eecbe56c4f4e4250bf047c741b", "is_disabled": 0, "rental_uris": {"android": "https://dc.lft.to/lastmile_qr_scan", "ios": "https://dc.lft.to/lastmile_qr_scan"}, "fusion_lon": 0.0, "lat": 38.9170815, "bike_id": "b774f8eecbe56c4f4e4250bf047c741b", "type": "electric_scooter", "is_reserved": 0, "lon": -77.040416}, {"fusion_lat": 0.0, "name": "7b99bb70751521a6106bceb5f60d091f", "is_disabled": 0, "rental_uris": {"android": "https://dc.lft.to/lastmile_qr_scan", "ios": "https://dc.lft.to/lastmile_qr_scan"}, "fusion_lon": 0.0, "lat": 38.93249816666667, "bike_id": "7b99bb70751521a6106bceb5f60d091f", "type": "electric_scooter", "is_reserved": 0, "lon": -77.029441}, {"fusion_lat": 0.0, "name": "1410fe89b61b5bc6502272668e8e8a3c", "is_disabled": 0, "rental_uris": {"android": "https://dc.lft.to/lastmile_qr_scan", "ios": "https://dc.lft.to/lastmile_qr_scan"}, "fusion_lon": 0.0, "lat": 38.91689, "bike_id": "1410fe89b61b5bc6502272668e8e8a3c", "type": "electric_scooter", "is_reserved": 0, "lon": -77.03199116666667}, {"fusion_lat": 0.0, "name": "3f5899f7700fe03cd44404931c8fed42", "is_disabled": 0, "rental_uris": {"android": "https://dc.lft.to/lastmile_qr_scan", "ios": "https://dc.lft.to/lastmile_qr_scan"}, "fusion_lon": 0.0, "lat": 38.913192, "bike_id": "3f5899f7700fe03cd44404931c8fed42", "type": "electric_scooter", "is_reserved": 0, "lon": -77.04470266666667}, {"fusion_lat": 0.0, "name": "f8d0a0aaccc194b504f5be41ea7868bd", "is_disabled": 0, "rental_uris": {"android": "https://dc.lft.to/lastmile_qr_scan", "ios": "https://dc.lft.to/lastmile_qr_scan"}, "fusion_lon": 0.0, "lat": 38.92119133333333, "bike_id": "f8d0a0aaccc194b504f5be41ea7868bd", "type": "electric_scooter", "is_reserved": 0, "lon": -77.03183466666667}, {"fusion_lat": 0.0, "name": "62ae6c8eb29e6538d2bd257616389233", "is_disabled": 0, "rental_uris": {"android": "https://dc.lft.to/lastmile_qr_scan", "ios": "https://dc.lft.to/lastmile_qr_scan"}, "fusion_lon": 0.0, "lat": 38.936565333333334, "bike_id": "62ae6c8eb29e6538d2bd257616389233", "type": "electric_scooter", "is_reserved": 0, "lon": -77.03684633333333}, {"fusion_lat": 0.0, "name": "2ff81cd713e490506d7df81b44e74cd6", "is_disabled": 0, "rental_uris": {"android": "https://dc.lft.to/lastmile_qr_scan", "ios": "https://dc.lft.to/lastmile_qr_scan"}, "fusion_lon": 0.0, "lat": 38.82861, "bike_id": "2ff81cd713e490506d7df81b44e74cd6", "type": "electric_bike", "is_reserved": 0, "lon": -77.08811666666666}, {"fusion_lat": 0.0, "name": "d7285ecc2b3f0a3e5dcea9673b0fb13b", "is_disabled": 0, "rental_uris": {"android": "https://dc.lft.to/lastmile_qr_scan", "ios": "https://dc.lft.to/lastmile_qr_scan"}, "fusion_lon": 0.0, "lat": 38.9097165, "bike_id": "d7285ecc2b3f0a3e5dcea9673b0fb13b", "type": "electric_scooter", "is_reserved": 0, "lon": -77.00880683333334}, {"fusion_lat": 0.0, "name": "5a4e064aac5e75038bfceb8f53fdefc8", "is_disabled": 0, "rental_uris": {"android": "https://dc.lft.to/lastmile_qr_scan", "ios": "https://dc.lft.to/lastmile_qr_scan"}, "fusion_lon": 0.0, "lat": 38.86243783333333, "bike_id": "5a4e064aac5e75038bfceb8f53fdefc8", "type": "electric_scooter", "is_reserved": 0, "lon": -76.99498416666667}, {"fusion_lat": 0.0, "name": "5517486afbb3641e40c8f4a0b78d0a47", "is_disabled": 0, "rental_uris": {"android": "https://dc.lft.to/lastmile_qr_scan", "ios": "https://dc.lft.to/lastmile_qr_scan"}, "fusion_lon": 0.0, "lat": 38.905710166666665, "bike_id": "5517486afbb3641e40c8f4a0b78d0a47", "type": "electric_scooter", "is_reserved": 0, "lon": -77.00890266666667}, {"fusion_lat": 0.0, "name": "5566afa5755978509fd11b11e0e786f3", "is_disabled": 0, "rental_uris": {"android": "https://dc.lft.to/lastmile_qr_scan", "ios": "https://dc.lft.to/lastmile_qr_scan"}, "fusion_lon": 0.0, "lat": 38.91834683333333, "bike_id": "5566afa5755978509fd11b11e0e786f3", "type": "electric_scooter", "is_reserved": 0, "lon": -77.03524533333334}, {"fusion_lat": 0.0, "name": "b44a224277b19817ebda7a353730962b", "is_disabled": 0, "rental_uris": {"android": "https://dc.lft.to/lastmile_qr_scan", "ios": "https://dc.lft.to/lastmile_qr_scan"}, "fusion_lon": 0.0, "lat": 38.90510333333334, "bike_id": "b44a224277b19817ebda7a353730962b", "type": "electric_scooter", "is_reserved": 0, "lon": -77.06389266666666}, {"fusion_lat": 0.0, "name": "cf0b1f9dacd9317473f4350d515e0987", "is_disabled": 0, "rental_uris": {"android": "https://dc.lft.to/lastmile_qr_scan", "ios": "https://dc.lft.to/lastmile_qr_scan"},