{"data": {"bikes": [{"rental_uris": {"ios": "https://dc.lft.to/lastmile_qr_scan", "android": "https://dc.lft.to/lastmile_qr_scan"}, "lon": -77.07383233333333, "type": "electric_bike", "fusion_lat": 0.0, "lat": 38.961678166666665, "name": "21055bb05d64cfdeb867ac8192da5e1d", "fusion_lon": 0.0, "bike_id": "21055bb05d64cfdeb867ac8192da5e1d", "is_disabled": 0, "is_reserved": 0}, {"rental_uris": {"ios": "https://dc.lft.to/lastmile_qr_scan", "android": "https://dc.lft.to/lastmile_qr_scan"}, "lon": -77.03073716666667, "type": "electric_scooter", "fusion_lat": 0.0, "lat": 38.894585166666666, "name": "7d8311a60dae39c0a954fc494b5346a8", "fusion_lon": 0.0, "bike_id": "7d8311a60dae39c0a954fc494b5346a8", "is_disabled": 0, "is_reserved": 0}, {"rental_uris": {"ios": "https://dc.lft.to/lastmile_qr_scan", "android": "https://dc.lft.to/lastmile_qr_scan"}, "lon": -77.02839183333333, "type": "electric_scooter", "fusion_lat": 0.0, "lat": 38.9286085, "name": "0de924a5bce96984dafef225ea1b7360", "fusion_lon": 0.0, "bike_id": "0de924a5bce96984dafef225ea1b7360", "is_disabled": 0, "is_reserved": 0}, {"rental_uris": {"ios": "https://dc.lft.to/lastmile_qr_scan", "android": "https://dc.lft.to/lastmile_qr_scan"}, "lon": -77.1051265, "type": "electric_bike", "fusion_lat": 0.0, "lat": 38.92853866666667, "name": "aa0320d05bf40180e005526beb7b32c6", "fusion_lon": 0.0, "bike_id": "aa0320d05bf40180e005526beb7b32c6", "is_disabled": 0, "is_reserved": 0}, {"rental_uris": {"ios": "https://dc.lft.to/lastmile_qr_scan", "android": "https://dc.lft.to/lastmile_qr_scan"}, "lon": -77.0363835, "type": "electric_scooter", "fusion_lat": 0.0, "lat": 38.90681566666667, "name": "3cfa7a87a70481a2b4d06b3f09ecd431", "fusion_lon": 0.0, "bike_id": "3cfa7a87a70481a2b4d06b3f09ecd431", "is_disabled": 0, "is_reserved": 0}, {"rental_uris": {"ios": "https://dc.lft.to/lastmile_qr_scan", "android": "https://dc.lft.to/lastmile_qr_scan"}, "lon": -77.00612916666667, "type": "electric_scooter", "fusion_lat": 0.0, "lat": 38.905503, "name": "56ff77b3638828a9105179737c116f0e", "fusion_lon": 0.0, "bike_id": "56ff77b3638828a9105179737c116f0e", "is_disabled": 0, "is_reserved": 0}, {"rental_uris": {"ios": "https://dc.lft.to/lastmile_qr_scan", "android": "https://dc.lft.to/lastmile_qr_scan"}, "lon": -76.96972483333333, "type": "electric_scooter", "fusion_lat": 0.0, "lat": 38.8616275, "name": "ac7c52c31bc0f9808e6d9b15a4d835e6", "fusion_lon": 0.0, "bike_id": "ac7c52c31bc0f9808e6d9b15a4d835e6", "is_disabled": 0, "is_reserved": 0}, {"rental_uris": {"ios": "https://dc.lft.to/lastmile_qr_scan", "android": "https://dc.lft.to/lastmile_qr_scan"}, "lon": -76.99962866666667, "type": "electric_scooter", "fusion_lat": 0.0, "lat": 38.908698666666666, "name": "2604975d1609c223a28ccb594a2333c2", "fusion_lon": 0.0, "bike_id": "2604975d1609c223a28ccb594a2333c2", "is_disabled": 0, "is_reserved": 0}, {"rental_uris": {"ios": "https://dc.lft.to/lastmile_qr_scan", "android": "https://dc.lft.to/lastmile_qr_scan"}, "lon": -77.015379, "type": "electric_scooter", "fusion_lat": 0.0, "lat": 38.8874085, "name": "7809647aea7d1e254053fb166f593008", "fusion_lon": 0.0, "bike_id": "7809647aea7d1e254053fb166f593008", "is_disabled": 0, "is_reserved": 0}, {"rental_uris": {"ios": "https://dc.lft.to/lastmile_qr_scan", "android": "https://dc.lft.to/lastmile_qr_scan"}, "lon": -77.02740966666667, "type": "electric_scooter", "fusion_lat": 0.0, "lat": 38.927707, "name": "e4287ff6e5fdd7a87a07a9ef9ffd6ac8", "fusion_lon": 0.0, "bike_id": "e4287ff6e5fdd7a87a07a9ef9ffd6ac8", "is_disabled": 0, "is_reserved": 0}, {"rental_uris": {"ios": "https://dc.lft.to/lastmile_qr_scan", "android": "https://dc.lft.to/lastmile_qr_scan"}, "lon": -77.05356783333333, "type": "electric_scooter", "fusion_lat": 0.0, "lat": 38.92699566666667, "name": "3a55d20bee0630a5111426622ad9180a", "fusion_lon": 0.0, "bike_id": "3a55d20bee0630a5111426622ad9180a", "is_disabled": 0, "is_reserved": 0}, {"rental_uris": {"ios": "https://dc.lft.to/lastmile_qr_scan", "android": "https://dc.lft.to/lastmile_qr_scan"}, "lon": -77.03077733333333, "type": "electric_scooter", "fusion_lat": 0.0, "lat": 38.92382666666666, "name": "b4ad74fd6479be635c1df52292055ec1", "fusion_lon": 0.0, "bike_id": "b4ad74fd6479be635c1df52292055ec1", "is_disabled": 0, "is_reserved": 0}, {"rental_uris": {"ios": "https://dc.lft.to/lastmile_qr_scan", "android": "https://dc.lft.to/lastmile_qr_scan"}, "lon": -77.04128633333333, "type": "electric_scooter", "fusion_lat": 0.0, "lat": 38.92437283333334, "name": "64a44d0e6236f872c3c1b1f1096d6900", "fusion_lon": 0.0, "bike_id": "64a44d0e6236f872c3c1b1f1096d6900", "is_disabled": 0, "is_reserved": 0}, {"rental_uris": {"ios": "https://dc.lft.to/lastmile_qr_scan", "android": "https://dc.lft.to/lastmile_qr_scan"}, "lon": -77.029471, "type": "electric_scooter", "fusion_lat": 0.0, "lat": 38.93249183333333, "name": "798e9a77bc219de1b1575c655cc80930", "fusion_lon": 0.0, "bike_id": "798e9a77bc219de1b1575c655cc80930", "is_disabled": 0, "is_reserved": 0}, {"rental_uris": {"ios": "https://dc.lft.to/lastmile_qr_scan", "android": "https://dc.lft.to/lastmile_qr_scan"}, "lon": -76.98591766666667, "type": "electric_scooter", "fusion_lat": 0.0, "lat": 38.8992345, "name": "f26f0bb062c6bd267246eda40b85f9b6", "fusion_lon": 0.0, "bike_id": "f26f0bb062c6bd267246eda40b85f9b6", "is_disabled": 0, "is_reserved": 0}, {"rental_uris": {"ios": "https://dc.lft.to/lastmile_qr_scan", "android": "https://dc.lft.to/lastmile_qr_scan"}, "lon": -76.9981775, "type": "electric_bike", "fusion_lat": 0.0, "lat": 38.84436383333333, "name": "4c9ca050bde4b8c2e26b18053ab69511", "fusion_lon": 0.0, "bike_id": "4c9ca050bde4b8c2e26b18053ab69511", "is_disabled": 0, "is_reserved": 0}, {"rental_uris": {"ios": "https://dc.lft.to/lastmile_qr_scan", "android": "https://dc.lft.to/lastmile_qr_scan"}, "lon": -77.0297375, "type": "electric_scooter", "fusion_lat": 0.0, "lat": 38.907269, "name": "67e4270421ff183a86e40efef439ab8f", "fusion_lon": 0.0, "bike_id": "67e4270421ff183a86e40efef439ab8f", "is_disabled": 0, "is_reserved": 0}, {"rental_uris": {"ios": "https://dc.lft.to/lastmile_qr_scan", "android": "https://dc.lft.to/lastmile_qr_scan"}, "lon": -77.0233475, "type": "electric_scooter", "fusion_lat": 0.0, "lat": 38.93050383333333, "name": "11796c6e6823403af4604ed29b5e7123", "fusion_lon": 0.0, "bike_id": "11796c6e6823403af4604ed29b5e7123", "is_disabled": 0, "is_reserved": 0}, {"rental_uris": {"ios": "https://dc.lft.to/lastmile_qr_scan", "android": "https://dc.lft.to/lastmile_qr_scan"}, "lon": -77.00068466666667, "type": "electric_scooter", "fusion_lat": 0.0, "lat": 38.9255145, "name": "9e64fa644303473ff80388677c733b1c", "fusion_lon": 0.0, "bike_id": "9e64fa644303473ff80388677c733b1c", "is_disabled": 0, "is_reserved": 0}, {"rental_uris": {"ios": "https://dc.lft.to/lastmile_qr_scan", "android": "https://dc.lft.to/lastmile_qr_scan"}, "lon": -77.04009366666666, "type": "electric_scooter", "fusion_lat": 0.0, "lat": 38.93252916666667, "name": "cb4792b7bc7fa04661c682de0fdd8f39", "fusion_lon": 0.0, "bike_id": "cb4792b7bc7fa04661c682de0fdd8f39", "is_disabled": 0, "is_reserved": 0}, {"rental_uris": {"ios": "https://dc.lft.to/lastmile_qr_scan", "android": "https://dc.lft.to/lastmile_qr_scan"}, "lon": -77.0372225, "type": "electric_scooter", "fusion_lat": 0.0, "lat": 38.91046516666667, "name": "dc3e5887c6e65fa8572450b159e935b6", "fusion_lon": 0.0, "bike_id": "dc3e5887c6e65fa8572450b159e935b6", "is_disabled": 0, "is_reserved": 0}, {"rental_uris": {"ios": "https://dc.lft.to/lastmile_qr_scan", "android": "https://dc.lft.to/lastmile_qr_scan"}, "lon": -77.00557366666666, "type": "electric_scooter", "fusion_lat": 0.0, "lat": 38.90547466666666, "name": "20457dd673b777a499a005abf54009e9", "fusion_lon": 0.0, "bike_id": "20457dd673b777a499a005abf54009e9", "is_disabled": 0, "is_reserved": 0}, {"rental_uris": {"ios": "https://dc.lft.to/lastmile_qr_scan", "android": "https://dc.lft.to/lastmile_qr_scan"}, "lon": -77.04813533333333, "type": "electric_scooter", "fusion_lat": 0.0, "lat": 38.9203595, "name": "c605b444421fa6595a8b0a82b98e003f", "fusion_lon": 0.0, "bike_id": "c605b444421fa6595a8b0a82b98e003f", "is_disabled": 0, "is_reserved": 0}, {"rental_uris": {"ios": "https://dc.lft.to/lastmile_qr_scan", "android": "https://dc.lft.to/lastmile_qr_scan"}, "lon": -76.99682216666666, "type": "electric_scooter", "fusion_lat": 0.0, "lat": 38.900366, "name": "7d89b9749033df11a47bb2eb1216192f", "fusion_lon": 0.0, "bike_id": "7d89b9749033df11a47bb2eb1216192f", "is_disabled": 0, "is_reserved": 0}, {"rental_uris": {"ios": "https://dc.lft.to/lastmile_qr_scan", "android": "https://dc.lft.to/lastmile_qr_scan"}, "lon": -77.032668, "type": "electric_scooter", "fusion_lat": 0.0, "lat": 38.92555933333333, "name": "2aaf59e6ff25be515e708fe9154ea956", "fusion_lon": 0.0, "bike_id": "2aaf59e6ff25be515e708fe9154ea956", "is_disabled": 0, "is_reserved": 0}, {"rental_uris": {"ios": "https://dc.lft.to/lastmile_qr_scan", "android": "https://dc.lft.to/lastmile_qr_scan"}, "lon": -77.04667316666666, "type": "electric_scooter", "fusion_lat": 0.0, "lat": 38.914797666666665, "name": "9f33daf1cf43313f0c087088848043a6", "fusion_lon": 0.0, "bike_id": "9f33daf1cf43313f0c087088848043a6", "is_disabled": 0, "is_reserved": 0}, {"rental_uris": {"ios": "https://dc.lft.to/lastmile_qr_scan", "android": "https://dc.lft.to/lastmile_qr_scan"}, "lon": -77.03471616666667, "type": "electric_scooter", "fusion_lat": 0.0, "lat": 38.91686, "name": "f8d923a3d660d33d6935b5956e5dbdff", "fusion_lon": 0.0, "bike_id": "f8d923a3d660d33d6935b5956e5dbdff", "is_disabled": 0, "is_reserved": 0}, {"rental_uris": {"ios": "https://dc.lft.to/lastmile_qr_scan", "android": "https://dc.lft.to/lastmile_qr_scan"}, "lon": -77.10684683333334, "type": "electric_bike", "fusion_lat": 0.0, "lat": 38.93581133333333, "name": "056f421184542ea0267e54c9b16aa03c", "fusion_lon": 0.0, "bike_id": "056f421184542ea0267e54c9b16aa03c", "is_disabled": 0, "is_reserved": 0}, {"rental_uris": {"ios": "https://dc.lft.to/lastmile_qr_scan", "android": "https://dc.lft.to/lastmile_qr_scan"}, "lon": -77.0919135, "type": "electric_scooter", "fusion_lat": 0.0, "lat": 38.913697666666664, "name": "79ed3e827e562a08e9511f199f5b25e2", "fusion_lon": 0.0, "bike_id": "79ed3e827e562a08e9511f199f5b25e2", "is_disabled": 0, "is_reserved": 0}, {"rental_uris": {"ios": "https://dc.lft.to/lastmile_qr_scan", "android": "https://dc.lft.to/lastmile_qr_scan"}, "lon": -76.948811, "type": "electric_scooter", "fusion_lat": 0.0, "lat": 38.89502933333333, "name": "13935356ea65f637d0a764d778bf02a7", "fusion_lon": 0.0, "bike_id": "13935356ea65f637d0a764d778bf02a7", "is_disabled": 0, "is_reserved": 0}, {"rental_uris": {"ios": "https://dc.lft.to/lastmile_qr_scan", "android": "https://dc.lft.to/lastmile_qr_scan"}, "lon": -77.03510383333334, "type": "electric_scooter", "fusion_lat": 0.0, "lat": 38.921479166666664, "name": "896d76c47949eee39bf5dfb04304907b", "fusion_lon": 0.0, "bike_id": "896d76c47949eee39bf5dfb04304907b", "is_disabled": 0, "is_reserved": 0}, {"rental_uris": {"ios": "https://dc.lft.to/lastmile_qr_scan", "android": "https://dc.lft.to/lastmile_qr_scan"}, "lon": -77.04273, "type": "electric_scooter", "fusion_lat": 0.0, "lat": 38.90271766666667, "name": "ca99903bc5d71410240914bb428465c0", "fusion_lon": 0.0, "bike_id": "ca99903bc5d71410240914bb428465c0", "is_disabled": 0, "is_reserved": 0}, {"rental_uris": {"ios": "https://dc.lft.to/lastmile_qr_scan", "android": "https://dc.lft.to/lastmile_qr_scan"}, "lon": -77.02936183333334, "type": "electric_scooter", "fusion_lat": 0.0, "lat": 38.905178166666666, "name": "55ffb172097172cfc3eafd0111fd77ef", "fusion_lon": 0.0, "bike_id": "55ffb172097172cfc3eafd0111fd77ef", "is_disabled": 0, "is_reserved": 0}, {"rental_uris": {"ios": "https://dc.lft.to/lastmile_qr_scan", "android": "https://dc.lft.to/lastmile_qr_scan"}, "lon": -77.00657416666667, "type": "electric_scooter", "fusion_lat": 0.0, "lat": 38.944629166666665, "name": "9c1546ac18fdcd5309a790a0a879c4a0", "fusion_lon": 0.0, "bike_id": "9c1546ac18fdcd5309a790a0a879c4a0", "is_disabled": 0, "is_reserved": 0}, {"rental_uris": {"ios": "https://dc.lft.to/lastmile_qr_scan", "android": "https://dc.lft.to/lastmile_qr_scan"}, "lon": -77.0385225, "type": "electric_scooter", "fusion_lat": 0.0, "lat": 38.907784166666666, "name": "91338a5aafeca32889fa5ddb96175b1e", "fusion_lon": 0.0, "bike_id": "91338a5aafeca32889fa5ddb96175b1e", "is_disabled": 0, "is_reserved": 0}, {"rental_uris": {"ios": "https://dc.lft.to/lastmile_qr_scan", "android": "https://dc.lft.to/lastmile_qr_scan"}, "lon": -77.03191983333333, "type": "electric_scooter", "fusion_lat": 0.0, "lat": 38.91914216666667, "name": "4bd0b0cd6d0468de2996b46ce635cd65", "fusion_lon": 0.0, "bike_id": "4bd0b0cd6d0468de2996b46ce635cd65", "is_disabled": 0, "is_reserved": 0}, {"rental_uris": {"ios": "https://dc.lft.to/lastmile_qr_scan", "android": "https://dc.lft.to/lastmile_qr_scan"}, "lon": -77.04334433333334, "type": "electric_scooter", "fusion_lat": 0.0, "lat": 38.895836333333335, "name": "f7a1c7ba89dbbccb6458f6690e9b7ea1", "fusion_lon": 0.0, "bike_id": "f7a1c7ba89dbbccb6458f6690e9b7ea1", "is_disabled": 0, "is_reserved": 0}, {"rental_uris": {"ios": "https://dc.lft.to/lastmile_qr_scan", "android": "https://dc.lft.to/lastmile_qr_scan"}, "lon": -77.03189583333334, "type": "electric_scooter", "fusion_lat": 0.0, "lat": 38.92277766666667, "name": "ea317fd6be3f5f59c12e4cc5af01bedb", "fusion_lon": 0.0, "bike_id": "ea317fd6be3f5f59c12e4cc5af01bedb", "is_disabled": 0, "is_reserved": 0}, {"rental_uris": {"ios": "https://dc.lft.to/lastmile_qr_scan", "android": "https://dc.lft.to/lastmile_qr_scan"}, "lon": -77.03709733333334, "type": "electric_scooter", "fusion_lat": 0.0, "lat": 38.92626116666667, "name": "799a8206117f0da935f8bb3e0f426319", "fusion_lon": 0.0, "bike_id": "799a8206117f0da935f8bb3e0f426319", "is_disabled": 0, "is_reserved": 0}, {"rental_uris": {"ios": "https://dc.lft.to/lastmile_qr_scan", "android": "https://dc.lft.to/lastmile_qr_scan"}, "lon": -77.0059025, "type": "electric_scooter", "fusion_lat": 0.0, "lat": 38.91560883333333, "name": "65d0ba17c33ce554008b242e405fa2af", "fusion_lon": 0.0, "bike_id": "65d0ba17c33ce554008b242e405fa2af", "is_disabled": 0, "is_reserved": 0}, {"rental_uris": {"ios": "https://dc.lft.to/lastmile_qr_scan", "android": "https://dc.lft.to/lastmile_qr_scan"}, "lon": -77.02406733333333, "type": "electric_scooter", "fusion_lat": 0.0, "lat": 38.931098, "name": "2de608b927c75647cad68849587ef589", "fusion_lon": 0.0, "bike_id": "2de608b927c75647cad68849587ef589", "is_disabled": 0, "is_reserved": 0}, {"rental_uris": {"ios": "https://dc.lft.to/lastmile_qr_scan", "android": "https://dc.lft.to/lastmile_qr_scan"}, "lon": -77.01543266666667, "type": "electric_scooter", "fusion_lat": 0.0, "lat": 38.891994333333336, "name": "524ec985356a39e9e93d8a95a6577dd6", "fusion_lon": 0.0, "bike_id": "524ec985356a39e9e93d8a95a6577dd6", "is_disabled": 0, "is_reserved": 0}, {"rental_uris": {"ios": "https://dc.lft.to/lastmile_qr_scan", "android": "https://dc.lft.to/lastmile_qr_scan"}, "lon": -77.125001, "type": "electric_bike", "fusion_lat": 0.0, "lat": 39.02421666666667, "name": "3a08e6c1415a8146543a5f8f2c1d6f16", "fusion_lon": 0.0, "bike_id": "3a08e6c1415a8146543a5f8f2c1d6f16", "is_disabled": 0, "is_reserved": 0}, {"rental_uris": {"ios": "https://dc.lft.to/lastmile_qr_scan", "android": "https://dc.lft.to/lastmile_qr_scan"}, "lon": -77.02465133333334, "type": "electric_scooter", "fusion_lat": 0.0, "lat": 38.9309465, "name": "04cb317a1d561b5e310c260b13e36700", "fusion_lon": 0.0, "bike_id": "04cb317a1d561b5e310c260b13e36700", "is_disabled": 0, "is_reserved": 0}, {"rental_uris": {"ios": "https://dc.lft.to/lastmile_qr_scan", "android": "https://dc.lft.to/lastmile_qr_scan"}, "lon": -77.0215145, "type": "electric_scooter", "fusion_lat": 0.0, "lat": 38.93301, "name": "fc8a9e2b9280e3d7a670d6051a1985da", "fusion_lon": 0.0, "bike_id": "fc8a9e2b9280e3d7a670d6051a1985da", "is_disabled": 0, "is_reserved": 0}, {"rental_uris": {"ios": "https://dc.lft.to/lastmile_qr_scan", "android": "https://dc.lft.to/lastmile_qr_scan"}, "lon": -77.045109, "type": "electric_scooter", "fusion_lat": 0.0, "lat": 38.91292, "name": "af9e230dac1e45ce6bb524437cde2b9b", "fusion_lon": 0.0, "bike_id": "af9e230dac1e45ce6bb524437cde2b9b", "is_disabled": 0, "is_reserved": 0}, {"rental_uris": {"ios": "https://dc.lft.to/lastmile_qr_scan", "android": "https://dc.lft.to/lastmile_qr_scan"}, "lon": -77.0021585, "type": "electric_scooter", "fusion_lat": 0.0, "lat": 38.911851, "name": "0236bed804f83302d82fac033eeac8de", "fusion_lon": 0.0, "bike_id": "0236bed804f83302d82fac033eeac8de", "is_disabled": 0, "is_reserved": 0}, {"rental_uris": {"ios": "https://dc.lft.to/lastmile_qr_scan", "android": "https://dc.lft.to/lastmile_qr_scan"}, "lon": -77.02459383333333, "type": "electric_scooter", "fusion_lat": 0.0, "lat": 38.9385535, "name": "b579316551ddb496780a0f55a3d996c6", "fusion_lon": 0.0, "bike_id": "b579316551ddb496780a0f55a3d996c6", "is_disabled": 0, "is_reserved": 0}, {"rental_uris": {"ios": "https://dc.lft.to/lastmile_qr_scan", "android": "https://dc.lft.to/lastmile_qr_scan"}, "lon": -76.9809145, "type": "electric_bike", "fusion_lat": 0.0, "lat": 38.9028915, "name": "cdbb439fd8cf649c4ba9d0d8eb8e658c", "fusion_lon": 0.0, "bike_id": "cdbb439fd8cf649c4ba9d0d8eb8e658c", "is_disabled": 0, "is_reserved": 0}, {"rental_uris": {"ios": "https://dc.lft.to/lastmile_qr_scan", "android": "https://dc.lft.to/lastmile_qr_scan"}, "lon": -77.07904233333333, "type": "electric_bike", "fusion_lat": 0.0, "lat": 38.83928916666667, "name": "ab302f955861b1265a7ae075ffb0097b", "fusion_lon": 0.0, "bike_id": "ab302f955861b1265a7ae075ffb0097b", "is_disabled": 0, "is_reserved": 0}, {"rental_uris": {"ios": "https://dc.lft.to/lastmile_qr_scan", "android": "https://dc.lft.to/lastmile_qr_scan"}, "lon": -77.003428, "type": "electric_scooter", "fusion_lat": 0.0, "lat": 38.913388833333336, "name": "d1a98a6b2accd3da696a0f1abeb1ce4b", "fusion_lon": 0.0, "bike_id": "d1a98a6b2accd3da696a0f1abeb1ce4b", "is_disabled": 0, "is_reserved": 0}, {"rental_uris": {"ios": "https://dc.lft.to/lastmile_qr_scan", "android": "https://dc.lft.to/lastmile_qr_scan"}, "lon": -76.93620866666667, "type": "electric_bike", "fusion_lat": 0.0, "lat": 38.97070216666667, "name": "16e4c4a9e55de1ef64adb11dc448585b", "fusion_lon": 0.0, "bike_id": "16e4c4a9e55de1ef64adb11dc448585b", "is_disabled": 0, "is_reserved": 0}, {"rental_uris": {"ios": "https://dc.lft.to/lastmile_qr_scan", "android": "https://dc.lft.to/lastmile_qr_scan"}, "lon": -77.02352483333334, "type": "electric_scooter", "fusion_lat": 0.0, "lat": 38.933911, "name": "9a125ba5a2debe301992b2e9edc0807f", "fusion_lon": 0.0, "bike_id": "9a125ba5a2debe301992b2e9edc0807f", "is_disabled": 0, "is_reserved": 0}, {"rental_uris": {"ios": "https://dc.lft.to/lastmile_qr_scan", "android": "https://dc.lft.to/lastmile_qr_scan"}, "lon": -77.0065305, "type": "electric_scooter", "fusion_lat": 0.0, "lat": 38.876381333333335, "name": "4431c3a41ccbdfd78075706a5d127b39", "fusion_lon": 0.0, "bike_id": "4431c3a41ccbdfd78075706a5d127b39", "is_disabled": 0, "is_reserved": 0}, {"rental_uris": {"ios": "https://dc.lft.to/lastmile_qr_scan", "android": "https://dc.lft.to/lastmile_qr_scan"}, "lon": -77.0343525, "type": "electric_scooter", "fusion_lat": 0.0, "lat": 38.90308483333333, "name": "5925f00de64233c457c1ddb8be6b7fc7", "fusion_lon": 0.0, "bike_id": "5925f00de64233c457c1ddb8be6b7fc7", "is_disabled": 0, "is_reserved": 0}, {"rental_uris": {"ios": "https://dc.lft.to/lastmile_qr_scan", "android": "https://dc.lft.to/lastmile_qr_scan"}, "lon": -77.03454066666667, "type": "electric_scooter", "fusion_lat": 0.0, "lat": 38.91879516666667, "name": "552ee5c1563172f8d5fa0cd2ed81677b", "fusion_lon": 0.0, "bike_id": "552ee5c1563172f8d5fa0cd2ed81677b", "is_disabled": 0, "is_reserved": 0}, {"rental_uris": {"ios": "https://dc.lft.to/lastmile_qr_scan", "android": "https://dc.lft.to/lastmile_qr_scan"}, "lon": -77.03133516666666, "type": "electric_scooter", "fusion_lat": 0.0, "lat": 38.9238265, "name": "fafd670c065eced2af121b82e3e28b46", "fusion_lon": 0.0, "bike_id": "fafd670c065eced2af121b82e3e28b46", "is_disabled": 0, "is_reserved": 0}, {"rental_uris": {"ios": "https://dc.lft.to/lastmile_qr_scan", "android": "https://dc.lft.to/lastmile_qr_scan"}, "lon": -77.02610366666667, "type": "electric_scooter", "fusion_lat": 0.0, "lat": 38.920328166666664, "name": "3c1da8f8d520cd3f5a120772c3ddeb50", "fusion_lon": 0.0, "bike_id": "3c1da8f8d520cd3f5a120772c3ddeb50", "is_disabled": 0, "is_reserved": 0}, {"rental_uris": {"ios": "https://dc.lft.to/lastmile_qr_scan", "android": "https://dc.lft.to/lastmile_qr_scan"}, "lon": -77.06491883333334, "type": "electric_bike", "fusion_lat": 0.0, "lat": 38.964940166666665, "name": "8b62af5776524e000164e088be39908b", "fusion_lon": 0.0, "bike_id": "8b62af5776524e000164e088be39908b", "is_disabled": 0, "is_reserved": 0}, {"rental_uris": {"ios": "https://dc.lft.to/lastmile_qr_scan", "android": "https://dc.lft.to/lastmile_qr_scan"}, "lon": -77.04142716666667, "type": "electric_scooter", "fusion_lat": 0.0, "lat": 38.92295416666666, "name": "e7a3dabc67862c86876f2b6aba67cdc7", "fusion_lon": 0.0, "bike_id": "e7a3dabc67862c86876f2b6aba67cdc7", "is_disabled": 0, "is_reserved": 0}, {"rental_uris": {"ios": "https://dc.lft.to/lastmile_qr_scan", "android": "https://dc.lft.to/lastmile_qr_scan"}, "lon": -77.04226266666667, "type": "electric_scooter", "fusion_lat": 0.0, "lat": 38.92109033333333, "name": "9053366688a53d6cc3211326a96aba86", "fusion_lon": 0.0, "bike_id": "9053366688a53d6cc3211326a96aba86", "is_disabled": 0, "is_reserved": 0}, {"rental_uris": {"ios": "https://dc.lft.to/lastmile_qr_scan", "android": "https://dc.lft.to/lastmile_qr_scan"}, "lon": -77.03224333333333, "type": "electric_scooter", "fusion_lat": 0.0, "lat": 38.926702, "name": "0ca39e56a8e407686a7b9b94bcbc8069", "fusion_lon": 0.0, "bike_id": "0ca39e56a8e407686a7b9b94bcbc8069", "is_disabled": 0, "is_reserved": 0}, {"rental_uris": {"ios": "https://dc.lft.to/lastmile_qr_scan", "android": "https://dc.lft.to/lastmile_qr_scan"}, "lon": -77.001368, "type": "electric_scooter", "fusion_lat": 0.0, "lat": 38.919137, "name": "281e49270dc458ed3501d85b98dd2a28", "fusion_lon": 0.0, "bike_id": "281e49270dc458ed3501d85b98dd2a28", "is_disabled": 0, "is_reserved": 0}, {"rental_uris": {"ios": "https://dc.lft.to/lastmile_qr_scan", "android": "https://dc.lft.to/lastmile_qr_scan"}, "lon": -76.99386616666666, "type": "electric_scooter", "fusion_lat": 0.0, "lat": 38.887507166666666, "name": "7213e2538f2c0751e8ea7b3311fa9058", "fusion_lon": 0.0, "bike_id": "7213e2538f2c0751e8ea7b3311fa9058", "is_disabled": 0, "is_reserved": 0}, {"rental_uris": {"ios": "https://dc.lft.to/lastmile_qr_scan", "android": "https://dc.lft.to/lastmile_qr_scan"}, "lon": -76.94416366666667, "type": "electric_scooter", "fusion_lat": 0.0, "lat": 38.89792966666667, "name": "bbc07154209fb4d7bf870951bb0503cb", "fusion_lon": 0.0, "bike_id": "bbc07154209fb4d7bf870951bb0503cb", "is_disabled": 0, "is_reserved": 0}, {"rental_uris": {"ios": "https://dc.lft.to/lastmile_qr_scan", "android": "https://dc.lft.to/lastmile_qr_scan"}, "lon": -76.98344833333333, "type": "electric_scooter", "fusion_lat": 0.0, "lat": 38.915368666666666, "name": "8fa59903e3815aeb9e2d3586a3792105", "fusion_lon": 0.0, "bike_id": "8fa59903e3815aeb9e2d3586a3792105", "is_disabled": 0, "is_reserved": 0}, {"rental_uris": {"ios": "https://dc.lft.to/lastmile_qr_scan", "android": "https://dc.lft.to/lastmile_qr_scan"}, "lon": -77.05503033333333, "type": "electric_scooter", "fusion_lat": 0.0, "lat": 38.92970066666667, "name": "fc63eda768bddcce4adcfd3a55baf6f9", "fusion_lon": 0.0, "bike_id": "fc63eda768bddcce4adcfd3a55baf6f9", "is_disabled": 0, "is_reserved": 0}, {"rental_uris": {"ios": "https://dc.lft.to/lastmile_qr_scan", "android": "https://dc.lft.to/lastmile_qr_scan"}, "lon": -77.04135016666666, "type": "electric_scooter", "fusion_lat": 0.0, "lat": 38.89995233333333, "name": "bf192f02777adc585e5ebe603886c89f", "fusion_lon": 0.0, "bike_id": "bf192f02777adc585e5ebe603886c89f", "is_disabled": 0, "is_reserved": 0}, {"rental_uris": {"ios": "https://dc.lft.to/lastmile_qr_scan", "android": "https://dc.lft.to/lastmile_qr_scan"}, "lon": -77.12504633333333, "type": "electric_bike", "fusion_lat": 0.0, "lat": 39.024238833333335, "name": "e83ae5f47b20c34c0082633731a64135", "fusion_lon": 0.0, "bike_id": "e83ae5f47b20c34c0082633731a64135", "is_disabled": 0, "is_reserved": 0}, {"rental_uris": {"ios": "https://dc.lft.to/lastmile_qr_scan", "android": "https://dc.lft.to/lastmile_qr_scan"}, "lon": -76.95755016666666, "type": "electric_scooter", "fusion_lat": 0.0, "lat": 38.88433966666667, "name": "46db7b8da83080388f8604ebaf1ac048", "fusion_lon": 0.0, "bike_id": "46db7b8da83080388f8604ebaf1ac048", "is_disabled": 0, "is_reserved": 0}, {"rental_uris": {"ios": "https://dc.lft.to/lastmile_qr_scan", "android": "https://dc.lft.to/lastmile_qr_scan"}, "lon": -77.032904, "type": "electric_scooter", "fusion_lat": 0.0, "lat": 38.93489683333333, "name": "885dab06f878598d510ca81fa1377b8d", "fusion_lon": 0.0, "bike_id": "885dab06f878598d510ca81fa1377b8d", "is_disabled": 0, "is_reserved": 0}, {"rental_uris": {"ios": "https://dc.lft.to/lastmile_qr_scan", "android": "https://dc.lft.to/lastmile_qr_scan"}, "lon": -77.01969583333333, "type": "electric_bike", "fusion_lat": 0.0, "lat": 38.878436666666666, "name": "6042fb62ab8579f867c145fc9a5b2698", "fusion_lon": 0.0, "bike_id": "6042fb62ab8579f867c145fc9a5b2698", "is_disabled": 0, "is_reserved": 0}, {"rental_uris": {"ios": "https://dc.lft.to/lastmile_qr_scan", "android": "https://dc.lft.to/lastmile_qr_scan"}, "lon": -77.05225416666667, "type": "electric_scooter", "fusion_lat": 0.0, "lat": 38.925938333333335, "name": "e9fb1f0b7c7fd21cafeb7b4d6fcf474a", "fusion_lon": 0.0, "bike_id": "e9fb1f0b7c7fd21cafeb7b4d6fcf474a", "is_disabled": 0, "is_reserved": 0}, {"rental_uris": {"ios": "https://dc.lft.to/lastmile_qr_scan", "android": "https://dc.lft.to/lastmile_qr_scan"}, "lon": -77.03403283333333, "type": "electric_scooter", "fusion_lat": 0.0, "lat": 38.9226925, "name": "3ea66ac65f4e3808abec6a731cfa00c7", "fusion_lon": 0.0, "bike_id": "3ea66ac65f4e3808abec6a731cfa00c7", "is_disabled": 0, "is_reserved": 0}, {"rental_uris": {"ios": "https://dc.lft.to/lastmile_qr_scan", "android": "https://dc.lft.to/lastmile_qr_scan"}, "lon": -76.93179633333334, "type": "electric_scooter", "fusion_lat": 0.0, "lat": 38.89884716666667, "name": "e6b5cc7a16149c06e80d7f81542ca4e5", "fusion_lon": 0.0, "bike_id": "e6b5cc7a16149c06e80d7f81542ca4e5", "is_disabled": 0, "is_reserved": 0}, {"rental_uris": {"ios": "https://dc.lft.to/lastmile_qr_scan", "android": "https://dc.lft.to/lastmile_qr_scan"}, "lon": -76.99495666666667, "type": "electric_scooter", "fusion_lat": 0.0, "lat": 38.86244666666666, "name": "fdde5b047f876342fcd6883896f9e0fa", "fusion_lon": 0.0, "bike_id": "fdde5b047f876342fcd6883896f9e0fa", "is_disabled": 0, "is_reserved": 0}, {"rental_uris": {"ios": "https://dc.lft.to/lastmile_qr_scan", "android": "https://dc.lft.to/lastmile_qr_scan"}, "lon": -77.03654533333334, "type": "electric_scooter", "fusion_lat": 0.0, "lat": 38.9181615, "name": "cd0e4fa89b050896d507613a78ce0be3", "fusion_lon": 0.0, "bike_id": "cd0e4fa89b050896d507613a78ce0be3", "is_disabled": 0, "is_reserved": 0}, {"rental_uris": {"ios": "https://dc.lft.to/lastmile_qr_scan", "android": "https://dc.lft.to/lastmile_qr_scan"}, "lon": -77.12002633333333, "type": "electric_bike", "fusion_lat": 0.0, "lat": 38.855078166666665, "name": "fee10d3f17347228005f4237f695b643", "fusion_lon": 0.0, "bike_id": "fee10d3f17347228005f4237f695b643", "is_disabled": 0, "is_reserved": 0}, {"rental_uris": {"ios": "https://dc.lft.to/lastmile_qr_scan", "android": "https://dc.lft.to/lastmile_qr_scan"}, "lon": -77.01352716666666, "type": "electric_scooter", "fusion_lat": 0.0, "lat": 38.919363, "name": "425d7e7de072c19a63ef37eadbe2d451", "fusion_lon": 0.0, "bike_id": "425d7e7de072c19a63ef37eadbe2d451", "is_disabled": 0, "is_reserved": 0}, {"rental_uris": {"ios": "https://dc.lft.to/lastmile_qr_scan", "android": "https://dc.lft.to/lastmile_qr_scan"}, "lon": -77.00049983333334, "type": "electric_scooter", "fusion_lat": 0.0, "lat": 38.9058625, "name": "d2a207f12f2aefce60e0fe518b3c8965", "fusion_lon": 0.0, "bike_id": "d2a207f12f2aefce60e0fe518b3c8965", "is_disabled": 0, "is_reserved": 0}, {"rental_uris": {"ios": "https://dc.lft.to/lastmile_qr_scan", "android": "https://dc.lft.to/lastmile_qr_scan"}, "lon": -77.03445233333333, "type": "electric_scooter", "fusion_lat": 0.0, "lat": 38.91818633333333, "name": "7889499b02f2b25800d4acb2aef76a21", "fusion_lon": 0.0, "bike_id": "7889499b02f2b25800d4acb2aef76a21", "is_disabled": 0, "is_reserved": 0}, {"rental_uris": {"ios": "https://dc.lft.to/lastmile_qr_scan", "android": "https://dc.lft.to/lastmile_qr_scan"}, "lon": -77.0327895, "type": "electric_scooter", "fusion_lat": 0.0, "lat": 38.93207133333333, "name": "5ca2d5ef6c687f302aceb3676beecf1c", "fusion_lon": 0.0, "bike_id": "5ca2d5ef6c687f302aceb3676beecf1c", "is_disabled": 0, "is_reserved": 0}, {"rental_uris": {"ios": "https://dc.lft.to/lastmile_qr_scan", "android": "https://dc.lft.to/lastmile_qr_scan"}, "lon": -77.044437, "type": "electric_scooter", "fusion_lat": 0.0, "lat": 38.91010516666667, "name": "44e9fa9cab563565aa4a4dd83a45cabd", "fusion_lon": 0.0, "bike_id": "44e9fa9cab563565aa4a4dd83a45cabd", "is_disabled": 0, "is_reserved": 0}, {"rental_uris": {"ios": "https://dc.lft.to/lastmile_qr_scan", "android": "https://dc.lft.to/lastmile_qr_scan"}, "lon": -77.02227366666666, "type": "electric_scooter", "fusion_lat": 0.0, "lat": 38.914259333333334, "name": "88af9492880f9e82ceb25a99c9e6b338", "fusion_lon": 0.0, "bike_id": "88af9492880f9e82ceb25a99c9e6b338", "is_disabled": 0, "is_reserved": 0}, {"rental_uris": {"ios": "https://dc.lft.to/lastmile_qr_scan", "android": "https://dc.lft.to/lastmile_qr_scan"}, "lon": -76.98564983333333, "type": "electric_scooter", "fusion_lat": 0.0, "lat": 38.856171833333335, "name": "4017b1678c001d243467b926b5670334", "fusion_lon": 0.0, "bike_id": "4017b1678c001d243467b926b5670334", "is_disabled": 0, "is_reserved": 0}, {"rental_uris": {"ios": "https://dc.lft.to/lastmile_qr_scan", "android": "https://dc.lft.to/lastmile_qr_scan"}, "lon": -77.073307, "type": "electric_scooter", "fusion_lat": 0.0, "lat": 38.92518716666667, "name": "7f071bfc5ff27868ce848aa90d6cbb80", "fusion_lon": 0.0, "bike_id": "7f071bfc5ff27868ce848aa90d6cbb80", "is_disabled": 0, "is_reserved": 0}, {"rental_uris": {"ios": "https://dc.lft.to/lastmile_qr_scan", "android": "https://dc.lft.to/lastmile_qr_scan"}, "lon": -77.00362166666666, "type": "electric_scooter", "fusion_lat": 0.0, "lat": 38.897744333333335, "name": "905405ba8b12df8182d9e5563b954c3b", "fusion_lon": 0.0, "bike_id": "905405ba8b12df8182d9e5563b954c3b", "is_disabled": 0, "is_reserved": 0}, {"rental_uris": {"ios": "https://dc.lft.to/lastmile_qr_scan", "android": "https://dc.lft.to/lastmile_qr_scan"}, "lon": -76.985728, "type": "electric_scooter", "fusion_lat": 0.0, "lat": 38.89890666666667, "name": "97ef410b1d82a374fc95746cf62032c5", "fusion_lon": 0.0, "bike_id": "97ef410b1d82a374fc95746cf62032c5", "is_disabled": 0, "is_reserved": 0}, {"rental_uris": {"ios": "https://dc.lft.to/lastmile_qr_scan", "android": "https://dc.lft.to/lastmile_qr_scan"}, "lon": -77.0233475, "type": "electric_scooter", "fusion_lat": 0.0, "lat": 38.930502833333335, "name": "1cd083e188204a910f14ded6e9119828", "fusion_lon": 0.0, "bike_id": "1cd083e188204a910f14ded6e9119828", "is_disabled": 0, "is_reserved": 0}, {"rental_uris": {"ios": "https://dc.lft.to/lastmile_qr_scan", "android": "https://dc.lft.to/lastmile_qr_scan"}, "lon": -76.94651233333333, "type": "electric_scooter", "fusion_lat": 0.0, "lat": 38.89825966666667, "name": "c4e477a3d770140effc6cb96f9a8c580", "fusion_lon": 0.0, "bike_id": "c4e477a3d770140effc6cb96f9a8c580", "is_disabled": 0, "is_reserved": 0}, {"rental_uris": {"ios": "https://dc.lft.to/lastmile_qr_scan", "android": "https://dc.lft.to/lastmile_qr_scan"}, "lon": -76.9865455, "type": "electric_scooter", "fusion_lat": 0.0, "lat": 38.8580715, "name": "e4298a0db011605aa16d3f3fafc8fed0", "fusion_lon": 0.0, "bike_id": "e4298a0db011605aa16d3f3fafc8fed0", "is_disabled": 0, "is_reserved": 0}, {"rental_uris": {"ios": "https://dc.lft.to/lastmile_qr_scan", "android": "https://dc.lft.to/lastmile_qr_scan"}, "lon": -77.03132933333333, "type": "electric_scooter", "fusion_lat": 0.0, "lat": 38.963055, "name": "00ce0df45bf2666a4e0698145f0034af", "fusion_lon": 0.0, "bike_id": "00ce0df45bf2666a4e0698145f0034af", "is_disabled": 0, "is_reserved": 0}, {"rental_uris": {"ios": "https://dc.lft.to/lastmile_qr_scan", "android": "https://dc.lft.to/lastmile_qr_scan"}, "lon": -76.986577, "type": "electric_scooter", "fusion_lat": 0.0, "lat": 38.858065833333335, "name": "0fa075675603f81ca591725d7d157edb", "fusion_lon": 0.0, "bike_id": "0fa075675603f81ca591725d7d157edb", "is_disabled": 0, "is_reserved": 0}, {"rental_uris": {"ios": "https://dc.lft.to/lastmile_qr_scan", "android": "https://dc.lft.to/lastmile_qr_scan"}, "lon": -77.100282, "type": "electric_bike", "fusion_lat": 0.0, "lat": 38.99068366666667, "name": "b54f32c93db3f207ab2f4b6ad2a298da", "fusion_lon": 0.0, "bike_id": "b54f32c93db3f207ab2f4b6ad2a298da", "is_disabled": 0, "is_reserved": 0}, {"rental_uris": {"ios": "https://dc.lft.to/lastmile_qr_scan", "android": "https://dc.lft.to/lastmile_qr_scan"}, "lon": -76.97928283333333, "type": "electric_scooter", "fusion_lat": 0.0, "lat": 38.904896666666666, "name": "665280784bb99d8a8e258773a80fbbc0", "fusion_lon": 0.0, "bike_id": "665280784bb99d8a8e258773a80fbbc0", "is_disabled": 0, "is_reserved": 0}, {"rental_uris": {"ios": "https://dc.lft.to/lastmile_qr_scan", "android": "https://dc.lft.to/lastmile_qr_scan"}, "lon": -77.03655116666667, "type": "electric_scooter", "fusion_lat": 0.0, "lat": 38.922058666666665, "name": "17189a74b8da5f1faa94053096f2cc6e", "fusion_lon": 0.0, "bike_id": "17189a74b8da5f1faa94053096f2cc6e", "is_disabled": 0, "is_reserved": 0}, {"rental_uris": {"ios": "https://dc.lft.to/lastmile_qr_scan", "android": "https://dc.lft.to/lastmile_qr_scan"}, "lon": -76.99995116666666, "type": "electric_scooter", "fusion_lat": 0.0, "lat": 38.900215333333335, "name": "e44e7b3bc21d9256ddad4f70e34926e2", "fusion_lon": 0.0, "bike_id": "e44e7b3bc21d9256ddad4f70e34926e2", "is_disabled": 0, "is_reserved": 0}, {"rental_uris": {"ios": "https://dc.lft.to/lastmile_qr_scan", "android": "https://dc.lft.to/lastmile_qr_scan"}, "lon": -77.04900016666667, "type": "electric_bike", "fusion_lat": 0.0, "lat": 38.87495833333333, "name": "805d29d9c04141440a7145ee332cd3a4", "fusion_lon": 0.0, "bike_id": "805d29d9c04141440a7145ee332cd3a4", "is_disabled": 0, "is_reserved": 0}, {"rental_uris": {"ios": "https://dc.lft.to/lastmile_qr_scan", "android": "https://dc.lft.to/lastmile_qr_scan"}, "lon": -76.9498655, "type": "electric_scooter", "fusion_lat": 0.0, "lat": 38.89372316666667, "name": "79b0b34c591444b51d5fe555c8455821", "fusion_lon": 0.0, "bike_id": "79b0b34c591444b51d5fe555c8455821", "is_disabled": 0, "is_reserved": 0}, {"rental_uris": {"ios": "https://dc.lft.to/lastmile_qr_scan", "android": "https://dc.lft.to/lastmile_qr_scan"}, "lon": -76.9773245, "type": "electric_scooter", "fusion_lat": 0.0, "lat": 38.872986166666664, "name": "98e868eec3c95c55e15d2a1ac960f1a6", "fusion_lon": 0.0, "bike_id": "98e868eec3c95c55e15d2a1ac960f1a6", "is_disabled": 0, "is_reserved": 0}, {"rental_uris": {"ios": "https://dc.lft.to/lastmile_qr_scan", "android": "https://dc.lft.to/lastmile_qr_scan"}, "lon": -76.99776733333333, "type": "electric_scooter", "fusion_lat": 0.0, "lat": 38.8442385, "name": "ed19a04fd18cb76b258a57ea00528fc5", "fusion_lon": 0.0, "bike_id": "ed19a04fd18cb76b258a57ea00528fc5", "is_disabled": 0, "is_reserved": 0}, {"rental_uris": {"ios": "https://dc.lft.to/lastmile_qr_scan", "android": "https://dc.lft.to/lastmile_qr_scan"}, "lon": -77.01516216666667, "type": "electric_scooter", "fusion_lat": 0.0, "lat": 38.898095, "name": "f22c78af5158b295858544652679a521", "fusion_lon": 0.0, "bike_id": "f22c78af5158b295858544652679a521", "is_disabled": 0, "is_reserved": 0}, {"rental_uris": {"ios": "https://dc.lft.to/lastmile_qr_scan", "android": "https://dc.lft.to/lastmile_qr_scan"}, "lon": -77.01866666666666, "type": "electric_scooter", "fusion_lat": 0.0, "lat": 38.91575233333333, "name": "61913f9d1ad1d186c39e1ffecba7868e", "fusion_lon": 0.0, "bike_id": "61913f9d1ad1d186c39e1ffecba7868e", "is_disabled": 0, "is_reserved": 0}, {"rental_uris": {"ios": "https://dc.lft.to/lastmile_qr_scan", "android": "https://dc.lft.to/lastmile_qr_scan"}, "lon": -77.02956233333333, "type": "electric_scooter", "fusion_lat": 0.0, "lat": 38.90046866666667, "name": "52d06b99b9ce3515e1a2e5a92ac8300c", "fusion_lon": 0.0, "bike_id": "52d06b99b9ce3515e1a2e5a92ac8300c", "is_disabled": 0, "is_reserved": 0}, {"rental_uris": {"ios": "https://dc.lft.to/lastmile_qr_scan", "android": "https://dc.lft.to/lastmile_qr_scan"}, "lon": -77.04101733333333, "type": "electric_scooter", "fusion_lat": 0.0, "lat": 38.905925333333336, "name": "0ff45d84c8a1d6b637aa35f466174b7e", "fusion_lon": 0.0, "bike_id": "0ff45d84c8a1d6b637aa35f466174b7e", "is_disabled": 0, "is_reserved": 0}, {"rental_uris": {"ios": "https://dc.lft.to/lastmile_qr_scan", "android": "https://dc.lft.to/lastmile_qr_scan"}, "lon": -77.00010116666667, "type": "electric_bike", "fusion_lat": 0.0, "lat": 38.92396883333333, "name": "fa1174a0ab0162bc31d6116558d33238", "fusion_lon": 0.0, "bike_id": "fa1174a0ab0162bc31d6116558d33238", "is_disabled": 0, "is_reserved": 0}, {"rental_uris": {"ios": "https://dc.lft.to/lastmile_qr_scan", "android": "https://dc.lft.to/lastmile_qr_scan"}, "lon": -77.00231283333333, "type": "electric_scooter", "fusion_lat": 0.0, "lat": 38.908341166666666, "name": "16db41fe07652eb723316ac0b26a5ecd", "fusion_lon": 0.0, "bike_id": "16db41fe07652eb723316ac0b26a5ecd", "is_disabled": 0, "is_reserved": 0}, {"rental_uris": {"ios": "https://dc.lft.to/lastmile_qr_scan", "android": "https://dc.lft.to/lastmile_qr_scan"}, "lon": -76.9573935, "type": "electric_scooter", "fusion_lat": 0.0, "lat": 38.89213816666667, "name": "a7808a346ad49e683964d36a4c91b109", "fusion_lon": 0.0, "bike_id": "a7808a346ad49e683964d36a4c91b109", "is_disabled": 0, "is_reserved": 0}, {"rental_uris": {"ios": "https://dc.lft.to/lastmile_qr_scan", "android": "https://dc.lft.to/lastmile_qr_scan"}, "lon": -77.03513133333334, "type": "electric_scooter", "fusion_lat": 0.0, "lat": 38.921484, "name": "53394e7779c6a83d1e6e5c1e11a62d21", "fusion_lon": 0.0, "bike_id": "53394e7779c6a83d1e6e5c1e11a62d21", "is_disabled": 0, "is_reserved": 0}, {"rental_uris": {"ios": "https://dc.lft.to/lastmile_qr_scan", "android": "https://dc.lft.to/lastmile_qr_scan"}, "lon": -76.9744535, "type": "electric_bike", "fusion_lat": 0.0, "lat": 38.864023, "name": "4474d07c97c56074204d18becbf0c105", "fusion_lon": 0.0, "bike_id": "4474d07c97c56074204d18becbf0c105", "is_disabled": 0, "is_reserved": 0}, {"rental_uris": {"ios": "https://dc.lft.to/lastmile_qr_scan", "android": "https://dc.lft.to/lastmile_qr_scan"}, "lon": -77.13178033333334, "type": "electric_bike", "fusion_lat": 0.0, "lat": 38.869092, "name": "af3576274440501447416f1fc7ccb494", "fusion_lon": 0.0, "bike_id": "af3576274440501447416f1fc7ccb494", "is_disabled": 0, "is_reserved": 0}, {"rental_uris": {"ios": "https://dc.lft.to/lastmile_qr_scan", "android": "https://dc.lft.to/lastmile_qr_scan"}, "lon": -77.0362635, "type": "electric_scooter", "fusion_lat": 0.0, "lat": 38.93686983333333, "name": "0816e073aa678ff6e1b847a242deafd4", "fusion_lon": 0.0, "bike_id": "0816e073aa678ff6e1b847a242deafd4", "is_disabled": 0, "is_reserved": 0}, {"rental_uris": {"ios": "https://dc.lft.to/lastmile_qr_scan", "android": "https://dc.lft.to/lastmile_qr_scan"}, "lon": -77.03804366666667, "type": "electric_bike", "fusion_lat": 0.0, "lat": 38.99677666666667, "name": "23099b061287a26e1403a8a7032a2968", "fusion_lon": 0.0, "bike_id": "23099b061287a26e1403a8a7032a2968", "is_disabled": 0, "is_reserved": 0}, {"rental_uris": {"ios": "https://dc.lft.to/lastmile_qr_scan", "android": "https://dc.lft.to/lastmile_qr_scan"}, "lon": -77.05303333333333, "type": "electric_scooter", "fusion_lat": 0.0, "lat": 38.9029265, "name": "053b8274458fd3a4cd2aabb2faa79c89", "fusion_lon": 0.0, "bike_id": "053b8274458fd3a4cd2aabb2faa79c89", "is_disabled": 0, "is_reserved": 0}, {"rental_uris": {"ios": "https://dc.lft.to/lastmile_qr_scan", "android": "https://dc.lft.to/lastmile_qr_scan"}, "lon": -77.05075233333334, "type": "electric_scooter", "fusion_lat": 0.0, "lat": 38.90051616666667, "name": "f2692776828a489978188ab107fbc572", "fusion_lon": 0.0, "bike_id": "f2692776828a489978188ab107fbc572", "is_disabled": 0, "is_reserved": 0}, {"rental_uris": {"ios": "https://dc.lft.to/lastmile_qr_scan", "android": "https://dc.lft.to/lastmile_qr_scan"}, "lon": -77.035901, "type": "electric_scooter", "fusion_lat": 0.0, "lat": 38.932395666666665, "name": "7a69e2a07ef8b1ff4b3f2bfaa19df8f0", "fusion_lon": 0.0, "bike_id": "7a69e2a07ef8b1ff4b3f2bfaa19df8f0", "is_disabled": 0, "is_reserved": 0}, {"rental_uris": {"ios": "https://dc.lft.to/lastmile_qr_scan", "android": "https://dc.lft.to/lastmile_qr_scan"}, "lon": -77.02407216666667, "type": "electric_scooter", "fusion_lat": 0.0, "lat": 38.91990166666667, "name": "2b23d42ab39edf4803a6b1eadf6b6964", "fusion_lon": 0.0, "bike_id": "2b23d42ab39edf4803a6b1eadf6b6964", "is_disabled": 0, "is_reserved": 0}, {"rental_uris": {"ios": "https://dc.lft.to/lastmile_qr_scan", "android": "https://dc.lft.to/lastmile_qr_scan"}, "lon": -77.04045683333334, "type": "electric_scooter", "fusion_lat": 0.0, "lat": 38.92709516666667, "name": "1be61fd72ecb11cfa079c70a2e007c27", "fusion_lon": 0.0, "bike_id": "1be61fd72ecb11cfa079c70a2e007c27", "is_disabled": 0, "is_reserved": 0}, {"rental_uris": {"ios": "https://dc.lft.to/lastmile_qr_scan", "android": "https://dc.lft.to/lastmile_qr_scan"}, "lon": -77.045681, "type": "electric_scooter", "fusion_lat": 0.0, "lat": 38.908622, "name": "d3f95db77f4cc7e1f63eb322137e87e1", "fusion_lon": 0.0, "bike_id": "d3f95db77f4cc7e1f63eb322137e87e1", "is_disabled": 0, "is_reserved": 0}, {"rental_uris": {"ios": "https://dc.lft.to/lastmile_qr_scan", "android": "https://dc.lft.to/lastmile_qr_scan"}, "lon": -77.09752483333334, "type": "electric_bike", "fusion_lat": 0.0, "lat": 38.858551, "name": "51ee170b260a58c90bdc9d2de860c480", "fusion_lon": 0.0, "bike_id": "51ee170b260a58c90bdc9d2de860c480", "is_disabled": 0, "is_reserved": 0}, {"rental_uris": {"ios": "https://dc.lft.to/lastmile_qr_scan", "android": "https://dc.lft.to/lastmile_qr_scan"}, "lon": -77.0059505, "type": "electric_scooter", "fusion_lat": 0.0, "lat": 38.90545933333333, "name": "e915fbd9af9108ba2b2c3f6209adaa4a", "fusion_lon": 0.0, "bike_id": "e915fbd9af9108ba2b2c3f6209adaa4a", "is_disabled": 0, "is_reserved": 0}, {"rental_uris": {"ios": "https://dc.lft.to/lastmile_qr_scan", "android": "https://dc.lft.to/lastmile_qr_scan"}, "lon": -77.03172366666666, "type": "electric_scooter", "fusion_lat": 0.0, "lat": 38.92000616666667, "name": "f149cc7329452016a4ce073b3e33c9d9", "fusion_lon": 0.0, "bike_id": "f149cc7329452016a4ce073b3e33c9d9", "is_disabled": 0, "is_reserved": 0}, {"rental_uris": {"ios": "https://dc.lft.to/lastmile_qr_scan", "android": "https://dc.lft.to/lastmile_qr_scan"}, "lon": -77.098652, "type": "electric_bike", "fusion_lat": 0.0, "lat": 38.85373283333333, "name": "69676b37d8d96eec984c390c72e5fe92", "fusion_lon": 0.0, "bike_id": "69676b37d8d96eec984c390c72e5fe92", "is_disabled": 0, "is_reserved": 0}, {"rental_uris": {"ios": "https://dc.lft.to/lastmile_qr_scan", "android": "https://dc.lft.to/lastmile_qr_scan"}, "lon": -77.03680016666667, "type": "electric_scooter", "fusion_lat": 0.0, "lat": 38.918154666666666, "name": "238420d95a4944e37f51704b7e3f6c3e", "fusion_lon": 0.0, "bike_id": "238420d95a4944e37f51704b7e3f6c3e", "is_disabled": 0, "is_reserved": 0}, {"rental_uris": {"ios": "https://dc.lft.to/lastmile_qr_scan", "android": "https://dc.lft.to/lastmile_qr_scan"}, "lon": -77.06944666666666, "type": "electric_scooter", "fusion_lat": 0.0, "lat": 38.905046166666665, "name": "92c2825ca6f14cd2f96717b2ebce4840", "fusion_lon": 0.0, "bike_id": "92c2825ca6f14cd2f96717b2ebce4840", "is_disabled": 0, "is_reserved": 0}, {"rental_uris": {"ios": "https://dc.lft.to/lastmile_qr_scan", "android": "https://dc.lft.to/lastmile_qr_scan"}, "lon": -77.03390816666666, "type": "electric_scooter", "fusion_lat": 0.0, "lat": 38.9384635, "name": "e636c4b301cb7d34eae21a90c0aa1f70", "fusion_lon": 0.0, "bike_id": "e636c4b301cb7d34eae21a90c0aa1f70", "is_disabled": 0, "is_reserved": 0}, {"rental_uris": {"ios": "https://dc.lft.to/lastmile_qr_scan", "android": "https://dc.lft.to/lastmile_qr_scan"}, "lon": -77.02491583333334, "type": "electric_scooter", "fusion_lat": 0.0, "lat": 38.94185916666667, "name": "4d28e40e766c4786ebb73dd3f5fe4771", "fusion_lon": 0.0, "bike_id": "4d28e40e766c4786ebb73dd3f5fe4771", "is_disabled": 0, "is_reserved": 0}, {"rental_uris": {"ios": "https://dc.lft.to/lastmile_qr_scan", "android": "https://dc.lft.to/lastmile_qr_scan"}, "lon": -77.026844, "type": "electric_scooter", "fusion_lat": 0.0, "lat": 38.90174066666667, "name": "ec65e0cc501d5d1ddf59275ceb0185bc", "fusion_lon": 0.0, "bike_id": "ec65e0cc501d5d1ddf59275ceb0185bc", "is_disabled": 0, "is_reserved": 0}, {"rental_uris": {"ios": "https://dc.lft.to/lastmile_qr_scan", "android": "https://dc.lft.to/lastmile_qr_scan"}, "lon": -77.03451183333334, "type": "electric_scooter", "fusion_lat": 0.0, "lat": 38.91815716666667, "name": "82a4e9c45f75b03d5168c9176582cc19", "fusion_lon": 0.0, "bike_id": "82a4e9c45f75b03d5168c9176582cc19", "is_disabled": 0, "is_reserved": 0}, {"rental_uris": {"ios": "https://dc.lft.to/lastmile_qr_scan", "android": "https://dc.lft.to/lastmile_qr_scan"}, "lon": -76.95418616666667, "type": "electric_scooter", "fusion_lat": 0.0, "lat": 38.891444666666665, "name": "071dc896f21f0443ba8cdc8ef9d2e318", "fusion_lon": 0.0, "bike_id": "071dc896f21f0443ba8cdc8ef9d2e318", "is_disabled": 0, "is_reserved": 0}, {"rental_uris": {"ios": "https://dc.lft.to/lastmile_qr_scan", "android": "https://dc.lft.to/lastmile_qr_scan"}, "lon": -77.03467716666667, "type": "electric_scooter", "fusion_lat": 0.0, "lat": 38.9170795, "name": "fb9f79ee25a8d4bb06af8d100d54b7c7", "fusion_lon": 0.0, "bike_id": "fb9f79ee25a8d4bb06af8d100d54b7c7", "is_disabled": 0, "is_reserved": 0}, {"rental_uris": {"ios": "https://dc.lft.to/lastmile_qr_scan", "android": "https://dc.lft.to/lastmile_qr_scan"}, "lon": -77.02417033333333, "type": "electric_scooter", "fusion_lat": 0.0, "lat": 38.926525, "name": "a04886f1b6df778fc2797edfd3048461", "fusion_lon": 0.0, "bike_id": "a04886f1b6df778fc2797edfd3048461", "is_disabled": 0, "is_reserved": 0}, {"rental_uris": {"ios": "https://dc.lft.to/lastmile_qr_scan", "android": "https://dc.lft.to/lastmile_qr_scan"}, "lon": -77.0355575, "type": "electric_scooter", "fusion_lat": 0.0, "lat": 38.91796633333333, "name": "020b4a4d88b3babec5f321cdacf66a06", "fusion_lon": 0.0, "bike_id": "020b4a4d88b3babec5f321cdacf66a06", "is_disabled": 0, "is_reserved": 0}, {"rental_uris": {"ios": "https://dc.lft.to/lastmile_qr_scan", "android": "https://dc.lft.to/lastmile_qr_scan"}, "lon": -77.035819, "type": "electric_scooter", "fusion_lat": 0.0, "lat": 38.90753766666667, "name": "ae2d0568c737231f74daed8b05a5c080", "fusion_lon": 0.0, "bike_id": "ae2d0568c737231f74daed8b05a5c080", "is_disabled": 0, "is_reserved": 0}, {"rental_uris": {"ios": "https://dc.lft.to/lastmile_qr_scan", "android": "https://dc.lft.to/lastmile_qr_scan"}, "lon": -77.0243255, "type": "electric_scooter", "fusion_lat": 0.0, "lat": 38.907190666666665, "name": "4e5bd54fc0090ce9c31a209bf30dd135", "fusion_lon": 0.0, "bike_id": "4e5bd54fc0090ce9c31a209bf30dd135", "is_disabled": 0, "is_reserved": 0}, {"rental_uris": {"ios": "https://dc.lft.to/lastmile_qr_scan", "android": "https://dc.lft.to/lastmile_qr_scan"}, "lon": -76.977106, "type": "electric_scooter", "fusion_lat": 0.0, "lat": 38.8971095, "name": "de960f60be67847138b6938a6b8a452b", "fusion_lon": 0.0, "bike_id": "de960f60be67847138b6938a6b8a452b", "is_disabled": 0, "is_reserved": 0}, {"rental_uris": {"ios": "https://dc.lft.to/lastmile_qr_scan", "android": "https://dc.lft.to/lastmile_qr_scan"}, "lon": -77.0327175, "type": "electric_scooter", "fusion_lat": 0.0, "lat": 38.937297666666666, "name": "1a33ca42a7422c745eb72d0960493ee3", "fusion_lon": 0.0, "bike_id": "1a33ca42a7422c745eb72d0960493ee3", "is_disabled": 0, "is_reserved": 0}, {"rental_uris": {"ios": "https://dc.lft.to/lastmile_qr_scan", "android": "https://dc.lft.to/lastmile_qr_scan"}, "lon": -77.0489635, "type": "electric_scooter", "fusion_lat": 0.0, "lat": 38.896490166666666, "name": "632ac199d26c7dbe2b75bacd3c7bfc3a", "fusion_lon": 0.0, "bike_id": "632ac199d26c7dbe2b75bacd3c7bfc3a", "is_disabled": 0, "is_reserved": 0}, {"rental_uris": {"ios": "https://dc.lft.to/lastmile_qr_scan", "android": "https://dc.lft.to/lastmile_qr_scan"}, "lon": -77.035133, "type": "electric_scooter", "fusion_lat": 0.0, "lat": 38.90039216666667, "name": "80c9062b10751da00895493dc463dc21", "fusion_lon": 0.0, "bike_id": "80c9062b10751da00895493dc463dc21", "is_disabled": 0, "is_reserved": 0}, {"rental_uris": {"ios": "https://dc.lft.to/lastmile_qr_scan", "android": "https://dc.lft.to/lastmile_qr_scan"}, "lon": -77.0222165, "type": "electric_scooter", "fusion_lat": 0.0, "lat": 38.91272083333333, "name": "dcb6b196abb9328d99b8f14085c6d6fe", "fusion_lon": 0.0, "bike_id": "dcb6b196abb9328d99b8f14085c6d6fe", "is_disabled": 0, "is_reserved": 0}, {"rental_uris": {"ios": "https://dc.lft.to/lastmile_qr_scan", "android": "https://dc.lft.to/lastmile_qr_scan"}, "lon": -77.03271983333333, "type": "electric_scooter", "fusion_lat": 0.0, "lat": 38.9284555, "name": "2f6e5abbcd28173c22953b21d259712e", "fusion_lon": 0.0, "bike_id": "2f6e5abbcd28173c22953b21d259712e", "is_disabled": 0, "is_reserved": 0}, {"rental_uris": {"ios": "https://dc.lft.to/lastmile_qr_scan", "android": "https://dc.lft.to/lastmile_qr_scan"}, "lon": -77.02368983333334, "type": "electric_scooter", "fusion_lat": 0.0, "lat": 38.93694766666667, "name": "9ea47ce61c682b41764489f9e91b0bfd", "fusion_lon": 0.0, "bike_id": "9ea47ce61c682b41764489f9e91b0bfd", "is_disabled": 0, "is_reserved": 0}, {"rental_uris": {"ios": "https://dc.lft.to/lastmile_qr_scan", "android": "https://dc.lft.to/lastmile_qr_scan"}, "lon": -77.03148183333333, "type": "electric_scooter", "fusion_lat": 0.0, "lat": 38.9155845, "name": "ac68bb4b30a23c58038463889b5efadc", "fusion_lon": 0.0, "bike_id": "ac68bb4b30a23c58038463889b5efadc", "is_disabled": 0, "is_reserved": 0}, {"rental_uris": {"ios": "https://dc.lft.to/lastmile_qr_scan", "android": "https://dc.lft.to/lastmile_qr_scan"}, "lon": -77.11039583333333, "type": "electric_bike", "fusion_lat": 0.0, "lat": 38.870815666666665, "name": "f583c30ae502fd25b1ca60716f091993", "fusion_lon": 0.0, "bike_id": "f583c30ae502fd25b1ca60716f091993", "is_disabled": 0, "is_reserved": 0}, {"rental_uris": {"ios": "https://dc.lft.to/lastmile_qr_scan", "android": "https://dc.lft.to/lastmile_qr_scan"}, "lon": -76.98999216666667, "type": "electric_scooter", "fusion_lat": 0.0, "lat": 38.86506, "name": "5f0e1e459b74249a9bb5010cd921fc0b", "fusion_lon": 0.0, "bike_id": "5f0e1e459b74249a9bb5010cd921fc0b", "is_disabled": 0, "is_reserved": 0}, {"rental_uris": {"ios": "https://dc.lft.to/lastmile_qr_scan", "android": "https://dc.lft.to/lastmile_qr_scan"}, "lon": -77.02974416666666, "type": "electric_scooter", "fusion_lat": 0.0, "lat": 38.907255, "name": "03ec013930e047509b3be349d1bc1a77", "fusion_lon": 0.0, "bike_id": "03ec013930e047509b3be349d1bc1a77", "is_disabled": 0, "is_reserved": 0}, {"rental_uris": {"ios": "https://dc.lft.to/lastmile_qr_scan", "android": "https://dc.lft.to/lastmile_qr_scan"}, "lon": -76.98017633333333, "type": "electric_scooter", "fusion_lat": 0.0, "lat": 38.887664, "name": "cd1e0e77425c96df91ac2d5c753ec3db", "fusion_lon": 0.0, "bike_id": "cd1e0e77425c96df91ac2d5c753ec3db", "is_disabled": 0, "is_reserved": 0}, {"rental_uris": {"ios": "https://dc.lft.to/lastmile_qr_scan", "android": "https://dc.lft.to/lastmile_qr_scan"}, "lon": -77.00741116666667, "type": "electric_scooter", "fusion_lat": 0.0, "lat": 38.91634883333333, "name": "ed004b1f7afce1b0648ddf0062b1b95e", "fusion_lon": 0.0, "bike_id": "ed004b1f7afce1b0648ddf0062b1b95e", "is_disabled": 0, "is_reserved": 0}, {"rental_uris": {"ios": "https://dc.lft.to/lastmile_qr_scan", "android": "https://dc.lft.to/lastmile_qr_scan"}, "lon": -77.08254033333333, "type": "electric_scooter", "fusion_lat": 0.0, "lat": 38.93587433333333, "name": "2ca1f7bdc0d44cb4ec8a66dcc9fcb184", "fusion_lon": 0.0, "bike_id": "2ca1f7bdc0d44cb4ec8a66dcc9fcb184", "is_disabled": 0, "is_reserved": 0}, {"rental_uris": {"ios": "https://dc.lft.to/lastmile_qr_scan", "android": "https://dc.lft.to/lastmile_qr_scan"}, "lon": -77.0071335, "type": "electric_scooter", "fusion_lat": 0.0, "lat": 38.905672, "name": "6eead19cb10f634ce418292bb1860475", "fusion_lon": 0.0, "bike_id": "6eead19cb10f634ce418292bb1860475", "is_disabled": 0, "is_reserved": 0}, {"rental_uris": {"ios": "https://dc.lft.to/lastmile_qr_scan", "android": "https://dc.lft.to/lastmile_qr_scan"}, "lon": -77.01755233333333, "type": "electric_scooter", "fusion_lat": 0.0, "lat": 38.876979666666664, "name": "586be488550f52044abd478c608b083e", "fusion_lon": 0.0, "bike_id": "586be488550f52044abd478c608b083e", "is_disabled": 0, "is_reserved": 0}, {"rental_uris": {"ios": "https://dc.lft.to/lastmile_qr_scan", "android": "https://dc.lft.to/lastmile_qr_scan"}, "lon": -76.99255383333333, "type": "electric_bike", "fusion_lat": 0.0, "lat": 38.9254735, "name": "685234b43f6684b04cd3ffcbe64832f0", "fusion_lon": 0.0, "bike_id": "685234b43f6684b04cd3ffcbe64832f0", "is_disabled": 0, "is_reserved": 0}, {"rental_uris": {"ios": "https://dc.lft.to/lastmile_qr_scan", "android": "https://dc.lft.to/lastmile_qr_scan"}, "lon": -76.97261483333334, "type": "electric_bike", "fusion_lat": 0.0, "lat": 38.919751, "name": "16fc7e2a5eb83bad2b2e1bef8c3b4a44", "fusion_lon": 0.0, "bike_id": "16fc7e2a5eb83bad2b2e1bef8c3b4a44", "is_disabled": 0, "is_reserved": 0}, {"rental_uris": {"ios": "https://dc.lft.to/lastmile_qr_scan", "android": "https://dc.lft.to/lastmile_qr_scan"}, "lon": -77.06347183333334, "type": "electric_scooter", "fusion_lat": 0.0, "lat": 38.94449933333333, "name": "40f2f66455b048ba87b677f8186373c4", "fusion_lon": 0.0, "bike_id": "40f2f66455b048ba87b677f8186373c4", "is_disabled": 0, "is_reserved": 0}, {"rental_uris": {"ios": "https://dc.lft.to/lastmile_qr_scan", "android": "https://dc.lft.to/lastmile_qr_scan"}, "lon": -77.02228933333333, "type": "electric_bike", "fusion_lat": 0.0, "lat": 38.956842333333334, "name": "15ee397e6183214729053a1d6677afe5", "fusion_lon": 0.0, "bike_id": "15ee397e6183214729053a1d6677afe5", "is_disabled": 0, "is_reserved": 0}, {"rental_uris": {"ios": "https://dc.lft.to/lastmile_qr_scan", "android": "https://dc.lft.to/lastmile_qr_scan"}, "lon": -77.031913, "type": "electric_scooter", "fusion_lat": 0.0, "lat": 38.92975966666667, "name": "62f18e754cf1b1ec9e8f3e3b1b4bdb73", "fusion_lon": 0.0, "bike_id": "62f18e754cf1b1ec9e8f3e3b1b4bdb73", "is_disabled": 0, "is_reserved": 0}, {"rental_uris": {"ios": "https://dc.lft.to/lastmile_qr_scan", "android": "https://dc.lft.to/lastmile_qr_scan"}, "lon": -77.04037883333334, "type": "electric_scooter", "fusion_lat": 0.0, "lat": 38.924700666666666, "name": "c9c2a3b73e0f4b35a3d60a863b4ea6a9", "fusion_lon": 0.0, "bike_id": "c9c2a3b73e0f4b35a3d60a863b4ea6a9", "is_disabled": 0, "is_reserved": 0}, {"rental_uris": {"ios": "https://dc.lft.to/lastmile_qr_scan", "android": "https://dc.lft.to/lastmile_qr_scan"}, "lon": -77.03517283333333, "type": "electric_scooter", "fusion_lat": 0.0, "lat": 38.905041, "name": "59c07547ba0d96ce4628853dab6bf92c", "fusion_lon": 0.0, "bike_id": "59c07547ba0d96ce4628853dab6bf92c", "is_disabled": 0, "is_reserved": 0}, {"rental_uris": {"ios": "https://dc.lft.to/lastmile_qr_scan", "android": "https://dc.lft.to/lastmile_qr_scan"}, "lon": -76.99516283333334, "type": "electric_scooter", "fusion_lat": 0.0, "lat": 38.89483766666667, "name": "1a3bbf0a3a95394809d9baecb4488274", "fusion_lon": 0.0, "bike_id": "1a3bbf0a3a95394809d9baecb4488274", "is_disabled": 0, "is_reserved": 0}, {"rental_uris": {"ios": "https://dc.lft.to/lastmile_qr_scan", "android": "https://dc.lft.to/lastmile_qr_scan"}, "lon": -76.9936405, "type": "electric_scooter", "fusion_lat": 0.0, "lat": 38.90040316666666, "name": "2bdb14b3c6055114fd8264c759f6e6f6", "fusion_lon": 0.0, "bike_id": "2bdb14b3c6055114fd8264c759f6e6f6", "is_disabled": 0, "is_reserved": 0}, {"rental_uris": {"ios": "https://dc.lft.to/lastmile_qr_scan", "android": "https://dc.lft.to/lastmile_qr_scan"}, "lon": -76.878222, "type": "electric_bike", "fusion_lat": 0.0, "lat": 38.9922785, "name": "db6c35ebd37240a8c9f640069304180d", "fusion_lon": 0.0, "bike_id": "db6c35ebd37240a8c9f640069304180d", "is_disabled": 0, "is_reserved": 0}, {"rental_uris": {"ios": "https://dc.lft.to/lastmile_qr_scan", "android": "https://dc.lft.to/lastmile_qr_scan"}, "lon": -77.002944, "type": "electric_bike", "fusion_lat": 0.0, "lat": 38.916165166666666, "name": "faf5a59e7fe017c51e12a5c8314b42f9", "fusion_lon": 0.0, "bike_id": "faf5a59e7fe017c51e12a5c8314b42f9", "is_disabled": 0, "is_reserved": 0}, {"rental_uris": {"ios": "https://dc.lft.to/lastmile_qr_scan", "android": "https://dc.lft.to/lastmile_qr_scan"}, "lon": -76.97747783333334, "type": "electric_scooter", "fusion_lat": 0.0, "lat": 38.900128, "name": "d200b8c75f11584a312b6f0c24ad7c5a", "fusion_lon": 0.0, "bike_id": "d200b8c75f11584a312b6f0c24ad7c5a", "is_disabled": 0, "is_reserved": 0}, {"rental_uris": {"ios": "https://dc.lft.to/lastmile_qr_scan", "android": "https://dc.lft.to/lastmile_qr_scan"}, "lon": -76.97615, "type": "electric_scooter", "fusion_lat": 0.0, "lat": 38.903863333333334, "name": "da571159bb0f7eb859ebe9dcef1ac0e0", "fusion_lon": 0.0, "bike_id": "da571159bb0f7eb859ebe9dcef1ac0e0", "is_disabled": 0, "is_reserved": 0}, {"rental_uris": {"ios": "https://dc.lft.to/lastmile_qr_scan", "android": "https://dc.lft.to/lastmile_qr_scan"}, "lon": -76.94633, "type": "electric_scooter", "fusion_lat": 0.0, "lat": 38.898297666666664, "name": "d799c3847b2405d6f94cf146f1eb58ee", "fusion_lon": 0.0, "bike_id": "d799c3847b2405d6f94cf146f1eb58ee", "is_disabled": 0, "is_reserved": 0}, {"rental_uris": {"ios": "https://dc.lft.to/lastmile_qr_scan", "android": "https://dc.lft.to/lastmile_qr_scan"}, "lon": -77.02917616666667, "type": "electric_scooter", "fusion_lat": 0.0, "lat": 38.90418016666667, "name": "8a80a6e75155096f575b445c90e052e5", "fusion_lon": 0.0, "bike_id": "8a80a6e75155096f575b445c90e052e5", "is_disabled": 0, "is_reserved": 0}, {"rental_uris": {"ios": "https://dc.lft.to/lastmile_qr_scan", "android": "https://dc.lft.to/lastmile_qr_scan"}, "lon": -77.03223483333333, "type": "electric_scooter", "fusion_lat": 0.0, "lat": 38.92897116666666, "name": "5fc01470531b449e7d0d8a9a72a18aae", "fusion_lon": 0.0, "bike_id": "5fc01470531b449e7d0d8a9a72a18aae", "is_disabled": 0, "is_reserved": 0}, {"rental_uris": {"ios": "https://dc.lft.to/lastmile_qr_scan", "android": "https://dc.lft.to/lastmile_qr_scan"}, "lon": -76.95764266666667, "type": "electric_bike", "fusion_lat": 0.0, "lat": 38.88419316666667, "name": "697758981e9cb7c90715ffb03cfc7b70", "fusion_lon": 0.0, "bike_id": "697758981e9cb7c90715ffb03cfc7b70", "is_disabled": 0, "is_reserved": 0}, {"rental_uris": {"ios": "https://dc.lft.to/lastmile_qr_scan", "android": "https://dc.lft.to/lastmile_qr_scan"}, "lon": -77.03792716666666, "type": "electric_scooter", "fusion_lat": 0.0, "lat": 38.926335333333334, "name": "0f84e5009d9fbc32911e76a99bbc4269", "fusion_lon": 0.0, "bike_id": "0f84e5009d9fbc32911e76a99bbc4269", "is_disabled": 0, "is_reserved": 0}, {"rental_uris": {"ios": "https://dc.lft.to/lastmile_qr_scan", "android": "https://dc.lft.to/lastmile_qr_scan"}, "lon": -76.93096183333333, "type": "electric_scooter", "fusion_lat": 0.0, "lat": 38.90141766666667, "name": "a233a6a9ba29bb8394d21486ca113f8a", "fusion_lon": 0.0, "bike_id": "a233a6a9ba29bb8394d21486ca113f8a", "is_disabled": 0, "is_reserved": 0}, {"rental_uris": {"ios": "https://dc.lft.to/lastmile_qr_scan", "android": "https://dc.lft.to/lastmile_qr_scan"}, "lon": -77.05351566666667, "type": "electric_scooter", "fusion_lat": 0.0, "lat": 38.90252866666667, "name": "925630d7b9578bec679de4ee27ba01bf", "fusion_lon": 0.0, "bike_id": "925630d7b9578bec679de4ee27ba01bf", "is_disabled": 0, "is_reserved": 0}, {"rental_uris": {"ios": "https://dc.lft.to/lastmile_qr_scan", "android": "https://dc.lft.to/lastmile_qr_scan"}, "lon": -76.98559383333334, "type": "electric_scooter", "fusion_lat": 0.0, "lat": 38.89763583333333, "name": "94c4b6b9cc8de87cb9fe43f64cb73ab0", "fusion_lon": 0.0, "bike_id": "94c4b6b9cc8de87cb9fe43f64cb73ab0", "is_disabled": 0, "is_reserved": 0}, {"rental_uris": {"ios": "https://dc.lft.to/lastmile_qr_scan", "android": "https://dc.lft.to/lastmile_qr_scan"}, "lon": -77.00772833333333, "type": "electric_scooter", "fusion_lat": 0.0, "lat": 38.9111175, "name": "049642122ea96ba31efc6136725593b4", "fusion_lon": 0.0, "bike_id": "049642122ea96ba31efc6136725593b4", "is_disabled": 0, "is_reserved": 0}, {"rental_uris": {"ios": "https://dc.lft.to/lastmile_qr_scan", "android": "https://dc.lft.to/lastmile_qr_scan"}, "lon": -77.03286583333333, "type": "electric_scooter", "fusion_lat": 0.0, "lat": 38.928439833333336, "name": "e7a5601f75e6d441eeeafcba9dce8c8a", "fusion_lon": 0.0, "bike_id": "e7a5601f75e6d441eeeafcba9dce8c8a", "is_disabled": 0, "is_reserved": 0}, {"rental_uris": {"ios": "https://dc.lft.to/lastmile_qr_scan", "android": "https://dc.lft.to/lastmile_qr_scan"}, "lon": -76.9801105, "type": "electric_bike", "fusion_lat": 0.0, "lat": 38.86282333333333, "name": "c4f58beb2c1b29662edb70ba7d9bdb9f", "fusion_lon": 0.0, "bike_id": "c4f58beb2c1b29662edb70ba7d9bdb9f", "is_disabled": 0, "is_reserved": 0}, {"rental_uris": {"ios": "https://dc.lft.to/lastmile_qr_scan", "android": "https://dc.lft.to/lastmile_qr_scan"}, "lon": -77.07237833333333, "type": "electric_scooter", "fusion_lat": 0.0, "lat": 38.93401733333334, "name": "0ff9f27f15644d39413e72cbc3f973f0", "fusion_lon": 0.0, "bike_id": "0ff9f27f15644d39413e72cbc3f973f0", "is_disabled": 0, "is_reserved": 0}, {"rental_uris": {"ios": "https://dc.lft.to/lastmile_qr_scan", "android": "https://dc.lft.to/lastmile_qr_scan"}, "lon": -77.02796533333333, "type": "electric_scooter", "fusion_lat": 0.0, "lat": 38.91816166666667, "name": "dc0efe9314532ffb7845f0a7d52c4901", "fusion_lon": 0.0, "bike_id": "dc0efe9314532ffb7845f0a7d52c4901", "is_disabled": 0, "is_reserved": 0}, {"rental_uris": {"ios": "https://dc.lft.to/lastmile_qr_scan", "android": "https://dc.lft.to/lastmile_qr_scan"}, "lon": -77.0110965, "type": "electric_scooter", "fusion_lat": 0.0, "lat": 38.90358, "name": "23b17347505eaabc2e3492d7fc33cf6b", "fusion_lon": 0.0, "bike_id": "23b17347505eaabc2e3492d7fc33cf6b", "is_disabled": 0, "is_reserved": 0}, {"rental_uris": {"ios": "https://dc.lft.to/lastmile_qr_scan", "android": "https://dc.lft.to/lastmile_qr_scan"}, "lon": -77.03232883333334, "type": "electric_scooter", "fusion_lat": 0.0, "lat": 38.9257405, "name": "4cfc802affda02cc228c195974d76b4c", "fusion_lon": 0.0, "bike_id": "4cfc802affda02cc228c195974d76b4c", "is_disabled": 0, "is_reserved": 0}, {"rental_uris": {"ios": "https://dc.lft.to/lastmile_qr_scan", "android": "https://dc.lft.to/lastmile_qr_scan"}, "lon": -77.03647, "type": "electric_scooter", "fusion_lat": 0.0, "lat": 38.9173195, "name": "4cc78f496bb14e94974e3e4c2984209d", "fusion_lon": 0.0, "bike_id": "4cc78f496bb14e94974e3e4c2984209d", "is_disabled": 0, "is_reserved": 0}, {"rental_uris": {"ios": "https://dc.lft.to/lastmile_qr_scan", "android": "https://dc.lft.to/lastmile_qr_scan"}, "lon": -77.04488666666667, "type": "electric_bike", "fusion_lat": 0.0, "lat": 38.91288433333333, "name": "cdb66cabcefbe7b57f4e48b004ea1efa", "fusion_lon": 0.0, "bike_id": "cdb66cabcefbe7b57f4e48b004ea1efa", "is_disabled": 0, "is_reserved": 0}, {"rental_uris": {"ios": "https://dc.lft.to/lastmile_qr_scan", "android": "https://dc.lft.to/lastmile_qr_scan"}, "lon": -77.02480283333334, "type": "electric_scooter", "fusion_lat": 0.0, "lat": 38.93825566666667, "name": "b942ed62c5de145fbe0af029836144fa", "fusion_lon": 0.0, "bike_id": "b942ed62c5de145fbe0af029836144fa", "is_disabled": 0, "is_reserved": 0}, {"rental_uris": {"ios": "https://dc.lft.to/lastmile_qr_scan", "android": "https://dc.lft.to/lastmile_qr_scan"}, "lon": -76.96526566666667, "type": "electric_scooter", "fusion_lat": 0.0, "lat": 38.87629966666667, "name": "04d7dbb19d96cba1d925e39ce2b467d7", "fusion_lon": 0.0, "bike_id": "04d7dbb19d96cba1d925e39ce2b467d7", "is_disabled": 0, "is_reserved": 0}, {"rental_uris": {"ios": "https://dc.lft.to/lastmile_qr_scan", "android": "https://dc.lft.to/lastmile_qr_scan"}, "lon": -76.94756166666667, "type": "electric_scooter", "fusion_lat": 0.0, "lat": 38.900582166666666, "name": "5ddb8a3f95fde08fc097fc5f23d8ad5c", "fusion_lon": 0.0, "bike_id": "5ddb8a3f95fde08fc097fc5f23d8ad5c", "is_disabled": 0, "is_reserved": 0}, {"rental_uris": {"ios": "https://dc.lft.to/lastmile_qr_scan", "android": "https://dc.lft.to/lastmile_qr_scan"}, "lon": -77.034202, "type": "electric_scooter", "fusion_lat": 0.0, "lat": 38.93541733333333, "name": "3ff8655a336415544e9bac16d147a158", "fusion_lon": 0.0, "bike_id": "3ff8655a336415544e9bac16d147a158", "is_disabled": 0, "is_reserved": 0}, {"rental_uris": {"ios": "https://dc.lft.to/lastmile_qr_scan", "android": "https://dc.lft.to/lastmile_qr_scan"}, "lon": -77.01263, "type": "electric_scooter", "fusion_lat": 0.0, "lat": 38.900438666666666, "name": "ee43680ec7b94efb134d14e17c27dd0d", "fusion_lon": 0.0, "bike_id": "ee43680ec7b94efb134d14e17c27dd0d", "is_disabled": 0, "is_reserved": 0}, {"rental_uris": {"ios": "https://dc.lft.to/lastmile_qr_scan", "android": "https://dc.lft.to/lastmile_qr_scan"}, "lon": -77.03345183333333, "type": "electric_scooter", "fusion_lat": 0.0, "lat": 38.9342445, "name": "9bf1d3ccd3d5ff1e236a12e7c151c45e", "fusion_lon": 0.0, "bike_id": "9bf1d3ccd3d5ff1e236a12e7c151c45e", "is_disabled": 0, "is_reserved": 0}, {"rental_uris": {"ios": "https://dc.lft.to/lastmile_qr_scan", "android": "https://dc.lft.to/lastmile_qr_scan"}, "lon": -77.04236783333333, "type": "electric_scooter", "fusion_lat": 0.0, "lat": 38.905814166666666, "name": "f3dc33dd366eccc73b9956d6814a87f2", "fusion_lon": 0.0, "bike_id": "f3dc33dd366eccc73b9956d6814a87f2", "is_disabled": 0, "is_reserved": 0}, {"rental_uris": {"ios": "https://dc.lft.to/lastmile_qr_scan", "android": "https://dc.lft.to/lastmile_qr_scan"}, "lon": -77.01701216666666, "type": "electric_scooter", "fusion_lat": 0.0, "lat": 38.920306833333335, "name": "a002d76fccf3032075fae6dfbb2b2031", "fusion_lon": 0.0, "bike_id": "a002d76fccf3032075fae6dfbb2b2031", "is_disabled": 0, "is_reserved": 0}, {"rental_uris": {"ios": "https://dc.lft.to/lastmile_qr_scan", "android": "https://dc.lft.to/lastmile_qr_scan"}, "lon": -77.02858883333333, "type": "electric_scooter", "fusion_lat": 0.0, "lat": 38.9281975, "name": "ba910eded65e85da27220105566cfe40", "fusion_lon": 0.0, "bike_id": "ba910eded65e85da27220105566cfe40", "is_disabled": 0, "is_reserved": 0}, {"rental_uris": {"ios": "https://dc.lft.to/lastmile_qr_scan", "android": "https://dc.lft.to/lastmile_qr_scan"}, "lon": -77.02358616666666, "type": "electric_scooter", "fusion_lat": 0.0, "lat": 38.925041, "name": "a9c322f545669d918792693f97b8d596", "fusion_lon": 0.0, "bike_id": "a9c322f545669d918792693f97b8d596", "is_disabled": 0, "is_reserved": 0}, {"rental_uris": {"ios": "https://dc.lft.to/lastmile_qr_scan", "android": "https://dc.lft.to/lastmile_qr_scan"}, "lon": -77.0225905, "type": "electric_scooter", "fusion_lat": 0.0, "lat": 38.924607, "name": "024ad8f22b874a64a7010a65c0fb362e", "fusion_lon": 0.0, "bike_id": "024ad8f22b874a64a7010a65c0fb362e", "is_disabled": 0, "is_reserved": 0}, {"rental_uris": {"ios": "https://dc.lft.to/lastmile_qr_scan", "android": "https://dc.lft.to/lastmile_qr_scan"}, "lon": -77.04807633333333, "type": "electric_scooter", "fusion_lat": 0.0, "lat": 38.92044516666667, "name": "1bb94016060b82db464bcce2a70d21c2", "fusion_lon": 0.0, "bike_id": "1bb94016060b82db464bcce2a70d21c2", "is_disabled": 0, "is_reserved": 0}, {"rental_uris": {"ios": "https://dc.lft.to/lastmile_qr_scan", "android": "https://dc.lft.to/lastmile_qr_scan"}, "lon": -77.05805333333333, "type": "electric_scooter", "fusion_lat": 0.0, "lat": 38.902947166666664, "name": "3ae3f5a94b2053ba128b47bffbae5f51", "fusion_lon": 0.0, "bike_id": "3ae3f5a94b2053ba128b47bffbae5f51", "is_disabled": 0, "is_reserved": 0}, {"rental_uris": {"ios": "https://dc.lft.to/lastmile_qr_scan", "android": "https://dc.lft.to/lastmile_qr_scan"}, "lon": -77.035663, "type": "electric_scooter", "fusion_lat": 0.0, "lat": 38.918107, "name": "ad19ad068a12b5f9d4b03f19ba4bcdb7", "fusion_lon": 0.0, "bike_id": "ad19ad068a12b5f9d4b03f19ba4bcdb7", "is_disabled": 0, "is_reserved": 0}, {"rental_uris": {"ios": "https://dc.lft.to/lastmile_qr_scan", "android": "https://dc.lft.to/lastmile_qr_scan"}, "lon": -77.033755, "type": "electric_scooter", "fusion_lat": 0.0, "lat": 38.914176, "name": "5fcb33e627a19f2033027e555d6d36ff", "fusion_lon": 0.0, "bike_id": "5fcb33e627a19f2033027e555d6d36ff", "is_disabled": 0, "is_reserved": 0}, {"rental_uris": {"ios": "https://dc.lft.to/lastmile_qr_scan", "android": "https://dc.lft.to/lastmile_qr_scan"}, "lon": -77.030894, "type": "electric_scooter", "fusion_lat": 0.0, "lat": 38.92242233333333, "name": "d8db2ce9f1bc4c92f9f099b2e4eb0f00", "fusion_lon": 0.0, "bike_id": "d8db2ce9f1bc4c92f9f099b2e4eb0f00", "is_disabled": 0, "is_reserved": 0}, {"rental_uris": {"ios": "https://dc.lft.to/lastmile_qr_scan", "android": "https://dc.lft.to/lastmile_qr_scan"}, "lon": -76.9955215, "type": "electric_scooter", "fusion_lat": 0.0, "lat": 38.923203666666666, "name": "0bad2d2e293b098c4958422e02084bd6", "fusion_lon": 0.0, "bike_id": "0bad2d2e293b098c4958422e02084bd6", "is_disabled": 0, "is_reserved": 0}, {"rental_uris": {"ios": "https://dc.lft.to/lastmile_qr_scan", "android": "https://dc.lft.to/lastmile_qr_scan"}, "lon": -77.0010885, "type": "electric_scooter", "fusion_lat": 0.0, "lat": 38.87323933333333, "name": "d7515efcd208bf7bb9b939f822a3f213", "fusion_lon": 0.0, "bike_id": "d7515efcd208bf7bb9b939f822a3f213", "is_disabled": 0, "is_reserved": 0}, {"rental_uris": {"ios": "https://dc.lft.to/lastmile_qr_scan", "android": "https://dc.lft.to/lastmile_qr_scan"}, "lon": -76.935437, "type": "electric_bike", "fusion_lat": 0.0, "lat": 38.9518585, "name": "201e7e0c21795e13873ae86f7dedd369", "fusion_lon": 0.0, "bike_id": "201e7e0c21795e13873ae86f7dedd369", "is_disabled": 0, "is_reserved": 0}, {"rental_uris": {"ios": "https://dc.lft.to/lastmile_qr_scan", "android": "https://dc.lft.to/lastmile_qr_scan"}, "lon": -77.04811283333333, "type": "electric_scooter", "fusion_lat": 0.0, "lat": 38.89728366666667, "name": "e645d2842750b069d0de31131fd4ce6f", "fusion_lon": 0.0, "bike_id": "e645d2842750b069d0de31131fd4ce6f", "is_disabled": 0, "is_reserved": 0}, {"rental_uris": {"ios": "https://dc.lft.to/lastmile_qr_scan", "android": "https://dc.lft.to/lastmile_qr_scan"}, "lon": -77.05684183333334, "type": "electric_scooter", "fusion_lat": 0.0, "lat": 38.9370235, "name": "10df51184c3e29a1d115bf4d792b5179", "fusion_lon": 0.0, "bike_id": "10df51184c3e29a1d115bf4d792b5179", "is_disabled": 0, "is_reserved": 0}, {"rental_uris": {"ios": "https://dc.lft.to/lastmile_qr_scan", "android": "https://dc.lft.to/lastmile_qr_scan"}, "lon": -77.050937, "type": "electric_bike", "fusion_lat": 0.0, "lat": 38.81336783333333, "name": "e7b86f4e252210a86d36b53a4a040ef2", "fusion_lon": 0.0, "bike_id": "e7b86f4e252210a86d36b53a4a040ef2", "is_disabled": 0, "is_reserved": 0}, {"rental_uris": {"ios": "https://dc.lft.to/lastmile_qr_scan", "android": "https://dc.lft.to/lastmile_qr_scan"}, "lon": -76.97330216666667, "type": "electric_scooter", "fusion_lat": 0.0, "lat": 38.904803333333334, "name": "8b791c308e46be4ab581135edd5b3f60", "fusion_lon": 0.0, "bike_id": "8b791c308e46be4ab581135edd5b3f60", "is_disabled": 0, "is_reserved": 0}, {"rental_uris": {"ios": "https://dc.lft.to/lastmile_qr_scan", "android": "https://dc.lft.to/lastmile_qr_scan"}, "lon": -76.9679215, "type": "electric_scooter", "fusion_lat": 0.0, "lat": 38.86140833333333, "name": "15c24333456a5b1286761a082479b4e2", "fusion_lon": 0.0, "bike_id": "15c24333456a5b1286761a082479b4e2", "is_disabled": 0, "is_reserved": 0}, {"rental_uris": {"ios": "https://dc.lft.to/lastmile_qr_scan", "android": "https://dc.lft.to/lastmile_qr_scan"}, "lon": -77.0502775, "type": "electric_scooter", "fusion_lat": 0.0, "lat": 38.89654683333333, "name": "ce36c20d429c22f6b1bf4c686b39462e", "fusion_lon": 0.0, "bike_id": "ce36c20d429c22f6b1bf4c686b39462e", "is_disabled": 0, "is_reserved": 0}, {"rental_uris": {"ios": "https://dc.lft.to/lastmile_qr_scan", "android": "https://dc.lft.to/lastmile_qr_scan"}, "lon": -77.03457766666666, "type": "electric_scooter", "fusion_lat": 0.0, "lat": 38.9027585, "name": "b135d94e15e39255b91b23f69e674470", "fusion_lon": 0.0, "bike_id": "b135d94e15e39255b91b23f69e674470", "is_disabled": 0, "is_reserved": 0}, {"rental_uris": {"ios": "https://dc.lft.to/lastmile_qr_scan", "android": "https://dc.lft.to/lastmile_qr_scan"}, "lon": -77.03318683333333, "type": "electric_scooter", "fusion_lat": 0.0, "lat": 38.9216745, "name": "82fcb10f08c268a48b6c7d55d9255495", "fusion_lon": 0.0, "bike_id": "82fcb10f08c268a48b6c7d55d9255495", "is_disabled": 0, "is_reserved": 0}, {"rental_uris": {"ios": "https://dc.lft.to/lastmile_qr_scan", "android": "https://dc.lft.to/lastmile_qr_scan"}, "lon": -77.00233683333333, "type": "electric_scooter", "fusion_lat": 0.0, "lat": 38.90541283333334, "name": "51e6d289811ac678d50570a3604a5417", "fusion_lon": 0.0, "bike_id": "51e6d289811ac678d50570a3604a5417", "is_disabled": 0, "is_reserved": 0}, {"rental_uris": {"ios": "https://dc.lft.to/lastmile_qr_scan", "android": "https://dc.lft.to/lastmile_qr_scan"}, "lon": -77.1142555, "type": "electric_bike", "fusion_lat": 0.0, "lat": 38.852441166666665, "name": "710b47d09ea76ef78ec14d1cd1170302", "fusion_lon": 0.0, "bike_id": "710b47d09ea76ef78ec14d1cd1170302", "is_disabled": 0, "is_reserved": 0}, {"rental_uris": {"ios": "https://dc.lft.to/lastmile_qr_scan", "android": "https://dc.lft.to/lastmile_qr_scan"}, "lon": -76.98418033333333, "type": "electric_scooter", "fusion_lat": 0.0, "lat": 38.913949833333334, "name": "22ff09f29804a0d53bd49b844d26eeae", "fusion_lon": 0.0, "bike_id": "22ff09f29804a0d53bd49b844d26eeae", "is_disabled": 0, "is_reserved": 0}, {"rental_uris": {"ios": "https://dc.lft.to/lastmile_qr_scan", "android": "https://dc.lft.to/lastmile_qr_scan"}, "lon": -77.03180116666667, "type": "electric_scooter", "fusion_lat": 0.0, "lat": 38.899536499999996, "name": "23c699046ed885b452832b3a328a88da", "fusion_lon": 0.0, "bike_id": "23c699046ed885b452832b3a328a88da", "is_disabled": 0, "is_reserved": 0}, {"rental_uris": {"ios": "https://dc.lft.to/lastmile_qr_scan", "android": "https://dc.lft.to/lastmile_qr_scan"}, "lon": -76.99384516666667, "type": "electric_scooter", "fusion_lat": 0.0, "lat": 38.88723816666667, "name": "db7efa04481e075be8a8afdba156e4ee", "fusion_lon": 0.0, "bike_id": "db7efa04481e075be8a8afdba156e4ee", "is_disabled": 0, "is_reserved": 0}, {"rental_uris": {"ios": "https://dc.lft.to/lastmile_qr_scan", "android": "https://dc.lft.to/lastmile_qr_scan"}, "lon": -77.02695733333333, "type": "electric_scooter", "fusion_lat": 0.0, "lat": 38.9084625, "name": "6caf379fbdc88599003c0704dec1cd7c", "fusion_lon": 0.0, "bike_id": "6caf379fbdc88599003c0704dec1cd7c", "is_disabled": 0, "is_reserved": 0}, {"rental_uris": {"ios": "https://dc.lft.to/lastmile_qr_scan", "android": "https://dc.lft.to/lastmile_qr_scan"}, "lon": -77.03641616666667, "type": "electric_scooter", "fusion_lat": 0.0, "lat": 38.918135666666664, "name": "a1ee61867aabdd1dc3917e35dbe17c53", "fusion_lon": 0.0, "bike_id": "a1ee61867aabdd1dc3917e35dbe17c53", "is_disabled": 0, "is_reserved": 0}, {"rental_uris": {"ios": "https://dc.lft.to/lastmile_qr_scan", "android": "https://dc.lft.to/lastmile_qr_scan"}, "lon": -77.00294783333334, "type": "electric_scooter", "fusion_lat": 0.0, "lat": 38.909183166666665, "name": "647289c9454c84c3f8f6cf618fd761a8", "fusion_lon": 0.0, "bike_id": "647289c9454c84c3f8f6cf618fd761a8", "is_disabled": 0, "is_reserved": 0}, {"rental_uris": {"ios": "https://dc.lft.to/lastmile_qr_scan", "android": "https://dc.lft.to/lastmile_qr_scan"}, "lon": -77.07494633333333, "type": "electric_scooter", "fusion_lat": 0.0, "lat": 38.914872, "name": "4f426125fedaba5ceccd2d7bb742e8d0", "fusion_lon": 0.0, "bike_id": "4f426125fedaba5ceccd2d7bb742e8d0", "is_disabled": 0, "is_reserved": 0}, {"rental_uris": {"ios": "https://dc.lft.to/lastmile_qr_scan", "android": "https://dc.lft.to/lastmile_qr_scan"}, "lon": -77.0310255, "type": "electric_scooter", "fusion_lat": 0.0, "lat": 38.90434966666667, "name": "0012d13b37259a2ebeb434adc398009a", "fusion_lon": 0.0, "bike_id": "0012d13b37259a2ebeb434adc398009a", "is_disabled": 0, "is_reserved": 0}, {"rental_uris": {"ios": "https://dc.lft.to/lastmile_qr_scan", "android": "https://dc.lft.to/lastmile_qr_scan"}, "lon": -77.04125166666667, "type": "electric_scooter", "fusion_lat": 0.0, "lat": 38.923447333333336, "name": "5ae6b484a84d8d65c01d0b69325fd54b", "fusion_lon": 0.0, "bike_id": "5ae6b484a84d8d65c01d0b69325fd54b", "is_disabled": 0, "is_reserved": 0}, {"rental_uris": {"ios": "https://dc.lft.to/lastmile_qr_scan", "android": "https://dc.lft.to/lastmile_qr_scan"}, "lon": -77.02576983333333, "type": "electric_scooter", "fusion_lat": 0.0, "lat": 38.91815666666667, "name": "5960b7ccc33584b3d33a45a3c3cda39e", "fusion_lon": 0.0, "bike_id": "5960b7ccc33584b3d33a45a3c3cda39e", "is_disabled": 0, "is_reserved": 0}, {"rental_uris": {"ios": "https://dc.lft.to/lastmile_qr_scan", "android": "https://dc.lft.to/lastmile_qr_scan"}, "lon": -77.04791533333334, "type": "electric_scooter", "fusion_lat": 0.0, "lat": 38.907280166666666, "name": "9fe5455cd2f9a64556734ee2c5562949", "fusion_lon": 0.0, "bike_id": "9fe5455cd2f9a64556734ee2c5562949", "is_disabled": 0, "is_reserved": 0}, {"rental_uris": {"ios": "https://dc.lft.to/lastmile_qr_scan", "android": "https://dc.lft.to/lastmile_qr_scan"}, "lon": -77.02334633333334, "type": "electric_scooter", "fusion_lat": 0.0, "lat": 38.9304915, "name": "7bcf6f6ff78f7b7b006821ed48eda7cc", "fusion_lon": 0.0, "bike_id": "7bcf6f6ff78f7b7b006821ed48eda7cc", "is_disabled": 0, "is_reserved": 0}, {"rental_uris": {"ios": "https://dc.lft.to/lastmile_qr_scan", "android": "https://dc.lft.to/lastmile_qr_scan"}, "lon": -77.02419083333334, "type": "electric_scooter", "fusion_lat": 0.0, "lat": 38.91820166666667, "name": "a82eb770cc4a205d620cbc538d1b93ef", "fusion_lon": 0.0, "bike_id": "a82eb770cc4a205d620cbc538d1b93ef", "is_disabled": 0, "is_reserved": 0}, {"rental_uris": {"ios": "https://dc.lft.to/lastmile_qr_scan", "android": "https://dc.lft.to/lastmile_qr_scan"}, "lon": -76.97327616666666, "type": "electric_bike", "fusion_lat": 0.0, "lat": 38.8506495, "name": "5317ff5f1b372f4b75f4012661467888", "fusion_lon": 0.0, "bike_id": "5317ff5f1b372f4b75f4012661467888", "is_disabled": 0, "is_reserved": 0}, {"rental_uris": {"ios": "https://dc.lft.to/lastmile_qr_scan", "android": "https://dc.lft.to/lastmile_qr_scan"}, "lon": -77.05032783333333, "type": "electric_scooter", "fusion_lat": 0.0, "lat": 38.89651083333333, "name": "7435411125fcb27158373ab4be704a86", "fusion_lon": 0.0, "bike_id": "7435411125fcb27158373ab4be704a86", "is_disabled": 0, "is_reserved": 0}, {"rental_uris": {"ios": "https://dc.lft.to/lastmile_qr_scan", "android": "https://dc.lft.to/lastmile_qr_scan"}, "lon": -77.04587816666667, "type": "electric_scooter", "fusion_lat": 0.0, "lat": 38.902311833333336, "name": "05a035742937e6e884d1496e5cf9129e", "fusion_lon": 0.0, "bike_id": "05a035742937e6e884d1496e5cf9129e", "is_disabled": 0, "is_reserved": 0}, {"rental_uris": {"ios": "https://dc.lft.to/lastmile_qr_scan", "android": "https://dc.lft.to/lastmile_qr_scan"}, "lon": -77.05268533333333, "type": "electric_scooter", "fusion_lat": 0.0, "lat": 38.910098, "name": "3dc697c8463dac72482bc80719e28636", "fusion_lon": 0.0, "bike_id": "3dc697c8463dac72482bc80719e28636", "is_disabled": 0, "is_reserved": 0}, {"rental_uris": {"ios": "https://dc.lft.to/lastmile_qr_scan", "android": "https://dc.lft.to/lastmile_qr_scan"}, "lon": -77.03807983333333, "type": "electric_scooter", "fusion_lat": 0.0, "lat": 38.9218795, "name": "414d04ea85a1eb137e256442e5883b93", "fusion_lon": 0.0, "bike_id": "414d04ea85a1eb137e256442e5883b93", "is_disabled": 0, "is_reserved": 0}, {"rental_uris": {"ios": "https://dc.lft.to/lastmile_qr_scan", "android": "https://dc.lft.to/lastmile_qr_scan"}, "lon": -77.03958133333333, "type": "electric_scooter", "fusion_lat": 0.0, "lat": 38.90287416666666, "name": "aff17917bae27001388621c9fb457ac4", "fusion_lon": 0.0, "bike_id": "aff17917bae27001388621c9fb457ac4", "is_disabled": 0, "is_reserved": 0}, {"rental_uris": {"ios": "https://dc.lft.to/lastmile_qr_scan", "android": "https://dc.lft.to/lastmile_qr_scan"}, "lon": -77.03672, "type": "electric_scooter", "fusion_lat": 0.0, "lat": 38.929911833333335, "name": "900f97f228c0e49294de78cbaf0e4767", "fusion_lon": 0.0, "bike_id": "900f97f228c0e49294de78cbaf0e4767", "is_disabled": 0, "is_reserved": 0}, {"rental_uris": {"ios": "https://dc.lft.to/lastmile_qr_scan", "android": "https://dc.lft.to/lastmile_qr_scan"}, "lon": -77.024544, "type": "electric_scooter", "fusion_lat": 0.0, "lat": 38.979361, "name": "b466abc630a3ee7143add29d9aaa5dd4", "fusion_lon": 0.0, "bike_id": "b466abc630a3ee7143add29d9aaa5dd4", "is_disabled": 0, "is_reserved": 0}, {"rental_uris": {"ios": "https://dc.lft.to/lastmile_qr_scan", "android": "https://dc.lft.to/lastmile_qr_scan"}, "lon": -77.02657833333333, "type": "electric_bike", "fusion_lat": 0.0, "lat": 38.9056125, "name": "e2d301a5e88997d0d3ae6ad82138bc67", "fusion_lon": 0.0, "bike_id": "e2d301a5e88997d0d3ae6ad82138bc67", "is_disabled": 0, "is_reserved": 0}, {"rental_uris": {"ios": "https://dc.lft.to/lastmile_qr_scan", "android": "https://dc.lft.to/lastmile_qr_scan"}, "lon": -76.97224866666667, "type": "electric_bike", "fusion_lat": 0.0, "lat": 38.844847666666666, "name": "544c33d3c289342850f6ca0efda3c444", "fusion_lon": 0.0, "bike_id": "544c33d3c289342850f6ca0efda3c444", "is_disabled": 0, "is_reserved": 0}, {"rental_uris": {"ios": "https://dc.lft.to/lastmile_qr_scan", "android": "https://dc.lft.to/lastmile_qr_scan"}, "lon": -77.03218033333333, "type": "electric_scooter", "fusion_lat": 0.0, "lat": 38.933783166666664, "name": "329c6a385f8bde8748d9d1fc13a82047", "fusion_lon": 0.0, "bike_id": "329c6a385f8bde8748d9d1fc13a82047", "is_disabled": 0, "is_reserved": 0}, {"rental_uris": {"ios": "https://dc.lft.to/lastmile_qr_scan", "android": "https://dc.lft.to/lastmile_qr_scan"}, "lon": -76.94437516666666, "type": "electric_bike", "fusion_lat": 0.0, "lat": 38.90298633333333, "name": "c6c09533c9603b5bfa471bb0f1a5aa3a", "fusion_lon": 0.0, "bike_id": "c6c09533c9603b5bfa471bb0f1a5aa3a", "is_disabled": 0, "is_reserved": 0}, {"rental_uris": {"ios": "https://dc.lft.to/lastmile_qr_scan", "android": "https://dc.lft.to/lastmile_qr_scan"}, "lon": -77.01119733333333, "type": "electric_scooter", "fusion_lat": 0.0, "lat": 38.912671, "name": "79cb1dc75bb78b225c2d6e035756ad7e", "fusion_lon": 0.0, "bike_id": "79cb1dc75bb78b225c2d6e035756ad7e", "is_disabled": 0, "is_reserved": 0}, {"rental_uris": {"ios": "https://dc.lft.to/lastmile_qr_scan", "android": "https://dc.lft.to/lastmile_qr_scan"}, "lon": -77.03302733333334, "type": "electric_scooter", "fusion_lat": 0.0, "lat": 38.918052833333334, "name": "58ea1a3b23fa22c59b2f87e3cb813153", "fusion_lon": 0.0, "bike_id": "58ea1a3b23fa22c59b2f87e3cb813153", "is_disabled": 0, "is_reserved": 0}, {"rental_uris": {"ios": "https://dc.lft.to/lastmile_qr_scan", "android": "https://dc.lft.to/lastmile_qr_scan"}, "lon": -77.03502816666666, "type": "electric_scooter", "fusion_lat": 0.0, "lat": 38.9187885, "name": "5d46eb109c74fe33873f7bc8b487ab6f", "fusion_lon": 0.0, "bike_id": "5d46eb109c74fe33873f7bc8b487ab6f", "is_disabled": 0, "is_reserved": 0}, {"rental_uris": {"ios": "https://dc.lft.to/lastmile_qr_scan", "android": "https://dc.lft.to/lastmile_qr_scan"}, "lon": -77.0239645, "type": "electric_scooter", "fusion_lat": 0.0, "lat": 38.934997333333335, "name": "29cab09bdd13524af62279b96045856a", "fusion_lon": 0.0, "bike_id": "29cab09bdd13524af62279b96045856a", "is_disabled": 0, "is_reserved": 0}, {"rental_uris": {"ios": "https://dc.lft.to/lastmile_qr_scan", "android": "https://dc.lft.to/lastmile_qr_scan"}, "lon": -77.00575, "type": "electric_scooter", "fusion_lat": 0.0, "lat": 38.905544, "name": "e6c49ceb654bc0ab7b64fde58bdfeb90", "fusion_lon": 0.0, "bike_id": "e6c49ceb654bc0ab7b64fde58bdfeb90", "is_disabled": 0, "is_reserved": 0}, {"rental_uris": {"ios": "https://dc.lft.to/lastmile_qr_scan", "android": "https://dc.lft.to/lastmile_qr_scan"}, "lon": -77.0440195, "type": "electric_scooter", "fusion_lat": 0.0, "lat": 38.920151833333335, "name": "3f03579dd24df854d3fa965ea2b1899d", "fusion_lon": 0.0, "bike_id": "3f03579dd24df854d3fa965ea2b1899d", "is_disabled": 0, "is_reserved": 0}, {"rental_uris": {"ios": "https://dc.lft.to/lastmile_qr_scan", "android": "https://dc.lft.to/lastmile_qr_scan"}, "lon": -77.0350165, "type": "electric_scooter", "fusion_lat": 0.0, "lat": 38.91701616666667, "name": "58be0fcf0d1274dba7208cbd712e5483", "fusion_lon": 0.0, "bike_id": "58be0fcf0d1274dba7208cbd712e5483", "is_disabled": 0, "is_reserved": 0}, {"rental_uris": {"ios": "https://dc.lft.to/lastmile_qr_scan", "android": "https://dc.lft.to/lastmile_qr_scan"}, "lon": -76.98187016666667, "type": "electric_scooter", "fusion_lat": 0.0, "lat": 38.89579233333333, "name": "870970ff2af0b93758a06548cfb7e7b7", "fusion_lon": 0.0, "bike_id": "870970ff2af0b93758a06548cfb7e7b7", "is_disabled": 0, "is_reserved": 0}, {"rental_uris": {"ios": "https://dc.lft.to/lastmile_qr_scan", "android": "https://dc.lft.to/lastmile_qr_scan"}, "lon": -77.00975533333333, "type": "electric_scooter", "fusion_lat": 0.0, "lat": 38.91923766666667, "name": "7973fcbe35dfd6c01e17df454fe63ca8", "fusion_lon": 0.0, "bike_id": "7973fcbe35dfd6c01e17df454fe63ca8", "is_disabled": 0, "is_reserved": 0}, {"rental_uris": {"ios": "https://dc.lft.to/lastmile_qr_scan", "android": "https://dc.lft.to/lastmile_qr_scan"}, "lon": -77.01303633333333, "type": "electric_scooter", "fusion_lat": 0.0, "lat": 38.921182333333334, "name": "64012fdb5948bcf4539a2c13c060708e", "fusion_lon": 0.0, "bike_id": "64012fdb5948bcf4539a2c13c060708e", "is_disabled": 0, "is_reserved": 0}, {"rental_uris": {"ios": "https://dc.lft.to/lastmile_qr_scan", "android": "https://dc.lft.to/lastmile_qr_scan"}, "lon": -77.023597, "type": "electric_scooter", "fusion_lat": 0.0, "lat": 38.92502783333333, "name": "2ff62308df4b723811b55f57f73f7d8e", "fusion_lon": 0.0, "bike_id": "2ff62308df4b723811b55f57f73f7d8e", "is_disabled": 0, "is_reserved": 0}, {"rental_uris": {"ios": "https://dc.lft.to/lastmile_qr_scan", "android": "https://dc.lft.to/lastmile_qr_scan"}, "lon": -76.90939933333334, "type": "electric_bike", "fusion_lat": 0.0, "lat": 38.85418933333333, "name": "6bb1b3a5620005797abc57a48aa8db3e", "fusion_lon": 0.0, "bike_id": "6bb1b3a5620005797abc57a48aa8db3e", "is_disabled": 0, "is_reserved": 0}, {"rental_uris": {"ios": "https://dc.lft.to/lastmile_qr_scan", "android": "https://dc.lft.to/lastmile_qr_scan"}, "lon": -76.9489315, "type": "electric_scooter", "fusion_lat": 0.0, "lat": 38.89529666666667, "name": "0608805be7c48f5a0b9bfca138c56e53", "fusion_lon": 0.0, "bike_id": "0608805be7c48f5a0b9bfca138c56e53", "is_disabled": 0, "is_reserved": 0}, {"rental_uris": {"ios": "https://dc.lft.to/lastmile_qr_scan", "android": "https://dc.lft.to/lastmile_qr_scan"}, "lon": -77.03684666666666, "type": "electric_scooter", "fusion_lat": 0.0, "lat": 38.93942083333334, "name": "e5c3fb46327e88b05cc4a6c6b9cce10f", "fusion_lon": 0.0, "bike_id": "e5c3fb46327e88b05cc4a6c6b9cce10f", "is_disabled": 0, "is_reserved": 0}, {"rental_uris": {"ios": "https://dc.lft.to/lastmile_qr_scan", "android": "https://dc.lft.to/lastmile_qr_scan"}, "lon": -77.02733383333333, "type": "electric_scooter", "fusion_lat": 0.0, "lat": 38.91698316666667, "name": "acd8387e1f7d5656ab571f7a85970cd4", "fusion_lon": 0.0, "bike_id": "acd8387e1f7d5656ab571f7a85970cd4", "is_disabled": 0, "is_reserved": 0}, {"rental_uris": {"ios": "https://dc.lft.to/lastmile_qr_scan", "android": "https://dc.lft.to/lastmile_qr_scan"}, "lon": -77.06608816666666, "type": "electric_bike", "fusion_lat": 0.0, "lat": 38.91129733333333, "name": "730c01bbb76c5bc9c919abb64b695555", "fusion_lon": 0.0, "bike_id": "730c01bbb76c5bc9c919abb64b695555", "is_disabled": 0, "is_reserved": 0}, {"rental_uris": {"ios": "https://dc.lft.to/lastmile_qr_scan", "android": "https://dc.lft.to/lastmile_qr_scan"}, "lon": -77.02849816666667, "type": "electric_scooter", "fusion_lat": 0.0, "lat": 38.92375333333333, "name": "25a4eed288c3568862c4778b2daf9dc4", "fusion_lon": 0.0, "bike_id": "25a4eed288c3568862c4778b2daf9dc4", "is_disabled": 0, "is_reserved": 0}, {"rental_uris": {"ios": "https://dc.lft.to/lastmile_qr_scan", "android": "https://dc.lft.to/lastmile_qr_scan"}, "lon": -77.0471815, "type": "electric_scooter", "fusion_lat": 0.0, "lat": 38.90858883333333, "name": "eeaf0431123eac2624bd7151a8c085a1", "fusion_lon": 0.0, "bike_id": "eeaf0431123eac2624bd7151a8c085a1", "is_disabled": 0, "is_reserved": 0}, {"rental_uris": {"ios": "https://dc.lft.to/lastmile_qr_scan", "android": "https://dc.lft.to/lastmile_qr_scan"}, "lon": -77.06693266666667, "type": "electric_scooter", "fusion_lat": 0.0, "lat": 38.9098525, "name": "885d38e702cddabbbedd759650a8a535", "fusion_lon": 0.0, "bike_id": "885d38e702cddabbbedd759650a8a535", "is_disabled": 0, "is_reserved": 0}, {"rental_uris": {"ios": "https://dc.lft.to/lastmile_qr_scan", "android": "https://dc.lft.to/lastmile_qr_scan"}, "lon": -77.0352245, "type": "electric_scooter", "fusion_lat": 0.0, "lat": 38.92324166666667, "name": "3e570bb820332851f6ce05f2b54f8455", "fusion_lon": 0.0, "bike_id": "3e570bb820332851f6ce05f2b54f8455", "is_disabled": 0, "is_reserved": 0}, {"rental_uris": {"ios": "https://dc.lft.to/lastmile_qr_scan", "android": "https://dc.lft.to/lastmile_qr_scan"}, "lon": -77.03872333333334, "type": "electric_scooter", "fusion_lat": 0.0, "lat": 38.91553833333333, "name": "7022f7b4d96454f0917865c2811a0116", "fusion_lon": 0.0, "bike_id": "7022f7b4d96454f0917865c2811a0116", "is_disabled": 0, "is_reserved": 0}, {"rental_uris": {"ios": "https://dc.lft.to/lastmile_qr_scan", "android": "https://dc.lft.to/lastmile_qr_scan"}, "lon": -77.03962816666666, "type": "electric_scooter", "fusion_lat": 0.0, "lat": 38.91634333333333, "name": "2acfe0b304b7600ce963066d10118506", "fusion_lon": 0.0, "bike_id": "2acfe0b304b7600ce963066d10118506", "is_disabled": 0, "is_reserved": 0}, {"rental_uris": {"ios": "https://dc.lft.to/lastmile_qr_scan", "android": "https://dc.lft.to/lastmile_qr_scan"}, "lon": -77.02934383333333, "type": "electric_scooter", "fusion_lat": 0.0, "lat": 38.905140833333334, "name": "740760eee1a6a30a61b89165ab437fde", "fusion_lon": 0.0, "bike_id": "740760eee1a6a30a61b89165ab437fde", "is_disabled": 0, "is_reserved": 0}, {"rental_uris": {"ios": "https://dc.lft.to/lastmile_qr_scan", "android": "https://dc.lft.to/lastmile_qr_scan"}, "lon": -76.99034983333334, "type": "electric_scooter", "fusion_lat": 0.0, "lat": 38.858738333333335, "name": "6543ebb7333687f46e1fe54d7f781221", "fusion_lon": 0.0, "bike_id": "6543ebb7333687f46e1fe54d7f781221", "is_disabled": 0, "is_reserved": 0}, {"rental_uris": {"ios": "https://dc.lft.to/lastmile_qr_scan", "android": "https://dc.lft.to/lastmile_qr_scan"}, "lon": -77.00917733333333, "type": "electric_scooter", "fusion_lat": 0.0, "lat": 38.9124065, "name": "61a107a00d08042391d965c302824029", "fusion_lon": 0.0, "bike_id": "61a107a00d08042391d965c302824029", "is_disabled": 0, "is_reserved": 0}, {"rental_uris": {"ios": "https://dc.lft.to/lastmile_qr_scan", "android": "https://dc.lft.to/lastmile_qr_scan"}, "lon": -76.97613333333334, "type": "electric_bike", "fusion_lat": 0.0, "lat": 38.91308316666667, "name": "de062a567ef05da5218ec7f85ad2440d", "fusion_lon": 0.0, "bike_id": "de062a567ef05da5218ec7f85ad2440d", "is_disabled": 0, "is_reserved": 0}, {"rental_uris": {"ios": "https://dc.lft.to/lastmile_qr_scan", "android": "https://dc.lft.to/lastmile_qr_scan"}, "lon": -76.99505533333334, "type": "electric_scooter", "fusion_lat": 0.0, "lat": 38.899605333333334, "name": "bc55d7eb0e680e601e6883fb707aa308", "fusion_lon": 0.0, "bike_id": "bc55d7eb0e680e601e6883fb707aa308", "is_disabled": 0, "is_reserved": 0}, {"rental_uris": {"ios": "https://dc.lft.to/lastmile_qr_scan", "android": "https://dc.lft.to/lastmile_qr_scan"}, "lon": -77.353078, "type": "electric_bike", "fusion_lat": 0.0, "lat": 38.94994766666667, "name": "ed49c3a1679b911517fded20e187d5e4", "fusion_lon": 0.0, "bike_id": "ed49c3a1679b911517fded20e187d5e4", "is_disabled": 0, "is_reserved": 0}, {"rental_uris": {"ios": "https://dc.lft.to/lastmile_qr_scan", "android": "https://dc.lft.to/lastmile_qr_scan"}, "lon": -76.98727833333334, "type": "electric_scooter", "fusion_lat": 0.0, "lat": 38.8842115, "name": "cae5dbd0851b9025822f096bad3705e6", "fusion_lon": 0.0, "bike_id": "cae5dbd0851b9025822f096bad3705e6", "is_disabled": 0, "is_reserved": 0}, {"rental_uris": {"ios": "https://dc.lft.to/lastmile_qr_scan", "android": "https://dc.lft.to/lastmile_qr_scan"}, "lon": -77.01771366666667, "type": "electric_scooter", "fusion_lat": 0.0, "lat": 38.9037235, "name": "c592566a72f9693ca865ef71e3c6db98", "fusion_lon": 0.0, "bike_id": "c592566a72f9693ca865ef71e3c6db98", "is_disabled": 0, "is_reserved": 0}, {"rental_uris": {"ios": "https://dc.lft.to/lastmile_qr_scan", "android": "https://dc.lft.to/lastmile_qr_scan"}, "lon": -77.03232466666667, "type": "electric_scooter", "fusion_lat": 0.0, "lat": 38.92575933333333, "name": "d6a391fc4e74abe06f1094a3cab21f48", "fusion_lon": 0.0, "bike_id": "d6a391fc4e74abe06f1094a3cab21f48", "is_disabled": 0, "is_reserved": 0}, {"rental_uris": {"ios": "https://dc.lft.to/lastmile_qr_scan", "android": "https://dc.lft.to/lastmile_qr_scan"}, "lon": -77.0455575, "type": "electric_scooter", "fusion_lat": 0.0, "lat": 38.903848333333336, "name": "b4a13500a134da0ff13a4e57c79b75ea", "fusion_lon": 0.0, "bike_id": "b4a13500a134da0ff13a4e57c79b75ea", "is_disabled": 0, "is_reserved": 0}, {"rental_uris": {"ios": "https://dc.lft.to/lastmile_qr_scan", "android": "https://dc.lft.to/lastmile_qr_scan"}, "lon": -77.03960983333333, "type": "electric_scooter", "fusion_lat": 0.0, "lat": 38.901369833333334, "name": "6241ecee194590d016f8cd2c02fca067", "fusion_lon": 0.0, "bike_id": "6241ecee194590d016f8cd2c02fca067", "is_disabled": 0, "is_reserved": 0}, {"rental_uris": {"ios": "https://dc.lft.to/lastmile_qr_scan", "android": "https://dc.lft.to/lastmile_qr_scan"}, "lon": -77.03521333333333, "type": "electric_scooter", "fusion_lat": 0.0, "lat": 38.923382833333335, "name": "9745c68d23339cb672921f9effc43dd8", "fusion_lon": 0.0, "bike_id": "9745c68d23339cb672921f9effc43dd8", "is_disabled": 0, "is_reserved": 0}, {"rental_uris": {"ios": "https://dc.lft.to/lastmile_qr_scan", "android": "https://dc.lft.to/lastmile_qr_scan"}, "lon": -77.03447083333333, "type": "electric_scooter", "fusion_lat": 0.0, "lat": 38.91806666666667, "name": "1487765290034c71a16ec8dc94d1d36a", "fusion_lon": 0.0, "bike_id": "1487765290034c71a16ec8dc94d1d36a", "is_disabled": 0, "is_reserved": 0}, {"rental_uris": {"ios": "https://dc.lft.to/lastmile_qr_scan", "android": "https://dc.lft.to/lastmile_qr_scan"}, "lon": -76.9317505, "type": "electric_scooter", "fusion_lat": 0.0, "lat": 38.89882733333334, "name": "23a2f609ee2c810e838ff5d0b43ac5aa", "fusion_lon": 0.0, "bike_id": "23a2f609ee2c810e838ff5d0b43ac5aa", "is_disabled": 0, "is_reserved": 0}, {"rental_uris": {"ios": "https://dc.lft.to/lastmile_qr_scan", "android": "https://dc.lft.to/lastmile_qr_scan"}, "lon": -77.0386635, "type": "electric_scooter", "fusion_lat": 0.0, "lat": 38.90972933333333, "name": "ba4d7b10a8077b4c0da1bf6b2ee1a761", "fusion_lon": 0.0, "bike_id": "ba4d7b10a8077b4c0da1bf6b2ee1a761", "is_disabled": 0, "is_reserved": 0}, {"rental_uris": {"ios": "https://dc.lft.to/lastmile_qr_scan", "android": "https://dc.lft.to/lastmile_qr_scan"}, "lon": -77.03184783333333, "type": "electric_scooter", "fusion_lat": 0.0, "lat": 38.895920833333335, "name": "1d5aee0b220bc71d9396007ffc757881", "fusion_lon": 0.0, "bike_id": "1d5aee0b220bc71d9396007ffc757881", "is_disabled": 0, "is_reserved": 0}, {"rental_uris": {"ios": "https://dc.lft.to/lastmile_qr_scan", "android": "https://dc.lft.to/lastmile_qr_scan"}, "lon": -77.031334, "type": "electric_scooter", "fusion_lat": 0.0, "lat": 38.9238115, "name": "b5983c9296eb3e94fa4f6edc2e0627d7", "fusion_lon": 0.0, "bike_id": "b5983c9296eb3e94fa4f6edc2e0627d7", "is_disabled": 0, "is_reserved": 0}, {"rental_uris": {"ios": "https://dc.lft.to/lastmile_qr_scan", "android": "https://dc.lft.to/lastmile_qr_scan"}, "lon": -77.00879533333334, "type": "electric_scooter", "fusion_lat": 0.0, "lat": 38.91230216666666, "name": "614f6c0a20379c435f335eda9401c224", "fusion_lon": 0.0, "bike_id": "614f6c0a20379c435f335eda9401c224", "is_disabled": 0, "is_reserved": 0}, {"rental_uris": {"ios": "https://dc.lft.to/lastmile_qr_scan", "android": "https://dc.lft.to/lastmile_qr_scan"}, "lon": -76.9317475, "type": "electric_scooter", "fusion_lat": 0.0, "lat": 38.898852, "name": "cf6639604ebbb40e30e2c7e4827aa31e", "fusion_lon": 0.0, "bike_id": "cf6639604ebbb40e30e2c7e4827aa31e", "is_disabled": 0, "is_reserved": 0}, {"rental_uris": {"ios": "https://dc.lft.to/lastmile_qr_scan", "android": "https://dc.lft.to/lastmile_qr_scan"}, "lon": -76.9271855, "type": "electric_scooter", "fusion_lat": 0.0, "lat": 38.887612, "name": "58d1921c750858d57db3e739d187312d", "fusion_lon": 0.0, "bike_id": "58d1921c750858d57db3e739d187312d", "is_disabled": 0, "is_reserved": 0}, {"rental_uris": {"ios": "https://dc.lft.to/lastmile_qr_scan", "android": "https://dc.lft.to/lastmile_qr_scan"}, "lon": -77.01582716666667, "type": "electric_scooter", "fusion_lat": 0.0, "lat": 38.91685583333334, "name": "262cb72b5c2bd1baea222550585925e8", "fusion_lon": 0.0, "bike_id": "262cb72b5c2bd1baea222550585925e8", "is_disabled": 0, "is_reserved": 0}, {"rental_uris": {"ios": "https://dc.lft.to/lastmile_qr_scan", "android": "https://dc.lft.to/lastmile_qr_scan"}, "lon": -76.98717416666666, "type": "electric_scooter", "fusion_lat": 0.0, "lat": 38.8670235, "name": "6bdabb6a2f4c4625977dcdbe209d81bc", "fusion_lon": 0.0, "bike_id": "6bdabb6a2f4c4625977dcdbe209d81bc", "is_disabled": 0, "is_reserved": 0}, {"rental_uris": {"ios": "https://dc.lft.to/lastmile_qr_scan", "android": "https://dc.lft.to/lastmile_qr_scan"}, "lon": -77.04108566666666, "type": "electric_scooter", "fusion_lat": 0.0, "lat": 38.924465166666664, "name": "fd269ea269d81c554ecb3f6e1b1b6161", "fusion_lon": 0.0, "bike_id": "fd269ea269d81c554ecb3f6e1b1b6161", "is_disabled": 0, "is_reserved": 0}, {"rental_uris": {"ios": "https://dc.lft.to/lastmile_qr_scan", "android": "https://dc.lft.to/lastmile_qr_scan"}, "lon": -77.04011116666666, "type": "electric_scooter", "fusion_lat": 0.0, "lat": 38.91003966666667, "name": "d523b8534ab41e9db9254195e04307a3", "fusion_lon": 0.0, "bike_id": "d523b8534ab41e9db9254195e04307a3", "is_disabled": 0, "is_reserved": 0}, {"rental_uris": {"ios": "https://dc.lft.to/lastmile_qr_scan", "android": "https://dc.lft.to/lastmile_qr_scan"}, "lon": -77.00214166666666, "type": "electric_scooter", "fusion_lat": 0.0, "lat": 38.911865666666664, "name": "dd34cd487983258f8df446e4332e32c6", "fusion_lon": 0.0, "bike_id": "dd34cd487983258f8df446e4332e32c6", "is_disabled": 0, "is_reserved": 0},