{"data": {"bikes": [{"fusion_lat": 0.0, "type": "electric_scooter", "name": "cb38aa8314681516057d70d3ca1ebdf7", "fusion_lon": 0.0, "bike_id": "cb38aa8314681516057d70d3ca1ebdf7", "is_reserved": 0, "rental_uris": {"android": "https://dc.lft.to/lastmile_qr_scan", "ios": "https://dc.lft.to/lastmile_qr_scan"}, "lat": 38.918678666666665, "is_disabled": 0, "lon": -77.04174033333334}, {"fusion_lat": 0.0, "type": "electric_bike", "name": "7370f2ef4f527ef67b388ff2b2c82a85", "fusion_lon": 0.0, "bike_id": "7370f2ef4f527ef67b388ff2b2c82a85", "is_reserved": 0, "rental_uris": {"android": "https://dc.lft.to/lastmile_qr_scan", "ios": "https://dc.lft.to/lastmile_qr_scan"}, "lat": 38.97692516666667, "is_disabled": 0, "lon": -77.09297516666666}, {"fusion_lat": 0.0, "type": "electric_bike", "name": "f82a91b34c4e542a42ca47ee41756d23", "fusion_lon": 0.0, "bike_id": "f82a91b34c4e542a42ca47ee41756d23", "is_reserved": 0, "rental_uris": {"android": "https://dc.lft.to/lastmile_qr_scan", "ios": "https://dc.lft.to/lastmile_qr_scan"}, "lat": 38.93679183333333, "is_disabled": 0, "lon": -77.03334516666666}, {"fusion_lat": 0.0, "type": "electric_scooter", "name": "8d8ab136e3a7717130f71ddf07a3ffc3", "fusion_lon": 0.0, "bike_id": "8d8ab136e3a7717130f71ddf07a3ffc3", "is_reserved": 0, "rental_uris": {"android": "https://dc.lft.to/lastmile_qr_scan", "ios": "https://dc.lft.to/lastmile_qr_scan"}, "lat": 38.9002395, "is_disabled": 0, "lon": -77.03211333333333}, {"fusion_lat": 0.0, "type": "electric_scooter", "name": "543699e3a6ebdd5b200ab32c9f4565bf", "fusion_lon": 0.0, "bike_id": "543699e3a6ebdd5b200ab32c9f4565bf", "is_reserved": 0, "rental_uris": {"android": "https://dc.lft.to/lastmile_qr_scan", "ios": "https://dc.lft.to/lastmile_qr_scan"}, "lat": 38.83501616666667, "is_disabled": 0, "lon": -77.00682366666666}, {"fusion_lat": 0.0, "type": "electric_bike", "name": "2235c3da024540df781c906c3ab1d250", "fusion_lon": 0.0, "bike_id": "2235c3da024540df781c906c3ab1d250", "is_reserved": 0, "rental_uris": {"android": "https://dc.lft.to/lastmile_qr_scan", "ios": "https://dc.lft.to/lastmile_qr_scan"}, "lat": 38.91176933333333, "is_disabled": 0, "lon": -77.08811416666667}, {"fusion_lat": 0.0, "type": "electric_scooter", "name": "f7d18d9d0e3cca9beb4aaa1ca72677d4", "fusion_lon": 0.0, "bike_id": "f7d18d9d0e3cca9beb4aaa1ca72677d4", "is_reserved": 0, "rental_uris": {"android": "https://dc.lft.to/lastmile_qr_scan", "ios": "https://dc.lft.to/lastmile_qr_scan"}, "lat": 38.8949805, "is_disabled": 0, "lon": -77.01086566666666}, {"fusion_lat": 0.0, "type": "electric_scooter", "name": "93436a99781ef84f298a84939d57086d", "fusion_lon": 0.0, "bike_id": "93436a99781ef84f298a84939d57086d", "is_reserved": 0, "rental_uris": {"android": "https://dc.lft.to/lastmile_qr_scan", "ios": "https://dc.lft.to/lastmile_qr_scan"}, "lat": 38.876575, "is_disabled": 0, "lon": -77.00668366666666}, {"fusion_lat": 0.0, "type": "electric_bike", "name": "afe86661b5f4819752f25d89df1a9af3", "fusion_lon": 0.0, "bike_id": "afe86661b5f4819752f25d89df1a9af3", "is_reserved": 0, "rental_uris": {"android": "https://dc.lft.to/lastmile_qr_scan", "ios": "https://dc.lft.to/lastmile_qr_scan"}, "lat": 38.84268266666667, "is_disabled": 0, "lon": -76.98840883333334}, {"fusion_lat": 0.0, "type": "electric_scooter", "name": "3ce1239fee6ab9760f0b2589b5c134b6", "fusion_lon": 0.0, "bike_id": "3ce1239fee6ab9760f0b2589b5c134b6", "is_reserved": 0, "rental_uris": {"android": "https://dc.lft.to/lastmile_qr_scan", "ios": "https://dc.lft.to/lastmile_qr_scan"}, "lat": 38.89019166666667, "is_disabled": 0, "lon": -76.93732183333333}, {"fusion_lat": 0.0, "type": "electric_scooter", "name": "dc7713cd7d404d7995020f6797d208d3", "fusion_lon": 0.0, "bike_id": "dc7713cd7d404d7995020f6797d208d3", "is_reserved": 0, "rental_uris": {"android": "https://dc.lft.to/lastmile_qr_scan", "ios": "https://dc.lft.to/lastmile_qr_scan"}, "lat": 38.892255166666665, "is_disabled": 0, "lon": -77.02345383333333}, {"fusion_lat": 0.0, "type": "electric_scooter", "name": "0ce11c49a3c6edb9e3bcf0bfdd543575", "fusion_lon": 0.0, "bike_id": "0ce11c49a3c6edb9e3bcf0bfdd543575", "is_reserved": 0, "rental_uris": {"android": "https://dc.lft.to/lastmile_qr_scan", "ios": "https://dc.lft.to/lastmile_qr_scan"}, "lat": 38.939822666666664, "is_disabled": 0, "lon": -77.02979166666667}, {"fusion_lat": 0.0, "type": "electric_scooter", "name": "e51de7e613027012efa3f473eebe995a", "fusion_lon": 0.0, "bike_id": "e51de7e613027012efa3f473eebe995a", "is_reserved": 0, "rental_uris": {"android": "https://dc.lft.to/lastmile_qr_scan", "ios": "https://dc.lft.to/lastmile_qr_scan"}, "lat": 38.92124033333333, "is_disabled": 0, "lon": -77.03667433333334}, {"fusion_lat": 0.0, "type": "electric_scooter", "name": "e80579bc78334897c6e3d4fd106fbc1c", "fusion_lon": 0.0, "bike_id": "e80579bc78334897c6e3d4fd106fbc1c", "is_reserved": 0, "rental_uris": {"android": "https://dc.lft.to/lastmile_qr_scan", "ios": "https://dc.lft.to/lastmile_qr_scan"}, "lat": 38.89919183333333, "is_disabled": 0, "lon": -76.9337915}, {"fusion_lat": 0.0, "type": "electric_scooter", "name": "76cc8fe9d9eb9278cf9c705af5648201", "fusion_lon": 0.0, "bike_id": "76cc8fe9d9eb9278cf9c705af5648201", "is_reserved": 0, "rental_uris": {"android": "https://dc.lft.to/lastmile_qr_scan", "ios": "https://dc.lft.to/lastmile_qr_scan"}, "lat": 38.9155825, "is_disabled": 0, "lon": -77.04179216666667}, {"fusion_lat": 0.0, "type": "electric_scooter", "name": "b6478ee35e4d8be2f250845d5e5576c0", "fusion_lon": 0.0, "bike_id": "b6478ee35e4d8be2f250845d5e5576c0", "is_reserved": 0, "rental_uris": {"android": "https://dc.lft.to/lastmile_qr_scan", "ios": "https://dc.lft.to/lastmile_qr_scan"}, "lat": 38.907295166666664, "is_disabled": 0, "lon": -77.03478966666667}, {"fusion_lat": 0.0, "type": "electric_scooter", "name": "dc6523a9420dfbd0cd17a5a90bb972f3", "fusion_lon": 0.0, "bike_id": "dc6523a9420dfbd0cd17a5a90bb972f3", "is_reserved": 0, "rental_uris": {"android": "https://dc.lft.to/lastmile_qr_scan", "ios": "https://dc.lft.to/lastmile_qr_scan"}, "lat": 38.91684333333333, "is_disabled": 0, "lon": -77.03669633333334}, {"fusion_lat": 0.0, "type": "electric_scooter", "name": "4cd0a1c82ddfdfffb4a2de80a42143d9", "fusion_lon": 0.0, "bike_id": "4cd0a1c82ddfdfffb4a2de80a42143d9", "is_reserved": 0, "rental_uris": {"android": "https://dc.lft.to/lastmile_qr_scan", "ios": "https://dc.lft.to/lastmile_qr_scan"}, "lat": 38.92447083333333, "is_disabled": 0, "lon": -77.04114016666666}, {"fusion_lat": 0.0, "type": "electric_bike", "name": "e7072b5978382ea67c4f2fdcfc9a6aa8", "fusion_lon": 0.0, "bike_id": "e7072b5978382ea67c4f2fdcfc9a6aa8", "is_reserved": 0, "rental_uris": {"android": "https://dc.lft.to/lastmile_qr_scan", "ios": "https://dc.lft.to/lastmile_qr_scan"}, "lat": 39.06298183333333, "is_disabled": 0, "lon": -77.04981033333334}, {"fusion_lat": 0.0, "type": "electric_scooter", "name": "6cfaafb965e882be8d2585a51b56b07b", "fusion_lon": 0.0, "bike_id": "6cfaafb965e882be8d2585a51b56b07b", "is_reserved": 0, "rental_uris": {"android": "https://dc.lft.to/lastmile_qr_scan", "ios": "https://dc.lft.to/lastmile_qr_scan"}, "lat": 38.915583, "is_disabled": 0, "lon": -77.03126566666667}, {"fusion_lat": 0.0, "type": "electric_scooter", "name": "515f169d39f4ba44c9f047ab809504e4", "fusion_lon": 0.0, "bike_id": "515f169d39f4ba44c9f047ab809504e4", "is_reserved": 0, "rental_uris": {"android": "https://dc.lft.to/lastmile_qr_scan", "ios": "https://dc.lft.to/lastmile_qr_scan"}, "lat": 38.899189, "is_disabled": 0, "lon": -76.93385716666667}, {"fusion_lat": 0.0, "type": "electric_scooter", "name": "a664ed4e9e736aaaa181fa70e46c3103", "fusion_lon": 0.0, "bike_id": "a664ed4e9e736aaaa181fa70e46c3103", "is_reserved": 0, "rental_uris": {"android": "https://dc.lft.to/lastmile_qr_scan", "ios": "https://dc.lft.to/lastmile_qr_scan"}, "lat": 38.89787333333334, "is_disabled": 0, "lon": -77.0272095}, {"fusion_lat": 0.0, "type": "electric_scooter", "name": "96988f38bb990d4c0b361c023fe8d87a", "fusion_lon": 0.0, "bike_id": "96988f38bb990d4c0b361c023fe8d87a", "is_reserved": 0, "rental_uris": {"android": "https://dc.lft.to/lastmile_qr_scan", "ios": "https://dc.lft.to/lastmile_qr_scan"}, "lat": 38.883093333333335, "is_disabled": 0, "lon": -76.97875216666667}, {"fusion_lat": 0.0, "type": "electric_scooter", "name": "6fccf3f3feb5d305ebe6fa458624b01c", "fusion_lon": 0.0, "bike_id": "6fccf3f3feb5d305ebe6fa458624b01c", "is_reserved": 0, "rental_uris": {"android": "https://dc.lft.to/lastmile_qr_scan", "ios": "https://dc.lft.to/lastmile_qr_scan"}, "lat": 38.9007855, "is_disabled": 0, "lon": -77.04755983333334}, {"fusion_lat": 0.0, "type": "electric_scooter", "name": "0f493e08df10b2db6306939d8f9f0183", "fusion_lon": 0.0, "bike_id": "0f493e08df10b2db6306939d8f9f0183", "is_reserved": 0, "rental_uris": {"android": "https://dc.lft.to/lastmile_qr_scan", "ios": "https://dc.lft.to/lastmile_qr_scan"}, "lat": 38.892517166666664, "is_disabled": 0, "lon": -77.046615}, {"fusion_lat": 0.0, "type": "electric_scooter", "name": "56891023c5fb8f71be72ba02ac69ab80", "fusion_lon": 0.0, "bike_id": "56891023c5fb8f71be72ba02ac69ab80", "is_reserved": 0, "rental_uris": {"android": "https://dc.lft.to/lastmile_qr_scan", "ios": "https://dc.lft.to/lastmile_qr_scan"}, "lat": 38.90575466666667, "is_disabled": 0, "lon": -77.01969733333334}, {"fusion_lat": 0.0, "type": "electric_scooter", "name": "b69bd8da90b1169eec16f6ff5dc04b04", "fusion_lon": 0.0, "bike_id": "b69bd8da90b1169eec16f6ff5dc04b04", "is_reserved": 0, "rental_uris": {"android": "https://dc.lft.to/lastmile_qr_scan", "ios": "https://dc.lft.to/lastmile_qr_scan"}, "lat": 38.919864, "is_disabled": 0, "lon": -77.03323116666667}, {"fusion_lat": 0.0, "type": "electric_scooter", "name": "94c84912308929a1d5b94c36b8a4625c", "fusion_lon": 0.0, "bike_id": "94c84912308929a1d5b94c36b8a4625c", "is_reserved": 0, "rental_uris": {"android": "https://dc.lft.to/lastmile_qr_scan", "ios": "https://dc.lft.to/lastmile_qr_scan"}, "lat": 38.9309795, "is_disabled": 0, "lon": -77.02538233333334}, {"fusion_lat": 0.0, "type": "electric_bike", "name": "dfc58a8404d3aaf3b15b03335e7db006", "fusion_lon": 0.0, "bike_id": "dfc58a8404d3aaf3b15b03335e7db006", "is_reserved": 0, "rental_uris": {"android": "https://dc.lft.to/lastmile_qr_scan", "ios": "https://dc.lft.to/lastmile_qr_scan"}, "lat": 38.885656, "is_disabled": 0, "lon": -77.1669195}, {"fusion_lat": 0.0, "type": "electric_scooter", "name": "95cbf3ef694cb73b8ab8e22c24f3db5a", "fusion_lon": 0.0, "bike_id": "95cbf3ef694cb73b8ab8e22c24f3db5a", "is_reserved": 0, "rental_uris": {"android": "https://dc.lft.to/lastmile_qr_scan", "ios": "https://dc.lft.to/lastmile_qr_scan"}, "lat": 38.89226333333333, "is_disabled": 0, "lon": -77.03200916666667}, {"fusion_lat": 0.0, "type": "electric_scooter", "name": "7b256705fef086776aa21f9952d1a47c", "fusion_lon": 0.0, "bike_id": "7b256705fef086776aa21f9952d1a47c", "is_reserved": 0, "rental_uris": {"android": "https://dc.lft.to/lastmile_qr_scan", "ios": "https://dc.lft.to/lastmile_qr_scan"}, "lat": 38.9072965, "is_disabled": 0, "lon": -77.03476216666667}, {"fusion_lat": 0.0, "type": "electric_scooter", "name": "cea33ca45a458c3501d63f5047febd81", "fusion_lon": 0.0, "bike_id": "cea33ca45a458c3501d63f5047febd81", "is_reserved": 0, "rental_uris": {"android": "https://dc.lft.to/lastmile_qr_scan", "ios": "https://dc.lft.to/lastmile_qr_scan"}, "lat": 38.88505633333333, "is_disabled": 0, "lon": -77.020198}, {"fusion_lat": 0.0, "type": "electric_scooter", "name": "ce9617e9ce477de686072c405ec12631", "fusion_lon": 0.0, "bike_id": "ce9617e9ce477de686072c405ec12631", "is_reserved": 0, "rental_uris": {"android": "https://dc.lft.to/lastmile_qr_scan", "ios": "https://dc.lft.to/lastmile_qr_scan"}, "lat": 38.892273333333335, "is_disabled": 0, "lon": -77.02175083333333}, {"fusion_lat": 0.0, "type": "electric_scooter", "name": "cc72a499802724c58410f9196bec0ed9", "fusion_lon": 0.0, "bike_id": "cc72a499802724c58410f9196bec0ed9", "is_reserved": 0, "rental_uris": {"android": "https://dc.lft.to/lastmile_qr_scan", "ios": "https://dc.lft.to/lastmile_qr_scan"}, "lat": 38.91890583333333, "is_disabled": 0, "lon": -77.0297}, {"fusion_lat": 0.0, "type": "electric_scooter", "name": "2523c11e2ff7da3a2701b32eb41718e9", "fusion_lon": 0.0, "bike_id": "2523c11e2ff7da3a2701b32eb41718e9", "is_reserved": 0, "rental_uris": {"android": "https://dc.lft.to/lastmile_qr_scan", "ios": "https://dc.lft.to/lastmile_qr_scan"}, "lat": 38.9114725, "is_disabled": 0, "lon": -77.0434405}, {"fusion_lat": 0.0, "type": "electric_scooter", "name": "92aca68c78fb5de25ee6208220b6ced4", "fusion_lon": 0.0, "bike_id": "92aca68c78fb5de25ee6208220b6ced4", "is_reserved": 0, "rental_uris": {"android": "https://dc.lft.to/lastmile_qr_scan", "ios": "https://dc.lft.to/lastmile_qr_scan"}, "lat": 38.930461666666666, "is_disabled": 0, "lon": -77.037917}, {"fusion_lat": 0.0, "type": "electric_scooter", "name": "2c6b21eeebac96317f1f7547a58ec91a", "fusion_lon": 0.0, "bike_id": "2c6b21eeebac96317f1f7547a58ec91a", "is_reserved": 0, "rental_uris": {"android": "https://dc.lft.to/lastmile_qr_scan", "ios": "https://dc.lft.to/lastmile_qr_scan"}, "lat": 38.942051, "is_disabled": 0, "lon": -77.025147}, {"fusion_lat": 0.0, "type": "electric_scooter", "name": "555a5ba6b9faed4feaa493218e6b1c1f", "fusion_lon": 0.0, "bike_id": "555a5ba6b9faed4feaa493218e6b1c1f", "is_reserved": 0, "rental_uris": {"android": "https://dc.lft.to/lastmile_qr_scan", "ios": "https://dc.lft.to/lastmile_qr_scan"}, "lat": 38.90447616666667, "is_disabled": 0, "lon": -77.04276483333334}, {"fusion_lat": 0.0, "type": "electric_scooter", "name": "663b746940371f422e69c38ec9bb029a", "fusion_lon": 0.0, "bike_id": "663b746940371f422e69c38ec9bb029a", "is_reserved": 0, "rental_uris": {"android": "https://dc.lft.to/lastmile_qr_scan", "ios": "https://dc.lft.to/lastmile_qr_scan"}, "lat": 38.85757266666667, "is_disabled": 0, "lon": -76.99292483333333}, {"fusion_lat": 0.0, "type": "electric_scooter", "name": "786b0011f845dbc3d92de9a62689e47f", "fusion_lon": 0.0, "bike_id": "786b0011f845dbc3d92de9a62689e47f", "is_reserved": 0, "rental_uris": {"android": "https://dc.lft.to/lastmile_qr_scan", "ios": "https://dc.lft.to/lastmile_qr_scan"}, "lat": 38.9353565, "is_disabled": 0, "lon": -77.02346883333334}, {"fusion_lat": 0.0, "type": "electric_scooter", "name": "8960f2c4ec786b861f176f4c4a318a52", "fusion_lon": 0.0, "bike_id": "8960f2c4ec786b861f176f4c4a318a52", "is_reserved": 0, "rental_uris": {"android": "https://dc.lft.to/lastmile_qr_scan", "ios": "https://dc.lft.to/lastmile_qr_scan"}, "lat": 38.891705, "is_disabled": 0, "lon": -77.015511}, {"fusion_lat": 0.0, "type": "electric_scooter", "name": "7593f6b7d25c6f9ca37d4ead30bbe661", "fusion_lon": 0.0, "bike_id": "7593f6b7d25c6f9ca37d4ead30bbe661", "is_reserved": 0, "rental_uris": {"android": "https://dc.lft.to/lastmile_qr_scan", "ios": "https://dc.lft.to/lastmile_qr_scan"}, "lat": 38.908415, "is_disabled": 0, "lon": -77.0022005}, {"fusion_lat": 0.0, "type": "electric_scooter", "name": "0bb7f2ac86b52b2b152ac8781b624bf5", "fusion_lon": 0.0, "bike_id": "0bb7f2ac86b52b2b152ac8781b624bf5", "is_reserved": 0, "rental_uris": {"android": "https://dc.lft.to/lastmile_qr_scan", "ios": "https://dc.lft.to/lastmile_qr_scan"}, "lat": 38.9213145, "is_disabled": 0, "lon": -76.99558316666666}, {"fusion_lat": 0.0, "type": "electric_scooter", "name": "12a9a7a745be5f971eda217c99f5ed44", "fusion_lon": 0.0, "bike_id": "12a9a7a745be5f971eda217c99f5ed44", "is_reserved": 0, "rental_uris": {"android": "https://dc.lft.to/lastmile_qr_scan", "ios": "https://dc.lft.to/lastmile_qr_scan"}, "lat": 38.94181733333333, "is_disabled": 0, "lon": -77.02751183333334}, {"fusion_lat": 0.0, "type": "electric_bike", "name": "05fcf30292647f2d122acc88317f15fa", "fusion_lon": 0.0, "bike_id": "05fcf30292647f2d122acc88317f15fa", "is_reserved": 0, "rental_uris": {"android": "https://dc.lft.to/lastmile_qr_scan", "ios": "https://dc.lft.to/lastmile_qr_scan"}, "lat": 38.919460666666666, "is_disabled": 0, "lon": -77.045157}, {"fusion_lat": 0.0, "type": "electric_scooter", "name": "cf62cfc43b845d09ade06d9d00ccc023", "fusion_lon": 0.0, "bike_id": "cf62cfc43b845d09ade06d9d00ccc023", "is_reserved": 0, "rental_uris": {"android": "https://dc.lft.to/lastmile_qr_scan", "ios": "https://dc.lft.to/lastmile_qr_scan"}, "lat": 38.8935195, "is_disabled": 0, "lon": -77.00335433333333}, {"fusion_lat": 0.0, "type": "electric_scooter", "name": "5d62f1e166071a1dd36e3f15835017a0", "fusion_lon": 0.0, "bike_id": "5d62f1e166071a1dd36e3f15835017a0", "is_reserved": 0, "rental_uris": {"android": "https://dc.lft.to/lastmile_qr_scan", "ios": "https://dc.lft.to/lastmile_qr_scan"}, "lat": 38.94083416666667, "is_disabled": 0, "lon": -77.027256}, {"fusion_lat": 0.0, "type": "electric_scooter", "name": "c4f7f075831c7e340bc74100f25e1797", "fusion_lon": 0.0, "bike_id": "c4f7f075831c7e340bc74100f25e1797", "is_reserved": 0, "rental_uris": {"android": "https://dc.lft.to/lastmile_qr_scan", "ios": "https://dc.lft.to/lastmile_qr_scan"}, "lat": 38.93712766666667, "is_disabled": 0, "lon": -77.03639633333333}, {"fusion_lat": 0.0, "type": "electric_scooter", "name": "30a43f06df8cb71bb5b190f4ee1c5e27", "fusion_lon": 0.0, "bike_id": "30a43f06df8cb71bb5b190f4ee1c5e27", "is_reserved": 0, "rental_uris": {"android": "https://dc.lft.to/lastmile_qr_scan", "ios": "https://dc.lft.to/lastmile_qr_scan"}, "lat": 38.91679366666666, "is_disabled": 0, "lon": -77.03686}, {"fusion_lat": 0.0, "type": "electric_scooter", "name": "8abddac4c897d6418fe8384bee587603", "fusion_lon": 0.0, "bike_id": "8abddac4c897d6418fe8384bee587603", "is_reserved": 0, "rental_uris": {"android": "https://dc.lft.to/lastmile_qr_scan", "ios": "https://dc.lft.to/lastmile_qr_scan"}, "lat": 38.92008966666667, "is_disabled": 0, "lon": -77.03209}, {"fusion_lat": 0.0, "type": "electric_bike", "name": "08c4b60d84b9ca6f70a2c8226bf51aee", "fusion_lon": 0.0, "bike_id": "08c4b60d84b9ca6f70a2c8226bf51aee", "is_reserved": 0, "rental_uris": {"android": "https://dc.lft.to/lastmile_qr_scan", "ios": "https://dc.lft.to/lastmile_qr_scan"}, "lat": 38.862657166666665, "is_disabled": 0, "lon": -76.98350933333333}, {"fusion_lat": 0.0, "type": "electric_scooter", "name": "abde7fa96ae600b15852ab26175a2a4d", "fusion_lon": 0.0, "bike_id": "abde7fa96ae600b15852ab26175a2a4d", "is_reserved": 0, "rental_uris": {"android": "https://dc.lft.to/lastmile_qr_scan", "ios": "https://dc.lft.to/lastmile_qr_scan"}, "lat": 38.944422833333334, "is_disabled": 0, "lon": -77.027881}, {"fusion_lat": 0.0, "type": "electric_scooter", "name": "856569d2277ad7215bf8076f7835e6e1", "fusion_lon": 0.0, "bike_id": "856569d2277ad7215bf8076f7835e6e1", "is_reserved": 0, "rental_uris": {"android": "https://dc.lft.to/lastmile_qr_scan", "ios": "https://dc.lft.to/lastmile_qr_scan"}, "lat": 38.93580216666667, "is_disabled": 0, "lon": -77.021246}, {"fusion_lat": 0.0, "type": "electric_scooter", "name": "e78010b10c82ab2f4695ac23a63e0adc", "fusion_lon": 0.0, "bike_id": "e78010b10c82ab2f4695ac23a63e0adc", "is_reserved": 0, "rental_uris": {"android": "https://dc.lft.to/lastmile_qr_scan", "ios": "https://dc.lft.to/lastmile_qr_scan"}, "lat": 38.91468366666667, "is_disabled": 0, "lon": -77.06943116666666}, {"fusion_lat": 0.0, "type": "electric_scooter", "name": "ad4b2fb81e9f2ccadebb84eed27d158c", "fusion_lon": 0.0, "bike_id": "ad4b2fb81e9f2ccadebb84eed27d158c", "is_reserved": 0, "rental_uris": {"android": "https://dc.lft.to/lastmile_qr_scan", "ios": "https://dc.lft.to/lastmile_qr_scan"}, "lat": 38.92904133333333, "is_disabled": 0, "lon": -77.00418566666667}, {"fusion_lat": 0.0, "type": "electric_scooter", "name": "988f3700d8ba89900b580dd5943f82d2", "fusion_lon": 0.0, "bike_id": "988f3700d8ba89900b580dd5943f82d2", "is_reserved": 0, "rental_uris": {"android": "https://dc.lft.to/lastmile_qr_scan", "ios": "https://dc.lft.to/lastmile_qr_scan"}, "lat": 38.924707833333336, "is_disabled": 0, "lon": -77.03534366666666}, {"fusion_lat": 0.0, "type": "electric_scooter", "name": "614a1925a583e3ea4751043a5595153a", "fusion_lon": 0.0, "bike_id": "614a1925a583e3ea4751043a5595153a", "is_reserved": 0, "rental_uris": {"android": "https://dc.lft.to/lastmile_qr_scan", "ios": "https://dc.lft.to/lastmile_qr_scan"}, "lat": 38.93820733333333, "is_disabled": 0, "lon": -77.07043216666666}, {"fusion_lat": 0.0, "type": "electric_scooter", "name": "b1afeb38b756c5516079eedd6af95ef1", "fusion_lon": 0.0, "bike_id": "b1afeb38b756c5516079eedd6af95ef1", "is_reserved": 0, "rental_uris": {"android": "https://dc.lft.to/lastmile_qr_scan", "ios": "https://dc.lft.to/lastmile_qr_scan"}, "lat": 38.920896666666664, "is_disabled": 0, "lon": -77.04367983333333}, {"fusion_lat": 0.0, "type": "electric_scooter", "name": "83563e630b539daa3ab5cd7e2145b380", "fusion_lon": 0.0, "bike_id": "83563e630b539daa3ab5cd7e2145b380", "is_reserved": 0, "rental_uris": {"android": "https://dc.lft.to/lastmile_qr_scan", "ios": "https://dc.lft.to/lastmile_qr_scan"}, "lat": 38.892241, "is_disabled": 0, "lon": -77.026291}, {"fusion_lat": 0.0, "type": "electric_scooter", "name": "7ce1d31b3300b7a02d5a2b9f2e6a2b1c", "fusion_lon": 0.0, "bike_id": "7ce1d31b3300b7a02d5a2b9f2e6a2b1c", "is_reserved": 0, "rental_uris": {"android": "https://dc.lft.to/lastmile_qr_scan", "ios": "https://dc.lft.to/lastmile_qr_scan"}, "lat": 38.9420605, "is_disabled": 0, "lon": -77.025045}, {"fusion_lat": 0.0, "type": "electric_scooter", "name": "813e7ad8fa32bd599a08bcfbe35c0fa0", "fusion_lon": 0.0, "bike_id": "813e7ad8fa32bd599a08bcfbe35c0fa0", "is_reserved": 0, "rental_uris": {"android": "https://dc.lft.to/lastmile_qr_scan", "ios": "https://dc.lft.to/lastmile_qr_scan"}, "lat": 38.89302133333333, "is_disabled": 0, "lon": -77.01243533333333}, {"fusion_lat": 0.0, "type": "electric_scooter", "name": "6a736051cebd99ca62f8ea5f235a007b", "fusion_lon": 0.0, "bike_id": "6a736051cebd99ca62f8ea5f235a007b", "is_reserved": 0, "rental_uris": {"android": "https://dc.lft.to/lastmile_qr_scan", "ios": "https://dc.lft.to/lastmile_qr_scan"}, "lat": 38.86541116666667, "is_disabled": 0, "lon": -76.98707383333333}, {"fusion_lat": 0.0, "type": "electric_scooter", "name": "e601960c9ff5361c793e6f250b484af8", "fusion_lon": 0.0, "bike_id": "e601960c9ff5361c793e6f250b484af8", "is_reserved": 0, "rental_uris": {"android": "https://dc.lft.to/lastmile_qr_scan", "ios": "https://dc.lft.to/lastmile_qr_scan"}, "lat": 38.927475, "is_disabled": 0, "lon": -77.03564966666667}, {"fusion_lat": 0.0, "type": "electric_scooter", "name": "be4e8fcb8ff74613f33ccbc144ff7ac1", "fusion_lon": 0.0, "bike_id": "be4e8fcb8ff74613f33ccbc144ff7ac1", "is_reserved": 0, "rental_uris": {"android": "https://dc.lft.to/lastmile_qr_scan", "ios": "https://dc.lft.to/lastmile_qr_scan"}, "lat": 38.866983166666664, "is_disabled": 0, "lon": -76.98590233333333}, {"fusion_lat": 0.0, "type": "electric_scooter", "name": "d2495b77d10a959e56f66200a8713d3e", "fusion_lon": 0.0, "bike_id": "d2495b77d10a959e56f66200a8713d3e", "is_reserved": 0, "rental_uris": {"android": "https://dc.lft.to/lastmile_qr_scan", "ios": "https://dc.lft.to/lastmile_qr_scan"}, "lat": 38.921551, "is_disabled": 0, "lon": -77.04222083333333}, {"fusion_lat": 0.0, "type": "electric_scooter", "name": "831fd3310300b01421b840eaff7b71f7", "fusion_lon": 0.0, "bike_id": "831fd3310300b01421b840eaff7b71f7", "is_reserved": 0, "rental_uris": {"android": "https://dc.lft.to/lastmile_qr_scan", "ios": "https://dc.lft.to/lastmile_qr_scan"}, "lat": 38.920869333333336, "is_disabled": 0, "lon": -77.03157783333333}, {"fusion_lat": 0.0, "type": "electric_scooter", "name": "3bc098165ef4730056c7b4703a2ddb95", "fusion_lon": 0.0, "bike_id": "3bc098165ef4730056c7b4703a2ddb95", "is_reserved": 0, "rental_uris": {"android": "https://dc.lft.to/lastmile_qr_scan", "ios": "https://dc.lft.to/lastmile_qr_scan"}, "lat": 38.900797833333336, "is_disabled": 0, "lon": -77.04750983333334}, {"fusion_lat": 0.0, "type": "electric_scooter", "name": "c50e2c61474d2fc4bb5155d20e2772a2", "fusion_lon": 0.0, "bike_id": "c50e2c61474d2fc4bb5155d20e2772a2", "is_reserved": 0, "rental_uris": {"android": "https://dc.lft.to/lastmile_qr_scan", "ios": "https://dc.lft.to/lastmile_qr_scan"}, "lat": 38.918499833333335, "is_disabled": 0, "lon": -77.01673216666667}, {"fusion_lat": 0.0, "type": "electric_bike", "name": "4985f2da70acf70f70711d4bb2c04a8d", "fusion_lon": 0.0, "bike_id": "4985f2da70acf70f70711d4bb2c04a8d", "is_reserved": 0, "rental_uris": {"android": "https://dc.lft.to/lastmile_qr_scan", "ios": "https://dc.lft.to/lastmile_qr_scan"}, "lat": 38.910166833333335, "is_disabled": 0, "lon": -77.22796733333334}, {"fusion_lat": 0.0, "type": "electric_scooter", "name": "a2e77aacf89651e9ac8eebf087ff34a1", "fusion_lon": 0.0, "bike_id": "a2e77aacf89651e9ac8eebf087ff34a1", "is_reserved": 0, "rental_uris": {"android": "https://dc.lft.to/lastmile_qr_scan", "ios": "https://dc.lft.to/lastmile_qr_scan"}, "lat": 38.89211383333333, "is_disabled": 0, "lon": -77.0222315}, {"fusion_lat": 0.0, "type": "electric_scooter", "name": "9c3a89651aca1c38094321f441328824", "fusion_lon": 0.0, "bike_id": "9c3a89651aca1c38094321f441328824", "is_reserved": 0, "rental_uris": {"android": "https://dc.lft.to/lastmile_qr_scan", "ios": "https://dc.lft.to/lastmile_qr_scan"}, "lat": 38.92247533333333, "is_disabled": 0, "lon": -77.021221}, {"fusion_lat": 0.0, "type": "electric_bike", "name": "c6a3464eb8b0b2c624d1fb06794a0a04", "fusion_lon": 0.0, "bike_id": "c6a3464eb8b0b2c624d1fb06794a0a04", "is_reserved": 0, "rental_uris": {"android": "https://dc.lft.to/lastmile_qr_scan", "ios": "https://dc.lft.to/lastmile_qr_scan"}, "lat": 38.8728305, "is_disabled": 0, "lon": -77.23321983333334}, {"fusion_lat": 0.0, "type": "electric_scooter", "name": "150b22c90560472ccadcbe3ff56c9daf", "fusion_lon": 0.0, "bike_id": "150b22c90560472ccadcbe3ff56c9daf", "is_reserved": 0, "rental_uris": {"android": "https://dc.lft.to/lastmile_qr_scan", "ios": "https://dc.lft.to/lastmile_qr_scan"}, "lat": 38.887289, "is_disabled": 0, "lon": -77.028324}, {"fusion_lat": 0.0, "type": "electric_scooter", "name": "998290373826001e6e3a05e6a6f5b9b8", "fusion_lon": 0.0, "bike_id": "998290373826001e6e3a05e6a6f5b9b8", "is_reserved": 0, "rental_uris": {"android": "https://dc.lft.to/lastmile_qr_scan", "ios": "https://dc.lft.to/lastmile_qr_scan"}, "lat": 38.876662333333336, "is_disabled": 0, "lon": -77.01977716666667}, {"fusion_lat": 0.0, "type": "electric_bike", "name": "26327523802dc71def67917309e3563d", "fusion_lon": 0.0, "bike_id": "26327523802dc71def67917309e3563d", "is_reserved": 0, "rental_uris": {"android": "https://dc.lft.to/lastmile_qr_scan", "ios": "https://dc.lft.to/lastmile_qr_scan"}, "lat": 38.94231666666667, "is_disabled": 0, "lon": -76.96618633333334}, {"fusion_lat": 0.0, "type": "electric_scooter", "name": "70b47b087974fda5da13bd6fc8d780cd", "fusion_lon": 0.0, "bike_id": "70b47b087974fda5da13bd6fc8d780cd", "is_reserved": 0, "rental_uris": {"android": "https://dc.lft.to/lastmile_qr_scan", "ios": "https://dc.lft.to/lastmile_qr_scan"}, "lat": 38.94287933333333, "is_disabled": 0, "lon": -77.02799116666667}, {"fusion_lat": 0.0, "type": "electric_scooter", "name": "57e8511626e3019c311ef80914c874a9", "fusion_lon": 0.0, "bike_id": "57e8511626e3019c311ef80914c874a9", "is_reserved": 0, "rental_uris": {"android": "https://dc.lft.to/lastmile_qr_scan", "ios": "https://dc.lft.to/lastmile_qr_scan"}, "lat": 38.95124783333333, "is_disabled": 0, "lon": -76.9867815}, {"fusion_lat": 0.0, "type": "electric_scooter", "name": "72c24dbf45607b6066af2c9067875a79", "fusion_lon": 0.0, "bike_id": "72c24dbf45607b6066af2c9067875a79", "is_reserved": 0, "rental_uris": {"android": "https://dc.lft.to/lastmile_qr_scan", "ios": "https://dc.lft.to/lastmile_qr_scan"}, "lat": 38.921809, "is_disabled": 0, "lon": -77.04003833333333}, {"fusion_lat": 0.0, "type": "electric_scooter", "name": "deea4aac44551b9c1aacebb30fb7c983", "fusion_lon": 0.0, "bike_id": "deea4aac44551b9c1aacebb30fb7c983", "is_reserved": 0, "rental_uris": {"android": "https://dc.lft.to/lastmile_qr_scan", "ios": "https://dc.lft.to/lastmile_qr_scan"}, "lat": 38.92521266666667, "is_disabled": 0, "lon": -77.0504555}, {"fusion_lat": 0.0, "type": "electric_scooter", "name": "6c319af00d40e9d006b150395f5eed70", "fusion_lon": 0.0, "bike_id": "6c319af00d40e9d006b150395f5eed70", "is_reserved": 0, "rental_uris": {"android": "https://dc.lft.to/lastmile_qr_scan", "ios": "https://dc.lft.to/lastmile_qr_scan"}, "lat": 38.89228116666666, "is_disabled": 0, "lon": -77.02801766666667}, {"fusion_lat": 0.0, "type": "electric_scooter", "name": "703c3af1ea7fe6b8329361877ee65cb4", "fusion_lon": 0.0, "bike_id": "703c3af1ea7fe6b8329361877ee65cb4", "is_reserved": 0, "rental_uris": {"android": "https://dc.lft.to/lastmile_qr_scan", "ios": "https://dc.lft.to/lastmile_qr_scan"}, "lat": 38.8923905, "is_disabled": 0, "lon": -77.04160033333334}, {"fusion_lat": 0.0, "type": "electric_scooter", "name": "51b1e04461df94814959a7752669aad0", "fusion_lon": 0.0, "bike_id": "51b1e04461df94814959a7752669aad0", "is_reserved": 0, "rental_uris": {"android": "https://dc.lft.to/lastmile_qr_scan", "ios": "https://dc.lft.to/lastmile_qr_scan"}, "lat": 38.91195316666666, "is_disabled": 0, "lon": -77.00101633333334}, {"fusion_lat": 0.0, "type": "electric_scooter", "name": "0ad2bc06c6087ca01fa52aa8eaddebf8", "fusion_lon": 0.0, "bike_id": "0ad2bc06c6087ca01fa52aa8eaddebf8", "is_reserved": 0, "rental_uris": {"android": "https://dc.lft.to/lastmile_qr_scan", "ios": "https://dc.lft.to/lastmile_qr_scan"}, "lat": 38.874030166666664, "is_disabled": 0, "lon": -77.000377}, {"fusion_lat": 0.0, "type": "electric_scooter", "name": "3bc4acebf11710b77b7492f1f241149e", "fusion_lon": 0.0, "bike_id": "3bc4acebf11710b77b7492f1f241149e", "is_reserved": 0, "rental_uris": {"android": "https://dc.lft.to/lastmile_qr_scan", "ios": "https://dc.lft.to/lastmile_qr_scan"}, "lat": 38.905514, "is_disabled": 0, "lon": -77.00601716666667}, {"fusion_lat": 0.0, "type": "electric_scooter", "name": "77304cbc605018c57fa5dec1362fa5d0", "fusion_lon": 0.0, "bike_id": "77304cbc605018c57fa5dec1362fa5d0", "is_reserved": 0, "rental_uris": {"android": "https://dc.lft.to/lastmile_qr_scan", "ios": "https://dc.lft.to/lastmile_qr_scan"}, "lat": 38.897666, "is_disabled": 0, "lon": -77.03296016666667}, {"fusion_lat": 0.0, "type": "electric_scooter", "name": "8ee6f140082fbfdd5394845703c48ab9", "fusion_lon": 0.0, "bike_id": "8ee6f140082fbfdd5394845703c48ab9", "is_reserved": 0, "rental_uris": {"android": "https://dc.lft.to/lastmile_qr_scan", "ios": "https://dc.lft.to/lastmile_qr_scan"}, "lat": 38.8624805, "is_disabled": 0, "lon": -76.9950195}, {"fusion_lat": 0.0, "type": "electric_scooter", "name": "d8f734532fcf9c4a483f9e773813027d", "fusion_lon": 0.0, "bike_id": "d8f734532fcf9c4a483f9e773813027d", "is_reserved": 0, "rental_uris": {"android": "https://dc.lft.to/lastmile_qr_scan", "ios": "https://dc.lft.to/lastmile_qr_scan"}, "lat": 38.934617333333335, "is_disabled": 0, "lon": -77.02776966666667}, {"fusion_lat": 0.0, "type": "electric_scooter", "name": "e0cce96baee6b57bd1b6f6b463d93042", "fusion_lon": 0.0, "bike_id": "e0cce96baee6b57bd1b6f6b463d93042", "is_reserved": 0, "rental_uris": {"android": "https://dc.lft.to/lastmile_qr_scan", "ios": "https://dc.lft.to/lastmile_qr_scan"}, "lat": 38.90479166666667, "is_disabled": 0, "lon": -77.04841016666667}, {"fusion_lat": 0.0, "type": "electric_scooter", "name": "fc353465281c368a68b4e0b9c717beb2", "fusion_lon": 0.0, "bike_id": "fc353465281c368a68b4e0b9c717beb2", "is_reserved": 0, "rental_uris": {"android": "https://dc.lft.to/lastmile_qr_scan", "ios": "https://dc.lft.to/lastmile_qr_scan"}, "lat": 38.926639, "is_disabled": 0, "lon": -77.02325833333333}, {"fusion_lat": 0.0, "type": "electric_scooter", "name": "b7e357096f3b820d464a219f027e7d12", "fusion_lon": 0.0, "bike_id": "b7e357096f3b820d464a219f027e7d12", "is_reserved": 0, "rental_uris": {"android": "https://dc.lft.to/lastmile_qr_scan", "ios": "https://dc.lft.to/lastmile_qr_scan"}, "lat": 38.8704205, "is_disabled": 0, "lon": -77.00967516666667}, {"fusion_lat": 0.0, "type": "electric_scooter", "name": "37f07153cd144ab3f7bcba4187771ba8", "fusion_lon": 0.0, "bike_id": "37f07153cd144ab3f7bcba4187771ba8", "is_reserved": 0, "rental_uris": {"android": "https://dc.lft.to/lastmile_qr_scan", "ios": "https://dc.lft.to/lastmile_qr_scan"}, "lat": 38.909049833333334, "is_disabled": 0, "lon": -77.00469866666667}, {"fusion_lat": 0.0, "type": "electric_bike", "name": "6c2f009e0ce5c79d878f6e39b02ff176", "fusion_lon": 0.0, "bike_id": "6c2f009e0ce5c79d878f6e39b02ff176", "is_reserved": 0, "rental_uris": {"android": "https://dc.lft.to/lastmile_qr_scan", "ios": "https://dc.lft.to/lastmile_qr_scan"}, "lat": 38.94565933333333, "is_disabled": 0, "lon": -76.96691416666667}, {"fusion_lat": 0.0, "type": "electric_scooter", "name": "bf4572c26bb1624f2124b4ef2ac3bc74", "fusion_lon": 0.0, "bike_id": "bf4572c26bb1624f2124b4ef2ac3bc74", "is_reserved": 0, "rental_uris": {"android": "https://dc.lft.to/lastmile_qr_scan", "ios": "https://dc.lft.to/lastmile_qr_scan"}, "lat": 38.9307955, "is_disabled": 0, "lon": -77.034678}, {"fusion_lat": 0.0, "type": "electric_scooter", "name": "42a11e3f9287fe7cef924fefe7041763", "fusion_lon": 0.0, "bike_id": "42a11e3f9287fe7cef924fefe7041763", "is_reserved": 0, "rental_uris": {"android": "https://dc.lft.to/lastmile_qr_scan", "ios": "https://dc.lft.to/lastmile_qr_scan"}, "lat": 38.868755166666666, "is_disabled": 0, "lon": -76.98240833333334}, {"fusion_lat": 0.0, "type": "electric_scooter", "name": "a9d415d99395edef389812567cbfcebc", "fusion_lon": 0.0, "bike_id": "a9d415d99395edef389812567cbfcebc", "is_reserved": 0, "rental_uris": {"android": "https://dc.lft.to/lastmile_qr_scan", "ios": "https://dc.lft.to/lastmile_qr_scan"}, "lat": 38.89852916666667, "is_disabled": 0, "lon": -76.9305835}, {"fusion_lat": 0.0, "type": "electric_scooter", "name": "de28b23c36c88f9e334f2eede20f6214", "fusion_lon": 0.0, "bike_id": "de28b23c36c88f9e334f2eede20f6214", "is_reserved": 0, "rental_uris": {"android": "https://dc.lft.to/lastmile_qr_scan", "ios": "https://dc.lft.to/lastmile_qr_scan"}, "lat": 38.924029166666664, "is_disabled": 0, "lon": -77.03528166666666}, {"fusion_lat": 0.0, "type": "electric_scooter", "name": "36de320d2ef838f9670bfb34340b4d89", "fusion_lon": 0.0, "bike_id": "36de320d2ef838f9670bfb34340b4d89", "is_reserved": 0, "rental_uris": {"android": "https://dc.lft.to/lastmile_qr_scan", "ios": "https://dc.lft.to/lastmile_qr_scan"}, "lat": 38.892242333333336, "is_disabled": 0, "lon": -77.01371716666667}, {"fusion_lat": 0.0, "type": "electric_bike", "name": "05beb316c6eac13020b2721ce2c0b1e0", "fusion_lon": 0.0, "bike_id": "05beb316c6eac13020b2721ce2c0b1e0", "is_reserved": 0, "rental_uris": {"android": "https://dc.lft.to/lastmile_qr_scan", "ios": "https://dc.lft.to/lastmile_qr_scan"}, "lat": 38.888727333333335, "is_disabled": 0, "lon": -77.0817145}, {"fusion_lat": 0.0, "type": "electric_scooter", "name": "7e8c3e06a862655a9d3a40a143ef8269", "fusion_lon": 0.0, "bike_id": "7e8c3e06a862655a9d3a40a143ef8269", "is_reserved": 0, "rental_uris": {"android": "https://dc.lft.to/lastmile_qr_scan", "ios": "https://dc.lft.to/lastmile_qr_scan"}, "lat": 38.8669755, "is_disabled": 0, "lon": -76.98712816666666}, {"fusion_lat": 0.0, "type": "electric_scooter", "name": "adfe148755267ed116050e6a3c5819bb", "fusion_lon": 0.0, "bike_id": "adfe148755267ed116050e6a3c5819bb", "is_reserved": 0, "rental_uris": {"android": "https://dc.lft.to/lastmile_qr_scan", "ios": "https://dc.lft.to/lastmile_qr_scan"}, "lat": 38.90082683333333, "is_disabled": 0, "lon": -77.00215433333334}, {"fusion_lat": 0.0, "type": "electric_scooter", "name": "594d512ca90f3511904a9e248c5bbf7a", "fusion_lon": 0.0, "bike_id": "594d512ca90f3511904a9e248c5bbf7a", "is_reserved": 0, "rental_uris": {"android": "https://dc.lft.to/lastmile_qr_scan", "ios": "https://dc.lft.to/lastmile_qr_scan"}, "lat": 38.84310266666667, "is_disabled": 0, "lon": -76.99930733333333}, {"fusion_lat": 0.0, "type": "electric_scooter", "name": "0391370292f11af60a82a08edef8ef4f", "fusion_lon": 0.0, "bike_id": "0391370292f11af60a82a08edef8ef4f", "is_reserved": 0, "rental_uris": {"android": "https://dc.lft.to/lastmile_qr_scan", "ios": "https://dc.lft.to/lastmile_qr_scan"}, "lat": 38.8996235, "is_disabled": 0, "lon": -77.0185155}, {"fusion_lat": 0.0, "type": "electric_scooter", "name": "e5957cc9fb2d304f9b8bf5eb71f02bcb", "fusion_lon": 0.0, "bike_id": "e5957cc9fb2d304f9b8bf5eb71f02bcb", "is_reserved": 0, "rental_uris": {"android": "https://dc.lft.to/lastmile_qr_scan", "ios": "https://dc.lft.to/lastmile_qr_scan"}, "lat": 38.8922505, "is_disabled": 0, "lon": -77.04331466666666}, {"fusion_lat": 0.0, "type": "electric_bike", "name": "64ac46fcd727bed02038ab83c1517e09", "fusion_lon": 0.0, "bike_id": "64ac46fcd727bed02038ab83c1517e09", "is_reserved": 0, "rental_uris": {"android": "https://dc.lft.to/lastmile_qr_scan", "ios": "https://dc.lft.to/lastmile_qr_scan"}, "lat": 38.90332033333333, "is_disabled": 0, "lon": -76.97540716666667}, {"fusion_lat": 0.0, "type": "electric_scooter", "name": "a3d3d1423ab13fa56addb1ac0f252f29", "fusion_lon": 0.0, "bike_id": "a3d3d1423ab13fa56addb1ac0f252f29", "is_reserved": 0, "rental_uris": {"android": "https://dc.lft.to/lastmile_qr_scan", "ios": "https://dc.lft.to/lastmile_qr_scan"}, "lat": 38.914237, "is_disabled": 0, "lon": -77.0415645}, {"fusion_lat": 0.0, "type": "electric_scooter", "name": "a3850e669db17363dcb97c192c17f841", "fusion_lon": 0.0, "bike_id": "a3850e669db17363dcb97c192c17f841", "is_reserved": 0, "rental_uris": {"android": "https://dc.lft.to/lastmile_qr_scan", "ios": "https://dc.lft.to/lastmile_qr_scan"}, "lat": 38.9046075, "is_disabled": 0, "lon": -77.03451283333334}, {"fusion_lat": 0.0, "type": "electric_bike", "name": "5f536f15e3d763e02591b9f9383c674c", "fusion_lon": 0.0, "bike_id": "5f536f15e3d763e02591b9f9383c674c", "is_reserved": 0, "rental_uris": {"android": "https://dc.lft.to/lastmile_qr_scan", "ios": "https://dc.lft.to/lastmile_qr_scan"}, "lat": 38.9603395, "is_disabled": 0, "lon": -77.03416033333333}, {"fusion_lat": 0.0, "type": "electric_bike", "name": "1a4ef910f365c59bd662e8b1d10d074c", "fusion_lon": 0.0, "bike_id": "1a4ef910f365c59bd662e8b1d10d074c", "is_reserved": 0, "rental_uris": {"android": "https://dc.lft.to/lastmile_qr_scan", "ios": "https://dc.lft.to/lastmile_qr_scan"}, "lat": 38.845056666666665, "is_disabled": 0, "lon": -76.993604}, {"fusion_lat": 0.0, "type": "electric_scooter", "name": "5ce076e1bd07523e1f765c88894f9335", "fusion_lon": 0.0, "bike_id": "5ce076e1bd07523e1f765c88894f9335", "is_reserved": 0, "rental_uris": {"android": "https://dc.lft.to/lastmile_qr_scan", "ios": "https://dc.lft.to/lastmile_qr_scan"}, "lat": 38.91905916666666, "is_disabled": 0, "lon": -77.0318865}, {"fusion_lat": 0.0, "type": "electric_scooter", "name": "c6fa6a6c7d4ac8ba2aa0fd979158e6a1", "fusion_lon": 0.0, "bike_id": "c6fa6a6c7d4ac8ba2aa0fd979158e6a1", "is_reserved": 0, "rental_uris": {"android": "https://dc.lft.to/lastmile_qr_scan", "ios": "https://dc.lft.to/lastmile_qr_scan"}, "lat": 38.92813783333333, "is_disabled": 0, "lon": -77.026691}, {"fusion_lat": 0.0, "type": "electric_scooter", "name": "1983494edcf495acbde816eff0879d8e", "fusion_lon": 0.0, "bike_id": "1983494edcf495acbde816eff0879d8e", "is_reserved": 0, "rental_uris": {"android": "https://dc.lft.to/lastmile_qr_scan", "ios": "https://dc.lft.to/lastmile_qr_scan"}, "lat": 38.93868783333333, "is_disabled": 0, "lon": -77.0265355}, {"fusion_lat": 0.0, "type": "electric_scooter", "name": "ca0e33b10915599deb6812b02e19e86d", "fusion_lon": 0.0, "bike_id": "ca0e33b10915599deb6812b02e19e86d", "is_reserved": 0, "rental_uris": {"android": "https://dc.lft.to/lastmile_qr_scan", "ios": "https://dc.lft.to/lastmile_qr_scan"}, "lat": 38.91506016666666, "is_disabled": 0, "lon": -76.98361}, {"fusion_lat": 0.0, "type": "electric_scooter", "name": "11b3e19570f10cce7279c2efce8e3457", "fusion_lon": 0.0, "bike_id": "11b3e19570f10cce7279c2efce8e3457", "is_reserved": 0, "rental_uris": {"android": "https://dc.lft.to/lastmile_qr_scan", "ios": "https://dc.lft.to/lastmile_qr_scan"}, "lat": 38.8867855, "is_disabled": 0, "lon": -76.9901905}, {"fusion_lat": 0.0, "type": "electric_bike", "name": "7999323b99fa42f40c4eb121c12ebfe5", "fusion_lon": 0.0, "bike_id": "7999323b99fa42f40c4eb121c12ebfe5", "is_reserved": 0, "rental_uris": {"android": "https://dc.lft.to/lastmile_qr_scan", "ios": "https://dc.lft.to/lastmile_qr_scan"}, "lat": 38.855796833333336, "is_disabled": 0, "lon": -77.11761883333334}, {"fusion_lat": 0.0, "type": "electric_scooter", "name": "763404f238d4e08046f365df6c5826a4", "fusion_lon": 0.0, "bike_id": "763404f238d4e08046f365df6c5826a4", "is_reserved": 0, "rental_uris": {"android": "https://dc.lft.to/lastmile_qr_scan", "ios": "https://dc.lft.to/lastmile_qr_scan"}, "lat": 38.909799666666665, "is_disabled": 0, "lon": -77.0090345}, {"fusion_lat": 0.0, "type": "electric_scooter", "name": "4bcda59585b50708bc1b3bb3e5a19be8", "fusion_lon": 0.0, "bike_id": "4bcda59585b50708bc1b3bb3e5a19be8", "is_reserved": 0, "rental_uris": {"android": "https://dc.lft.to/lastmile_qr_scan", "ios": "https://dc.lft.to/lastmile_qr_scan"}, "lat": 38.92306266666667, "is_disabled": 0, "lon": -77.04459833333334}, {"fusion_lat": 0.0, "type": "electric_scooter", "name": "12d7cdf312d615e289baca1ceba654f3", "fusion_lon": 0.0, "bike_id": "12d7cdf312d615e289baca1ceba654f3", "is_reserved": 0, "rental_uris": {"android": "https://dc.lft.to/lastmile_qr_scan", "ios": "https://dc.lft.to/lastmile_qr_scan"}, "lat": 38.874623166666666, "is_disabled": 0, "lon": -77.00964816666666}, {"fusion_lat": 0.0, "type": "electric_scooter", "name": "5f9286b5585303a124b80c83c986ffd9", "fusion_lon": 0.0, "bike_id": "5f9286b5585303a124b80c83c986ffd9", "is_reserved": 0, "rental_uris": {"android": "https://dc.lft.to/lastmile_qr_scan", "ios": "https://dc.lft.to/lastmile_qr_scan"}, "lat": 38.860601, "is_disabled": 0, "lon": -76.98426666666667}, {"fusion_lat": 0.0, "type": "electric_scooter", "name": "d6c619ad73dc3996b63eb5f2a2af8c2a", "fusion_lon": 0.0, "bike_id": "d6c619ad73dc3996b63eb5f2a2af8c2a", "is_reserved": 0, "rental_uris": {"android": "https://dc.lft.to/lastmile_qr_scan", "ios": "https://dc.lft.to/lastmile_qr_scan"}, "lat": 38.8984285, "is_disabled": 0, "lon": -76.94639283333333}, {"fusion_lat": 0.0, "type": "electric_scooter", "name": "89ccaba0243f7143bd0624b46a2df0ff", "fusion_lon": 0.0, "bike_id": "89ccaba0243f7143bd0624b46a2df0ff", "is_reserved": 0, "rental_uris": {"android": "https://dc.lft.to/lastmile_qr_scan", "ios": "https://dc.lft.to/lastmile_qr_scan"}, "lat": 38.9088865, "is_disabled": 0, "lon": -77.03205716666666}, {"fusion_lat": 0.0, "type": "electric_bike", "name": "8f7ebc273f34b0736f274f0c61b24e49", "fusion_lon": 0.0, "bike_id": "8f7ebc273f34b0736f274f0c61b24e49", "is_reserved": 0, "rental_uris": {"android": "https://dc.lft.to/lastmile_qr_scan", "ios": "https://dc.lft.to/lastmile_qr_scan"}, "lat": 38.8772955, "is_disabled": 0, "lon": -76.98107983333334}, {"fusion_lat": 0.0, "type": "electric_scooter", "name": "f79b79841305956811f8c520b6218e44", "fusion_lon": 0.0, "bike_id": "f79b79841305956811f8c520b6218e44", "is_reserved": 0, "rental_uris": {"android": "https://dc.lft.to/lastmile_qr_scan", "ios": "https://dc.lft.to/lastmile_qr_scan"}, "lat": 38.9039555, "is_disabled": 0, "lon": -77.01781216666667}, {"fusion_lat": 0.0, "type": "electric_scooter", "name": "8cdba062224335b658205f7f2ac2a323", "fusion_lon": 0.0, "bike_id": "8cdba062224335b658205f7f2ac2a323", "is_reserved": 0, "rental_uris": {"android": "https://dc.lft.to/lastmile_qr_scan", "ios": "https://dc.lft.to/lastmile_qr_scan"}, "lat": 38.918559333333334, "is_disabled": 0, "lon": -77.02536166666667}, {"fusion_lat": 0.0, "type": "electric_scooter", "name": "f5293c2b5c571151d94b6bfa56cf0242", "fusion_lon": 0.0, "bike_id": "f5293c2b5c571151d94b6bfa56cf0242", "is_reserved": 0, "rental_uris": {"android": "https://dc.lft.to/lastmile_qr_scan", "ios": "https://dc.lft.to/lastmile_qr_scan"}, "lat": 38.8988525, "is_disabled": 0, "lon": -76.931711}, {"fusion_lat": 0.0, "type": "electric_scooter", "name": "86971fb89a6ebf7ea5a6f832b982d4ab", "fusion_lon": 0.0, "bike_id": "86971fb89a6ebf7ea5a6f832b982d4ab", "is_reserved": 0, "rental_uris": {"android": "https://dc.lft.to/lastmile_qr_scan", "ios": "https://dc.lft.to/lastmile_qr_scan"}, "lat": 38.94901733333333, "is_disabled": 0, "lon": -77.00651766666667}, {"fusion_lat": 0.0, "type": "electric_scooter", "name": "49a91160e8482f261efbe13065469166", "fusion_lon": 0.0, "bike_id": "49a91160e8482f261efbe13065469166", "is_reserved": 0, "rental_uris": {"android": "https://dc.lft.to/lastmile_qr_scan", "ios": "https://dc.lft.to/lastmile_qr_scan"}, "lat": 38.89224816666667, "is_disabled": 0, "lon": -77.0468855}, {"fusion_lat": 0.0, "type": "electric_scooter", "name": "12fd88828781443359f1bc6ae92c4b76", "fusion_lon": 0.0, "bike_id": "12fd88828781443359f1bc6ae92c4b76", "is_reserved": 0, "rental_uris": {"android": "https://dc.lft.to/lastmile_qr_scan", "ios": "https://dc.lft.to/lastmile_qr_scan"}, "lat": 38.909536, "is_disabled": 0, "lon": -77.027146}, {"fusion_lat": 0.0, "type": "electric_scooter", "name": "cbb5efe41e53af067ffece16f238a514", "fusion_lon": 0.0, "bike_id": "cbb5efe41e53af067ffece16f238a514", "is_reserved": 0, "rental_uris": {"android": "https://dc.lft.to/lastmile_qr_scan", "ios": "https://dc.lft.to/lastmile_qr_scan"}, "lat": 38.935365833333336, "is_disabled": 0, "lon": -77.02347933333333}, {"fusion_lat": 0.0, "type": "electric_scooter", "name": "64773bfc820c237385e83e846d407030", "fusion_lon": 0.0, "bike_id": "64773bfc820c237385e83e846d407030", "is_reserved": 0, "rental_uris": {"android": "https://dc.lft.to/lastmile_qr_scan", "ios": "https://dc.lft.to/lastmile_qr_scan"}, "lat": 38.934574, "is_disabled": 0, "lon": -77.05783033333333}, {"fusion_lat": 0.0, "type": "electric_scooter", "name": "2dffe534615f60ee2382fa30a9156538", "fusion_lon": 0.0, "bike_id": "2dffe534615f60ee2382fa30a9156538", "is_reserved": 0, "rental_uris": {"android": "https://dc.lft.to/lastmile_qr_scan", "ios": "https://dc.lft.to/lastmile_qr_scan"}, "lat": 38.9052815, "is_disabled": 0, "lon": -77.005382}, {"fusion_lat": 0.0, "type": "electric_scooter", "name": "83ed0a6e51fe45e269266b53120bc5b3", "fusion_lon": 0.0, "bike_id": "83ed0a6e51fe45e269266b53120bc5b3", "is_reserved": 0, "rental_uris": {"android": "https://dc.lft.to/lastmile_qr_scan", "ios": "https://dc.lft.to/lastmile_qr_scan"}, "lat": 38.922461, "is_disabled": 0, "lon": -77.02858566666667}, {"fusion_lat": 0.0, "type": "electric_scooter", "name": "9e114eb0150d99fa94fd6571f25621f5", "fusion_lon": 0.0, "bike_id": "9e114eb0150d99fa94fd6571f25621f5", "is_reserved": 0, "rental_uris": {"android": "https://dc.lft.to/lastmile_qr_scan", "ios": "https://dc.lft.to/lastmile_qr_scan"}, "lat": 38.90857533333333, "is_disabled": 0, "lon": -77.02359433333334}, {"fusion_lat": 0.0, "type": "electric_scooter", "name": "2a9a66a312951e52f61b983ae8e2cac3", "fusion_lon": 0.0, "bike_id": "2a9a66a312951e52f61b983ae8e2cac3", "is_reserved": 0, "rental_uris": {"android": "https://dc.lft.to/lastmile_qr_scan", "ios": "https://dc.lft.to/lastmile_qr_scan"}, "lat": 38.87464166666667, "is_disabled": 0, "lon": -77.01592766666667}, {"fusion_lat": 0.0, "type": "electric_scooter", "name": "97bd7ef4b31f2bb7d251dbededef1b95", "fusion_lon": 0.0, "bike_id": "97bd7ef4b31f2bb7d251dbededef1b95", "is_reserved": 0, "rental_uris": {"android": "https://dc.lft.to/lastmile_qr_scan", "ios": "https://dc.lft.to/lastmile_qr_scan"}, "lat": 38.89781166666667, "is_disabled": 0, "lon": -77.05469733333334}, {"fusion_lat": 0.0, "type": "electric_scooter", "name": "85e0a3beb6bbcd9bc12ef33e6555e9ce", "fusion_lon": 0.0, "bike_id": "85e0a3beb6bbcd9bc12ef33e6555e9ce", "is_reserved": 0, "rental_uris": {"android": "https://dc.lft.to/lastmile_qr_scan", "ios": "https://dc.lft.to/lastmile_qr_scan"}, "lat": 38.90167783333333, "is_disabled": 0, "lon": -77.016122}, {"fusion_lat": 0.0, "type": "electric_scooter", "name": "bfc593f40897055f915a2c6712d41aa8", "fusion_lon": 0.0, "bike_id": "bfc593f40897055f915a2c6712d41aa8", "is_reserved": 0, "rental_uris": {"android": "https://dc.lft.to/lastmile_qr_scan", "ios": "https://dc.lft.to/lastmile_qr_scan"}, "lat": 38.928246, "is_disabled": 0, "lon": -77.022562}, {"fusion_lat": 0.0, "type": "electric_scooter", "name": "f4f03cab07a3e7b7b8b022583d79ab84", "fusion_lon": 0.0, "bike_id": "f4f03cab07a3e7b7b8b022583d79ab84", "is_reserved": 0, "rental_uris": {"android": "https://dc.lft.to/lastmile_qr_scan", "ios": "https://dc.lft.to/lastmile_qr_scan"}, "lat": 38.944016, "is_disabled": 0, "lon": -77.02679883333333}, {"fusion_lat": 0.0, "type": "electric_bike", "name": "377d5085fb80a53f78a641a613d980a2", "fusion_lon": 0.0, "bike_id": "377d5085fb80a53f78a641a613d980a2", "is_reserved": 0, "rental_uris": {"android": "https://dc.lft.to/lastmile_qr_scan", "ios": "https://dc.lft.to/lastmile_qr_scan"}, "lat": 38.896176, "is_disabled": 0, "lon": -76.90742783333333}, {"fusion_lat": 0.0, "type": "electric_scooter", "name": "5dca2f2ed57854c5959a4d4cc4bb3007", "fusion_lon": 0.0, "bike_id": "5dca2f2ed57854c5959a4d4cc4bb3007", "is_reserved": 0, "rental_uris": {"android": "https://dc.lft.to/lastmile_qr_scan", "ios": "https://dc.lft.to/lastmile_qr_scan"}, "lat": 38.86660633333334, "is_disabled": 0, "lon": -76.9851185}, {"fusion_lat": 0.0, "type": "electric_scooter", "name": "a3567f3f6b34f29b664ec516371d66cb", "fusion_lon": 0.0, "bike_id": "a3567f3f6b34f29b664ec516371d66cb", "is_reserved": 0, "rental_uris": {"android": "https://dc.lft.to/lastmile_qr_scan", "ios": "https://dc.lft.to/lastmile_qr_scan"}, "lat": 38.91185683333333, "is_disabled": 0, "lon": -77.022068}, {"fusion_lat": 0.0, "type": "electric_scooter", "name": "0d8b4f3cb80bee97b6c98014b3689ffe", "fusion_lon": 0.0, "bike_id": "0d8b4f3cb80bee97b6c98014b3689ffe", "is_reserved": 0, "rental_uris": {"android": "https://dc.lft.to/lastmile_qr_scan", "ios": "https://dc.lft.to/lastmile_qr_scan"}, "lat": 38.91238033333333, "is_disabled": 0, "lon": -77.00918833333333}, {"fusion_lat": 0.0, "type": "electric_scooter", "name": "567779ff4aba758c845bdc9d2f38679f", "fusion_lon": 0.0, "bike_id": "567779ff4aba758c845bdc9d2f38679f", "is_reserved": 0, "rental_uris": {"android": "https://dc.lft.to/lastmile_qr_scan", "ios": "https://dc.lft.to/lastmile_qr_scan"}, "lat": 38.9025645, "is_disabled": 0, "lon": -76.97409266666666}, {"fusion_lat": 0.0, "type": "electric_scooter", "name": "94a7e9c6dc9d4e73aef9672eaacbb865", "fusion_lon": 0.0, "bike_id": "94a7e9c6dc9d4e73aef9672eaacbb865", "is_reserved": 0, "rental_uris": {"android": "https://dc.lft.to/lastmile_qr_scan", "ios": "https://dc.lft.to/lastmile_qr_scan"}, "lat": 38.925833, "is_disabled": 0, "lon": -77.028669}, {"fusion_lat": 0.0, "type": "electric_scooter", "name": "5af2bb273e0b40a46b78e8e332a7c9f4", "fusion_lon": 0.0, "bike_id": "5af2bb273e0b40a46b78e8e332a7c9f4", "is_reserved": 0, "rental_uris": {"android": "https://dc.lft.to/lastmile_qr_scan", "ios": "https://dc.lft.to/lastmile_qr_scan"}, "lat": 38.89168566666667, "is_disabled": 0, "lon": -76.91185183333333}, {"fusion_lat": 0.0, "type": "electric_scooter", "name": "4d0e3c425df785494d7c4271ff7b5bc9", "fusion_lon": 0.0, "bike_id": "4d0e3c425df785494d7c4271ff7b5bc9", "is_reserved": 0, "rental_uris": {"android": "https://dc.lft.to/lastmile_qr_scan", "ios": "https://dc.lft.to/lastmile_qr_scan"}, "lat": 38.899653, "is_disabled": 0, "lon": -77.00667883333334}, {"fusion_lat": 0.0, "type": "electric_scooter", "name": "3f7d3263af9f857fd8f1e8bef3378081", "fusion_lon": 0.0, "bike_id": "3f7d3263af9f857fd8f1e8bef3378081", "is_reserved": 0, "rental_uris": {"android": "https://dc.lft.to/lastmile_qr_scan", "ios": "https://dc.lft.to/lastmile_qr_scan"}, "lat": 38.93490333333333, "is_disabled": 0, "lon": -77.04525883333334}, {"fusion_lat": 0.0, "type": "electric_scooter", "name": "805b3ec33f2567dcd7db4f2f1a13a435", "fusion_lon": 0.0, "bike_id": "805b3ec33f2567dcd7db4f2f1a13a435", "is_reserved": 0, "rental_uris": {"android": "https://dc.lft.to/lastmile_qr_scan", "ios": "https://dc.lft.to/lastmile_qr_scan"}, "lat": 38.918287, "is_disabled": 0, "lon": -77.032118}, {"fusion_lat": 0.0, "type": "electric_scooter", "name": "d443fa0247e0b7450f781985826298a1", "fusion_lon": 0.0, "bike_id": "d443fa0247e0b7450f781985826298a1", "is_reserved": 0, "rental_uris": {"android": "https://dc.lft.to/lastmile_qr_scan", "ios": "https://dc.lft.to/lastmile_qr_scan"}, "lat": 38.90772183333333, "is_disabled": 0, "lon": -77.03496666666666}, {"fusion_lat": 0.0, "type": "electric_scooter", "name": "452b93abe76070af1cbfbbf7036f62e1", "fusion_lon": 0.0, "bike_id": "452b93abe76070af1cbfbbf7036f62e1", "is_reserved": 0, "rental_uris": {"android": "https://dc.lft.to/lastmile_qr_scan", "ios": "https://dc.lft.to/lastmile_qr_scan"}, "lat": 38.891479, "is_disabled": 0, "lon": -76.983848}, {"fusion_lat": 0.0, "type": "electric_scooter", "name": "8a92c5a851831b64e9e122284ba1ac4f", "fusion_lon": 0.0, "bike_id": "8a92c5a851831b64e9e122284ba1ac4f", "is_reserved": 0, "rental_uris": {"android": "https://dc.lft.to/lastmile_qr_scan", "ios": "https://dc.lft.to/lastmile_qr_scan"}, "lat": 38.92259516666667, "is_disabled": 0, "lon": -77.02959983333334}, {"fusion_lat": 0.0, "type": "electric_scooter", "name": "ab341e9ad6569f979d46a278a2da7cbd", "fusion_lon": 0.0, "bike_id": "ab341e9ad6569f979d46a278a2da7cbd", "is_reserved": 0, "rental_uris": {"android": "https://dc.lft.to/lastmile_qr_scan", "ios": "https://dc.lft.to/lastmile_qr_scan"}, "lat": 38.86405516666667, "is_disabled": 0, "lon": -76.97435883333333}, {"fusion_lat": 0.0, "type": "electric_scooter", "name": "3770efe1df12104080ef7927fbe4fe29", "fusion_lon": 0.0, "bike_id": "3770efe1df12104080ef7927fbe4fe29", "is_reserved": 0, "rental_uris": {"android": "https://dc.lft.to/lastmile_qr_scan", "ios": "https://dc.lft.to/lastmile_qr_scan"}, "lat": 38.892231, "is_disabled": 0, "lon": -77.03213733333334}, {"fusion_lat": 0.0, "type": "electric_scooter", "name": "78cca17c9b18ee07dc41afaee9df86d6", "fusion_lon": 0.0, "bike_id": "78cca17c9b18ee07dc41afaee9df86d6", "is_reserved": 0, "rental_uris": {"android": "https://dc.lft.to/lastmile_qr_scan", "ios": "https://dc.lft.to/lastmile_qr_scan"}, "lat": 38.93255416666667, "is_disabled": 0, "lon": -77.03856983333333}, {"fusion_lat": 0.0, "type": "electric_scooter", "name": "c3ef793a6137747dd3d985e359084745", "fusion_lon": 0.0, "bike_id": "c3ef793a6137747dd3d985e359084745", "is_reserved": 0, "rental_uris": {"android": "https://dc.lft.to/lastmile_qr_scan", "ios": "https://dc.lft.to/lastmile_qr_scan"}, "lat": 38.916535, "is_disabled": 0, "lon": -77.03713716666667}, {"fusion_lat": 0.0, "type": "electric_scooter", "name": "f64dbe807ef69e7dbc7ed6059e6ad131", "fusion_lon": 0.0, "bike_id": "f64dbe807ef69e7dbc7ed6059e6ad131", "is_reserved": 0, "rental_uris": {"android": "https://dc.lft.to/lastmile_qr_scan", "ios": "https://dc.lft.to/lastmile_qr_scan"}, "lat": 38.9232995, "is_disabled": 0, "lon": -77.0446025}, {"fusion_lat": 0.0, "type": "electric_scooter", "name": "7bbb9764a602cbaee49f522b17999a62", "fusion_lon": 0.0, "bike_id": "7bbb9764a602cbaee49f522b17999a62", "is_reserved": 0, "rental_uris": {"android": "https://dc.lft.to/lastmile_qr_scan", "ios": "https://dc.lft.to/lastmile_qr_scan"}, "lat": 38.901720166666664, "is_disabled": 0, "lon": -76.98078416666667}, {"fusion_lat": 0.0, "type": "electric_scooter", "name": "dc61bed135c5688f5f50638319bd7724", "fusion_lon": 0.0, "bike_id": "dc61bed135c5688f5f50638319bd7724", "is_reserved": 0, "rental_uris": {"android": "https://dc.lft.to/lastmile_qr_scan", "ios": "https://dc.lft.to/lastmile_qr_scan"}, "lat": 38.917601833333336, "is_disabled": 0, "lon": -77.03141616666667}, {"fusion_lat": 0.0, "type": "electric_scooter", "name": "b35520b02d18b8ab8c14a008991051db", "fusion_lon": 0.0, "bike_id": "b35520b02d18b8ab8c14a008991051db", "is_reserved": 0, "rental_uris": {"android": "https://dc.lft.to/lastmile_qr_scan", "ios": "https://dc.lft.to/lastmile_qr_scan"}, "lat": 38.91412866666667, "is_disabled": 0, "lon": -77.03233566666667}, {"fusion_lat": 0.0, "type": "electric_scooter", "name": "565428e9b924f1de04e57242f2d0477f", "fusion_lon": 0.0, "bike_id": "565428e9b924f1de04e57242f2d0477f", "is_reserved": 0, "rental_uris": {"android": "https://dc.lft.to/lastmile_qr_scan", "ios": "https://dc.lft.to/lastmile_qr_scan"}, "lat": 38.894375833333335, "is_disabled": 0, "lon": -77.02103683333333}, {"fusion_lat": 0.0, "type": "electric_scooter", "name": "b917cc3ccd55928ef8a0d5178ba9d4ed", "fusion_lon": 0.0, "bike_id": "b917cc3ccd55928ef8a0d5178ba9d4ed", "is_reserved": 0, "rental_uris": {"android": "https://dc.lft.to/lastmile_qr_scan", "ios": "https://dc.lft.to/lastmile_qr_scan"}, "lat": 38.89315333333333, "is_disabled": 0, "lon": -76.951199}, {"fusion_lat": 0.0, "type": "electric_scooter", "name": "3991452f3111175d8b2987bee68ce290", "fusion_lon": 0.0, "bike_id": "3991452f3111175d8b2987bee68ce290", "is_reserved": 0, "rental_uris": {"android": "https://dc.lft.to/lastmile_qr_scan", "ios": "https://dc.lft.to/lastmile_qr_scan"}, "lat": 38.91689616666667, "is_disabled": 0, "lon": -77.02195783333333}, {"fusion_lat": 0.0, "type": "electric_scooter", "name": "dce6c413a5e58a64bc7265d220ea9146", "fusion_lon": 0.0, "bike_id": "dce6c413a5e58a64bc7265d220ea9146", "is_reserved": 0, "rental_uris": {"android": "https://dc.lft.to/lastmile_qr_scan", "ios": "https://dc.lft.to/lastmile_qr_scan"}, "lat": 38.896147, "is_disabled": 0, "lon": -76.992973}, {"fusion_lat": 0.0, "type": "electric_scooter", "name": "0f7fd967837b68ac32ccc1ce82df9ff4", "fusion_lon": 0.0, "bike_id": "0f7fd967837b68ac32ccc1ce82df9ff4", "is_reserved": 0, "rental_uris": {"android": "https://dc.lft.to/lastmile_qr_scan", "ios": "https://dc.lft.to/lastmile_qr_scan"}, "lat": 38.941828, "is_disabled": 0, "lon": -77.025351}, {"fusion_lat": 0.0, "type": "electric_scooter", "name": "324801ee93937b237f2b3c07ea300ec1", "fusion_lon": 0.0, "bike_id": "324801ee93937b237f2b3c07ea300ec1", "is_reserved": 0, "rental_uris": {"android": "https://dc.lft.to/lastmile_qr_scan", "ios": "https://dc.lft.to/lastmile_qr_scan"}, "lat": 38.884261, "is_disabled": 0, "lon": -77.030503}, {"fusion_lat": 0.0, "type": "electric_scooter", "name": "c653cb16782870154a911c8f088ddd0c", "fusion_lon": 0.0, "bike_id": "c653cb16782870154a911c8f088ddd0c", "is_reserved": 0, "rental_uris": {"android": "https://dc.lft.to/lastmile_qr_scan", "ios": "https://dc.lft.to/lastmile_qr_scan"}, "lat": 38.90727033333334, "is_disabled": 0, "lon": -77.03474783333333}, {"fusion_lat": 0.0, "type": "electric_scooter", "name": "5528981b02618f992770716a078b9e46", "fusion_lon": 0.0, "bike_id": "5528981b02618f992770716a078b9e46", "is_reserved": 0, "rental_uris": {"android": "https://dc.lft.to/lastmile_qr_scan", "ios": "https://dc.lft.to/lastmile_qr_scan"}, "lat": 38.918177666666665, "is_disabled": 0, "lon": -77.02525066666666}, {"fusion_lat": 0.0, "type": "electric_scooter", "name": "522496e752cbec94ae0871239249e90a", "fusion_lon": 0.0, "bike_id": "522496e752cbec94ae0871239249e90a", "is_reserved": 0, "rental_uris": {"android": "https://dc.lft.to/lastmile_qr_scan", "ios": "https://dc.lft.to/lastmile_qr_scan"}, "lat": 38.9351085, "is_disabled": 0, "lon": -77.02420183333334}, {"fusion_lat": 0.0, "type": "electric_scooter", "name": "44a27721ce6f3ffd7316adfdfc322406", "fusion_lon": 0.0, "bike_id": "44a27721ce6f3ffd7316adfdfc322406", "is_reserved": 0, "rental_uris": {"android": "https://dc.lft.to/lastmile_qr_scan", "ios": "https://dc.lft.to/lastmile_qr_scan"}, "lat": 38.91675466666667, "is_disabled": 0, "lon": -77.03689216666666}, {"fusion_lat": 0.0, "type": "electric_scooter", "name": "8cc16c94b362f751a37167cdc0cfdd0f", "fusion_lon": 0.0, "bike_id": "8cc16c94b362f751a37167cdc0cfdd0f", "is_reserved": 0, "rental_uris": {"android": "https://dc.lft.to/lastmile_qr_scan", "ios": "https://dc.lft.to/lastmile_qr_scan"}, "lat": 38.89214166666667, "is_disabled": 0, "lon": -77.03164083333333}, {"fusion_lat": 0.0, "type": "electric_scooter", "name": "5ad98b0e526e6d414454d1b0f449ce20", "fusion_lon": 0.0, "bike_id": "5ad98b0e526e6d414454d1b0f449ce20", "is_reserved": 0, "rental_uris": {"android": "https://dc.lft.to/lastmile_qr_scan", "ios": "https://dc.lft.to/lastmile_qr_scan"}, "lat": 38.9406635, "is_disabled": 0, "lon": -77.0253635}, {"fusion_lat": 0.0, "type": "electric_scooter", "name": "c5c16f38ad121db89de8800d33f66e52", "fusion_lon": 0.0, "bike_id": "c5c16f38ad121db89de8800d33f66e52", "is_reserved": 0, "rental_uris": {"android": "https://dc.lft.to/lastmile_qr_scan", "ios": "https://dc.lft.to/lastmile_qr_scan"}, "lat": 38.88991816666667, "is_disabled": 0, "lon": -76.931091}, {"fusion_lat": 0.0, "type": "electric_scooter", "name": "7c884b1e995e97efd5057393c087a93e", "fusion_lon": 0.0, "bike_id": "7c884b1e995e97efd5057393c087a93e", "is_reserved": 0, "rental_uris": {"android": "https://dc.lft.to/lastmile_qr_scan", "ios": "https://dc.lft.to/lastmile_qr_scan"}, "lat": 38.903181333333336, "is_disabled": 0, "lon": -77.03296916666666}, {"fusion_lat": 0.0, "type": "electric_bike", "name": "cf898f578518a18c853e3a10ba6c408d", "fusion_lon": 0.0, "bike_id": "cf898f578518a18c853e3a10ba6c408d", "is_reserved": 0, "rental_uris": {"android": "https://dc.lft.to/lastmile_qr_scan", "ios": "https://dc.lft.to/lastmile_qr_scan"}, "lat": 38.88339366666666, "is_disabled": 0, "lon": -77.06567133333333}, {"fusion_lat": 0.0, "type": "electric_bike", "name": "c9055d45f500f6a16c9e549cd99e92d7", "fusion_lon": 0.0, "bike_id": "c9055d45f500f6a16c9e549cd99e92d7", "is_reserved": 0, "rental_uris": {"android": "https://dc.lft.to/lastmile_qr_scan", "ios": "https://dc.lft.to/lastmile_qr_scan"}, "lat": 39.0549845, "is_disabled": 0, "lon": -77.11788783333333}, {"fusion_lat": 0.0, "type": "electric_bike", "name": "2756f9d125e15841a5eeccd653f2d53c", "fusion_lon": 0.0, "bike_id": "2756f9d125e15841a5eeccd653f2d53c", "is_reserved": 0, "rental_uris": {"android": "https://dc.lft.to/lastmile_qr_scan", "ios": "https://dc.lft.to/lastmile_qr_scan"}, "lat": 39.03429466666667, "is_disabled": 0, "lon": -77.04102316666666}, {"fusion_lat": 0.0, "type": "electric_scooter", "name": "fed4dd87161a04a8e4e2b1c46794dd39", "fusion_lon": 0.0, "bike_id": "fed4dd87161a04a8e4e2b1c46794dd39", "is_reserved": 0, "rental_uris": {"android": "https://dc.lft.to/lastmile_qr_scan", "ios": "https://dc.lft.to/lastmile_qr_scan"}, "lat": 38.892537833333336, "is_disabled": 0, "lon": -76.98839866666667}, {"fusion_lat": 0.0, "type": "electric_scooter", "name": "eddb8a608a7b728ee62c87a004c526f9", "fusion_lon": 0.0, "bike_id": "eddb8a608a7b728ee62c87a004c526f9", "is_reserved": 0, "rental_uris": {"android": "https://dc.lft.to/lastmile_qr_scan", "ios": "https://dc.lft.to/lastmile_qr_scan"}, "lat": 38.921532166666665, "is_disabled": 0, "lon": -77.03359366666666}, {"fusion_lat": 0.0, "type": "electric_scooter", "name": "a1dfea8c52df1965fdc9fec397a38b47", "fusion_lon": 0.0, "bike_id": "a1dfea8c52df1965fdc9fec397a38b47", "is_reserved": 0, "rental_uris": {"android": "https://dc.lft.to/lastmile_qr_scan", "ios": "https://dc.lft.to/lastmile_qr_scan"}, "lat": 38.903578, "is_disabled": 0, "lon": -77.0400035}, {"fusion_lat": 0.0, "type": "electric_scooter", "name": "dae166afb5d8615f3cd402a3888ce997", "fusion_lon": 0.0, "bike_id": "dae166afb5d8615f3cd402a3888ce997", "is_reserved": 0, "rental_uris": {"android": "https://dc.lft.to/lastmile_qr_scan", "ios": "https://dc.lft.to/lastmile_qr_scan"}, "lat": 38.91986516666667, "is_disabled": 0, "lon": -77.03795083333333}, {"fusion_lat": 0.0, "type": "electric_scooter", "name": "05bbfb92e5991a410552b9dbe8cc723c", "fusion_lon": 0.0, "bike_id": "05bbfb92e5991a410552b9dbe8cc723c", "is_reserved": 0, "rental_uris": {"android": "https://dc.lft.to/lastmile_qr_scan", "ios": "https://dc.lft.to/lastmile_qr_scan"}, "lat": 38.920900333333336, "is_disabled": 0, "lon": -77.02324366666667}, {"fusion_lat": 0.0, "type": "electric_scooter", "name": "863c82508e28be0a2d7c346ad353e40b", "fusion_lon": 0.0, "bike_id": "863c82508e28be0a2d7c346ad353e40b", "is_reserved": 0, "rental_uris": {"android": "https://dc.lft.to/lastmile_qr_scan", "ios": "https://dc.lft.to/lastmile_qr_scan"}, "lat": 38.879662333333336, "is_disabled": 0, "lon": -76.98741983333333}, {"fusion_lat": 0.0, "type": "electric_scooter", "name": "1ec97f52a37b46eb1fa7d9a998a78f8f", "fusion_lon": 0.0, "bike_id": "1ec97f52a37b46eb1fa7d9a998a78f8f", "is_reserved": 0, "rental_uris": {"android": "https://dc.lft.to/lastmile_qr_scan", "ios": "https://dc.lft.to/lastmile_qr_scan"}, "lat": 38.899751, "is_disabled": 0, "lon": -77.03338716666667}, {"fusion_lat": 0.0, "type": "electric_scooter", "name": "9b0c6904d8377ba8fbf267780ed4ae36", "fusion_lon": 0.0, "bike_id": "9b0c6904d8377ba8fbf267780ed4ae36", "is_reserved": 0, "rental_uris": {"android": "https://dc.lft.to/lastmile_qr_scan", "ios": "https://dc.lft.to/lastmile_qr_scan"}, "lat": 38.8718835, "is_disabled": 0, "lon": -77.00591233333333}, {"fusion_lat": 0.0, "type": "electric_scooter", "name": "98c28bd8d39212f01ea9f5b2901d653e", "fusion_lon": 0.0, "bike_id": "98c28bd8d39212f01ea9f5b2901d653e", "is_reserved": 0, "rental_uris": {"android": "https://dc.lft.to/lastmile_qr_scan", "ios": "https://dc.lft.to/lastmile_qr_scan"}, "lat": 38.915679, "is_disabled": 0, "lon": -77.02389533333333}, {"fusion_lat": 0.0, "type": "electric_scooter", "name": "806cf4ad24509f28b42c43b1cc784eea", "fusion_lon": 0.0, "bike_id": "806cf4ad24509f28b42c43b1cc784eea", "is_reserved": 0, "rental_uris": {"android": "https://dc.lft.to/lastmile_qr_scan", "ios": "https://dc.lft.to/lastmile_qr_scan"}, "lat": 38.9125795, "is_disabled": 0, "lon": -77.03763716666667}, {"fusion_lat": 0.0, "type": "electric_scooter", "name": "e736b05d742404b61950f3d6d55cd397", "fusion_lon": 0.0, "bike_id": "e736b05d742404b61950f3d6d55cd397", "is_reserved": 0, "rental_uris": {"android": "https://dc.lft.to/lastmile_qr_scan", "ios": "https://dc.lft.to/lastmile_qr_scan"}, "lat": 38.885545666666665, "is_disabled": 0, "lon": -77.020036}, {"fusion_lat": 0.0, "type": "electric_scooter", "name": "9dd9fd5e8421cb8bb32de6efd6cfca57", "fusion_lon": 0.0, "bike_id": "9dd9fd5e8421cb8bb32de6efd6cfca57", "is_reserved": 0, "rental_uris": {"android": "https://dc.lft.to/lastmile_qr_scan", "ios": "https://dc.lft.to/lastmile_qr_scan"}, "lat": 38.9111895, "is_disabled": 0, "lon": -77.03150516666666}, {"fusion_lat": 0.0, "type": "electric_scooter", "name": "4391bea7129542cc2136ca96db1093cc", "fusion_lon": 0.0, "bike_id": "4391bea7129542cc2136ca96db1093cc", "is_reserved": 0, "rental_uris": {"android": "https://dc.lft.to/lastmile_qr_scan", "ios": "https://dc.lft.to/lastmile_qr_scan"}, "lat": 38.92222666666667, "is_disabled": 0, "lon": -77.042423}, {"fusion_lat": 0.0, "type": "electric_scooter", "name": "2456dc30a6fb3a4ec035ca08ba3d2179", "fusion_lon": 0.0, "bike_id": "2456dc30a6fb3a4ec035ca08ba3d2179", "is_reserved": 0, "rental_uris": {"android": "https://dc.lft.to/lastmile_qr_scan", "ios": "https://dc.lft.to/lastmile_qr_scan"}, "lat": 38.89227916666667, "is_disabled": 0, "lon": -77.03112566666667}, {"fusion_lat": 0.0, "type": "electric_scooter", "name": "7810c90cb9ad1be9c51195e33a333d73", "fusion_lon": 0.0, "bike_id": "7810c90cb9ad1be9c51195e33a333d73", "is_reserved": 0, "rental_uris": {"android": "https://dc.lft.to/lastmile_qr_scan", "ios": "https://dc.lft.to/lastmile_qr_scan"}, "lat": 38.93472583333333, "is_disabled": 0, "lon": -77.08659133333333}, {"fusion_lat": 0.0, "type": "electric_scooter", "name": "50917c73c7a0094f967b35985ac0d1cb", "fusion_lon": 0.0, "bike_id": "50917c73c7a0094f967b35985ac0d1cb", "is_reserved": 0, "rental_uris": {"android": "https://dc.lft.to/lastmile_qr_scan", "ios": "https://dc.lft.to/lastmile_qr_scan"}, "lat": 38.892513, "is_disabled": 0, "lon": -77.046611}, {"fusion_lat": 0.0, "type": "electric_scooter", "name": "2b828504825586b035975d9b377e29cc", "fusion_lon": 0.0, "bike_id": "2b828504825586b035975d9b377e29cc", "is_reserved": 0, "rental_uris": {"android": "https://dc.lft.to/lastmile_qr_scan", "ios": "https://dc.lft.to/lastmile_qr_scan"}, "lat": 38.9170795, "is_disabled": 0, "lon": -77.03863833333334}, {"fusion_lat": 0.0, "type": "electric_scooter", "name": "5d83e67c6f7024f58a82a65cfdc15c37", "fusion_lon": 0.0, "bike_id": "5d83e67c6f7024f58a82a65cfdc15c37", "is_reserved": 0, "rental_uris": {"android": "https://dc.lft.to/lastmile_qr_scan", "ios": "https://dc.lft.to/lastmile_qr_scan"}, "lat": 38.91266683333333, "is_disabled": 0, "lon": -77.03069216666667}, {"fusion_lat": 0.0, "type": "electric_scooter", "name": "2aa7ea517ea422f54941a2562b93b65c", "fusion_lon": 0.0, "bike_id": "2aa7ea517ea422f54941a2562b93b65c", "is_reserved": 0, "rental_uris": {"android": "https://dc.lft.to/lastmile_qr_scan", "ios": "https://dc.lft.to/lastmile_qr_scan"}, "lat": 38.90754066666667, "is_disabled": 0, "lon": -77.00287083333333}, {"fusion_lat": 0.0, "type": "electric_scooter", "name": "5603024b00c37c762817d3808560097a", "fusion_lon": 0.0, "bike_id": "5603024b00c37c762817d3808560097a", "is_reserved": 0, "rental_uris": {"android": "https://dc.lft.to/lastmile_qr_scan", "ios": "https://dc.lft.to/lastmile_qr_scan"}, "lat": 38.949023333333336, "is_disabled": 0, "lon": -77.02069116666667}, {"fusion_lat": 0.0, "type": "electric_scooter", "name": "1db1b2d2f3d24cc5457fa19d729b9c70", "fusion_lon": 0.0, "bike_id": "1db1b2d2f3d24cc5457fa19d729b9c70", "is_reserved": 0, "rental_uris": {"android": "https://dc.lft.to/lastmile_qr_scan", "ios": "https://dc.lft.to/lastmile_qr_scan"}, "lat": 38.8922365, "is_disabled": 0, "lon": -77.043123}, {"fusion_lat": 0.0, "type": "electric_scooter", "name": "e404d1f76436973c7d039b1be80404e6", "fusion_lon": 0.0, "bike_id": "e404d1f76436973c7d039b1be80404e6", "is_reserved": 0, "rental_uris": {"android": "https://dc.lft.to/lastmile_qr_scan", "ios": "https://dc.lft.to/lastmile_qr_scan"}, "lat": 38.881238833333335, "is_disabled": 0, "lon": -77.01680783333333}, {"fusion_lat": 0.0, "type": "electric_scooter", "name": "85f59fd1e604ee0bd70fa88958a64fb4", "fusion_lon": 0.0, "bike_id": "85f59fd1e604ee0bd70fa88958a64fb4", "is_reserved": 0, "rental_uris": {"android": "https://dc.lft.to/lastmile_qr_scan", "ios": "https://dc.lft.to/lastmile_qr_scan"}, "lat": 38.8666085, "is_disabled": 0, "lon": -76.985044}, {"fusion_lat": 0.0, "type": "electric_scooter", "name": "a69acb5ccf6c4cd2c652405c3fc26f47", "fusion_lon": 0.0, "bike_id": "a69acb5ccf6c4cd2c652405c3fc26f47", "is_reserved": 0, "rental_uris": {"android": "https://dc.lft.to/lastmile_qr_scan", "ios": "https://dc.lft.to/lastmile_qr_scan"}, "lat": 38.89803966666667, "is_disabled": 0, "lon": -76.9916305}, {"fusion_lat": 0.0, "type": "electric_scooter", "name": "0754dca3dab30c78af798c5abe229754", "fusion_lon": 0.0, "bike_id": "0754dca3dab30c78af798c5abe229754", "is_reserved": 0, "rental_uris": {"android": "https://dc.lft.to/lastmile_qr_scan", "ios": "https://dc.lft.to/lastmile_qr_scan"}, "lat": 38.975426666666664, "is_disabled": 0, "lon": -77.01689216666666}, {"fusion_lat": 0.0, "type": "electric_scooter", "name": "38b549dfc35f72cd49efad33daaabcdd", "fusion_lon": 0.0, "bike_id": "38b549dfc35f72cd49efad33daaabcdd", "is_reserved": 0, "rental_uris": {"android": "https://dc.lft.to/lastmile_qr_scan", "ios": "https://dc.lft.to/lastmile_qr_scan"}, "lat": 38.906468333333336, "is_disabled": 0, "lon": -77.0101715}, {"fusion_lat": 0.0, "type": "electric_scooter", "name": "0f662fbc2b64f678079b6088b0ce3313", "fusion_lon": 0.0, "bike_id": "0f662fbc2b64f678079b6088b0ce3313", "is_reserved": 0, "rental_uris": {"android": "https://dc.lft.to/lastmile_qr_scan", "ios": "https://dc.lft.to/lastmile_qr_scan"}, "lat": 38.892203, "is_disabled": 0, "lon": -77.03163433333333}, {"fusion_lat": 0.0, "type": "electric_scooter", "name": "836d92bed002f604c9045128ef463a89", "fusion_lon": 0.0, "bike_id": "836d92bed002f604c9045128ef463a89", "is_reserved": 0, "rental_uris": {"android": "https://dc.lft.to/lastmile_qr_scan", "ios": "https://dc.lft.to/lastmile_qr_scan"}, "lat": 38.897432, "is_disabled": 0, "lon": -76.9897925}, {"fusion_lat": 0.0, "type": "electric_scooter", "name": "f3669c8f63b031da495c99e5c6b4b1f1", "fusion_lon": 0.0, "bike_id": "f3669c8f63b031da495c99e5c6b4b1f1", "is_reserved": 0, "rental_uris": {"android": "https://dc.lft.to/lastmile_qr_scan", "ios": "https://dc.lft.to/lastmile_qr_scan"}, "lat": 38.92816533333333, "is_disabled": 0, "lon": -77.0544525}, {"fusion_lat": 0.0, "type": "electric_scooter", "name": "ebdc6f71671e50bfd4aca1a05d893031", "fusion_lon": 0.0, "bike_id": "ebdc6f71671e50bfd4aca1a05d893031", "is_reserved": 0, "rental_uris": {"android": "https://dc.lft.to/lastmile_qr_scan", "ios": "https://dc.lft.to/lastmile_qr_scan"}, "lat": 38.949909166666664, "is_disabled": 0, "lon": -77.02699666666666}, {"fusion_lat": 0.0, "type": "electric_bike", "name": "661aa39f1fd4701843797e4fd2eabe1a", "fusion_lon": 0.0, "bike_id": "661aa39f1fd4701843797e4fd2eabe1a", "is_reserved": 0, "rental_uris": {"android": "https://dc.lft.to/lastmile_qr_scan", "ios": "https://dc.lft.to/lastmile_qr_scan"}, "lat": 38.86515466666667, "is_disabled": 0, "lon": -76.9733155}, {"fusion_lat": 0.0, "type": "electric_bike", "name": "5f6d1b753e454e0fb88f391194eb5c16", "fusion_lon": 0.0, "bike_id": "5f6d1b753e454e0fb88f391194eb5c16", "is_reserved": 0, "rental_uris": {"android": "https://dc.lft.to/lastmile_qr_scan", "ios": "https://dc.lft.to/lastmile_qr_scan"}, "lat": 38.83812783333333, "is_disabled": 0, "lon": -77.09525033333334}, {"fusion_lat": 0.0, "type": "electric_scooter", "name": "e651da12d037a967fd27cad5a13fae84", "fusion_lon": 0.0, "bike_id": "e651da12d037a967fd27cad5a13fae84", "is_reserved": 0, "rental_uris": {"android": "https://dc.lft.to/lastmile_qr_scan", "ios": "https://dc.lft.to/lastmile_qr_scan"}, "lat": 38.892244166666664, "is_disabled": 0, "lon": -77.03342816666667}, {"fusion_lat": 0.0, "type": "electric_scooter", "name": "715fd21158729dbdfbbfc6d8efd2eb40", "fusion_lon": 0.0, "bike_id": "715fd21158729dbdfbbfc6d8efd2eb40", "is_reserved": 0, "rental_uris": {"android": "https://dc.lft.to/lastmile_qr_scan", "ios": "https://dc.lft.to/lastmile_qr_scan"}, "lat": 38.9057185, "is_disabled": 0, "lon": -77.027645}, {"fusion_lat": 0.0, "type": "electric_scooter", "name": "07d60b7c0c1b9c4f88f8ac9dbaf2c673", "fusion_lon": 0.0, "bike_id": "07d60b7c0c1b9c4f88f8ac9dbaf2c673", "is_reserved": 0, "rental_uris": {"android": "https://dc.lft.to/lastmile_qr_scan", "ios": "https://dc.lft.to/lastmile_qr_scan"}, "lat": 38.88767333333333, "is_disabled": 0, "lon": -77.01772616666666}, {"fusion_lat": 0.0, "type": "electric_scooter", "name": "929382e2c4f23a6c12ad17c4848c2252", "fusion_lon": 0.0, "bike_id": "929382e2c4f23a6c12ad17c4848c2252", "is_reserved": 0, "rental_uris": {"android": "https://dc.lft.to/lastmile_qr_scan", "ios": "https://dc.lft.to/lastmile_qr_scan"}, "lat": 38.92218416666667, "is_disabled": 0, "lon": -77.03904766666666}, {"fusion_lat": 0.0, "type": "electric_scooter", "name": "2c94e54d8bca2187fdd5057cbeeba967", "fusion_lon": 0.0, "bike_id": "2c94e54d8bca2187fdd5057cbeeba967", "is_reserved": 0, "rental_uris": {"android": "https://dc.lft.to/lastmile_qr_scan", "ios": "https://dc.lft.to/lastmile_qr_scan"}, "lat": 38.923994666666665, "is_disabled": 0, "lon": -77.0732955}, {"fusion_lat": 0.0, "type": "electric_scooter", "name": "e9f696e27011b7dbe3c41701d349150a", "fusion_lon": 0.0, "bike_id": "e9f696e27011b7dbe3c41701d349150a", "is_reserved": 0, "rental_uris": {"android": "https://dc.lft.to/lastmile_qr_scan", "ios": "https://dc.lft.to/lastmile_qr_scan"}, "lat": 38.924482, "is_disabled": 0, "lon": -77.041103}, {"fusion_lat": 0.0, "type": "electric_scooter", "name": "ea92648a5b27aebf5d1214fe7d4a6e2d", "fusion_lon": 0.0, "bike_id": "ea92648a5b27aebf5d1214fe7d4a6e2d", "is_reserved": 0, "rental_uris": {"android": "https://dc.lft.to/lastmile_qr_scan", "ios": "https://dc.lft.to/lastmile_qr_scan"}, "lat": 38.92331016666667, "is_disabled": 0, "lon": -77.03613066666666}, {"fusion_lat": 0.0, "type": "electric_scooter", "name": "06bf947783ecd088e04eae318e115e37", "fusion_lon": 0.0, "bike_id": "06bf947783ecd088e04eae318e115e37", "is_reserved": 0, "rental_uris": {"android": "https://dc.lft.to/lastmile_qr_scan", "ios": "https://dc.lft.to/lastmile_qr_scan"}, "lat": 38.905838, "is_disabled": 0, "lon": -77.025844}, {"fusion_lat": 0.0, "type": "electric_scooter", "name": "b1fa6aacaf16aaa3f22fcd9af85b37e6", "fusion_lon": 0.0, "bike_id": "b1fa6aacaf16aaa3f22fcd9af85b37e6", "is_reserved": 0, "rental_uris": {"android": "https://dc.lft.to/lastmile_qr_scan", "ios": "https://dc.lft.to/lastmile_qr_scan"}, "lat": 38.926823666666664, "is_disabled": 0, "lon": -77.026771}, {"fusion_lat": 0.0, "type": "electric_scooter", "name": "fedcabf882df9a0585c51bfecb29df8e", "fusion_lon": 0.0, "bike_id": "fedcabf882df9a0585c51bfecb29df8e", "is_reserved": 0, "rental_uris": {"android": "https://dc.lft.to/lastmile_qr_scan", "ios": "https://dc.lft.to/lastmile_qr_scan"}, "lat": 38.904632666666664, "is_disabled": 0, "lon": -76.98053333333333}, {"fusion_lat": 0.0, "type": "electric_scooter", "name": "467b1252be0e2b33235c82ef5ba127d5", "fusion_lon": 0.0, "bike_id": "467b1252be0e2b33235c82ef5ba127d5", "is_reserved": 0, "rental_uris": {"android": "https://dc.lft.to/lastmile_qr_scan", "ios": "https://dc.lft.to/lastmile_qr_scan"}, "lat": 38.892386, "is_disabled": 0, "lon": -77.02384733333334}, {"fusion_lat": 0.0, "type": "electric_scooter", "name": "c8c80374e7e4800f4c4f8cc3bdc2e3e4", "fusion_lon": 0.0, "bike_id": "c8c80374e7e4800f4c4f8cc3bdc2e3e4", "is_reserved": 0, "rental_uris": {"android": "https://dc.lft.to/lastmile_qr_scan", "ios": "https://dc.lft.to/lastmile_qr_scan"}, "lat": 38.899859166666666, "is_disabled": 0, "lon": -77.0012215}, {"fusion_lat": 0.0, "type": "electric_scooter", "name": "7d98fdbfb88cb8c08e250b0c7ef2e1b8", "fusion_lon": 0.0, "bike_id": "7d98fdbfb88cb8c08e250b0c7ef2e1b8", "is_reserved": 0, "rental_uris": {"android": "https://dc.lft.to/lastmile_qr_scan", "ios": "https://dc.lft.to/lastmile_qr_scan"}, "lat": 38.919776, "is_disabled": 0, "lon": -77.012143}, {"fusion_lat": 0.0, "type": "electric_scooter", "name": "af22bda7f1e5868008455ddc9cfcff96", "fusion_lon": 0.0, "bike_id": "af22bda7f1e5868008455ddc9cfcff96", "is_reserved": 0, "rental_uris": {"android": "https://dc.lft.to/lastmile_qr_scan", "ios": "https://dc.lft.to/lastmile_qr_scan"}, "lat": 38.910988, "is_disabled": 0, "lon": -77.044759}, {"fusion_lat": 0.0, "type": "electric_scooter", "name": "8f486fea0214debf28eab96485177a10", "fusion_lon": 0.0, "bike_id": "8f486fea0214debf28eab96485177a10", "is_reserved": 0, "rental_uris": {"android": "https://dc.lft.to/lastmile_qr_scan", "ios": "https://dc.lft.to/lastmile_qr_scan"}, "lat": 38.89355416666667, "is_disabled": 0, "lon": -77.022242}, {"fusion_lat": 0.0, "type": "electric_scooter", "name": "6b39926028202de391027cd6d06fefd5", "fusion_lon": 0.0, "bike_id": "6b39926028202de391027cd6d06fefd5", "is_reserved": 0, "rental_uris": {"android": "https://dc.lft.to/lastmile_qr_scan", "ios": "https://dc.lft.to/lastmile_qr_scan"}, "lat": 38.900226, "is_disabled": 0, "lon": -77.04375783333333}, {"fusion_lat": 0.0, "type": "electric_scooter", "name": "1fb419fcf671149c91dd39a1024f8366", "fusion_lon": 0.0, "bike_id": "1fb419fcf671149c91dd39a1024f8366", "is_reserved": 0, "rental_uris": {"android": "https://dc.lft.to/lastmile_qr_scan", "ios": "https://dc.lft.to/lastmile_qr_scan"}, "lat": 38.872501666666665, "is_disabled": 0, "lon": -76.97727683333333}, {"fusion_lat": 0.0, "type": "electric_scooter", "name": "8930e773f082143331da8fe8b314013b", "fusion_lon": 0.0, "bike_id": "8930e773f082143331da8fe8b314013b", "is_reserved": 0, "rental_uris": {"android": "https://dc.lft.to/lastmile_qr_scan", "ios": "https://dc.lft.to/lastmile_qr_scan"}, "lat": 38.90804766666667, "is_disabled": 0, "lon": -77.04316366666667}, {"fusion_lat": 0.0, "type": "electric_scooter", "name": "54bd70be2922ffd80ddb6c601ff53902", "fusion_lon": 0.0, "bike_id": "54bd70be2922ffd80ddb6c601ff53902", "is_reserved": 0, "rental_uris": {"android": "https://dc.lft.to/lastmile_qr_scan", "ios": "https://dc.lft.to/lastmile_qr_scan"}, "lat": 38.928247166666665, "is_disabled": 0, "lon": -77.021575}, {"fusion_lat": 0.0, "type": "electric_scooter", "name": "8fd99bba0da5031b3777cdcc6ee9c0f3", "fusion_lon": 0.0, "bike_id": "8fd99bba0da5031b3777cdcc6ee9c0f3", "is_reserved": 0, "rental_uris": {"android": "https://dc.lft.to/lastmile_qr_scan", "ios": "https://dc.lft.to/lastmile_qr_scan"}, "lat": 38.88446616666667, "is_disabled": 0, "lon": -76.92950133333333}, {"fusion_lat": 0.0, "type": "electric_scooter", "name": "6efe2d21a048e4210ff1f7481ae3fd74", "fusion_lon": 0.0, "bike_id": "6efe2d21a048e4210ff1f7481ae3fd74", "is_reserved": 0, "rental_uris": {"android": "https://dc.lft.to/lastmile_qr_scan", "ios": "https://dc.lft.to/lastmile_qr_scan"}, "lat": 38.893295333333334, "is_disabled": 0, "lon": -77.04677283333334}, {"fusion_lat": 0.0, "type": "electric_scooter", "name": "2c0fe15a741c79a534d9d9a84ae6311d", "fusion_lon": 0.0, "bike_id": "2c0fe15a741c79a534d9d9a84ae6311d", "is_reserved": 0, "rental_uris": {"android": "https://dc.lft.to/lastmile_qr_scan", "ios": "https://dc.lft.to/lastmile_qr_scan"}, "lat": 38.996061833333336, "is_disabled": 0, "lon": -77.03217716666667}, {"fusion_lat": 0.0, "type": "electric_scooter", "name": "bd9ae3eebf843c41bcb186083afd7265", "fusion_lon": 0.0, "bike_id": "bd9ae3eebf843c41bcb186083afd7265", "is_reserved": 0, "rental_uris": {"android": "https://dc.lft.to/lastmile_qr_scan", "ios": "https://dc.lft.to/lastmile_qr_scan"}, "lat": 38.939568333333334, "is_disabled": 0, "lon": -77.02495233333333}, {"fusion_lat": 0.0, "type": "electric_scooter", "name": "628d820188969746095e71cef03cae3a", "fusion_lon": 0.0, "bike_id": "628d820188969746095e71cef03cae3a", "is_reserved": 0, "rental_uris": {"android": "https://dc.lft.to/lastmile_qr_scan", "ios": "https://dc.lft.to/lastmile_qr_scan"}, "lat": 38.88322133333333, "is_disabled": 0, "lon": -76.99226633333333}, {"fusion_lat": 0.0, "type": "electric_scooter", "name": "b83979970a436a68b2f4312177bf15be", "fusion_lon": 0.0, "bike_id": "b83979970a436a68b2f4312177bf15be", "is_reserved": 0, "rental_uris": {"android": "https://dc.lft.to/lastmile_qr_scan", "ios": "https://dc.lft.to/lastmile_qr_scan"}, "lat": 38.88805716666667, "is_disabled": 0, "lon": -76.93357366666666}, {"fusion_lat": 0.0, "type": "electric_scooter", "name": "e97a8121654977aab93992d9d66f3c42", "fusion_lon": 0.0, "bike_id": "e97a8121654977aab93992d9d66f3c42", "is_reserved": 0, "rental_uris": {"android": "https://dc.lft.to/lastmile_qr_scan", "ios": "https://dc.lft.to/lastmile_qr_scan"}, "lat": 38.876395333333335, "is_disabled": 0, "lon": -77.00563083333333}, {"fusion_lat": 0.0, "type": "electric_scooter", "name": "c10c717e293c7695c6923c539915f426", "fusion_lon": 0.0, "bike_id": "c10c717e293c7695c6923c539915f426", "is_reserved": 0, "rental_uris": {"android": "https://dc.lft.to/lastmile_qr_scan", "ios": "https://dc.lft.to/lastmile_qr_scan"}, "lat": 38.835679999999996, "is_disabled": 0, "lon": -76.99497116666667}, {"fusion_lat": 0.0, "type": "electric_scooter", "name": "b05af3a439dc42e3cd782939cb491655", "fusion_lon": 0.0, "bike_id": "b05af3a439dc42e3cd782939cb491655", "is_reserved": 0, "rental_uris": {"android": "https://dc.lft.to/lastmile_qr_scan", "ios": "https://dc.lft.to/lastmile_qr_scan"}, "lat": 38.9180175, "is_disabled": 0, "lon": -77.03433916666667}, {"fusion_lat": 0.0, "type": "electric_scooter", "name": "5b6e0016a005b3b9eaae7506af2dec36", "fusion_lon": 0.0, "bike_id": "5b6e0016a005b3b9eaae7506af2dec36", "is_reserved": 0, "rental_uris": {"android": "https://dc.lft.to/lastmile_qr_scan", "ios": "https://dc.lft.to/lastmile_qr_scan"}, "lat": 38.915548, "is_disabled": 0, "lon": -77.02557033333333}, {"fusion_lat": 0.0, "type": "electric_scooter", "name": "a0925932ae2da9d364ee4f0237380833", "fusion_lon": 0.0, "bike_id": "a0925932ae2da9d364ee4f0237380833", "is_reserved": 0, "rental_uris": {"android": "https://dc.lft.to/lastmile_qr_scan", "ios": "https://dc.lft.to/lastmile_qr_scan"}, "lat": 38.92244733333333, "is_disabled": 0, "lon": -77.03094783333333}, {"fusion_lat": 0.0, "type": "electric_scooter", "name": "7adc0bf7369a75b440993cfbf4a2c73d", "fusion_lon": 0.0, "bike_id": "7adc0bf7369a75b440993cfbf4a2c73d", "is_reserved": 0, "rental_uris": {"android": "https://dc.lft.to/lastmile_qr_scan", "ios": "https://dc.lft.to/lastmile_qr_scan"}, "lat": 38.91793766666667, "is_disabled": 0, "lon": -77.03192433333334}, {"fusion_lat": 0.0, "type": "electric_scooter", "name": "5093432bf1b31ae42e473f332e514af3", "fusion_lon": 0.0, "bike_id": "5093432bf1b31ae42e473f332e514af3", "is_reserved": 0, "rental_uris": {"android": "https://dc.lft.to/lastmile_qr_scan", "ios": "https://dc.lft.to/lastmile_qr_scan"}, "lat": 38.909685833333334, "is_disabled": 0, "lon": -77.03865266666666}, {"fusion_lat": 0.0, "type": "electric_scooter", "name": "e233b9723be1cf980421e982c2cca686", "fusion_lon": 0.0, "bike_id": "e233b9723be1cf980421e982c2cca686", "is_reserved": 0, "rental_uris": {"android": "https://dc.lft.to/lastmile_qr_scan", "ios": "https://dc.lft.to/lastmile_qr_scan"}, "lat": 38.90065516666667, "is_disabled": 0, "lon": -76.927437}, {"fusion_lat": 0.0, "type": "electric_scooter", "name": "681bd26a6e9f5f493f12d4a16d890f3e", "fusion_lon": 0.0, "bike_id": "681bd26a6e9f5f493f12d4a16d890f3e", "is_reserved": 0, "rental_uris": {"android": "https://dc.lft.to/lastmile_qr_scan", "ios": "https://dc.lft.to/lastmile_qr_scan"}, "lat": 38.90122233333334, "is_disabled": 0, "lon": -77.03216816666666}, {"fusion_lat": 0.0, "type": "electric_scooter", "name": "7a82f2df2b861e961af9497bf0de0203", "fusion_lon": 0.0, "bike_id": "7a82f2df2b861e961af9497bf0de0203", "is_reserved": 0, "rental_uris": {"android": "https://dc.lft.to/lastmile_qr_scan", "ios": "https://dc.lft.to/lastmile_qr_scan"}, "lat": 38.89993916666667, "is_disabled": 0, "lon": -77.04820566666666}, {"fusion_lat": 0.0, "type": "electric_scooter", "name": "1a7f3de9d86e112fe4c45c9e5c95ec6d", "fusion_lon": 0.0, "bike_id": "1a7f3de9d86e112fe4c45c9e5c95ec6d", "is_reserved": 0, "rental_uris": {"android": "https://dc.lft.to/lastmile_qr_scan", "ios": "https://dc.lft.to/lastmile_qr_scan"}, "lat": 38.939250333333334, "is_disabled": 0, "lon": -77.03266666666667}, {"fusion_lat": 0.0, "type": "electric_bike", "name": "c2f37434f8cd554742f9d01eb77e4a48", "fusion_lon": 0.0, "bike_id": "c2f37434f8cd554742f9d01eb77e4a48", "is_reserved": 0, "rental_uris": {"android": "https://dc.lft.to/lastmile_qr_scan", "ios": "https://dc.lft.to/lastmile_qr_scan"}, "lat": 38.992368, "is_disabled": 0, "lon": -77.03225283333333}, {"fusion_lat": 0.0, "type": "electric_scooter", "name": "65edbb3d56f375711bd4410bd54a88e1", "fusion_lon": 0.0, "bike_id": "65edbb3d56f375711bd4410bd54a88e1", "is_reserved": 0, "rental_uris": {"android": "https://dc.lft.to/lastmile_qr_scan", "ios": "https://dc.lft.to/lastmile_qr_scan"}, "lat": 38.9148955, "is_disabled": 0, "lon": -77.021817}, {"fusion_lat": 0.0, "type": "electric_scooter", "name": "2b4786880123376b9035d395da9fd446", "fusion_lon": 0.0, "bike_id": "2b4786880123376b9035d395da9fd446", "is_reserved": 0, "rental_uris": {"android": "https://dc.lft.to/lastmile_qr_scan", "ios": "https://dc.lft.to/lastmile_qr_scan"}, "lat": 38.892243, "is_disabled": 0, "lon": -77.0318655}, {"fusion_lat": 0.0, "type": "electric_scooter", "name": "995469a41de8a0a0c065952801c772d6", "fusion_lon": 0.0, "bike_id": "995469a41de8a0a0c065952801c772d6", "is_reserved": 0, "rental_uris": {"android": "https://dc.lft.to/lastmile_qr_scan", "ios": "https://dc.lft.to/lastmile_qr_scan"}, "lat": 38.904561666666666, "is_disabled": 0, "lon": -77.039082}, {"fusion_lat": 0.0, "type": "electric_scooter", "name": "8fafbcca5f46c8e0a75477b0a0bd44de", "fusion_lon": 0.0, "bike_id": "8fafbcca5f46c8e0a75477b0a0bd44de", "is_reserved": 0, "rental_uris": {"android": "https://dc.lft.to/lastmile_qr_scan", "ios": "https://dc.lft.to/lastmile_qr_scan"}, "lat": 38.913405166666664, "is_disabled": 0, "lon": -77.00923133333333}, {"fusion_lat": 0.0, "type": "electric_bike", "name": "d0564d7b527526804372774ebd444c4f", "fusion_lon": 0.0, "bike_id": "d0564d7b527526804372774ebd444c4f", "is_reserved": 0, "rental_uris": {"android": "https://dc.lft.to/lastmile_qr_scan", "ios": "https://dc.lft.to/lastmile_qr_scan"}, "lat": 38.88049766666666, "is_disabled": 0, "lon": -77.01133616666667}, {"fusion_lat": 0.0, "type": "electric_scooter", "name": "6561c08b0d4bcb52c4029e103c03efb2", "fusion_lon": 0.0, "bike_id": "6561c08b0d4bcb52c4029e103c03efb2", "is_reserved": 0, "rental_uris": {"android": "https://dc.lft.to/lastmile_qr_scan", "ios": "https://dc.lft.to/lastmile_qr_scan"}, "lat": 38.92197216666667, "is_disabled": 0, "lon": -77.02976733333334}, {"fusion_lat": 0.0, "type": "electric_scooter", "name": "30216187d31443814fafed61d123b3a5", "fusion_lon": 0.0, "bike_id": "30216187d31443814fafed61d123b3a5", "is_reserved": 0, "rental_uris": {"android": "https://dc.lft.to/lastmile_qr_scan", "ios": "https://dc.lft.to/lastmile_qr_scan"}, "lat": 38.883405333333336, "is_disabled": 0, "lon": -76.98557033333333}, {"fusion_lat": 0.0, "type": "electric_scooter", "name": "af53e21990730c775185f1822da96a7e", "fusion_lon": 0.0, "bike_id": "af53e21990730c775185f1822da96a7e", "is_reserved": 0, "rental_uris": {"android": "https://dc.lft.to/lastmile_qr_scan", "ios": "https://dc.lft.to/lastmile_qr_scan"}, "lat": 38.93184733333333, "is_disabled": 0, "lon": -77.03840266666667}, {"fusion_lat": 0.0, "type": "electric_scooter", "name": "97b3dca8eec3247dc847ae1d6f3780fe", "fusion_lon": 0.0, "bike_id": "97b3dca8eec3247dc847ae1d6f3780fe", "is_reserved": 0, "rental_uris": {"android": "https://dc.lft.to/lastmile_qr_scan", "ios": "https://dc.lft.to/lastmile_qr_scan"}, "lat": 38.86703116666666, "is_disabled": 0, "lon": -76.987188}, {"fusion_lat": 0.0, "type": "electric_scooter", "name": "de5228710776bfa65cc67a3db669ef1a", "fusion_lon": 0.0, "bike_id": "de5228710776bfa65cc67a3db669ef1a", "is_reserved": 0, "rental_uris": {"android": "https://dc.lft.to/lastmile_qr_scan", "ios": "https://dc.lft.to/lastmile_qr_scan"}, "lat": 38.92731416666667, "is_disabled": 0, "lon": -77.0733815}, {"fusion_lat": 0.0, "type": "electric_scooter", "name": "bb1fc6658cf166035083b1cfd3d9f53d", "fusion_lon": 0.0, "bike_id": "bb1fc6658cf166035083b1cfd3d9f53d", "is_reserved": 0, "rental_uris": {"android": "https://dc.lft.to/lastmile_qr_scan", "ios": "https://dc.lft.to/lastmile_qr_scan"}, "lat": 38.92504983333333, "is_disabled": 0, "lon": -77.05757}, {"fusion_lat": 0.0, "type": "electric_scooter", "name": "98eec1fedd43b888d6b1ecb14dcdf17f", "fusion_lon": 0.0, "bike_id": "98eec1fedd43b888d6b1ecb14dcdf17f", "is_reserved": 0, "rental_uris": {"android": "https://dc.lft.to/lastmile_qr_scan", "ios": "https://dc.lft.to/lastmile_qr_scan"}, "lat": 38.887156166666664, "is_disabled": 0, "lon": -77.017779}, {"fusion_lat": 0.0, "type": "electric_scooter", "name": "ac9f4b28169988588dbf96a595bc6463", "fusion_lon": 0.0, "bike_id": "ac9f4b28169988588dbf96a595bc6463", "is_reserved": 0, "rental_uris": {"android": "https://dc.lft.to/lastmile_qr_scan", "ios": "https://dc.lft.to/lastmile_qr_scan"}, "lat": 38.900537166666666, "is_disabled": 0, "lon": -76.9903195}, {"fusion_lat": 0.0, "type": "electric_scooter", "name": "09955641311d1a61e1466ccdd585488e", "fusion_lon": 0.0, "bike_id": "09955641311d1a61e1466ccdd585488e", "is_reserved": 0, "rental_uris": {"android": "https://dc.lft.to/lastmile_qr_scan", "ios": "https://dc.lft.to/lastmile_qr_scan"}, "lat": 38.917624, "is_disabled": 0, "lon": -77.01497466666666}, {"fusion_lat": 0.0, "type": "electric_scooter", "name": "82fa29f25ff3f717fe75fd7d52e0fe1e", "fusion_lon": 0.0, "bike_id": "82fa29f25ff3f717fe75fd7d52e0fe1e", "is_reserved": 0, "rental_uris": {"android": "https://dc.lft.to/lastmile_qr_scan", "ios": "https://dc.lft.to/lastmile_qr_scan"}, "lat": 38.921581833333335, "is_disabled": 0, "lon": -77.03381883333333}, {"fusion_lat": 0.0, "type": "electric_bike", "name": "5f32366278b5237a0f163aeb56082bf4", "fusion_lon": 0.0, "bike_id": "5f32366278b5237a0f163aeb56082bf4", "is_reserved": 0, "rental_uris": {"android": "https://dc.lft.to/lastmile_qr_scan", "ios": "https://dc.lft.to/lastmile_qr_scan"}, "lat": 38.9192835, "is_disabled": 0, "lon": -77.07381366666667}, {"fusion_lat": 0.0, "type": "electric_bike", "name": "e8a83b47a5b2337b6e18ad62d4c3ee17", "fusion_lon": 0.0, "bike_id": "e8a83b47a5b2337b6e18ad62d4c3ee17", "is_reserved": 0, "rental_uris": {"android": "https://dc.lft.to/lastmile_qr_scan", "ios": "https://dc.lft.to/lastmile_qr_scan"}, "lat": 38.850137, "is_disabled": 0, "lon": -77.09820516666667}, {"fusion_lat": 0.0, "type": "electric_scooter", "name": "a7d976fe5f677401c5a17a3a51ca9855", "fusion_lon": 0.0, "bike_id": "a7d976fe5f677401c5a17a3a51ca9855", "is_reserved": 0, "rental_uris": {"android": "https://dc.lft.to/lastmile_qr_scan", "ios": "https://dc.lft.to/lastmile_qr_scan"}, "lat": 38.9002105, "is_disabled": 0, "lon": -77.02820416666667}, {"fusion_lat": 0.0, "type": "electric_scooter", "name": "8a7e7f8503e47d2d4eb081af1064c121", "fusion_lon": 0.0, "bike_id": "8a7e7f8503e47d2d4eb081af1064c121", "is_reserved": 0, "rental_uris": {"android": "https://dc.lft.to/lastmile_qr_scan", "ios": "https://dc.lft.to/lastmile_qr_scan"}, "lat": 38.88735283333333, "is_disabled": 0, "lon": -77.02582783333334}, {"fusion_lat": 0.0, "type": "electric_bike", "name": "909b73d6f61969504063f7059b809b17", "fusion_lon": 0.0, "bike_id": "909b73d6f61969504063f7059b809b17", "is_reserved": 0, "rental_uris": {"android": "https://dc.lft.to/lastmile_qr_scan", "ios": "https://dc.lft.to/lastmile_qr_scan"}, "lat": 38.9650715, "is_disabled": 0, "lon": -77.02818983333333}, {"fusion_lat": 0.0, "type": "electric_scooter", "name": "945c5543275a65c9ef09a64654d735ae", "fusion_lon": 0.0, "bike_id": "945c5543275a65c9ef09a64654d735ae", "is_reserved": 0, "rental_uris": {"android": "https://dc.lft.to/lastmile_qr_scan", "ios": "https://dc.lft.to/lastmile_qr_scan"}, "lat": 38.921527166666664, "is_disabled": 0, "lon": -77.035049}, {"fusion_lat": 0.0, "type": "electric_scooter", "name": "927b50baec436e77be978802c640e713", "fusion_lon": 0.0, "bike_id": "927b50baec436e77be978802c640e713", "is_reserved": 0, "rental_uris": {"android": "https://dc.lft.to/lastmile_qr_scan", "ios": "https://dc.lft.to/lastmile_qr_scan"}, "lat": 38.95203016666667, "is_disabled": 0, "lon": -77.0274105}, {"fusion_lat": 0.0, "type": "electric_scooter", "name": "999699f7ac4c89edec3749f53b8d6d4b", "fusion_lon": 0.0, "bike_id": "999699f7ac4c89edec3749f53b8d6d4b", "is_reserved": 0, "rental_uris": {"android": "https://dc.lft.to/lastmile_qr_scan", "ios": "https://dc.lft.to/lastmile_qr_scan"}, "lat": 38.864171, "is_disabled": 0, "lon": -76.9913385}, {"fusion_lat": 0.0, "type": "electric_scooter", "name": "b5a5239974845922634137d77d7baa7f", "fusion_lon": 0.0, "bike_id": "b5a5239974845922634137d77d7baa7f", "is_reserved": 0, "rental_uris": {"android": "https://dc.lft.to/lastmile_qr_scan", "ios": "https://dc.lft.to/lastmile_qr_scan"}, "lat": 38.9107115, "is_disabled": 0, "lon": -77.05390816666667}, {"fusion_lat": 0.0, "type": "electric_scooter", "name": "33099e14a8b0289c1f2549ee2867020d", "fusion_lon": 0.0, "bike_id": "33099e14a8b0289c1f2549ee2867020d", "is_reserved": 0, "rental_uris": {"android": "https://dc.lft.to/lastmile_qr_scan", "ios": "https://dc.lft.to/lastmile_qr_scan"}, "lat": 38.92418716666667, "is_disabled": 0, "lon": -77.0230555}, {"fusion_lat": 0.0, "type": "electric_scooter", "name": "29e3fdb078f216de7eb7f882d19cf081", "fusion_lon": 0.0, "bike_id": "29e3fdb078f216de7eb7f882d19cf081", "is_reserved": 0, "rental_uris": {"android": "https://dc.lft.to/lastmile_qr_scan", "ios": "https://dc.lft.to/lastmile_qr_scan"}, "lat": 38.89215133333333, "is_disabled": 0, "lon": -77.031628}, {"fusion_lat": 0.0, "type": "electric_scooter", "name": "ac5db770a8b2845911d8fa4ba5f81830", "fusion_lon": 0.0, "bike_id": "ac5db770a8b2845911d8fa4ba5f81830", "is_reserved": 0, "rental_uris": {"android": "https://dc.lft.to/lastmile_qr_scan", "ios": "https://dc.lft.to/lastmile_qr_scan"}, "lat": 38.93774233333333, "is_disabled": 0, "lon": -77.03259616666666}, {"fusion_lat": 0.0, "type": "electric_bike", "name": "bae3414efc4cc49e66166df16da9f9cd", "fusion_lon": 0.0, "bike_id": "bae3414efc4cc49e66166df16da9f9cd", "is_reserved": 0, "rental_uris": {"android": "https://dc.lft.to/lastmile_qr_scan", "ios": "https://dc.lft.to/lastmile_qr_scan"}, "lat": 38.857686666666666, "is_disabled": 0, "lon": -76.98766966666666}, {"fusion_lat": 0.0, "type": "electric_scooter", "name": "3d458d16c2e6b11530f45ee241451555", "fusion_lon": 0.0, "bike_id": "3d458d16c2e6b11530f45ee241451555", "is_reserved": 0, "rental_uris": {"android": "https://dc.lft.to/lastmile_qr_scan", "ios": "https://dc.lft.to/lastmile_qr_scan"}, "lat": 38.892520166666664, "is_disabled": 0, "lon": -77.04661}, {"fusion_lat": 0.0, "type": "electric_scooter", "name": "22bc7839abac6c59bbc68b481e9ce45c", "fusion_lon": 0.0, "bike_id": "22bc7839abac6c59bbc68b481e9ce45c", "is_reserved": 0, "rental_uris": {"android": "https://dc.lft.to/lastmile_qr_scan", "ios": "https://dc.lft.to/lastmile_qr_scan"}, "lat": 38.918875, "is_disabled": 0, "lon": -77.04826916666667}, {"fusion_lat": 0.0, "type": "electric_scooter", "name": "3668bc60558fd7e8abad6070bb87f165", "fusion_lon": 0.0, "bike_id": "3668bc60558fd7e8abad6070bb87f165", "is_reserved": 0, "rental_uris": {"android": "https://dc.lft.to/lastmile_qr_scan", "ios": "https://dc.lft.to/lastmile_qr_scan"}, "lat": 38.919618166666666, "is_disabled": 0, "lon": -77.02404766666666}, {"fusion_lat": 0.0, "type": "electric_scooter", "name": "f10c316abbaf8fcdbb0203b9331d0f27", "fusion_lon": 0.0, "bike_id": "f10c316abbaf8fcdbb0203b9331d0f27", "is_reserved": 0, "rental_uris": {"android": "https://dc.lft.to/lastmile_qr_scan", "ios": "https://dc.lft.to/lastmile_qr_scan"}, "lat": 38.905767, "is_disabled": 0, "lon": -77.02593783333333}, {"fusion_lat": 0.0, "type": "electric_scooter", "name": "7f5974b9a9e75231be2465a848eff8df", "fusion_lon": 0.0, "bike_id": "7f5974b9a9e75231be2465a848eff8df", "is_reserved": 0, "rental_uris": {"android": "https://dc.lft.to/lastmile_qr_scan", "ios": "https://dc.lft.to/lastmile_qr_scan"}, "lat": 38.966199833333334, "is_disabled": 0, "lon": -77.035039}, {"fusion_lat": 0.0, "type": "electric_scooter", "name": "995414cd259b59673db4f9faf6126cf1", "fusion_lon": 0.0, "bike_id": "995414cd259b59673db4f9faf6126cf1", "is_reserved": 0, "rental_uris": {"android": "https://dc.lft.to/lastmile_qr_scan", "ios": "https://dc.lft.to/lastmile_qr_scan"}, "lat": 38.928006833333335, "is_disabled": 0, "lon": -77.02123716666667}, {"fusion_lat": 0.0, "type": "electric_scooter", "name": "8127e48be1f04e0d8174a1c55a61304f", "fusion_lon": 0.0, "bike_id": "8127e48be1f04e0d8174a1c55a61304f", "is_reserved": 0, "rental_uris": {"android": "https://dc.lft.to/lastmile_qr_scan", "ios": "https://dc.lft.to/lastmile_qr_scan"}, "lat": 38.9215855, "is_disabled": 0, "lon": -77.03387116666667}, {"fusion_lat": 0.0, "type": "electric_scooter", "name": "338c6e8049eebcac7dc1303d3cc82550", "fusion_lon": 0.0, "bike_id": "338c6e8049eebcac7dc1303d3cc82550", "is_reserved": 0, "rental_uris": {"android": "https://dc.lft.to/lastmile_qr_scan", "ios": "https://dc.lft.to/lastmile_qr_scan"}, "lat": 38.93875666666667, "is_disabled": 0, "lon": -77.023735}, {"fusion_lat": 0.0, "type": "electric_scooter", "name": "199f1967b6a5309c963ac8449fb88515", "fusion_lon": 0.0, "bike_id": "199f1967b6a5309c963ac8449fb88515", "is_reserved": 0, "rental_uris": {"android": "https://dc.lft.to/lastmile_qr_scan", "ios": "https://dc.lft.to/lastmile_qr_scan"}, "lat": 38.94130916666667, "is_disabled": 0, "lon": -77.01550733333333}, {"fusion_lat": 0.0, "type": "electric_scooter", "name": "14aa7752656ed7f98dfd8a4a883c60cf", "fusion_lon": 0.0, "bike_id": "14aa7752656ed7f98dfd8a4a883c60cf", "is_reserved": 0, "rental_uris": {"android": "https://dc.lft.to/lastmile_qr_scan", "ios": "https://dc.lft.to/lastmile_qr_scan"}, "lat": 38.926399333333336, "is_disabled": 0, "lon": -77.03470383333334},