{"data": {"bikes": [{"rental_uris": {"ios": "https://dc.lft.to/lastmile_qr_scan", "android": "https://dc.lft.to/lastmile_qr_scan"}, "type": "electric_scooter", "lon": -77.029674, "lat": 38.9057705, "fusion_lon": 0.0, "name": "d99671a7b87f2449b295dc1e37ff96c0", "bike_id": "d99671a7b87f2449b295dc1e37ff96c0", "is_reserved": 0, "fusion_lat": 0.0, "is_disabled": 0}, {"rental_uris": {"ios": "https://dc.lft.to/lastmile_qr_scan", "android": "https://dc.lft.to/lastmile_qr_scan"}, "type": "electric_scooter", "lon": -77.02340383333333, "lat": 38.8802635, "fusion_lon": 0.0, "name": "7154002e74e99a7c27d8caea347c1409", "bike_id": "7154002e74e99a7c27d8caea347c1409", "is_reserved": 0, "fusion_lat": 0.0, "is_disabled": 0}, {"rental_uris": {"ios": "https://dc.lft.to/lastmile_qr_scan", "android": "https://dc.lft.to/lastmile_qr_scan"}, "type": "electric_scooter", "lon": -76.97328066666667, "lat": 38.90408883333333, "fusion_lon": 0.0, "name": "0f37f53978815241aac14fc036570dc7", "bike_id": "0f37f53978815241aac14fc036570dc7", "is_reserved": 0, "fusion_lat": 0.0, "is_disabled": 0}, {"rental_uris": {"ios": "https://dc.lft.to/lastmile_qr_scan", "android": "https://dc.lft.to/lastmile_qr_scan"}, "type": "electric_scooter", "lon": -77.03552116666667, "lat": 38.92376, "fusion_lon": 0.0, "name": "2b2dedd80b4db7dec4e9816003bfd3ba", "bike_id": "2b2dedd80b4db7dec4e9816003bfd3ba", "is_reserved": 0, "fusion_lat": 0.0, "is_disabled": 0}, {"rental_uris": {"ios": "https://dc.lft.to/lastmile_qr_scan", "android": "https://dc.lft.to/lastmile_qr_scan"}, "type": "electric_scooter", "lon": -77.01394866666666, "lat": 38.9194825, "fusion_lon": 0.0, "name": "b03532bafc2c7e1a0179d7d24f8cc995", "bike_id": "b03532bafc2c7e1a0179d7d24f8cc995", "is_reserved": 0, "fusion_lat": 0.0, "is_disabled": 0}, {"rental_uris": {"ios": "https://dc.lft.to/lastmile_qr_scan", "android": "https://dc.lft.to/lastmile_qr_scan"}, "type": "electric_scooter", "lon": -77.02663383333334, "lat": 38.894632, "fusion_lon": 0.0, "name": "b543dafb4553e9f70d5fd1b4dc07f8e9", "bike_id": "b543dafb4553e9f70d5fd1b4dc07f8e9", "is_reserved": 0, "fusion_lat": 0.0, "is_disabled": 0}, {"rental_uris": {"ios": "https://dc.lft.to/lastmile_qr_scan", "android": "https://dc.lft.to/lastmile_qr_scan"}, "type": "electric_scooter", "lon": -76.98475133333334, "lat": 38.902539833333336, "fusion_lon": 0.0, "name": "eb0b0a941fc3589c97b1605fa7686b1f", "bike_id": "eb0b0a941fc3589c97b1605fa7686b1f", "is_reserved": 0, "fusion_lat": 0.0, "is_disabled": 0}, {"rental_uris": {"ios": "https://dc.lft.to/lastmile_qr_scan", "android": "https://dc.lft.to/lastmile_qr_scan"}, "type": "electric_scooter", "lon": -77.0448245, "lat": 38.90515883333333, "fusion_lon": 0.0, "name": "f61718afac42771d54be4aa1ec34cd58", "bike_id": "f61718afac42771d54be4aa1ec34cd58", "is_reserved": 0, "fusion_lat": 0.0, "is_disabled": 0}, {"rental_uris": {"ios": "https://dc.lft.to/lastmile_qr_scan", "android": "https://dc.lft.to/lastmile_qr_scan"}, "type": "electric_scooter", "lon": -76.96445, "lat": 38.934565, "fusion_lon": 0.0, "name": "8fca4407de98d9948e933cbf54f2a615", "bike_id": "8fca4407de98d9948e933cbf54f2a615", "is_reserved": 0, "fusion_lat": 0.0, "is_disabled": 0}, {"rental_uris": {"ios": "https://dc.lft.to/lastmile_qr_scan", "android": "https://dc.lft.to/lastmile_qr_scan"}, "type": "electric_bike", "lon": -76.969777, "lat": 38.845868333333335, "fusion_lon": 0.0, "name": "74342b2c91a871f144b23feba795c7a0", "bike_id": "74342b2c91a871f144b23feba795c7a0", "is_reserved": 0, "fusion_lat": 0.0, "is_disabled": 0}, {"rental_uris": {"ios": "https://dc.lft.to/lastmile_qr_scan", "android": "https://dc.lft.to/lastmile_qr_scan"}, "type": "electric_scooter", "lon": -77.03984083333333, "lat": 38.89637316666666, "fusion_lon": 0.0, "name": "1c902b5c34e06e5f0aebc265377b42dc", "bike_id": "1c902b5c34e06e5f0aebc265377b42dc", "is_reserved": 0, "fusion_lat": 0.0, "is_disabled": 0}, {"rental_uris": {"ios": "https://dc.lft.to/lastmile_qr_scan", "android": "https://dc.lft.to/lastmile_qr_scan"}, "type": "electric_bike", "lon": -76.986036, "lat": 38.854484, "fusion_lon": 0.0, "name": "512ea684daef0a47c31d75628219b028", "bike_id": "512ea684daef0a47c31d75628219b028", "is_reserved": 0, "fusion_lat": 0.0, "is_disabled": 0}, {"rental_uris": {"ios": "https://dc.lft.to/lastmile_qr_scan", "android": "https://dc.lft.to/lastmile_qr_scan"}, "type": "electric_scooter", "lon": -77.02695233333333, "lat": 38.924051666666664, "fusion_lon": 0.0, "name": "dd72156c5a5632fa0c7a05400f0d6d22", "bike_id": "dd72156c5a5632fa0c7a05400f0d6d22", "is_reserved": 0, "fusion_lat": 0.0, "is_disabled": 0}, {"rental_uris": {"ios": "https://dc.lft.to/lastmile_qr_scan", "android": "https://dc.lft.to/lastmile_qr_scan"}, "type": "electric_scooter", "lon": -76.97368683333333, "lat": 38.903972333333336, "fusion_lon": 0.0, "name": "8d01a736001a8e9754c4a0c2a15a145e", "bike_id": "8d01a736001a8e9754c4a0c2a15a145e", "is_reserved": 0, "fusion_lat": 0.0, "is_disabled": 0}, {"rental_uris": {"ios": "https://dc.lft.to/lastmile_qr_scan", "android": "https://dc.lft.to/lastmile_qr_scan"}, "type": "electric_scooter", "lon": -77.04609333333333, "lat": 38.898278166666664, "fusion_lon": 0.0, "name": "d562de211b2055cd8395f8b4628636d3", "bike_id": "d562de211b2055cd8395f8b4628636d3", "is_reserved": 0, "fusion_lat": 0.0, "is_disabled": 0}, {"rental_uris": {"ios": "https://dc.lft.to/lastmile_qr_scan", "android": "https://dc.lft.to/lastmile_qr_scan"}, "type": "electric_scooter", "lon": -76.9966445, "lat": 38.878625666666665, "fusion_lon": 0.0, "name": "dd6b61cd8ec8001b16675c322bc38579", "bike_id": "dd6b61cd8ec8001b16675c322bc38579", "is_reserved": 0, "fusion_lat": 0.0, "is_disabled": 0}, {"rental_uris": {"ios": "https://dc.lft.to/lastmile_qr_scan", "android": "https://dc.lft.to/lastmile_qr_scan"}, "type": "electric_bike", "lon": -76.9707995, "lat": 38.95065783333333, "fusion_lon": 0.0, "name": "4920d0760168902ed9ba8c663d78c1b5", "bike_id": "4920d0760168902ed9ba8c663d78c1b5", "is_reserved": 0, "fusion_lat": 0.0, "is_disabled": 0}, {"rental_uris": {"ios": "https://dc.lft.to/lastmile_qr_scan", "android": "https://dc.lft.to/lastmile_qr_scan"}, "type": "electric_scooter", "lon": -76.99046816666667, "lat": 38.901272, "fusion_lon": 0.0, "name": "092f207a69bac2ff011bf3868400814d", "bike_id": "092f207a69bac2ff011bf3868400814d", "is_reserved": 0, "fusion_lat": 0.0, "is_disabled": 0}, {"rental_uris": {"ios": "https://dc.lft.to/lastmile_qr_scan", "android": "https://dc.lft.to/lastmile_qr_scan"}, "type": "electric_scooter", "lon": -77.06410166666667, "lat": 38.94438816666667, "fusion_lon": 0.0, "name": "008b1e1cba1a09518e0e81c294d4986b", "bike_id": "008b1e1cba1a09518e0e81c294d4986b", "is_reserved": 0, "fusion_lat": 0.0, "is_disabled": 0}, {"rental_uris": {"ios": "https://dc.lft.to/lastmile_qr_scan", "android": "https://dc.lft.to/lastmile_qr_scan"}, "type": "electric_bike", "lon": -77.099647, "lat": 38.85787283333333, "fusion_lon": 0.0, "name": "b95fd36f4eeb06c0084de823dc52fe17", "bike_id": "b95fd36f4eeb06c0084de823dc52fe17", "is_reserved": 0, "fusion_lat": 0.0, "is_disabled": 0}, {"rental_uris": {"ios": "https://dc.lft.to/lastmile_qr_scan", "android": "https://dc.lft.to/lastmile_qr_scan"}, "type": "electric_scooter", "lon": -77.04345083333334, "lat": 38.90429733333333, "fusion_lon": 0.0, "name": "dcd851d3d7facc0fb78dba0acb7af2f8", "bike_id": "dcd851d3d7facc0fb78dba0acb7af2f8", "is_reserved": 0, "fusion_lat": 0.0, "is_disabled": 0}, {"rental_uris": {"ios": "https://dc.lft.to/lastmile_qr_scan", "android": "https://dc.lft.to/lastmile_qr_scan"}, "type": "electric_scooter", "lon": -77.03999883333333, "lat": 38.9329035, "fusion_lon": 0.0, "name": "e9a985471f2727a5e65e41d9a9f2fc6b", "bike_id": "e9a985471f2727a5e65e41d9a9f2fc6b", "is_reserved": 0, "fusion_lat": 0.0, "is_disabled": 0}, {"rental_uris": {"ios": "https://dc.lft.to/lastmile_qr_scan", "android": "https://dc.lft.to/lastmile_qr_scan"}, "type": "electric_scooter", "lon": -77.04483183333333, "lat": 38.91209933333333, "fusion_lon": 0.0, "name": "dbe51c3d9103448f6f44a4b782c9670d", "bike_id": "dbe51c3d9103448f6f44a4b782c9670d", "is_reserved": 0, "fusion_lat": 0.0, "is_disabled": 0}, {"rental_uris": {"ios": "https://dc.lft.to/lastmile_qr_scan", "android": "https://dc.lft.to/lastmile_qr_scan"}, "type": "electric_scooter", "lon": -77.03260116666667, "lat": 38.914088, "fusion_lon": 0.0, "name": "e4893200af5d609352887287bffc3b18", "bike_id": "e4893200af5d609352887287bffc3b18", "is_reserved": 0, "fusion_lat": 0.0, "is_disabled": 0}, {"rental_uris": {"ios": "https://dc.lft.to/lastmile_qr_scan", "android": "https://dc.lft.to/lastmile_qr_scan"}, "type": "electric_bike", "lon": -76.93179266666667, "lat": 38.9021855, "fusion_lon": 0.0, "name": "e38aaafc0d5b2b1c98f0aef24c9b748b", "bike_id": "e38aaafc0d5b2b1c98f0aef24c9b748b", "is_reserved": 0, "fusion_lat": 0.0, "is_disabled": 0}, {"rental_uris": {"ios": "https://dc.lft.to/lastmile_qr_scan", "android": "https://dc.lft.to/lastmile_qr_scan"}, "type": "electric_scooter", "lon": -77.0483325, "lat": 38.918653666666664, "fusion_lon": 0.0, "name": "de342b29e82b21ffd56bd699881028dc", "bike_id": "de342b29e82b21ffd56bd699881028dc", "is_reserved": 0, "fusion_lat": 0.0, "is_disabled": 0}, {"rental_uris": {"ios": "https://dc.lft.to/lastmile_qr_scan", "android": "https://dc.lft.to/lastmile_qr_scan"}, "type": "electric_scooter", "lon": -77.01533483333333, "lat": 38.9026435, "fusion_lon": 0.0, "name": "4e064d86c5fbc0347864e8847b1b6407", "bike_id": "4e064d86c5fbc0347864e8847b1b6407", "is_reserved": 0, "fusion_lat": 0.0, "is_disabled": 0}, {"rental_uris": {"ios": "https://dc.lft.to/lastmile_qr_scan", "android": "https://dc.lft.to/lastmile_qr_scan"}, "type": "electric_scooter", "lon": -76.983807, "lat": 38.879467, "fusion_lon": 0.0, "name": "9d9e767fa64d5621152aef12c2b08c90", "bike_id": "9d9e767fa64d5621152aef12c2b08c90", "is_reserved": 0, "fusion_lat": 0.0, "is_disabled": 0}, {"rental_uris": {"ios": "https://dc.lft.to/lastmile_qr_scan", "android": "https://dc.lft.to/lastmile_qr_scan"}, "type": "electric_scooter", "lon": -76.97574483333334, "lat": 38.903354666666665, "fusion_lon": 0.0, "name": "1bf117f33ded7b8f3d17f6b0e9b312cd", "bike_id": "1bf117f33ded7b8f3d17f6b0e9b312cd", "is_reserved": 0, "fusion_lat": 0.0, "is_disabled": 0}, {"rental_uris": {"ios": "https://dc.lft.to/lastmile_qr_scan", "android": "https://dc.lft.to/lastmile_qr_scan"}, "type": "electric_scooter", "lon": -77.033772, "lat": 38.894618333333334, "fusion_lon": 0.0, "name": "fee61023c13bfc1aeb35a09f700c370d", "bike_id": "fee61023c13bfc1aeb35a09f700c370d", "is_reserved": 0, "fusion_lat": 0.0, "is_disabled": 0}, {"rental_uris": {"ios": "https://dc.lft.to/lastmile_qr_scan", "android": "https://dc.lft.to/lastmile_qr_scan"}, "type": "electric_scooter", "lon": -76.99863083333334, "lat": 38.8374385, "fusion_lon": 0.0, "name": "7fd0382cff9485d34a44e82dc96aac4f", "bike_id": "7fd0382cff9485d34a44e82dc96aac4f", "is_reserved": 0, "fusion_lat": 0.0, "is_disabled": 0}, {"rental_uris": {"ios": "https://dc.lft.to/lastmile_qr_scan", "android": "https://dc.lft.to/lastmile_qr_scan"}, "type": "electric_bike", "lon": -76.9352165, "lat": 38.963838333333335, "fusion_lon": 0.0, "name": "d402b3e1c7124a03c613c782f4b1ad1d", "bike_id": "d402b3e1c7124a03c613c782f4b1ad1d", "is_reserved": 0, "fusion_lat": 0.0, "is_disabled": 0}, {"rental_uris": {"ios": "https://dc.lft.to/lastmile_qr_scan", "android": "https://dc.lft.to/lastmile_qr_scan"}, "type": "electric_scooter", "lon": -76.9489415, "lat": 38.8949025, "fusion_lon": 0.0, "name": "5cec13cae67838e88201d52b808685e6", "bike_id": "5cec13cae67838e88201d52b808685e6", "is_reserved": 0, "fusion_lat": 0.0, "is_disabled": 0}, {"rental_uris": {"ios": "https://dc.lft.to/lastmile_qr_scan", "android": "https://dc.lft.to/lastmile_qr_scan"}, "type": "electric_scooter", "lon": -76.99516583333333, "lat": 38.88373466666667, "fusion_lon": 0.0, "name": "c3bf0c1bcab740a569bf8be4b86f3fe4", "bike_id": "c3bf0c1bcab740a569bf8be4b86f3fe4", "is_reserved": 0, "fusion_lat": 0.0, "is_disabled": 0}, {"rental_uris": {"ios": "https://dc.lft.to/lastmile_qr_scan", "android": "https://dc.lft.to/lastmile_qr_scan"}, "type": "electric_scooter", "lon": -77.031282, "lat": 38.902558666666664, "fusion_lon": 0.0, "name": "3728ce1d9a75335e3d8446e3e8834859", "bike_id": "3728ce1d9a75335e3d8446e3e8834859", "is_reserved": 0, "fusion_lat": 0.0, "is_disabled": 0}, {"rental_uris": {"ios": "https://dc.lft.to/lastmile_qr_scan", "android": "https://dc.lft.to/lastmile_qr_scan"}, "type": "electric_scooter", "lon": -77.0383, "lat": 38.9314555, "fusion_lon": 0.0, "name": "658b6b91806da9b11d2d201b0050fdf5", "bike_id": "658b6b91806da9b11d2d201b0050fdf5", "is_reserved": 0, "fusion_lat": 0.0, "is_disabled": 0}, {"rental_uris": {"ios": "https://dc.lft.to/lastmile_qr_scan", "android": "https://dc.lft.to/lastmile_qr_scan"}, "type": "electric_scooter", "lon": -77.040642, "lat": 38.9176625, "fusion_lon": 0.0, "name": "7b981204d9516e74a84ad228ddcd4ca6", "bike_id": "7b981204d9516e74a84ad228ddcd4ca6", "is_reserved": 0, "fusion_lat": 0.0, "is_disabled": 0}, {"rental_uris": {"ios": "https://dc.lft.to/lastmile_qr_scan", "android": "https://dc.lft.to/lastmile_qr_scan"}, "type": "electric_scooter", "lon": -76.983362, "lat": 38.89546283333333, "fusion_lon": 0.0, "name": "f0384de14af28ce02551338b6cfd557b", "bike_id": "f0384de14af28ce02551338b6cfd557b", "is_reserved": 0, "fusion_lat": 0.0, "is_disabled": 0}, {"rental_uris": {"ios": "https://dc.lft.to/lastmile_qr_scan", "android": "https://dc.lft.to/lastmile_qr_scan"}, "type": "electric_scooter", "lon": -77.00894116666667, "lat": 38.884993333333334, "fusion_lon": 0.0, "name": "8d8e5e49a6a98516cfe72353dd5430a6", "bike_id": "8d8e5e49a6a98516cfe72353dd5430a6", "is_reserved": 0, "fusion_lat": 0.0, "is_disabled": 0}, {"rental_uris": {"ios": "https://dc.lft.to/lastmile_qr_scan", "android": "https://dc.lft.to/lastmile_qr_scan"}, "type": "electric_scooter", "lon": -76.9971075, "lat": 38.89466633333333, "fusion_lon": 0.0, "name": "ba72b1215089e02426cba41d234fb4b7", "bike_id": "ba72b1215089e02426cba41d234fb4b7", "is_reserved": 0, "fusion_lat": 0.0, "is_disabled": 0}, {"rental_uris": {"ios": "https://dc.lft.to/lastmile_qr_scan", "android": "https://dc.lft.to/lastmile_qr_scan"}, "type": "electric_scooter", "lon": -77.00613616666666, "lat": 38.8957295, "fusion_lon": 0.0, "name": "fb2d9d9e16da3329a60602f78b247490", "bike_id": "fb2d9d9e16da3329a60602f78b247490", "is_reserved": 0, "fusion_lat": 0.0, "is_disabled": 0}, {"rental_uris": {"ios": "https://dc.lft.to/lastmile_qr_scan", "android": "https://dc.lft.to/lastmile_qr_scan"}, "type": "electric_bike", "lon": -77.01296316666667, "lat": 39.00378516666667, "fusion_lon": 0.0, "name": "e862ad7b82688e479b02281fd76fa224", "bike_id": "e862ad7b82688e479b02281fd76fa224", "is_reserved": 0, "fusion_lat": 0.0, "is_disabled": 0}, {"rental_uris": {"ios": "https://dc.lft.to/lastmile_qr_scan", "android": "https://dc.lft.to/lastmile_qr_scan"}, "type": "electric_scooter", "lon": -77.028132, "lat": 38.914292833333334, "fusion_lon": 0.0, "name": "2ba4645942e1df3471cf23fe8cd032a8", "bike_id": "2ba4645942e1df3471cf23fe8cd032a8", "is_reserved": 0, "fusion_lat": 0.0, "is_disabled": 0}, {"rental_uris": {"ios": "https://dc.lft.to/lastmile_qr_scan", "android": "https://dc.lft.to/lastmile_qr_scan"}, "type": "electric_scooter", "lon": -77.02487683333334, "lat": 38.898259333333336, "fusion_lon": 0.0, "name": "36a66ea774e56e9b2d9af522e2422bcf", "bike_id": "36a66ea774e56e9b2d9af522e2422bcf", "is_reserved": 0, "fusion_lat": 0.0, "is_disabled": 0}, {"rental_uris": {"ios": "https://dc.lft.to/lastmile_qr_scan", "android": "https://dc.lft.to/lastmile_qr_scan"}, "type": "electric_scooter", "lon": -77.04663283333333, "lat": 38.90138183333333, "fusion_lon": 0.0, "name": "5bd332edadadabefa94351782c764c03", "bike_id": "5bd332edadadabefa94351782c764c03", "is_reserved": 0, "fusion_lat": 0.0, "is_disabled": 0}, {"rental_uris": {"ios": "https://dc.lft.to/lastmile_qr_scan", "android": "https://dc.lft.to/lastmile_qr_scan"}, "type": "electric_bike", "lon": -76.995843, "lat": 38.973364833333335, "fusion_lon": 0.0, "name": "2202650f73b9d8b07e73873c06938923", "bike_id": "2202650f73b9d8b07e73873c06938923", "is_reserved": 0, "fusion_lat": 0.0, "is_disabled": 0}, {"rental_uris": {"ios": "https://dc.lft.to/lastmile_qr_scan", "android": "https://dc.lft.to/lastmile_qr_scan"}, "type": "electric_scooter", "lon": -77.02054016666666, "lat": 38.91343833333333, "fusion_lon": 0.0, "name": "87bce403bbbdd49b5ba17ca3af1d32d4", "bike_id": "87bce403bbbdd49b5ba17ca3af1d32d4", "is_reserved": 0, "fusion_lat": 0.0, "is_disabled": 0}, {"rental_uris": {"ios": "https://dc.lft.to/lastmile_qr_scan", "android": "https://dc.lft.to/lastmile_qr_scan"}, "type": "electric_scooter", "lon": -77.0192515, "lat": 38.90371116666667, "fusion_lon": 0.0, "name": "f2d71a6369c19b35f0c2bf02e3d8b6a3", "bike_id": "f2d71a6369c19b35f0c2bf02e3d8b6a3", "is_reserved": 0, "fusion_lat": 0.0, "is_disabled": 0}, {"rental_uris": {"ios": "https://dc.lft.to/lastmile_qr_scan", "android": "https://dc.lft.to/lastmile_qr_scan"}, "type": "electric_scooter", "lon": -77.02309866666667, "lat": 38.9093135, "fusion_lon": 0.0, "name": "8df363613f06766db2cf7549ecf1a683", "bike_id": "8df363613f06766db2cf7549ecf1a683", "is_reserved": 0, "fusion_lat": 0.0, "is_disabled": 0}, {"rental_uris": {"ios": "https://dc.lft.to/lastmile_qr_scan", "android": "https://dc.lft.to/lastmile_qr_scan"}, "type": "electric_scooter", "lon": -76.984853, "lat": 38.900574, "fusion_lon": 0.0, "name": "52cb212331b651034d1f21ff26de415d", "bike_id": "52cb212331b651034d1f21ff26de415d", "is_reserved": 0, "fusion_lat": 0.0, "is_disabled": 0}, {"rental_uris": {"ios": "https://dc.lft.to/lastmile_qr_scan", "android": "https://dc.lft.to/lastmile_qr_scan"}, "type": "electric_scooter", "lon": -77.05457416666667, "lat": 38.90503966666667, "fusion_lon": 0.0, "name": "715874f331a77a7f8d1c3a2fb469d550", "bike_id": "715874f331a77a7f8d1c3a2fb469d550", "is_reserved": 0, "fusion_lat": 0.0, "is_disabled": 0}, {"rental_uris": {"ios": "https://dc.lft.to/lastmile_qr_scan", "android": "https://dc.lft.to/lastmile_qr_scan"}, "type": "electric_scooter", "lon": -76.98431183333334, "lat": 38.920527, "fusion_lon": 0.0, "name": "7ed132ba55e2e2c3222ba8e00103bc52", "bike_id": "7ed132ba55e2e2c3222ba8e00103bc52", "is_reserved": 0, "fusion_lat": 0.0, "is_disabled": 0}, {"rental_uris": {"ios": "https://dc.lft.to/lastmile_qr_scan", "android": "https://dc.lft.to/lastmile_qr_scan"}, "type": "electric_scooter", "lon": -77.04112966666666, "lat": 38.9296675, "fusion_lon": 0.0, "name": "7fa278e9f7a658babb5d6d3013125a12", "bike_id": "7fa278e9f7a658babb5d6d3013125a12", "is_reserved": 0, "fusion_lat": 0.0, "is_disabled": 0}, {"rental_uris": {"ios": "https://dc.lft.to/lastmile_qr_scan", "android": "https://dc.lft.to/lastmile_qr_scan"}, "type": "electric_scooter", "lon": -77.0453045, "lat": 38.9132905, "fusion_lon": 0.0, "name": "4a9b3ef33b76ee8301728f6eddcc7b98", "bike_id": "4a9b3ef33b76ee8301728f6eddcc7b98", "is_reserved": 0, "fusion_lat": 0.0, "is_disabled": 0}, {"rental_uris": {"ios": "https://dc.lft.to/lastmile_qr_scan", "android": "https://dc.lft.to/lastmile_qr_scan"}, "type": "electric_scooter", "lon": -77.05011416666666, "lat": 38.900457833333334, "fusion_lon": 0.0, "name": "af6942b54da61329438c6cf937c3c24f", "bike_id": "af6942b54da61329438c6cf937c3c24f", "is_reserved": 0, "fusion_lat": 0.0, "is_disabled": 0}, {"rental_uris": {"ios": "https://dc.lft.to/lastmile_qr_scan", "android": "https://dc.lft.to/lastmile_qr_scan"}, "type": "electric_scooter", "lon": -76.98943083333333, "lat": 38.858862, "fusion_lon": 0.0, "name": "30d59a8ceb26d914394e428709e68c63", "bike_id": "30d59a8ceb26d914394e428709e68c63", "is_reserved": 0, "fusion_lat": 0.0, "is_disabled": 0}, {"rental_uris": {"ios": "https://dc.lft.to/lastmile_qr_scan", "android": "https://dc.lft.to/lastmile_qr_scan"}, "type": "electric_bike", "lon": -76.99737883333333, "lat": 39.04234833333334, "fusion_lon": 0.0, "name": "388fd7d638cb854ab25b029a2fbca034", "bike_id": "388fd7d638cb854ab25b029a2fbca034", "is_reserved": 0, "fusion_lat": 0.0, "is_disabled": 0}, {"rental_uris": {"ios": "https://dc.lft.to/lastmile_qr_scan", "android": "https://dc.lft.to/lastmile_qr_scan"}, "type": "electric_scooter", "lon": -77.02550983333333, "lat": 38.89756666666667, "fusion_lon": 0.0, "name": "a0496f6075d585918f46678f0ac0c7bf", "bike_id": "a0496f6075d585918f46678f0ac0c7bf", "is_reserved": 0, "fusion_lat": 0.0, "is_disabled": 0}, {"rental_uris": {"ios": "https://dc.lft.to/lastmile_qr_scan", "android": "https://dc.lft.to/lastmile_qr_scan"}, "type": "electric_scooter", "lon": -77.04496083333333, "lat": 38.899632833333335, "fusion_lon": 0.0, "name": "0e5ef1ea6c0860ac890a83123febe46a", "bike_id": "0e5ef1ea6c0860ac890a83123febe46a", "is_reserved": 0, "fusion_lat": 0.0, "is_disabled": 0}, {"rental_uris": {"ios": "https://dc.lft.to/lastmile_qr_scan", "android": "https://dc.lft.to/lastmile_qr_scan"}, "type": "electric_scooter", "lon": -77.005262, "lat": 38.880610833333336, "fusion_lon": 0.0, "name": "9b347967ab53832d05a849c722f38eae", "bike_id": "9b347967ab53832d05a849c722f38eae", "is_reserved": 0, "fusion_lat": 0.0, "is_disabled": 0}, {"rental_uris": {"ios": "https://dc.lft.to/lastmile_qr_scan", "android": "https://dc.lft.to/lastmile_qr_scan"}, "type": "electric_scooter", "lon": -76.98367816666666, "lat": 38.92199466666667, "fusion_lon": 0.0, "name": "922045b34d1c6350ec3cf6764b467ee7", "bike_id": "922045b34d1c6350ec3cf6764b467ee7", "is_reserved": 0, "fusion_lat": 0.0, "is_disabled": 0}, {"rental_uris": {"ios": "https://dc.lft.to/lastmile_qr_scan", "android": "https://dc.lft.to/lastmile_qr_scan"}, "type": "electric_scooter", "lon": -77.01212466666667, "lat": 38.896884, "fusion_lon": 0.0, "name": "c110cc27294bbd6e38d69adf0dff9900", "bike_id": "c110cc27294bbd6e38d69adf0dff9900", "is_reserved": 0, "fusion_lat": 0.0, "is_disabled": 0}, {"rental_uris": {"ios": "https://dc.lft.to/lastmile_qr_scan", "android": "https://dc.lft.to/lastmile_qr_scan"}, "type": "electric_scooter", "lon": -77.00567016666666, "lat": 38.88506, "fusion_lon": 0.0, "name": "30cd25084818e971366863d73e9a6d52", "bike_id": "30cd25084818e971366863d73e9a6d52", "is_reserved": 0, "fusion_lat": 0.0, "is_disabled": 0}, {"rental_uris": {"ios": "https://dc.lft.to/lastmile_qr_scan", "android": "https://dc.lft.to/lastmile_qr_scan"}, "type": "electric_scooter", "lon": -77.0033925, "lat": 38.8961865, "fusion_lon": 0.0, "name": "53b0f5cbff100212e11a5714463f7aa8", "bike_id": "53b0f5cbff100212e11a5714463f7aa8", "is_reserved": 0, "fusion_lat": 0.0, "is_disabled": 0}, {"rental_uris": {"ios": "https://dc.lft.to/lastmile_qr_scan", "android": "https://dc.lft.to/lastmile_qr_scan"}, "type": "electric_scooter", "lon": -77.0037035, "lat": 38.87941633333333, "fusion_lon": 0.0, "name": "461590c17fc0f2aa54f03a5dae6a21cb", "bike_id": "461590c17fc0f2aa54f03a5dae6a21cb", "is_reserved": 0, "fusion_lat": 0.0, "is_disabled": 0}, {"rental_uris": {"ios": "https://dc.lft.to/lastmile_qr_scan", "android": "https://dc.lft.to/lastmile_qr_scan"}, "type": "electric_bike", "lon": -77.01911766666667, "lat": 38.9377425, "fusion_lon": 0.0, "name": "4c9c4b1a04b120aa80178a4b1f02b540", "bike_id": "4c9c4b1a04b120aa80178a4b1f02b540", "is_reserved": 0, "fusion_lat": 0.0, "is_disabled": 0}, {"rental_uris": {"ios": "https://dc.lft.to/lastmile_qr_scan", "android": "https://dc.lft.to/lastmile_qr_scan"}, "type": "electric_scooter", "lon": -76.94289283333333, "lat": 38.88340633333333, "fusion_lon": 0.0, "name": "a81fac1a962082a3bc73c39220bf2a0a", "bike_id": "a81fac1a962082a3bc73c39220bf2a0a", "is_reserved": 0, "fusion_lat": 0.0, "is_disabled": 0}, {"rental_uris": {"ios": "https://dc.lft.to/lastmile_qr_scan", "android": "https://dc.lft.to/lastmile_qr_scan"}, "type": "electric_scooter", "lon": -77.0464615, "lat": 38.892226, "fusion_lon": 0.0, "name": "ed0d64072156a7d5536723f38fed6a30", "bike_id": "ed0d64072156a7d5536723f38fed6a30", "is_reserved": 0, "fusion_lat": 0.0, "is_disabled": 0}, {"rental_uris": {"ios": "https://dc.lft.to/lastmile_qr_scan", "android": "https://dc.lft.to/lastmile_qr_scan"}, "type": "electric_scooter", "lon": -76.94847716666666, "lat": 38.8957695, "fusion_lon": 0.0, "name": "d1130bdee0f8c13789cec258c1c8f8d3", "bike_id": "d1130bdee0f8c13789cec258c1c8f8d3", "is_reserved": 0, "fusion_lat": 0.0, "is_disabled": 0}, {"rental_uris": {"ios": "https://dc.lft.to/lastmile_qr_scan", "android": "https://dc.lft.to/lastmile_qr_scan"}, "type": "electric_scooter", "lon": -77.01834616666666, "lat": 38.94200683333333, "fusion_lon": 0.0, "name": "a16f370508c62f522347180cd45829bb", "bike_id": "a16f370508c62f522347180cd45829bb", "is_reserved": 0, "fusion_lat": 0.0, "is_disabled": 0}, {"rental_uris": {"ios": "https://dc.lft.to/lastmile_qr_scan", "android": "https://dc.lft.to/lastmile_qr_scan"}, "type": "electric_bike", "lon": -76.93188616666667, "lat": 38.89874533333333, "fusion_lon": 0.0, "name": "571926ef24ceb7cda5b6501ab81b61be", "bike_id": "571926ef24ceb7cda5b6501ab81b61be", "is_reserved": 0, "fusion_lat": 0.0, "is_disabled": 0}, {"rental_uris": {"ios": "https://dc.lft.to/lastmile_qr_scan", "android": "https://dc.lft.to/lastmile_qr_scan"}, "type": "electric_scooter", "lon": -77.02559166666667, "lat": 38.88414516666667, "fusion_lon": 0.0, "name": "3c6a57d66bbd43ce17d86d05601501a1", "bike_id": "3c6a57d66bbd43ce17d86d05601501a1", "is_reserved": 0, "fusion_lat": 0.0, "is_disabled": 0}, {"rental_uris": {"ios": "https://dc.lft.to/lastmile_qr_scan", "android": "https://dc.lft.to/lastmile_qr_scan"}, "type": "electric_scooter", "lon": -77.02523616666667, "lat": 38.93868616666666, "fusion_lon": 0.0, "name": "f0919069d12f68e8a1ff434833fb7372", "bike_id": "f0919069d12f68e8a1ff434833fb7372", "is_reserved": 0, "fusion_lat": 0.0, "is_disabled": 0}, {"rental_uris": {"ios": "https://dc.lft.to/lastmile_qr_scan", "android": "https://dc.lft.to/lastmile_qr_scan"}, "type": "electric_bike", "lon": -76.96886383333333, "lat": 38.955870166666664, "fusion_lon": 0.0, "name": "d1849c5281cbfffb140726adb81f56c1", "bike_id": "d1849c5281cbfffb140726adb81f56c1", "is_reserved": 0, "fusion_lat": 0.0, "is_disabled": 0}, {"rental_uris": {"ios": "https://dc.lft.to/lastmile_qr_scan", "android": "https://dc.lft.to/lastmile_qr_scan"}, "type": "electric_scooter", "lon": -77.02185966666667, "lat": 38.893562, "fusion_lon": 0.0, "name": "70ad23c6f403f17d17d4e89c6ac18e26", "bike_id": "70ad23c6f403f17d17d4e89c6ac18e26", "is_reserved": 0, "fusion_lat": 0.0, "is_disabled": 0}, {"rental_uris": {"ios": "https://dc.lft.to/lastmile_qr_scan", "android": "https://dc.lft.to/lastmile_qr_scan"}, "type": "electric_scooter", "lon": -77.042831, "lat": 38.920575, "fusion_lon": 0.0, "name": "460581b0783aad4072ef34ed8d81c428", "bike_id": "460581b0783aad4072ef34ed8d81c428", "is_reserved": 0, "fusion_lat": 0.0, "is_disabled": 0}, {"rental_uris": {"ios": "https://dc.lft.to/lastmile_qr_scan", "android": "https://dc.lft.to/lastmile_qr_scan"}, "type": "electric_scooter", "lon": -77.03861083333334, "lat": 38.90357733333333, "fusion_lon": 0.0, "name": "2adbbc99b2183f0449f39430f88c07d5", "bike_id": "2adbbc99b2183f0449f39430f88c07d5", "is_reserved": 0, "fusion_lat": 0.0, "is_disabled": 0}, {"rental_uris": {"ios": "https://dc.lft.to/lastmile_qr_scan", "android": "https://dc.lft.to/lastmile_qr_scan"}, "type": "electric_scooter", "lon": -77.05842483333333, "lat": 38.935954333333335, "fusion_lon": 0.0, "name": "eb815b9f8bbafdb86ac16be3597f3d39", "bike_id": "eb815b9f8bbafdb86ac16be3597f3d39", "is_reserved": 0, "fusion_lat": 0.0, "is_disabled": 0}, {"rental_uris": {"ios": "https://dc.lft.to/lastmile_qr_scan", "android": "https://dc.lft.to/lastmile_qr_scan"}, "type": "electric_scooter", "lon": -76.9867915, "lat": 38.888732166666664, "fusion_lon": 0.0, "name": "9e5a2f6094e991fc0d3a2f727a79a420", "bike_id": "9e5a2f6094e991fc0d3a2f727a79a420", "is_reserved": 0, "fusion_lat": 0.0, "is_disabled": 0}, {"rental_uris": {"ios": "https://dc.lft.to/lastmile_qr_scan", "android": "https://dc.lft.to/lastmile_qr_scan"}, "type": "electric_scooter", "lon": -77.03854833333334, "lat": 38.903075666666666, "fusion_lon": 0.0, "name": "ff86f1317654659d698f63e186980183", "bike_id": "ff86f1317654659d698f63e186980183", "is_reserved": 0, "fusion_lat": 0.0, "is_disabled": 0}, {"rental_uris": {"ios": "https://dc.lft.to/lastmile_qr_scan", "android": "https://dc.lft.to/lastmile_qr_scan"}, "type": "electric_scooter", "lon": -77.03107016666667, "lat": 38.92307183333333, "fusion_lon": 0.0, "name": "fceb826c6c9a2e58ca5becd0cda8966c", "bike_id": "fceb826c6c9a2e58ca5becd0cda8966c", "is_reserved": 0, "fusion_lat": 0.0, "is_disabled": 0}, {"rental_uris": {"ios": "https://dc.lft.to/lastmile_qr_scan", "android": "https://dc.lft.to/lastmile_qr_scan"}, "type": "electric_scooter", "lon": -76.984878, "lat": 38.900567333333335, "fusion_lon": 0.0, "name": "2e68d7f840a255b80d514ac4c97c7393", "bike_id": "2e68d7f840a255b80d514ac4c97c7393", "is_reserved": 0, "fusion_lat": 0.0, "is_disabled": 0}, {"rental_uris": {"ios": "https://dc.lft.to/lastmile_qr_scan", "android": "https://dc.lft.to/lastmile_qr_scan"}, "type": "electric_scooter", "lon": -76.94915416666667, "lat": 38.895442833333334, "fusion_lon": 0.0, "name": "b6155bd98d278f752706aa102e8ff0e8", "bike_id": "b6155bd98d278f752706aa102e8ff0e8", "is_reserved": 0, "fusion_lat": 0.0, "is_disabled": 0}, {"rental_uris": {"ios": "https://dc.lft.to/lastmile_qr_scan", "android": "https://dc.lft.to/lastmile_qr_scan"}, "type": "electric_scooter", "lon": -77.05068133333333, "lat": 38.901675, "fusion_lon": 0.0, "name": "6d91fe2b4e8b2c0e139b1191490a9735", "bike_id": "6d91fe2b4e8b2c0e139b1191490a9735", "is_reserved": 0, "fusion_lat": 0.0, "is_disabled": 0}, {"rental_uris": {"ios": "https://dc.lft.to/lastmile_qr_scan", "android": "https://dc.lft.to/lastmile_qr_scan"}, "type": "electric_scooter", "lon": -77.06925566666666, "lat": 38.913900166666664, "fusion_lon": 0.0, "name": "d5eccaf9005d3ab73742b890a43df1a4", "bike_id": "d5eccaf9005d3ab73742b890a43df1a4", "is_reserved": 0, "fusion_lat": 0.0, "is_disabled": 0}, {"rental_uris": {"ios": "https://dc.lft.to/lastmile_qr_scan", "android": "https://dc.lft.to/lastmile_qr_scan"}, "type": "electric_scooter", "lon": -77.04147966666666, "lat": 38.89221783333333, "fusion_lon": 0.0, "name": "7be4e054fd80b0c8fca3eec8971741d4", "bike_id": "7be4e054fd80b0c8fca3eec8971741d4", "is_reserved": 0, "fusion_lat": 0.0, "is_disabled": 0}, {"rental_uris": {"ios": "https://dc.lft.to/lastmile_qr_scan", "android": "https://dc.lft.to/lastmile_qr_scan"}, "type": "electric_scooter", "lon": -76.92964316666666, "lat": 38.89632366666667, "fusion_lon": 0.0, "name": "891630df402c74accd494807d277adb8", "bike_id": "891630df402c74accd494807d277adb8", "is_reserved": 0, "fusion_lat": 0.0, "is_disabled": 0}, {"rental_uris": {"ios": "https://dc.lft.to/lastmile_qr_scan", "android": "https://dc.lft.to/lastmile_qr_scan"}, "type": "electric_bike", "lon": -77.01210633333334, "lat": 38.82893583333333, "fusion_lon": 0.0, "name": "e7179afdcad38aed24650f0a908275c4", "bike_id": "e7179afdcad38aed24650f0a908275c4", "is_reserved": 0, "fusion_lat": 0.0, "is_disabled": 0}, {"rental_uris": {"ios": "https://dc.lft.to/lastmile_qr_scan", "android": "https://dc.lft.to/lastmile_qr_scan"}, "type": "electric_scooter", "lon": -77.027522, "lat": 38.957355666666665, "fusion_lon": 0.0, "name": "fc1b72c7438744856998b30ba469dc0c", "bike_id": "fc1b72c7438744856998b30ba469dc0c", "is_reserved": 0, "fusion_lat": 0.0, "is_disabled": 0}, {"rental_uris": {"ios": "https://dc.lft.to/lastmile_qr_scan", "android": "https://dc.lft.to/lastmile_qr_scan"}, "type": "electric_scooter", "lon": -77.02156133333334, "lat": 38.92500533333333, "fusion_lon": 0.0, "name": "23291d84ff7f4fa08d816b996da15243", "bike_id": "23291d84ff7f4fa08d816b996da15243", "is_reserved": 0, "fusion_lat": 0.0, "is_disabled": 0}, {"rental_uris": {"ios": "https://dc.lft.to/lastmile_qr_scan", "android": "https://dc.lft.to/lastmile_qr_scan"}, "type": "electric_scooter", "lon": -77.0238065, "lat": 38.903038, "fusion_lon": 0.0, "name": "ab4d3c2ef037981a345792dd0963cad5", "bike_id": "ab4d3c2ef037981a345792dd0963cad5", "is_reserved": 0, "fusion_lat": 0.0, "is_disabled": 0}, {"rental_uris": {"ios": "https://dc.lft.to/lastmile_qr_scan", "android": "https://dc.lft.to/lastmile_qr_scan"}, "type": "electric_scooter", "lon": -77.03884216666667, "lat": 38.919961666666666, "fusion_lon": 0.0, "name": "ac66919bdd1b9829e1353405cf0782e6", "bike_id": "ac66919bdd1b9829e1353405cf0782e6", "is_reserved": 0, "fusion_lat": 0.0, "is_disabled": 0}, {"rental_uris": {"ios": "https://dc.lft.to/lastmile_qr_scan", "android": "https://dc.lft.to/lastmile_qr_scan"}, "type": "electric_bike", "lon": -76.9853795, "lat": 38.879684833333336, "fusion_lon": 0.0, "name": "7d9b445b5c8c202b4ac06e31ffd60629", "bike_id": "7d9b445b5c8c202b4ac06e31ffd60629", "is_reserved": 0, "fusion_lat": 0.0, "is_disabled": 0}, {"rental_uris": {"ios": "https://dc.lft.to/lastmile_qr_scan", "android": "https://dc.lft.to/lastmile_qr_scan"}, "type": "electric_scooter", "lon": -77.05523233333334, "lat": 38.89739566666667, "fusion_lon": 0.0, "name": "abbfd6e9eda2aeb2ccf8af194fb7ce4e", "bike_id": "abbfd6e9eda2aeb2ccf8af194fb7ce4e", "is_reserved": 0, "fusion_lat": 0.0, "is_disabled": 0}, {"rental_uris": {"ios": "https://dc.lft.to/lastmile_qr_scan", "android": "https://dc.lft.to/lastmile_qr_scan"}, "type": "electric_scooter", "lon": -77.0247135, "lat": 38.90409283333334, "fusion_lon": 0.0, "name": "0d0e9d65d90ae98ab319d1ab21b048a7", "bike_id": "0d0e9d65d90ae98ab319d1ab21b048a7", "is_reserved": 0, "fusion_lat": 0.0, "is_disabled": 0}, {"rental_uris": {"ios": "https://dc.lft.to/lastmile_qr_scan", "android": "https://dc.lft.to/lastmile_qr_scan"}, "type": "electric_scooter", "lon": -77.0484455, "lat": 38.90465783333333, "fusion_lon": 0.0, "name": "fa67830096123f788dc55c5af03cf5ff", "bike_id": "fa67830096123f788dc55c5af03cf5ff", "is_reserved": 0, "fusion_lat": 0.0, "is_disabled": 0}, {"rental_uris": {"ios": "https://dc.lft.to/lastmile_qr_scan", "android": "https://dc.lft.to/lastmile_qr_scan"}, "type": "electric_scooter", "lon": -76.990913, "lat": 38.88237183333333, "fusion_lon": 0.0, "name": "989e4a6c62c1821a55fedbcf90d45a00", "bike_id": "989e4a6c62c1821a55fedbcf90d45a00", "is_reserved": 0, "fusion_lat": 0.0, "is_disabled": 0}, {"rental_uris": {"ios": "https://dc.lft.to/lastmile_qr_scan", "android": "https://dc.lft.to/lastmile_qr_scan"}, "type": "electric_scooter", "lon": -77.0415405, "lat": 38.914526, "fusion_lon": 0.0, "name": "adbc07b0f3ef91d84c300ff7bcc4dbe8", "bike_id": "adbc07b0f3ef91d84c300ff7bcc4dbe8", "is_reserved": 0, "fusion_lat": 0.0, "is_disabled": 0}, {"rental_uris": {"ios": "https://dc.lft.to/lastmile_qr_scan", "android": "https://dc.lft.to/lastmile_qr_scan"}, "type": "electric_scooter", "lon": -77.05399516666667, "lat": 38.92332716666667, "fusion_lon": 0.0, "name": "0669b92e971318f6040a4a41fa274f72", "bike_id": "0669b92e971318f6040a4a41fa274f72", "is_reserved": 0, "fusion_lat": 0.0, "is_disabled": 0}, {"rental_uris": {"ios": "https://dc.lft.to/lastmile_qr_scan", "android": "https://dc.lft.to/lastmile_qr_scan"}, "type": "electric_scooter", "lon": -77.04532216666666, "lat": 38.913275166666665, "fusion_lon": 0.0, "name": "572b8ec2d8f0f0dfb78a6bb681f6110c", "bike_id": "572b8ec2d8f0f0dfb78a6bb681f6110c", "is_reserved": 0, "fusion_lat": 0.0, "is_disabled": 0}, {"rental_uris": {"ios": "https://dc.lft.to/lastmile_qr_scan", "android": "https://dc.lft.to/lastmile_qr_scan"}, "type": "electric_scooter", "lon": -77.03219666666666, "lat": 38.91608033333333, "fusion_lon": 0.0, "name": "f9357bb9e5d543ebbdda8b65dcab7a89", "bike_id": "f9357bb9e5d543ebbdda8b65dcab7a89", "is_reserved": 0, "fusion_lat": 0.0, "is_disabled": 0}, {"rental_uris": {"ios": "https://dc.lft.to/lastmile_qr_scan", "android": "https://dc.lft.to/lastmile_qr_scan"}, "type": "electric_scooter", "lon": -76.95837433333334, "lat": 38.93045733333334, "fusion_lon": 0.0, "name": "a971e7c566c0e1fa020c343d1dfc95c8", "bike_id": "a971e7c566c0e1fa020c343d1dfc95c8", "is_reserved": 0, "fusion_lat": 0.0, "is_disabled": 0}, {"rental_uris": {"ios": "https://dc.lft.to/lastmile_qr_scan", "android": "https://dc.lft.to/lastmile_qr_scan"}, "type": "electric_bike", "lon": -77.13921683333334, "lat": 38.84672, "fusion_lon": 0.0, "name": "27cf5a8a21ecab4370c468d172732901", "bike_id": "27cf5a8a21ecab4370c468d172732901", "is_reserved": 0, "fusion_lat": 0.0, "is_disabled": 0}, {"rental_uris": {"ios": "https://dc.lft.to/lastmile_qr_scan", "android": "https://dc.lft.to/lastmile_qr_scan"}, "type": "electric_scooter", "lon": -77.05069033333334, "lat": 38.92412183333333, "fusion_lon": 0.0, "name": "4ceeadb81c0fe32bdbc8427354cef869", "bike_id": "4ceeadb81c0fe32bdbc8427354cef869", "is_reserved": 0, "fusion_lat": 0.0, "is_disabled": 0}, {"rental_uris": {"ios": "https://dc.lft.to/lastmile_qr_scan", "android": "https://dc.lft.to/lastmile_qr_scan"}, "type": "electric_scooter", "lon": -77.03657683333333, "lat": 38.931566, "fusion_lon": 0.0, "name": "8d5d83247e60977bbbb67593465b0808", "bike_id": "8d5d83247e60977bbbb67593465b0808", "is_reserved": 0, "fusion_lat": 0.0, "is_disabled": 0}, {"rental_uris": {"ios": "https://dc.lft.to/lastmile_qr_scan", "android": "https://dc.lft.to/lastmile_qr_scan"}, "type": "electric_scooter", "lon": -77.00217783333333, "lat": 38.892593166666664, "fusion_lon": 0.0, "name": "cbdd534e1d73837fe7baf0a9bc0e4e4c", "bike_id": "cbdd534e1d73837fe7baf0a9bc0e4e4c", "is_reserved": 0, "fusion_lat": 0.0, "is_disabled": 0}, {"rental_uris": {"ios": "https://dc.lft.to/lastmile_qr_scan", "android": "https://dc.lft.to/lastmile_qr_scan"}, "type": "electric_scooter", "lon": -77.05209133333334, "lat": 38.924369, "fusion_lon": 0.0, "name": "681687472c4b9c8644fe887469769214", "bike_id": "681687472c4b9c8644fe887469769214", "is_reserved": 0, "fusion_lat": 0.0, "is_disabled": 0}, {"rental_uris": {"ios": "https://dc.lft.to/lastmile_qr_scan", "android": "https://dc.lft.to/lastmile_qr_scan"}, "type": "electric_scooter", "lon": -76.99162633333333, "lat": 38.878627, "fusion_lon": 0.0, "name": "86ad62dbc74516bc9e6705d95ce33d79", "bike_id": "86ad62dbc74516bc9e6705d95ce33d79", "is_reserved": 0, "fusion_lat": 0.0, "is_disabled": 0}, {"rental_uris": {"ios": "https://dc.lft.to/lastmile_qr_scan", "android": "https://dc.lft.to/lastmile_qr_scan"}, "type": "electric_scooter", "lon": -77.03286566666667, "lat": 38.899037, "fusion_lon": 0.0, "name": "7e71280c6d65f07a04d48b67906c63b0", "bike_id": "7e71280c6d65f07a04d48b67906c63b0", "is_reserved": 0, "fusion_lat": 0.0, "is_disabled": 0}, {"rental_uris": {"ios": "https://dc.lft.to/lastmile_qr_scan", "android": "https://dc.lft.to/lastmile_qr_scan"}, "type": "electric_scooter", "lon": -76.9274355, "lat": 38.900654, "fusion_lon": 0.0, "name": "e7defa07a199be392b796dee5ab6cd63", "bike_id": "e7defa07a199be392b796dee5ab6cd63", "is_reserved": 0, "fusion_lat": 0.0, "is_disabled": 0}, {"rental_uris": {"ios": "https://dc.lft.to/lastmile_qr_scan", "android": "https://dc.lft.to/lastmile_qr_scan"}, "type": "electric_scooter", "lon": -76.99298533333334, "lat": 38.881241333333335, "fusion_lon": 0.0, "name": "429fd48458545aa52d1a92f250c4d357", "bike_id": "429fd48458545aa52d1a92f250c4d357", "is_reserved": 0, "fusion_lat": 0.0, "is_disabled": 0}, {"rental_uris": {"ios": "https://dc.lft.to/lastmile_qr_scan", "android": "https://dc.lft.to/lastmile_qr_scan"}, "type": "electric_scooter", "lon": -77.04368916666667, "lat": 38.9111975, "fusion_lon": 0.0, "name": "a33f0a13661f23ad2636bfe63f0bff5a", "bike_id": "a33f0a13661f23ad2636bfe63f0bff5a", "is_reserved": 0, "fusion_lat": 0.0, "is_disabled": 0}, {"rental_uris": {"ios": "https://dc.lft.to/lastmile_qr_scan", "android": "https://dc.lft.to/lastmile_qr_scan"}, "type": "electric_scooter", "lon": -77.02189366666667, "lat": 38.906981, "fusion_lon": 0.0, "name": "5a58ea8123c20a03b197f50b232d80dd", "bike_id": "5a58ea8123c20a03b197f50b232d80dd", "is_reserved": 0, "fusion_lat": 0.0, "is_disabled": 0}, {"rental_uris": {"ios": "https://dc.lft.to/lastmile_qr_scan", "android": "https://dc.lft.to/lastmile_qr_scan"}, "type": "electric_scooter", "lon": -77.02695416666667, "lat": 38.906818666666666, "fusion_lon": 0.0, "name": "95c8d49bad5ac5fe63a082ebf65c39c4", "bike_id": "95c8d49bad5ac5fe63a082ebf65c39c4", "is_reserved": 0, "fusion_lat": 0.0, "is_disabled": 0}, {"rental_uris": {"ios": "https://dc.lft.to/lastmile_qr_scan", "android": "https://dc.lft.to/lastmile_qr_scan"}, "type": "electric_scooter", "lon": -76.99587283333334, "lat": 38.92834116666667, "fusion_lon": 0.0, "name": "b4ff6ae5fa287c4c7668a623a95b314f", "bike_id": "b4ff6ae5fa287c4c7668a623a95b314f", "is_reserved": 0, "fusion_lat": 0.0, "is_disabled": 0}, {"rental_uris": {"ios": "https://dc.lft.to/lastmile_qr_scan", "android": "https://dc.lft.to/lastmile_qr_scan"}, "type": "electric_scooter", "lon": -77.01167733333334, "lat": 38.89619183333333, "fusion_lon": 0.0, "name": "d394d7851556a015c329c82bb37669e0", "bike_id": "d394d7851556a015c329c82bb37669e0", "is_reserved": 0, "fusion_lat": 0.0, "is_disabled": 0}, {"rental_uris": {"ios": "https://dc.lft.to/lastmile_qr_scan", "android": "https://dc.lft.to/lastmile_qr_scan"}, "type": "electric_scooter", "lon": -76.99792566666666, "lat": 38.87497783333333, "fusion_lon": 0.0, "name": "3c28959f342abcb94b0075f69f0d1793", "bike_id": "3c28959f342abcb94b0075f69f0d1793", "is_reserved": 0, "fusion_lat": 0.0, "is_disabled": 0}, {"rental_uris": {"ios": "https://dc.lft.to/lastmile_qr_scan", "android": "https://dc.lft.to/lastmile_qr_scan"}, "type": "electric_scooter", "lon": -77.035541, "lat": 38.9039185, "fusion_lon": 0.0, "name": "ecbda31cdd0824c8ab7f23b4811d1120", "bike_id": "ecbda31cdd0824c8ab7f23b4811d1120", "is_reserved": 0, "fusion_lat": 0.0, "is_disabled": 0}, {"rental_uris": {"ios": "https://dc.lft.to/lastmile_qr_scan", "android": "https://dc.lft.to/lastmile_qr_scan"}, "type": "electric_scooter", "lon": -77.03291333333334, "lat": 38.9641135, "fusion_lon": 0.0, "name": "730dcadd0d45ac1998752db466ffa171", "bike_id": "730dcadd0d45ac1998752db466ffa171", "is_reserved": 0, "fusion_lat": 0.0, "is_disabled": 0}, {"rental_uris": {"ios": "https://dc.lft.to/lastmile_qr_scan", "android": "https://dc.lft.to/lastmile_qr_scan"}, "type": "electric_scooter", "lon": -77.03406333333334, "lat": 38.923937, "fusion_lon": 0.0, "name": "89d0ee5e5bcc56a88212fda8635172cc", "bike_id": "89d0ee5e5bcc56a88212fda8635172cc", "is_reserved": 0, "fusion_lat": 0.0, "is_disabled": 0}, {"rental_uris": {"ios": "https://dc.lft.to/lastmile_qr_scan", "android": "https://dc.lft.to/lastmile_qr_scan"}, "type": "electric_scooter", "lon": -77.02299783333333, "lat": 38.89491433333333, "fusion_lon": 0.0, "name": "214d156965e6884e505029768216cdc0", "bike_id": "214d156965e6884e505029768216cdc0", "is_reserved": 0, "fusion_lat": 0.0, "is_disabled": 0}, {"rental_uris": {"ios": "https://dc.lft.to/lastmile_qr_scan", "android": "https://dc.lft.to/lastmile_qr_scan"}, "type": "electric_scooter", "lon": -77.03029366666667, "lat": 38.902491833333336, "fusion_lon": 0.0, "name": "95c80bd873c9cde274f74f893e0c1861", "bike_id": "95c80bd873c9cde274f74f893e0c1861", "is_reserved": 0, "fusion_lat": 0.0, "is_disabled": 0}, {"rental_uris": {"ios": "https://dc.lft.to/lastmile_qr_scan", "android": "https://dc.lft.to/lastmile_qr_scan"}, "type": "electric_scooter", "lon": -77.03848766666667, "lat": 38.932511166666664, "fusion_lon": 0.0, "name": "c0557408a9e424f6509deb056a63d50f", "bike_id": "c0557408a9e424f6509deb056a63d50f", "is_reserved": 0, "fusion_lat": 0.0, "is_disabled": 0}, {"rental_uris": {"ios": "https://dc.lft.to/lastmile_qr_scan", "android": "https://dc.lft.to/lastmile_qr_scan"}, "type": "electric_scooter", "lon": -77.029675, "lat": 38.92683433333333, "fusion_lon": 0.0, "name": "10b3dc6725f34514912036c557cc0a8b", "bike_id": "10b3dc6725f34514912036c557cc0a8b", "is_reserved": 0, "fusion_lat": 0.0, "is_disabled": 0}, {"rental_uris": {"ios": "https://dc.lft.to/lastmile_qr_scan", "android": "https://dc.lft.to/lastmile_qr_scan"}, "type": "electric_scooter", "lon": -77.03458033333334, "lat": 38.90666783333333, "fusion_lon": 0.0, "name": "45aeb2f680843e727c741a911c0cbefe", "bike_id": "45aeb2f680843e727c741a911c0cbefe", "is_reserved": 0, "fusion_lat": 0.0, "is_disabled": 0}, {"rental_uris": {"ios": "https://dc.lft.to/lastmile_qr_scan", "android": "https://dc.lft.to/lastmile_qr_scan"}, "type": "electric_scooter", "lon": -77.02281366666666, "lat": 38.928239, "fusion_lon": 0.0, "name": "f640881a22fa80a339cab69c9ae603df", "bike_id": "f640881a22fa80a339cab69c9ae603df", "is_reserved": 0, "fusion_lat": 0.0, "is_disabled": 0}, {"rental_uris": {"ios": "https://dc.lft.to/lastmile_qr_scan", "android": "https://dc.lft.to/lastmile_qr_scan"}, "type": "electric_scooter", "lon": -77.02367616666666, "lat": 38.902166666666666, "fusion_lon": 0.0, "name": "70fd8443bfb8dbc8adfb96a185bd9e5d", "bike_id": "70fd8443bfb8dbc8adfb96a185bd9e5d", "is_reserved": 0, "fusion_lat": 0.0, "is_disabled": 0}, {"rental_uris": {"ios": "https://dc.lft.to/lastmile_qr_scan", "android": "https://dc.lft.to/lastmile_qr_scan"}, "type": "electric_bike", "lon": -77.11034916666667, "lat": 38.87071566666667, "fusion_lon": 0.0, "name": "41bfa54b83afc8eb62427940f4c5615e", "bike_id": "41bfa54b83afc8eb62427940f4c5615e", "is_reserved": 0, "fusion_lat": 0.0, "is_disabled": 0}, {"rental_uris": {"ios": "https://dc.lft.to/lastmile_qr_scan", "android": "https://dc.lft.to/lastmile_qr_scan"}, "type": "electric_scooter", "lon": -77.03730266666666, "lat": 38.9170805, "fusion_lon": 0.0, "name": "abc91ec7b2ffedf8e0babdb20caf57be", "bike_id": "abc91ec7b2ffedf8e0babdb20caf57be", "is_reserved": 0, "fusion_lat": 0.0, "is_disabled": 0}, {"rental_uris": {"ios": "https://dc.lft.to/lastmile_qr_scan", "android": "https://dc.lft.to/lastmile_qr_scan"}, "type": "electric_scooter", "lon": -77.0435925, "lat": 38.903926166666665, "fusion_lon": 0.0, "name": "a98d266a74d3312058e1d21a0d49e730", "bike_id": "a98d266a74d3312058e1d21a0d49e730", "is_reserved": 0, "fusion_lat": 0.0, "is_disabled": 0}, {"rental_uris": {"ios": "https://dc.lft.to/lastmile_qr_scan", "android": "https://dc.lft.to/lastmile_qr_scan"}, "type": "electric_scooter", "lon": -77.00930133333334, "lat": 38.899783, "fusion_lon": 0.0, "name": "c1c545e174c4879ed8c22769afc19ebe", "bike_id": "c1c545e174c4879ed8c22769afc19ebe", "is_reserved": 0, "fusion_lat": 0.0, "is_disabled": 0}, {"rental_uris": {"ios": "https://dc.lft.to/lastmile_qr_scan", "android": "https://dc.lft.to/lastmile_qr_scan"}, "type": "electric_scooter", "lon": -77.02960133333333, "lat": 38.92381133333333, "fusion_lon": 0.0, "name": "464034bb096d132ecc5ad1b4147b5fac", "bike_id": "464034bb096d132ecc5ad1b4147b5fac", "is_reserved": 0, "fusion_lat": 0.0, "is_disabled": 0}, {"rental_uris": {"ios": "https://dc.lft.to/lastmile_qr_scan", "android": "https://dc.lft.to/lastmile_qr_scan"}, "type": "electric_scooter", "lon": -77.01344033333334, "lat": 38.9180535, "fusion_lon": 0.0, "name": "b12673de09cc952b88ef4b3b96bbca4c", "bike_id": "b12673de09cc952b88ef4b3b96bbca4c", "is_reserved": 0, "fusion_lat": 0.0, "is_disabled": 0}, {"rental_uris": {"ios": "https://dc.lft.to/lastmile_qr_scan", "android": "https://dc.lft.to/lastmile_qr_scan"}, "type": "electric_scooter", "lon": -77.02981, "lat": 38.90577583333334, "fusion_lon": 0.0, "name": "82b6942c10b808c0ff828b9cffbcebeb", "bike_id": "82b6942c10b808c0ff828b9cffbcebeb", "is_reserved": 0, "fusion_lat": 0.0, "is_disabled": 0}, {"rental_uris": {"ios": "https://dc.lft.to/lastmile_qr_scan", "android": "https://dc.lft.to/lastmile_qr_scan"}, "type": "electric_scooter", "lon": -77.0018525, "lat": 38.90721083333333, "fusion_lon": 0.0, "name": "7a51992b09bb7ff48947e623758b93db", "bike_id": "7a51992b09bb7ff48947e623758b93db", "is_reserved": 0, "fusion_lat": 0.0, "is_disabled": 0}, {"rental_uris": {"ios": "https://dc.lft.to/lastmile_qr_scan", "android": "https://dc.lft.to/lastmile_qr_scan"}, "type": "electric_scooter", "lon": -77.0460235, "lat": 38.91067266666667, "fusion_lon": 0.0, "name": "7bd85d12e592bc9fcf07f8c83154ec4b", "bike_id": "7bd85d12e592bc9fcf07f8c83154ec4b", "is_reserved": 0, "fusion_lat": 0.0, "is_disabled": 0}, {"rental_uris": {"ios": "https://dc.lft.to/lastmile_qr_scan", "android": "https://dc.lft.to/lastmile_qr_scan"}, "type": "electric_scooter", "lon": -77.03067366666667, "lat": 38.92249566666667, "fusion_lon": 0.0, "name": "32cd5340dcf3e8181fea64f6b1b74809", "bike_id": "32cd5340dcf3e8181fea64f6b1b74809", "is_reserved": 0, "fusion_lat": 0.0, "is_disabled": 0}, {"rental_uris": {"ios": "https://dc.lft.to/lastmile_qr_scan", "android": "https://dc.lft.to/lastmile_qr_scan"}, "type": "electric_scooter", "lon": -76.93006566666666, "lat": 38.90184566666667, "fusion_lon": 0.0, "name": "37a709895be842efbfa8ebd123d249aa", "bike_id": "37a709895be842efbfa8ebd123d249aa", "is_reserved": 0, "fusion_lat": 0.0, "is_disabled": 0}, {"rental_uris": {"ios": "https://dc.lft.to/lastmile_qr_scan", "android": "https://dc.lft.to/lastmile_qr_scan"}, "type": "electric_scooter", "lon": -77.02150533333334, "lat": 38.902629, "fusion_lon": 0.0, "name": "fa7a88fe93ec79ca434d222055a7b261", "bike_id": "fa7a88fe93ec79ca434d222055a7b261", "is_reserved": 0, "fusion_lat": 0.0, "is_disabled": 0}, {"rental_uris": {"ios": "https://dc.lft.to/lastmile_qr_scan", "android": "https://dc.lft.to/lastmile_qr_scan"}, "type": "electric_scooter", "lon": -77.02285483333333, "lat": 38.92565333333334, "fusion_lon": 0.0, "name": "8583d3f09ed4435b96d604c4153d0535", "bike_id": "8583d3f09ed4435b96d604c4153d0535", "is_reserved": 0, "fusion_lat": 0.0, "is_disabled": 0}, {"rental_uris": {"ios": "https://dc.lft.to/lastmile_qr_scan", "android": "https://dc.lft.to/lastmile_qr_scan"}, "type": "electric_scooter", "lon": -77.027895, "lat": 38.898318, "fusion_lon": 0.0, "name": "24a8a7ae9326f1d42b791700c283f0af", "bike_id": "24a8a7ae9326f1d42b791700c283f0af", "is_reserved": 0, "fusion_lat": 0.0, "is_disabled": 0}, {"rental_uris": {"ios": "https://dc.lft.to/lastmile_qr_scan", "android": "https://dc.lft.to/lastmile_qr_scan"}, "type": "electric_scooter", "lon": -77.04011166666666, "lat": 38.903879833333335, "fusion_lon": 0.0, "name": "b0a9320d0f7eb199326f3613f1ce8cbb", "bike_id": "b0a9320d0f7eb199326f3613f1ce8cbb", "is_reserved": 0, "fusion_lat": 0.0, "is_disabled": 0}, {"rental_uris": {"ios": "https://dc.lft.to/lastmile_qr_scan", "android": "https://dc.lft.to/lastmile_qr_scan"}, "type": "electric_scooter", "lon": -77.04391933333333, "lat": 38.911086166666664, "fusion_lon": 0.0, "name": "f5ff457c9251a89da04a3b2a107c34fe", "bike_id": "f5ff457c9251a89da04a3b2a107c34fe", "is_reserved": 0, "fusion_lat": 0.0, "is_disabled": 0}, {"rental_uris": {"ios": "https://dc.lft.to/lastmile_qr_scan", "android": "https://dc.lft.to/lastmile_qr_scan"}, "type": "electric_scooter", "lon": -77.0293425, "lat": 38.8983645, "fusion_lon": 0.0, "name": "821ee69835a2a2f485f3e21dfa6d407c", "bike_id": "821ee69835a2a2f485f3e21dfa6d407c", "is_reserved": 0, "fusion_lat": 0.0, "is_disabled": 0}, {"rental_uris": {"ios": "https://dc.lft.to/lastmile_qr_scan", "android": "https://dc.lft.to/lastmile_qr_scan"}, "type": "electric_scooter", "lon": -77.03354183333333, "lat": 38.9170055, "fusion_lon": 0.0, "name": "a1eb5379b5122add04020e925ad01e36", "bike_id": "a1eb5379b5122add04020e925ad01e36", "is_reserved": 0, "fusion_lat": 0.0, "is_disabled": 0}, {"rental_uris": {"ios": "https://dc.lft.to/lastmile_qr_scan", "android": "https://dc.lft.to/lastmile_qr_scan"}, "type": "electric_bike", "lon": -77.12662916666666, "lat": 38.81915883333333, "fusion_lon": 0.0, "name": "8e36bdaaf039b7871e32fa635f3a4c45", "bike_id": "8e36bdaaf039b7871e32fa635f3a4c45", "is_reserved": 0, "fusion_lat": 0.0, "is_disabled": 0}, {"rental_uris": {"ios": "https://dc.lft.to/lastmile_qr_scan", "android": "https://dc.lft.to/lastmile_qr_scan"}, "type": "electric_scooter", "lon": -77.046245, "lat": 38.8996595, "fusion_lon": 0.0, "name": "10c7de5650660b51fd05eab02b8d96cc", "bike_id": "10c7de5650660b51fd05eab02b8d96cc", "is_reserved": 0, "fusion_lat": 0.0, "is_disabled": 0}, {"rental_uris": {"ios": "https://dc.lft.to/lastmile_qr_scan", "android": "https://dc.lft.to/lastmile_qr_scan"}, "type": "electric_bike", "lon": -77.01968116666667, "lat": 38.931366833333335, "fusion_lon": 0.0, "name": "96a6af814c19e2577ee62fcc95c91ce3", "bike_id": "96a6af814c19e2577ee62fcc95c91ce3", "is_reserved": 0, "fusion_lat": 0.0, "is_disabled": 0}, {"rental_uris": {"ios": "https://dc.lft.to/lastmile_qr_scan", "android": "https://dc.lft.to/lastmile_qr_scan"}, "type": "electric_scooter", "lon": -77.015793, "lat": 38.916819, "fusion_lon": 0.0, "name": "444a817db18277ea83e4d82d06af2267", "bike_id": "444a817db18277ea83e4d82d06af2267", "is_reserved": 0, "fusion_lat": 0.0, "is_disabled": 0}, {"rental_uris": {"ios": "https://dc.lft.to/lastmile_qr_scan", "android": "https://dc.lft.to/lastmile_qr_scan"}, "type": "electric_scooter", "lon": -76.97706116666667, "lat": 38.8882085, "fusion_lon": 0.0, "name": "685c2fd401b1bba11a36b29738287425", "bike_id": "685c2fd401b1bba11a36b29738287425", "is_reserved": 0, "fusion_lat": 0.0, "is_disabled": 0}, {"rental_uris": {"ios": "https://dc.lft.to/lastmile_qr_scan", "android": "https://dc.lft.to/lastmile_qr_scan"}, "type": "electric_scooter", "lon": -76.98334033333333, "lat": 38.88711216666667, "fusion_lon": 0.0, "name": "2ae7634bf7d062fa497902bde8b4d8ca", "bike_id": "2ae7634bf7d062fa497902bde8b4d8ca", "is_reserved": 0, "fusion_lat": 0.0, "is_disabled": 0}, {"rental_uris": {"ios": "https://dc.lft.to/lastmile_qr_scan", "android": "https://dc.lft.to/lastmile_qr_scan"}, "type": "electric_scooter", "lon": -76.980806, "lat": 38.901710666666666, "fusion_lon": 0.0, "name": "ca6b4f88011faf20d2230611a67d2706", "bike_id": "ca6b4f88011faf20d2230611a67d2706", "is_reserved": 0, "fusion_lat": 0.0, "is_disabled": 0}, {"rental_uris": {"ios": "https://dc.lft.to/lastmile_qr_scan", "android": "https://dc.lft.to/lastmile_qr_scan"}, "type": "electric_scooter", "lon": -77.0446685, "lat": 38.89610316666667, "fusion_lon": 0.0, "name": "edc5965ebc47ebe8609eaba48544abbb", "bike_id": "edc5965ebc47ebe8609eaba48544abbb", "is_reserved": 0, "fusion_lat": 0.0, "is_disabled": 0}, {"rental_uris": {"ios": "https://dc.lft.to/lastmile_qr_scan", "android": "https://dc.lft.to/lastmile_qr_scan"}, "type": "electric_scooter", "lon": -77.00569683333333, "lat": 38.88502033333333, "fusion_lon": 0.0, "name": "2a2f7ee55e25bbd5aabc14ae0684594a", "bike_id": "2a2f7ee55e25bbd5aabc14ae0684594a", "is_reserved": 0, "fusion_lat": 0.0, "is_disabled": 0}, {"rental_uris": {"ios": "https://dc.lft.to/lastmile_qr_scan", "android": "https://dc.lft.to/lastmile_qr_scan"}, "type": "electric_scooter", "lon": -77.00524133333333, "lat": 38.880689333333336, "fusion_lon": 0.0, "name": "146bc4da266383558f206a055f5d8012", "bike_id": "146bc4da266383558f206a055f5d8012", "is_reserved": 0, "fusion_lat": 0.0, "is_disabled": 0}, {"rental_uris": {"ios": "https://dc.lft.to/lastmile_qr_scan", "android": "https://dc.lft.to/lastmile_qr_scan"}, "type": "electric_scooter", "lon": -77.052351, "lat": 38.924667166666666, "fusion_lon": 0.0, "name": "e8b2183e5d6eb9f817cbb0e964727f1d", "bike_id": "e8b2183e5d6eb9f817cbb0e964727f1d", "is_reserved": 0, "fusion_lat": 0.0, "is_disabled": 0}, {"rental_uris": {"ios": "https://dc.lft.to/lastmile_qr_scan", "android": "https://dc.lft.to/lastmile_qr_scan"}, "type": "electric_scooter", "lon": -77.02747366666667, "lat": 38.9268055, "fusion_lon": 0.0, "name": "e53f305b1537c4d982cb37eab3cf53ad", "bike_id": "e53f305b1537c4d982cb37eab3cf53ad", "is_reserved": 0, "fusion_lat": 0.0, "is_disabled": 0}, {"rental_uris": {"ios": "https://dc.lft.to/lastmile_qr_scan", "android": "https://dc.lft.to/lastmile_qr_scan"}, "type": "electric_scooter", "lon": -77.00976633333333, "lat": 38.907004, "fusion_lon": 0.0, "name": "109920c4d405c4fc1d7313ee23c618c9", "bike_id": "109920c4d405c4fc1d7313ee23c618c9", "is_reserved": 0, "fusion_lat": 0.0, "is_disabled": 0}, {"rental_uris": {"ios": "https://dc.lft.to/lastmile_qr_scan", "android": "https://dc.lft.to/lastmile_qr_scan"}, "type": "electric_scooter", "lon": -77.016868, "lat": 38.89954683333333, "fusion_lon": 0.0, "name": "5ec5deb3b1a69c0402e5618be018ea5a", "bike_id": "5ec5deb3b1a69c0402e5618be018ea5a", "is_reserved": 0, "fusion_lat": 0.0, "is_disabled": 0}, {"rental_uris": {"ios": "https://dc.lft.to/lastmile_qr_scan", "android": "https://dc.lft.to/lastmile_qr_scan"}, "type": "electric_bike", "lon": -77.01358233333333, "lat": 39.02922566666667, "fusion_lon": 0.0, "name": "7cd5ad6765124933900cfb430967adb9", "bike_id": "7cd5ad6765124933900cfb430967adb9", "is_reserved": 0, "fusion_lat": 0.0, "is_disabled": 0}, {"rental_uris": {"ios": "https://dc.lft.to/lastmile_qr_scan", "android": "https://dc.lft.to/lastmile_qr_scan"}, "type": "electric_scooter", "lon": -77.03730833333333, "lat": 38.91706716666667, "fusion_lon": 0.0, "name": "cd60d2dca41741ea53b8763899a3ced4", "bike_id": "cd60d2dca41741ea53b8763899a3ced4", "is_reserved": 0, "fusion_lat": 0.0, "is_disabled": 0}, {"rental_uris": {"ios": "https://dc.lft.to/lastmile_qr_scan", "android": "https://dc.lft.to/lastmile_qr_scan"}, "type": "electric_scooter", "lon": -77.02120366666666, "lat": 38.930044, "fusion_lon": 0.0, "name": "023447b67675adfa8b6507162f36689d", "bike_id": "023447b67675adfa8b6507162f36689d", "is_reserved": 0, "fusion_lat": 0.0, "is_disabled": 0}, {"rental_uris": {"ios": "https://dc.lft.to/lastmile_qr_scan", "android": "https://dc.lft.to/lastmile_qr_scan"}, "type": "electric_scooter", "lon": -76.989799, "lat": 38.90930266666667, "fusion_lon": 0.0, "name": "1883092ac1badf20c06f7517eb65d5b7", "bike_id": "1883092ac1badf20c06f7517eb65d5b7", "is_reserved": 0, "fusion_lat": 0.0, "is_disabled": 0}, {"rental_uris": {"ios": "https://dc.lft.to/lastmile_qr_scan", "android": "https://dc.lft.to/lastmile_qr_scan"}, "type": "electric_scooter", "lon": -77.033973, "lat": 38.90817216666667, "fusion_lon": 0.0, "name": "0cebad1b29e3a23f089418ccddbdf691", "bike_id": "0cebad1b29e3a23f089418ccddbdf691", "is_reserved": 0, "fusion_lat": 0.0, "is_disabled": 0}, {"rental_uris": {"ios": "https://dc.lft.to/lastmile_qr_scan", "android": "https://dc.lft.to/lastmile_qr_scan"}, "type": "electric_scooter", "lon": -77.0499935, "lat": 38.892326, "fusion_lon": 0.0, "name": "cb18d5b868fbf2c246ca03c0fbaab957", "bike_id": "cb18d5b868fbf2c246ca03c0fbaab957", "is_reserved": 0, "fusion_lat": 0.0, "is_disabled": 0}, {"rental_uris": {"ios": "https://dc.lft.to/lastmile_qr_scan", "android": "https://dc.lft.to/lastmile_qr_scan"}, "type": "electric_scooter", "lon": -77.02801483333333, "lat": 38.91663716666667, "fusion_lon": 0.0, "name": "b3ab0a9c4794cff248b4b97d8cd69b17", "bike_id": "b3ab0a9c4794cff248b4b97d8cd69b17", "is_reserved": 0, "fusion_lat": 0.0, "is_disabled": 0}, {"rental_uris": {"ios": "https://dc.lft.to/lastmile_qr_scan", "android": "https://dc.lft.to/lastmile_qr_scan"}, "type": "electric_scooter", "lon": -77.0481235, "lat": 38.895909833333334, "fusion_lon": 0.0, "name": "8e3b94e6824baf717e1a8c0528cb49a6", "bike_id": "8e3b94e6824baf717e1a8c0528cb49a6", "is_reserved": 0, "fusion_lat": 0.0, "is_disabled": 0}, {"rental_uris": {"ios": "https://dc.lft.to/lastmile_qr_scan", "android": "https://dc.lft.to/lastmile_qr_scan"}, "type": "electric_scooter", "lon": -77.046432, "lat": 38.89216183333333, "fusion_lon": 0.0, "name": "a0bae4557c5e59c0a2578d8f038d7576", "bike_id": "a0bae4557c5e59c0a2578d8f038d7576", "is_reserved": 0, "fusion_lat": 0.0, "is_disabled": 0}, {"rental_uris": {"ios": "https://dc.lft.to/lastmile_qr_scan", "android": "https://dc.lft.to/lastmile_qr_scan"}, "type": "electric_scooter", "lon": -77.02179833333334, "lat": 38.88703833333334, "fusion_lon": 0.0, "name": "1198bf5d141b24203db5e00d6ae7c5d8", "bike_id": "1198bf5d141b24203db5e00d6ae7c5d8", "is_reserved": 0, "fusion_lat": 0.0, "is_disabled": 0}, {"rental_uris": {"ios": "https://dc.lft.to/lastmile_qr_scan", "android": "https://dc.lft.to/lastmile_qr_scan"}, "type": "electric_scooter", "lon": -77.02710533333334, "lat": 38.90274933333333, "fusion_lon": 0.0, "name": "183c0fc4152c5553beec605a5a0dc623", "bike_id": "183c0fc4152c5553beec605a5a0dc623", "is_reserved": 0, "fusion_lat": 0.0, "is_disabled": 0}, {"rental_uris": {"ios": "https://dc.lft.to/lastmile_qr_scan", "android": "https://dc.lft.to/lastmile_qr_scan"}, "type": "electric_bike", "lon": -77.07964583333333, "lat": 38.94758433333333, "fusion_lon": 0.0, "name": "4dc3494e2f9f24a892a7bc3c0cdbef73", "bike_id": "4dc3494e2f9f24a892a7bc3c0cdbef73", "is_reserved": 0, "fusion_lat": 0.0, "is_disabled": 0}, {"rental_uris": {"ios": "https://dc.lft.to/lastmile_qr_scan", "android": "https://dc.lft.to/lastmile_qr_scan"}, "type": "electric_scooter", "lon": -77.04533283333333, "lat": 38.91328083333333, "fusion_lon": 0.0, "name": "f87972c343bf7e38ddd126316bff6efb", "bike_id": "f87972c343bf7e38ddd126316bff6efb", "is_reserved": 0, "fusion_lat": 0.0, "is_disabled": 0}, {"rental_uris": {"ios": "https://dc.lft.to/lastmile_qr_scan", "android": "https://dc.lft.to/lastmile_qr_scan"}, "type": "electric_scooter", "lon": -77.054286, "lat": 38.9234855, "fusion_lon": 0.0, "name": "41661db25caf306a32b0a3436cd24cbe", "bike_id": "41661db25caf306a32b0a3436cd24cbe", "is_reserved": 0, "fusion_lat": 0.0, "is_disabled": 0}, {"rental_uris": {"ios": "https://dc.lft.to/lastmile_qr_scan", "android": "https://dc.lft.to/lastmile_qr_scan"}, "type": "electric_scooter", "lon": -77.00577183333333, "lat": 38.87576766666667, "fusion_lon": 0.0, "name": "6ffc4128102cfafe794de1fda26b9fb1", "bike_id": "6ffc4128102cfafe794de1fda26b9fb1", "is_reserved": 0, "fusion_lat": 0.0, "is_disabled": 0}, {"rental_uris": {"ios": "https://dc.lft.to/lastmile_qr_scan", "android": "https://dc.lft.to/lastmile_qr_scan"}, "type": "electric_scooter", "lon": -76.98206666666667, "lat": 38.885396666666665, "fusion_lon": 0.0, "name": "d430004b448d4c6825c6bf36e1220572", "bike_id": "d430004b448d4c6825c6bf36e1220572", "is_reserved": 0, "fusion_lat": 0.0, "is_disabled": 0}, {"rental_uris": {"ios": "https://dc.lft.to/lastmile_qr_scan", "android": "https://dc.lft.to/lastmile_qr_scan"}, "type": "electric_scooter", "lon": -77.034865, "lat": 38.92882483333333, "fusion_lon": 0.0, "name": "3dae41fe8ee7cac7cc49dcbdc3cdcb96", "bike_id": "3dae41fe8ee7cac7cc49dcbdc3cdcb96", "is_reserved": 0, "fusion_lat": 0.0, "is_disabled": 0}, {"rental_uris": {"ios": "https://dc.lft.to/lastmile_qr_scan", "android": "https://dc.lft.to/lastmile_qr_scan"}, "type": "electric_scooter", "lon": -77.03253533333333, "lat": 38.928147333333335, "fusion_lon": 0.0, "name": "3cfa659ad5b1be57366d63b911c2d45e", "bike_id": "3cfa659ad5b1be57366d63b911c2d45e", "is_reserved": 0, "fusion_lat": 0.0, "is_disabled": 0}, {"rental_uris": {"ios": "https://dc.lft.to/lastmile_qr_scan", "android": "https://dc.lft.to/lastmile_qr_scan"}, "type": "electric_scooter", "lon": -77.03854483333333, "lat": 38.902694333333336, "fusion_lon": 0.0, "name": "ca387526ea204ee6cc1ccf4337d18042", "bike_id": "ca387526ea204ee6cc1ccf4337d18042", "is_reserved": 0, "fusion_lat": 0.0, "is_disabled": 0}, {"rental_uris": {"ios": "https://dc.lft.to/lastmile_qr_scan", "android": "https://dc.lft.to/lastmile_qr_scan"}, "type": "electric_scooter", "lon": -77.04500483333334, "lat": 38.905500833333335, "fusion_lon": 0.0, "name": "0e1b34e89b67489808c4aca57c845beb", "bike_id": "0e1b34e89b67489808c4aca57c845beb", "is_reserved": 0, "fusion_lat": 0.0, "is_disabled": 0}, {"rental_uris": {"ios": "https://dc.lft.to/lastmile_qr_scan", "android": "https://dc.lft.to/lastmile_qr_scan"}, "type": "electric_scooter", "lon": -77.048362, "lat": 38.9004535, "fusion_lon": 0.0, "name": "df5208727a32dc3e04d79c5a8aa79b86", "bike_id": "df5208727a32dc3e04d79c5a8aa79b86", "is_reserved": 0, "fusion_lat": 0.0, "is_disabled": 0}, {"rental_uris": {"ios": "https://dc.lft.to/lastmile_qr_scan", "android": "https://dc.lft.to/lastmile_qr_scan"}, "type": "electric_scooter", "lon": -77.030381, "lat": 38.89608233333333, "fusion_lon": 0.0, "name": "b029a94b0bf3bedfde0c41da1570cbb5", "bike_id": "b029a94b0bf3bedfde0c41da1570cbb5", "is_reserved": 0, "fusion_lat": 0.0, "is_disabled": 0}, {"rental_uris": {"ios": "https://dc.lft.to/lastmile_qr_scan", "android": "https://dc.lft.to/lastmile_qr_scan"}, "type": "electric_scooter", "lon": -77.01478016666667, "lat": 38.926821833333335, "fusion_lon": 0.0, "name": "4502c8e3ec93f5295d491445bdaaf6b7", "bike_id": "4502c8e3ec93f5295d491445bdaaf6b7", "is_reserved": 0, "fusion_lat": 0.0, "is_disabled": 0}, {"rental_uris": {"ios": "https://dc.lft.to/lastmile_qr_scan", "android": "https://dc.lft.to/lastmile_qr_scan"}, "type": "electric_scooter", "lon": -77.028942, "lat": 38.92479083333333, "fusion_lon": 0.0, "name": "ef48a33fb88d0d15f95fc5b0cf31583e", "bike_id": "ef48a33fb88d0d15f95fc5b0cf31583e", "is_reserved": 0, "fusion_lat": 0.0, "is_disabled": 0}, {"rental_uris": {"ios": "https://dc.lft.to/lastmile_qr_scan", "android": "https://dc.lft.to/lastmile_qr_scan"}, "type": "electric_scooter", "lon": -76.996552, "lat": 38.886072666666664, "fusion_lon": 0.0, "name": "d4b8c15a313af17d6e1715b772d57f56", "bike_id": "d4b8c15a313af17d6e1715b772d57f56", "is_reserved": 0, "fusion_lat": 0.0, "is_disabled": 0}, {"rental_uris": {"ios": "https://dc.lft.to/lastmile_qr_scan", "android": "https://dc.lft.to/lastmile_qr_scan"}, "type": "electric_scooter", "lon": -76.98894633333333, "lat": 38.8954905, "fusion_lon": 0.0, "name": "8d64c82773154136a975a76a23a535a1", "bike_id": "8d64c82773154136a975a76a23a535a1", "is_reserved": 0, "fusion_lat": 0.0, "is_disabled": 0}, {"rental_uris": {"ios": "https://dc.lft.to/lastmile_qr_scan", "android": "https://dc.lft.to/lastmile_qr_scan"}, "type": "electric_scooter", "lon": -77.00330016666666, "lat": 38.876675, "fusion_lon": 0.0, "name": "fe6a3bff7ef499a073cf801e9e54d80f", "bike_id": "fe6a3bff7ef499a073cf801e9e54d80f", "is_reserved": 0, "fusion_lat": 0.0, "is_disabled": 0}, {"rental_uris": {"ios": "https://dc.lft.to/lastmile_qr_scan", "android": "https://dc.lft.to/lastmile_qr_scan"}, "type": "electric_scooter", "lon": -77.06294416666667, "lat": 38.902681666666666, "fusion_lon": 0.0, "name": "da2801d947c41523e8fe06f11d3e1c5e", "bike_id": "da2801d947c41523e8fe06f11d3e1c5e", "is_reserved": 0, "fusion_lat": 0.0, "is_disabled": 0}, {"rental_uris": {"ios": "https://dc.lft.to/lastmile_qr_scan", "android": "https://dc.lft.to/lastmile_qr_scan"}, "type": "electric_bike", "lon": -77.04681116666667, "lat": 38.89830366666666, "fusion_lon": 0.0, "name": "48b918e43141bdb69c3665d9bb30d1f3", "bike_id": "48b918e43141bdb69c3665d9bb30d1f3", "is_reserved": 0, "fusion_lat": 0.0, "is_disabled": 0}, {"rental_uris": {"ios": "https://dc.lft.to/lastmile_qr_scan", "android": "https://dc.lft.to/lastmile_qr_scan"}, "type": "electric_scooter", "lon": -77.02960116666667, "lat": 38.885416, "fusion_lon": 0.0, "name": "e0acccc3f5f580f11ef16c543de1c7dc", "bike_id": "e0acccc3f5f580f11ef16c543de1c7dc", "is_reserved": 0, "fusion_lat": 0.0, "is_disabled": 0}, {"rental_uris": {"ios": "https://dc.lft.to/lastmile_qr_scan", "android": "https://dc.lft.to/lastmile_qr_scan"}, "type": "electric_scooter", "lon": -77.03575366666666, "lat": 38.93679083333333, "fusion_lon": 0.0, "name": "bb38054cdadaec5e59ff8c522e78b4a4", "bike_id": "bb38054cdadaec5e59ff8c522e78b4a4", "is_reserved": 0, "fusion_lat": 0.0, "is_disabled": 0}, {"rental_uris": {"ios": "https://dc.lft.to/lastmile_qr_scan", "android": "https://dc.lft.to/lastmile_qr_scan"}, "type": "electric_scooter", "lon": -77.03181083333334, "lat": 38.90948083333333, "fusion_lon": 0.0, "name": "6899973d0f0dd8638f8886abd001011a", "bike_id": "6899973d0f0dd8638f8886abd001011a", "is_reserved": 0, "fusion_lat": 0.0, "is_disabled": 0}, {"rental_uris": {"ios": "https://dc.lft.to/lastmile_qr_scan", "android": "https://dc.lft.to/lastmile_qr_scan"}, "type": "electric_scooter", "lon": -77.02845566666667, "lat": 38.935331166666664, "fusion_lon": 0.0, "name": "7c8e92c811b396122fda7a9d7f66ef7f", "bike_id": "7c8e92c811b396122fda7a9d7f66ef7f", "is_reserved": 0, "fusion_lat": 0.0, "is_disabled": 0}, {"rental_uris": {"ios": "https://dc.lft.to/lastmile_qr_scan", "android": "https://dc.lft.to/lastmile_qr_scan"}, "type": "electric_scooter", "lon": -77.033005, "lat": 38.89860016666667, "fusion_lon": 0.0, "name": "040ae25204bcaaa300f00997286b7522", "bike_id": "040ae25204bcaaa300f00997286b7522", "is_reserved": 0, "fusion_lat": 0.0, "is_disabled": 0}, {"rental_uris": {"ios": "https://dc.lft.to/lastmile_qr_scan", "android": "https://dc.lft.to/lastmile_qr_scan"}, "type": "electric_scooter", "lon": -76.99769666666667, "lat": 38.922874, "fusion_lon": 0.0, "name": "8ba0447025d18fb7cda3c7cc83c767ae", "bike_id": "8ba0447025d18fb7cda3c7cc83c767ae", "is_reserved": 0, "fusion_lat": 0.0, "is_disabled": 0}, {"rental_uris": {"ios": "https://dc.lft.to/lastmile_qr_scan", "android": "https://dc.lft.to/lastmile_qr_scan"}, "type": "electric_bike", "lon": -76.97743183333333, "lat": 38.864856833333334, "fusion_lon": 0.0, "name": "a85513b87ab41c1ac08630e5a731906f", "bike_id": "a85513b87ab41c1ac08630e5a731906f", "is_reserved": 0, "fusion_lat": 0.0, "is_disabled": 0}, {"rental_uris": {"ios": "https://dc.lft.to/lastmile_qr_scan", "android": "https://dc.lft.to/lastmile_qr_scan"}, "type": "electric_scooter", "lon": -77.072787, "lat": 38.934896333333334, "fusion_lon": 0.0, "name": "448080592fcbb6b28c3afd8b3843c2a3", "bike_id": "448080592fcbb6b28c3afd8b3843c2a3", "is_reserved": 0, "fusion_lat": 0.0, "is_disabled": 0}, {"rental_uris": {"ios": "https://dc.lft.to/lastmile_qr_scan", "android": "https://dc.lft.to/lastmile_qr_scan"}, "type": "electric_scooter", "lon": -77.02491966666666, "lat": 38.9375615, "fusion_lon": 0.0, "name": "dd61db61fdf61504ffa02d010850b25c", "bike_id": "dd61db61fdf61504ffa02d010850b25c", "is_reserved": 0, "fusion_lat": 0.0, "is_disabled": 0}, {"rental_uris": {"ios": "https://dc.lft.to/lastmile_qr_scan", "android": "https://dc.lft.to/lastmile_qr_scan"}, "type": "electric_scooter", "lon": -77.04342466666667, "lat": 38.90423, "fusion_lon": 0.0, "name": "188496bae1c397b221da81398a620f9b", "bike_id": "188496bae1c397b221da81398a620f9b", "is_reserved": 0, "fusion_lat": 0.0, "is_disabled": 0}, {"rental_uris": {"ios": "https://dc.lft.to/lastmile_qr_scan", "android": "https://dc.lft.to/lastmile_qr_scan"}, "type": "electric_scooter", "lon": -77.02146916666666, "lat": 38.923376166666664, "fusion_lon": 0.0, "name": "4982aaa99c24fd7a9860777aac753de2", "bike_id": "4982aaa99c24fd7a9860777aac753de2", "is_reserved": 0, "fusion_lat": 0.0, "is_disabled": 0}, {"rental_uris": {"ios": "https://dc.lft.to/lastmile_qr_scan", "android": "https://dc.lft.to/lastmile_qr_scan"}, "type": "electric_scooter", "lon": -76.99911833333333, "lat": 38.924577166666666, "fusion_lon": 0.0, "name": "ba93e93803e84dcaae1c783cb676cff9", "bike_id": "ba93e93803e84dcaae1c783cb676cff9", "is_reserved": 0, "fusion_lat": 0.0, "is_disabled": 0}, {"rental_uris": {"ios": "https://dc.lft.to/lastmile_qr_scan", "android": "https://dc.lft.to/lastmile_qr_scan"}, "type": "electric_scooter", "lon": -77.028045, "lat": 38.898530666666666, "fusion_lon": 0.0, "name": "0ce5add18b2c6f9fd70bf24c17e96d87", "bike_id": "0ce5add18b2c6f9fd70bf24c17e96d87", "is_reserved": 0, "fusion_lat": 0.0, "is_disabled": 0}, {"rental_uris": {"ios": "https://dc.lft.to/lastmile_qr_scan", "android": "https://dc.lft.to/lastmile_qr_scan"}, "type": "electric_scooter", "lon": -76.979986, "lat": 38.898937333333336, "fusion_lon": 0.0, "name": "17b78a11da1282f8c8f4f909a0a21450", "bike_id": "17b78a11da1282f8c8f4f909a0a21450", "is_reserved": 0, "fusion_lat": 0.0, "is_disabled": 0}, {"rental_uris": {"ios": "https://dc.lft.to/lastmile_qr_scan", "android": "https://dc.lft.to/lastmile_qr_scan"}, "type": "electric_scooter", "lon": -77.06143433333334, "lat": 38.943195833333334, "fusion_lon": 0.0, "name": "03e333b4fdd211bc7af40c46ff7f5c58", "bike_id": "03e333b4fdd211bc7af40c46ff7f5c58", "is_reserved": 0, "fusion_lat": 0.0, "is_disabled": 0}, {"rental_uris": {"ios": "https://dc.lft.to/lastmile_qr_scan", "android": "https://dc.lft.to/lastmile_qr_scan"}, "type": "electric_scooter", "lon": -77.06945566666667, "lat": 38.9164515, "fusion_lon": 0.0, "name": "161afbca60959daf648e208e622f4891", "bike_id": "161afbca60959daf648e208e622f4891", "is_reserved": 0, "fusion_lat": 0.0, "is_disabled": 0}, {"rental_uris": {"ios": "https://dc.lft.to/lastmile_qr_scan", "android": "https://dc.lft.to/lastmile_qr_scan"}, "type": "electric_scooter", "lon": -77.01209083333333, "lat": 38.915555, "fusion_lon": 0.0, "name": "bd9555faa7ee2a4436143fcf999ebef5", "bike_id": "bd9555faa7ee2a4436143fcf999ebef5", "is_reserved": 0, "fusion_lat": 0.0, "is_disabled": 0}, {"rental_uris": {"ios": "https://dc.lft.to/lastmile_qr_scan", "android": "https://dc.lft.to/lastmile_qr_scan"}, "type": "electric_scooter", "lon": -77.02095383333334, "lat": 38.9214855, "fusion_lon": 0.0, "name": "37b67a95b229058a0fb8e657c4eb4a44", "bike_id": "37b67a95b229058a0fb8e657c4eb4a44", "is_reserved": 0, "fusion_lat": 0.0, "is_disabled": 0}, {"rental_uris": {"ios": "https://dc.lft.to/lastmile_qr_scan", "android": "https://dc.lft.to/lastmile_qr_scan"}, "type": "electric_scooter", "lon": -77.05435883333334, "lat": 38.9267315, "fusion_lon": 0.0, "name": "f54d3daf16b1bdf89e0d1a18e9e7c5ed", "bike_id": "f54d3daf16b1bdf89e0d1a18e9e7c5ed", "is_reserved": 0, "fusion_lat": 0.0, "is_disabled": 0}, {"rental_uris": {"ios": "https://dc.lft.to/lastmile_qr_scan", "android": "https://dc.lft.to/lastmile_qr_scan"}, "type": "electric_bike", "lon": -77.02378666666667, "lat": 38.99237633333333, "fusion_lon": 0.0, "name": "3a1437257609ffb3a37ca2bc2710975b", "bike_id": "3a1437257609ffb3a37ca2bc2710975b", "is_reserved": 0, "fusion_lat": 0.0, "is_disabled": 0}, {"rental_uris": {"ios": "https://dc.lft.to/lastmile_qr_scan", "android": "https://dc.lft.to/lastmile_qr_scan"}, "type": "electric_scooter", "lon": -77.04672766666667, "lat": 38.902921166666665, "fusion_lon": 0.0, "name": "549b5fe1b7fb86b2b0f9032eea5e985c", "bike_id": "549b5fe1b7fb86b2b0f9032eea5e985c", "is_reserved": 0, "fusion_lat": 0.0, "is_disabled": 0}, {"rental_uris": {"ios": "https://dc.lft.to/lastmile_qr_scan", "android": "https://dc.lft.to/lastmile_qr_scan"}, "type": "electric_scooter", "lon": -76.977203, "lat": 38.8883575, "fusion_lon": 0.0, "name": "89d49ff0b3585d9b4e37baf469b897e1", "bike_id": "89d49ff0b3585d9b4e37baf469b897e1", "is_reserved": 0, "fusion_lat": 0.0, "is_disabled": 0}, {"rental_uris": {"ios": "https://dc.lft.to/lastmile_qr_scan", "android": "https://dc.lft.to/lastmile_qr_scan"}, "type": "electric_scooter", "lon": -76.99770333333333, "lat": 38.894214833333336, "fusion_lon": 0.0, "name": "454c520e23f72ca0f0149069c85b5e69", "bike_id": "454c520e23f72ca0f0149069c85b5e69", "is_reserved": 0, "fusion_lat": 0.0, "is_disabled": 0}, {"rental_uris": {"ios": "https://dc.lft.to/lastmile_qr_scan", "android": "https://dc.lft.to/lastmile_qr_scan"}, "type": "electric_scooter", "lon": -77.01207783333334, "lat": 38.89527183333333, "fusion_lon": 0.0, "name": "423c398f2c6d4c4d2ad853eefc579e66", "bike_id": "423c398f2c6d4c4d2ad853eefc579e66", "is_reserved": 0, "fusion_lat": 0.0, "is_disabled": 0}, {"rental_uris": {"ios": "https://dc.lft.to/lastmile_qr_scan", "android": "https://dc.lft.to/lastmile_qr_scan"}, "type": "electric_scooter", "lon": -77.00206666666666, "lat": 38.830573, "fusion_lon": 0.0, "name": "59a3ea82dffb94474d749a2c368150f7", "bike_id": "59a3ea82dffb94474d749a2c368150f7", "is_reserved": 0, "fusion_lat": 0.0, "is_disabled": 0}, {"rental_uris": {"ios": "https://dc.lft.to/lastmile_qr_scan", "android": "https://dc.lft.to/lastmile_qr_scan"}, "type": "electric_scooter", "lon": -77.03012066666666, "lat": 38.96027316666667, "fusion_lon": 0.0, "name": "5ea9f25aa0a31c603fb773ec311ed9f8", "bike_id": "5ea9f25aa0a31c603fb773ec311ed9f8", "is_reserved": 0, "fusion_lat": 0.0, "is_disabled": 0}, {"rental_uris": {"ios": "https://dc.lft.to/lastmile_qr_scan", "android": "https://dc.lft.to/lastmile_qr_scan"}, "type": "electric_bike", "lon": -76.95248833333333, "lat": 38.848106, "fusion_lon": 0.0, "name": "e14d42c4a7abae6bdea41cdf70e30af3", "bike_id": "e14d42c4a7abae6bdea41cdf70e30af3", "is_reserved": 0, "fusion_lat": 0.0, "is_disabled": 0}, {"rental_uris": {"ios": "https://dc.lft.to/lastmile_qr_scan", "android": "https://dc.lft.to/lastmile_qr_scan"}, "type": "electric_scooter", "lon": -77.0341005, "lat": 38.905873, "fusion_lon": 0.0, "name": "302abfe14a3717bbed3d1d5ebb1d7cae", "bike_id": "302abfe14a3717bbed3d1d5ebb1d7cae", "is_reserved": 0, "fusion_lat": 0.0, "is_disabled": 0}, {"rental_uris": {"ios": "https://dc.lft.to/lastmile_qr_scan", "android": "https://dc.lft.to/lastmile_qr_scan"}, "type": "electric_scooter", "lon": -77.029714, "lat": 38.92685066666667, "fusion_lon": 0.0, "name": "2247482e29b67d8d454f3e0fd9c97704", "bike_id": "2247482e29b67d8d454f3e0fd9c97704", "is_reserved": 0, "fusion_lat": 0.0, "is_disabled": 0}, {"rental_uris": {"ios": "https://dc.lft.to/lastmile_qr_scan", "android": "https://dc.lft.to/lastmile_qr_scan"}, "type": "electric_scooter", "lon": -77.03956033333333, "lat": 38.919501833333335, "fusion_lon": 0.0, "name": "1a3a9a8feb425530866b6d154a4d2c4d", "bike_id": "1a3a9a8feb425530866b6d154a4d2c4d", "is_reserved": 0, "fusion_lat": 0.0, "is_disabled": 0}, {"rental_uris": {"ios": "https://dc.lft.to/lastmile_qr_scan", "android": "https://dc.lft.to/lastmile_qr_scan"}, "type": "electric_scooter", "lon": -77.02163883333333, "lat": 38.88615866666667, "fusion_lon": 0.0, "name": "72c9c85d17fc88c295cf5d56e8c7f905", "bike_id": "72c9c85d17fc88c295cf5d56e8c7f905", "is_reserved": 0, "fusion_lat": 0.0, "is_disabled": 0}, {"rental_uris": {"ios": "https://dc.lft.to/lastmile_qr_scan", "android": "https://dc.lft.to/lastmile_qr_scan"}, "type": "electric_scooter", "lon": -77.038631, "lat": 38.9322725, "fusion_lon": 0.0, "name": "e315dfbc343f5e4731a23b85ec00d206", "bike_id": "e315dfbc343f5e4731a23b85ec00d206", "is_reserved": 0, "fusion_lat": 0.0, "is_disabled": 0}, {"rental_uris": {"ios": "https://dc.lft.to/lastmile_qr_scan", "android": "https://dc.lft.to/lastmile_qr_scan"}, "type": "electric_scooter", "lon": -77.01987533333333, "lat": 38.913545166666665, "fusion_lon": 0.0, "name": "f0d5189bfbff2c9d91d3af1e5288c79f", "bike_id": "f0d5189bfbff2c9d91d3af1e5288c79f", "is_reserved": 0, "fusion_lat": 0.0, "is_disabled": 0}, {"rental_uris": {"ios": "https://dc.lft.to/lastmile_qr_scan", "android": "https://dc.lft.to/lastmile_qr_scan"}, "type": "electric_scooter", "lon": -77.014508, "lat": 38.89940433333334, "fusion_lon": 0.0, "name": "742ed0a30e8fe7faa6632aa9235176b2", "bike_id": "742ed0a30e8fe7faa6632aa9235176b2", "is_reserved": 0, "fusion_lat": 0.0, "is_disabled": 0}, {"rental_uris": {"ios": "https://dc.lft.to/lastmile_qr_scan", "android": "https://dc.lft.to/lastmile_qr_scan"}, "type": "electric_scooter", "lon": -77.06613883333333, "lat": 38.936578833333336, "fusion_lon": 0.0, "name": "367256972254c7446b80ce957a26b95e", "bike_id": "367256972254c7446b80ce957a26b95e", "is_reserved": 0, "fusion_lat": 0.0, "is_disabled": 0}, {"rental_uris": {"ios": "https://dc.lft.to/lastmile_qr_scan", "android": "https://dc.lft.to/lastmile_qr_scan"}, "type": "electric_scooter", "lon": -77.04644883333333, "lat": 38.892182, "fusion_lon": 0.0, "name": "7d49a6c4778f26e31fdd0a123b3088f6", "bike_id": "7d49a6c4778f26e31fdd0a123b3088f6", "is_reserved": 0, "fusion_lat": 0.0, "is_disabled": 0}, {"rental_uris": {"ios": "https://dc.lft.to/lastmile_qr_scan", "android": "https://dc.lft.to/lastmile_qr_scan"}, "type": "electric_scooter", "lon": -76.94999233333333, "lat": 38.906118, "fusion_lon": 0.0, "name": "29fefcc1081611d580b642620a694551", "bike_id": "29fefcc1081611d580b642620a694551", "is_reserved": 0, "fusion_lat": 0.0, "is_disabled": 0}, {"rental_uris": {"ios": "https://dc.lft.to/lastmile_qr_scan", "android": "https://dc.lft.to/lastmile_qr_scan"}, "type": "electric_scooter", "lon": -77.0181695, "lat": 38.91440733333334, "fusion_lon": 0.0, "name": "468ea979ea79c1f22c5f64d73ce75aa4", "bike_id": "468ea979ea79c1f22c5f64d73ce75aa4", "is_reserved": 0, "fusion_lat": 0.0, "is_disabled": 0}, {"rental_uris": {"ios": "https://dc.lft.to/lastmile_qr_scan", "android": "https://dc.lft.to/lastmile_qr_scan"}, "type": "electric_scooter", "lon": -77.019792, "lat": 38.911986666666664, "fusion_lon": 0.0, "name": "3fad6c2b6e410cf4e96417083dcacf7e", "bike_id": "3fad6c2b6e410cf4e96417083dcacf7e", "is_reserved": 0, "fusion_lat": 0.0, "is_disabled": 0}, {"rental_uris": {"ios": "https://dc.lft.to/lastmile_qr_scan", "android": "https://dc.lft.to/lastmile_qr_scan"}, "type": "electric_scooter", "lon": -77.0097325, "lat": 38.9192235, "fusion_lon": 0.0, "name": "dced3b2e7e0b203791e72f1e4331990d", "bike_id": "dced3b2e7e0b203791e72f1e4331990d", "is_reserved": 0, "fusion_lat": 0.0, "is_disabled": 0}, {"rental_uris": {"ios": "https://dc.lft.to/lastmile_qr_scan", "android": "https://dc.lft.to/lastmile_qr_scan"}, "type": "electric_scooter", "lon": -76.99503483333334, "lat": 38.88012833333333, "fusion_lon": 0.0, "name": "f2ed0b1943a6e61f40930c877e8f8113", "bike_id": "f2ed0b1943a6e61f40930c877e8f8113", "is_reserved": 0, "fusion_lat": 0.0, "is_disabled": 0}, {"rental_uris": {"ios": "https://dc.lft.to/lastmile_qr_scan", "android": "https://dc.lft.to/lastmile_qr_scan"}, "type": "electric_scooter", "lon": -77.00611316666667, "lat": 38.91114, "fusion_lon": 0.0, "name": "af02619bdf109941ffc5aa742a90dd5d", "bike_id": "af02619bdf109941ffc5aa742a90dd5d", "is_reserved": 0, "fusion_lat": 0.0, "is_disabled": 0}, {"rental_uris": {"ios": "https://dc.lft.to/lastmile_qr_scan", "android": "https://dc.lft.to/lastmile_qr_scan"}, "type": "electric_scooter", "lon": -77.01520133333334, "lat": 38.8862425, "fusion_lon": 0.0, "name": "1ff91b1fc3159e254a0ab89ba6eb5ba6", "bike_id": "1ff91b1fc3159e254a0ab89ba6eb5ba6", "is_reserved": 0, "fusion_lat": 0.0, "is_disabled": 0}, {"rental_uris": {"ios": "https://dc.lft.to/lastmile_qr_scan", "android": "https://dc.lft.to/lastmile_qr_scan"}, "type": "electric_scooter", "lon": -76.98660533333333, "lat": 38.912429833333334, "fusion_lon": 0.0, "name": "98ee099baafa7d7e98198fdadf1fddca", "bike_id": "98ee099baafa7d7e98198fdadf1fddca", "is_reserved": 0, "fusion_lat": 0.0, "is_disabled": 0}, {"rental_uris": {"ios": "https://dc.lft.to/lastmile_qr_scan", "android": "https://dc.lft.to/lastmile_qr_scan"}, "type": "electric_scooter", "lon": -77.01116866666666, "lat": 38.920258833333335, "fusion_lon": 0.0, "name": "097cda767a5877f00cf2b1757ee09a7c", "bike_id": "097cda767a5877f00cf2b1757ee09a7c", "is_reserved": 0, "fusion_lat": 0.0, "is_disabled": 0}, {"rental_uris": {"ios": "https://dc.lft.to/lastmile_qr_scan", "android": "https://dc.lft.to/lastmile_qr_scan"}, "type": "electric_scooter", "lon": -77.03506283333333, "lat": 38.92213683333333, "fusion_lon": 0.0, "name": "c3dabccecbaff07377afe445f12f3764", "bike_id": "c3dabccecbaff07377afe445f12f3764", "is_reserved": 0, "fusion_lat": 0.0, "is_disabled": 0}, {"rental_uris": {"ios": "https://dc.lft.to/lastmile_qr_scan", "android": "https://dc.lft.to/lastmile_qr_scan"}, "type": "electric_scooter", "lon": -77.00967366666667, "lat": 38.907878, "fusion_lon": 0.0, "name": "5d69a9a7e115aac4c125fbd529296e85", "bike_id": "5d69a9a7e115aac4c125fbd529296e85", "is_reserved": 0, "fusion_lat": 0.0, "is_disabled": 0}, {"rental_uris": {"ios": "https://dc.lft.to/lastmile_qr_scan", "android": "https://dc.lft.to/lastmile_qr_scan"}, "type": "electric_scooter", "lon": -77.01740566666666, "lat": 38.902391333333334, "fusion_lon": 0.0, "name": "1962626986f2a0fedbaffebb377e3fb2", "bike_id": "1962626986f2a0fedbaffebb377e3fb2", "is_reserved": 0, "fusion_lat": 0.0, "is_disabled": 0}, {"rental_uris": {"ios": "https://dc.lft.to/lastmile_qr_scan", "android": "https://dc.lft.to/lastmile_qr_scan"}, "type": "electric_bike", "lon": -77.08859533333333, "lat": 38.9353355, "fusion_lon": 0.0, "name": "a536da9854a0c23407e53999c1fe0bc3", "bike_id": "a536da9854a0c23407e53999c1fe0bc3", "is_reserved": 0, "fusion_lat": 0.0, "is_disabled": 0}, {"rental_uris": {"ios": "https://dc.lft.to/lastmile_qr_scan", "android": "https://dc.lft.to/lastmile_qr_scan"}, "type": "electric_scooter", "lon": -77.041575, "lat": 38.917173166666664, "fusion_lon": 0.0, "name": "80dd268fc85df911cfea408ead16abdc", "bike_id": "80dd268fc85df911cfea408ead16abdc", "is_reserved": 0, "fusion_lat": 0.0, "is_disabled": 0}, {"rental_uris": {"ios": "https://dc.lft.to/lastmile_qr_scan", "android": "https://dc.lft.to/lastmile_qr_scan"}, "type": "electric_scooter", "lon": -77.02271233333333, "lat": 38.92478216666667, "fusion_lon": 0.0, "name": "4145df01658673d6bd438a51307309dc", "bike_id": "4145df01658673d6bd438a51307309dc", "is_reserved": 0, "fusion_lat": 0.0, "is_disabled": 0}, {"rental_uris": {"ios": "https://dc.lft.to/lastmile_qr_scan", "android": "https://dc.lft.to/lastmile_qr_scan"}, "type": "electric_scooter", "lon": -77.08593233333333, "lat": 38.90872516666667, "fusion_lon": 0.0, "name": "4f627d55f2e1eab89a6823df08ae7a57", "bike_id": "4f627d55f2e1eab89a6823df08ae7a57", "is_reserved": 0, "fusion_lat": 0.0, "is_disabled": 0}, {"rental_uris": {"ios": "https://dc.lft.to/lastmile_qr_scan", "android": "https://dc.lft.to/lastmile_qr_scan"}, "type": "electric_scooter", "lon": -77.03314466666667, "lat": 38.898964166666666, "fusion_lon": 0.0, "name": "cda15aff436f26b1ec01d3284d6f60a1", "bike_id": "cda15aff436f26b1ec01d3284d6f60a1", "is_reserved": 0, "fusion_lat": 0.0, "is_disabled": 0}, {"rental_uris": {"ios": "https://dc.lft.to/lastmile_qr_scan", "android": "https://dc.lft.to/lastmile_qr_scan"}, "type": "electric_bike", "lon": -76.90757566666667, "lat": 38.8962185, "fusion_lon": 0.0, "name": "bf248aa4c25fdd170faadbb5be79e8fa", "bike_id": "bf248aa4c25fdd170faadbb5be79e8fa", "is_reserved": 0, "fusion_lat": 0.0, "is_disabled": 0}, {"rental_uris": {"ios": "https://dc.lft.to/lastmile_qr_scan", "android": "https://dc.lft.to/lastmile_qr_scan"}, "type": "electric_scooter", "lon": -76.98572916666667, "lat": 38.921155, "fusion_lon": 0.0, "name": "43a62e27b11cfa1cead8d87f577bb020", "bike_id": "43a62e27b11cfa1cead8d87f577bb020", "is_reserved": 0, "fusion_lat": 0.0, "is_disabled": 0}, {"rental_uris": {"ios": "https://dc.lft.to/lastmile_qr_scan", "android": "https://dc.lft.to/lastmile_qr_scan"}, "type": "electric_scooter", "lon": -77.00269733333333, "lat": 38.90589083333333, "fusion_lon": 0.0, "name": "575d1ff16c79685966f525fcfec87f37", "bike_id": "575d1ff16c79685966f525fcfec87f37", "is_reserved": 0, "fusion_lat": 0.0, "is_disabled": 0}, {"rental_uris": {"ios": "https://dc.lft.to/lastmile_qr_scan", "android": "https://dc.lft.to/lastmile_qr_scan"}, "type": "electric_scooter", "lon": -76.98835166666667, "lat": 38.9003945, "fusion_lon": 0.0, "name": "2b84f35bbc1231121b0e4c50464b9355", "bike_id": "2b84f35bbc1231121b0e4c50464b9355", "is_reserved": 0, "fusion_lat": 0.0, "is_disabled": 0}, {"rental_uris": {"ios": "https://dc.lft.to/lastmile_qr_scan", "android": "https://dc.lft.to/lastmile_qr_scan"}, "type": "electric_scooter", "lon": -76.99433166666667, "lat": 38.938572666666666, "fusion_lon": 0.0, "name": "40046d4c7629d818c14b38304bee666d", "bike_id": "40046d4c7629d818c14b38304bee666d", "is_reserved": 0, "fusion_lat": 0.0, "is_disabled": 0}, {"rental_uris": {"ios": "https://dc.lft.to/lastmile_qr_scan", "android": "https://dc.lft.to/lastmile_qr_scan"}, "type": "electric_bike", "lon": -76.94054216666666, "lat": 38.891277, "fusion_lon": 0.0, "name": "13038e0b620df03980d61f2dca3b8d93", "bike_id": "13038e0b620df03980d61f2dca3b8d93", "is_reserved": 0, "fusion_lat": 0.0, "is_disabled": 0}, {"rental_uris": {"ios": "https://dc.lft.to/lastmile_qr_scan", "android": "https://dc.lft.to/lastmile_qr_scan"}, "type": "electric_scooter", "lon": -77.03223866666667, "lat": 38.89619966666667, "fusion_lon": 0.0, "name": "0f3d6d23f494f0993932e80d63377d50", "bike_id": "0f3d6d23f494f0993932e80d63377d50", "is_reserved": 0, "fusion_lat": 0.0, "is_disabled": 0}, {"rental_uris": {"ios": "https://dc.lft.to/lastmile_qr_scan", "android": "https://dc.lft.to/lastmile_qr_scan"}, "type": "electric_scooter", "lon": -77.048584, "lat": 38.91613566666667, "fusion_lon": 0.0, "name": "e7dab376589252f0d0779e36c7eb9176", "bike_id": "e7dab376589252f0d0779e36c7eb9176", "is_reserved": 0, "fusion_lat": 0.0, "is_disabled": 0}, {"rental_uris": {"ios": "https://dc.lft.to/lastmile_qr_scan", "android": "https://dc.lft.to/lastmile_qr_scan"}, "type": "electric_scooter", "lon": -77.03207633333334, "lat": 38.892366833333334, "fusion_lon": 0.0, "name": "0e6bca528dd35cae989a37ee79e75cf1", "bike_id": "0e6bca528dd35cae989a37ee79e75cf1", "is_reserved": 0, "fusion_lat": 0.0, "is_disabled": 0}, {"rental_uris": {"ios": "https://dc.lft.to/lastmile_qr_scan", "android": "https://dc.lft.to/lastmile_qr_scan"}, "type": "electric_scooter", "lon": -77.03825266666666, "lat": 38.92477866666667, "fusion_lon": 0.0, "name": "94b04f3ddd8008564f9cfe09ffb5c653", "bike_id": "94b04f3ddd8008564f9cfe09ffb5c653", "is_reserved": 0, "fusion_lat": 0.0, "is_disabled": 0}, {"rental_uris": {"ios": "https://dc.lft.to/lastmile_qr_scan", "android": "https://dc.lft.to/lastmile_qr_scan"}, "type": "electric_scooter", "lon": -77.0248705, "lat": 38.919259333333336, "fusion_lon": 0.0, "name": "fc34372ce8c8825dcb8c99ca0c99fc0f", "bike_id": "fc34372ce8c8825dcb8c99ca0c99fc0f", "is_reserved": 0, "fusion_lat": 0.0, "is_disabled": 0}, {"rental_uris": {"ios": "https://dc.lft.to/lastmile_qr_scan", "android": "https://dc.lft.to/lastmile_qr_scan"}, "type": "electric_scooter", "lon": -77.026118, "lat": 38.8810915, "fusion_lon": 0.0, "name": "a39b75de72d029b4a6effe64c5d9036b", "bike_id": "a39b75de72d029b4a6effe64c5d9036b", "is_reserved": 0, "fusion_lat": 0.0, "is_disabled": 0}, {"rental_uris": {"ios": "https://dc.lft.to/lastmile_qr_scan", "android": "https://dc.lft.to/lastmile_qr_scan"}, "type": "electric_scooter", "lon": -77.05676683333333, "lat": 38.923379, "fusion_lon": 0.0, "name": "88d9d1c450c3d3bd9b58a5085dd89b31", "bike_id": "88d9d1c450c3d3bd9b58a5085dd89b31", "is_reserved": 0, "fusion_lat": 0.0, "is_disabled": 0}, {"rental_uris": {"ios": "https://dc.lft.to/lastmile_qr_scan", "android": "https://dc.lft.to/lastmile_qr_scan"}, "type": "electric_scooter", "lon": -77.0335055, "lat": 38.913564, "fusion_lon": 0.0, "name": "667eeed5417fc08d2ff97a82063d71ec", "bike_id": "667eeed5417fc08d2ff97a82063d71ec", "is_reserved": 0, "fusion_lat": 0.0, "is_disabled": 0}, {"rental_uris": {"ios": "https://dc.lft.to/lastmile_qr_scan", "android": "https://dc.lft.to/lastmile_qr_scan"}, "type": "electric_scooter", "lon": -77.03287716666667, "lat": 38.92912533333333, "fusion_lon": 0.0, "name": "2010ddf4c2f7b76bd7f3766320dc6c6d", "bike_id": "2010ddf4c2f7b76bd7f3766320dc6c6d", "is_reserved": 0, "fusion_lat": 0.0, "is_disabled": 0}, {"rental_uris": {"ios": "https://dc.lft.to/lastmile_qr_scan", "android": "https://dc.lft.to/lastmile_qr_scan"}, "type": "electric_scooter", "lon": -77.0034825, "lat": 38.89215566666667, "fusion_lon": 0.0, "name": "29819569834ac648e1079ffdce50ffaf", "bike_id": "29819569834ac648e1079ffdce50ffaf", "is_reserved": 0, "fusion_lat": 0.0, "is_disabled": 0}, {"rental_uris": {"ios": "https://dc.lft.to/lastmile_qr_scan", "android": "https://dc.lft.to/lastmile_qr_scan"}, "type": "electric_scooter", "lon": -77.03258316666667, "lat": 38.90255966666667, "fusion_lon": 0.0, "name": "58f3d71c41c9298633664dfd77aab5dd", "bike_id": "58f3d71c41c9298633664dfd77aab5dd", "is_reserved": 0, "fusion_lat": 0.0, "is_disabled": 0}, {"rental_uris": {"ios": "https://dc.lft.to/lastmile_qr_scan", "android": "https://dc.lft.to/lastmile_qr_scan"}, "type": "electric_scooter", "lon": -76.93919766666667, "lat": 38.89702416666667, "fusion_lon": 0.0, "name": "0f7ea29833735d2303b831b4b9330922", "bike_id": "0f7ea29833735d2303b831b4b9330922", "is_reserved": 0, "fusion_lat": 0.0, "is_disabled": 0}, {"rental_uris": {"ios": "https://dc.lft.to/lastmile_qr_scan", "android": "https://dc.lft.to/lastmile_qr_scan"}, "type": "electric_scooter", "lon": -77.02719183333333, "lat": 38.897174166666666, "fusion_lon": 0.0, "name": "ee5862c040ad18933496d36bce0950e3", "bike_id": "ee5862c040ad18933496d36bce0950e3", "is_reserved": 0, "fusion_lat": 0.0, "is_disabled": 0}, {"rental_uris": {"ios": "https://dc.lft.to/lastmile_qr_scan", "android": "https://dc.lft.to/lastmile_qr_scan"}, "type": "electric_scooter", "lon": -77.0091615, "lat": 38.91061966666667, "fusion_lon": 0.0, "name": "21a919579c19a93c4bfd737183f24ef3", "bike_id": "21a919579c19a93c4bfd737183f24ef3", "is_reserved": 0, "fusion_lat": 0.0, "is_disabled": 0}, {"rental_uris": {"ios": "https://dc.lft.to/lastmile_qr_scan", "android": "https://dc.lft.to/lastmile_qr_scan"}, "type": "electric_scooter", "lon": -77.01133566666667, "lat": 38.885275166666666, "fusion_lon": 0.0, "name": "7ad41f77d9b5e21581977dfd2c3516e5", "bike_id": "7ad41f77d9b5e21581977dfd2c3516e5", "is_reserved": 0, "fusion_lat": 0.0, "is_disabled": 0}, {"rental_uris": {"ios": "https://dc.lft.to/lastmile_qr_scan", "android": "https://dc.lft.to/lastmile_qr_scan"}, "type": "electric_scooter", "lon": -77.01887483333333, "lat": 38.922706833333336, "fusion_lon": 0.0, "name": "541aa9b894380191ad94a05ff144aada", "bike_id": "541aa9b894380191ad94a05ff144aada", "is_reserved": 0, "fusion_lat": 0.0, "is_disabled": 0}, {"rental_uris": {"ios": "https://dc.lft.to/lastmile_qr_scan", "android": "https://dc.lft.to/lastmile_qr_scan"}, "type": "electric_scooter", "lon": -77.03829283333333, "lat": 38.933986, "fusion_lon": 0.0, "name": "fb03d6781bc1e4a7d205ec3700249305", "bike_id": "fb03d6781bc1e4a7d205ec3700249305", "is_reserved": 0, "fusion_lat": 0.0, "is_disabled": 0}, {"rental_uris": {"ios": "https://dc.lft.to/lastmile_qr_scan", "android": "https://dc.lft.to/lastmile_qr_scan"}, "type": "electric_scooter", "lon": -77.02200733333333, "lat": 38.912067666666665, "fusion_lon": 0.0, "name": "369cad756673e2b7f35b6c79043bfe60", "bike_id": "369cad756673e2b7f35b6c79043bfe60", "is_reserved": 0, "fusion_lat": 0.0, "is_disabled": 0}, {"rental_uris": {"ios": "https://dc.lft.to/lastmile_qr_scan", "android": "https://dc.lft.to/lastmile_qr_scan"}, "type": "electric_bike", "lon": -77.002883, "lat": 38.96023133333333, "fusion_lon": 0.0, "name": "dce1e7e1009c9b2fd6a11a7c5a6f9c44", "bike_id": "dce1e7e1009c9b2fd6a11a7c5a6f9c44", "is_reserved": 0, "fusion_lat": 0.0, "is_disabled": 0}, {"rental_uris": {"ios": "https://dc.lft.to/lastmile_qr_scan", "android": "https://dc.lft.to/lastmile_qr_scan"}, "type": "electric_scooter", "lon": -77.03237133333333, "lat": 38.9269615, "fusion_lon": 0.0, "name": "c3f1d7d5a1e736d7739e81b99f154201", "bike_id": "c3f1d7d5a1e736d7739e81b99f154201", "is_reserved": 0, "fusion_lat": 0.0, "is_disabled": 0}, {"rental_uris": {"ios": "https://dc.lft.to/lastmile_qr_scan", "android": "https://dc.lft.to/lastmile_qr_scan"}, "type": "electric_scooter", "lon": -77.04688283333333, "lat": 38.892192333333334, "fusion_lon": 0.0, "name": "98802246ae038f566f2f63776c72bc08", "bike_id": "98802246ae038f566f2f63776c72bc08", "is_reserved": 0, "fusion_lat": 0.0, "is_disabled": 0}, {"rental_uris": {"ios": "https://dc.lft.to/lastmile_qr_scan", "android": "https://dc.lft.to/lastmile_qr_scan"}, "type": "electric_scooter", "lon": -77.00580083333334, "lat": 38.876532833333336, "fusion_lon": 0.0, "name": "d2eca6049b6109e54a993715dc127cae", "bike_id": "d2eca6049b6109e54a993715dc127cae", "is_reserved": 0, "fusion_lat": 0.0, "is_disabled": 0}, {"rental_uris": {"ios": "https://dc.lft.to/lastmile_qr_scan", "android": "https://dc.lft.to/lastmile_qr_scan"}, "type": "electric_scooter", "lon": -77.06188833333333, "lat": 38.93012983333333, "fusion_lon": 0.0, "name": "044c9e9efe1ad2d392e000c9e00364f2", "bike_id": "044c9e9efe1ad2d392e000c9e00364f2", "is_reserved": 0, "fusion_lat": 0.0, "is_disabled": 0}, {"rental_uris": {"ios": "https://dc.lft.to/lastmile_qr_scan", "android": "https://dc.lft.to/lastmile_qr_scan"}, "type": "electric_scooter", "lon": -76.97700116666667, "lat": 38.8881975, "fusion_lon": 0.0, "name": "cf7d05076d1192cecd4d20277ae1b450", "bike_id": "cf7d05076d1192cecd4d20277ae1b450", "is_reserved": 0, "fusion_lat": 0.0, "is_disabled": 0}, {"rental_uris": {"ios": "https://dc.lft.to/lastmile_qr_scan", "android": "https://dc.lft.to/lastmile_qr_scan"}, "type": "electric_scooter", "lon": -76.948867, "lat": 38.89508816666667, "fusion_lon": 0.0, "name": "44510fcf156ed5a983e5a78d2b828b2c", "bike_id": "44510fcf156ed5a983e5a78d2b828b2c", "is_reserved": 0, "fusion_lat": 0.0, "is_disabled": 0}, {"rental_uris": {"ios": "https://dc.lft.to/lastmile_qr_scan", "android": "https://dc.lft.to/lastmile_qr_scan"}, "type": "electric_scooter", "lon": -77.04618333333333, "lat": 38.893565, "fusion_lon": 0.0, "name": "27ba0d73f97a45bbbed0a8ab1bb6434a", "bike_id": "27ba0d73f97a45bbbed0a8ab1bb6434a", "is_reserved": 0, "fusion_lat": 0.0, "is_disabled": 0}, {"rental_uris": {"ios": "https://dc.lft.to/lastmile_qr_scan", "android": "https://dc.lft.to/lastmile_qr_scan"}, "type": "electric_scooter", "lon": -77.057549, "lat": 38.92460066666666, "fusion_lon": 0.0, "name": "bfff090540148c4cae4a8fd381a4692c", "bike_id": "bfff090540148c4cae4a8fd381a4692c", "is_reserved": 0, "fusion_lat": 0.0, "is_disabled": 0}, {"rental_uris": {"ios": "https://dc.lft.to/lastmile_qr_scan", "android": "https://dc.lft.to/lastmile_qr_scan"}, "type": "electric_scooter", "lon": -77.01174933333333, "lat": 38.876629, "fusion_lon": 0.0, "name": "9c1879956ec93bfffe76b0fd5f61acda", "bike_id": "9c1879956ec93bfffe76b0fd5f61acda", "is_reserved": 0, "fusion_lat": 0.0, "is_disabled": 0}, {"rental_uris": {"ios": "https://dc.lft.to/lastmile_qr_scan", "android": "https://dc.lft.to/lastmile_qr_scan"}, "type": "electric_scooter", "lon": -77.04487466666667, "lat": 38.91098516666667, "fusion_lon": 0.0, "name": "3e3d691375c33c562d7a49395bcd251f", "bike_id": "3e3d691375c33c562d7a49395bcd251f", "is_reserved": 0, "fusion_lat": 0.0, "is_disabled": 0}, {"rental_uris": {"ios": "https://dc.lft.to/lastmile_qr_scan", "android": "https://dc.lft.to/lastmile_qr_scan"}, "type": "electric_bike", "lon": -77.05035066666667, "lat": 38.892771333333336, "fusion_lon": 0.0, "name": "9e329a1aaa77f6708e19a54e3c6cfcc2", "bike_id": "9e329a1aaa77f6708e19a54e3c6cfcc2", "is_reserved": 0, "fusion_lat": 0.0, "is_disabled": 0}, {"rental_uris": {"ios": "https://dc.lft.to/lastmile_qr_scan", "android": "https://dc.lft.to/lastmile_qr_scan"}, "type": "electric_scooter", "lon": -77.02568733333334, "lat": 38.887465, "fusion_lon": 0.0, "name": "1057e0fb21fdac418c7cd88eb5148a8f", "bike_id": "1057e0fb21fdac418c7cd88eb5148a8f", "is_reserved": 0, "fusion_lat": 0.0, "is_disabled": 0}, {"rental_uris": {"ios": "https://dc.lft.to/lastmile_qr_scan", "android": "https://dc.lft.to/lastmile_qr_scan"}, "type": "electric_scooter", "lon": -77.01755816666666, "lat": 38.876889166666665, "fusion_lon": 0.0, "name": "a37b3763515f21cddf9c36c56ca0283e", "bike_id": "a37b3763515f21cddf9c36c56ca0283e", "is_reserved": 0, "fusion_lat": 0.0, "is_disabled": 0}, {"rental_uris": {"ios": "https://dc.lft.to/lastmile_qr_scan", "android": "https://dc.lft.to/lastmile_qr_scan"}, "type": "electric_scooter", "lon": -76.9317685, "lat": 38.89885316666667, "fusion_lon": 0.0, "name": "7290c927a711b4ec3bc6947b873f0e8d", "bike_id": "7290c927a711b4ec3bc6947b873f0e8d", "is_reserved": 0, "fusion_lat": 0.0, "is_disabled": 0}, {"rental_uris": {"ios": "https://dc.lft.to/lastmile_qr_scan", "android": "https://dc.lft.to/lastmile_qr_scan"}, "type": "electric_scooter", "lon": -77.029829, "lat": 38.89880383333333, "fusion_lon": 0.0, "name": "05614c24b2f4490fd862170e98737f1d", "bike_id": "05614c24b2f4490fd862170e98737f1d", "is_reserved": 0, "fusion_lat": 0.0, "is_disabled": 0}, {"rental_uris": {"ios": "https://dc.lft.to/lastmile_qr_scan", "android": "https://dc.lft.to/lastmile_qr_scan"}, "type": "electric_bike", "lon": -77.16245333333333, "lat": 38.886862666666666, "fusion_lon": 0.0, "name": "6ce44c3325294864f435ec868fd46175", "bike_id": "6ce44c3325294864f435ec868fd46175", "is_reserved": 0, "fusion_lat": 0.0, "is_disabled": 0}, {"rental_uris": {"ios": "https://dc.lft.to/lastmile_qr_scan", "android": "https://dc.lft.to/lastmile_qr_scan"},