{"data": {"bikes": [{"lat": 38.9411265, "is_disabled": 0, "type": "electric_scooter", "lon": -77.00060916666666, "bike_id": "13a9135126f9df206c96ef9020831447", "fusion_lat": 0.0, "name": "13a9135126f9df206c96ef9020831447", "is_reserved": 0, "rental_uris": {"android": "https://dc.lft.to/lastmile_qr_scan", "ios": "https://dc.lft.to/lastmile_qr_scan"}, "fusion_lon": 0.0}, {"lat": 38.962109166666664, "is_disabled": 0, "type": "electric_bike", "lon": -77.03516516666667, "bike_id": "29fce80eaa2f9ae63ee0668e74699e6b", "fusion_lat": 0.0, "name": "29fce80eaa2f9ae63ee0668e74699e6b", "is_reserved": 0, "rental_uris": {"android": "https://dc.lft.to/lastmile_qr_scan", "ios": "https://dc.lft.to/lastmile_qr_scan"}, "fusion_lon": 0.0}, {"lat": 38.8134725, "is_disabled": 0, "type": "electric_bike", "lon": -77.0492, "bike_id": "5bd7af400130f1dd6cda25fe8057c176", "fusion_lat": 0.0, "name": "5bd7af400130f1dd6cda25fe8057c176", "is_reserved": 0, "rental_uris": {"android": "https://dc.lft.to/lastmile_qr_scan", "ios": "https://dc.lft.to/lastmile_qr_scan"}, "fusion_lon": 0.0}, {"lat": 38.901995666666664, "is_disabled": 0, "type": "electric_scooter", "lon": -77.036729, "bike_id": "e5f0d7d62c779708b3f067b6e617c98a", "fusion_lat": 0.0, "name": "e5f0d7d62c779708b3f067b6e617c98a", "is_reserved": 0, "rental_uris": {"android": "https://dc.lft.to/lastmile_qr_scan", "ios": "https://dc.lft.to/lastmile_qr_scan"}, "fusion_lon": 0.0}, {"lat": 38.913641, "is_disabled": 0, "type": "electric_scooter", "lon": -77.04156383333333, "bike_id": "1af7325e988f2ba13f4617988a2c7c18", "fusion_lat": 0.0, "name": "1af7325e988f2ba13f4617988a2c7c18", "is_reserved": 0, "rental_uris": {"android": "https://dc.lft.to/lastmile_qr_scan", "ios": "https://dc.lft.to/lastmile_qr_scan"}, "fusion_lon": 0.0}, {"lat": 38.901529333333336, "is_disabled": 0, "type": "electric_scooter", "lon": -77.02025, "bike_id": "f4cd6b34f4645f53d4a7b2e0cba38c59", "fusion_lat": 0.0, "name": "f4cd6b34f4645f53d4a7b2e0cba38c59", "is_reserved": 0, "rental_uris": {"android": "https://dc.lft.to/lastmile_qr_scan", "ios": "https://dc.lft.to/lastmile_qr_scan"}, "fusion_lon": 0.0}, {"lat": 38.89556733333333, "is_disabled": 0, "type": "electric_scooter", "lon": -77.00370066666666, "bike_id": "f1569990ac0fdcc7ed1074a40bc7251c", "fusion_lat": 0.0, "name": "f1569990ac0fdcc7ed1074a40bc7251c", "is_reserved": 0, "rental_uris": {"android": "https://dc.lft.to/lastmile_qr_scan", "ios": "https://dc.lft.to/lastmile_qr_scan"}, "fusion_lon": 0.0}, {"lat": 38.926212, "is_disabled": 0, "type": "electric_scooter", "lon": -77.03784183333333, "bike_id": "1b565ed1201d964a38c456e9c0b9f39a", "fusion_lat": 0.0, "name": "1b565ed1201d964a38c456e9c0b9f39a", "is_reserved": 0, "rental_uris": {"android": "https://dc.lft.to/lastmile_qr_scan", "ios": "https://dc.lft.to/lastmile_qr_scan"}, "fusion_lon": 0.0}, {"lat": 38.8968955, "is_disabled": 0, "type": "electric_bike", "lon": -77.024154, "bike_id": "4a4e9615e350ce625f19ba60abe2635e", "fusion_lat": 0.0, "name": "4a4e9615e350ce625f19ba60abe2635e", "is_reserved": 0, "rental_uris": {"android": "https://dc.lft.to/lastmile_qr_scan", "ios": "https://dc.lft.to/lastmile_qr_scan"}, "fusion_lon": 0.0}, {"lat": 38.907231333333335, "is_disabled": 0, "type": "electric_scooter", "lon": -77.02986333333334, "bike_id": "f4c8524b5f6e557d2a43061f0636ef09", "fusion_lat": 0.0, "name": "f4c8524b5f6e557d2a43061f0636ef09", "is_reserved": 0, "rental_uris": {"android": "https://dc.lft.to/lastmile_qr_scan", "ios": "https://dc.lft.to/lastmile_qr_scan"}, "fusion_lon": 0.0}, {"lat": 38.90728816666667, "is_disabled": 0, "type": "electric_scooter", "lon": -77.01130766666667, "bike_id": "9c945c9dfc6bbca1887f13235cb8cc74", "fusion_lat": 0.0, "name": "9c945c9dfc6bbca1887f13235cb8cc74", "is_reserved": 0, "rental_uris": {"android": "https://dc.lft.to/lastmile_qr_scan", "ios": "https://dc.lft.to/lastmile_qr_scan"}, "fusion_lon": 0.0}, {"lat": 38.90236816666667, "is_disabled": 0, "type": "electric_scooter", "lon": -77.01762216666667, "bike_id": "f677fa074267f0e73a459507e6a04b89", "fusion_lat": 0.0, "name": "f677fa074267f0e73a459507e6a04b89", "is_reserved": 0, "rental_uris": {"android": "https://dc.lft.to/lastmile_qr_scan", "ios": "https://dc.lft.to/lastmile_qr_scan"}, "fusion_lon": 0.0}, {"lat": 38.911161, "is_disabled": 0, "type": "electric_scooter", "lon": -77.0381335, "bike_id": "6adfdc64f86e226b5fd287c5ec1fe425", "fusion_lat": 0.0, "name": "6adfdc64f86e226b5fd287c5ec1fe425", "is_reserved": 0, "rental_uris": {"android": "https://dc.lft.to/lastmile_qr_scan", "ios": "https://dc.lft.to/lastmile_qr_scan"}, "fusion_lon": 0.0}, {"lat": 38.902142166666664, "is_disabled": 0, "type": "electric_scooter", "lon": -77.0229425, "bike_id": "b681a793acb40e7b04361030b4ab9dd1", "fusion_lat": 0.0, "name": "b681a793acb40e7b04361030b4ab9dd1", "is_reserved": 0, "rental_uris": {"android": "https://dc.lft.to/lastmile_qr_scan", "ios": "https://dc.lft.to/lastmile_qr_scan"}, "fusion_lon": 0.0}, {"lat": 38.90258383333333, "is_disabled": 0, "type": "electric_scooter", "lon": -77.003263, "bike_id": "934cd853621e1a11075b37649a265a0b", "fusion_lat": 0.0, "name": "934cd853621e1a11075b37649a265a0b", "is_reserved": 0, "rental_uris": {"android": "https://dc.lft.to/lastmile_qr_scan", "ios": "https://dc.lft.to/lastmile_qr_scan"}, "fusion_lon": 0.0}, {"lat": 38.90435683333333, "is_disabled": 0, "type": "electric_scooter", "lon": -77.00216866666666, "bike_id": "b3c9eb757842998eb37c7dc0f45cfd5b", "fusion_lat": 0.0, "name": "b3c9eb757842998eb37c7dc0f45cfd5b", "is_reserved": 0, "rental_uris": {"android": "https://dc.lft.to/lastmile_qr_scan", "ios": "https://dc.lft.to/lastmile_qr_scan"}, "fusion_lon": 0.0}, {"lat": 38.88209783333333, "is_disabled": 0, "type": "electric_scooter", "lon": -76.93356266666666, "bike_id": "a788e47c754087f1d89cf55e2fadd5d7", "fusion_lat": 0.0, "name": "a788e47c754087f1d89cf55e2fadd5d7", "is_reserved": 0, "rental_uris": {"android": "https://dc.lft.to/lastmile_qr_scan", "ios": "https://dc.lft.to/lastmile_qr_scan"}, "fusion_lon": 0.0}, {"lat": 38.87073483333333, "is_disabled": 0, "type": "electric_bike", "lon": -76.97841283333334, "bike_id": "6725b8555a4ec5649642c47a2f6c516f", "fusion_lat": 0.0, "name": "6725b8555a4ec5649642c47a2f6c516f", "is_reserved": 0, "rental_uris": {"android": "https://dc.lft.to/lastmile_qr_scan", "ios": "https://dc.lft.to/lastmile_qr_scan"}, "fusion_lon": 0.0}, {"lat": 38.931084166666665, "is_disabled": 0, "type": "electric_bike", "lon": -77.027391, "bike_id": "45928f0060bd1f4753fcf22706cbdb7a", "fusion_lat": 0.0, "name": "45928f0060bd1f4753fcf22706cbdb7a", "is_reserved": 0, "rental_uris": {"android": "https://dc.lft.to/lastmile_qr_scan", "ios": "https://dc.lft.to/lastmile_qr_scan"}, "fusion_lon": 0.0}, {"lat": 38.890394, "is_disabled": 0, "type": "electric_scooter", "lon": -76.93749, "bike_id": "575847bdec5571590d55d7dae7636dd2", "fusion_lat": 0.0, "name": "575847bdec5571590d55d7dae7636dd2", "is_reserved": 0, "rental_uris": {"android": "https://dc.lft.to/lastmile_qr_scan", "ios": "https://dc.lft.to/lastmile_qr_scan"}, "fusion_lon": 0.0}, {"lat": 38.92859, "is_disabled": 0, "type": "electric_scooter", "lon": -77.03708283333333, "bike_id": "e3eb59f2b17b5d8728ffcc73edcd58a0", "fusion_lat": 0.0, "name": "e3eb59f2b17b5d8728ffcc73edcd58a0", "is_reserved": 0, "rental_uris": {"android": "https://dc.lft.to/lastmile_qr_scan", "ios": "https://dc.lft.to/lastmile_qr_scan"}, "fusion_lon": 0.0}, {"lat": 38.9329565, "is_disabled": 0, "type": "electric_scooter", "lon": -77.0453545, "bike_id": "71fd69d7c54cc58a47f6e5dab48caea4", "fusion_lat": 0.0, "name": "71fd69d7c54cc58a47f6e5dab48caea4", "is_reserved": 0, "rental_uris": {"android": "https://dc.lft.to/lastmile_qr_scan", "ios": "https://dc.lft.to/lastmile_qr_scan"}, "fusion_lon": 0.0}, {"lat": 38.914562333333336, "is_disabled": 0, "type": "electric_scooter", "lon": -77.01433033333333, "bike_id": "3477a45c93894644fa08d71e17a075da", "fusion_lat": 0.0, "name": "3477a45c93894644fa08d71e17a075da", "is_reserved": 0, "rental_uris": {"android": "https://dc.lft.to/lastmile_qr_scan", "ios": "https://dc.lft.to/lastmile_qr_scan"}, "fusion_lon": 0.0}, {"lat": 38.914488666666664, "is_disabled": 0, "type": "electric_bike", "lon": -76.97276283333333, "bike_id": "514e76bdf2ddd60742f49fbc29929bcf", "fusion_lat": 0.0, "name": "514e76bdf2ddd60742f49fbc29929bcf", "is_reserved": 0, "rental_uris": {"android": "https://dc.lft.to/lastmile_qr_scan", "ios": "https://dc.lft.to/lastmile_qr_scan"}, "fusion_lon": 0.0}, {"lat": 38.90239366666667, "is_disabled": 0, "type": "electric_scooter", "lon": -77.01766283333333, "bike_id": "14ea0ea00356649abb064630b5d18b2a", "fusion_lat": 0.0, "name": "14ea0ea00356649abb064630b5d18b2a", "is_reserved": 0, "rental_uris": {"android": "https://dc.lft.to/lastmile_qr_scan", "ios": "https://dc.lft.to/lastmile_qr_scan"}, "fusion_lon": 0.0}, {"lat": 38.88208083333333, "is_disabled": 0, "type": "electric_scooter", "lon": -76.98925616666666, "bike_id": "d2bb2936dc37e45790857427fa8ad631", "fusion_lat": 0.0, "name": "d2bb2936dc37e45790857427fa8ad631", "is_reserved": 0, "rental_uris": {"android": "https://dc.lft.to/lastmile_qr_scan", "ios": "https://dc.lft.to/lastmile_qr_scan"}, "fusion_lon": 0.0}, {"lat": 38.89221766666667, "is_disabled": 0, "type": "electric_scooter", "lon": -77.022133, "bike_id": "215790f0a1669779525c455e418a0daa", "fusion_lat": 0.0, "name": "215790f0a1669779525c455e418a0daa", "is_reserved": 0, "rental_uris": {"android": "https://dc.lft.to/lastmile_qr_scan", "ios": "https://dc.lft.to/lastmile_qr_scan"}, "fusion_lon": 0.0}, {"lat": 38.878597166666665, "is_disabled": 0, "type": "electric_scooter", "lon": -77.01770816666667, "bike_id": "c1d7bed496ba59a0f9a4950e8e7dd6d4", "fusion_lat": 0.0, "name": "c1d7bed496ba59a0f9a4950e8e7dd6d4", "is_reserved": 0, "rental_uris": {"android": "https://dc.lft.to/lastmile_qr_scan", "ios": "https://dc.lft.to/lastmile_qr_scan"}, "fusion_lon": 0.0}, {"lat": 38.950738, "is_disabled": 0, "type": "electric_scooter", "lon": -77.02716683333334, "bike_id": "7cd519b866146e0081b6fdf4c1ccc841", "fusion_lat": 0.0, "name": "7cd519b866146e0081b6fdf4c1ccc841", "is_reserved": 0, "rental_uris": {"android": "https://dc.lft.to/lastmile_qr_scan", "ios": "https://dc.lft.to/lastmile_qr_scan"}, "fusion_lon": 0.0}, {"lat": 38.941911833333336, "is_disabled": 0, "type": "electric_scooter", "lon": -77.0401535, "bike_id": "646ccd73a846b30f2c2b17f7c10226ad", "fusion_lat": 0.0, "name": "646ccd73a846b30f2c2b17f7c10226ad", "is_reserved": 0, "rental_uris": {"android": "https://dc.lft.to/lastmile_qr_scan", "ios": "https://dc.lft.to/lastmile_qr_scan"}, "fusion_lon": 0.0}, {"lat": 38.8548805, "is_disabled": 0, "type": "electric_bike", "lon": -77.1204455, "bike_id": "bbe09433f43f50bace45d648aadd03a0", "fusion_lat": 0.0, "name": "bbe09433f43f50bace45d648aadd03a0", "is_reserved": 0, "rental_uris": {"android": "https://dc.lft.to/lastmile_qr_scan", "ios": "https://dc.lft.to/lastmile_qr_scan"}, "fusion_lon": 0.0}, {"lat": 38.886457166666666, "is_disabled": 0, "type": "electric_scooter", "lon": -77.02168516666667, "bike_id": "0fc541784dafc356c172b0aa10e8c32a", "fusion_lat": 0.0, "name": "0fc541784dafc356c172b0aa10e8c32a", "is_reserved": 0, "rental_uris": {"android": "https://dc.lft.to/lastmile_qr_scan", "ios": "https://dc.lft.to/lastmile_qr_scan"}, "fusion_lon": 0.0}, {"lat": 38.921656166666665, "is_disabled": 0, "type": "electric_scooter", "lon": -77.03512266666667, "bike_id": "03fbb13edb6a18d5c705294cb2ffc6fb", "fusion_lat": 0.0, "name": "03fbb13edb6a18d5c705294cb2ffc6fb", "is_reserved": 0, "rental_uris": {"android": "https://dc.lft.to/lastmile_qr_scan", "ios": "https://dc.lft.to/lastmile_qr_scan"}, "fusion_lon": 0.0}, {"lat": 38.9134355, "is_disabled": 0, "type": "electric_scooter", "lon": -77.01748866666667, "bike_id": "49813057b6e12254a30cc623057fb116", "fusion_lat": 0.0, "name": "49813057b6e12254a30cc623057fb116", "is_reserved": 0, "rental_uris": {"android": "https://dc.lft.to/lastmile_qr_scan", "ios": "https://dc.lft.to/lastmile_qr_scan"}, "fusion_lon": 0.0}, {"lat": 38.877175666666666, "is_disabled": 0, "type": "electric_scooter", "lon": -77.01763283333334, "bike_id": "5b3557160883f2b39a03e328eb3adf2b", "fusion_lat": 0.0, "name": "5b3557160883f2b39a03e328eb3adf2b", "is_reserved": 0, "rental_uris": {"android": "https://dc.lft.to/lastmile_qr_scan", "ios": "https://dc.lft.to/lastmile_qr_scan"}, "fusion_lon": 0.0}, {"lat": 38.908083166666664, "is_disabled": 0, "type": "electric_scooter", "lon": -77.04338633333333, "bike_id": "4daf366984cf3b6b02ed4a8d8df4045f", "fusion_lat": 0.0, "name": "4daf366984cf3b6b02ed4a8d8df4045f", "is_reserved": 0, "rental_uris": {"android": "https://dc.lft.to/lastmile_qr_scan", "ios": "https://dc.lft.to/lastmile_qr_scan"}, "fusion_lon": 0.0}, {"lat": 38.917461, "is_disabled": 0, "type": "electric_scooter", "lon": -77.024015, "bike_id": "982dde06dcc25384a2dd6e37106ea7bf", "fusion_lat": 0.0, "name": "982dde06dcc25384a2dd6e37106ea7bf", "is_reserved": 0, "rental_uris": {"android": "https://dc.lft.to/lastmile_qr_scan", "ios": "https://dc.lft.to/lastmile_qr_scan"}, "fusion_lon": 0.0}, {"lat": 38.934095666666664, "is_disabled": 0, "type": "electric_scooter", "lon": -77.04270933333333, "bike_id": "e6f3d0b03b21a2c804e3521153a0bac8", "fusion_lat": 0.0, "name": "e6f3d0b03b21a2c804e3521153a0bac8", "is_reserved": 0, "rental_uris": {"android": "https://dc.lft.to/lastmile_qr_scan", "ios": "https://dc.lft.to/lastmile_qr_scan"}, "fusion_lon": 0.0}, {"lat": 38.9064785, "is_disabled": 0, "type": "electric_scooter", "lon": -77.02949933333333, "bike_id": "15471c240fc2ce3bdaaeb7d46b762a86", "fusion_lat": 0.0, "name": "15471c240fc2ce3bdaaeb7d46b762a86", "is_reserved": 0, "rental_uris": {"android": "https://dc.lft.to/lastmile_qr_scan", "ios": "https://dc.lft.to/lastmile_qr_scan"}, "fusion_lon": 0.0}, {"lat": 38.90558733333334, "is_disabled": 0, "type": "electric_scooter", "lon": -77.03249883333334, "bike_id": "2c0d9f4bafef64736a7fcdb71416727c", "fusion_lat": 0.0, "name": "2c0d9f4bafef64736a7fcdb71416727c", "is_reserved": 0, "rental_uris": {"android": "https://dc.lft.to/lastmile_qr_scan", "ios": "https://dc.lft.to/lastmile_qr_scan"}, "fusion_lon": 0.0}, {"lat": 38.91830783333333, "is_disabled": 0, "type": "electric_scooter", "lon": -77.03507483333334, "bike_id": "2221041363c7fd77ecd3f16c66f2badb", "fusion_lat": 0.0, "name": "2221041363c7fd77ecd3f16c66f2badb", "is_reserved": 0, "rental_uris": {"android": "https://dc.lft.to/lastmile_qr_scan", "ios": "https://dc.lft.to/lastmile_qr_scan"}, "fusion_lon": 0.0}, {"lat": 38.92770066666667, "is_disabled": 0, "type": "electric_scooter", "lon": -77.02779966666667, "bike_id": "85495910bf46f8f3d8388591408160a0", "fusion_lat": 0.0, "name": "85495910bf46f8f3d8388591408160a0", "is_reserved": 0, "rental_uris": {"android": "https://dc.lft.to/lastmile_qr_scan", "ios": "https://dc.lft.to/lastmile_qr_scan"}, "fusion_lon": 0.0}, {"lat": 38.9184585, "is_disabled": 0, "type": "electric_scooter", "lon": -76.9655265, "bike_id": "0cc9a7170379fb55a3e5471c4ebc6e2c", "fusion_lat": 0.0, "name": "0cc9a7170379fb55a3e5471c4ebc6e2c", "is_reserved": 0, "rental_uris": {"android": "https://dc.lft.to/lastmile_qr_scan", "ios": "https://dc.lft.to/lastmile_qr_scan"}, "fusion_lon": 0.0}, {"lat": 38.92859466666667, "is_disabled": 0, "type": "electric_scooter", "lon": -77.03661, "bike_id": "f8b3fb248c7dc72367962bcd93465b38", "fusion_lat": 0.0, "name": "f8b3fb248c7dc72367962bcd93465b38", "is_reserved": 0, "rental_uris": {"android": "https://dc.lft.to/lastmile_qr_scan", "ios": "https://dc.lft.to/lastmile_qr_scan"}, "fusion_lon": 0.0}, {"lat": 38.85921183333333, "is_disabled": 0, "type": "electric_scooter", "lon": -76.98985133333333, "bike_id": "b1d2a639fd8ea0e495a924232fb7b467", "fusion_lat": 0.0, "name": "b1d2a639fd8ea0e495a924232fb7b467", "is_reserved": 0, "rental_uris": {"android": "https://dc.lft.to/lastmile_qr_scan", "ios": "https://dc.lft.to/lastmile_qr_scan"}, "fusion_lon": 0.0}, {"lat": 38.9175185, "is_disabled": 0, "type": "electric_scooter", "lon": -77.02293266666666, "bike_id": "29c0b478d2275cbd8194b7884faf1eed", "fusion_lat": 0.0, "name": "29c0b478d2275cbd8194b7884faf1eed", "is_reserved": 0, "rental_uris": {"android": "https://dc.lft.to/lastmile_qr_scan", "ios": "https://dc.lft.to/lastmile_qr_scan"}, "fusion_lon": 0.0}, {"lat": 38.9012575, "is_disabled": 0, "type": "electric_scooter", "lon": -77.0417405, "bike_id": "3ceea5922885236002da37c886f2aa66", "fusion_lat": 0.0, "name": "3ceea5922885236002da37c886f2aa66", "is_reserved": 0, "rental_uris": {"android": "https://dc.lft.to/lastmile_qr_scan", "ios": "https://dc.lft.to/lastmile_qr_scan"}, "fusion_lon": 0.0}, {"lat": 38.897506166666666, "is_disabled": 0, "type": "electric_scooter", "lon": -77.0270175, "bike_id": "23fba9130a74fab246d57aea76813932", "fusion_lat": 0.0, "name": "23fba9130a74fab246d57aea76813932", "is_reserved": 0, "rental_uris": {"android": "https://dc.lft.to/lastmile_qr_scan", "ios": "https://dc.lft.to/lastmile_qr_scan"}, "fusion_lon": 0.0}, {"lat": 38.92059483333333, "is_disabled": 0, "type": "electric_scooter", "lon": -77.03176633333334, "bike_id": "ce25581d4256e6ea10f7a8fe79fa514d", "fusion_lat": 0.0, "name": "ce25581d4256e6ea10f7a8fe79fa514d", "is_reserved": 0, "rental_uris": {"android": "https://dc.lft.to/lastmile_qr_scan", "ios": "https://dc.lft.to/lastmile_qr_scan"}, "fusion_lon": 0.0}, {"lat": 38.9306155, "is_disabled": 0, "type": "electric_scooter", "lon": -77.04030416666667, "bike_id": "f5d9b3d343468b084313b38aa9886a58", "fusion_lat": 0.0, "name": "f5d9b3d343468b084313b38aa9886a58", "is_reserved": 0, "rental_uris": {"android": "https://dc.lft.to/lastmile_qr_scan", "ios": "https://dc.lft.to/lastmile_qr_scan"}, "fusion_lon": 0.0}, {"lat": 38.909668833333335, "is_disabled": 0, "type": "electric_scooter", "lon": -76.99605716666667, "bike_id": "ec757b455a7ec661ae50635b5994f577", "fusion_lat": 0.0, "name": "ec757b455a7ec661ae50635b5994f577", "is_reserved": 0, "rental_uris": {"android": "https://dc.lft.to/lastmile_qr_scan", "ios": "https://dc.lft.to/lastmile_qr_scan"}, "fusion_lon": 0.0}, {"lat": 38.89991583333333, "is_disabled": 0, "type": "electric_scooter", "lon": -76.9995935, "bike_id": "12c0ba6add9cb455abe1de33d8c5d746", "fusion_lat": 0.0, "name": "12c0ba6add9cb455abe1de33d8c5d746", "is_reserved": 0, "rental_uris": {"android": "https://dc.lft.to/lastmile_qr_scan", "ios": "https://dc.lft.to/lastmile_qr_scan"}, "fusion_lon": 0.0}, {"lat": 38.90678, "is_disabled": 0, "type": "electric_scooter", "lon": -77.0271675, "bike_id": "0e122b50164c898e900639affdfc0442", "fusion_lat": 0.0, "name": "0e122b50164c898e900639affdfc0442", "is_reserved": 0, "rental_uris": {"android": "https://dc.lft.to/lastmile_qr_scan", "ios": "https://dc.lft.to/lastmile_qr_scan"}, "fusion_lon": 0.0}, {"lat": 38.910989, "is_disabled": 0, "type": "electric_scooter", "lon": -77.03202633333333, "bike_id": "8a975e0f34bbfd9497747d7c190be4bb", "fusion_lat": 0.0, "name": "8a975e0f34bbfd9497747d7c190be4bb", "is_reserved": 0, "rental_uris": {"android": "https://dc.lft.to/lastmile_qr_scan", "ios": "https://dc.lft.to/lastmile_qr_scan"}, "fusion_lon": 0.0}, {"lat": 38.91543633333333, "is_disabled": 0, "type": "electric_scooter", "lon": -77.07420683333333, "bike_id": "515745b15a1c7500111972e8fd6f29ef", "fusion_lat": 0.0, "name": "515745b15a1c7500111972e8fd6f29ef", "is_reserved": 0, "rental_uris": {"android": "https://dc.lft.to/lastmile_qr_scan", "ios": "https://dc.lft.to/lastmile_qr_scan"}, "fusion_lon": 0.0}, {"lat": 38.892838, "is_disabled": 0, "type": "electric_scooter", "lon": -76.9585315, "bike_id": "f7add1c1f1ad7bd69132d0ab3549636b", "fusion_lat": 0.0, "name": "f7add1c1f1ad7bd69132d0ab3549636b", "is_reserved": 0, "rental_uris": {"android": "https://dc.lft.to/lastmile_qr_scan", "ios": "https://dc.lft.to/lastmile_qr_scan"}, "fusion_lon": 0.0}, {"lat": 38.929562833333335, "is_disabled": 0, "type": "electric_scooter", "lon": -76.9908315, "bike_id": "eaf107af736f8633f3563a903323085c", "fusion_lat": 0.0, "name": "eaf107af736f8633f3563a903323085c", "is_reserved": 0, "rental_uris": {"android": "https://dc.lft.to/lastmile_qr_scan", "ios": "https://dc.lft.to/lastmile_qr_scan"}, "fusion_lon": 0.0}, {"lat": 38.88719366666667, "is_disabled": 0, "type": "electric_scooter", "lon": -76.99607816666666, "bike_id": "6bfa969fc7819b40c2741743c2142af4", "fusion_lat": 0.0, "name": "6bfa969fc7819b40c2741743c2142af4", "is_reserved": 0, "rental_uris": {"android": "https://dc.lft.to/lastmile_qr_scan", "ios": "https://dc.lft.to/lastmile_qr_scan"}, "fusion_lon": 0.0}, {"lat": 38.9072535, "is_disabled": 0, "type": "electric_scooter", "lon": -77.03460133333333, "bike_id": "942653cfbce5024620d24b5cdaa11b6d", "fusion_lat": 0.0, "name": "942653cfbce5024620d24b5cdaa11b6d", "is_reserved": 0, "rental_uris": {"android": "https://dc.lft.to/lastmile_qr_scan", "ios": "https://dc.lft.to/lastmile_qr_scan"}, "fusion_lon": 0.0}, {"lat": 38.919737, "is_disabled": 0, "type": "electric_scooter", "lon": -77.023856, "bike_id": "189c4a16504166374c233a66752cbeb8", "fusion_lat": 0.0, "name": "189c4a16504166374c233a66752cbeb8", "is_reserved": 0, "rental_uris": {"android": "https://dc.lft.to/lastmile_qr_scan", "ios": "https://dc.lft.to/lastmile_qr_scan"}, "fusion_lon": 0.0}, {"lat": 38.90081583333333, "is_disabled": 0, "type": "electric_scooter", "lon": -77.0493585, "bike_id": "48e95635bb72af583faadb115db0748c", "fusion_lat": 0.0, "name": "48e95635bb72af583faadb115db0748c", "is_reserved": 0, "rental_uris": {"android": "https://dc.lft.to/lastmile_qr_scan", "ios": "https://dc.lft.to/lastmile_qr_scan"}, "fusion_lon": 0.0}, {"lat": 38.9178365, "is_disabled": 0, "type": "electric_scooter", "lon": -77.04339716666667, "bike_id": "ecf800e105949a9c6e33f16b95430de4", "fusion_lat": 0.0, "name": "ecf800e105949a9c6e33f16b95430de4", "is_reserved": 0, "rental_uris": {"android": "https://dc.lft.to/lastmile_qr_scan", "ios": "https://dc.lft.to/lastmile_qr_scan"}, "fusion_lon": 0.0}, {"lat": 38.997899833333335, "is_disabled": 0, "type": "electric_bike", "lon": -77.00759133333334, "bike_id": "b6a36d91b73be313c6647a39a6610d84", "fusion_lat": 0.0, "name": "b6a36d91b73be313c6647a39a6610d84", "is_reserved": 0, "rental_uris": {"android": "https://dc.lft.to/lastmile_qr_scan", "ios": "https://dc.lft.to/lastmile_qr_scan"}, "fusion_lon": 0.0}, {"lat": 38.89218916666667, "is_disabled": 0, "type": "electric_scooter", "lon": -77.0321535, "bike_id": "6b6daea1fc84f774ac2bc65b484d79bb", "fusion_lat": 0.0, "name": "6b6daea1fc84f774ac2bc65b484d79bb", "is_reserved": 0, "rental_uris": {"android": "https://dc.lft.to/lastmile_qr_scan", "ios": "https://dc.lft.to/lastmile_qr_scan"}, "fusion_lon": 0.0}, {"lat": 38.95646983333334, "is_disabled": 0, "type": "electric_scooter", "lon": -77.02401816666666, "bike_id": "decb5c2d5e805ada6e47853548e982b1", "fusion_lat": 0.0, "name": "decb5c2d5e805ada6e47853548e982b1", "is_reserved": 0, "rental_uris": {"android": "https://dc.lft.to/lastmile_qr_scan", "ios": "https://dc.lft.to/lastmile_qr_scan"}, "fusion_lon": 0.0}, {"lat": 38.924609, "is_disabled": 0, "type": "electric_scooter", "lon": -77.05237366666667, "bike_id": "fe56389501d8bbdfcc2c804560ec109e", "fusion_lat": 0.0, "name": "fe56389501d8bbdfcc2c804560ec109e", "is_reserved": 0, "rental_uris": {"android": "https://dc.lft.to/lastmile_qr_scan", "ios": "https://dc.lft.to/lastmile_qr_scan"}, "fusion_lon": 0.0}, {"lat": 38.8767155, "is_disabled": 0, "type": "electric_bike", "lon": -77.014432, "bike_id": "b22ae031c80c2cb6230ea72d1d89d574", "fusion_lat": 0.0, "name": "b22ae031c80c2cb6230ea72d1d89d574", "is_reserved": 0, "rental_uris": {"android": "https://dc.lft.to/lastmile_qr_scan", "ios": "https://dc.lft.to/lastmile_qr_scan"}, "fusion_lon": 0.0}, {"lat": 38.92360766666667, "is_disabled": 0, "type": "electric_scooter", "lon": -77.05127866666666, "bike_id": "b809215a7144438f24330df2540d4d4e", "fusion_lat": 0.0, "name": "b809215a7144438f24330df2540d4d4e", "is_reserved": 0, "rental_uris": {"android": "https://dc.lft.to/lastmile_qr_scan", "ios": "https://dc.lft.to/lastmile_qr_scan"}, "fusion_lon": 0.0}, {"lat": 38.95777566666667, "is_disabled": 0, "type": "electric_scooter", "lon": -77.0275155, "bike_id": "107acbeb7849bad9b34a719426914ca1", "fusion_lat": 0.0, "name": "107acbeb7849bad9b34a719426914ca1", "is_reserved": 0, "rental_uris": {"android": "https://dc.lft.to/lastmile_qr_scan", "ios": "https://dc.lft.to/lastmile_qr_scan"}, "fusion_lon": 0.0}, {"lat": 38.91984216666667, "is_disabled": 0, "type": "electric_scooter", "lon": -77.03262233333334, "bike_id": "afd2d3e3399cbbb31a90a15a32b68c7f", "fusion_lat": 0.0, "name": "afd2d3e3399cbbb31a90a15a32b68c7f", "is_reserved": 0, "rental_uris": {"android": "https://dc.lft.to/lastmile_qr_scan", "ios": "https://dc.lft.to/lastmile_qr_scan"}, "fusion_lon": 0.0}, {"lat": 38.881369166666666, "is_disabled": 0, "type": "electric_scooter", "lon": -76.9950225, "bike_id": "f5d0a37cbe25a4a3b6c88be2897666cc", "fusion_lat": 0.0, "name": "f5d0a37cbe25a4a3b6c88be2897666cc", "is_reserved": 0, "rental_uris": {"android": "https://dc.lft.to/lastmile_qr_scan", "ios": "https://dc.lft.to/lastmile_qr_scan"}, "fusion_lon": 0.0}, {"lat": 38.898992666666665, "is_disabled": 0, "type": "electric_scooter", "lon": -76.99729916666666, "bike_id": "3526eabf5ae06e425cec22ca3cc92e9c", "fusion_lat": 0.0, "name": "3526eabf5ae06e425cec22ca3cc92e9c", "is_reserved": 0, "rental_uris": {"android": "https://dc.lft.to/lastmile_qr_scan", "ios": "https://dc.lft.to/lastmile_qr_scan"}, "fusion_lon": 0.0}, {"lat": 38.90572233333333, "is_disabled": 0, "type": "electric_scooter", "lon": -77.00580766666667, "bike_id": "2917961e58c08d912ae5df348f09ed4a", "fusion_lat": 0.0, "name": "2917961e58c08d912ae5df348f09ed4a", "is_reserved": 0, "rental_uris": {"android": "https://dc.lft.to/lastmile_qr_scan", "ios": "https://dc.lft.to/lastmile_qr_scan"}, "fusion_lon": 0.0}, {"lat": 38.8689055, "is_disabled": 0, "type": "electric_scooter", "lon": -76.983135, "bike_id": "2257e239e4a723494ba30ff78d9ff061", "fusion_lat": 0.0, "name": "2257e239e4a723494ba30ff78d9ff061", "is_reserved": 0, "rental_uris": {"android": "https://dc.lft.to/lastmile_qr_scan", "ios": "https://dc.lft.to/lastmile_qr_scan"}, "fusion_lon": 0.0}, {"lat": 38.9065465, "is_disabled": 0, "type": "electric_scooter", "lon": -77.05323816666667, "bike_id": "b60d28ad9ecfe8f52cf0339cd7990471", "fusion_lat": 0.0, "name": "b60d28ad9ecfe8f52cf0339cd7990471", "is_reserved": 0, "rental_uris": {"android": "https://dc.lft.to/lastmile_qr_scan", "ios": "https://dc.lft.to/lastmile_qr_scan"}, "fusion_lon": 0.0}, {"lat": 38.919026833333334, "is_disabled": 0, "type": "electric_scooter", "lon": -77.02407816666667, "bike_id": "e76058acb484bd053c7d422277437aa2", "fusion_lat": 0.0, "name": "e76058acb484bd053c7d422277437aa2", "is_reserved": 0, "rental_uris": {"android": "https://dc.lft.to/lastmile_qr_scan", "ios": "https://dc.lft.to/lastmile_qr_scan"}, "fusion_lon": 0.0}, {"lat": 38.90579433333333, "is_disabled": 0, "type": "electric_scooter", "lon": -77.00886883333334, "bike_id": "f16400eeae74585ecbfc39e40350d30c", "fusion_lat": 0.0, "name": "f16400eeae74585ecbfc39e40350d30c", "is_reserved": 0, "rental_uris": {"android": "https://dc.lft.to/lastmile_qr_scan", "ios": "https://dc.lft.to/lastmile_qr_scan"}, "fusion_lon": 0.0}, {"lat": 38.9024315, "is_disabled": 0, "type": "electric_scooter", "lon": -77.01764033333333, "bike_id": "ac76109b8b5036c8f81268f5756e3ec4", "fusion_lat": 0.0, "name": "ac76109b8b5036c8f81268f5756e3ec4", "is_reserved": 0, "rental_uris": {"android": "https://dc.lft.to/lastmile_qr_scan", "ios": "https://dc.lft.to/lastmile_qr_scan"}, "fusion_lon": 0.0}, {"lat": 38.90295366666667, "is_disabled": 0, "type": "electric_scooter", "lon": -77.00216516666667, "bike_id": "3813fb0fb08acf63d5afebc581d8c980", "fusion_lat": 0.0, "name": "3813fb0fb08acf63d5afebc581d8c980", "is_reserved": 0, "rental_uris": {"android": "https://dc.lft.to/lastmile_qr_scan", "ios": "https://dc.lft.to/lastmile_qr_scan"}, "fusion_lon": 0.0}, {"lat": 38.902362, "is_disabled": 0, "type": "electric_scooter", "lon": -77.0005995, "bike_id": "133c7104238b070291f23676c771fe28", "fusion_lat": 0.0, "name": "133c7104238b070291f23676c771fe28", "is_reserved": 0, "rental_uris": {"android": "https://dc.lft.to/lastmile_qr_scan", "ios": "https://dc.lft.to/lastmile_qr_scan"}, "fusion_lon": 0.0}, {"lat": 38.92155233333333, "is_disabled": 0, "type": "electric_scooter", "lon": -77.03511866666666, "bike_id": "585d1771c760069e0266f13c33fb11e5", "fusion_lat": 0.0, "name": "585d1771c760069e0266f13c33fb11e5", "is_reserved": 0, "rental_uris": {"android": "https://dc.lft.to/lastmile_qr_scan", "ios": "https://dc.lft.to/lastmile_qr_scan"}, "fusion_lon": 0.0}, {"lat": 38.930212, "is_disabled": 0, "type": "electric_scooter", "lon": -77.04446666666666, "bike_id": "c24d212ad88484606e1db766e57877b4", "fusion_lat": 0.0, "name": "c24d212ad88484606e1db766e57877b4", "is_reserved": 0, "rental_uris": {"android": "https://dc.lft.to/lastmile_qr_scan", "ios": "https://dc.lft.to/lastmile_qr_scan"}, "fusion_lon": 0.0}, {"lat": 38.914011333333335, "is_disabled": 0, "type": "electric_scooter", "lon": -77.03159516666666, "bike_id": "15ddff53dff32d21b13372c1ea418583", "fusion_lat": 0.0, "name": "15ddff53dff32d21b13372c1ea418583", "is_reserved": 0, "rental_uris": {"android": "https://dc.lft.to/lastmile_qr_scan", "ios": "https://dc.lft.to/lastmile_qr_scan"}, "fusion_lon": 0.0}, {"lat": 38.943526, "is_disabled": 0, "type": "electric_scooter", "lon": -77.00218166666667, "bike_id": "162e925fa93f28cd6f5d7fa8cf8f5953", "fusion_lat": 0.0, "name": "162e925fa93f28cd6f5d7fa8cf8f5953", "is_reserved": 0, "rental_uris": {"android": "https://dc.lft.to/lastmile_qr_scan", "ios": "https://dc.lft.to/lastmile_qr_scan"}, "fusion_lon": 0.0}, {"lat": 38.897059, "is_disabled": 0, "type": "electric_scooter", "lon": -77.008446, "bike_id": "03d568aa43abe9cbdf446fdf1ffc2874", "fusion_lat": 0.0, "name": "03d568aa43abe9cbdf446fdf1ffc2874", "is_reserved": 0, "rental_uris": {"android": "https://dc.lft.to/lastmile_qr_scan", "ios": "https://dc.lft.to/lastmile_qr_scan"}, "fusion_lon": 0.0}, {"lat": 38.91924733333333, "is_disabled": 0, "type": "electric_scooter", "lon": -77.031837, "bike_id": "3aa542c1cfc6058fe50f1ebdf0e09e6e", "fusion_lat": 0.0, "name": "3aa542c1cfc6058fe50f1ebdf0e09e6e", "is_reserved": 0, "rental_uris": {"android": "https://dc.lft.to/lastmile_qr_scan", "ios": "https://dc.lft.to/lastmile_qr_scan"}, "fusion_lon": 0.0}, {"lat": 38.92255166666666, "is_disabled": 0, "type": "electric_scooter", "lon": -77.03142383333333, "bike_id": "5cc4f084e74678d17250931e7d2b7b5b", "fusion_lat": 0.0, "name": "5cc4f084e74678d17250931e7d2b7b5b", "is_reserved": 0, "rental_uris": {"android": "https://dc.lft.to/lastmile_qr_scan", "ios": "https://dc.lft.to/lastmile_qr_scan"}, "fusion_lon": 0.0}, {"lat": 38.897037, "is_disabled": 0, "type": "electric_scooter", "lon": -77.048764, "bike_id": "bc47a045cd01e71f00f6016d1e18ad01", "fusion_lat": 0.0, "name": "bc47a045cd01e71f00f6016d1e18ad01", "is_reserved": 0, "rental_uris": {"android": "https://dc.lft.to/lastmile_qr_scan", "ios": "https://dc.lft.to/lastmile_qr_scan"}, "fusion_lon": 0.0}, {"lat": 38.9119155, "is_disabled": 0, "type": "electric_scooter", "lon": -77.0108285, "bike_id": "addf89e312ac85d059afef196cbe955e", "fusion_lat": 0.0, "name": "addf89e312ac85d059afef196cbe955e", "is_reserved": 0, "rental_uris": {"android": "https://dc.lft.to/lastmile_qr_scan", "ios": "https://dc.lft.to/lastmile_qr_scan"}, "fusion_lon": 0.0}, {"lat": 38.9024215, "is_disabled": 0, "type": "electric_scooter", "lon": -77.00201133333333, "bike_id": "7cfb3ff80fcc96c01231a7126f4dc907", "fusion_lat": 0.0, "name": "7cfb3ff80fcc96c01231a7126f4dc907", "is_reserved": 0, "rental_uris": {"android": "https://dc.lft.to/lastmile_qr_scan", "ios": "https://dc.lft.to/lastmile_qr_scan"}, "fusion_lon": 0.0}, {"lat": 38.895528166666665, "is_disabled": 0, "type": "electric_scooter", "lon": -77.00922166666666, "bike_id": "252ecfeeef79f6998739213c873b0b50", "fusion_lat": 0.0, "name": "252ecfeeef79f6998739213c873b0b50", "is_reserved": 0, "rental_uris": {"android": "https://dc.lft.to/lastmile_qr_scan", "ios": "https://dc.lft.to/lastmile_qr_scan"}, "fusion_lon": 0.0}, {"lat": 38.9257945, "is_disabled": 0, "type": "electric_scooter", "lon": -77.0283045, "bike_id": "a2995e95d86ffece0e7ea763e4c05dea", "fusion_lat": 0.0, "name": "a2995e95d86ffece0e7ea763e4c05dea", "is_reserved": 0, "rental_uris": {"android": "https://dc.lft.to/lastmile_qr_scan", "ios": "https://dc.lft.to/lastmile_qr_scan"}, "fusion_lon": 0.0}, {"lat": 38.93259966666667, "is_disabled": 0, "type": "electric_scooter", "lon": -77.034643, "bike_id": "41c18016ab321f1b6bb1bf0f173301ec", "fusion_lat": 0.0, "name": "41c18016ab321f1b6bb1bf0f173301ec", "is_reserved": 0, "rental_uris": {"android": "https://dc.lft.to/lastmile_qr_scan", "ios": "https://dc.lft.to/lastmile_qr_scan"}, "fusion_lon": 0.0}, {"lat": 38.885470166666664, "is_disabled": 0, "type": "electric_bike", "lon": -77.1178965, "bike_id": "814c2d20b0f1d17a0355e393a0f22b5d", "fusion_lat": 0.0, "name": "814c2d20b0f1d17a0355e393a0f22b5d", "is_reserved": 0, "rental_uris": {"android": "https://dc.lft.to/lastmile_qr_scan", "ios": "https://dc.lft.to/lastmile_qr_scan"}, "fusion_lon": 0.0}, {"lat": 38.87710583333333, "is_disabled": 0, "type": "electric_scooter", "lon": -77.01768783333333, "bike_id": "d005ca337d77b5767f8bee1eec8451ff", "fusion_lat": 0.0, "name": "d005ca337d77b5767f8bee1eec8451ff", "is_reserved": 0, "rental_uris": {"android": "https://dc.lft.to/lastmile_qr_scan", "ios": "https://dc.lft.to/lastmile_qr_scan"}, "fusion_lon": 0.0}, {"lat": 38.903951666666664, "is_disabled": 0, "type": "electric_scooter", "lon": -76.99002733333333, "bike_id": "43f80acffbe738b90d70eed584591e7c", "fusion_lat": 0.0, "name": "43f80acffbe738b90d70eed584591e7c", "is_reserved": 0, "rental_uris": {"android": "https://dc.lft.to/lastmile_qr_scan", "ios": "https://dc.lft.to/lastmile_qr_scan"}, "fusion_lon": 0.0}, {"lat": 38.88607233333333, "is_disabled": 0, "type": "electric_scooter", "lon": -77.01893316666667, "bike_id": "90287948bc9f49477b08b385cbcb16f8", "fusion_lat": 0.0, "name": "90287948bc9f49477b08b385cbcb16f8", "is_reserved": 0, "rental_uris": {"android": "https://dc.lft.to/lastmile_qr_scan", "ios": "https://dc.lft.to/lastmile_qr_scan"}, "fusion_lon": 0.0}, {"lat": 38.948215, "is_disabled": 0, "type": "electric_scooter", "lon": -76.99905316666667, "bike_id": "97c7402eb4cfdf578bdf34c299084cf4", "fusion_lat": 0.0, "name": "97c7402eb4cfdf578bdf34c299084cf4", "is_reserved": 0, "rental_uris": {"android": "https://dc.lft.to/lastmile_qr_scan", "ios": "https://dc.lft.to/lastmile_qr_scan"}, "fusion_lon": 0.0}, {"lat": 38.91699766666667, "is_disabled": 0, "type": "electric_scooter", "lon": -76.97932283333333, "bike_id": "9b0f8e3ecbdd1b7fe52954cd82dc8f58", "fusion_lat": 0.0, "name": "9b0f8e3ecbdd1b7fe52954cd82dc8f58", "is_reserved": 0, "rental_uris": {"android": "https://dc.lft.to/lastmile_qr_scan", "ios": "https://dc.lft.to/lastmile_qr_scan"}, "fusion_lon": 0.0}, {"lat": 38.8951215, "is_disabled": 0, "type": "electric_scooter", "lon": -77.022023, "bike_id": "32b8c05da70ff9e928fbf66e9581e272", "fusion_lat": 0.0, "name": "32b8c05da70ff9e928fbf66e9581e272", "is_reserved": 0, "rental_uris": {"android": "https://dc.lft.to/lastmile_qr_scan", "ios": "https://dc.lft.to/lastmile_qr_scan"}, "fusion_lon": 0.0}, {"lat": 38.922081666666664, "is_disabled": 0, "type": "electric_bike", "lon": -77.08195516666666, "bike_id": "d6fdab874ba6173334c30c4402386b80", "fusion_lat": 0.0, "name": "d6fdab874ba6173334c30c4402386b80", "is_reserved": 0, "rental_uris": {"android": "https://dc.lft.to/lastmile_qr_scan", "ios": "https://dc.lft.to/lastmile_qr_scan"}, "fusion_lon": 0.0}, {"lat": 38.90619866666667, "is_disabled": 0, "type": "electric_bike", "lon": -76.98606866666667, "bike_id": "466c333e2494ba6992d73dc2b98e979f", "fusion_lat": 0.0, "name": "466c333e2494ba6992d73dc2b98e979f", "is_reserved": 0, "rental_uris": {"android": "https://dc.lft.to/lastmile_qr_scan", "ios": "https://dc.lft.to/lastmile_qr_scan"}, "fusion_lon": 0.0}, {"lat": 38.908276, "is_disabled": 0, "type": "electric_scooter", "lon": -77.02007633333334, "bike_id": "40e20a3bfb8d2e088448048efd8ac12d", "fusion_lat": 0.0, "name": "40e20a3bfb8d2e088448048efd8ac12d", "is_reserved": 0, "rental_uris": {"android": "https://dc.lft.to/lastmile_qr_scan", "ios": "https://dc.lft.to/lastmile_qr_scan"}, "fusion_lon": 0.0}, {"lat": 38.919655, "is_disabled": 0, "type": "electric_scooter", "lon": -77.01444866666667, "bike_id": "abf0f03f48ecbde244aed33846f068ff", "fusion_lat": 0.0, "name": "abf0f03f48ecbde244aed33846f068ff", "is_reserved": 0, "rental_uris": {"android": "https://dc.lft.to/lastmile_qr_scan", "ios": "https://dc.lft.to/lastmile_qr_scan"}, "fusion_lon": 0.0}, {"lat": 38.88680216666667, "is_disabled": 0, "type": "electric_bike", "lon": -77.16241616666667, "bike_id": "2a38e892f93d292b1ae94f9ec14774c0", "fusion_lat": 0.0, "name": "2a38e892f93d292b1ae94f9ec14774c0", "is_reserved": 0, "rental_uris": {"android": "https://dc.lft.to/lastmile_qr_scan", "ios": "https://dc.lft.to/lastmile_qr_scan"}, "fusion_lon": 0.0}, {"lat": 38.904159666666665, "is_disabled": 0, "type": "electric_scooter", "lon": -77.05088683333334, "bike_id": "089309cc17baf35ed864f6aeea830921", "fusion_lat": 0.0, "name": "089309cc17baf35ed864f6aeea830921", "is_reserved": 0, "rental_uris": {"android": "https://dc.lft.to/lastmile_qr_scan", "ios": "https://dc.lft.to/lastmile_qr_scan"}, "fusion_lon": 0.0}, {"lat": 38.85224633333333, "is_disabled": 0, "type": "electric_bike", "lon": -77.12963716666667, "bike_id": "573607694ca7175120873a6fc1cd8e8b", "fusion_lat": 0.0, "name": "573607694ca7175120873a6fc1cd8e8b", "is_reserved": 0, "rental_uris": {"android": "https://dc.lft.to/lastmile_qr_scan", "ios": "https://dc.lft.to/lastmile_qr_scan"}, "fusion_lon": 0.0}, {"lat": 38.8201175, "is_disabled": 0, "type": "electric_bike", "lon": -77.0576645, "bike_id": "cc7d8dfd09621ae41e53c99e11e75efb", "fusion_lat": 0.0, "name": "cc7d8dfd09621ae41e53c99e11e75efb", "is_reserved": 0, "rental_uris": {"android": "https://dc.lft.to/lastmile_qr_scan", "ios": "https://dc.lft.to/lastmile_qr_scan"}, "fusion_lon": 0.0}, {"lat": 38.885230166666666, "is_disabled": 0, "type": "electric_scooter", "lon": -77.01513733333333, "bike_id": "2eb65a7072f2652b9af4f687f596120a", "fusion_lat": 0.0, "name": "2eb65a7072f2652b9af4f687f596120a", "is_reserved": 0, "rental_uris": {"android": "https://dc.lft.to/lastmile_qr_scan", "ios": "https://dc.lft.to/lastmile_qr_scan"}, "fusion_lon": 0.0}, {"lat": 38.919153333333334, "is_disabled": 0, "type": "electric_scooter", "lon": -77.03190466666666, "bike_id": "564a63651fa931d375b8329a0600b01b", "fusion_lat": 0.0, "name": "564a63651fa931d375b8329a0600b01b", "is_reserved": 0, "rental_uris": {"android": "https://dc.lft.to/lastmile_qr_scan", "ios": "https://dc.lft.to/lastmile_qr_scan"}, "fusion_lon": 0.0}, {"lat": 38.90571633333333, "is_disabled": 0, "type": "electric_scooter", "lon": -77.02173933333333, "bike_id": "6e03f7fcc984757bd0fe7388ed8aa3ad", "fusion_lat": 0.0, "name": "6e03f7fcc984757bd0fe7388ed8aa3ad", "is_reserved": 0, "rental_uris": {"android": "https://dc.lft.to/lastmile_qr_scan", "ios": "https://dc.lft.to/lastmile_qr_scan"}, "fusion_lon": 0.0}, {"lat": 38.865222333333335, "is_disabled": 0, "type": "electric_scooter", "lon": -76.99030366666666, "bike_id": "06173b0501253924af2af9d91939dde4", "fusion_lat": 0.0, "name": "06173b0501253924af2af9d91939dde4", "is_reserved": 0, "rental_uris": {"android": "https://dc.lft.to/lastmile_qr_scan", "ios": "https://dc.lft.to/lastmile_qr_scan"}, "fusion_lon": 0.0}, {"lat": 38.92466, "is_disabled": 0, "type": "electric_scooter", "lon": -77.03538283333333, "bike_id": "6dab2ae475bb8dbd379469d6dc1bea94", "fusion_lat": 0.0, "name": "6dab2ae475bb8dbd379469d6dc1bea94", "is_reserved": 0, "rental_uris": {"android": "https://dc.lft.to/lastmile_qr_scan", "ios": "https://dc.lft.to/lastmile_qr_scan"}, "fusion_lon": 0.0}, {"lat": 38.90990583333333, "is_disabled": 0, "type": "electric_scooter", "lon": -77.04008433333334, "bike_id": "fea4e038a303aa0e20c13e9d457e2b3b", "fusion_lat": 0.0, "name": "fea4e038a303aa0e20c13e9d457e2b3b", "is_reserved": 0, "rental_uris": {"android": "https://dc.lft.to/lastmile_qr_scan", "ios": "https://dc.lft.to/lastmile_qr_scan"}, "fusion_lon": 0.0}, {"lat": 38.914035166666665, "is_disabled": 0, "type": "electric_scooter", "lon": -77.03185833333333, "bike_id": "4b6d87c6b3aae32b2d9b65c2f378d4a4", "fusion_lat": 0.0, "name": "4b6d87c6b3aae32b2d9b65c2f378d4a4", "is_reserved": 0, "rental_uris": {"android": "https://dc.lft.to/lastmile_qr_scan", "ios": "https://dc.lft.to/lastmile_qr_scan"}, "fusion_lon": 0.0}, {"lat": 38.921716, "is_disabled": 0, "type": "electric_scooter", "lon": -77.04024183333334, "bike_id": "6fe86479bdb4d770e07276971c9e0cc9", "fusion_lat": 0.0, "name": "6fe86479bdb4d770e07276971c9e0cc9", "is_reserved": 0, "rental_uris": {"android": "https://dc.lft.to/lastmile_qr_scan", "ios": "https://dc.lft.to/lastmile_qr_scan"}, "fusion_lon": 0.0}, {"lat": 38.89224, "is_disabled": 0, "type": "electric_scooter", "lon": -77.04864266666667, "bike_id": "18bb6100bfb974828dfb307208f7a5c3", "fusion_lat": 0.0, "name": "18bb6100bfb974828dfb307208f7a5c3", "is_reserved": 0, "rental_uris": {"android": "https://dc.lft.to/lastmile_qr_scan", "ios": "https://dc.lft.to/lastmile_qr_scan"}, "fusion_lon": 0.0}, {"lat": 38.95752616666667, "is_disabled": 0, "type": "electric_bike", "lon": -77.02174816666667, "bike_id": "3c307b1afeeafc756f3853890197b7f0", "fusion_lat": 0.0, "name": "3c307b1afeeafc756f3853890197b7f0", "is_reserved": 0, "rental_uris": {"android": "https://dc.lft.to/lastmile_qr_scan", "ios": "https://dc.lft.to/lastmile_qr_scan"}, "fusion_lon": 0.0}, {"lat": 38.91595783333333, "is_disabled": 0, "type": "electric_scooter", "lon": -77.01587716666667, "bike_id": "a16d164adafc9cb8b0a8bd11b210f086", "fusion_lat": 0.0, "name": "a16d164adafc9cb8b0a8bd11b210f086", "is_reserved": 0, "rental_uris": {"android": "https://dc.lft.to/lastmile_qr_scan", "ios": "https://dc.lft.to/lastmile_qr_scan"}, "fusion_lon": 0.0}, {"lat": 38.8922115, "is_disabled": 0, "type": "electric_scooter", "lon": -77.02627016666666, "bike_id": "bf8eb5962822d791f08964f5ec6e28fb", "fusion_lat": 0.0, "name": "bf8eb5962822d791f08964f5ec6e28fb", "is_reserved": 0, "rental_uris": {"android": "https://dc.lft.to/lastmile_qr_scan", "ios": "https://dc.lft.to/lastmile_qr_scan"}, "fusion_lon": 0.0}, {"lat": 38.8659115, "is_disabled": 0, "type": "electric_bike", "lon": -76.93232433333333, "bike_id": "5dcee4e9d5e7a44b8fa7009c4e9de963", "fusion_lat": 0.0, "name": "5dcee4e9d5e7a44b8fa7009c4e9de963", "is_reserved": 0, "rental_uris": {"android": "https://dc.lft.to/lastmile_qr_scan", "ios": "https://dc.lft.to/lastmile_qr_scan"}, "fusion_lon": 0.0}, {"lat": 38.91759883333334, "is_disabled": 0, "type": "electric_scooter", "lon": -77.00455983333333, "bike_id": "950db2c0c34b9bb64d1269ade63b073c", "fusion_lat": 0.0, "name": "950db2c0c34b9bb64d1269ade63b073c", "is_reserved": 0, "rental_uris": {"android": "https://dc.lft.to/lastmile_qr_scan", "ios": "https://dc.lft.to/lastmile_qr_scan"}, "fusion_lon": 0.0}, {"lat": 38.89219416666667, "is_disabled": 0, "type": "electric_scooter", "lon": -77.02628966666667, "bike_id": "048b1fd9b6156539216967780a5c8039", "fusion_lat": 0.0, "name": "048b1fd9b6156539216967780a5c8039", "is_reserved": 0, "rental_uris": {"android": "https://dc.lft.to/lastmile_qr_scan", "ios": "https://dc.lft.to/lastmile_qr_scan"}, "fusion_lon": 0.0}, {"lat": 38.93225666666667, "is_disabled": 0, "type": "electric_scooter", "lon": -77.0441575, "bike_id": "b336c7b304d8b3124027228ab8e6a54b", "fusion_lat": 0.0, "name": "b336c7b304d8b3124027228ab8e6a54b", "is_reserved": 0, "rental_uris": {"android": "https://dc.lft.to/lastmile_qr_scan", "ios": "https://dc.lft.to/lastmile_qr_scan"}, "fusion_lon": 0.0}, {"lat": 38.94989316666667, "is_disabled": 0, "type": "electric_bike", "lon": -77.02959916666667, "bike_id": "d7c5193f10b81c309392631c3e29f93e", "fusion_lat": 0.0, "name": "d7c5193f10b81c309392631c3e29f93e", "is_reserved": 0, "rental_uris": {"android": "https://dc.lft.to/lastmile_qr_scan", "ios": "https://dc.lft.to/lastmile_qr_scan"}, "fusion_lon": 0.0}, {"lat": 38.915830166666666, "is_disabled": 0, "type": "electric_scooter", "lon": -77.04490933333334, "bike_id": "fe9458118876d7e80fb7ff19d7c9dc08", "fusion_lat": 0.0, "name": "fe9458118876d7e80fb7ff19d7c9dc08", "is_reserved": 0, "rental_uris": {"android": "https://dc.lft.to/lastmile_qr_scan", "ios": "https://dc.lft.to/lastmile_qr_scan"}, "fusion_lon": 0.0}, {"lat": 38.89251866666667, "is_disabled": 0, "type": "electric_scooter", "lon": -77.04892033333333, "bike_id": "0faa90650501c4bf121f3d0cd4e0fc47", "fusion_lat": 0.0, "name": "0faa90650501c4bf121f3d0cd4e0fc47", "is_reserved": 0, "rental_uris": {"android": "https://dc.lft.to/lastmile_qr_scan", "ios": "https://dc.lft.to/lastmile_qr_scan"}, "fusion_lon": 0.0}, {"lat": 38.896182833333334, "is_disabled": 0, "type": "electric_scooter", "lon": -77.03166666666667, "bike_id": "34d28f968151964f56693284a79a25cb", "fusion_lat": 0.0, "name": "34d28f968151964f56693284a79a25cb", "is_reserved": 0, "rental_uris": {"android": "https://dc.lft.to/lastmile_qr_scan", "ios": "https://dc.lft.to/lastmile_qr_scan"}, "fusion_lon": 0.0}, {"lat": 38.92106233333333, "is_disabled": 0, "type": "electric_scooter", "lon": -77.0436895, "bike_id": "3154ad31812da318f2609962e1081d27", "fusion_lat": 0.0, "name": "3154ad31812da318f2609962e1081d27", "is_reserved": 0, "rental_uris": {"android": "https://dc.lft.to/lastmile_qr_scan", "ios": "https://dc.lft.to/lastmile_qr_scan"}, "fusion_lon": 0.0}, {"lat": 38.9070285, "is_disabled": 0, "type": "electric_scooter", "lon": -77.03624533333333, "bike_id": "e423038cba50cd7c252d2e3deecc4e9d", "fusion_lat": 0.0, "name": "e423038cba50cd7c252d2e3deecc4e9d", "is_reserved": 0, "rental_uris": {"android": "https://dc.lft.to/lastmile_qr_scan", "ios": "https://dc.lft.to/lastmile_qr_scan"}, "fusion_lon": 0.0}, {"lat": 38.898296333333334, "is_disabled": 0, "type": "electric_scooter", "lon": -76.931033, "bike_id": "32bf05dfd9c6e3f632c39a4fbf9fd12f", "fusion_lat": 0.0, "name": "32bf05dfd9c6e3f632c39a4fbf9fd12f", "is_reserved": 0, "rental_uris": {"android": "https://dc.lft.to/lastmile_qr_scan", "ios": "https://dc.lft.to/lastmile_qr_scan"}, "fusion_lon": 0.0}, {"lat": 38.90035833333334, "is_disabled": 0, "type": "electric_scooter", "lon": -76.9982025, "bike_id": "7f3e90516de5fd4d8b29506a2698c16f", "fusion_lat": 0.0, "name": "7f3e90516de5fd4d8b29506a2698c16f", "is_reserved": 0, "rental_uris": {"android": "https://dc.lft.to/lastmile_qr_scan", "ios": "https://dc.lft.to/lastmile_qr_scan"}, "fusion_lon": 0.0}, {"lat": 38.9168865, "is_disabled": 0, "type": "electric_scooter", "lon": -77.02956683333333, "bike_id": "d0f357e4da61e113a600bfc06c1bba27", "fusion_lat": 0.0, "name": "d0f357e4da61e113a600bfc06c1bba27", "is_reserved": 0, "rental_uris": {"android": "https://dc.lft.to/lastmile_qr_scan", "ios": "https://dc.lft.to/lastmile_qr_scan"}, "fusion_lon": 0.0}, {"lat": 38.96929, "is_disabled": 0, "type": "electric_bike", "lon": -77.026197, "bike_id": "e180973a09956b1d1c2c8894bf7a0c47", "fusion_lat": 0.0, "name": "e180973a09956b1d1c2c8894bf7a0c47", "is_reserved": 0, "rental_uris": {"android": "https://dc.lft.to/lastmile_qr_scan", "ios": "https://dc.lft.to/lastmile_qr_scan"}, "fusion_lon": 0.0}, {"lat": 38.93084, "is_disabled": 0, "type": "electric_scooter", "lon": -77.02563, "bike_id": "df3f16a4051a265a977ad2994e3239ae", "fusion_lat": 0.0, "name": "df3f16a4051a265a977ad2994e3239ae", "is_reserved": 0, "rental_uris": {"android": "https://dc.lft.to/lastmile_qr_scan", "ios": "https://dc.lft.to/lastmile_qr_scan"}, "fusion_lon": 0.0}, {"lat": 38.91173916666666, "is_disabled": 0, "type": "electric_scooter", "lon": -77.00654966666667, "bike_id": "37a076cd88a3ff140da9308c5ac2c584", "fusion_lat": 0.0, "name": "37a076cd88a3ff140da9308c5ac2c584", "is_reserved": 0, "rental_uris": {"android": "https://dc.lft.to/lastmile_qr_scan", "ios": "https://dc.lft.to/lastmile_qr_scan"}, "fusion_lon": 0.0}, {"lat": 38.92504916666667, "is_disabled": 0, "type": "electric_bike", "lon": -76.98232883333333, "bike_id": "9e016bdee3789e03df245a9fe4df5b5a", "fusion_lat": 0.0, "name": "9e016bdee3789e03df245a9fe4df5b5a", "is_reserved": 0, "rental_uris": {"android": "https://dc.lft.to/lastmile_qr_scan", "ios": "https://dc.lft.to/lastmile_qr_scan"}, "fusion_lon": 0.0}, {"lat": 38.905745833333334, "is_disabled": 0, "type": "electric_scooter", "lon": -77.02487616666667, "bike_id": "cd48e82e30be2bd0bdddf223528e9f86", "fusion_lat": 0.0, "name": "cd48e82e30be2bd0bdddf223528e9f86", "is_reserved": 0, "rental_uris": {"android": "https://dc.lft.to/lastmile_qr_scan", "ios": "https://dc.lft.to/lastmile_qr_scan"}, "fusion_lon": 0.0}, {"lat": 38.899947833333336, "is_disabled": 0, "type": "electric_scooter", "lon": -77.0269745, "bike_id": "871f40fe2671541323640997ed6cc242", "fusion_lat": 0.0, "name": "871f40fe2671541323640997ed6cc242", "is_reserved": 0, "rental_uris": {"android": "https://dc.lft.to/lastmile_qr_scan", "ios": "https://dc.lft.to/lastmile_qr_scan"}, "fusion_lon": 0.0}, {"lat": 38.9003925, "is_disabled": 0, "type": "electric_scooter", "lon": -77.03307133333334, "bike_id": "6cfd73b6dcaede26e84deb114ac2af9e", "fusion_lat": 0.0, "name": "6cfd73b6dcaede26e84deb114ac2af9e", "is_reserved": 0, "rental_uris": {"android": "https://dc.lft.to/lastmile_qr_scan", "ios": "https://dc.lft.to/lastmile_qr_scan"}, "fusion_lon": 0.0}, {"lat": 38.91767933333333, "is_disabled": 0, "type": "electric_scooter", "lon": -77.031863, "bike_id": "d19020a835f40e24f8c2aa9e84f01307", "fusion_lat": 0.0, "name": "d19020a835f40e24f8c2aa9e84f01307", "is_reserved": 0, "rental_uris": {"android": "https://dc.lft.to/lastmile_qr_scan", "ios": "https://dc.lft.to/lastmile_qr_scan"}, "fusion_lon": 0.0}, {"lat": 38.9006585, "is_disabled": 0, "type": "electric_scooter", "lon": -77.00205683333333, "bike_id": "9118035325191b3490070724c051f922", "fusion_lat": 0.0, "name": "9118035325191b3490070724c051f922", "is_reserved": 0, "rental_uris": {"android": "https://dc.lft.to/lastmile_qr_scan", "ios": "https://dc.lft.to/lastmile_qr_scan"}, "fusion_lon": 0.0}, {"lat": 38.85086033333333, "is_disabled": 0, "type": "electric_bike", "lon": -76.95680866666666, "bike_id": "1cb3e2dd50e1e1f0bfbc5b2809b0b420", "fusion_lat": 0.0, "name": "1cb3e2dd50e1e1f0bfbc5b2809b0b420", "is_reserved": 0, "rental_uris": {"android": "https://dc.lft.to/lastmile_qr_scan", "ios": "https://dc.lft.to/lastmile_qr_scan"}, "fusion_lon": 0.0}, {"lat": 38.90572383333333, "is_disabled": 0, "type": "electric_scooter", "lon": -77.04653716666667, "bike_id": "8a02da794a93ac39396ccfced8e11959", "fusion_lat": 0.0, "name": "8a02da794a93ac39396ccfced8e11959", "is_reserved": 0, "rental_uris": {"android": "https://dc.lft.to/lastmile_qr_scan", "ios": "https://dc.lft.to/lastmile_qr_scan"}, "fusion_lon": 0.0}, {"lat": 38.904054333333335, "is_disabled": 0, "type": "electric_scooter", "lon": -76.98511, "bike_id": "b550f7fba30ce4853195aa2fa73eb0f1", "fusion_lat": 0.0, "name": "b550f7fba30ce4853195aa2fa73eb0f1", "is_reserved": 0, "rental_uris": {"android": "https://dc.lft.to/lastmile_qr_scan", "ios": "https://dc.lft.to/lastmile_qr_scan"}, "fusion_lon": 0.0}, {"lat": 38.925269, "is_disabled": 0, "type": "electric_scooter", "lon": -77.04139366666666, "bike_id": "9e5578c5085b2e41e1345ed5b408a7ac", "fusion_lat": 0.0, "name": "9e5578c5085b2e41e1345ed5b408a7ac", "is_reserved": 0, "rental_uris": {"android": "https://dc.lft.to/lastmile_qr_scan", "ios": "https://dc.lft.to/lastmile_qr_scan"}, "fusion_lon": 0.0}, {"lat": 38.8537585, "is_disabled": 0, "type": "electric_bike", "lon": -77.12424116666666, "bike_id": "2b0de1755e4d49b4635456509986939e", "fusion_lat": 0.0, "name": "2b0de1755e4d49b4635456509986939e", "is_reserved": 0, "rental_uris": {"android": "https://dc.lft.to/lastmile_qr_scan", "ios": "https://dc.lft.to/lastmile_qr_scan"}, "fusion_lon": 0.0}, {"lat": 38.89994933333333, "is_disabled": 0, "type": "electric_scooter", "lon": -77.0526545, "bike_id": "bf5632066b29c34e7e9321138858b564", "fusion_lat": 0.0, "name": "bf5632066b29c34e7e9321138858b564", "is_reserved": 0, "rental_uris": {"android": "https://dc.lft.to/lastmile_qr_scan", "ios": "https://dc.lft.to/lastmile_qr_scan"}, "fusion_lon": 0.0}, {"lat": 38.89452516666667, "is_disabled": 0, "type": "electric_scooter", "lon": -77.0269885, "bike_id": "8b062b0ed504a52d488cbe55a1deefb1", "fusion_lat": 0.0, "name": "8b062b0ed504a52d488cbe55a1deefb1", "is_reserved": 0, "rental_uris": {"android": "https://dc.lft.to/lastmile_qr_scan", "ios": "https://dc.lft.to/lastmile_qr_scan"}, "fusion_lon": 0.0}, {"lat": 38.89583616666667, "is_disabled": 0, "type": "electric_scooter", "lon": -76.981805, "bike_id": "60143c2c3833ea52ca18d62d1d82841d", "fusion_lat": 0.0, "name": "60143c2c3833ea52ca18d62d1d82841d", "is_reserved": 0, "rental_uris": {"android": "https://dc.lft.to/lastmile_qr_scan", "ios": "https://dc.lft.to/lastmile_qr_scan"}, "fusion_lon": 0.0}, {"lat": 38.902363333333334, "is_disabled": 0, "type": "electric_scooter", "lon": -77.043707, "bike_id": "3d6d171277bf86c6f1275c0f44381526", "fusion_lat": 0.0, "name": "3d6d171277bf86c6f1275c0f44381526", "is_reserved": 0, "rental_uris": {"android": "https://dc.lft.to/lastmile_qr_scan", "ios": "https://dc.lft.to/lastmile_qr_scan"}, "fusion_lon": 0.0}, {"lat": 38.92608333333333, "is_disabled": 0, "type": "electric_bike", "lon": -77.02434116666667, "bike_id": "9ca55f4c597e3d65e3c9389b9d4629ad", "fusion_lat": 0.0, "name": "9ca55f4c597e3d65e3c9389b9d4629ad", "is_reserved": 0, "rental_uris": {"android": "https://dc.lft.to/lastmile_qr_scan", "ios": "https://dc.lft.to/lastmile_qr_scan"}, "fusion_lon": 0.0}, {"lat": 38.92109166666667, "is_disabled": 0, "type": "electric_scooter", "lon": -77.0317575, "bike_id": "b73bcfb789c04621bc051aba018359c5", "fusion_lat": 0.0, "name": "b73bcfb789c04621bc051aba018359c5", "is_reserved": 0, "rental_uris": {"android": "https://dc.lft.to/lastmile_qr_scan", "ios": "https://dc.lft.to/lastmile_qr_scan"}, "fusion_lon": 0.0}, {"lat": 38.94980266666666, "is_disabled": 0, "type": "electric_scooter", "lon": -77.066959, "bike_id": "eb6b5538f1468c90d62c1309dd74b343", "fusion_lat": 0.0, "name": "eb6b5538f1468c90d62c1309dd74b343", "is_reserved": 0, "rental_uris": {"android": "https://dc.lft.to/lastmile_qr_scan", "ios": "https://dc.lft.to/lastmile_qr_scan"}, "fusion_lon": 0.0}, {"lat": 38.931995666666666, "is_disabled": 0, "type": "electric_scooter", "lon": -77.02355866666667, "bike_id": "55eb182c4def3fe23ab53a65ab29c5b2", "fusion_lat": 0.0, "name": "55eb182c4def3fe23ab53a65ab29c5b2", "is_reserved": 0, "rental_uris": {"android": "https://dc.lft.to/lastmile_qr_scan", "ios": "https://dc.lft.to/lastmile_qr_scan"}, "fusion_lon": 0.0}, {"lat": 38.93529233333334, "is_disabled": 0, "type": "electric_scooter", "lon": -77.03415083333333, "bike_id": "a6d01efe5899e064508bd60403580c45", "fusion_lat": 0.0, "name": "a6d01efe5899e064508bd60403580c45", "is_reserved": 0, "rental_uris": {"android": "https://dc.lft.to/lastmile_qr_scan", "ios": "https://dc.lft.to/lastmile_qr_scan"}, "fusion_lon": 0.0}, {"lat": 38.91697033333333, "is_disabled": 0, "type": "electric_scooter", "lon": -77.039771, "bike_id": "186bf4146e799a84df499e177f56602a", "fusion_lat": 0.0, "name": "186bf4146e799a84df499e177f56602a", "is_reserved": 0, "rental_uris": {"android": "https://dc.lft.to/lastmile_qr_scan", "ios": "https://dc.lft.to/lastmile_qr_scan"}, "fusion_lon": 0.0}, {"lat": 38.9146765, "is_disabled": 0, "type": "electric_scooter", "lon": -77.03217633333334, "bike_id": "ea8fa08486aee112cf24c481a916583f", "fusion_lat": 0.0, "name": "ea8fa08486aee112cf24c481a916583f", "is_reserved": 0, "rental_uris": {"android": "https://dc.lft.to/lastmile_qr_scan", "ios": "https://dc.lft.to/lastmile_qr_scan"}, "fusion_lon": 0.0}, {"lat": 38.87681633333333, "is_disabled": 0, "type": "electric_scooter", "lon": -77.01793066666667, "bike_id": "bf9eba19b57ebca35d31605330c4ca44", "fusion_lat": 0.0, "name": "bf9eba19b57ebca35d31605330c4ca44", "is_reserved": 0, "rental_uris": {"android": "https://dc.lft.to/lastmile_qr_scan", "ios": "https://dc.lft.to/lastmile_qr_scan"}, "fusion_lon": 0.0}, {"lat": 38.89552666666667, "is_disabled": 0, "type": "electric_scooter", "lon": -76.93376466666666, "bike_id": "4b22d9a66962e60326cafa330d563ac4", "fusion_lat": 0.0, "name": "4b22d9a66962e60326cafa330d563ac4", "is_reserved": 0, "rental_uris": {"android": "https://dc.lft.to/lastmile_qr_scan", "ios": "https://dc.lft.to/lastmile_qr_scan"}, "fusion_lon": 0.0}, {"lat": 38.938799, "is_disabled": 0, "type": "electric_scooter", "lon": -77.03264116666666, "bike_id": "c5b0343d91414b712ab44b6138fc6017", "fusion_lat": 0.0, "name": "c5b0343d91414b712ab44b6138fc6017", "is_reserved": 0, "rental_uris": {"android": "https://dc.lft.to/lastmile_qr_scan", "ios": "https://dc.lft.to/lastmile_qr_scan"}, "fusion_lon": 0.0}, {"lat": 38.91551116666667, "is_disabled": 0, "type": "electric_scooter", "lon": -77.03503266666667, "bike_id": "b285e2f8c76a10955ab4fa87d7576e47", "fusion_lat": 0.0, "name": "b285e2f8c76a10955ab4fa87d7576e47", "is_reserved": 0, "rental_uris": {"android": "https://dc.lft.to/lastmile_qr_scan", "ios": "https://dc.lft.to/lastmile_qr_scan"}, "fusion_lon": 0.0}, {"lat": 38.926604833333336, "is_disabled": 0, "type": "electric_scooter", "lon": -77.05598966666666, "bike_id": "1d38ae5edf049649a81012e9ab64326d", "fusion_lat": 0.0, "name": "1d38ae5edf049649a81012e9ab64326d", "is_reserved": 0, "rental_uris": {"android": "https://dc.lft.to/lastmile_qr_scan", "ios": "https://dc.lft.to/lastmile_qr_scan"}, "fusion_lon": 0.0}, {"lat": 38.923305166666665, "is_disabled": 0, "type": "electric_scooter", "lon": -77.0297295, "bike_id": "9eb62b25a2ccf10c606cfe0d2c53d27d", "fusion_lat": 0.0, "name": "9eb62b25a2ccf10c606cfe0d2c53d27d", "is_reserved": 0, "rental_uris": {"android": "https://dc.lft.to/lastmile_qr_scan", "ios": "https://dc.lft.to/lastmile_qr_scan"}, "fusion_lon": 0.0}, {"lat": 38.9170885, "is_disabled": 0, "type": "electric_scooter", "lon": -77.04681383333333, "bike_id": "d4572e48856478c5ae8bbfddf426b4cb", "fusion_lat": 0.0, "name": "d4572e48856478c5ae8bbfddf426b4cb", "is_reserved": 0, "rental_uris": {"android": "https://dc.lft.to/lastmile_qr_scan", "ios": "https://dc.lft.to/lastmile_qr_scan"}, "fusion_lon": 0.0}, {"lat": 38.91812633333333, "is_disabled": 0, "type": "electric_scooter", "lon": -77.041754, "bike_id": "1cb63e8c97777391771b7da45b1de11e", "fusion_lat": 0.0, "name": "1cb63e8c97777391771b7da45b1de11e", "is_reserved": 0, "rental_uris": {"android": "https://dc.lft.to/lastmile_qr_scan", "ios": "https://dc.lft.to/lastmile_qr_scan"}, "fusion_lon": 0.0}, {"lat": 38.931089166666666, "is_disabled": 0, "type": "electric_scooter", "lon": -77.03843433333333, "bike_id": "c538f485e6b8d2af3b56c39d56976308", "fusion_lat": 0.0, "name": "c538f485e6b8d2af3b56c39d56976308", "is_reserved": 0, "rental_uris": {"android": "https://dc.lft.to/lastmile_qr_scan", "ios": "https://dc.lft.to/lastmile_qr_scan"}, "fusion_lon": 0.0}, {"lat": 38.8849295, "is_disabled": 0, "type": "electric_scooter", "lon": -77.00710983333333, "bike_id": "153b7304592cf09f6ecd3f733fa7ef85", "fusion_lat": 0.0, "name": "153b7304592cf09f6ecd3f733fa7ef85", "is_reserved": 0, "rental_uris": {"android": "https://dc.lft.to/lastmile_qr_scan", "ios": "https://dc.lft.to/lastmile_qr_scan"}, "fusion_lon": 0.0}, {"lat": 38.807511, "is_disabled": 0, "type": "electric_bike", "lon": -77.09457416666666, "bike_id": "2fae4d665717108c1b0cd75ed4c2140a", "fusion_lat": 0.0, "name": "2fae4d665717108c1b0cd75ed4c2140a", "is_reserved": 0, "rental_uris": {"android": "https://dc.lft.to/lastmile_qr_scan", "ios": "https://dc.lft.to/lastmile_qr_scan"}, "fusion_lon": 0.0}, {"lat": 38.9246885, "is_disabled": 0, "type": "electric_scooter", "lon": -77.02717216666667, "bike_id": "c33b8499759f119c5921560ac042efbe", "fusion_lat": 0.0, "name": "c33b8499759f119c5921560ac042efbe", "is_reserved": 0, "rental_uris": {"android": "https://dc.lft.to/lastmile_qr_scan", "ios": "https://dc.lft.to/lastmile_qr_scan"}, "fusion_lon": 0.0}, {"lat": 38.915539833333334, "is_disabled": 0, "type": "electric_scooter", "lon": -77.04189133333334, "bike_id": "7d3f897d35ac7b65c57df46ee084830f", "fusion_lat": 0.0, "name": "7d3f897d35ac7b65c57df46ee084830f", "is_reserved": 0, "rental_uris": {"android": "https://dc.lft.to/lastmile_qr_scan", "ios": "https://dc.lft.to/lastmile_qr_scan"}, "fusion_lon": 0.0}, {"lat": 38.9164525, "is_disabled": 0, "type": "electric_scooter", "lon": -77.03848833333333, "bike_id": "cfb0efc875d6a53b8e9682b5ef8a30e5", "fusion_lat": 0.0, "name": "cfb0efc875d6a53b8e9682b5ef8a30e5", "is_reserved": 0, "rental_uris": {"android": "https://dc.lft.to/lastmile_qr_scan", "ios": "https://dc.lft.to/lastmile_qr_scan"}, "fusion_lon": 0.0}, {"lat": 39.029344333333334, "is_disabled": 0, "type": "electric_bike", "lon": -77.04926966666666, "bike_id": "67df49d03f4af098106780e2c969ae98", "fusion_lat": 0.0, "name": "67df49d03f4af098106780e2c969ae98", "is_reserved": 0, "rental_uris": {"android": "https://dc.lft.to/lastmile_qr_scan", "ios": "https://dc.lft.to/lastmile_qr_scan"}, "fusion_lon": 0.0}, {"lat": 38.922352833333335, "is_disabled": 0, "type": "electric_scooter", "lon": -77.04250016666667, "bike_id": "bd71bcb5c71ca18008a265cb744b496a", "fusion_lat": 0.0, "name": "bd71bcb5c71ca18008a265cb744b496a", "is_reserved": 0, "rental_uris": {"android": "https://dc.lft.to/lastmile_qr_scan", "ios": "https://dc.lft.to/lastmile_qr_scan"}, "fusion_lon": 0.0}, {"lat": 38.89216316666667, "is_disabled": 0, "type": "electric_scooter", "lon": -76.995838, "bike_id": "bbaa912bf94c4cb810ddac3311d0dde3", "fusion_lat": 0.0, "name": "bbaa912bf94c4cb810ddac3311d0dde3", "is_reserved": 0, "rental_uris": {"android": "https://dc.lft.to/lastmile_qr_scan", "ios": "https://dc.lft.to/lastmile_qr_scan"}, "fusion_lon": 0.0}, {"lat": 38.863851333333336, "is_disabled": 0, "type": "electric_bike", "lon": -76.9899055, "bike_id": "e1f108c917c4a6214d9477ee5d0e8da0", "fusion_lat": 0.0, "name": "e1f108c917c4a6214d9477ee5d0e8da0", "is_reserved": 0, "rental_uris": {"android": "https://dc.lft.to/lastmile_qr_scan", "ios": "https://dc.lft.to/lastmile_qr_scan"}, "fusion_lon": 0.0}, {"lat": 38.892224666666664, "is_disabled": 0, "type": "electric_scooter", "lon": -77.02778983333333, "bike_id": "6f03d82ce297f165d8cd04cbb120e042", "fusion_lat": 0.0, "name": "6f03d82ce297f165d8cd04cbb120e042", "is_reserved": 0, "rental_uris": {"android": "https://dc.lft.to/lastmile_qr_scan", "ios": "https://dc.lft.to/lastmile_qr_scan"}, "fusion_lon": 0.0}, {"lat": 38.9178725, "is_disabled": 0, "type": "electric_scooter", "lon": -77.0229245, "bike_id": "90540322a6f600ba2747614fedc9a46e", "fusion_lat": 0.0, "name": "90540322a6f600ba2747614fedc9a46e", "is_reserved": 0, "rental_uris": {"android": "https://dc.lft.to/lastmile_qr_scan", "ios": "https://dc.lft.to/lastmile_qr_scan"}, "fusion_lon": 0.0}, {"lat": 38.934633833333336, "is_disabled": 0, "type": "electric_scooter", "lon": -77.06191033333333, "bike_id": "913fd7c04618e64e1e4d4f40b7406522", "fusion_lat": 0.0, "name": "913fd7c04618e64e1e4d4f40b7406522", "is_reserved": 0, "rental_uris": {"android": "https://dc.lft.to/lastmile_qr_scan", "ios": "https://dc.lft.to/lastmile_qr_scan"}, "fusion_lon": 0.0}, {"lat": 38.915657, "is_disabled": 0, "type": "electric_scooter", "lon": -77.031735, "bike_id": "877382def62e4bdfd1de26a05108a2c4", "fusion_lat": 0.0, "name": "877382def62e4bdfd1de26a05108a2c4", "is_reserved": 0, "rental_uris": {"android": "https://dc.lft.to/lastmile_qr_scan", "ios": "https://dc.lft.to/lastmile_qr_scan"}, "fusion_lon": 0.0}, {"lat": 38.88755483333333, "is_disabled": 0, "type": "electric_scooter", "lon": -77.03225283333333, "bike_id": "d2e6789d540ea1e19e34c233c7e338c8", "fusion_lat": 0.0, "name": "d2e6789d540ea1e19e34c233c7e338c8", "is_reserved": 0, "rental_uris": {"android": "https://dc.lft.to/lastmile_qr_scan", "ios": "https://dc.lft.to/lastmile_qr_scan"}, "fusion_lon": 0.0}, {"lat": 38.95356983333333, "is_disabled": 0, "type": "electric_bike", "lon": -76.98096, "bike_id": "3a5939bd5476b63279cfd7ffd2d3d996", "fusion_lat": 0.0, "name": "3a5939bd5476b63279cfd7ffd2d3d996", "is_reserved": 0, "rental_uris": {"android": "https://dc.lft.to/lastmile_qr_scan", "ios": "https://dc.lft.to/lastmile_qr_scan"}, "fusion_lon": 0.0}, {"lat": 38.941727, "is_disabled": 0, "type": "electric_scooter", "lon": -77.0413755, "bike_id": "2a789fe5cdbb2d81c6f2591b848b10c7", "fusion_lat": 0.0, "name": "2a789fe5cdbb2d81c6f2591b848b10c7", "is_reserved": 0, "rental_uris": {"android": "https://dc.lft.to/lastmile_qr_scan", "ios": "https://dc.lft.to/lastmile_qr_scan"}, "fusion_lon": 0.0}, {"lat": 38.865674166666665, "is_disabled": 0, "type": "electric_scooter", "lon": -76.97397783333334, "bike_id": "ac0ac7385255142758a20955271d2cd1", "fusion_lat": 0.0, "name": "ac0ac7385255142758a20955271d2cd1", "is_reserved": 0, "rental_uris": {"android": "https://dc.lft.to/lastmile_qr_scan", "ios": "https://dc.lft.to/lastmile_qr_scan"}, "fusion_lon": 0.0}, {"lat": 39.000148833333334, "is_disabled": 0, "type": "electric_bike", "lon": -76.91086433333334, "bike_id": "0b5f2d44dfd1ecb5e885f18aa0425ae4", "fusion_lat": 0.0, "name": "0b5f2d44dfd1ecb5e885f18aa0425ae4", "is_reserved": 0, "rental_uris": {"android": "https://dc.lft.to/lastmile_qr_scan", "ios": "https://dc.lft.to/lastmile_qr_scan"}, "fusion_lon": 0.0}, {"lat": 38.9110145, "is_disabled": 0, "type": "electric_scooter", "lon": -77.03186966666667, "bike_id": "4006434afbd0e08f4649f4aa828c2a02", "fusion_lat": 0.0, "name": "4006434afbd0e08f4649f4aa828c2a02", "is_reserved": 0, "rental_uris": {"android": "https://dc.lft.to/lastmile_qr_scan", "ios": "https://dc.lft.to/lastmile_qr_scan"}, "fusion_lon": 0.0}, {"lat": 38.897524, "is_disabled": 0, "type": "electric_scooter", "lon": -77.026912, "bike_id": "a0d8b9561bf4b55e51c763cbfd72ddbc", "fusion_lat": 0.0, "name": "a0d8b9561bf4b55e51c763cbfd72ddbc", "is_reserved": 0, "rental_uris": {"android": "https://dc.lft.to/lastmile_qr_scan", "ios": "https://dc.lft.to/lastmile_qr_scan"}, "fusion_lon": 0.0}, {"lat": 38.8954995, "is_disabled": 0, "type": "electric_scooter", "lon": -77.0043895, "bike_id": "198293113f183302b027ed82166b90e3", "fusion_lat": 0.0, "name": "198293113f183302b027ed82166b90e3", "is_reserved": 0, "rental_uris": {"android": "https://dc.lft.to/lastmile_qr_scan", "ios": "https://dc.lft.to/lastmile_qr_scan"}, "fusion_lon": 0.0}, {"lat": 38.935341333333334, "is_disabled": 0, "type": "electric_scooter", "lon": -77.023503, "bike_id": "453d68ff5abb4fbc11d6cd0f6ad89876", "fusion_lat": 0.0, "name": "453d68ff5abb4fbc11d6cd0f6ad89876", "is_reserved": 0, "rental_uris": {"android": "https://dc.lft.to/lastmile_qr_scan", "ios": "https://dc.lft.to/lastmile_qr_scan"}, "fusion_lon": 0.0}, {"lat": 38.902703333333335, "is_disabled": 0, "type": "electric_scooter", "lon": -77.003503, "bike_id": "6b7e67b21080e2a6fef1ca6f3f1396d0", "fusion_lat": 0.0, "name": "6b7e67b21080e2a6fef1ca6f3f1396d0", "is_reserved": 0, "rental_uris": {"android": "https://dc.lft.to/lastmile_qr_scan", "ios": "https://dc.lft.to/lastmile_qr_scan"}, "fusion_lon": 0.0}, {"lat": 38.9166485, "is_disabled": 0, "type": "electric_scooter", "lon": -77.047214, "bike_id": "b1253ca74481ae8b0861122ab533f31d", "fusion_lat": 0.0, "name": "b1253ca74481ae8b0861122ab533f31d", "is_reserved": 0, "rental_uris": {"android": "https://dc.lft.to/lastmile_qr_scan", "ios": "https://dc.lft.to/lastmile_qr_scan"}, "fusion_lon": 0.0}, {"lat": 38.8650875, "is_disabled": 0, "type": "electric_scooter", "lon": -76.99007533333334, "bike_id": "e92a50d63b48aff8bfdc9fbe10c314de", "fusion_lat": 0.0, "name": "e92a50d63b48aff8bfdc9fbe10c314de", "is_reserved": 0, "rental_uris": {"android": "https://dc.lft.to/lastmile_qr_scan", "ios": "https://dc.lft.to/lastmile_qr_scan"}, "fusion_lon": 0.0}, {"lat": 38.929319, "is_disabled": 0, "type": "electric_scooter", "lon": -77.03751383333334, "bike_id": "7447f93c429edcd3231515bca2cde7d4", "fusion_lat": 0.0, "name": "7447f93c429edcd3231515bca2cde7d4", "is_reserved": 0, "rental_uris": {"android": "https://dc.lft.to/lastmile_qr_scan", "ios": "https://dc.lft.to/lastmile_qr_scan"}, "fusion_lon": 0.0}, {"lat": 38.89981516666667, "is_disabled": 0, "type": "electric_scooter", "lon": -77.02081366666667, "bike_id": "9b8b52c349e4c6dca6934209e4c3a964", "fusion_lat": 0.0, "name": "9b8b52c349e4c6dca6934209e4c3a964", "is_reserved": 0, "rental_uris": {"android": "https://dc.lft.to/lastmile_qr_scan", "ios": "https://dc.lft.to/lastmile_qr_scan"}, "fusion_lon": 0.0}, {"lat": 38.91773083333333, "is_disabled": 0, "type": "electric_scooter", "lon": -77.01883633333334, "bike_id": "2daaf6cbd51600fda5e814fec54d458d", "fusion_lat": 0.0, "name": "2daaf6cbd51600fda5e814fec54d458d", "is_reserved": 0, "rental_uris": {"android": "https://dc.lft.to/lastmile_qr_scan", "ios": "https://dc.lft.to/lastmile_qr_scan"}, "fusion_lon": 0.0}, {"lat": 38.91101483333333, "is_disabled": 0, "type": "electric_scooter", "lon": -77.04208333333334, "bike_id": "9c4802cd7a8ac39b9abf16e43c55969e", "fusion_lat": 0.0, "name": "9c4802cd7a8ac39b9abf16e43c55969e", "is_reserved": 0, "rental_uris": {"android": "https://dc.lft.to/lastmile_qr_scan", "ios": "https://dc.lft.to/lastmile_qr_scan"}, "fusion_lon": 0.0}, {"lat": 38.936519, "is_disabled": 0, "type": "electric_scooter", "lon": -77.02040533333333, "bike_id": "9e392e36956177fc1bd306af12e40334", "fusion_lat": 0.0, "name": "9e392e36956177fc1bd306af12e40334", "is_reserved": 0, "rental_uris": {"android": "https://dc.lft.to/lastmile_qr_scan", "ios": "https://dc.lft.to/lastmile_qr_scan"}, "fusion_lon": 0.0}, {"lat": 38.8567575, "is_disabled": 0, "type": "electric_scooter", "lon": -76.98178016666667, "bike_id": "dbc76380cb7fabdd1a50aeb03de9b142", "fusion_lat": 0.0, "name": "dbc76380cb7fabdd1a50aeb03de9b142", "is_reserved": 0, "rental_uris": {"android": "https://dc.lft.to/lastmile_qr_scan", "ios": "https://dc.lft.to/lastmile_qr_scan"}, "fusion_lon": 0.0}, {"lat": 38.91734483333333, "is_disabled": 0, "type": "electric_scooter", "lon": -77.03666483333333, "bike_id": "f56b7d84e6401c66f90dab73e968e236", "fusion_lat": 0.0, "name": "f56b7d84e6401c66f90dab73e968e236", "is_reserved": 0, "rental_uris": {"android": "https://dc.lft.to/lastmile_qr_scan", "ios": "https://dc.lft.to/lastmile_qr_scan"}, "fusion_lon": 0.0}, {"lat": 38.918133833333336, "is_disabled": 0, "type": "electric_scooter", "lon": -77.04174733333333, "bike_id": "aea67e9936d7b499c8a051b2e72bb674", "fusion_lat": 0.0, "name": "aea67e9936d7b499c8a051b2e72bb674", "is_reserved": 0, "rental_uris": {"android": "https://dc.lft.to/lastmile_qr_scan", "ios": "https://dc.lft.to/lastmile_qr_scan"}, "fusion_lon": 0.0}, {"lat": 38.90555483333333, "is_disabled": 0, "type": "electric_scooter", "lon": -77.02244633333333, "bike_id": "ee911396dafe3278b2c5c9e1220d07a7", "fusion_lat": 0.0, "name": "ee911396dafe3278b2c5c9e1220d07a7", "is_reserved": 0, "rental_uris": {"android": "https://dc.lft.to/lastmile_qr_scan", "ios": "https://dc.lft.to/lastmile_qr_scan"}, "fusion_lon": 0.0}, {"lat": 38.93693066666667, "is_disabled": 0, "type": "electric_bike", "lon": -77.0564305, "bike_id": "7a395e075d3ab8d4e4c2b7defbf15f75", "fusion_lat": 0.0, "name": "7a395e075d3ab8d4e4c2b7defbf15f75", "is_reserved": 0, "rental_uris": {"android": "https://dc.lft.to/lastmile_qr_scan", "ios": "https://dc.lft.to/lastmile_qr_scan"}, "fusion_lon": 0.0}, {"lat": 38.83726983333333, "is_disabled": 0, "type": "electric_bike", "lon": -76.99764683333333, "bike_id": "f5fabdf51713eec0d8d549c858c98e0d", "fusion_lat": 0.0, "name": "f5fabdf51713eec0d8d549c858c98e0d", "is_reserved": 0, "rental_uris": {"android": "https://dc.lft.to/lastmile_qr_scan", "ios": "https://dc.lft.to/lastmile_qr_scan"}, "fusion_lon": 0.0}, {"lat": 38.91746883333333, "is_disabled": 0, "type": "electric_scooter", "lon": -77.03188483333334, "bike_id": "a214ea1fcaa3f56455c7499b19132ce3", "fusion_lat": 0.0, "name": "a214ea1fcaa3f56455c7499b19132ce3", "is_reserved": 0, "rental_uris": {"android": "https://dc.lft.to/lastmile_qr_scan", "ios": "https://dc.lft.to/lastmile_qr_scan"}, "fusion_lon": 0.0}, {"lat": 38.89682966666667, "is_disabled": 0, "type": "electric_scooter", "lon": -76.93608366666666, "bike_id": "2d6369bff05134048b5ac1006719a8a4", "fusion_lat": 0.0, "name": "2d6369bff05134048b5ac1006719a8a4", "is_reserved": 0, "rental_uris": {"android": "https://dc.lft.to/lastmile_qr_scan", "ios": "https://dc.lft.to/lastmile_qr_scan"}, "fusion_lon": 0.0}, {"lat": 38.948211, "is_disabled": 0, "type": "electric_scooter", "lon": -76.99905183333334, "bike_id": "631957a448c9a6134d8cb1682ca3b461", "fusion_lat": 0.0, "name": "631957a448c9a6134d8cb1682ca3b461", "is_reserved": 0, "rental_uris": {"android": "https://dc.lft.to/lastmile_qr_scan", "ios": "https://dc.lft.to/lastmile_qr_scan"}, "fusion_lon": 0.0}, {"lat": 38.91825166666667, "is_disabled": 0, "type": "electric_scooter", "lon": -77.03170066666667, "bike_id": "1e8c29b7c27b56d282176b183d7515f9", "fusion_lat": 0.0, "name": "1e8c29b7c27b56d282176b183d7515f9", "is_reserved": 0, "rental_uris": {"android": "https://dc.lft.to/lastmile_qr_scan", "ios": "https://dc.lft.to/lastmile_qr_scan"}, "fusion_lon": 0.0}, {"lat": 38.92130916666667, "is_disabled": 0, "type": "electric_scooter", "lon": -77.04166866666667, "bike_id": "e29f39da0292330c98c5cc380cd688d9", "fusion_lat": 0.0, "name": "e29f39da0292330c98c5cc380cd688d9", "is_reserved": 0, "rental_uris": {"android": "https://dc.lft.to/lastmile_qr_scan", "ios": "https://dc.lft.to/lastmile_qr_scan"}, "fusion_lon": 0.0}, {"lat": 38.908538666666665, "is_disabled": 0, "type": "electric_scooter", "lon": -77.02067616666666, "bike_id": "bc464535c911f1d2d366bb1a18ce6f70", "fusion_lat": 0.0, "name": "bc464535c911f1d2d366bb1a18ce6f70", "is_reserved": 0, "rental_uris": {"android": "https://dc.lft.to/lastmile_qr_scan", "ios": "https://dc.lft.to/lastmile_qr_scan"}, "fusion_lon": 0.0}, {"lat": 38.930713833333336, "is_disabled": 0, "type": "electric_scooter", "lon": -77.03385916666667, "bike_id": "4aa192f116a4d09616ce56a1eb7f84bc", "fusion_lat": 0.0, "name": "4aa192f116a4d09616ce56a1eb7f84bc", "is_reserved": 0, "rental_uris": {"android": "https://dc.lft.to/lastmile_qr_scan", "ios": "https://dc.lft.to/lastmile_qr_scan"}, "fusion_lon": 0.0}, {"lat": 38.930436, "is_disabled": 0, "type": "electric_bike", "lon": -77.07303283333333, "bike_id": "5abee39b9766141fd4ac5bacfc3a16ff", "fusion_lat": 0.0, "name": "5abee39b9766141fd4ac5bacfc3a16ff", "is_reserved": 0, "rental_uris": {"android": "https://dc.lft.to/lastmile_qr_scan", "ios": "https://dc.lft.to/lastmile_qr_scan"}, "fusion_lon": 0.0}, {"lat": 38.902324166666666, "is_disabled": 0, "type": "electric_scooter", "lon": -77.0604945, "bike_id": "fd48d20f29a6981496b4204ca729b6f4", "fusion_lat": 0.0, "name": "fd48d20f29a6981496b4204ca729b6f4", "is_reserved": 0, "rental_uris": {"android": "https://dc.lft.to/lastmile_qr_scan", "ios": "https://dc.lft.to/lastmile_qr_scan"}, "fusion_lon": 0.0}, {"lat": 38.924541, "is_disabled": 0, "type": "electric_scooter", "lon": -77.0419675, "bike_id": "04ccac08a5aaf6b035d0ece5baeac57f", "fusion_lat": 0.0, "name": "04ccac08a5aaf6b035d0ece5baeac57f", "is_reserved": 0, "rental_uris": {"android": "https://dc.lft.to/lastmile_qr_scan", "ios": "https://dc.lft.to/lastmile_qr_scan"}, "fusion_lon": 0.0}, {"lat": 38.919929833333335, "is_disabled": 0, "type": "electric_scooter", "lon": -77.03234416666666, "bike_id": "918b035c7c2a9fba9da98ac700fc7922", "fusion_lat": 0.0, "name": "918b035c7c2a9fba9da98ac700fc7922", "is_reserved": 0, "rental_uris": {"android": "https://dc.lft.to/lastmile_qr_scan", "ios": "https://dc.lft.to/lastmile_qr_scan"}, "fusion_lon": 0.0}, {"lat": 38.9173025, "is_disabled": 0, "type": "electric_scooter", "lon": -77.01750083333333, "bike_id": "14840b3d9002db1bd0a6a2c84d5231cb", "fusion_lat": 0.0, "name": "14840b3d9002db1bd0a6a2c84d5231cb", "is_reserved": 0, "rental_uris": {"android": "https://dc.lft.to/lastmile_qr_scan", "ios": "https://dc.lft.to/lastmile_qr_scan"}, "fusion_lon": 0.0}, {"lat": 38.884468, "is_disabled": 0, "type": "electric_scooter", "lon": -76.95099883333333, "bike_id": "a3777fef1ede5204d1f3c4ec86002199", "fusion_lat": 0.0, "name": "a3777fef1ede5204d1f3c4ec86002199", "is_reserved": 0, "rental_uris": {"android": "https://dc.lft.to/lastmile_qr_scan", "ios": "https://dc.lft.to/lastmile_qr_scan"}, "fusion_lon": 0.0}, {"lat": 38.94469633333333, "is_disabled": 0, "type": "electric_scooter", "lon": -77.060287, "bike_id": "f65736748f16eea135836a2a8e1a7772", "fusion_lat": 0.0, "name": "f65736748f16eea135836a2a8e1a7772", "is_reserved": 0, "rental_uris": {"android": "https://dc.lft.to/lastmile_qr_scan", "ios": "https://dc.lft.to/lastmile_qr_scan"}, "fusion_lon": 0.0}, {"lat": 38.89224133333333, "is_disabled": 0, "type": "electric_scooter", "lon": -77.04862, "bike_id": "be44552c17ffeace1cada2675b3e2191", "fusion_lat": 0.0, "name": "be44552c17ffeace1cada2675b3e2191", "is_reserved": 0, "rental_uris": {"android": "https://dc.lft.to/lastmile_qr_scan", "ios": "https://dc.lft.to/lastmile_qr_scan"}, "fusion_lon": 0.0}, {"lat": 38.884833666666665, "is_disabled": 0, "type": "electric_scooter", "lon": -76.94526966666666, "bike_id": "3ca9c875fef376a42ee67fdbadb4c80c", "fusion_lat": 0.0, "name": "3ca9c875fef376a42ee67fdbadb4c80c", "is_reserved": 0, "rental_uris": {"android": "https://dc.lft.to/lastmile_qr_scan", "ios": "https://dc.lft.to/lastmile_qr_scan"}, "fusion_lon": 0.0}, {"lat": 38.9055595, "is_disabled": 0, "type": "electric_scooter", "lon": -77.02693683333334, "bike_id": "d00318592c1db1b52bf0340321bd3313", "fusion_lat": 0.0, "name": "d00318592c1db1b52bf0340321bd3313", "is_reserved": 0, "rental_uris": {"android": "https://dc.lft.to/lastmile_qr_scan", "ios": "https://dc.lft.to/lastmile_qr_scan"}, "fusion_lon": 0.0}, {"lat": 38.922251333333335, "is_disabled": 0, "type": "electric_scooter", "lon": -77.0374945, "bike_id": "ebf3ccde824b507eb053cb1491aa9036", "fusion_lat": 0.0, "name": "ebf3ccde824b507eb053cb1491aa9036", "is_reserved": 0, "rental_uris": {"android": "https://dc.lft.to/lastmile_qr_scan", "ios": "https://dc.lft.to/lastmile_qr_scan"}, "fusion_lon": 0.0}, {"lat": 38.902457166666665, "is_disabled": 0, "type": "electric_scooter", "lon": -77.05266066666667, "bike_id": "37ef1637e3e693e4d6e9570c5056bbb0", "fusion_lat": 0.0, "name": "37ef1637e3e693e4d6e9570c5056bbb0", "is_reserved": 0, "rental_uris": {"android": "https://dc.lft.to/lastmile_qr_scan", "ios": "https://dc.lft.to/lastmile_qr_scan"}, "fusion_lon": 0.0}, {"lat": 38.90717133333333, "is_disabled": 0, "type": "electric_scooter", "lon": -77.04761666666667, "bike_id": "e1d05c5beff847c250f512064d4ec609", "fusion_lat": 0.0, "name": "e1d05c5beff847c250f512064d4ec609", "is_reserved": 0, "rental_uris": {"android": "https://dc.lft.to/lastmile_qr_scan", "ios": "https://dc.lft.to/lastmile_qr_scan"}, "fusion_lon": 0.0}, {"lat": 38.850261, "is_disabled": 0, "type": "electric_bike", "lon": -77.09803333333333, "bike_id": "1e2df72c3c0f04dd5aff995cfd56ff8f", "fusion_lat": 0.0, "name": "1e2df72c3c0f04dd5aff995cfd56ff8f", "is_reserved": 0, "rental_uris": {"android": "https://dc.lft.to/lastmile_qr_scan", "ios": "https://dc.lft.to/lastmile_qr_scan"}, "fusion_lon": 0.0}, {"lat": 38.91744283333333, "is_disabled": 0, "type": "electric_scooter", "lon": -77.03212633333334, "bike_id": "64489c5344d8b0e5cbaaa92d6c81d7f3", "fusion_lat": 0.0, "name": "64489c5344d8b0e5cbaaa92d6c81d7f3", "is_reserved": 0, "rental_uris": {"android": "https://dc.lft.to/lastmile_qr_scan", "ios": "https://dc.lft.to/lastmile_qr_scan"}, "fusion_lon": 0.0}, {"lat": 38.901614333333335, "is_disabled": 0, "type": "electric_scooter", "lon": -76.98072866666666, "bike_id": "03c4566ce8450d7f12dcb16af7352940", "fusion_lat": 0.0, "name": "03c4566ce8450d7f12dcb16af7352940", "is_reserved": 0, "rental_uris": {"android": "https://dc.lft.to/lastmile_qr_scan", "ios": "https://dc.lft.to/lastmile_qr_scan"}, "fusion_lon": 0.0}, {"lat": 38.917358166666666, "is_disabled": 0, "type": "electric_scooter", "lon": -77.032014, "bike_id": "c58db4994d581857fdd7b79d734b1ccf", "fusion_lat": 0.0, "name": "c58db4994d581857fdd7b79d734b1ccf", "is_reserved": 0, "rental_uris": {"android": "https://dc.lft.to/lastmile_qr_scan", "ios": "https://dc.lft.to/lastmile_qr_scan"}, "fusion_lon": 0.0}, {"lat": 38.93080233333333, "is_disabled": 0, "type": "electric_scooter", "lon": -77.0776195, "bike_id": "cd91608da61b2b66a3647f168d41a2c1", "fusion_lat": 0.0, "name": "cd91608da61b2b66a3647f168d41a2c1", "is_reserved": 0, "rental_uris": {"android": "https://dc.lft.to/lastmile_qr_scan", "ios": "https://dc.lft.to/lastmile_qr_scan"}, "fusion_lon": 0.0}, {"lat": 38.857888, "is_disabled": 0, "type": "electric_bike", "lon": -77.09959816666667, "bike_id": "1b78adff865a97a0d2d7cf824e6c24bd", "fusion_lat": 0.0, "name": "1b78adff865a97a0d2d7cf824e6c24bd", "is_reserved": 0, "rental_uris": {"android": "https://dc.lft.to/lastmile_qr_scan", "ios": "https://dc.lft.to/lastmile_qr_scan"}, "fusion_lon": 0.0}, {"lat": 38.9314565, "is_disabled": 0, "type": "electric_scooter", "lon": -77.02144933333334, "bike_id": "98f4f51c3ab915cdc5f0be2ce3da76fd", "fusion_lat": 0.0, "name": "98f4f51c3ab915cdc5f0be2ce3da76fd", "is_reserved": 0, "rental_uris": {"android": "https://dc.lft.to/lastmile_qr_scan", "ios": "https://dc.lft.to/lastmile_qr_scan"}, "fusion_lon": 0.0}, {"lat": 38.90357483333333, "is_disabled": 0, "type": "electric_bike", "lon": -77.01634983333334, "bike_id": "f6b7e485735b4e0305dcea2fb390c866", "fusion_lat": 0.0, "name": "f6b7e485735b4e0305dcea2fb390c866", "is_reserved": 0, "rental_uris": {"android": "https://dc.lft.to/lastmile_qr_scan", "ios": "https://dc.lft.to/lastmile_qr_scan"}, "fusion_lon": 0.0}, {"lat": 38.905617666666664, "is_disabled": 0, "type": "electric_scooter", "lon": -77.0131215, "bike_id": "cebbb01eb060ad7f19812b28835d2de1", "fusion_lat": 0.0, "name": "cebbb01eb060ad7f19812b28835d2de1", "is_reserved": 0, "rental_uris": {"android": "https://dc.lft.to/lastmile_qr_scan", "ios": "https://dc.lft.to/lastmile_qr_scan"}, "fusion_lon": 0.0}, {"lat": 38.908181666666664, "is_disabled": 0, "type": "electric_scooter", "lon": -77.04356633333333, "bike_id": "e05db03a9db5f560a973d05299363695", "fusion_lat": 0.0, "name": "e05db03a9db5f560a973d05299363695", "is_reserved": 0, "rental_uris": {"android": "https://dc.lft.to/lastmile_qr_scan", "ios": "https://dc.lft.to/lastmile_qr_scan"}, "fusion_lon": 0.0}, {"lat": 38.9452735, "is_disabled": 0, "type": "electric_scooter", "lon": -76.97949683333333, "bike_id": "2457114dd63e92963536ad46cd44eeed", "fusion_lat": 0.0, "name": "2457114dd63e92963536ad46cd44eeed", "is_reserved": 0, "rental_uris": {"android": "https://dc.lft.to/lastmile_qr_scan", "ios": "https://dc.lft.to/lastmile_qr_scan"}, "fusion_lon": 0.0}, {"lat": 38.86510083333334, "is_disabled": 0, "type": "electric_scooter", "lon": -76.99006983333334, "bike_id": "a0953ff61425fdb69e6cae968e7374a1", "fusion_lat": 0.0, "name": "a0953ff61425fdb69e6cae968e7374a1", "is_reserved": 0, "rental_uris": {"android": "https://dc.lft.to/lastmile_qr_scan", "ios": "https://dc.lft.to/lastmile_qr_scan"}, "fusion_lon": 0.0}, {"lat": 38.892197833333334, "is_disabled": 0, "type": "electric_scooter", "lon": -77.02225183333333, "bike_id": "37ce48851d3ac6982272df2f434f961e", "fusion_lat": 0.0, "name": "37ce48851d3ac6982272df2f434f961e", "is_reserved": 0, "rental_uris": {"android": "https://dc.lft.to/lastmile_qr_scan", "ios": "https://dc.lft.to/lastmile_qr_scan"}, "fusion_lon": 0.0}, {"lat": 38.87288083333333, "is_disabled": 0, "type": "electric_scooter", "lon": -77.00986533333334, "bike_id": "ee28f42a1f90252b7d996b27a8365c58", "fusion_lat": 0.0, "name": "ee28f42a1f90252b7d996b27a8365c58", "is_reserved": 0, "rental_uris": {"android": "https://dc.lft.to/lastmile_qr_scan", "ios": "https://dc.lft.to/lastmile_qr_scan"}, "fusion_lon": 0.0}, {"lat": 38.90363516666667, "is_disabled": 0, "type": "electric_scooter", "lon": -77.04275683333333, "bike_id": "bcfd69bb7fcf77cfa423ad375c051870", "fusion_lat": 0.0, "name": "bcfd69bb7fcf77cfa423ad375c051870", "is_reserved": 0, "rental_uris": {"android": "https://dc.lft.to/lastmile_qr_scan", "ios": "https://dc.lft.to/lastmile_qr_scan"}, "fusion_lon": 0.0}, {"lat": 38.90556866666667, "is_disabled": 0, "type": "electric_scooter", "lon": -76.998762, "bike_id": "c1b703340d9acda07abd1de40c7a7ea4", "fusion_lat": 0.0, "name": "c1b703340d9acda07abd1de40c7a7ea4", "is_reserved": 0, "rental_uris": {"android": "https://dc.lft.to/lastmile_qr_scan", "ios": "https://dc.lft.to/lastmile_qr_scan"}, "fusion_lon": 0.0}, {"lat": 38.867075166666666, "is_disabled": 0, "type": "electric_scooter", "lon": -76.9873275, "bike_id": "2997d390e156f69b4ea2fb2b0a1b1079", "fusion_lat": 0.0, "name": "2997d390e156f69b4ea2fb2b0a1b1079", "is_reserved": 0, "rental_uris": {"android": "https://dc.lft.to/lastmile_qr_scan", "ios": "https://dc.lft.to/lastmile_qr_scan"}, "fusion_lon": 0.0}, {"lat": 38.88082416666666, "is_disabled": 0, "type": "electric_bike", "lon": -76.98533166666667, "bike_id": "3b8972e423f159b6e5c89b808d9987a4", "fusion_lat": 0.0, "name": "3b8972e423f159b6e5c89b808d9987a4", "is_reserved": 0, "rental_uris": {"android": "https://dc.lft.to/lastmile_qr_scan", "ios": "https://dc.lft.to/lastmile_qr_scan"}, "fusion_lon": 0.0}, {"lat": 38.892185833333336, "is_disabled": 0, "type": "electric_scooter", "lon": -77.02224083333333, "bike_id": "6c459494a36bc5a139814c13915bc05e", "fusion_lat": 0.0, "name": "6c459494a36bc5a139814c13915bc05e", "is_reserved": 0, "rental_uris": {"android": "https://dc.lft.to/lastmile_qr_scan", "ios": "https://dc.lft.to/lastmile_qr_scan"}, "fusion_lon": 0.0}, {"lat": 38.964439666666664, "is_disabled": 0, "type": "electric_bike", "lon": -77.02073616666667, "bike_id": "e309d787e959a5b6dd760a854b569937", "fusion_lat": 0.0, "name": "e309d787e959a5b6dd760a854b569937", "is_reserved": 0, "rental_uris": {"android": "https://dc.lft.to/lastmile_qr_scan", "ios": "https://dc.lft.to/lastmile_qr_scan"}, "fusion_lon": 0.0}, {"lat": 38.8616735, "is_disabled": 0, "type": "electric_bike", "lon": -77.131465, "bike_id": "142c4cabacfe130e5bb15a15b9318144", "fusion_lat": 0.0, "name": "142c4cabacfe130e5bb15a15b9318144", "is_reserved": 0, "rental_uris": {"android": "https://dc.lft.to/lastmile_qr_scan", "ios": "https://dc.lft.to/lastmile_qr_scan"}, "fusion_lon": 0.0}, {"lat": 38.90555066666667, "is_disabled": 0, "type": "electric_scooter", "lon": -77.01774833333333, "bike_id": "8e2ff97c7251cac39b1f6f68e30f5ab8", "fusion_lat": 0.0, "name": "8e2ff97c7251cac39b1f6f68e30f5ab8", "is_reserved": 0, "rental_uris": {"android": "https://dc.lft.to/lastmile_qr_scan", "ios": "https://dc.lft.to/lastmile_qr_scan"}, "fusion_lon": 0.0}, {"lat": 38.9174595, "is_disabled": 0, "type": "electric_scooter", "lon": -77.03180416666666, "bike_id": "6cf804d395888ab86ba22036349b1278", "fusion_lat": 0.0, "name": "6cf804d395888ab86ba22036349b1278", "is_reserved": 0, "rental_uris": {"android": "https://dc.lft.to/lastmile_qr_scan", "ios": "https://dc.lft.to/lastmile_qr_scan"}, "fusion_lon": 0.0}, {"lat": 38.91793916666666, "is_disabled": 0, "type": "electric_bike", "lon": -76.97185516666667, "bike_id": "97a424103806593e6804199a4cb98b7d", "fusion_lat": 0.0, "name": "97a424103806593e6804199a4cb98b7d", "is_reserved": 0, "rental_uris": {"android": "https://dc.lft.to/lastmile_qr_scan", "ios": "https://dc.lft.to/lastmile_qr_scan"}, "fusion_lon": 0.0}, {"lat": 38.921128333333336, "is_disabled": 0, "type": "electric_scooter", "lon": -77.03947833333334, "bike_id": "4b30df6eb351728277b434edeb5e1841", "fusion_lat": 0.0, "name": "4b30df6eb351728277b434edeb5e1841", "is_reserved": 0, "rental_uris": {"android": "https://dc.lft.to/lastmile_qr_scan", "ios": "https://dc.lft.to/lastmile_qr_scan"}, "fusion_lon": 0.0}, {"lat": 38.8852595, "is_disabled": 0, "type": "electric_scooter", "lon": -77.01134916666666, "bike_id": "f561c390e38b085d3604c238abc77b4f", "fusion_lat": 0.0, "name": "f561c390e38b085d3604c238abc77b4f", "is_reserved": 0, "rental_uris": {"android": "https://dc.lft.to/lastmile_qr_scan", "ios": "https://dc.lft.to/lastmile_qr_scan"}, "fusion_lon": 0.0}, {"lat": 38.915481, "is_disabled": 0, "type": "electric_scooter", "lon": -77.03852283333333, "bike_id": "1ef5f91eced5bcfffccd4f7e809e3ef0", "fusion_lat": 0.0, "name": "1ef5f91eced5bcfffccd4f7e809e3ef0", "is_reserved": 0, "rental_uris": {"android": "https://dc.lft.to/lastmile_qr_scan", "ios": "https://dc.lft.to/lastmile_qr_scan"}, "fusion_lon": 0.0}, {"lat": 38.93118183333333, "is_disabled": 0, "type": "electric_scooter", "lon": -77.02099816666667, "bike_id": "b3df83971c0a8c5386a451dda623c719", "fusion_lat": 0.0, "name": "b3df83971c0a8c5386a451dda623c719", "is_reserved": 0, "rental_uris": {"android": "https://dc.lft.to/lastmile_qr_scan", "ios": "https://dc.lft.to/lastmile_qr_scan"}, "fusion_lon": 0.0}, {"lat": 38.86702733333333, "is_disabled": 0, "type": "electric_scooter", "lon": -76.98710616666666, "bike_id": "7cd0b092734248e56f95726effc21787", "fusion_lat": 0.0, "name": "7cd0b092734248e56f95726effc21787", "is_reserved": 0, "rental_uris": {"android": "https://dc.lft.to/lastmile_qr_scan", "ios": "https://dc.lft.to/lastmile_qr_scan"}, "fusion_lon": 0.0}, {"lat": 38.930144, "is_disabled": 0, "type": "electric_bike", "lon": -77.21646116666666, "bike_id": "8dfd3a40c6e8616dfc8d8a60af0dbb7e", "fusion_lat": 0.0, "name": "8dfd3a40c6e8616dfc8d8a60af0dbb7e", "is_reserved": 0, "rental_uris": {"android": "https://dc.lft.to/lastmile_qr_scan", "ios": "https://dc.lft.to/lastmile_qr_scan"}, "fusion_lon": 0.0}, {"lat": 38.9472145, "is_disabled": 0, "type": "electric_scooter", "lon": -77.02259383333333, "bike_id": "0e242fabf7f9d724c1fe253c97cfa71f", "fusion_lat": 0.0, "name": "0e242fabf7f9d724c1fe253c97cfa71f", "is_reserved": 0, "rental_uris": {"android": "https://dc.lft.to/lastmile_qr_scan", "ios": "https://dc.lft.to/lastmile_qr_scan"}, "fusion_lon": 0.0}, {"lat": 38.912736333333335, "is_disabled": 0, "type": "electric_scooter", "lon": -77.03936516666667, "bike_id": "713b652c3b7b1b1bd921a4a7f8665649", "fusion_lat": 0.0, "name": "713b652c3b7b1b1bd921a4a7f8665649", "is_reserved": 0, "rental_uris": {"android": "https://dc.lft.to/lastmile_qr_scan", "ios": "https://dc.lft.to/lastmile_qr_scan"}, "fusion_lon": 0.0}, {"lat": 38.93671533333333, "is_disabled": 0, "type": "electric_bike", "lon": -76.95208016666666, "bike_id": "cad75af823b0684f0d9f93d36cbb2cdb", "fusion_lat": 0.0, "name": "cad75af823b0684f0d9f93d36cbb2cdb", "is_reserved": 0, "rental_uris": {"android": "https://dc.lft.to/lastmile_qr_scan", "ios": "https://dc.lft.to/lastmile_qr_scan"}, "fusion_lon": 0.0}, {"lat": 38.894991833333336, "is_disabled": 0, "type": "electric_scooter", "lon": -77.02207033333333, "bike_id": "b33f24e9c6c6367737400689407939f6", "fusion_lat": 0.0, "name": "b33f24e9c6c6367737400689407939f6", "is_reserved": 0, "rental_uris": {"android": "https://dc.lft.to/lastmile_qr_scan", "ios": "https://dc.lft.to/lastmile_qr_scan"}, "fusion_lon": 0.0}, {"lat": 38.90384483333333, "is_disabled": 0, "type": "electric_scooter", "lon": -77.03440166666667, "bike_id": "5420d952dfe30e245ba47fe19c60f56c", "fusion_lat": 0.0, "name": "5420d952dfe30e245ba47fe19c60f56c", "is_reserved": 0, "rental_uris": {"android": "https://dc.lft.to/lastmile_qr_scan", "ios": "https://dc.lft.to/lastmile_qr_scan"}, "fusion_lon": 0.0}, {"lat": 38.907295500000004, "is_disabled": 0, "type": "electric_scooter", "lon": -77.034441, "bike_id": "67d8cfa4cfbe3af6a8733e8b06df9e65", "fusion_lat": 0.0, "name": "67d8cfa4cfbe3af6a8733e8b06df9e65", "is_reserved": 0, "rental_uris": {"android": "https://dc.lft.to/lastmile_qr_scan", "ios": "https://dc.lft.to/lastmile_qr_scan"}, "fusion_lon": 0.0}, {"lat": 38.902122166666665, "is_disabled": 0, "type": "electric_scooter", "lon": -76.94588083333333, "bike_id": "1438b326ecf7a1930135599ac554fccc", "fusion_lat": 0.0, "name": "1438b326ecf7a1930135599ac554fccc", "is_reserved": 0, "rental_uris": {"android": "https://dc.lft.to/lastmile_qr_scan", "ios": "https://dc.lft.to/lastmile_qr_scan"}, "fusion_lon": 0.0}, {"lat": 38.9174925, "is_disabled": 0, "type": "electric_scooter", "lon": -77.03178266666667, "bike_id": "ae96904dfa91794c794508d47c1bc7e4", "fusion_lat": 0.0, "name": "ae96904dfa91794c794508d47c1bc7e4", "is_reserved": 0, "rental_uris": {"android": "https://dc.lft.to/lastmile_qr_scan", "ios": "https://dc.lft.to/lastmile_qr_scan"}, "fusion_lon": 0.0}, {"lat": 38.919616, "is_disabled": 0, "type": "electric_bike", "lon": -76.97267383333333, "bike_id": "63e90c410392e2ad90ad98814188b6ff", "fusion_lat": 0.0, "name": "63e90c410392e2ad90ad98814188b6ff", "is_reserved": 0, "rental_uris": {"android": "https://dc.lft.to/lastmile_qr_scan", "ios": "https://dc.lft.to/lastmile_qr_scan"}, "fusion_lon": 0.0}, {"lat": 38.91208, "is_disabled": 0, "type": "electric_scooter", "lon": -77.02755366666666, "bike_id": "cf3ce9fd85f75250eba6d6f23d4460f3", "fusion_lat": 0.0, "name": "cf3ce9fd85f75250eba6d6f23d4460f3", "is_reserved": 0, "rental_uris": {"android": "https://dc.lft.to/lastmile_qr_scan", "ios": "https://dc.lft.to/lastmile_qr_scan"}, "fusion_lon": 0.0}, {"lat": 38.87240583333333, "is_disabled": 0, "type": "electric_scooter", "lon": -76.9772955, "bike_id": "74c86e9b9c5d6fcc8cc046a708b7aff1", "fusion_lat": 0.0, "name": "74c86e9b9c5d6fcc8cc046a708b7aff1", "is_reserved": 0, "rental_uris": {"android": "https://dc.lft.to/lastmile_qr_scan", "ios": "https://dc.lft.to/lastmile_qr_scan"}, "fusion_lon": 0.0}, {"lat": 38.939221, "is_disabled": 0, "type": "electric_scooter", "lon": -77.0280045, "bike_id": "5212ab91ad9040c2847a81dee9697af4", "fusion_lat": 0.0, "name": "5212ab91ad9040c2847a81dee9697af4", "is_reserved": 0, "rental_uris": {"android": "https://dc.lft.to/lastmile_qr_scan", "ios": "https://dc.lft.to/lastmile_qr_scan"}, "fusion_lon": 0.0}, {"lat": 38.90852616666667, "is_disabled": 0, "type": "electric_scooter", "lon": -77.04766366666666, "bike_id": "a413d1b798fa5d9fdeff27f6bd3c2d65", "fusion_lat": 0.0, "name": "a413d1b798fa5d9fdeff27f6bd3c2d65", "is_reserved": 0, "rental_uris": {"android": "https://dc.lft.to/lastmile_qr_scan", "ios": "https://dc.lft.to/lastmile_qr_scan"}, "fusion_lon": 0.0}, {"lat": 38.917032166666665, "is_disabled": 0, "type": "electric_scooter", "lon": -77.03353433333334, "bike_id": "1034107a820a280dafb7323be52adb85", "fusion_lat": 0.0, "name": "1034107a820a280dafb7323be52adb85", "is_reserved": 0, "rental_uris": {"android": "https://dc.lft.to/lastmile_qr_scan", "ios": "https://dc.lft.to/lastmile_qr_scan"}, "fusion_lon": 0.0}, {"lat": 38.88927866666667, "is_disabled": 0, "type": "electric_scooter", "lon": -76.97373133333333, "bike_id": "ec42f7a2898488fdc0ad04887a194cc4", "fusion_lat": 0.0, "name": "ec42f7a2898488fdc0ad04887a194cc4", "is_reserved": 0, "rental_uris": {"android": "https://dc.lft.to/lastmile_qr_scan", "ios": "https://dc.lft.to/lastmile_qr_scan"}, "fusion_lon": 0.0}, {"lat": 38.94408966666667, "is_disabled": 0, "type": "electric_scooter", "lon": -77.0264925, "bike_id": "8192463c6dd3095b8c3de5505557e668", "fusion_lat": 0.0, "name": "8192463c6dd3095b8c3de5505557e668", "is_reserved": 0, "rental_uris": {"android": "https://dc.lft.to/lastmile_qr_scan", "ios": "https://dc.lft.to/lastmile_qr_scan"}, "fusion_lon": 0.0}, {"lat": 38.912917166666666, "is_disabled": 0, "type": "electric_bike", "lon": -77.04486166666666, "bike_id": "d01f4080aef512a803210131254fa50c", "fusion_lat": 0.0, "name": "d01f4080aef512a803210131254fa50c", "is_reserved": 0, "rental_uris": {"android": "https://dc.lft.to/lastmile_qr_scan", "ios": "https://dc.lft.to/lastmile_qr_scan"}, "fusion_lon": 0.0}, {"lat": 38.909005666666665, "is_disabled": 0, "type": "electric_scooter", "lon": -77.03211216666666, "bike_id": "82281de0591d79af1f9e287340fc7a31", "fusion_lat": 0.0, "name": "82281de0591d79af1f9e287340fc7a31", "is_reserved": 0, "rental_uris": {"android": "https://dc.lft.to/lastmile_qr_scan", "ios": "https://dc.lft.to/lastmile_qr_scan"}, "fusion_lon": 0.0}, {"lat": 38.87076233333333, "is_disabled": 0, "type": "electric_scooter", "lon": -76.96870433333333, "bike_id": "ef719dc130a6c88e293807d3f0bf0549", "fusion_lat": 0.0, "name": "ef719dc130a6c88e293807d3f0bf0549", "is_reserved": 0, "rental_uris": {"android": "https://dc.lft.to/lastmile_qr_scan", "ios": "https://dc.lft.to/lastmile_qr_scan"}, "fusion_lon": 0.0}, {"lat": 38.90069333333334, "is_disabled": 0, "type": "electric_scooter", "lon": -77.00201333333334, "bike_id": "3afc72d513a103195549ba62ae1dd6ab", "fusion_lat": 0.0, "name": "3afc72d513a103195549ba62ae1dd6ab", "is_reserved": 0, "rental_uris": {"android": "https://dc.lft.to/lastmile_qr_scan", "ios": "https://dc.lft.to/lastmile_qr_scan"}, "fusion_lon": 0.0}, {"lat": 38.9110815, "is_disabled": 0, "type": "electric_scooter", "lon": -77.04818066666667, "bike_id": "1f814c384a37e2d7e99750ccd524919c", "fusion_lat": 0.0, "name": "1f814c384a37e2d7e99750ccd524919c", "is_reserved": 0, "rental_uris": {"android": "https://dc.lft.to/lastmile_qr_scan", "ios": "https://dc.lft.to/lastmile_qr_scan"}, "fusion_lon": 0.0}, {"lat": 38.813425333333335, "is_disabled": 0, "type": "electric_bike", "lon": -77.049214, "bike_id": "61ca288ed583b4440ddb2c8e0a9eaab0", "fusion_lat": 0.0, "name": "61ca288ed583b4440ddb2c8e0a9eaab0", "is_reserved": 0, "rental_uris": {"android": "https://dc.lft.to/lastmile_qr_scan", "ios": "https://dc.lft.to/lastmile_qr_scan"}, "fusion_lon": 0.0}, {"lat": 38.9180755, "is_disabled": 0, "type": "electric_scooter", "lon": -77.03674533333333, "bike_id": "77ece363b5726f1cb8efb5ef82a6cdbe", "fusion_lat": 0.0, "name": "77ece363b5726f1cb8efb5ef82a6cdbe", "is_reserved": 0, "rental_uris": {"android": "https://dc.lft.to/lastmile_qr_scan", "ios": "https://dc.lft.to/lastmile_qr_scan"}, "fusion_lon": 0.0}, {"lat": 38.9342925, "is_disabled": 0, "type": "electric_scooter", "lon": -77.055542, "bike_id": "4e3d6e3f3b3f02aa8a4fcc1d46bb91a1", "fusion_lat": 0.0, "name": "4e3d6e3f3b3f02aa8a4fcc1d46bb91a1", "is_reserved": 0, "rental_uris": {"android": "https://dc.lft.to/lastmile_qr_scan", "ios": "https://dc.lft.to/lastmile_qr_scan"}, "fusion_lon": 0.0}, {"lat": 38.9111225, "is_disabled": 0, "type": "electric_scooter", "lon": -77.02015066666667, "bike_id": "afd2907d125d8955d8c7e5486cad60b2", "fusion_lat": 0.0, "name": "afd2907d125d8955d8c7e5486cad60b2", "is_reserved": 0, "rental_uris": {"android": "https://dc.lft.to/lastmile_qr_scan", "ios": "https://dc.lft.to/lastmile_qr_scan"}, "fusion_lon": 0.0}, {"lat": 38.9147825, "is_disabled": 0, "type": "electric_scooter", "lon": -77.01381433333333, "bike_id": "90fde8ffe932ae99155a91d1cff6ccf7", "fusion_lat": 0.0, "name": "90fde8ffe932ae99155a91d1cff6ccf7", "is_reserved": 0, "rental_uris": {"android": "https://dc.lft.to/lastmile_qr_scan", "ios": "https://dc.lft.to/lastmile_qr_scan"}, "fusion_lon": 0.0}, {"lat": 38.90853033333333, "is_disabled": 0, "type": "electric_scooter", "lon": -77.042698, "bike_id": "505269f444324c84635767b0a50dd8b9", "fusion_lat": 0.0, "name": "505269f444324c84635767b0a50dd8b9", "is_reserved": 0, "rental_uris": {"android": "https://dc.lft.to/lastmile_qr_scan", "ios": "https://dc.lft.to/lastmile_qr_scan"}, "fusion_lon": 0.0}, {"lat": 38.924801333333335, "is_disabled": 0, "type": "electric_scooter", "lon": -77.03495383333333, "bike_id": "319660b62e4585c5b0b786c83d46ac8b", "fusion_lat": 0.0, "name": "319660b62e4585c5b0b786c83d46ac8b", "is_reserved": 0, "rental_uris": {"android": "https://dc.lft.to/lastmile_qr_scan", "ios": "https://dc.lft.to/lastmile_qr_scan"}, "fusion_lon": 0.0}, {"lat": 38.898547666666666, "is_disabled": 0, "type": "electric_scooter", "lon": -76.9765855, "bike_id": "4ef97f3bc8533e549567b661125ebd6e", "fusion_lat": 0.0, "name": "4ef97f3bc8533e549567b661125ebd6e", "is_reserved": 0, "rental_uris": {"android": "https://dc.lft.to/lastmile_qr_scan", "ios": "https://dc.lft.to/lastmile_qr_scan"}, "fusion_lon": 0.0},