{"data": {"bikes": [{"fusion_lat": 0.0, "name": "aa4e35f8861da81b79a2bfc4bdd99020", "is_disabled": 0, "rental_uris": {"android": "https://dc.lft.to/lastmile_qr_scan", "ios": "https://dc.lft.to/lastmile_qr_scan"}, "fusion_lon": 0.0, "lat": 38.927755, "bike_id": "aa4e35f8861da81b79a2bfc4bdd99020", "type": "electric_scooter", "is_reserved": 0, "lon": -77.02706116666667}, {"fusion_lat": 0.0, "name": "d465c5076cfb5d8d4701199a852bff6b", "is_disabled": 0, "rental_uris": {"android": "https://dc.lft.to/lastmile_qr_scan", "ios": "https://dc.lft.to/lastmile_qr_scan"}, "fusion_lon": 0.0, "lat": 38.93872983333333, "bike_id": "d465c5076cfb5d8d4701199a852bff6b", "type": "electric_scooter", "is_reserved": 0, "lon": -77.0291775}, {"fusion_lat": 0.0, "name": "8b1d5fe43dc7589af075c72f3484779e", "is_disabled": 0, "rental_uris": {"android": "https://dc.lft.to/lastmile_qr_scan", "ios": "https://dc.lft.to/lastmile_qr_scan"}, "fusion_lon": 0.0, "lat": 38.931119, "bike_id": "8b1d5fe43dc7589af075c72f3484779e", "type": "electric_scooter", "is_reserved": 0, "lon": -77.02139033333333}, {"fusion_lat": 0.0, "name": "59e479ef509a8aa76c6f8223290c99a2", "is_disabled": 0, "rental_uris": {"android": "https://dc.lft.to/lastmile_qr_scan", "ios": "https://dc.lft.to/lastmile_qr_scan"}, "fusion_lon": 0.0, "lat": 38.928932833333334, "bike_id": "59e479ef509a8aa76c6f8223290c99a2", "type": "electric_scooter", "is_reserved": 0, "lon": -77.0326085}, {"fusion_lat": 0.0, "name": "8da88b22460bfde1a8185ec706387daf", "is_disabled": 0, "rental_uris": {"android": "https://dc.lft.to/lastmile_qr_scan", "ios": "https://dc.lft.to/lastmile_qr_scan"}, "fusion_lon": 0.0, "lat": 38.94156266666667, "bike_id": "8da88b22460bfde1a8185ec706387daf", "type": "electric_scooter", "is_reserved": 0, "lon": -77.02491266666667}, {"fusion_lat": 0.0, "name": "020bc147149b583a3c04aee0b6d47718", "is_disabled": 0, "rental_uris": {"android": "https://dc.lft.to/lastmile_qr_scan", "ios": "https://dc.lft.to/lastmile_qr_scan"}, "fusion_lon": 0.0, "lat": 38.91764533333333, "bike_id": "020bc147149b583a3c04aee0b6d47718", "type": "electric_scooter", "is_reserved": 0, "lon": -77.0228185}, {"fusion_lat": 0.0, "name": "6f2ef6561867670949333c3ea3030acc", "is_disabled": 0, "rental_uris": {"android": "https://dc.lft.to/lastmile_qr_scan", "ios": "https://dc.lft.to/lastmile_qr_scan"}, "fusion_lon": 0.0, "lat": 38.8637185, "bike_id": "6f2ef6561867670949333c3ea3030acc", "type": "electric_bike", "is_reserved": 0, "lon": -76.97013166666666}, {"fusion_lat": 0.0, "name": "db4ebac8d8e0a8098f8d0c6d3913e04d", "is_disabled": 0, "rental_uris": {"android": "https://dc.lft.to/lastmile_qr_scan", "ios": "https://dc.lft.to/lastmile_qr_scan"}, "fusion_lon": 0.0, "lat": 38.932973833333335, "bike_id": "db4ebac8d8e0a8098f8d0c6d3913e04d", "type": "electric_scooter", "is_reserved": 0, "lon": -77.03991916666666}, {"fusion_lat": 0.0, "name": "39ce16ec35c6f54561dd5315e930ca33", "is_disabled": 0, "rental_uris": {"android": "https://dc.lft.to/lastmile_qr_scan", "ios": "https://dc.lft.to/lastmile_qr_scan"}, "fusion_lon": 0.0, "lat": 38.923473333333334, "bike_id": "39ce16ec35c6f54561dd5315e930ca33", "type": "electric_scooter", "is_reserved": 0, "lon": -77.03460616666666}, {"fusion_lat": 0.0, "name": "990782293b20f7d799a51df5098aaa86", "is_disabled": 0, "rental_uris": {"android": "https://dc.lft.to/lastmile_qr_scan", "ios": "https://dc.lft.to/lastmile_qr_scan"}, "fusion_lon": 0.0, "lat": 38.927930333333336, "bike_id": "990782293b20f7d799a51df5098aaa86", "type": "electric_scooter", "is_reserved": 0, "lon": -77.03151683333333}, {"fusion_lat": 0.0, "name": "39fce783ef5c23fd68a6c980dbb6902f", "is_disabled": 0, "rental_uris": {"android": "https://dc.lft.to/lastmile_qr_scan", "ios": "https://dc.lft.to/lastmile_qr_scan"}, "fusion_lon": 0.0, "lat": 38.927872666666666, "bike_id": "39fce783ef5c23fd68a6c980dbb6902f", "type": "electric_scooter", "is_reserved": 0, "lon": -77.02583266666667}, {"fusion_lat": 0.0, "name": "b898c8399c6871e162d08ff886b92a8d", "is_disabled": 0, "rental_uris": {"android": "https://dc.lft.to/lastmile_qr_scan", "ios": "https://dc.lft.to/lastmile_qr_scan"}, "fusion_lon": 0.0, "lat": 38.928705666666666, "bike_id": "b898c8399c6871e162d08ff886b92a8d", "type": "electric_scooter", "is_reserved": 0, "lon": -77.05448033333333}, {"fusion_lat": 0.0, "name": "c1163bf6ae95006720c1312638e693e0", "is_disabled": 0, "rental_uris": {"android": "https://dc.lft.to/lastmile_qr_scan", "ios": "https://dc.lft.to/lastmile_qr_scan"}, "fusion_lon": 0.0, "lat": 38.8894505, "bike_id": "c1163bf6ae95006720c1312638e693e0", "type": "electric_scooter", "is_reserved": 0, "lon": -76.99162}, {"fusion_lat": 0.0, "name": "d8c81b4457d01f3621e9371efccf3964", "is_disabled": 0, "rental_uris": {"android": "https://dc.lft.to/lastmile_qr_scan", "ios": "https://dc.lft.to/lastmile_qr_scan"}, "fusion_lon": 0.0, "lat": 38.90549433333333, "bike_id": "d8c81b4457d01f3621e9371efccf3964", "type": "electric_scooter", "is_reserved": 0, "lon": -77.0264755}, {"fusion_lat": 0.0, "name": "ffe51249dfc6e649efc764f1404b8726", "is_disabled": 0, "rental_uris": {"android": "https://dc.lft.to/lastmile_qr_scan", "ios": "https://dc.lft.to/lastmile_qr_scan"}, "fusion_lon": 0.0, "lat": 38.905007833333336, "bike_id": "ffe51249dfc6e649efc764f1404b8726", "type": "electric_scooter", "is_reserved": 0, "lon": -77.061088}, {"fusion_lat": 0.0, "name": "a0194751df3c0530270d47bab47ce471", "is_disabled": 0, "rental_uris": {"android": "https://dc.lft.to/lastmile_qr_scan", "ios": "https://dc.lft.to/lastmile_qr_scan"}, "fusion_lon": 0.0, "lat": 38.89638166666667, "bike_id": "a0194751df3c0530270d47bab47ce471", "type": "electric_scooter", "is_reserved": 0, "lon": -76.999544}, {"fusion_lat": 0.0, "name": "1bd139318c289038755eacf839b8f833", "is_disabled": 0, "rental_uris": {"android": "https://dc.lft.to/lastmile_qr_scan", "ios": "https://dc.lft.to/lastmile_qr_scan"}, "fusion_lon": 0.0, "lat": 38.985123, "bike_id": "1bd139318c289038755eacf839b8f833", "type": "electric_bike", "is_reserved": 0, "lon": -76.98225583333334}, {"fusion_lat": 0.0, "name": "dfea9beedcb215f9164585534528a3bc", "is_disabled": 0, "rental_uris": {"android": "https://dc.lft.to/lastmile_qr_scan", "ios": "https://dc.lft.to/lastmile_qr_scan"}, "fusion_lon": 0.0, "lat": 38.874586666666666, "bike_id": "dfea9beedcb215f9164585534528a3bc", "type": "electric_scooter", "is_reserved": 0, "lon": -77.00969233333333}, {"fusion_lat": 0.0, "name": "567a94f5f6057a63149cdb7c0fbd1a1f", "is_disabled": 0, "rental_uris": {"android": "https://dc.lft.to/lastmile_qr_scan", "ios": "https://dc.lft.to/lastmile_qr_scan"}, "fusion_lon": 0.0, "lat": 38.878542, "bike_id": "567a94f5f6057a63149cdb7c0fbd1a1f", "type": "electric_scooter", "is_reserved": 0, "lon": -77.01310966666667}, {"fusion_lat": 0.0, "name": "06123eaf6337c706a91ee65e0c7b62da", "is_disabled": 0, "rental_uris": {"android": "https://dc.lft.to/lastmile_qr_scan", "ios": "https://dc.lft.to/lastmile_qr_scan"}, "fusion_lon": 0.0, "lat": 38.897168, "bike_id": "06123eaf6337c706a91ee65e0c7b62da", "type": "electric_scooter", "is_reserved": 0, "lon": -77.0318715}, {"fusion_lat": 0.0, "name": "b8d10527a90cd21c60928d866934698c", "is_disabled": 0, "rental_uris": {"android": "https://dc.lft.to/lastmile_qr_scan", "ios": "https://dc.lft.to/lastmile_qr_scan"}, "fusion_lon": 0.0, "lat": 38.926527666666665, "bike_id": "b8d10527a90cd21c60928d866934698c", "type": "electric_scooter", "is_reserved": 0, "lon": -77.0371865}, {"fusion_lat": 0.0, "name": "a6854dc92413f90b1b5a71870525bf37", "is_disabled": 0, "rental_uris": {"android": "https://dc.lft.to/lastmile_qr_scan", "ios": "https://dc.lft.to/lastmile_qr_scan"}, "fusion_lon": 0.0, "lat": 38.920771333333334, "bike_id": "a6854dc92413f90b1b5a71870525bf37", "type": "electric_bike", "is_reserved": 0, "lon": -76.98945716666667}, {"fusion_lat": 0.0, "name": "0083e9ac9593f9fedf5a2c610f8ce067", "is_disabled": 0, "rental_uris": {"android": "https://dc.lft.to/lastmile_qr_scan", "ios": "https://dc.lft.to/lastmile_qr_scan"}, "fusion_lon": 0.0, "lat": 38.89878683333333, "bike_id": "0083e9ac9593f9fedf5a2c610f8ce067", "type": "electric_scooter", "is_reserved": 0, "lon": -76.93185583333333}, {"fusion_lat": 0.0, "name": "7c7f37f3200c8ad6a9bff939967a3595", "is_disabled": 0, "rental_uris": {"android": "https://dc.lft.to/lastmile_qr_scan", "ios": "https://dc.lft.to/lastmile_qr_scan"}, "fusion_lon": 0.0, "lat": 38.891419166666665, "bike_id": "7c7f37f3200c8ad6a9bff939967a3595", "type": "electric_scooter", "is_reserved": 0, "lon": -76.983731}, {"fusion_lat": 0.0, "name": "a0864aaf8c7b9ebb4aff2e91ffe7b33e", "is_disabled": 0, "rental_uris": {"android": "https://dc.lft.to/lastmile_qr_scan", "ios": "https://dc.lft.to/lastmile_qr_scan"}, "fusion_lon": 0.0, "lat": 38.880773, "bike_id": "a0864aaf8c7b9ebb4aff2e91ffe7b33e", "type": "electric_scooter", "is_reserved": 0, "lon": -76.98533483333334}, {"fusion_lat": 0.0, "name": "3121a80e33c183c4b3a0d95e36264d2b", "is_disabled": 0, "rental_uris": {"android": "https://dc.lft.to/lastmile_qr_scan", "ios": "https://dc.lft.to/lastmile_qr_scan"}, "fusion_lon": 0.0, "lat": 38.88231783333333, "bike_id": "3121a80e33c183c4b3a0d95e36264d2b", "type": "electric_scooter", "is_reserved": 0, "lon": -77.02615416666667}, {"fusion_lat": 0.0, "name": "8c769eb007fe5acc552f2820ee52a93c", "is_disabled": 0, "rental_uris": {"android": "https://dc.lft.to/lastmile_qr_scan", "ios": "https://dc.lft.to/lastmile_qr_scan"}, "fusion_lon": 0.0, "lat": 38.92452216666667, "bike_id": "8c769eb007fe5acc552f2820ee52a93c", "type": "electric_scooter", "is_reserved": 0, "lon": -77.040247}, {"fusion_lat": 0.0, "name": "4debf4529fe6615e6ae64a30ac2d19b9", "is_disabled": 0, "rental_uris": {"android": "https://dc.lft.to/lastmile_qr_scan", "ios": "https://dc.lft.to/lastmile_qr_scan"}, "fusion_lon": 0.0, "lat": 38.885057333333336, "bike_id": "4debf4529fe6615e6ae64a30ac2d19b9", "type": "electric_scooter", "is_reserved": 0, "lon": -77.01515066666667}, {"fusion_lat": 0.0, "name": "d81b07eef3b7f2ab5c5dd7a8d952eeea", "is_disabled": 0, "rental_uris": {"android": "https://dc.lft.to/lastmile_qr_scan", "ios": "https://dc.lft.to/lastmile_qr_scan"}, "fusion_lon": 0.0, "lat": 38.8605865, "bike_id": "d81b07eef3b7f2ab5c5dd7a8d952eeea", "type": "electric_scooter", "is_reserved": 0, "lon": -76.98500483333333}, {"fusion_lat": 0.0, "name": "24aaebf69865582bc126bc035fe68090", "is_disabled": 0, "rental_uris": {"android": "https://dc.lft.to/lastmile_qr_scan", "ios": "https://dc.lft.to/lastmile_qr_scan"}, "fusion_lon": 0.0, "lat": 38.9142935, "bike_id": "24aaebf69865582bc126bc035fe68090", "type": "electric_scooter", "is_reserved": 0, "lon": -77.06425733333333}, {"fusion_lat": 0.0, "name": "e29d33202a7e1818ff52b77771241ed6", "is_disabled": 0, "rental_uris": {"android": "https://dc.lft.to/lastmile_qr_scan", "ios": "https://dc.lft.to/lastmile_qr_scan"}, "fusion_lon": 0.0, "lat": 38.9132295, "bike_id": "e29d33202a7e1818ff52b77771241ed6", "type": "electric_scooter", "is_reserved": 0, "lon": -77.031892}, {"fusion_lat": 0.0, "name": "9124b89ae995c253b892ee73c4177498", "is_disabled": 0, "rental_uris": {"android": "https://dc.lft.to/lastmile_qr_scan", "ios": "https://dc.lft.to/lastmile_qr_scan"}, "fusion_lon": 0.0, "lat": 38.903797, "bike_id": "9124b89ae995c253b892ee73c4177498", "type": "electric_scooter", "is_reserved": 0, "lon": -77.0019155}, {"fusion_lat": 0.0, "name": "2041424b72d47387370a0256f8d53eb5", "is_disabled": 0, "rental_uris": {"android": "https://dc.lft.to/lastmile_qr_scan", "ios": "https://dc.lft.to/lastmile_qr_scan"}, "fusion_lon": 0.0, "lat": 38.88398633333333, "bike_id": "2041424b72d47387370a0256f8d53eb5", "type": "electric_scooter", "is_reserved": 0, "lon": -76.98588183333334}, {"fusion_lat": 0.0, "name": "43ba2852e17853971ed2c5d703e4f080", "is_disabled": 0, "rental_uris": {"android": "https://dc.lft.to/lastmile_qr_scan", "ios": "https://dc.lft.to/lastmile_qr_scan"}, "fusion_lon": 0.0, "lat": 38.951835333333335, "bike_id": "43ba2852e17853971ed2c5d703e4f080", "type": "electric_scooter", "is_reserved": 0, "lon": -77.02723633333333}, {"fusion_lat": 0.0, "name": "4d50f0d426a17c7707de3eb7b66170c4", "is_disabled": 0, "rental_uris": {"android": "https://dc.lft.to/lastmile_qr_scan", "ios": "https://dc.lft.to/lastmile_qr_scan"}, "fusion_lon": 0.0, "lat": 38.920534, "bike_id": "4d50f0d426a17c7707de3eb7b66170c4", "type": "electric_scooter", "is_reserved": 0, "lon": -77.02180833333334}, {"fusion_lat": 0.0, "name": "5f372cfbeb933ebf6f08ea3cc2112067", "is_disabled": 0, "rental_uris": {"android": "https://dc.lft.to/lastmile_qr_scan", "ios": "https://dc.lft.to/lastmile_qr_scan"}, "fusion_lon": 0.0, "lat": 38.877914833333335, "bike_id": "5f372cfbeb933ebf6f08ea3cc2112067", "type": "electric_scooter", "is_reserved": 0, "lon": -77.00124016666666}, {"fusion_lat": 0.0, "name": "848fa70ac2d2802e793b718b195782a7", "is_disabled": 0, "rental_uris": {"android": "https://dc.lft.to/lastmile_qr_scan", "ios": "https://dc.lft.to/lastmile_qr_scan"}, "fusion_lon": 0.0, "lat": 38.907990166666664, "bike_id": "848fa70ac2d2802e793b718b195782a7", "type": "electric_scooter", "is_reserved": 0, "lon": -77.0385235}, {"fusion_lat": 0.0, "name": "6f7a69847ac7e511c1628fbc1de2c17b", "is_disabled": 0, "rental_uris": {"android": "https://dc.lft.to/lastmile_qr_scan", "ios": "https://dc.lft.to/lastmile_qr_scan"}, "fusion_lon": 0.0, "lat": 38.879481166666665, "bike_id": "6f7a69847ac7e511c1628fbc1de2c17b", "type": "electric_scooter", "is_reserved": 0, "lon": -77.00876516666666}, {"fusion_lat": 0.0, "name": "50e6b7a1856aa79b815b8f6911815d6d", "is_disabled": 0, "rental_uris": {"android": "https://dc.lft.to/lastmile_qr_scan", "ios": "https://dc.lft.to/lastmile_qr_scan"}, "fusion_lon": 0.0, "lat": 38.884020166666666, "bike_id": "50e6b7a1856aa79b815b8f6911815d6d", "type": "electric_bike", "is_reserved": 0, "lon": -76.9541765}, {"fusion_lat": 0.0, "name": "978978ec55a27e17a498812eacb8ee46", "is_disabled": 0, "rental_uris": {"android": "https://dc.lft.to/lastmile_qr_scan", "ios": "https://dc.lft.to/lastmile_qr_scan"}, "fusion_lon": 0.0, "lat": 38.89731483333333, "bike_id": "978978ec55a27e17a498812eacb8ee46", "type": "electric_scooter", "is_reserved": 0, "lon": -77.04427783333334}, {"fusion_lat": 0.0, "name": "d6335643df222f7acc0ebc6b6fb6f6d6", "is_disabled": 0, "rental_uris": {"android": "https://dc.lft.to/lastmile_qr_scan", "ios": "https://dc.lft.to/lastmile_qr_scan"}, "fusion_lon": 0.0, "lat": 38.9298505, "bike_id": "d6335643df222f7acc0ebc6b6fb6f6d6", "type": "electric_scooter", "is_reserved": 0, "lon": -77.0197915}, {"fusion_lat": 0.0, "name": "00e5b5d376ad24fed0f5901073d95d0d", "is_disabled": 0, "rental_uris": {"android": "https://dc.lft.to/lastmile_qr_scan", "ios": "https://dc.lft.to/lastmile_qr_scan"}, "fusion_lon": 0.0, "lat": 38.892114666666664, "bike_id": "00e5b5d376ad24fed0f5901073d95d0d", "type": "electric_scooter", "is_reserved": 0, "lon": -76.9971665}, {"fusion_lat": 0.0, "name": "9780c9d3d5cd87ef7a64cae301ccb663", "is_disabled": 0, "rental_uris": {"android": "https://dc.lft.to/lastmile_qr_scan", "ios": "https://dc.lft.to/lastmile_qr_scan"}, "fusion_lon": 0.0, "lat": 38.916024666666665, "bike_id": "9780c9d3d5cd87ef7a64cae301ccb663", "type": "electric_scooter", "is_reserved": 0, "lon": -77.02204466666667}, {"fusion_lat": 0.0, "name": "1339a71feab5b9ec84a87c23048ea529", "is_disabled": 0, "rental_uris": {"android": "https://dc.lft.to/lastmile_qr_scan", "ios": "https://dc.lft.to/lastmile_qr_scan"}, "fusion_lon": 0.0, "lat": 38.864507833333334, "bike_id": "1339a71feab5b9ec84a87c23048ea529", "type": "electric_bike", "is_reserved": 0, "lon": -77.10686416666667}, {"fusion_lat": 0.0, "name": "3f596ff6b4bb77a13051e182ec0c1363", "is_disabled": 0, "rental_uris": {"android": "https://dc.lft.to/lastmile_qr_scan", "ios": "https://dc.lft.to/lastmile_qr_scan"}, "fusion_lon": 0.0, "lat": 38.87651866666667, "bike_id": "3f596ff6b4bb77a13051e182ec0c1363", "type": "electric_scooter", "is_reserved": 0, "lon": -77.01581716666666}, {"fusion_lat": 0.0, "name": "499f5046300727e530305ea1dd47dfe1", "is_disabled": 0, "rental_uris": {"android": "https://dc.lft.to/lastmile_qr_scan", "ios": "https://dc.lft.to/lastmile_qr_scan"}, "fusion_lon": 0.0, "lat": 38.897101166666666, "bike_id": "499f5046300727e530305ea1dd47dfe1", "type": "electric_scooter", "is_reserved": 0, "lon": -77.02333666666667}, {"fusion_lat": 0.0, "name": "a34d8fd86186b4503c3b9581a4b60c4c", "is_disabled": 0, "rental_uris": {"android": "https://dc.lft.to/lastmile_qr_scan", "ios": "https://dc.lft.to/lastmile_qr_scan"}, "fusion_lon": 0.0, "lat": 38.91496983333333, "bike_id": "a34d8fd86186b4503c3b9581a4b60c4c", "type": "electric_scooter", "is_reserved": 0, "lon": -77.03207166666667}, {"fusion_lat": 0.0, "name": "49b29ad87c136bf0706f445a68ad1c8e", "is_disabled": 0, "rental_uris": {"android": "https://dc.lft.to/lastmile_qr_scan", "ios": "https://dc.lft.to/lastmile_qr_scan"}, "fusion_lon": 0.0, "lat": 38.923915, "bike_id": "49b29ad87c136bf0706f445a68ad1c8e", "type": "electric_scooter", "is_reserved": 0, "lon": -77.0248625}, {"fusion_lat": 0.0, "name": "d87b3a282d5d80df5e5c9b6a97a32b56", "is_disabled": 0, "rental_uris": {"android": "https://dc.lft.to/lastmile_qr_scan", "ios": "https://dc.lft.to/lastmile_qr_scan"}, "fusion_lon": 0.0, "lat": 38.909574166666665, "bike_id": "d87b3a282d5d80df5e5c9b6a97a32b56", "type": "electric_scooter", "is_reserved": 0, "lon": -77.04548166666666}, {"fusion_lat": 0.0, "name": "f46131c5d412c0a8505a86d78918673b", "is_disabled": 0, "rental_uris": {"android": "https://dc.lft.to/lastmile_qr_scan", "ios": "https://dc.lft.to/lastmile_qr_scan"}, "fusion_lon": 0.0, "lat": 38.906379666666666, "bike_id": "f46131c5d412c0a8505a86d78918673b", "type": "electric_scooter", "is_reserved": 0, "lon": -77.01028766666667}, {"fusion_lat": 0.0, "name": "b219ff9bc2c245a0b9adb94df6a9f50a", "is_disabled": 0, "rental_uris": {"android": "https://dc.lft.to/lastmile_qr_scan", "ios": "https://dc.lft.to/lastmile_qr_scan"}, "fusion_lon": 0.0, "lat": 38.9192595, "bike_id": "b219ff9bc2c245a0b9adb94df6a9f50a", "type": "electric_scooter", "is_reserved": 0, "lon": -77.0098305}, {"fusion_lat": 0.0, "name": "92685026fd5992f1362d58c5bda1e21b", "is_disabled": 0, "rental_uris": {"android": "https://dc.lft.to/lastmile_qr_scan", "ios": "https://dc.lft.to/lastmile_qr_scan"}, "fusion_lon": 0.0, "lat": 38.90026133333333, "bike_id": "92685026fd5992f1362d58c5bda1e21b", "type": "electric_scooter", "is_reserved": 0, "lon": -77.01189216666667}, {"fusion_lat": 0.0, "name": "b8e8b17bfe7faef2d8dba21992126e41", "is_disabled": 0, "rental_uris": {"android": "https://dc.lft.to/lastmile_qr_scan", "ios": "https://dc.lft.to/lastmile_qr_scan"}, "fusion_lon": 0.0, "lat": 38.8730485, "bike_id": "b8e8b17bfe7faef2d8dba21992126e41", "type": "electric_scooter", "is_reserved": 0, "lon": -77.00051}, {"fusion_lat": 0.0, "name": "f91068a23891d0c58357afbc8f321cbd", "is_disabled": 0, "rental_uris": {"android": "https://dc.lft.to/lastmile_qr_scan", "ios": "https://dc.lft.to/lastmile_qr_scan"}, "fusion_lon": 0.0, "lat": 38.956304, "bike_id": "f91068a23891d0c58357afbc8f321cbd", "type": "electric_scooter", "is_reserved": 0, "lon": -77.09131933333333}, {"fusion_lat": 0.0, "name": "5a31ab7879ef5c134c5b21611ccd26b1", "is_disabled": 0, "rental_uris": {"android": "https://dc.lft.to/lastmile_qr_scan", "ios": "https://dc.lft.to/lastmile_qr_scan"}, "fusion_lon": 0.0, "lat": 38.91066433333334, "bike_id": "5a31ab7879ef5c134c5b21611ccd26b1", "type": "electric_scooter", "is_reserved": 0, "lon": -77.0409645}, {"fusion_lat": 0.0, "name": "9c506c3ba4498a453f9346078a839730", "is_disabled": 0, "rental_uris": {"android": "https://dc.lft.to/lastmile_qr_scan", "ios": "https://dc.lft.to/lastmile_qr_scan"}, "fusion_lon": 0.0, "lat": 38.94293716666667, "bike_id": "9c506c3ba4498a453f9346078a839730", "type": "electric_scooter", "is_reserved": 0, "lon": -77.02172966666667}, {"fusion_lat": 0.0, "name": "25ca0a244401e3232fc4037b31b8078d", "is_disabled": 0, "rental_uris": {"android": "https://dc.lft.to/lastmile_qr_scan", "ios": "https://dc.lft.to/lastmile_qr_scan"}, "fusion_lon": 0.0, "lat": 38.933999666666665, "bike_id": "25ca0a244401e3232fc4037b31b8078d", "type": "electric_scooter", "is_reserved": 0, "lon": -77.028409}, {"fusion_lat": 0.0, "name": "f66851ff8fce7c3c4e9712405a7ef0c0", "is_disabled": 0, "rental_uris": {"android": "https://dc.lft.to/lastmile_qr_scan", "ios": "https://dc.lft.to/lastmile_qr_scan"}, "fusion_lon": 0.0, "lat": 38.899657833333336, "bike_id": "f66851ff8fce7c3c4e9712405a7ef0c0", "type": "electric_scooter", "is_reserved": 0, "lon": -76.98163283333334}, {"fusion_lat": 0.0, "name": "aa3769539a37a22794710ec4de204bea", "is_disabled": 0, "rental_uris": {"android": "https://dc.lft.to/lastmile_qr_scan", "ios": "https://dc.lft.to/lastmile_qr_scan"}, "fusion_lon": 0.0, "lat": 38.9047535, "bike_id": "aa3769539a37a22794710ec4de204bea", "type": "electric_scooter", "is_reserved": 0, "lon": -77.031519}, {"fusion_lat": 0.0, "name": "597810e88330f4e7d1c8580d162ade5e", "is_disabled": 0, "rental_uris": {"android": "https://dc.lft.to/lastmile_qr_scan", "ios": "https://dc.lft.to/lastmile_qr_scan"}, "fusion_lon": 0.0, "lat": 38.90254183333333, "bike_id": "597810e88330f4e7d1c8580d162ade5e", "type": "electric_scooter", "is_reserved": 0, "lon": -77.0175815}, {"fusion_lat": 0.0, "name": "bf93932c72ca60d241d1a8e1c2efa5e2", "is_disabled": 0, "rental_uris": {"android": "https://dc.lft.to/lastmile_qr_scan", "ios": "https://dc.lft.to/lastmile_qr_scan"}, "fusion_lon": 0.0, "lat": 38.90954083333333, "bike_id": "bf93932c72ca60d241d1a8e1c2efa5e2", "type": "electric_scooter", "is_reserved": 0, "lon": -76.985427}, {"fusion_lat": 0.0, "name": "1b908963306240c1e1f76750881ac6c9", "is_disabled": 0, "rental_uris": {"android": "https://dc.lft.to/lastmile_qr_scan", "ios": "https://dc.lft.to/lastmile_qr_scan"}, "fusion_lon": 0.0, "lat": 38.952941333333335, "bike_id": "1b908963306240c1e1f76750881ac6c9", "type": "electric_bike", "is_reserved": 0, "lon": -76.99986166666666}, {"fusion_lat": 0.0, "name": "4a98083d4492d0ae63e097352ae7de92", "is_disabled": 0, "rental_uris": {"android": "https://dc.lft.to/lastmile_qr_scan", "ios": "https://dc.lft.to/lastmile_qr_scan"}, "fusion_lon": 0.0, "lat": 38.897402, "bike_id": "4a98083d4492d0ae63e097352ae7de92", "type": "electric_scooter", "is_reserved": 0, "lon": -77.023916}, {"fusion_lat": 0.0, "name": "884da24c28621aa22ca14683e5d469e1", "is_disabled": 0, "rental_uris": {"android": "https://dc.lft.to/lastmile_qr_scan", "ios": "https://dc.lft.to/lastmile_qr_scan"}, "fusion_lon": 0.0, "lat": 38.841282, "bike_id": "884da24c28621aa22ca14683e5d469e1", "type": "electric_bike", "is_reserved": 0, "lon": -77.0630815}, {"fusion_lat": 0.0, "name": "c66307eeda74ba178c877ecb7338b0a7", "is_disabled": 0, "rental_uris": {"android": "https://dc.lft.to/lastmile_qr_scan", "ios": "https://dc.lft.to/lastmile_qr_scan"}, "fusion_lon": 0.0, "lat": 38.89855883333333, "bike_id": "c66307eeda74ba178c877ecb7338b0a7", "type": "electric_scooter", "is_reserved": 0, "lon": -77.03185416666666}, {"fusion_lat": 0.0, "name": "1aacab11970d54065c6eaedb2946b109", "is_disabled": 0, "rental_uris": {"android": "https://dc.lft.to/lastmile_qr_scan", "ios": "https://dc.lft.to/lastmile_qr_scan"}, "fusion_lon": 0.0, "lat": 38.93124516666666, "bike_id": "1aacab11970d54065c6eaedb2946b109", "type": "electric_scooter", "is_reserved": 0, "lon": -76.9844335}, {"fusion_lat": 0.0, "name": "74f895cbb06c4f27a7843311b2a42f9f", "is_disabled": 0, "rental_uris": {"android": "https://dc.lft.to/lastmile_qr_scan", "ios": "https://dc.lft.to/lastmile_qr_scan"}, "fusion_lon": 0.0, "lat": 38.923928, "bike_id": "74f895cbb06c4f27a7843311b2a42f9f", "type": "electric_scooter", "is_reserved": 0, "lon": -77.04304166666667}, {"fusion_lat": 0.0, "name": "d3d33bdd7e7c31a26cb7ac5a27491e06", "is_disabled": 0, "rental_uris": {"android": "https://dc.lft.to/lastmile_qr_scan", "ios": "https://dc.lft.to/lastmile_qr_scan"}, "fusion_lon": 0.0, "lat": 38.892232666666665, "bike_id": "d3d33bdd7e7c31a26cb7ac5a27491e06", "type": "electric_scooter", "is_reserved": 0, "lon": -77.04506016666667}, {"fusion_lat": 0.0, "name": "5d121c742414196a4b27fc8c470218fa", "is_disabled": 0, "rental_uris": {"android": "https://dc.lft.to/lastmile_qr_scan", "ios": "https://dc.lft.to/lastmile_qr_scan"}, "fusion_lon": 0.0, "lat": 38.906333333333336, "bike_id": "5d121c742414196a4b27fc8c470218fa", "type": "electric_scooter", "is_reserved": 0, "lon": -77.00597566666667}, {"fusion_lat": 0.0, "name": "ba7132fdee063bbba390871a8e5acda0", "is_disabled": 0, "rental_uris": {"android": "https://dc.lft.to/lastmile_qr_scan", "ios": "https://dc.lft.to/lastmile_qr_scan"}, "fusion_lon": 0.0, "lat": 38.89492583333333, "bike_id": "ba7132fdee063bbba390871a8e5acda0", "type": "electric_scooter", "is_reserved": 0, "lon": -77.00253066666667}, {"fusion_lat": 0.0, "name": "3960bed69da295d267ef91b20f27326c", "is_disabled": 0, "rental_uris": {"android": "https://dc.lft.to/lastmile_qr_scan", "ios": "https://dc.lft.to/lastmile_qr_scan"}, "fusion_lon": 0.0, "lat": 38.9291425, "bike_id": "3960bed69da295d267ef91b20f27326c", "type": "electric_scooter", "is_reserved": 0, "lon": -77.0218935}, {"fusion_lat": 0.0, "name": "2d9677e5a2579c3b5f6132984dc09b0f", "is_disabled": 0, "rental_uris": {"android": "https://dc.lft.to/lastmile_qr_scan", "ios": "https://dc.lft.to/lastmile_qr_scan"}, "fusion_lon": 0.0, "lat": 38.8133205, "bike_id": "2d9677e5a2579c3b5f6132984dc09b0f", "type": "electric_bike", "is_reserved": 0, "lon": -77.05093283333333}, {"fusion_lat": 0.0, "name": "1143a5679f47d6c81bb41203ea622fef", "is_disabled": 0, "rental_uris": {"android": "https://dc.lft.to/lastmile_qr_scan", "ios": "https://dc.lft.to/lastmile_qr_scan"}, "fusion_lon": 0.0, "lat": 38.931943833333335, "bike_id": "1143a5679f47d6c81bb41203ea622fef", "type": "electric_bike", "is_reserved": 0, "lon": -77.22929}, {"fusion_lat": 0.0, "name": "c0d1a85f69ec9bda97006e534dd7e233", "is_disabled": 0, "rental_uris": {"android": "https://dc.lft.to/lastmile_qr_scan", "ios": "https://dc.lft.to/lastmile_qr_scan"}, "fusion_lon": 0.0, "lat": 38.914240666666664, "bike_id": "c0d1a85f69ec9bda97006e534dd7e233", "type": "electric_scooter", "is_reserved": 0, "lon": -77.034628}, {"fusion_lat": 0.0, "name": "2d1f90a5aee32c201a17e74f18428c08", "is_disabled": 0, "rental_uris": {"android": "https://dc.lft.to/lastmile_qr_scan", "ios": "https://dc.lft.to/lastmile_qr_scan"}, "fusion_lon": 0.0, "lat": 38.9248345, "bike_id": "2d1f90a5aee32c201a17e74f18428c08", "type": "electric_scooter", "is_reserved": 0, "lon": -77.026336}, {"fusion_lat": 0.0, "name": "7480797a0098f6c54b66bcded149c2b8", "is_disabled": 0, "rental_uris": {"android": "https://dc.lft.to/lastmile_qr_scan", "ios": "https://dc.lft.to/lastmile_qr_scan"}, "fusion_lon": 0.0, "lat": 38.9200945, "bike_id": "7480797a0098f6c54b66bcded149c2b8", "type": "electric_scooter", "is_reserved": 0, "lon": -77.03147783333333}, {"fusion_lat": 0.0, "name": "133536572cea6b59b127c398107e4097", "is_disabled": 0, "rental_uris": {"android": "https://dc.lft.to/lastmile_qr_scan", "ios": "https://dc.lft.to/lastmile_qr_scan"}, "fusion_lon": 0.0, "lat": 38.922419833333336, "bike_id": "133536572cea6b59b127c398107e4097", "type": "electric_scooter", "is_reserved": 0, "lon": -77.07477966666667}, {"fusion_lat": 0.0, "name": "086ef0bd835d2d9b10e377513524b833", "is_disabled": 0, "rental_uris": {"android": "https://dc.lft.to/lastmile_qr_scan", "ios": "https://dc.lft.to/lastmile_qr_scan"}, "fusion_lon": 0.0, "lat": 38.93514316666667, "bike_id": "086ef0bd835d2d9b10e377513524b833", "type": "electric_scooter", "is_reserved": 0, "lon": -77.03262583333333}, {"fusion_lat": 0.0, "name": "451805f3f8c6e515396f70d0c000f7c2", "is_disabled": 0, "rental_uris": {"android": "https://dc.lft.to/lastmile_qr_scan", "ios": "https://dc.lft.to/lastmile_qr_scan"}, "fusion_lon": 0.0, "lat": 38.92051883333333, "bike_id": "451805f3f8c6e515396f70d0c000f7c2", "type": "electric_scooter", "is_reserved": 0, "lon": -77.04260433333333}, {"fusion_lat": 0.0, "name": "08ab43dfb5e76dbfe8b809e21887c5b9", "is_disabled": 0, "rental_uris": {"android": "https://dc.lft.to/lastmile_qr_scan", "ios": "https://dc.lft.to/lastmile_qr_scan"}, "fusion_lon": 0.0, "lat": 38.90041816666667, "bike_id": "08ab43dfb5e76dbfe8b809e21887c5b9", "type": "electric_scooter", "is_reserved": 0, "lon": -77.00209983333333}, {"fusion_lat": 0.0, "name": "e7873418042251803862664bfa598304", "is_disabled": 0, "rental_uris": {"android": "https://dc.lft.to/lastmile_qr_scan", "ios": "https://dc.lft.to/lastmile_qr_scan"}, "fusion_lon": 0.0, "lat": 38.88313383333333, "bike_id": "e7873418042251803862664bfa598304", "type": "electric_scooter", "is_reserved": 0, "lon": -77.01766783333333}, {"fusion_lat": 0.0, "name": "752076288671bf647a07b9f3ff5953c7", "is_disabled": 0, "rental_uris": {"android": "https://dc.lft.to/lastmile_qr_scan", "ios": "https://dc.lft.to/lastmile_qr_scan"}, "fusion_lon": 0.0, "lat": 38.99779216666667, "bike_id": "752076288671bf647a07b9f3ff5953c7", "type": "electric_bike", "is_reserved": 0, "lon": -77.04718166666666}, {"fusion_lat": 0.0, "name": "e5eb344b171b9e257603ef74aff37731", "is_disabled": 0, "rental_uris": {"android": "https://dc.lft.to/lastmile_qr_scan", "ios": "https://dc.lft.to/lastmile_qr_scan"}, "fusion_lon": 0.0, "lat": 38.90307983333334, "bike_id": "e5eb344b171b9e257603ef74aff37731", "type": "electric_bike", "is_reserved": 0, "lon": -76.97656666666667}, {"fusion_lat": 0.0, "name": "c15ae0dae9464b3b666f9ac38f650e6d", "is_disabled": 0, "rental_uris": {"android": "https://dc.lft.to/lastmile_qr_scan", "ios": "https://dc.lft.to/lastmile_qr_scan"}, "fusion_lon": 0.0, "lat": 38.962062833333334, "bike_id": "c15ae0dae9464b3b666f9ac38f650e6d", "type": "electric_scooter", "is_reserved": 0, "lon": -77.02234}, {"fusion_lat": 0.0, "name": "7d8df18060300baf1c448f612fd35cd1", "is_disabled": 0, "rental_uris": {"android": "https://dc.lft.to/lastmile_qr_scan", "ios": "https://dc.lft.to/lastmile_qr_scan"}, "fusion_lon": 0.0, "lat": 38.90484383333333, "bike_id": "7d8df18060300baf1c448f612fd35cd1", "type": "electric_scooter", "is_reserved": 0, "lon": -77.01786333333334}, {"fusion_lat": 0.0, "name": "2a9f6282e96c241c4242279fe4622bba", "is_disabled": 0, "rental_uris": {"android": "https://dc.lft.to/lastmile_qr_scan", "ios": "https://dc.lft.to/lastmile_qr_scan"}, "fusion_lon": 0.0, "lat": 38.88409516666667, "bike_id": "2a9f6282e96c241c4242279fe4622bba", "type": "electric_scooter", "is_reserved": 0, "lon": -77.02168916666666}, {"fusion_lat": 0.0, "name": "208a07639bb7d7af0861b35d1ec8bc0f", "is_disabled": 0, "rental_uris": {"android": "https://dc.lft.to/lastmile_qr_scan", "ios": "https://dc.lft.to/lastmile_qr_scan"}, "fusion_lon": 0.0, "lat": 38.88715583333333, "bike_id": "208a07639bb7d7af0861b35d1ec8bc0f", "type": "electric_scooter", "is_reserved": 0, "lon": -77.0132965}, {"fusion_lat": 0.0, "name": "0f0e395ab7ae6ffb2abaae9126c16b02", "is_disabled": 0, "rental_uris": {"android": "https://dc.lft.to/lastmile_qr_scan", "ios": "https://dc.lft.to/lastmile_qr_scan"}, "fusion_lon": 0.0, "lat": 38.9338425, "bike_id": "0f0e395ab7ae6ffb2abaae9126c16b02", "type": "electric_scooter", "is_reserved": 0, "lon": -77.05738966666667}, {"fusion_lat": 0.0, "name": "6aa80e5c30c95d1896e248581ea8dc4f", "is_disabled": 0, "rental_uris": {"android": "https://dc.lft.to/lastmile_qr_scan", "ios": "https://dc.lft.to/lastmile_qr_scan"}, "fusion_lon": 0.0, "lat": 38.938617666666666, "bike_id": "6aa80e5c30c95d1896e248581ea8dc4f", "type": "electric_scooter", "is_reserved": 0, "lon": -77.02326116666667}, {"fusion_lat": 0.0, "name": "3384b0e327070bfacddd86761e14358a", "is_disabled": 0, "rental_uris": {"android": "https://dc.lft.to/lastmile_qr_scan", "ios": "https://dc.lft.to/lastmile_qr_scan"}, "fusion_lon": 0.0, "lat": 38.90290516666666, "bike_id": "3384b0e327070bfacddd86761e14358a", "type": "electric_scooter", "is_reserved": 0, "lon": -76.97633983333333}, {"fusion_lat": 0.0, "name": "4161623c23c62eccf702010ceb86b193", "is_disabled": 0, "rental_uris": {"android": "https://dc.lft.to/lastmile_qr_scan", "ios": "https://dc.lft.to/lastmile_qr_scan"}, "fusion_lon": 0.0, "lat": 38.89615666666667, "bike_id": "4161623c23c62eccf702010ceb86b193", "type": "electric_scooter", "is_reserved": 0, "lon": -77.03169866666667}, {"fusion_lat": 0.0, "name": "0bfcd049fc8b597e6dfcf96ec39dea33", "is_disabled": 0, "rental_uris": {"android": "https://dc.lft.to/lastmile_qr_scan", "ios": "https://dc.lft.to/lastmile_qr_scan"}, "fusion_lon": 0.0, "lat": 38.92286, "bike_id": "0bfcd049fc8b597e6dfcf96ec39dea33", "type": "electric_scooter", "is_reserved": 0, "lon": -77.01994483333333}, {"fusion_lat": 0.0, "name": "5d7eea95307c306e52e1063412c658ca", "is_disabled": 0, "rental_uris": {"android": "https://dc.lft.to/lastmile_qr_scan", "ios": "https://dc.lft.to/lastmile_qr_scan"}, "fusion_lon": 0.0, "lat": 38.94154566666667, "bike_id": "5d7eea95307c306e52e1063412c658ca", "type": "electric_scooter", "is_reserved": 0, "lon": -77.02624216666666}, {"fusion_lat": 0.0, "name": "72000631cedc24fac3d39f5732d0fe7f", "is_disabled": 0, "rental_uris": {"android": "https://dc.lft.to/lastmile_qr_scan", "ios": "https://dc.lft.to/lastmile_qr_scan"}, "fusion_lon": 0.0, "lat": 38.91828266666667, "bike_id": "72000631cedc24fac3d39f5732d0fe7f", "type": "electric_scooter", "is_reserved": 0, "lon": -77.03639866666667}, {"fusion_lat": 0.0, "name": "bc4797004a8619af4f7e9c8dd2090d98", "is_disabled": 0, "rental_uris": {"android": "https://dc.lft.to/lastmile_qr_scan", "ios": "https://dc.lft.to/lastmile_qr_scan"}, "fusion_lon": 0.0, "lat": 38.9259795, "bike_id": "bc4797004a8619af4f7e9c8dd2090d98", "type": "electric_scooter", "is_reserved": 0, "lon": -77.02153166666666}, {"fusion_lat": 0.0, "name": "628e05233a1cd9fe4dd6e7c98243be65", "is_disabled": 0, "rental_uris": {"android": "https://dc.lft.to/lastmile_qr_scan", "ios": "https://dc.lft.to/lastmile_qr_scan"}, "fusion_lon": 0.0, "lat": 38.91711083333333, "bike_id": "628e05233a1cd9fe4dd6e7c98243be65", "type": "electric_scooter", "is_reserved": 0, "lon": -77.04130316666667}, {"fusion_lat": 0.0, "name": "bfd7f8193bf464f77a43583fefe5fec5", "is_disabled": 0, "rental_uris": {"android": "https://dc.lft.to/lastmile_qr_scan", "ios": "https://dc.lft.to/lastmile_qr_scan"}, "fusion_lon": 0.0, "lat": 38.90314866666667, "bike_id": "bfd7f8193bf464f77a43583fefe5fec5", "type": "electric_scooter", "is_reserved": 0, "lon": -77.0650975}, {"fusion_lat": 0.0, "name": "4dda980fd0d9ddb3a65a4464fe2e09d1", "is_disabled": 0, "rental_uris": {"android": "https://dc.lft.to/lastmile_qr_scan", "ios": "https://dc.lft.to/lastmile_qr_scan"}, "fusion_lon": 0.0, "lat": 38.85798533333333, "bike_id": "4dda980fd0d9ddb3a65a4464fe2e09d1", "type": "electric_bike", "is_reserved": 0, "lon": -77.12013833333333}, {"fusion_lat": 0.0, "name": "6e24252dfa33ce5e74bec079c1a69ea8", "is_disabled": 0, "rental_uris": {"android": "https://dc.lft.to/lastmile_qr_scan", "ios": "https://dc.lft.to/lastmile_qr_scan"}, "fusion_lon": 0.0, "lat": 38.9110045, "bike_id": "6e24252dfa33ce5e74bec079c1a69ea8", "type": "electric_scooter", "is_reserved": 0, "lon": -77.02165466666666}, {"fusion_lat": 0.0, "name": "a352d8a398cdcce09b4d0981eb82f432", "is_disabled": 0, "rental_uris": {"android": "https://dc.lft.to/lastmile_qr_scan", "ios": "https://dc.lft.to/lastmile_qr_scan"}, "fusion_lon": 0.0, "lat": 38.916633833333336, "bike_id": "a352d8a398cdcce09b4d0981eb82f432", "type": "electric_scooter", "is_reserved": 0, "lon": -77.02969533333334}, {"fusion_lat": 0.0, "name": "45ee9e186a4766b3d8028fdcc12aca0a", "is_disabled": 0, "rental_uris": {"android": "https://dc.lft.to/lastmile_qr_scan", "ios": "https://dc.lft.to/lastmile_qr_scan"}, "fusion_lon": 0.0, "lat": 38.93145416666667, "bike_id": "45ee9e186a4766b3d8028fdcc12aca0a", "type": "electric_scooter", "is_reserved": 0, "lon": -77.03835083333334}, {"fusion_lat": 0.0, "name": "a03781f2324de9d88115c064784c9e60", "is_disabled": 0, "rental_uris": {"android": "https://dc.lft.to/lastmile_qr_scan", "ios": "https://dc.lft.to/lastmile_qr_scan"}, "fusion_lon": 0.0, "lat": 38.905602333333334, "bike_id": "a03781f2324de9d88115c064784c9e60", "type": "electric_scooter", "is_reserved": 0, "lon": -77.01313616666667}, {"fusion_lat": 0.0, "name": "a19f0420bed03332da9c55eba33c7bf5", "is_disabled": 0, "rental_uris": {"android": "https://dc.lft.to/lastmile_qr_scan", "ios": "https://dc.lft.to/lastmile_qr_scan"}, "fusion_lon": 0.0, "lat": 38.871787166666664, "bike_id": "a19f0420bed03332da9c55eba33c7bf5", "type": "electric_scooter", "is_reserved": 0, "lon": -77.00616433333333}, {"fusion_lat": 0.0, "name": "cb26c5539944640edea6c41013dce361", "is_disabled": 0, "rental_uris": {"android": "https://dc.lft.to/lastmile_qr_scan", "ios": "https://dc.lft.to/lastmile_qr_scan"}, "fusion_lon": 0.0, "lat": 38.930623, "bike_id": "cb26c5539944640edea6c41013dce361", "type": "electric_scooter", "is_reserved": 0, "lon": -77.0297695}, {"fusion_lat": 0.0, "name": "85c4753673fc4e2fa5780465d7e247af", "is_disabled": 0, "rental_uris": {"android": "https://dc.lft.to/lastmile_qr_scan", "ios": "https://dc.lft.to/lastmile_qr_scan"}, "fusion_lon": 0.0, "lat": 38.91791416666667, "bike_id": "85c4753673fc4e2fa5780465d7e247af", "type": "electric_scooter", "is_reserved": 0, "lon": -77.034372}, {"fusion_lat": 0.0, "name": "6314b08629a6bd7063577c43742e6172", "is_disabled": 0, "rental_uris": {"android": "https://dc.lft.to/lastmile_qr_scan", "ios": "https://dc.lft.to/lastmile_qr_scan"}, "fusion_lon": 0.0, "lat": 38.9317965, "bike_id": "6314b08629a6bd7063577c43742e6172", "type": "electric_scooter", "is_reserved": 0, "lon": -77.042984}, {"fusion_lat": 0.0, "name": "a95fb9ff74df0455e0e4046c177d9443", "is_disabled": 0, "rental_uris": {"android": "https://dc.lft.to/lastmile_qr_scan", "ios": "https://dc.lft.to/lastmile_qr_scan"}, "fusion_lon": 0.0, "lat": 38.896802666666666, "bike_id": "a95fb9ff74df0455e0e4046c177d9443", "type": "electric_scooter", "is_reserved": 0, "lon": -77.05127166666666}, {"fusion_lat": 0.0, "name": "fd33c70a2cd1bd39eb3ad22f0a197018", "is_disabled": 0, "rental_uris": {"android": "https://dc.lft.to/lastmile_qr_scan", "ios": "https://dc.lft.to/lastmile_qr_scan"}, "fusion_lon": 0.0, "lat": 38.9021735, "bike_id": "fd33c70a2cd1bd39eb3ad22f0a197018", "type": "electric_scooter", "is_reserved": 0, "lon": -77.023064}, {"fusion_lat": 0.0, "name": "2d6142c209ca12d8ef511cb935189611", "is_disabled": 0, "rental_uris": {"android": "https://dc.lft.to/lastmile_qr_scan", "ios": "https://dc.lft.to/lastmile_qr_scan"}, "fusion_lon": 0.0, "lat": 38.901169, "bike_id": "2d6142c209ca12d8ef511cb935189611", "type": "electric_scooter", "is_reserved": 0, "lon": -77.05241133333334}, {"fusion_lat": 0.0, "name": "3351dc89f2102683dbe725d8f79098ba", "is_disabled": 0, "rental_uris": {"android": "https://dc.lft.to/lastmile_qr_scan", "ios": "https://dc.lft.to/lastmile_qr_scan"}, "fusion_lon": 0.0, "lat": 38.89829916666667, "bike_id": "3351dc89f2102683dbe725d8f79098ba", "type": "electric_scooter", "is_reserved": 0, "lon": -76.94628966666667}, {"fusion_lat": 0.0, "name": "b9f138a8c0c6f2e7529c0139bcb17de2", "is_disabled": 0, "rental_uris": {"android": "https://dc.lft.to/lastmile_qr_scan", "ios": "https://dc.lft.to/lastmile_qr_scan"}, "fusion_lon": 0.0, "lat": 38.883098833333335, "bike_id": "b9f138a8c0c6f2e7529c0139bcb17de2", "type": "electric_scooter", "is_reserved": 0, "lon": -77.01766266666667}, {"fusion_lat": 0.0, "name": "4b4abbb0eedf41e0cff7a450db5bf652", "is_disabled": 0, "rental_uris": {"android": "https://dc.lft.to/lastmile_qr_scan", "ios": "https://dc.lft.to/lastmile_qr_scan"}, "fusion_lon": 0.0, "lat": 38.877487, "bike_id": "4b4abbb0eedf41e0cff7a450db5bf652", "type": "electric_scooter", "is_reserved": 0, "lon": -77.01430566666667}, {"fusion_lat": 0.0, "name": "fda160ba5e614240e6be8f269e105851", "is_disabled": 0, "rental_uris": {"android": "https://dc.lft.to/lastmile_qr_scan", "ios": "https://dc.lft.to/lastmile_qr_scan"}, "fusion_lon": 0.0, "lat": 38.896138, "bike_id": "fda160ba5e614240e6be8f269e105851", "type": "electric_scooter", "is_reserved": 0, "lon": -76.94815366666667}, {"fusion_lat": 0.0, "name": "a1fac579c512725e45889c710171a449", "is_disabled": 0, "rental_uris": {"android": "https://dc.lft.to/lastmile_qr_scan", "ios": "https://dc.lft.to/lastmile_qr_scan"}, "fusion_lon": 0.0, "lat": 38.879499333333335, "bike_id": "a1fac579c512725e45889c710171a449", "type": "electric_scooter", "is_reserved": 0, "lon": -76.9901065}, {"fusion_lat": 0.0, "name": "228c95682e6e25f131dd0567cff87b73", "is_disabled": 0, "rental_uris": {"android": "https://dc.lft.to/lastmile_qr_scan", "ios": "https://dc.lft.to/lastmile_qr_scan"}, "fusion_lon": 0.0, "lat": 38.92603233333333, "bike_id": "228c95682e6e25f131dd0567cff87b73", "type": "electric_scooter", "is_reserved": 0, "lon": -77.02155916666666}, {"fusion_lat": 0.0, "name": "515e6e5586d2555cebedb6b9c5bc5d69", "is_disabled": 0, "rental_uris": {"android": "https://dc.lft.to/lastmile_qr_scan", "ios": "https://dc.lft.to/lastmile_qr_scan"}, "fusion_lon": 0.0, "lat": 38.91659533333333, "bike_id": "515e6e5586d2555cebedb6b9c5bc5d69", "type": "electric_scooter", "is_reserved": 0, "lon": -77.02812883333333}, {"fusion_lat": 0.0, "name": "4936716719cef82fb91be42b26421034", "is_disabled": 0, "rental_uris": {"android": "https://dc.lft.to/lastmile_qr_scan", "ios": "https://dc.lft.to/lastmile_qr_scan"}, "fusion_lon": 0.0, "lat": 38.82180133333333, "bike_id": "4936716719cef82fb91be42b26421034", "type": "electric_bike", "is_reserved": 0, "lon": -76.99517266666666}, {"fusion_lat": 0.0, "name": "b147d25187f32b2f43568134daaa142f", "is_disabled": 0, "rental_uris": {"android": "https://dc.lft.to/lastmile_qr_scan", "ios": "https://dc.lft.to/lastmile_qr_scan"}, "fusion_lon": 0.0, "lat": 38.890065666666665, "bike_id": "b147d25187f32b2f43568134daaa142f", "type": "electric_scooter", "is_reserved": 0, "lon": -76.93746183333333}, {"fusion_lat": 0.0, "name": "94016cf7caee453ed77cf54e81fa2c2b", "is_disabled": 0, "rental_uris": {"android": "https://dc.lft.to/lastmile_qr_scan", "ios": "https://dc.lft.to/lastmile_qr_scan"}, "fusion_lon": 0.0, "lat": 38.932627333333336, "bike_id": "94016cf7caee453ed77cf54e81fa2c2b", "type": "electric_scooter", "is_reserved": 0, "lon": -77.020941}, {"fusion_lat": 0.0, "name": "dae774ad2eba4e1aacd96bd80e995e3c", "is_disabled": 0, "rental_uris": {"android": "https://dc.lft.to/lastmile_qr_scan", "ios": "https://dc.lft.to/lastmile_qr_scan"}, "fusion_lon": 0.0, "lat": 38.92099366666667, "bike_id": "dae774ad2eba4e1aacd96bd80e995e3c", "type": "electric_scooter", "is_reserved": 0, "lon": -76.99465583333334}, {"fusion_lat": 0.0, "name": "63d8c584faf1680892fbb976145043f2", "is_disabled": 0, "rental_uris": {"android": "https://dc.lft.to/lastmile_qr_scan", "ios": "https://dc.lft.to/lastmile_qr_scan"}, "fusion_lon": 0.0, "lat": 38.87688583333333, "bike_id": "63d8c584faf1680892fbb976145043f2", "type": "electric_scooter", "is_reserved": 0, "lon": -77.017565}, {"fusion_lat": 0.0, "name": "3160f9a86c2d8e6ef9e2cb50776e02d5", "is_disabled": 0, "rental_uris": {"android": "https://dc.lft.to/lastmile_qr_scan", "ios": "https://dc.lft.to/lastmile_qr_scan"}, "fusion_lon": 0.0, "lat": 38.91488233333333, "bike_id": "3160f9a86c2d8e6ef9e2cb50776e02d5", "type": "electric_scooter", "is_reserved": 0, "lon": -77.04564016666667}, {"fusion_lat": 0.0, "name": "201591c307a38d9942fe774e8acaaea0", "is_disabled": 0, "rental_uris": {"android": "https://dc.lft.to/lastmile_qr_scan", "ios": "https://dc.lft.to/lastmile_qr_scan"}, "fusion_lon": 0.0, "lat": 38.89714566666667, "bike_id": "201591c307a38d9942fe774e8acaaea0", "type": "electric_scooter", "is_reserved": 0, "lon": -77.046214}, {"fusion_lat": 0.0, "name": "d5dd2148c38769b76b9ec3ed145baead", "is_disabled": 0, "rental_uris": {"android": "https://dc.lft.to/lastmile_qr_scan", "ios": "https://dc.lft.to/lastmile_qr_scan"}, "fusion_lon": 0.0, "lat": 38.934847166666664, "bike_id": "d5dd2148c38769b76b9ec3ed145baead", "type": "electric_bike", "is_reserved": 0, "lon": -77.0302015}, {"fusion_lat": 0.0, "name": "6f646793efd060f9ac928c93da5a58fe", "is_disabled": 0, "rental_uris": {"android": "https://dc.lft.to/lastmile_qr_scan", "ios": "https://dc.lft.to/lastmile_qr_scan"}, "fusion_lon": 0.0, "lat": 38.90038033333333, "bike_id": "6f646793efd060f9ac928c93da5a58fe", "type": "electric_scooter", "is_reserved": 0, "lon": -77.00200483333333}, {"fusion_lat": 0.0, "name": "82e0f9290e3d570806850944c08c67fe", "is_disabled": 0, "rental_uris": {"android": "https://dc.lft.to/lastmile_qr_scan", "ios": "https://dc.lft.to/lastmile_qr_scan"}, "fusion_lon": 0.0, "lat": 38.804489333333336, "bike_id": "82e0f9290e3d570806850944c08c67fe", "type": "electric_bike", "is_reserved": 0, "lon": -77.053893}, {"fusion_lat": 0.0, "name": "3145f4d7ab74e9c6cd96a5a7f9f1db45", "is_disabled": 0, "rental_uris": {"android": "https://dc.lft.to/lastmile_qr_scan", "ios": "https://dc.lft.to/lastmile_qr_scan"}, "fusion_lon": 0.0, "lat": 38.927402, "bike_id": "3145f4d7ab74e9c6cd96a5a7f9f1db45", "type": "electric_scooter", "is_reserved": 0, "lon": -77.03426766666666}, {"fusion_lat": 0.0, "name": "370333ee61abe17455d94804407d2636", "is_disabled": 0, "rental_uris": {"android": "https://dc.lft.to/lastmile_qr_scan", "ios": "https://dc.lft.to/lastmile_qr_scan"}, "fusion_lon": 0.0, "lat": 38.90410283333333, "bike_id": "370333ee61abe17455d94804407d2636", "type": "electric_scooter", "is_reserved": 0, "lon": -76.97333166666667}, {"fusion_lat": 0.0, "name": "55b3c96904588c8e31124c7da0609498", "is_disabled": 0, "rental_uris": {"android": "https://dc.lft.to/lastmile_qr_scan", "ios": "https://dc.lft.to/lastmile_qr_scan"}, "fusion_lon": 0.0, "lat": 38.8970585, "bike_id": "55b3c96904588c8e31124c7da0609498", "type": "electric_scooter", "is_reserved": 0, "lon": -77.0298155}, {"fusion_lat": 0.0, "name": "7e5e9fd7137d08022f4edce381cc59db", "is_disabled": 0, "rental_uris": {"android": "https://dc.lft.to/lastmile_qr_scan", "ios": "https://dc.lft.to/lastmile_qr_scan"}, "fusion_lon": 0.0, "lat": 38.88707983333333, "bike_id": "7e5e9fd7137d08022f4edce381cc59db", "type": "electric_scooter", "is_reserved": 0, "lon": -77.002479}, {"fusion_lat": 0.0, "name": "ea718c7e5d16ef432726ab2adc7f4136", "is_disabled": 0, "rental_uris": {"android": "https://dc.lft.to/lastmile_qr_scan", "ios": "https://dc.lft.to/lastmile_qr_scan"}, "fusion_lon": 0.0, "lat": 38.9073045, "bike_id": "ea718c7e5d16ef432726ab2adc7f4136", "type": "electric_scooter", "is_reserved": 0, "lon": -77.02970783333333}, {"fusion_lat": 0.0, "name": "71b0eab53c8ef1c4126bfe9dc216e8f8", "is_disabled": 0, "rental_uris": {"android": "https://dc.lft.to/lastmile_qr_scan", "ios": "https://dc.lft.to/lastmile_qr_scan"}, "fusion_lon": 0.0, "lat": 38.930951, "bike_id": "71b0eab53c8ef1c4126bfe9dc216e8f8", "type": "electric_scooter", "is_reserved": 0, "lon": -77.0240505}, {"fusion_lat": 0.0, "name": "68608101cdff6549d8bd7989422574d8", "is_disabled": 0, "rental_uris": {"android": "https://dc.lft.to/lastmile_qr_scan", "ios": "https://dc.lft.to/lastmile_qr_scan"}, "fusion_lon": 0.0, "lat": 38.866305833333335, "bike_id": "68608101cdff6549d8bd7989422574d8", "type": "electric_scooter", "is_reserved": 0, "lon": -76.98303666666666}, {"fusion_lat": 0.0, "name": "1d63da934a32a71d12899468addcde92", "is_disabled": 0, "rental_uris": {"android": "https://dc.lft.to/lastmile_qr_scan", "ios": "https://dc.lft.to/lastmile_qr_scan"}, "fusion_lon": 0.0, "lat": 38.888027666666666, "bike_id": "1d63da934a32a71d12899468addcde92", "type": "electric_scooter", "is_reserved": 0, "lon": -76.98361533333333}, {"fusion_lat": 0.0, "name": "81ec5f15cbe3381102edafc91318cd7c", "is_disabled": 0, "rental_uris": {"android": "https://dc.lft.to/lastmile_qr_scan", "ios": "https://dc.lft.to/lastmile_qr_scan"}, "fusion_lon": 0.0, "lat": 38.931268, "bike_id": "81ec5f15cbe3381102edafc91318cd7c", "type": "electric_scooter", "is_reserved": 0, "lon": -77.0219785}, {"fusion_lat": 0.0, "name": "29ef2b3581fcb6fb768f6bd2d1484ef0", "is_disabled": 0, "rental_uris": {"android": "https://dc.lft.to/lastmile_qr_scan", "ios": "https://dc.lft.to/lastmile_qr_scan"}, "fusion_lon": 0.0, "lat": 38.920005, "bike_id": "29ef2b3581fcb6fb768f6bd2d1484ef0", "type": "electric_scooter", "is_reserved": 0, "lon": -77.0234515}, {"fusion_lat": 0.0, "name": "d10be334453172375b3ce73739666f3d", "is_disabled": 0, "rental_uris": {"android": "https://dc.lft.to/lastmile_qr_scan", "ios": "https://dc.lft.to/lastmile_qr_scan"}, "fusion_lon": 0.0, "lat": 38.913353666666666, "bike_id": "d10be334453172375b3ce73739666f3d", "type": "electric_scooter", "is_reserved": 0, "lon": -77.04340916666666}, {"fusion_lat": 0.0, "name": "c92a92be38fda4950f59b14995c6eeb9", "is_disabled": 0, "rental_uris": {"android": "https://dc.lft.to/lastmile_qr_scan", "ios": "https://dc.lft.to/lastmile_qr_scan"}, "fusion_lon": 0.0, "lat": 38.90564283333333, "bike_id": "c92a92be38fda4950f59b14995c6eeb9", "type": "electric_scooter", "is_reserved": 0, "lon": -77.00592566666667}, {"fusion_lat": 0.0, "name": "c6f7b06477d98eee6327ff2ad8260fdd", "is_disabled": 0, "rental_uris": {"android": "https://dc.lft.to/lastmile_qr_scan", "ios": "https://dc.lft.to/lastmile_qr_scan"}, "fusion_lon": 0.0, "lat": 38.925554, "bike_id": "c6f7b06477d98eee6327ff2ad8260fdd", "type": "electric_scooter", "is_reserved": 0, "lon": -76.98303433333334}, {"fusion_lat": 0.0, "name": "1a525e726d07584a154417ef61e7a1dd", "is_disabled": 0, "rental_uris": {"android": "https://dc.lft.to/lastmile_qr_scan", "ios": "https://dc.lft.to/lastmile_qr_scan"}, "fusion_lon": 0.0, "lat": 38.90194, "bike_id": "1a525e726d07584a154417ef61e7a1dd", "type": "electric_scooter", "is_reserved": 0, "lon": -77.01596066666667}, {"fusion_lat": 0.0, "name": "bb763a24ec9ec38fdb91cdb6172fa329", "is_disabled": 0, "rental_uris": {"android": "https://dc.lft.to/lastmile_qr_scan", "ios": "https://dc.lft.to/lastmile_qr_scan"}, "fusion_lon": 0.0, "lat": 38.92671216666667, "bike_id": "bb763a24ec9ec38fdb91cdb6172fa329", "type": "electric_scooter", "is_reserved": 0, "lon": -77.03142333333334}, {"fusion_lat": 0.0, "name": "1b83352196908cc34d0a31e7b12391b5", "is_disabled": 0, "rental_uris": {"android": "https://dc.lft.to/lastmile_qr_scan", "ios": "https://dc.lft.to/lastmile_qr_scan"}, "fusion_lon": 0.0, "lat": 38.91660133333333, "bike_id": "1b83352196908cc34d0a31e7b12391b5", "type": "electric_scooter", "is_reserved": 0, "lon": -77.03857966666666}, {"fusion_lat": 0.0, "name": "eed55fb728d48ea8eeeed5c488c0d67e", "is_disabled": 0, "rental_uris": {"android": "https://dc.lft.to/lastmile_qr_scan", "ios": "https://dc.lft.to/lastmile_qr_scan"}, "fusion_lon": 0.0, "lat": 38.906809333333335, "bike_id": "eed55fb728d48ea8eeeed5c488c0d67e", "type": "electric_scooter", "is_reserved": 0, "lon": -77.07479083333334}, {"fusion_lat": 0.0, "name": "9073bf74d2b6c9c6ef92f59ff9006cb2", "is_disabled": 0, "rental_uris": {"android": "https://dc.lft.to/lastmile_qr_scan", "ios": "https://dc.lft.to/lastmile_qr_scan"}, "fusion_lon": 0.0, "lat": 38.941681833333334, "bike_id": "9073bf74d2b6c9c6ef92f59ff9006cb2", "type": "electric_scooter", "is_reserved": 0, "lon": -77.02516716666666}, {"fusion_lat": 0.0, "name": "bee6543e11321044b779ca72ad36c229", "is_disabled": 0, "rental_uris": {"android": "https://dc.lft.to/lastmile_qr_scan", "ios": "https://dc.lft.to/lastmile_qr_scan"}, "fusion_lon": 0.0, "lat": 38.893559333333336, "bike_id": "bee6543e11321044b779ca72ad36c229", "type": "electric_scooter", "is_reserved": 0, "lon": -77.02800833333333}, {"fusion_lat": 0.0, "name": "9ca9277ea20dc9f251db15a6b2e93039", "is_disabled": 0, "rental_uris": {"android": "https://dc.lft.to/lastmile_qr_scan", "ios": "https://dc.lft.to/lastmile_qr_scan"}, "fusion_lon": 0.0, "lat": 38.931877666666665, "bike_id": "9ca9277ea20dc9f251db15a6b2e93039", "type": "electric_scooter", "is_reserved": 0, "lon": -77.02976083333333}, {"fusion_lat": 0.0, "name": "9e46ee35677805ef46baa11d20d0c498", "is_disabled": 0, "rental_uris": {"android": "https://dc.lft.to/lastmile_qr_scan", "ios": "https://dc.lft.to/lastmile_qr_scan"}, "fusion_lon": 0.0, "lat": 38.927008, "bike_id": "9e46ee35677805ef46baa11d20d0c498", "type": "electric_scooter", "is_reserved": 0, "lon": -77.020787}, {"fusion_lat": 0.0, "name": "32e8560e8aefbed65743f004f84c8aa1", "is_disabled": 0, "rental_uris": {"android": "https://dc.lft.to/lastmile_qr_scan", "ios": "https://dc.lft.to/lastmile_qr_scan"}, "fusion_lon": 0.0, "lat": 38.90061683333333, "bike_id": "32e8560e8aefbed65743f004f84c8aa1", "type": "electric_scooter", "is_reserved": 0, "lon": -76.98719433333333}, {"fusion_lat": 0.0, "name": "6093512d22ee5c37a715c10c114f2208", "is_disabled": 0, "rental_uris": {"android": "https://dc.lft.to/lastmile_qr_scan", "ios": "https://dc.lft.to/lastmile_qr_scan"}, "fusion_lon": 0.0, "lat": 38.8850255, "bike_id": "6093512d22ee5c37a715c10c114f2208", "type": "electric_scooter", "is_reserved": 0, "lon": -76.99755116666667}, {"fusion_lat": 0.0, "name": "e716960409216896bf6c6eb3796fe014", "is_disabled": 0, "rental_uris": {"android": "https://dc.lft.to/lastmile_qr_scan", "ios": "https://dc.lft.to/lastmile_qr_scan"}, "fusion_lon": 0.0, "lat": 38.923978166666664, "bike_id": "e716960409216896bf6c6eb3796fe014", "type": "electric_scooter", "is_reserved": 0, "lon": -77.03643233333334}, {"fusion_lat": 0.0, "name": "ff24806ab05c771e120b3edb4895cbb8", "is_disabled": 0, "rental_uris": {"android": "https://dc.lft.to/lastmile_qr_scan", "ios": "https://dc.lft.to/lastmile_qr_scan"}, "fusion_lon": 0.0, "lat": 38.849117666666665, "bike_id": "ff24806ab05c771e120b3edb4895cbb8", "type": "electric_bike", "is_reserved": 0, "lon": -77.07928283333334}, {"fusion_lat": 0.0, "name": "7c788a8bf49deb8ee627f1b943f0c036", "is_disabled": 0, "rental_uris": {"android": "https://dc.lft.to/lastmile_qr_scan", "ios": "https://dc.lft.to/lastmile_qr_scan"}, "fusion_lon": 0.0, "lat": 38.81612416666667, "bike_id": "7c788a8bf49deb8ee627f1b943f0c036", "type": "electric_bike", "is_reserved": 0, "lon": -76.9965955}, {"fusion_lat": 0.0, "name": "9ac48a725259903fe7ff52dbc6f94a26", "is_disabled": 0, "rental_uris": {"android": "https://dc.lft.to/lastmile_qr_scan", "ios": "https://dc.lft.to/lastmile_qr_scan"}, "fusion_lon": 0.0, "lat": 39.01416833333333, "bike_id": "9ac48a725259903fe7ff52dbc6f94a26", "type": "electric_bike", "is_reserved": 0, "lon": -77.04497433333333}, {"fusion_lat": 0.0, "name": "51fd667603a8b60556e62529b7872a42", "is_disabled": 0, "rental_uris": {"android": "https://dc.lft.to/lastmile_qr_scan", "ios": "https://dc.lft.to/lastmile_qr_scan"}, "fusion_lon": 0.0, "lat": 38.91337016666667, "bike_id": "51fd667603a8b60556e62529b7872a42", "type": "electric_scooter", "is_reserved": 0, "lon": -77.04274083333334}, {"fusion_lat": 0.0, "name": "8018dc36b0e15376975f8cdc5e260f50", "is_disabled": 0, "rental_uris": {"android": "https://dc.lft.to/lastmile_qr_scan", "ios": "https://dc.lft.to/lastmile_qr_scan"}, "fusion_lon": 0.0, "lat": 38.92893516666667, "bike_id": "8018dc36b0e15376975f8cdc5e260f50", "type": "electric_bike", "is_reserved": 0, "lon": -77.231781}, {"fusion_lat": 0.0, "name": "f656f7e4a3ec5bcb779daf1ffbc1459a", "is_disabled": 0, "rental_uris": {"android": "https://dc.lft.to/lastmile_qr_scan", "ios": "https://dc.lft.to/lastmile_qr_scan"}, "fusion_lon": 0.0, "lat": 38.897934666666664, "bike_id": "f656f7e4a3ec5bcb779daf1ffbc1459a", "type": "electric_scooter", "is_reserved": 0, "lon": -77.01200116666666}, {"fusion_lat": 0.0, "name": "7987e4806e374f78c7b8079055d1e665", "is_disabled": 0, "rental_uris": {"android": "https://dc.lft.to/lastmile_qr_scan", "ios": "https://dc.lft.to/lastmile_qr_scan"}, "fusion_lon": 0.0, "lat": 38.8923705, "bike_id": "7987e4806e374f78c7b8079055d1e665", "type": "electric_scooter", "is_reserved": 0, "lon": -77.021126}, {"fusion_lat": 0.0, "name": "e1498ba048cc6acfbe4cc709a510379f", "is_disabled": 0, "rental_uris": {"android": "https://dc.lft.to/lastmile_qr_scan", "ios": "https://dc.lft.to/lastmile_qr_scan"}, "fusion_lon": 0.0, "lat": 38.90334766666667, "bike_id": "e1498ba048cc6acfbe4cc709a510379f", "type": "electric_scooter", "is_reserved": 0, "lon": -77.04494266666667}, {"fusion_lat": 0.0, "name": "bdaddef2b333457ee0ca013776f89d7c", "is_disabled": 0, "rental_uris": {"android": "https://dc.lft.to/lastmile_qr_scan", "ios": "https://dc.lft.to/lastmile_qr_scan"}, "fusion_lon": 0.0, "lat": 38.91414316666667, "bike_id": "bdaddef2b333457ee0ca013776f89d7c", "type": "electric_scooter", "is_reserved": 0, "lon": -77.02213783333333}, {"fusion_lat": 0.0, "name": "eb07e2ac3fe46ec8131e0abcdce9bc81", "is_disabled": 0, "rental_uris": {"android": "https://dc.lft.to/lastmile_qr_scan", "ios": "https://dc.lft.to/lastmile_qr_scan"}, "fusion_lon": 0.0, "lat": 38.917131166666664, "bike_id": "eb07e2ac3fe46ec8131e0abcdce9bc81", "type": "electric_scooter", "is_reserved": 0, "lon": -77.03854833333334}, {"fusion_lat": 0.0, "name": "4c040a054659333a939fa3e21695d4dd", "is_disabled": 0, "rental_uris": {"android": "https://dc.lft.to/lastmile_qr_scan", "ios": "https://dc.lft.to/lastmile_qr_scan"}, "fusion_lon": 0.0, "lat": 38.912833, "bike_id": "4c040a054659333a939fa3e21695d4dd", "type": "electric_scooter", "is_reserved": 0, "lon": -77.02301166666666}, {"fusion_lat": 0.0, "name": "d6cf08f25027abb7dd3eba413163f6d1", "is_disabled": 0, "rental_uris": {"android": "https://dc.lft.to/lastmile_qr_scan", "ios": "https://dc.lft.to/lastmile_qr_scan"}, "fusion_lon": 0.0, "lat": 38.952836, "bike_id": "d6cf08f25027abb7dd3eba413163f6d1", "type": "electric_scooter", "is_reserved": 0, "lon": -77.06858166666666}, {"fusion_lat": 0.0, "name": "34c5762bade2fb52428c6dadb5c05277", "is_disabled": 0, "rental_uris": {"android": "https://dc.lft.to/lastmile_qr_scan", "ios": "https://dc.lft.to/lastmile_qr_scan"}, "fusion_lon": 0.0, "lat": 38.8974125, "bike_id": "34c5762bade2fb52428c6dadb5c05277", "type": "electric_scooter", "is_reserved": 0, "lon": -77.04923016666666}, {"fusion_lat": 0.0, "name": "10c75439cf159b087f26b49b2bcff5ff", "is_disabled": 0, "rental_uris": {"android": "https://dc.lft.to/lastmile_qr_scan", "ios": "https://dc.lft.to/lastmile_qr_scan"}, "fusion_lon": 0.0, "lat": 38.903068, "bike_id": "10c75439cf159b087f26b49b2bcff5ff", "type": "electric_scooter", "is_reserved": 0, "lon": -77.0222545}, {"fusion_lat": 0.0, "name": "edf0f1ba16a3a512e337aa7b21982fec", "is_disabled": 0, "rental_uris": {"android": "https://dc.lft.to/lastmile_qr_scan", "ios": "https://dc.lft.to/lastmile_qr_scan"}, "fusion_lon": 0.0, "lat": 38.99100083333333, "bike_id": "edf0f1ba16a3a512e337aa7b21982fec", "type": "electric_bike", "is_reserved": 0, "lon": -76.99376366666667}, {"fusion_lat": 0.0, "name": "65b2bcbdf62da683e0e3e890b2f2b6c2", "is_disabled": 0, "rental_uris": {"android": "https://dc.lft.to/lastmile_qr_scan", "ios": "https://dc.lft.to/lastmile_qr_scan"}, "fusion_lon": 0.0, "lat": 38.928991333333336, "bike_id": "65b2bcbdf62da683e0e3e890b2f2b6c2", "type": "electric_scooter", "is_reserved": 0, "lon": -77.03243066666667}, {"fusion_lat": 0.0, "name": "a54879b48982adbb0f07e54ceb34230e", "is_disabled": 0, "rental_uris": {"android": "https://dc.lft.to/lastmile_qr_scan", "ios": "https://dc.lft.to/lastmile_qr_scan"}, "fusion_lon": 0.0, "lat": 38.900409833333335, "bike_id": "a54879b48982adbb0f07e54ceb34230e", "type": "electric_scooter", "is_reserved": 0, "lon": -77.00197033333333}, {"fusion_lat": 0.0, "name": "b1eaf215ebae8ffdcd0f23095a6ed46b", "is_disabled": 0, "rental_uris": {"android": "https://dc.lft.to/lastmile_qr_scan", "ios": "https://dc.lft.to/lastmile_qr_scan"}, "fusion_lon": 0.0, "lat": 38.8971095, "bike_id": "b1eaf215ebae8ffdcd0f23095a6ed46b", "type": "electric_scooter", "is_reserved": 0, "lon": -77.0072465}, {"fusion_lat": 0.0, "name": "d3406ebdc2875461a7733d99bdbb16d2", "is_disabled": 0, "rental_uris": {"android": "https://dc.lft.to/lastmile_qr_scan", "ios": "https://dc.lft.to/lastmile_qr_scan"}, "fusion_lon": 0.0, "lat": 38.920885, "bike_id": "d3406ebdc2875461a7733d99bdbb16d2", "type": "electric_scooter", "is_reserved": 0, "lon": -76.99488116666667}, {"fusion_lat": 0.0, "name": "b6effe6e8a3b1f5e15269121b061f1d7", "is_disabled": 0, "rental_uris": {"android": "https://dc.lft.to/lastmile_qr_scan", "ios": "https://dc.lft.to/lastmile_qr_scan"}, "fusion_lon": 0.0, "lat": 38.89897533333333, "bike_id": "b6effe6e8a3b1f5e15269121b061f1d7", "type": "electric_bike", "is_reserved": 0, "lon": -77.096184}, {"fusion_lat": 0.0, "name": "5b21aa1c7d53d8145f0a13767d315f0b", "is_disabled": 0, "rental_uris": {"android": "https://dc.lft.to/lastmile_qr_scan", "ios": "https://dc.lft.to/lastmile_qr_scan"}, "fusion_lon": 0.0, "lat": 39.05255533333333, "bike_id": "5b21aa1c7d53d8145f0a13767d315f0b", "type": "electric_bike", "is_reserved": 0, "lon": -77.08067583333333}, {"fusion_lat": 0.0, "name": "4516866b0cdb63524649267f93e95651", "is_disabled": 0, "rental_uris": {"android": "https://dc.lft.to/lastmile_qr_scan", "ios": "https://dc.lft.to/lastmile_qr_scan"}, "fusion_lon": 0.0, "lat": 38.93991366666667, "bike_id": "4516866b0cdb63524649267f93e95651", "type": "electric_bike", "is_reserved": 0, "lon": -77.0357835}, {"fusion_lat": 0.0, "name": "430ad9613190802eba13c0f6b644c7d2", "is_disabled": 0, "rental_uris": {"android": "https://dc.lft.to/lastmile_qr_scan", "ios": "https://dc.lft.to/lastmile_qr_scan"}, "fusion_lon": 0.0, "lat": 38.89623183333333, "bike_id": "430ad9613190802eba13c0f6b644c7d2", "type": "electric_scooter", "is_reserved": 0, "lon": -77.0092415}, {"fusion_lat": 0.0, "name": "90f71365b02eab37adf347c046db6b7a", "is_disabled": 0, "rental_uris": {"android": "https://dc.lft.to/lastmile_qr_scan", "ios": "https://dc.lft.to/lastmile_qr_scan"}, "fusion_lon": 0.0, "lat": 38.89763966666666, "bike_id": "90f71365b02eab37adf347c046db6b7a", "type": "electric_scooter", "is_reserved": 0, "lon": -77.008944}, {"fusion_lat": 0.0, "name": "22c0da2700d5deb2b23c84294a2eaaf7", "is_disabled": 0, "rental_uris": {"android": "https://dc.lft.to/lastmile_qr_scan", "ios": "https://dc.lft.to/lastmile_qr_scan"}, "fusion_lon": 0.0, "lat": 38.89934183333333, "bike_id": "22c0da2700d5deb2b23c84294a2eaaf7", "type": "electric_scooter", "is_reserved": 0, "lon": -77.00355183333333}, {"fusion_lat": 0.0, "name": "e3835d60f7d2ea286ede280f5018716b", "is_disabled": 0, "rental_uris": {"android": "https://dc.lft.to/lastmile_qr_scan", "ios": "https://dc.lft.to/lastmile_qr_scan"}, "fusion_lon": 0.0, "lat": 38.927394, "bike_id": "e3835d60f7d2ea286ede280f5018716b", "type": "electric_scooter", "is_reserved": 0, "lon": -77.02434116666667}, {"fusion_lat": 0.0, "name": "b88da613d11281099e2cf78336e973f4", "is_disabled": 0, "rental_uris": {"android": "https://dc.lft.to/lastmile_qr_scan", "ios": "https://dc.lft.to/lastmile_qr_scan"}, "fusion_lon": 0.0, "lat": 38.88302933333333, "bike_id": "b88da613d11281099e2cf78336e973f4", "type": "electric_scooter", "is_reserved": 0, "lon": -77.0176435}, {"fusion_lat": 0.0, "name": "8c2f607dfb35e6baa71e0c010ff31682", "is_disabled": 0, "rental_uris": {"android": "https://dc.lft.to/lastmile_qr_scan", "ios": "https://dc.lft.to/lastmile_qr_scan"}, "fusion_lon": 0.0, "lat": 38.91251116666667, "bike_id": "8c2f607dfb35e6baa71e0c010ff31682", "type": "electric_scooter", "is_reserved": 0, "lon": -77.00153616666667}, {"fusion_lat": 0.0, "name": "e745f9b721dd55fcec1fb38aa239f3ac", "is_disabled": 0, "rental_uris": {"android": "https://dc.lft.to/lastmile_qr_scan", "ios": "https://dc.lft.to/lastmile_qr_scan"}, "fusion_lon": 0.0, "lat": 38.87179483333333, "bike_id": "e745f9b721dd55fcec1fb38aa239f3ac", "type": "electric_scooter", "is_reserved": 0, "lon": -77.0061615}, {"fusion_lat": 0.0, "name": "d73a926f7bc53e63c10269a1fdc8170a", "is_disabled": 0, "rental_uris": {"android": "https://dc.lft.to/lastmile_qr_scan", "ios": "https://dc.lft.to/lastmile_qr_scan"}, "fusion_lon": 0.0, "lat": 38.898745, "bike_id": "d73a926f7bc53e63c10269a1fdc8170a", "type": "electric_scooter", "is_reserved": 0, "lon": -76.931881}, {"fusion_lat": 0.0, "name": "3f81a2723deec5d5a137b66e0da4f12f", "is_disabled": 0, "rental_uris": {"android": "https://dc.lft.to/lastmile_qr_scan", "ios": "https://dc.lft.to/lastmile_qr_scan"}, "fusion_lon": 0.0, "lat": 38.887368, "bike_id": "3f81a2723deec5d5a137b66e0da4f12f", "type": "electric_scooter", "is_reserved": 0, "lon": -77.01533266666667}, {"fusion_lat": 0.0, "name": "eeca71b6b237bc2b7477dcd4ff57a2d5", "is_disabled": 0, "rental_uris": {"android": "https://dc.lft.to/lastmile_qr_scan", "ios": "https://dc.lft.to/lastmile_qr_scan"}, "fusion_lon": 0.0, "lat": 38.883182, "bike_id": "eeca71b6b237bc2b7477dcd4ff57a2d5", "type": "electric_scooter", "is_reserved": 0, "lon": -77.01730283333333}, {"fusion_lat": 0.0, "name": "223d24f6280050e6fbcac0e7f5648452", "is_disabled": 0, "rental_uris": {"android": "https://dc.lft.to/lastmile_qr_scan", "ios": "https://dc.lft.to/lastmile_qr_scan"}, "fusion_lon": 0.0, "lat": 38.862446166666665, "bike_id": "223d24f6280050e6fbcac0e7f5648452", "type": "electric_scooter", "is_reserved": 0, "lon": -76.99497566666666}, {"fusion_lat": 0.0, "name": "5d6cada650301057202659404dac4fd3", "is_disabled": 0, "rental_uris": {"android": "https://dc.lft.to/lastmile_qr_scan", "ios": "https://dc.lft.to/lastmile_qr_scan"}, "fusion_lon": 0.0, "lat": 38.93519216666667, "bike_id": "5d6cada650301057202659404dac4fd3", "type": "electric_scooter", "is_reserved": 0, "lon": -77.07260066666667}, {"fusion_lat": 0.0, "name": "b0385e916f3218dfe1b33b9c2923873d", "is_disabled": 0, "rental_uris": {"android": "https://dc.lft.to/lastmile_qr_scan", "ios": "https://dc.lft.to/lastmile_qr_scan"}, "fusion_lon": 0.0, "lat": 38.87786166666667, "bike_id": "b0385e916f3218dfe1b33b9c2923873d", "type": "electric_scooter", "is_reserved": 0, "lon": -76.99410216666666}, {"fusion_lat": 0.0, "name": "358fa214cf3f43a3b6fea62f71be94b3", "is_disabled": 0, "rental_uris": {"android": "https://dc.lft.to/lastmile_qr_scan", "ios": "https://dc.lft.to/lastmile_qr_scan"}, "fusion_lon": 0.0, "lat": 38.907098, "bike_id": "358fa214cf3f43a3b6fea62f71be94b3", "type": "electric_scooter", "is_reserved": 0, "lon": -77.05137433333333}, {"fusion_lat": 0.0, "name": "6918784a65219483887593f25f95cf30", "is_disabled": 0, "rental_uris": {"android": "https://dc.lft.to/lastmile_qr_scan", "ios": "https://dc.lft.to/lastmile_qr_scan"}, "fusion_lon": 0.0, "lat": 38.9140135, "bike_id": "6918784a65219483887593f25f95cf30", "type": "electric_scooter", "is_reserved": 0, "lon": -77.0487}, {"fusion_lat": 0.0, "name": "44a7d5d9d51f1e0f21d30817e076f809", "is_disabled": 0, "rental_uris": {"android": "https://dc.lft.to/lastmile_qr_scan", "ios": "https://dc.lft.to/lastmile_qr_scan"}, "fusion_lon": 0.0, "lat": 38.9330455, "bike_id": "44a7d5d9d51f1e0f21d30817e076f809", "type": "electric_scooter", "is_reserved": 0, "lon": -77.0308165}, {"fusion_lat": 0.0, "name": "f19c6566e740966726eb9f860fd32345", "is_disabled": 0, "rental_uris": {"android": "https://dc.lft.to/lastmile_qr_scan", "ios": "https://dc.lft.to/lastmile_qr_scan"}, "fusion_lon": 0.0, "lat": 38.89940516666667, "bike_id": "f19c6566e740966726eb9f860fd32345", "type": "electric_scooter", "is_reserved": 0, "lon": -77.04159}, {"fusion_lat": 0.0, "name": "f527ed0879303726f281306c3d0d3d70", "is_disabled": 0, "rental_uris": {"android": "https://dc.lft.to/lastmile_qr_scan", "ios": "https://dc.lft.to/lastmile_qr_scan"}, "fusion_lon": 0.0, "lat": 38.900125833333334, "bike_id": "f527ed0879303726f281306c3d0d3d70", "type": "electric_scooter", "is_reserved": 0, "lon": -77.039912}, {"fusion_lat": 0.0, "name": "22558785df199ac5130efa5c30dc533f", "is_disabled": 0, "rental_uris": {"android": "https://dc.lft.to/lastmile_qr_scan", "ios": "https://dc.lft.to/lastmile_qr_scan"}, "fusion_lon": 0.0, "lat": 38.90557283333333, "bike_id": "22558785df199ac5130efa5c30dc533f", "type": "electric_scooter", "is_reserved": 0, "lon": -77.00563516666666}, {"fusion_lat": 0.0, "name": "9605082fd533ae9967edea7ba10eccf4", "is_disabled": 0, "rental_uris": {"android": "https://dc.lft.to/lastmile_qr_scan", "ios": "https://dc.lft.to/lastmile_qr_scan"}, "fusion_lon": 0.0, "lat": 38.909620333333336, "bike_id": "9605082fd533ae9967edea7ba10eccf4", "type": "electric_scooter", "is_reserved": 0, "lon": -77.0356905}, {"fusion_lat": 0.0, "name": "f7b55530e80101a69c2d94896a99a8d1", "is_disabled": 0, "rental_uris": {"android": "https://dc.lft.to/lastmile_qr_scan", "ios": "https://dc.lft.to/lastmile_qr_scan"}, "fusion_lon": 0.0, "lat": 38.892075166666665, "bike_id": "f7b55530e80101a69c2d94896a99a8d1", "type": "electric_scooter", "is_reserved": 0, "lon": -76.97707516666667}, {"fusion_lat": 0.0, "name": "dff60997b063dd2d06b368a4f510efad", "is_disabled": 0, "rental_uris": {"android": "https://dc.lft.to/lastmile_qr_scan", "ios": "https://dc.lft.to/lastmile_qr_scan"}, "fusion_lon": 0.0, "lat": 38.896258, "bike_id": "dff60997b063dd2d06b368a4f510efad", "type": "electric_scooter", "is_reserved": 0, "lon": -77.011731}, {"fusion_lat": 0.0, "name": "0ae28294bdf677e715e4a750e5eac6d5", "is_disabled": 0, "rental_uris": {"android": "https://dc.lft.to/lastmile_qr_scan", "ios": "https://dc.lft.to/lastmile_qr_scan"}, "fusion_lon": 0.0, "lat": 38.904093333333336, "bike_id": "0ae28294bdf677e715e4a750e5eac6d5", "type": "electric_scooter", "is_reserved": 0, "lon": -76.97330016666666}, {"fusion_lat": 0.0, "name": "9897e9e9517abd1fd3a2a82a7cd113b8", "is_disabled": 0, "rental_uris": {"android": "https://dc.lft.to/lastmile_qr_scan", "ios": "https://dc.lft.to/lastmile_qr_scan"}, "fusion_lon": 0.0, "lat": 38.874931, "bike_id": "9897e9e9517abd1fd3a2a82a7cd113b8", "type": "electric_bike", "is_reserved": 0, "lon": -77.2112465}, {"fusion_lat": 0.0, "name": "2a514d8c5bef8fd47954e5a3fbf390a8", "is_disabled": 0, "rental_uris": {"android": "https://dc.lft.to/lastmile_qr_scan", "ios": "https://dc.lft.to/lastmile_qr_scan"}, "fusion_lon": 0.0, "lat": 38.917511, "bike_id": "2a514d8c5bef8fd47954e5a3fbf390a8", "type": "electric_scooter", "is_reserved": 0, "lon": -77.0228405}, {"fusion_lat": 0.0, "name": "960f1a31265f5a9c5d1355f2fdd2cfce", "is_disabled": 0, "rental_uris": {"android": "https://dc.lft.to/lastmile_qr_scan", "ios": "https://dc.lft.to/lastmile_qr_scan"}, "fusion_lon": 0.0, "lat": 38.877512, "bike_id": "960f1a31265f5a9c5d1355f2fdd2cfce", "type": "electric_scooter", "is_reserved": 0, "lon": -77.00260816666666}, {"fusion_lat": 0.0, "name": "90bf89eabadeeb01235f01349abe9327", "is_disabled": 0, "rental_uris": {"android": "https://dc.lft.to/lastmile_qr_scan", "ios": "https://dc.lft.to/lastmile_qr_scan"}, "fusion_lon": 0.0, "lat": 38.9483475, "bike_id": "90bf89eabadeeb01235f01349abe9327", "type": "electric_scooter", "is_reserved": 0, "lon": -77.08002666666667}, {"fusion_lat": 0.0, "name": "535f4988d70b612eaf2b6757c8bd8252", "is_disabled": 0, "rental_uris": {"android": "https://dc.lft.to/lastmile_qr_scan", "ios": "https://dc.lft.to/lastmile_qr_scan"}, "fusion_lon": 0.0, "lat": 38.923245, "bike_id": "535f4988d70b612eaf2b6757c8bd8252", "type": "electric_scooter", "is_reserved": 0, "lon": -77.02968266666667}, {"fusion_lat": 0.0, "name": "dc49aa50ca83c798c958e28300ff0930", "is_disabled": 0, "rental_uris": {"android": "https://dc.lft.to/lastmile_qr_scan", "ios": "https://dc.lft.to/lastmile_qr_scan"}, "fusion_lon": 0.0, "lat": 38.926773833333336, "bike_id": "dc49aa50ca83c798c958e28300ff0930", "type": "electric_scooter", "is_reserved": 0, "lon": -77.03637333333333}, {"fusion_lat": 0.0, "name": "3e18cd330b98a73bfbe3f0e498026ec5", "is_disabled": 0, "rental_uris": {"android": "https://dc.lft.to/lastmile_qr_scan", "ios": "https://dc.lft.to/lastmile_qr_scan"}, "fusion_lon": 0.0, "lat": 38.94612566666667, "bike_id": "3e18cd330b98a73bfbe3f0e498026ec5", "type": "electric_scooter", "is_reserved": 0, "lon": -77.08016016666667}, {"fusion_lat": 0.0, "name": "935507d2da9ba83ddb91c7b6ba482a71", "is_disabled": 0, "rental_uris": {"android": "https://dc.lft.to/lastmile_qr_scan", "ios": "https://dc.lft.to/lastmile_qr_scan"}, "fusion_lon": 0.0, "lat": 38.922761333333334, "bike_id": "935507d2da9ba83ddb91c7b6ba482a71", "type": "electric_scooter", "is_reserved": 0, "lon": -77.02960616666667}, {"fusion_lat": 0.0, "name": "ed238b4e4920205aa69ab5a09e097858", "is_disabled": 0, "rental_uris": {"android": "https://dc.lft.to/lastmile_qr_scan", "ios": "https://dc.lft.to/lastmile_qr_scan"}, "fusion_lon": 0.0, "lat": 38.8970675, "bike_id": "ed238b4e4920205aa69ab5a09e097858", "type": "electric_scooter", "is_reserved": 0, "lon": -77.04337066666666}, {"fusion_lat": 0.0, "name": "9fe5df8f9d446e6a8f8215ed6e35e251", "is_disabled": 0, "rental_uris": {"android": "https://dc.lft.to/lastmile_qr_scan", "ios": "https://dc.lft.to/lastmile_qr_scan"}, "fusion_lon": 0.0, "lat": 38.89004883333333, "bike_id": "9fe5df8f9d446e6a8f8215ed6e35e251", "type": "electric_scooter", "is_reserved": 0, "lon": -76.93741083333333}, {"fusion_lat": 0.0, "name": "e516738941c24ed1110a3fd686159d57", "is_disabled": 0, "rental_uris": {"android": "https://dc.lft.to/lastmile_qr_scan", "ios": "https://dc.lft.to/lastmile_qr_scan"}, "fusion_lon": 0.0, "lat": 38.89613033333333, "bike_id": "e516738941c24ed1110a3fd686159d57", "type": "electric_bike", "is_reserved": 0, "lon": -76.9073955}, {"fusion_lat": 0.0, "name": "05c2b70c54026c66021f63a72f53e5ee", "is_disabled": 0, "rental_uris": {"android": "https://dc.lft.to/lastmile_qr_scan", "ios": "https://dc.lft.to/lastmile_qr_scan"}, "fusion_lon": 0.0, "lat": 38.84614366666667, "bike_id": "05c2b70c54026c66021f63a72f53e5ee", "type": "electric_bike", "is_reserved": 0, "lon": -76.9690875}, {"fusion_lat": 0.0, "name": "0c881f673861cec13628a6a2470acfbb", "is_disabled": 0, "rental_uris": {"android": "https://dc.lft.to/lastmile_qr_scan", "ios": "https://dc.lft.to/lastmile_qr_scan"}, "fusion_lon": 0.0, "lat": 38.95890033333333, "bike_id": "0c881f673861cec13628a6a2470acfbb", "type": "electric_bike", "is_reserved": 0, "lon": -76.924808}, {"fusion_lat": 0.0, "name": "e0f5250988e9162e36de5475d11340c2", "is_disabled": 0, "rental_uris": {"android": "https://dc.lft.to/lastmile_qr_scan", "ios": "https://dc.lft.to/lastmile_qr_scan"}, "fusion_lon": 0.0, "lat": 38.9285475, "bike_id": "e0f5250988e9162e36de5475d11340c2", "type": "electric_scooter", "is_reserved": 0, "lon": -76.99779866666667}, {"fusion_lat": 0.0, "name": "9b8f4def6e5e1741b8c6592a53a0803a", "is_disabled": 0, "rental_uris": {"android": "https://dc.lft.to/lastmile_qr_scan", "ios": "https://dc.lft.to/lastmile_qr_scan"}, "fusion_lon": 0.0, "lat": 38.9222825, "bike_id": "9b8f4def6e5e1741b8c6592a53a0803a", "type": "electric_scooter", "is_reserved": 0, "lon": -77.04139116666667}, {"fusion_lat": 0.0, "name": "43084fa3883392d622bfe53a83667fd7", "is_disabled": 0, "rental_uris": {"android": "https://dc.lft.to/lastmile_qr_scan", "ios": "https://dc.lft.to/lastmile_qr_scan"}, "fusion_lon": 0.0, "lat": 38.872977, "bike_id": "43084fa3883392d622bfe53a83667fd7", "type": "electric_bike", "is_reserved": 0, "lon": -77.0109125}, {"fusion_lat": 0.0, "name": "c0f64dac31cf06c105c740e97ccdf1db", "is_disabled": 0, "rental_uris": {"android": "https://dc.lft.to/lastmile_qr_scan", "ios": "https://dc.lft.to/lastmile_qr_scan"}, "fusion_lon": 0.0, "lat": 38.92398, "bike_id": "c0f64dac31cf06c105c740e97ccdf1db", "type": "electric_scooter", "is_reserved": 0, "lon": -77.0363795}, {"fusion_lat": 0.0, "name": "e55580950f74f191201c66066495bd51", "is_disabled": 0, "rental_uris": {"android": "https://dc.lft.to/lastmile_qr_scan", "ios": "https://dc.lft.to/lastmile_qr_scan"}, "fusion_lon": 0.0, "lat": 38.944743333333335, "bike_id": "e55580950f74f191201c66066495bd51", "type": "electric_scooter", "is_reserved": 0, "lon": -77.02357333333333}, {"fusion_lat": 0.0, "name": "25c5204bef1ad566837e70302adc7d7d", "is_disabled": 0, "rental_uris": {"android": "https://dc.lft.to/lastmile_qr_scan", "ios": "https://dc.lft.to/lastmile_qr_scan"}, "fusion_lon": 0.0, "lat": 38.93799833333333, "bike_id": "25c5204bef1ad566837e70302adc7d7d", "type": "electric_scooter", "is_reserved": 0, "lon": -77.06859883333334}, {"fusion_lat": 0.0, "name": "6efac2b89e7a88981a87e86fc2989a6d", "is_disabled": 0, "rental_uris": {"android": "https://dc.lft.to/lastmile_qr_scan", "ios": "https://dc.lft.to/lastmile_qr_scan"}, "fusion_lon": 0.0, "lat": 38.9484175, "bike_id": "6efac2b89e7a88981a87e86fc2989a6d", "type": "electric_scooter", "is_reserved": 0, "lon": -77.02564616666666}, {"fusion_lat": 0.0, "name": "e06c22939949a9a129bb642040f5a998", "is_disabled": 0, "rental_uris": {"android": "https://dc.lft.to/lastmile_qr_scan", "ios": "https://dc.lft.to/lastmile_qr_scan"}, "fusion_lon": 0.0, "lat": 38.920299, "bike_id": "e06c22939949a9a129bb642040f5a998", "type": "electric_scooter", "is_reserved": 0, "lon": -77.02808266666666}, {"fusion_lat": 0.0, "name": "9d5b7e5b57109632b96cc5a126e65784", "is_disabled": 0, "rental_uris": {"android": "https://dc.lft.to/lastmile_qr_scan", "ios": "https://dc.lft.to/lastmile_qr_scan"}, "fusion_lon": 0.0, "lat": 38.9210165, "bike_id": "9d5b7e5b57109632b96cc5a126e65784", "type": "electric_scooter", "is_reserved": 0, "lon": -77.04677366666667}, {"fusion_lat": 0.0, "name": "77fd743492d9ad44378bd30369bde653", "is_disabled": 0, "rental_uris": {"android": "https://dc.lft.to/lastmile_qr_scan", "ios": "https://dc.lft.to/lastmile_qr_scan"}, "fusion_lon": 0.0, "lat": 39.0028435, "bike_id": "77fd743492d9ad44378bd30369bde653", "type": "electric_bike", "is_reserved": 0, "lon": -76.9028555}, {"fusion_lat": 0.0, "name": "f1c63308dbb246ae1d8f8393cce27fa9", "is_disabled": 0, "rental_uris": {"android": "https://dc.lft.to/lastmile_qr_scan", "ios": "https://dc.lft.to/lastmile_qr_scan"}, "fusion_lon": 0.0, "lat": 38.93380783333333, "bike_id": "f1c63308dbb246ae1d8f8393cce27fa9", "type": "electric_scooter", "is_reserved": 0, "lon": -77.026321}, {"fusion_lat": 0.0, "name": "c8f2bfc2728e736c524eb79415297df6", "is_disabled": 0, "rental_uris": {"android": "https://dc.lft.to/lastmile_qr_scan", "ios": "https://dc.lft.to/lastmile_qr_scan"}, "fusion_lon": 0.0, "lat": 38.904229, "bike_id": "c8f2bfc2728e736c524eb79415297df6", "type": "electric_scooter", "is_reserved": 0, "lon": -77.0346045}, {"fusion_lat": 0.0, "name": "9e3d71a1e46bef7ac9a22c7aeabec783", "is_disabled": 0, "rental_uris": {"android": "https://dc.lft.to/lastmile_qr_scan", "ios": "https://dc.lft.to/lastmile_qr_scan"}, "fusion_lon": 0.0, "lat": 38.92347733333333, "bike_id": "9e3d71a1e46bef7ac9a22c7aeabec783", "type": "electric_scooter", "is_reserved": 0, "lon": -77.02017516666666}, {"fusion_lat": 0.0, "name": "33b865e4e1e22281f0fa6b80aeb9f3f7", "is_disabled": 0, "rental_uris": {"android": "https://dc.lft.to/lastmile_qr_scan", "ios": "https://dc.lft.to/lastmile_qr_scan"}, "fusion_lon": 0.0, "lat": 38.9332805, "bike_id": "33b865e4e1e22281f0fa6b80aeb9f3f7", "type": "electric_scooter", "is_reserved": 0, "lon": -77.03431833333333}, {"fusion_lat": 0.0, "name": "5b24a399188c7dd41981b07f14891c07", "is_disabled": 0, "rental_uris": {"android": "https://dc.lft.to/lastmile_qr_scan", "ios": "https://dc.lft.to/lastmile_qr_scan"}, "fusion_lon": 0.0, "lat": 38.89736933333333, "bike_id": "5b24a399188c7dd41981b07f14891c07", "type": "electric_scooter", "is_reserved": 0, "lon": -77.02202316666667}, {"fusion_lat": 0.0, "name": "376ebf8dc69bbf1a59951b94bd9dd07a", "is_disabled": 0, "rental_uris": {"android": "https://dc.lft.to/lastmile_qr_scan", "ios": "https://dc.lft.to/lastmile_qr_scan"}, "fusion_lon": 0.0, "lat": 38.92355383333334, "bike_id": "376ebf8dc69bbf1a59951b94bd9dd07a", "type": "electric_scooter", "is_reserved": 0, "lon": -77.01953083333333}, {"fusion_lat": 0.0, "name": "5d58f18448cdeeadc3b83f7d1e32bd0e", "is_disabled": 0, "rental_uris": {"android": "https://dc.lft.to/lastmile_qr_scan", "ios": "https://dc.lft.to/lastmile_qr_scan"}, "fusion_lon": 0.0, "lat": 38.91336666666667, "bike_id": "5d58f18448cdeeadc3b83f7d1e32bd0e", "type": "electric_scooter", "is_reserved": 0, "lon": -77.04230933333334}, {"fusion_lat": 0.0, "name": "059afca8b332bc10508203e5bf19f0f5", "is_disabled": 0, "rental_uris": {"android": "https://dc.lft.to/lastmile_qr_scan", "ios": "https://dc.lft.to/lastmile_qr_scan"}, "fusion_lon": 0.0, "lat": 38.94291116666667, "bike_id": "059afca8b332bc10508203e5bf19f0f5", "type": "electric_scooter", "is_reserved": 0, "lon": -77.02176116666666}, {"fusion_lat": 0.0, "name": "2df54d6def21f41667c405b7fab59a0f", "is_disabled": 0, "rental_uris": {"android": "https://dc.lft.to/lastmile_qr_scan", "ios": "https://dc.lft.to/lastmile_qr_scan"}, "fusion_lon": 0.0, "lat": 38.90019066666667, "bike_id": "2df54d6def21f41667c405b7fab59a0f", "type": "electric_scooter", "is_reserved": 0, "lon": -77.03503583333334}, {"fusion_lat": 0.0, "name": "5b003484915f0648974922f75aea2770", "is_disabled": 0, "rental_uris": {"android": "https://dc.lft.to/lastmile_qr_scan", "ios": "https://dc.lft.to/lastmile_qr_scan"}, "fusion_lon": 0.0, "lat": 38.8829795, "bike_id": "5b003484915f0648974922f75aea2770", "type": "electric_scooter", "is_reserved": 0, "lon": -76.94855266666667}, {"fusion_lat": 0.0, "name": "f71dba8df65953630e74dcbe774a03b1", "is_disabled": 0, "rental_uris": {"android": "https://dc.lft.to/lastmile_qr_scan", "ios": "https://dc.lft.to/lastmile_qr_scan"}, "fusion_lon": 0.0, "lat": 38.985487166666665, "bike_id": "f71dba8df65953630e74dcbe774a03b1", "type": "electric_bike", "is_reserved": 0, "lon": -77.00402083333333}, {"fusion_lat": 0.0, "name": "e607a462908d18a891d2ac650377b32d", "is_disabled": 0, "rental_uris": {"android": "https://dc.lft.to/lastmile_qr_scan", "ios": "https://dc.lft.to/lastmile_qr_scan"}, "fusion_lon": 0.0, "lat": 38.898361, "bike_id": "e607a462908d18a891d2ac650377b32d", "type": "electric_scooter", "is_reserved": 0, "lon": -77.0133705}, {"fusion_lat": 0.0, "name": "22169888bf8236aa16dacf44e2396133", "is_disabled": 0, "rental_uris": {"android": "https://dc.lft.to/lastmile_qr_scan", "ios": "https://dc.lft.to/lastmile_qr_scan"}, "fusion_lon": 0.0, "lat": 38.88425633333333, "bike_id": "22169888bf8236aa16dacf44e2396133", "type": "electric_scooter", "is_reserved": 0, "lon": -76.957516}, {"fusion_lat": 0.0, "name": "026c4b0b5e854d951d66054bba11b272", "is_disabled": 0, "rental_uris": {"android": "https://dc.lft.to/lastmile_qr_scan", "ios": "https://dc.lft.to/lastmile_qr_scan"}, "fusion_lon": 0.0, "lat": 38.92416466666667, "bike_id": "026c4b0b5e854d951d66054bba11b272", "type": "electric_scooter", "is_reserved": 0, "lon": -76.99623566666666}, {"fusion_lat": 0.0, "name": "c87e2e6b37cf85d4813a9a50d58cf2d7", "is_disabled": 0, "rental_uris": {"android": "https://dc.lft.to/lastmile_qr_scan", "ios": "https://dc.lft.to/lastmile_qr_scan"}, "fusion_lon": 0.0, "lat": 38.925120166666666, "bike_id": "c87e2e6b37cf85d4813a9a50d58cf2d7", "type": "electric_scooter", "is_reserved": 0, "lon": -77.02287266666667}, {"fusion_lat": 0.0, "name": "f0ea1cd0fe827f3293caac04fb8165c0", "is_disabled": 0, "rental_uris": {"android": "https://dc.lft.to/lastmile_qr_scan", "ios": "https://dc.lft.to/lastmile_qr_scan"}, "fusion_lon": 0.0, "lat": 38.935833833333334, "bike_id": "f0ea1cd0fe827f3293caac04fb8165c0", "type": "electric_scooter", "is_reserved": 0, "lon": -77.028506}, {"fusion_lat": 0.0, "name": "a41f23773b48c70dc68452f41888a6da", "is_disabled": 0, "rental_uris": {"android": "https://dc.lft.to/lastmile_qr_scan", "ios": "https://dc.lft.to/lastmile_qr_scan"}, "fusion_lon": 0.0, "lat": 38.887659, "bike_id": "a41f23773b48c70dc68452f41888a6da", "type": "electric_scooter", "is_reserved": 0, "lon": -77.03303283333334}, {"fusion_lat": 0.0, "name": "010b61c9b9f85d4dcaa413996852919f", "is_disabled": 0, "rental_uris": {"android": "https://dc.lft.to/lastmile_qr_scan", "ios": "https://dc.lft.to/lastmile_qr_scan"}, "fusion_lon": 0.0, "lat": 38.90764866666667, "bike_id": "010b61c9b9f85d4dcaa413996852919f", "type": "electric_scooter", "is_reserved": 0, "lon": -77.05591366666667}, {"fusion_lat": 0.0, "name": "5f553e1f4cdfe1e8767c1a07c96b643b", "is_disabled": 0, "rental_uris": {"android": "https://dc.lft.to/lastmile_qr_scan", "ios": "https://dc.lft.to/lastmile_qr_scan"}, "fusion_lon": 0.0, "lat": 38.9121505, "bike_id": "5f553e1f4cdfe1e8767c1a07c96b643b", "type": "electric_scooter", "is_reserved": 0, "lon": -77.03192016666667}, {"fusion_lat": 0.0, "name": "9efef6a66c320baa66d994ec1b6c9a55", "is_disabled": 0, "rental_uris": {"android": "https://dc.lft.to/lastmile_qr_scan", "ios": "https://dc.lft.to/lastmile_qr_scan"}, "fusion_lon": 0.0, "lat": 38.952195833333334, "bike_id": "9efef6a66c320baa66d994ec1b6c9a55", "type": "electric_scooter", "is_reserved": 0, "lon": -77.082201}, {"fusion_lat": 0.0, "name": "6943dba9f9885e0fb3f3238d000e9f1e", "is_disabled": 0, "rental_uris": {"android": "https://dc.lft.to/lastmile_qr_scan", "ios": "https://dc.lft.to/lastmile_qr_scan"}, "fusion_lon": 0.0, "lat": 38.897216, "bike_id": "6943dba9f9885e0fb3f3238d000e9f1e", "type": "electric_scooter", "is_reserved": 0, "lon": -77.046357}, {"fusion_lat": 0.0, "name": "0f062dbc3ae1857c125db53524f30eec", "is_disabled": 0, "rental_uris": {"android": "https://dc.lft.to/lastmile_qr_scan", "ios": "https://dc.lft.to/lastmile_qr_scan"}, "fusion_lon": 0.0, "lat": 38.90858933333333, "bike_id": "0f062dbc3ae1857c125db53524f30eec", "type": "electric_scooter", "is_reserved": 0, "lon": -77.0447395}, {"fusion_lat": 0.0, "name": "cc4daf2a4b88667a4f70194b4db6d7c6", "is_disabled": 0, "rental_uris": {"android": "https://dc.lft.to/lastmile_qr_scan", "ios": "https://dc.lft.to/lastmile_qr_scan"}, "fusion_lon": 0.0, "lat": 38.9199295, "bike_id": "cc4daf2a4b88667a4f70194b4db6d7c6", "type": "electric_scooter", "is_reserved": 0, "lon": -77.07190266666667}, {"fusion_lat": 0.0, "name": "1e1063636518ddbe27a35ac1e45e0dc0", "is_disabled": 0, "rental_uris": {"android": "https://dc.lft.to/lastmile_qr_scan", "ios": "https://dc.lft.to/lastmile_qr_scan"}, "fusion_lon": 0.0, "lat": 38.8784845, "bike_id": "1e1063636518ddbe27a35ac1e45e0dc0", "type": "electric_bike", "is_reserved": 0, "lon": -77.03024816666667}, {"fusion_lat": 0.0, "name": "0bf34ebd05d3b16e5c3f5bb39323dc3a", "is_disabled": 0, "rental_uris": {"android": "https://dc.lft.to/lastmile_qr_scan", "ios": "https://dc.lft.to/lastmile_qr_scan"}, "fusion_lon": 0.0, "lat": 38.85428116666667, "bike_id": "0bf34ebd05d3b16e5c3f5bb39323dc3a", "type": "electric_bike", "is_reserved": 0, "lon": -77.120814}, {"fusion_lat": 0.0, "name": "b8e1c6219747b11fa46b9ef6b6553142", "is_disabled": 0, "rental_uris": {"android": "https://dc.lft.to/lastmile_qr_scan", "ios": "https://dc.lft.to/lastmile_qr_scan"}, "fusion_lon": 0.0, "lat": 38.920964166666664, "bike_id": "b8e1c6219747b11fa46b9ef6b6553142", "type": "electric_scooter", "is_reserved": 0, "lon": -76.9945025}, {"fusion_lat": 0.0, "name": "b1b335cde5f2302207b7baaa5432288e", "is_disabled": 0, "rental_uris": {"android": "https://dc.lft.to/lastmile_qr_scan", "ios": "https://dc.lft.to/lastmile_qr_scan"}, "fusion_lon": 0.0, "lat": 38.879703, "bike_id": "b1b335cde5f2302207b7baaa5432288e", "type": "electric_bike", "is_reserved": 0, "lon": -76.91606266666666}, {"fusion_lat": 0.0, "name": "817928ddd0e3f88695925ade5b3255c2", "is_disabled": 0, "rental_uris": {"android": "https://dc.lft.to/lastmile_qr_scan", "ios": "https://dc.lft.to/lastmile_qr_scan"}, "fusion_lon": 0.0, "lat": 38.91327, "bike_id": "817928ddd0e3f88695925ade5b3255c2", "type": "electric_scooter", "is_reserved": 0, "lon": -77.02124683333334}, {"fusion_lat": 0.0, "name": "a38bb01a9b5e7eb5c0ae5059d994da71", "is_disabled": 0, "rental_uris": {"android": "https://dc.lft.to/lastmile_qr_scan", "ios": "https://dc.lft.to/lastmile_qr_scan"}, "fusion_lon": 0.0, "lat": 38.900117333333334, "bike_id": "a38bb01a9b5e7eb5c0ae5059d994da71", "type": "electric_scooter", "is_reserved": 0, "lon": -76.98811433333333}, {"fusion_lat": 0.0, "name": "cc312585be0a9fd3664877461e7e0e1e", "is_disabled": 0, "rental_uris": {"android": "https://dc.lft.to/lastmile_qr_scan", "ios": "https://dc.lft.to/lastmile_qr_scan"}, "fusion_lon": 0.0, "lat": 38.91552333333333, "bike_id": "cc312585be0a9fd3664877461e7e0e1e", "type": "electric_scooter", "is_reserved": 0, "lon": -77.03224383333334}, {"fusion_lat": 0.0, "name": "d260251428410a28ab597b135065c092", "is_disabled": 0, "rental_uris": {"android": "https://dc.lft.to/lastmile_qr_scan", "ios": "https://dc.lft.to/lastmile_qr_scan"}, "fusion_lon": 0.0, "lat": 38.928215, "bike_id": "d260251428410a28ab597b135065c092", "type": "electric_scooter", "is_reserved": 0, "lon": -77.05457133333333}, {"fusion_lat": 0.0, "name": "53d91f0945669b787ad9920fdfe93227", "is_disabled": 0, "rental_uris": {"android": "https://dc.lft.to/lastmile_qr_scan", "ios": "https://dc.lft.to/lastmile_qr_scan"}, "fusion_lon": 0.0, "lat": 38.92613133333333, "bike_id": "53d91f0945669b787ad9920fdfe93227", "type": "electric_scooter", "is_reserved": 0, "lon": -77.0216575}, {"fusion_lat": 0.0, "name": "dcec79a2e63fa584c369294c92a417db", "is_disabled": 0, "rental_uris": {"android": "https://dc.lft.to/lastmile_qr_scan", "ios": "https://dc.lft.to/lastmile_qr_scan"}, "fusion_lon": 0.0, "lat": 38.924139833333335, "bike_id": "dcec79a2e63fa584c369294c92a417db", "type": "electric_scooter", "is_reserved": 0, "lon": -77.01949816666666}, {"fusion_lat": 0.0, "name": "9574e049ca6528989ed3fd0ce3207f25", "is_disabled": 0, "rental_uris": {"android": "https://dc.lft.to/lastmile_qr_scan", "ios": "https://dc.lft.to/lastmile_qr_scan"}, "fusion_lon": 0.0, "lat": 38.917268, "bike_id": "9574e049ca6528989ed3fd0ce3207f25", "type": "electric_scooter", "is_reserved": 0, "lon": -77.0683895}, {"fusion_lat": 0.0, "name": "60b3a9f2fa9ba6f90a49ae19cc7b2e6c", "is_disabled": 0, "rental_uris": {"android": "https://dc.lft.to/lastmile_qr_scan", "ios": "https://dc.lft.to/lastmile_qr_scan"}, "fusion_lon": 0.0, "lat": 39.03613516666667, "bike_id": "60b3a9f2fa9ba6f90a49ae19cc7b2e6c", "type": "electric_bike", "is_reserved": 0, "lon": -77.055494}, {"fusion_lat": 0.0, "name": "c32e93dd15e7bfb44cf172af5c530d74", "is_disabled": 0, "rental_uris": {"android": "https://dc.lft.to/lastmile_qr_scan", "ios": "https://dc.lft.to/lastmile_qr_scan"}, "fusion_lon": 0.0, "lat": 38.92359883333334, "bike_id": "c32e93dd15e7bfb44cf172af5c530d74", "type": "electric_scooter", "is_reserved": 0, "lon": -77.04322716666667}, {"fusion_lat": 0.0, "name": "3a81446a459911d75bde437b96c7d227", "is_disabled": 0, "rental_uris": {"android": "https://dc.lft.to/lastmile_qr_scan", "ios": "https://dc.lft.to/lastmile_qr_scan"}, "fusion_lon": 0.0, "lat": 38.9181525, "bike_id": "3a81446a459911d75bde437b96c7d227", "type": "electric_scooter", "is_reserved": 0, "lon": -77.02649933333333}, {"fusion_lat": 0.0, "name": "5cd7d30e7c168af9992f36ee4faa2084", "is_disabled": 0, "rental_uris": {"android": "https://dc.lft.to/lastmile_qr_scan", "ios": "https://dc.lft.to/lastmile_qr_scan"}, "fusion_lon": 0.0, "lat": 38.91695983333334, "bike_id": "5cd7d30e7c168af9992f36ee4faa2084", "type": "electric_scooter", "is_reserved": 0, "lon": -77.04111}, {"fusion_lat": 0.0, "name": "7a85c05397709613035e0c7e7480f487", "is_disabled": 0, "rental_uris": {"android": "https://dc.lft.to/lastmile_qr_scan", "ios": "https://dc.lft.to/lastmile_qr_scan"}, "fusion_lon": 0.0, "lat": 38.912632, "bike_id": "7a85c05397709613035e0c7e7480f487", "type": "electric_scooter", "is_reserved": 0, "lon": -77.03869483333334}, {"fusion_lat": 0.0, "name": "e200af06f352d7c161da9d7e9fe404bf", "is_disabled": 0, "rental_uris": {"android": "https://dc.lft.to/lastmile_qr_scan", "ios": "https://dc.lft.to/lastmile_qr_scan"}, "fusion_lon": 0.0, "lat": 38.8996855, "bike_id": "e200af06f352d7c161da9d7e9fe404bf", "type": "electric_scooter", "is_reserved": 0, "lon": -77.01612966666667}, {"fusion_lat": 0.0, "name": "8081acf86be8b1cc73e9e7ed408cf53b", "is_disabled": 0, "rental_uris": {"android": "https://dc.lft.to/lastmile_qr_scan", "ios": "https://dc.lft.to/lastmile_qr_scan"}, "fusion_lon": 0.0, "lat": 38.90617233333333, "bike_id": "8081acf86be8b1cc73e9e7ed408cf53b", "type": "electric_scooter", "is_reserved": 0, "lon": -77.05899416666666}, {"fusion_lat": 0.0, "name": "0596eb9f3f07a89d543ba8b3326aea13", "is_disabled": 0, "rental_uris": {"android": "https://dc.lft.to/lastmile_qr_scan", "ios": "https://dc.lft.to/lastmile_qr_scan"}, "fusion_lon": 0.0, "lat": 38.90833533333333, "bike_id": "0596eb9f3f07a89d543ba8b3326aea13", "type": "electric_scooter", "is_reserved": 0, "lon": -77.043322}, {"fusion_lat": 0.0, "name": "67c4e10a0a788066c98082a0f6bf10a7", "is_disabled": 0, "rental_uris": {"android": "https://dc.lft.to/lastmile_qr_scan", "ios": "https://dc.lft.to/lastmile_qr_scan"}, "fusion_lon": 0.0, "lat": 38.916843666666665, "bike_id": "67c4e10a0a788066c98082a0f6bf10a7", "type": "electric_scooter", "is_reserved": 0, "lon": -77.04142166666666}, {"fusion_lat": 0.0, "name": "e893a9505e7ef0a33c786b3f076776c2", "is_disabled": 0, "rental_uris": {"android": "https://dc.lft.to/lastmile_qr_scan", "ios": "https://dc.lft.to/lastmile_qr_scan"}, "fusion_lon": 0.0, "lat": 38.90092666666666, "bike_id": "e893a9505e7ef0a33c786b3f076776c2", "type": "electric_bike", "is_reserved": 0, "lon": -76.97683966666666}, {"fusion_lat": 0.0, "name": "17507bab142680e4eb4ed8d41394e9c2", "is_disabled": 0, "rental_uris": {"android": "https://dc.lft.to/lastmile_qr_scan", "ios": "https://dc.lft.to/lastmile_qr_scan"}, "fusion_lon": 0.0, "lat": 38.89992266666667, "bike_id": "17507bab142680e4eb4ed8d41394e9c2", "type": "electric_scooter", "is_reserved": 0, "lon": -76.984373}, {"fusion_lat": 0.0, "name": "ba28b92c97c97c849407e058c73fc68c", "is_disabled": 0, "rental_uris": {"android": "https://dc.lft.to/lastmile_qr_scan", "ios": "https://dc.lft.to/lastmile_qr_scan"}, "fusion_lon": 0.0, "lat": 38.9282475, "bike_id": "ba28b92c97c97c849407e058c73fc68c", "type": "electric_scooter", "is_reserved": 0, "lon": -77.05969783333333}, {"fusion_lat": 0.0, "name": "7302d3ac7413a439e0a049564b329ceb", "is_disabled": 0, "rental_uris": {"android": "https://dc.lft.to/lastmile_qr_scan", "ios": "https://dc.lft.to/lastmile_qr_scan"}, "fusion_lon": 0.0, "lat": 38.9241455, "bike_id": "7302d3ac7413a439e0a049564b329ceb", "type": "electric_scooter", "is_reserved": 0, "lon": -77.036402}, {"fusion_lat": 0.0, "name": "8dd0826359ed5d7513ea1b87e5f1bff0", "is_disabled": 0, "rental_uris": {"android": "https://dc.lft.to/lastmile_qr_scan", "ios": "https://dc.lft.to/lastmile_qr_scan"}, "fusion_lon": 0.0, "lat": 38.91816433333334, "bike_id": "8dd0826359ed5d7513ea1b87e5f1bff0", "type": "electric_scooter", "is_reserved": 0, "lon": -77.0247835}, {"fusion_lat": 0.0, "name": "d32d0a372d37cc1a460ed25da5bffb71", "is_disabled": 0, "rental_uris": {"android": "https://dc.lft.to/lastmile_qr_scan", "ios": "https://dc.lft.to/lastmile_qr_scan"}, "fusion_lon": 0.0, "lat": 38.907353, "bike_id": "d32d0a372d37cc1a460ed25da5bffb71", "type": "electric_scooter", "is_reserved": 0, "lon": -77.007036}, {"fusion_lat": 0.0, "name": "e55327ffe0b66aee0b3a1c3972c207fc", "is_disabled": 0, "rental_uris": {"android": "https://dc.lft.to/lastmile_qr_scan", "ios": "https://dc.lft.to/lastmile_qr_scan"}, "fusion_lon": 0.0, "lat": 38.92618183333333, "bike_id": "e55327ffe0b66aee0b3a1c3972c207fc", "type": "electric_scooter", "is_reserved": 0, "lon": -77.0392745}, {"fusion_lat": 0.0, "name": "c21f704120be25e25960d777a4706d5a", "is_disabled": 0, "rental_uris": {"android": "https://dc.lft.to/lastmile_qr_scan", "ios": "https://dc.lft.to/lastmile_qr_scan"}, "fusion_lon": 0.0, "lat": 38.92284466666667, "bike_id": "c21f704120be25e25960d777a4706d5a", "type": "electric_scooter", "is_reserved": 0, "lon": -76.99760666666667}, {"fusion_lat": 0.0, "name": "3c50fa85579b6194dbad0cd6032f2e90", "is_disabled": 0, "rental_uris": {"android": "https://dc.lft.to/lastmile_qr_scan", "ios": "https://dc.lft.to/lastmile_qr_scan"}, "fusion_lon": 0.0, "lat": 38.9154915, "bike_id": "3c50fa85579b6194dbad0cd6032f2e90", "type": "electric_scooter", "is_reserved": 0, "lon": -77.032311}, {"fusion_lat": 0.0, "name": "1f304808f90ea247345ec32179ae68fe", "is_disabled": 0, "rental_uris": {"android": "https://dc.lft.to/lastmile_qr_scan", "ios": "https://dc.lft.to/lastmile_qr_scan"}, "fusion_lon": 0.0, "lat": 38.945253666666666, "bike_id": "1f304808f90ea247345ec32179ae68fe", "type": "electric_scooter", "is_reserved": 0, "lon": -77.02272016666667}, {"fusion_lat": 0.0, "name": "aedba586ff105e9ff6b6302729602061", "is_disabled": 0, "rental_uris": {"android": "https://dc.lft.to/lastmile_qr_scan", "ios": "https://dc.lft.to/lastmile_qr_scan"}, "fusion_lon": 0.0, "lat": 38.92567433333333, "bike_id": "aedba586ff105e9ff6b6302729602061", "type": "electric_scooter", "is_reserved": 0, "lon": -77.03778133333333}, {"fusion_lat": 0.0, "name": "c0a335d639cb416863b5b0d39f1c874d", "is_disabled": 0, "rental_uris": {"android": "https://dc.lft.to/lastmile_qr_scan", "ios": "https://dc.lft.to/lastmile_qr_scan"}, "fusion_lon": 0.0, "lat": 38.90241366666667, "bike_id": "c0a335d639cb416863b5b0d39f1c874d", "type": "electric_scooter", "is_reserved": 0, "lon": -77.06054583333334}, {"fusion_lat": 0.0, "name": "0d492c82b0135749ee6f12e47f994910", "is_disabled": 0, "rental_uris": {"android": "https://dc.lft.to/lastmile_qr_scan", "ios": "https://dc.lft.to/lastmile_qr_scan"}, "fusion_lon": 0.0, "lat": 38.90026016666667, "bike_id": "0d492c82b0135749ee6f12e47f994910", "type": "electric_scooter", "is_reserved": 0, "lon": -76.9740275}, {"fusion_lat": 0.0, "name": "f8d904a8161ef87697fd2d861f32264e", "is_disabled": 0, "rental_uris": {"android": "https://dc.lft.to/lastmile_qr_scan", "ios": "https://dc.lft.to/lastmile_qr_scan"}, "fusion_lon": 0.0, "lat": 38.911094166666665, "bike_id": "f8d904a8161ef87697fd2d861f32264e", "type": "electric_scooter", "is_reserved": 0, "lon": -77.0382855}, {"fusion_lat": 0.0, "name": "8afb9c92b058225336be7cf774519ccd", "is_disabled": 0, "rental_uris": {"android": "https://dc.lft.to/lastmile_qr_scan", "ios": "https://dc.lft.to/lastmile_qr_scan"}, "fusion_lon": 0.0, "lat": 38.90527133333333, "bike_id": "8afb9c92b058225336be7cf774519ccd", "type": "electric_scooter", "is_reserved": 0, "lon": -77.0219745}, {"fusion_lat": 0.0, "name": "1e90e2485e92af8fbdbf87e3dede3215", "is_disabled": 0, "rental_uris": {"android": "https://dc.lft.to/lastmile_qr_scan", "ios": "https://dc.lft.to/lastmile_qr_scan"}, "fusion_lon": 0.0, "lat": 38.92824516666667, "bike_id": "1e90e2485e92af8fbdbf87e3dede3215", "type": "electric_scooter", "is_reserved": 0, "lon": -77.02264}, {"fusion_lat": 0.0, "name": "d85c85430bc92b6207a03152955d968d", "is_disabled": 0, "rental_uris": {"android": "https://dc.lft.to/lastmile_qr_scan", "ios": "https://dc.lft.to/lastmile_qr_scan"}, "fusion_lon": 0.0, "lat": 38.913256833333335, "bike_id": "d85c85430bc92b6207a03152955d968d", "type": "electric_scooter", "is_reserved": 0, "lon": -77.029568}, {"fusion_lat": 0.0, "name": "56f36487eb808a1e6b35d494ad568036", "is_disabled": 0, "rental_uris": {"android": "https://dc.lft.to/lastmile_qr_scan", "ios": "https://dc.lft.to/lastmile_qr_scan"}, "fusion_lon": 0.0, "lat": 38.91106933333333, "bike_id": "56f36487eb808a1e6b35d494ad568036", "type": "electric_scooter", "is_reserved": 0, "lon": -77.01151233333333}, {"fusion_lat": 0.0, "name": "9e5aee13e757e38658cb71ac3f31d22a", "is_disabled": 0, "rental_uris": {"android": "https://dc.lft.to/lastmile_qr_scan", "ios": "https://dc.lft.to/lastmile_qr_scan"}, "fusion_lon": 0.0, "lat": 38.95634283333333, "bike_id": "9e5aee13e757e38658cb71ac3f31d22a", "type": "electric_scooter", "is_reserved": 0, "lon": -77.03307866666667}, {"fusion_lat": 0.0, "name": "f346e4502d1a12c044447c9cd5680b62", "is_disabled": 0, "rental_uris": {"android": "https://dc.lft.to/lastmile_qr_scan", "ios": "https://dc.lft.to/lastmile_qr_scan"}, "fusion_lon": 0.0, "lat": 38.95748233333333, "bike_id": "f346e4502d1a12c044447c9cd5680b62", "type": "electric_bike", "is_reserved": 0, "lon": -76.9725565}, {"fusion_lat": 0.0, "name": "f4c3eed2f1f9ffd0ff1d7cd8929ade7a", "is_disabled": 0, "rental_uris": {"android": "https://dc.lft.to/lastmile_qr_scan", "ios": "https://dc.lft.to/lastmile_qr_scan"}, "fusion_lon": 0.0, "lat": 38.922222833333336, "bike_id": "f4c3eed2f1f9ffd0ff1d7cd8929ade7a", "type": "electric_scooter", "is_reserved": 0, "lon": -76.993576}, {"fusion_lat": 0.0, "name": "ed01157a57056fc51600135f08b3767b", "is_disabled": 0, "rental_uris": {"android": "https://dc.lft.to/lastmile_qr_scan", "ios": "https://dc.lft.to/lastmile_qr_scan"},