{"data": {"bikes": [{"type": "electric_scooter", "fusion_lon": 0.0, "name": "53ae64e384bd27fdd22ad071c79882da", "lon": -77.04892633333333, "fusion_lat": 0.0, "is_disabled": 0, "is_reserved": 0, "rental_uris": {"ios": "https://dc.lft.to/lastmile_qr_scan", "android": "https://dc.lft.to/lastmile_qr_scan"}, "bike_id": "53ae64e384bd27fdd22ad071c79882da", "lat": 38.90512666666667}, {"type": "electric_bike", "fusion_lon": 0.0, "name": "ecd690c6f6d94edf34d47e52ab7a551c", "lon": -77.02825, "fusion_lat": 0.0, "is_disabled": 0, "is_reserved": 0, "rental_uris": {"ios": "https://dc.lft.to/lastmile_qr_scan", "android": "https://dc.lft.to/lastmile_qr_scan"}, "bike_id": "ecd690c6f6d94edf34d47e52ab7a551c", "lat": 38.965598666666665}, {"type": "electric_scooter", "fusion_lon": 0.0, "name": "d2d5a0aad57fb7a6e0a934962ee45fa0", "lon": -77.03220733333333, "fusion_lat": 0.0, "is_disabled": 0, "is_reserved": 0, "rental_uris": {"ios": "https://dc.lft.to/lastmile_qr_scan", "android": "https://dc.lft.to/lastmile_qr_scan"}, "bike_id": "d2d5a0aad57fb7a6e0a934962ee45fa0", "lat": 38.89228766666667}, {"type": "electric_bike", "fusion_lon": 0.0, "name": "9a4a36f25814605a0cd3103b872f5cd2", "lon": -77.10402633333334, "fusion_lat": 0.0, "is_disabled": 0, "is_reserved": 0, "rental_uris": {"ios": "https://dc.lft.to/lastmile_qr_scan", "android": "https://dc.lft.to/lastmile_qr_scan"}, "bike_id": "9a4a36f25814605a0cd3103b872f5cd2", "lat": 39.0053705}, {"type": "electric_scooter", "fusion_lon": 0.0, "name": "46b02be90df15ae36b18cdcf442eaa27", "lon": -77.04809483333334, "fusion_lat": 0.0, "is_disabled": 0, "is_reserved": 0, "rental_uris": {"ios": "https://dc.lft.to/lastmile_qr_scan", "android": "https://dc.lft.to/lastmile_qr_scan"}, "bike_id": "46b02be90df15ae36b18cdcf442eaa27", "lat": 38.89595883333333}, {"type": "electric_bike", "fusion_lon": 0.0, "name": "10c6505c7be0ab14c98bb0a028ca54e9", "lon": -77.08306433333334, "fusion_lat": 0.0, "is_disabled": 0, "is_reserved": 0, "rental_uris": {"ios": "https://dc.lft.to/lastmile_qr_scan", "android": "https://dc.lft.to/lastmile_qr_scan"}, "bike_id": "10c6505c7be0ab14c98bb0a028ca54e9", "lat": 38.930372}, {"type": "electric_scooter", "fusion_lon": 0.0, "name": "0eb1f053af122abfd25db7d01f1facf9", "lon": -77.02807366666667, "fusion_lat": 0.0, "is_disabled": 0, "is_reserved": 0, "rental_uris": {"ios": "https://dc.lft.to/lastmile_qr_scan", "android": "https://dc.lft.to/lastmile_qr_scan"}, "bike_id": "0eb1f053af122abfd25db7d01f1facf9", "lat": 38.89231216666667}, {"type": "electric_scooter", "fusion_lon": 0.0, "name": "293d2faecd2c50506038e261e932034d", "lon": -77.04871616666667, "fusion_lat": 0.0, "is_disabled": 0, "is_reserved": 0, "rental_uris": {"ios": "https://dc.lft.to/lastmile_qr_scan", "android": "https://dc.lft.to/lastmile_qr_scan"}, "bike_id": "293d2faecd2c50506038e261e932034d", "lat": 38.90092766666667}, {"type": "electric_scooter", "fusion_lon": 0.0, "name": "4c960601c5e8eb9164ea219bba809caa", "lon": -77.02229866666667, "fusion_lat": 0.0, "is_disabled": 0, "is_reserved": 0, "rental_uris": {"ios": "https://dc.lft.to/lastmile_qr_scan", "android": "https://dc.lft.to/lastmile_qr_scan"}, "bike_id": "4c960601c5e8eb9164ea219bba809caa", "lat": 38.88748916666667}, {"type": "electric_scooter", "fusion_lon": 0.0, "name": "2939fe73829d230489b976a551aeaa00", "lon": -76.99634066666667, "fusion_lat": 0.0, "is_disabled": 0, "is_reserved": 0, "rental_uris": {"ios": "https://dc.lft.to/lastmile_qr_scan", "android": "https://dc.lft.to/lastmile_qr_scan"}, "bike_id": "2939fe73829d230489b976a551aeaa00", "lat": 38.885194}, {"type": "electric_scooter", "fusion_lon": 0.0, "name": "06738848bd922b255a3af7cf7310e162", "lon": -77.01869983333333, "fusion_lat": 0.0, "is_disabled": 0, "is_reserved": 0, "rental_uris": {"ios": "https://dc.lft.to/lastmile_qr_scan", "android": "https://dc.lft.to/lastmile_qr_scan"}, "bike_id": "06738848bd922b255a3af7cf7310e162", "lat": 38.973704}, {"type": "electric_scooter", "fusion_lon": 0.0, "name": "66093ca45344175d9070072db2497261", "lon": -77.016021, "fusion_lat": 0.0, "is_disabled": 0, "is_reserved": 0, "rental_uris": {"ios": "https://dc.lft.to/lastmile_qr_scan", "android": "https://dc.lft.to/lastmile_qr_scan"}, "bike_id": "66093ca45344175d9070072db2497261", "lat": 38.90391183333333}, {"type": "electric_scooter", "fusion_lon": 0.0, "name": "ec6804e3cdf38406a5c150e7eafad3d4", "lon": -77.00954583333333, "fusion_lat": 0.0, "is_disabled": 0, "is_reserved": 0, "rental_uris": {"ios": "https://dc.lft.to/lastmile_qr_scan", "android": "https://dc.lft.to/lastmile_qr_scan"}, "bike_id": "ec6804e3cdf38406a5c150e7eafad3d4", "lat": 38.914749666666665}, {"type": "electric_scooter", "fusion_lon": 0.0, "name": "bf7014ea32722cf6c34d3d6552545f56", "lon": -77.02705866666666, "fusion_lat": 0.0, "is_disabled": 0, "is_reserved": 0, "rental_uris": {"ios": "https://dc.lft.to/lastmile_qr_scan", "android": "https://dc.lft.to/lastmile_qr_scan"}, "bike_id": "bf7014ea32722cf6c34d3d6552545f56", "lat": 38.906712166666665}, {"type": "electric_scooter", "fusion_lon": 0.0, "name": "acdad2c163d463794e0d424c09a16cb3", "lon": -77.04202983333333, "fusion_lat": 0.0, "is_disabled": 0, "is_reserved": 0, "rental_uris": {"ios": "https://dc.lft.to/lastmile_qr_scan", "android": "https://dc.lft.to/lastmile_qr_scan"}, "bike_id": "acdad2c163d463794e0d424c09a16cb3", "lat": 38.892666166666665}, {"type": "electric_scooter", "fusion_lon": 0.0, "name": "7056c3f9f7f3fc0347aefab0bcc2b838", "lon": -77.04660566666666, "fusion_lat": 0.0, "is_disabled": 0, "is_reserved": 0, "rental_uris": {"ios": "https://dc.lft.to/lastmile_qr_scan", "android": "https://dc.lft.to/lastmile_qr_scan"}, "bike_id": "7056c3f9f7f3fc0347aefab0bcc2b838", "lat": 38.899620166666665}, {"type": "electric_scooter", "fusion_lon": 0.0, "name": "8d4be5bcade5cfcde42e86c1fcfca582", "lon": -77.0499965, "fusion_lat": 0.0, "is_disabled": 0, "is_reserved": 0, "rental_uris": {"ios": "https://dc.lft.to/lastmile_qr_scan", "android": "https://dc.lft.to/lastmile_qr_scan"}, "bike_id": "8d4be5bcade5cfcde42e86c1fcfca582", "lat": 38.892329}, {"type": "electric_scooter", "fusion_lon": 0.0, "name": "5df18d8a5a1332fb6b42db41ddf20b52", "lon": -77.00172716666667, "fusion_lat": 0.0, "is_disabled": 0, "is_reserved": 0, "rental_uris": {"ios": "https://dc.lft.to/lastmile_qr_scan", "android": "https://dc.lft.to/lastmile_qr_scan"}, "bike_id": "5df18d8a5a1332fb6b42db41ddf20b52", "lat": 38.90258816666667}, {"type": "electric_scooter", "fusion_lon": 0.0, "name": "5c615c6f69f2a78a95d656da9fc87557", "lon": -77.02980233333334, "fusion_lat": 0.0, "is_disabled": 0, "is_reserved": 0, "rental_uris": {"ios": "https://dc.lft.to/lastmile_qr_scan", "android": "https://dc.lft.to/lastmile_qr_scan"}, "bike_id": "5c615c6f69f2a78a95d656da9fc87557", "lat": 38.8986435}, {"type": "electric_scooter", "fusion_lon": 0.0, "name": "ba25095910cd9c64863d6c35d8ed1e4c", "lon": -77.0651665, "fusion_lat": 0.0, "is_disabled": 0, "is_reserved": 0, "rental_uris": {"ios": "https://dc.lft.to/lastmile_qr_scan", "android": "https://dc.lft.to/lastmile_qr_scan"}, "bike_id": "ba25095910cd9c64863d6c35d8ed1e4c", "lat": 38.905306333333336}, {"type": "electric_scooter", "fusion_lon": 0.0, "name": "a6e6f891dba3880a7e2c73f17d3c1877", "lon": -77.020352, "fusion_lat": 0.0, "is_disabled": 0, "is_reserved": 0, "rental_uris": {"ios": "https://dc.lft.to/lastmile_qr_scan", "android": "https://dc.lft.to/lastmile_qr_scan"}, "bike_id": "a6e6f891dba3880a7e2c73f17d3c1877", "lat": 38.945925333333335}, {"type": "electric_scooter", "fusion_lon": 0.0, "name": "17ddc0c6c49c041faa2f1f0b09f688fd", "lon": -77.015805, "fusion_lat": 0.0, "is_disabled": 0, "is_reserved": 0, "rental_uris": {"ios": "https://dc.lft.to/lastmile_qr_scan", "android": "https://dc.lft.to/lastmile_qr_scan"}, "bike_id": "17ddc0c6c49c041faa2f1f0b09f688fd", "lat": 38.95109133333333}, {"type": "electric_scooter", "fusion_lon": 0.0, "name": "7ecf5ffdd3a376a061445f4d3e55238f", "lon": -77.03078816666667, "fusion_lat": 0.0, "is_disabled": 0, "is_reserved": 0, "rental_uris": {"ios": "https://dc.lft.to/lastmile_qr_scan", "android": "https://dc.lft.to/lastmile_qr_scan"}, "bike_id": "7ecf5ffdd3a376a061445f4d3e55238f", "lat": 38.90732283333333}, {"type": "electric_scooter", "fusion_lon": 0.0, "name": "c4e7ac1bcbc37db09fe8cae6c03d9d38", "lon": -77.04030466666667, "fusion_lat": 0.0, "is_disabled": 0, "is_reserved": 0, "rental_uris": {"ios": "https://dc.lft.to/lastmile_qr_scan", "android": "https://dc.lft.to/lastmile_qr_scan"}, "bike_id": "c4e7ac1bcbc37db09fe8cae6c03d9d38", "lat": 38.923826}, {"type": "electric_bike", "fusion_lon": 0.0, "name": "5aefa66061f1799545e9902b868af0fc", "lon": -77.0379345, "fusion_lat": 0.0, "is_disabled": 0, "is_reserved": 0, "rental_uris": {"ios": "https://dc.lft.to/lastmile_qr_scan", "android": "https://dc.lft.to/lastmile_qr_scan"}, "bike_id": "5aefa66061f1799545e9902b868af0fc", "lat": 38.9966035}, {"type": "electric_scooter", "fusion_lon": 0.0, "name": "0ac3a6ca65f133f3ec103de89524db65", "lon": -77.027136, "fusion_lat": 0.0, "is_disabled": 0, "is_reserved": 0, "rental_uris": {"ios": "https://dc.lft.to/lastmile_qr_scan", "android": "https://dc.lft.to/lastmile_qr_scan"}, "bike_id": "0ac3a6ca65f133f3ec103de89524db65", "lat": 38.91814633333333}, {"type": "electric_scooter", "fusion_lon": 0.0, "name": "86c5185d01075d4737abe9b46737ee70", "lon": -77.08962616666666, "fusion_lat": 0.0, "is_disabled": 0, "is_reserved": 0, "rental_uris": {"ios": "https://dc.lft.to/lastmile_qr_scan", "android": "https://dc.lft.to/lastmile_qr_scan"}, "bike_id": "86c5185d01075d4737abe9b46737ee70", "lat": 38.934476833333335}, {"type": "electric_scooter", "fusion_lon": 0.0, "name": "501926c01f19caf531fe0e2e5b80bdcf", "lon": -77.0143655, "fusion_lat": 0.0, "is_disabled": 0, "is_reserved": 0, "rental_uris": {"ios": "https://dc.lft.to/lastmile_qr_scan", "android": "https://dc.lft.to/lastmile_qr_scan"}, "bike_id": "501926c01f19caf531fe0e2e5b80bdcf", "lat": 38.9173765}, {"type": "electric_scooter", "fusion_lon": 0.0, "name": "736de5da674c1c0b1146c8b259dcb4d8", "lon": -76.99873116666667, "fusion_lat": 0.0, "is_disabled": 0, "is_reserved": 0, "rental_uris": {"ios": "https://dc.lft.to/lastmile_qr_scan", "android": "https://dc.lft.to/lastmile_qr_scan"}, "bike_id": "736de5da674c1c0b1146c8b259dcb4d8", "lat": 38.900279}, {"type": "electric_bike", "fusion_lon": 0.0, "name": "061adcd18df19a2006205e9c388be138", "lon": -76.98350833333333, "fusion_lat": 0.0, "is_disabled": 0, "is_reserved": 0, "rental_uris": {"ios": "https://dc.lft.to/lastmile_qr_scan", "android": "https://dc.lft.to/lastmile_qr_scan"}, "bike_id": "061adcd18df19a2006205e9c388be138", "lat": 38.86262716666667}, {"type": "electric_scooter", "fusion_lon": 0.0, "name": "2836db6fa88f25cb42f84ec840a7afec", "lon": -77.04864783333333, "fusion_lat": 0.0, "is_disabled": 0, "is_reserved": 0, "rental_uris": {"ios": "https://dc.lft.to/lastmile_qr_scan", "android": "https://dc.lft.to/lastmile_qr_scan"}, "bike_id": "2836db6fa88f25cb42f84ec840a7afec", "lat": 38.91135233333333}, {"type": "electric_scooter", "fusion_lon": 0.0, "name": "ca22b73b09ffb93af246afe92183e35a", "lon": -77.0224235, "fusion_lat": 0.0, "is_disabled": 0, "is_reserved": 0, "rental_uris": {"ios": "https://dc.lft.to/lastmile_qr_scan", "android": "https://dc.lft.to/lastmile_qr_scan"}, "bike_id": "ca22b73b09ffb93af246afe92183e35a", "lat": 38.924179}, {"type": "electric_scooter", "fusion_lon": 0.0, "name": "0dae35274dcdb29e70bd7062d33a4b14", "lon": -77.0434485, "fusion_lat": 0.0, "is_disabled": 0, "is_reserved": 0, "rental_uris": {"ios": "https://dc.lft.to/lastmile_qr_scan", "android": "https://dc.lft.to/lastmile_qr_scan"}, "bike_id": "0dae35274dcdb29e70bd7062d33a4b14", "lat": 38.896292333333335}, {"type": "electric_scooter", "fusion_lon": 0.0, "name": "1e11611d1056184e45056c14a9a3920e", "lon": -77.04213083333333, "fusion_lat": 0.0, "is_disabled": 0, "is_reserved": 0, "rental_uris": {"ios": "https://dc.lft.to/lastmile_qr_scan", "android": "https://dc.lft.to/lastmile_qr_scan"}, "bike_id": "1e11611d1056184e45056c14a9a3920e", "lat": 38.90912316666667}, {"type": "electric_scooter", "fusion_lon": 0.0, "name": "123e52ec861ef78ad53b06a25dc1baea", "lon": -77.02160583333334, "fusion_lat": 0.0, "is_disabled": 0, "is_reserved": 0, "rental_uris": {"ios": "https://dc.lft.to/lastmile_qr_scan", "android": "https://dc.lft.to/lastmile_qr_scan"}, "bike_id": "123e52ec861ef78ad53b06a25dc1baea", "lat": 38.926129}, {"type": "electric_scooter", "fusion_lon": 0.0, "name": "333a92b3b3c59e2e4cf27f63fe8e0222", "lon": -77.04387966666667, "fusion_lat": 0.0, "is_disabled": 0, "is_reserved": 0, "rental_uris": {"ios": "https://dc.lft.to/lastmile_qr_scan", "android": "https://dc.lft.to/lastmile_qr_scan"}, "bike_id": "333a92b3b3c59e2e4cf27f63fe8e0222", "lat": 38.8920305}, {"type": "electric_scooter", "fusion_lon": 0.0, "name": "af6266415ab36a83c2478815d2f36a91", "lon": -77.04777416666667, "fusion_lat": 0.0, "is_disabled": 0, "is_reserved": 0, "rental_uris": {"ios": "https://dc.lft.to/lastmile_qr_scan", "android": "https://dc.lft.to/lastmile_qr_scan"}, "bike_id": "af6266415ab36a83c2478815d2f36a91", "lat": 38.900924333333336}, {"type": "electric_scooter", "fusion_lon": 0.0, "name": "2171302e11c00bbfa03ae1f28d4418ce", "lon": -77.01514283333333, "fusion_lat": 0.0, "is_disabled": 0, "is_reserved": 0, "rental_uris": {"ios": "https://dc.lft.to/lastmile_qr_scan", "android": "https://dc.lft.to/lastmile_qr_scan"}, "bike_id": "2171302e11c00bbfa03ae1f28d4418ce", "lat": 38.9267525}, {"type": "electric_scooter", "fusion_lon": 0.0, "name": "f8665f7a3195ebffe6cd8056f58410cb", "lon": -77.0231275, "fusion_lat": 0.0, "is_disabled": 0, "is_reserved": 0, "rental_uris": {"ios": "https://dc.lft.to/lastmile_qr_scan", "android": "https://dc.lft.to/lastmile_qr_scan"}, "bike_id": "f8665f7a3195ebffe6cd8056f58410cb", "lat": 38.91790433333333}, {"type": "electric_scooter", "fusion_lon": 0.0, "name": "530da16cf1ef8ae2db5674014d7912d3", "lon": -77.01913416666666, "fusion_lat": 0.0, "is_disabled": 0, "is_reserved": 0, "rental_uris": {"ios": "https://dc.lft.to/lastmile_qr_scan", "android": "https://dc.lft.to/lastmile_qr_scan"}, "bike_id": "530da16cf1ef8ae2db5674014d7912d3", "lat": 38.917761166666665}, {"type": "electric_scooter", "fusion_lon": 0.0, "name": "663dab54a9456795862b34158d3dc097", "lon": -77.04679116666667, "fusion_lat": 0.0, "is_disabled": 0, "is_reserved": 0, "rental_uris": {"ios": "https://dc.lft.to/lastmile_qr_scan", "android": "https://dc.lft.to/lastmile_qr_scan"}, "bike_id": "663dab54a9456795862b34158d3dc097", "lat": 38.916668}, {"type": "electric_scooter", "fusion_lon": 0.0, "name": "3cb6565422097043d3d0fe8db8ab7d98", "lon": -77.03385733333333, "fusion_lat": 0.0, "is_disabled": 0, "is_reserved": 0, "rental_uris": {"ios": "https://dc.lft.to/lastmile_qr_scan", "android": "https://dc.lft.to/lastmile_qr_scan"}, "bike_id": "3cb6565422097043d3d0fe8db8ab7d98", "lat": 38.922457666666666}, {"type": "electric_scooter", "fusion_lon": 0.0, "name": "d38c183d7af114e9cacc0ec6de44beff", "lon": -77.0223725, "fusion_lat": 0.0, "is_disabled": 0, "is_reserved": 0, "rental_uris": {"ios": "https://dc.lft.to/lastmile_qr_scan", "android": "https://dc.lft.to/lastmile_qr_scan"}, "bike_id": "d38c183d7af114e9cacc0ec6de44beff", "lat": 38.956848}, {"type": "electric_scooter", "fusion_lon": 0.0, "name": "5425af5f0af3b54886c216adcce4ad55", "lon": -76.9654875, "fusion_lat": 0.0, "is_disabled": 0, "is_reserved": 0, "rental_uris": {"ios": "https://dc.lft.to/lastmile_qr_scan", "android": "https://dc.lft.to/lastmile_qr_scan"}, "bike_id": "5425af5f0af3b54886c216adcce4ad55", "lat": 38.878918666666664}, {"type": "electric_scooter", "fusion_lon": 0.0, "name": "b4c7fc0785082673f1bbdf02c172f0b9", "lon": -77.038064, "fusion_lat": 0.0, "is_disabled": 0, "is_reserved": 0, "rental_uris": {"ios": "https://dc.lft.to/lastmile_qr_scan", "android": "https://dc.lft.to/lastmile_qr_scan"}, "bike_id": "b4c7fc0785082673f1bbdf02c172f0b9", "lat": 38.924997833333336}, {"type": "electric_scooter", "fusion_lon": 0.0, "name": "17acf7156b909f05b0c7d390ddd6ec13", "lon": -77.039742, "fusion_lat": 0.0, "is_disabled": 0, "is_reserved": 0, "rental_uris": {"ios": "https://dc.lft.to/lastmile_qr_scan", "android": "https://dc.lft.to/lastmile_qr_scan"}, "bike_id": "17acf7156b909f05b0c7d390ddd6ec13", "lat": 38.9026655}, {"type": "electric_bike", "fusion_lon": 0.0, "name": "63a76359a2c1e7ed134877ed00163e7b", "lon": -76.90751866666666, "fusion_lat": 0.0, "is_disabled": 0, "is_reserved": 0, "rental_uris": {"ios": "https://dc.lft.to/lastmile_qr_scan", "android": "https://dc.lft.to/lastmile_qr_scan"}, "bike_id": "63a76359a2c1e7ed134877ed00163e7b", "lat": 38.896207833333335}, {"type": "electric_bike", "fusion_lon": 0.0, "name": "8abe84916ffe909ff76c81e8144264f1", "lon": -77.0140535, "fusion_lat": 0.0, "is_disabled": 0, "is_reserved": 0, "rental_uris": {"ios": "https://dc.lft.to/lastmile_qr_scan", "android": "https://dc.lft.to/lastmile_qr_scan"}, "bike_id": "8abe84916ffe909ff76c81e8144264f1", "lat": 38.958786833333335}, {"type": "electric_scooter", "fusion_lon": 0.0, "name": "b0c48154f9bcc5d883194f4fbade2269", "lon": -77.02683883333333, "fusion_lat": 0.0, "is_disabled": 0, "is_reserved": 0, "rental_uris": {"ios": "https://dc.lft.to/lastmile_qr_scan", "android": "https://dc.lft.to/lastmile_qr_scan"}, "bike_id": "b0c48154f9bcc5d883194f4fbade2269", "lat": 38.8949375}, {"type": "electric_scooter", "fusion_lon": 0.0, "name": "2a500231e5531c73fe5cd81e64607b80", "lon": -77.03182333333334, "fusion_lat": 0.0, "is_disabled": 0, "is_reserved": 0, "rental_uris": {"ios": "https://dc.lft.to/lastmile_qr_scan", "android": "https://dc.lft.to/lastmile_qr_scan"}, "bike_id": "2a500231e5531c73fe5cd81e64607b80", "lat": 38.91416516666666}, {"type": "electric_scooter", "fusion_lon": 0.0, "name": "e9f1bb3cbd1f43766d672103d672f9d7", "lon": -77.0309545, "fusion_lat": 0.0, "is_disabled": 0, "is_reserved": 0, "rental_uris": {"ios": "https://dc.lft.to/lastmile_qr_scan", "android": "https://dc.lft.to/lastmile_qr_scan"}, "bike_id": "e9f1bb3cbd1f43766d672103d672f9d7", "lat": 38.923957}, {"type": "electric_scooter", "fusion_lon": 0.0, "name": "4f1a596540500106b18d1481599b4f2b", "lon": -77.02430833333334, "fusion_lat": 0.0, "is_disabled": 0, "is_reserved": 0, "rental_uris": {"ios": "https://dc.lft.to/lastmile_qr_scan", "android": "https://dc.lft.to/lastmile_qr_scan"}, "bike_id": "4f1a596540500106b18d1481599b4f2b", "lat": 38.967999166666665}, {"type": "electric_scooter", "fusion_lon": 0.0, "name": "d5a9a984e8df158e1e821f3d4f6e2b08", "lon": -76.93449033333333, "fusion_lat": 0.0, "is_disabled": 0, "is_reserved": 0, "rental_uris": {"ios": "https://dc.lft.to/lastmile_qr_scan", "android": "https://dc.lft.to/lastmile_qr_scan"}, "bike_id": "d5a9a984e8df158e1e821f3d4f6e2b08", "lat": 38.9084615}, {"type": "electric_scooter", "fusion_lon": 0.0, "name": "73ad64121bdc03652656dcd3d724e3c0", "lon": -77.03197666666667, "fusion_lat": 0.0, "is_disabled": 0, "is_reserved": 0, "rental_uris": {"ios": "https://dc.lft.to/lastmile_qr_scan", "android": "https://dc.lft.to/lastmile_qr_scan"}, "bike_id": "73ad64121bdc03652656dcd3d724e3c0", "lat": 38.909772833333335}, {"type": "electric_scooter", "fusion_lon": 0.0, "name": "181b069e6a1660b2e33f4e62a05a266a", "lon": -77.02290933333333, "fusion_lat": 0.0, "is_disabled": 0, "is_reserved": 0, "rental_uris": {"ios": "https://dc.lft.to/lastmile_qr_scan", "android": "https://dc.lft.to/lastmile_qr_scan"}, "bike_id": "181b069e6a1660b2e33f4e62a05a266a", "lat": 38.9156825}, {"type": "electric_scooter", "fusion_lon": 0.0, "name": "539ab95db3afae0402731ccf0b0f4dd3", "lon": -77.0211945, "fusion_lat": 0.0, "is_disabled": 0, "is_reserved": 0, "rental_uris": {"ios": "https://dc.lft.to/lastmile_qr_scan", "android": "https://dc.lft.to/lastmile_qr_scan"}, "bike_id": "539ab95db3afae0402731ccf0b0f4dd3", "lat": 38.922420833333334}, {"type": "electric_scooter", "fusion_lon": 0.0, "name": "809d9f65473a4dca36c467bab17c2c38", "lon": -77.02437633333334, "fusion_lat": 0.0, "is_disabled": 0, "is_reserved": 0, "rental_uris": {"ios": "https://dc.lft.to/lastmile_qr_scan", "android": "https://dc.lft.to/lastmile_qr_scan"}, "bike_id": "809d9f65473a4dca36c467bab17c2c38", "lat": 38.922724}, {"type": "electric_scooter", "fusion_lon": 0.0, "name": "73cf5c2aa534d76ae9ee953ef42a4cff", "lon": -77.02263016666667, "fusion_lat": 0.0, "is_disabled": 0, "is_reserved": 0, "rental_uris": {"ios": "https://dc.lft.to/lastmile_qr_scan", "android": "https://dc.lft.to/lastmile_qr_scan"}, "bike_id": "73cf5c2aa534d76ae9ee953ef42a4cff", "lat": 38.925506166666665}, {"type": "electric_scooter", "fusion_lon": 0.0, "name": "83d6e72aca203a971c2dbebff5688f8c", "lon": -77.0294515, "fusion_lat": 0.0, "is_disabled": 0, "is_reserved": 0, "rental_uris": {"ios": "https://dc.lft.to/lastmile_qr_scan", "android": "https://dc.lft.to/lastmile_qr_scan"}, "bike_id": "83d6e72aca203a971c2dbebff5688f8c", "lat": 38.91694566666666}, {"type": "electric_scooter", "fusion_lon": 0.0, "name": "947703c92975fff1999ff4dd0de92072", "lon": -77.0343795, "fusion_lat": 0.0, "is_disabled": 0, "is_reserved": 0, "rental_uris": {"ios": "https://dc.lft.to/lastmile_qr_scan", "android": "https://dc.lft.to/lastmile_qr_scan"}, "bike_id": "947703c92975fff1999ff4dd0de92072", "lat": 38.90274}, {"type": "electric_bike", "fusion_lon": 0.0, "name": "e0295de22d32767cb7ad124e6f4813ef", "lon": -77.23391733333334, "fusion_lat": 0.0, "is_disabled": 0, "is_reserved": 0, "rental_uris": {"ios": "https://dc.lft.to/lastmile_qr_scan", "android": "https://dc.lft.to/lastmile_qr_scan"}, "bike_id": "e0295de22d32767cb7ad124e6f4813ef", "lat": 38.871746333333334}, {"type": "electric_scooter", "fusion_lon": 0.0, "name": "fa2680dc0f7c98cb9d9ea9ff587e4cb2", "lon": -76.97708266666666, "fusion_lat": 0.0, "is_disabled": 0, "is_reserved": 0, "rental_uris": {"ios": "https://dc.lft.to/lastmile_qr_scan", "android": "https://dc.lft.to/lastmile_qr_scan"}, "bike_id": "fa2680dc0f7c98cb9d9ea9ff587e4cb2", "lat": 38.886198666666665}, {"type": "electric_scooter", "fusion_lon": 0.0, "name": "b874192b52078075874ab244275e5715", "lon": -77.0560115, "fusion_lat": 0.0, "is_disabled": 0, "is_reserved": 0, "rental_uris": {"ios": "https://dc.lft.to/lastmile_qr_scan", "android": "https://dc.lft.to/lastmile_qr_scan"}, "bike_id": "b874192b52078075874ab244275e5715", "lat": 38.93706916666667}, {"type": "electric_scooter", "fusion_lon": 0.0, "name": "e831712cfec2b5b63da9b0a9b261de9a", "lon": -77.03270533333334, "fusion_lat": 0.0, "is_disabled": 0, "is_reserved": 0, "rental_uris": {"ios": "https://dc.lft.to/lastmile_qr_scan", "android": "https://dc.lft.to/lastmile_qr_scan"}, "bike_id": "e831712cfec2b5b63da9b0a9b261de9a", "lat": 38.89885116666667}, {"type": "electric_scooter", "fusion_lon": 0.0, "name": "38d84af3e3efa7bb485834fb1b91fdfc", "lon": -76.99164116666667, "fusion_lat": 0.0, "is_disabled": 0, "is_reserved": 0, "rental_uris": {"ios": "https://dc.lft.to/lastmile_qr_scan", "android": "https://dc.lft.to/lastmile_qr_scan"}, "bike_id": "38d84af3e3efa7bb485834fb1b91fdfc", "lat": 38.95372916666667}, {"type": "electric_bike", "fusion_lon": 0.0, "name": "7d392571ab8904e399935c451e598f28", "lon": -76.942462, "fusion_lat": 0.0, "is_disabled": 0, "is_reserved": 0, "rental_uris": {"ios": "https://dc.lft.to/lastmile_qr_scan", "android": "https://dc.lft.to/lastmile_qr_scan"}, "bike_id": "7d392571ab8904e399935c451e598f28", "lat": 38.98027166666667}, {"type": "electric_scooter", "fusion_lon": 0.0, "name": "50d08a1891f52c0d3dc6f459d42c6c22", "lon": -77.00205433333333, "fusion_lat": 0.0, "is_disabled": 0, "is_reserved": 0, "rental_uris": {"ios": "https://dc.lft.to/lastmile_qr_scan", "android": "https://dc.lft.to/lastmile_qr_scan"}, "bike_id": "50d08a1891f52c0d3dc6f459d42c6c22", "lat": 38.90028516666667}, {"type": "electric_scooter", "fusion_lon": 0.0, "name": "32439a1c68d0a4d246f0983c06ab2fa5", "lon": -77.02198716666666, "fusion_lat": 0.0, "is_disabled": 0, "is_reserved": 0, "rental_uris": {"ios": "https://dc.lft.to/lastmile_qr_scan", "android": "https://dc.lft.to/lastmile_qr_scan"}, "bike_id": "32439a1c68d0a4d246f0983c06ab2fa5", "lat": 38.88622266666667}, {"type": "electric_scooter", "fusion_lon": 0.0, "name": "0e77e071f95ea4aea0a70b46d534abfe", "lon": -77.03441966666666, "fusion_lat": 0.0, "is_disabled": 0, "is_reserved": 0, "rental_uris": {"ios": "https://dc.lft.to/lastmile_qr_scan", "android": "https://dc.lft.to/lastmile_qr_scan"}, "bike_id": "0e77e071f95ea4aea0a70b46d534abfe", "lat": 38.930971666666665}, {"type": "electric_bike", "fusion_lon": 0.0, "name": "165f6b686b9daa66d382840bf24b86ff", "lon": -77.01388516666667, "fusion_lat": 0.0, "is_disabled": 0, "is_reserved": 0, "rental_uris": {"ios": "https://dc.lft.to/lastmile_qr_scan", "android": "https://dc.lft.to/lastmile_qr_scan"}, "bike_id": "165f6b686b9daa66d382840bf24b86ff", "lat": 38.944349333333335}, {"type": "electric_scooter", "fusion_lon": 0.0, "name": "7e0391772a2dd1e688581f31f67b29d0", "lon": -77.05079966666666, "fusion_lat": 0.0, "is_disabled": 0, "is_reserved": 0, "rental_uris": {"ios": "https://dc.lft.to/lastmile_qr_scan", "android": "https://dc.lft.to/lastmile_qr_scan"}, "bike_id": "7e0391772a2dd1e688581f31f67b29d0", "lat": 38.90192016666666}, {"type": "electric_scooter", "fusion_lon": 0.0, "name": "17f05c2952af981b48d61bb3e906e96f", "lon": -77.0299125, "fusion_lat": 0.0, "is_disabled": 0, "is_reserved": 0, "rental_uris": {"ios": "https://dc.lft.to/lastmile_qr_scan", "android": "https://dc.lft.to/lastmile_qr_scan"}, "bike_id": "17f05c2952af981b48d61bb3e906e96f", "lat": 38.9060055}, {"type": "electric_scooter", "fusion_lon": 0.0, "name": "4e4e1a3745c19e703d4839a54c6d53e8", "lon": -77.03854616666666, "fusion_lat": 0.0, "is_disabled": 0, "is_reserved": 0, "rental_uris": {"ios": "https://dc.lft.to/lastmile_qr_scan", "android": "https://dc.lft.to/lastmile_qr_scan"}, "bike_id": "4e4e1a3745c19e703d4839a54c6d53e8", "lat": 38.926505}, {"type": "electric_scooter", "fusion_lon": 0.0, "name": "f387cdfe3a60888d200a08eb04be1dbe", "lon": -77.00738216666667, "fusion_lat": 0.0, "is_disabled": 0, "is_reserved": 0, "rental_uris": {"ios": "https://dc.lft.to/lastmile_qr_scan", "android": "https://dc.lft.to/lastmile_qr_scan"}, "bike_id": "f387cdfe3a60888d200a08eb04be1dbe", "lat": 38.9047495}, {"type": "electric_scooter", "fusion_lon": 0.0, "name": "b1c550e5e3f754059ca576a28f7e3945", "lon": -76.950507, "fusion_lat": 0.0, "is_disabled": 0, "is_reserved": 0, "rental_uris": {"ios": "https://dc.lft.to/lastmile_qr_scan", "android": "https://dc.lft.to/lastmile_qr_scan"}, "bike_id": "b1c550e5e3f754059ca576a28f7e3945", "lat": 38.904748}, {"type": "electric_scooter", "fusion_lon": 0.0, "name": "3371c95db7cb00441c3c858996a75c6d", "lon": -77.04343616666667, "fusion_lat": 0.0, "is_disabled": 0, "is_reserved": 0, "rental_uris": {"ios": "https://dc.lft.to/lastmile_qr_scan", "android": "https://dc.lft.to/lastmile_qr_scan"}, "bike_id": "3371c95db7cb00441c3c858996a75c6d", "lat": 38.91058566666667}, {"type": "electric_bike", "fusion_lon": 0.0, "name": "13c073e829c1693450de3c46a33848f3", "lon": -77.08749166666666, "fusion_lat": 0.0, "is_disabled": 0, "is_reserved": 0, "rental_uris": {"ios": "https://dc.lft.to/lastmile_qr_scan", "android": "https://dc.lft.to/lastmile_qr_scan"}, "bike_id": "13c073e829c1693450de3c46a33848f3", "lat": 38.9856915}, {"type": "electric_scooter", "fusion_lon": 0.0, "name": "24f0664715c7e2a41f2ae18654751efa", "lon": -77.023993, "fusion_lat": 0.0, "is_disabled": 0, "is_reserved": 0, "rental_uris": {"ios": "https://dc.lft.to/lastmile_qr_scan", "android": "https://dc.lft.to/lastmile_qr_scan"}, "bike_id": "24f0664715c7e2a41f2ae18654751efa", "lat": 38.9176655}, {"type": "electric_scooter", "fusion_lon": 0.0, "name": "3c9c30af590a83cf8bad850da1b875a6", "lon": -76.99181283333333, "fusion_lat": 0.0, "is_disabled": 0, "is_reserved": 0, "rental_uris": {"ios": "https://dc.lft.to/lastmile_qr_scan", "android": "https://dc.lft.to/lastmile_qr_scan"}, "bike_id": "3c9c30af590a83cf8bad850da1b875a6", "lat": 38.85532583333333}, {"type": "electric_scooter", "fusion_lon": 0.0, "name": "aeb269790a597e7b9a230631205eeea6", "lon": -77.04178733333333, "fusion_lat": 0.0, "is_disabled": 0, "is_reserved": 0, "rental_uris": {"ios": "https://dc.lft.to/lastmile_qr_scan", "android": "https://dc.lft.to/lastmile_qr_scan"}, "bike_id": "aeb269790a597e7b9a230631205eeea6", "lat": 38.919938}, {"type": "electric_scooter", "fusion_lon": 0.0, "name": "bfdf357ad87c2fcaeb706dcf7668af1f", "lon": -77.0502075, "fusion_lat": 0.0, "is_disabled": 0, "is_reserved": 0, "rental_uris": {"ios": "https://dc.lft.to/lastmile_qr_scan", "android": "https://dc.lft.to/lastmile_qr_scan"}, "bike_id": "bfdf357ad87c2fcaeb706dcf7668af1f", "lat": 38.9018345}, {"type": "electric_scooter", "fusion_lon": 0.0, "name": "b484bd574c0075d862ea8c443a213a51", "lon": -77.02782533333334, "fusion_lat": 0.0, "is_disabled": 0, "is_reserved": 0, "rental_uris": {"ios": "https://dc.lft.to/lastmile_qr_scan", "android": "https://dc.lft.to/lastmile_qr_scan"}, "bike_id": "b484bd574c0075d862ea8c443a213a51", "lat": 38.892247166666664}, {"type": "electric_bike", "fusion_lon": 0.0, "name": "11f67eea814a23ab417703906f0b7805", "lon": -77.11759033333334, "fusion_lat": 0.0, "is_disabled": 0, "is_reserved": 0, "rental_uris": {"ios": "https://dc.lft.to/lastmile_qr_scan", "android": "https://dc.lft.to/lastmile_qr_scan"}, "bike_id": "11f67eea814a23ab417703906f0b7805", "lat": 38.875164166666664}, {"type": "electric_scooter", "fusion_lon": 0.0, "name": "1c82cf257bcbd9760bf918706835a0fa", "lon": -77.034831, "fusion_lat": 0.0, "is_disabled": 0, "is_reserved": 0, "rental_uris": {"ios": "https://dc.lft.to/lastmile_qr_scan", "android": "https://dc.lft.to/lastmile_qr_scan"}, "bike_id": "1c82cf257bcbd9760bf918706835a0fa", "lat": 38.923464833333334}, {"type": "electric_scooter", "fusion_lon": 0.0, "name": "fd8202b9f7b59fe5ec380a7340f37286", "lon": -77.00459966666666, "fusion_lat": 0.0, "is_disabled": 0, "is_reserved": 0, "rental_uris": {"ios": "https://dc.lft.to/lastmile_qr_scan", "android": "https://dc.lft.to/lastmile_qr_scan"}, "bike_id": "fd8202b9f7b59fe5ec380a7340f37286", "lat": 38.911501333333334}, {"type": "electric_scooter", "fusion_lon": 0.0, "name": "ba9ff619b16bd7495d5fe564a12db6f0", "lon": -77.02962366666667, "fusion_lat": 0.0, "is_disabled": 0, "is_reserved": 0, "rental_uris": {"ios": "https://dc.lft.to/lastmile_qr_scan", "android": "https://dc.lft.to/lastmile_qr_scan"}, "bike_id": "ba9ff619b16bd7495d5fe564a12db6f0", "lat": 38.905108}, {"type": "electric_scooter", "fusion_lon": 0.0, "name": "c3682c18429a78fb04048528e62fa440", "lon": -77.01778216666666, "fusion_lat": 0.0, "is_disabled": 0, "is_reserved": 0, "rental_uris": {"ios": "https://dc.lft.to/lastmile_qr_scan", "android": "https://dc.lft.to/lastmile_qr_scan"}, "bike_id": "c3682c18429a78fb04048528e62fa440", "lat": 38.877311}, {"type": "electric_scooter", "fusion_lon": 0.0, "name": "d011437f9983aabe56f9b0bea75e81a7", "lon": -77.0293565, "fusion_lat": 0.0, "is_disabled": 0, "is_reserved": 0, "rental_uris": {"ios": "https://dc.lft.to/lastmile_qr_scan", "android": "https://dc.lft.to/lastmile_qr_scan"}, "bike_id": "d011437f9983aabe56f9b0bea75e81a7", "lat": 38.9427795}, {"type": "electric_bike", "fusion_lon": 0.0, "name": "5fc7a54ed582b21087f9c92e7c7581d4", "lon": -77.03275083333334, "fusion_lat": 0.0, "is_disabled": 0, "is_reserved": 0, "rental_uris": {"ios": "https://dc.lft.to/lastmile_qr_scan", "android": "https://dc.lft.to/lastmile_qr_scan"}, "bike_id": "5fc7a54ed582b21087f9c92e7c7581d4", "lat": 38.961305}, {"type": "electric_scooter", "fusion_lon": 0.0, "name": "fc0ef16a990fb29deb4322acc7c88ee7", "lon": -77.04660916666667, "fusion_lat": 0.0, "is_disabled": 0, "is_reserved": 0, "rental_uris": {"ios": "https://dc.lft.to/lastmile_qr_scan", "android": "https://dc.lft.to/lastmile_qr_scan"}, "bike_id": "fc0ef16a990fb29deb4322acc7c88ee7", "lat": 38.89252483333333}, {"type": "electric_scooter", "fusion_lon": 0.0, "name": "aa091c2caa1c10397afe265d10bc2591", "lon": -77.0071065, "fusion_lat": 0.0, "is_disabled": 0, "is_reserved": 0, "rental_uris": {"ios": "https://dc.lft.to/lastmile_qr_scan", "android": "https://dc.lft.to/lastmile_qr_scan"}, "bike_id": "aa091c2caa1c10397afe265d10bc2591", "lat": 38.88493016666666}, {"type": "electric_scooter", "fusion_lon": 0.0, "name": "839a2b97d32bf0fe255ca5edf3f184c8", "lon": -77.0262235, "fusion_lat": 0.0, "is_disabled": 0, "is_reserved": 0, "rental_uris": {"ios": "https://dc.lft.to/lastmile_qr_scan", "android": "https://dc.lft.to/lastmile_qr_scan"}, "bike_id": "839a2b97d32bf0fe255ca5edf3f184c8", "lat": 38.883592}, {"type": "electric_scooter", "fusion_lon": 0.0, "name": "44baf26bfc0da41a655cbbbcd3b13d11", "lon": -77.04064083333333, "fusion_lat": 0.0, "is_disabled": 0, "is_reserved": 0, "rental_uris": {"ios": "https://dc.lft.to/lastmile_qr_scan", "android": "https://dc.lft.to/lastmile_qr_scan"}, "bike_id": "44baf26bfc0da41a655cbbbcd3b13d11", "lat": 38.917510166666666}, {"type": "electric_scooter", "fusion_lon": 0.0, "name": "861814baf842191f37d5b8206c850504", "lon": -77.02909866666667, "fusion_lat": 0.0, "is_disabled": 0, "is_reserved": 0, "rental_uris": {"ios": "https://dc.lft.to/lastmile_qr_scan", "android": "https://dc.lft.to/lastmile_qr_scan"}, "bike_id": "861814baf842191f37d5b8206c850504", "lat": 38.897133333333336}, {"type": "electric_bike", "fusion_lon": 0.0, "name": "05890f1a0556f53ea94217a4502b6628", "lon": -77.0045505, "fusion_lat": 0.0, "is_disabled": 0, "is_reserved": 0, "rental_uris": {"ios": "https://dc.lft.to/lastmile_qr_scan", "android": "https://dc.lft.to/lastmile_qr_scan"}, "bike_id": "05890f1a0556f53ea94217a4502b6628", "lat": 38.914387}, {"type": "electric_scooter", "fusion_lon": 0.0, "name": "7b6c491066d49fb539ea796d374b3cf1", "lon": -77.01463283333334, "fusion_lat": 0.0, "is_disabled": 0, "is_reserved": 0, "rental_uris": {"ios": "https://dc.lft.to/lastmile_qr_scan", "android": "https://dc.lft.to/lastmile_qr_scan"}, "bike_id": "7b6c491066d49fb539ea796d374b3cf1", "lat": 38.92985616666667}, {"type": "electric_scooter", "fusion_lon": 0.0, "name": "8404b68ba1be1546bd32d473953a2bd1", "lon": -77.02221133333333, "fusion_lat": 0.0, "is_disabled": 0, "is_reserved": 0, "rental_uris": {"ios": "https://dc.lft.to/lastmile_qr_scan", "android": "https://dc.lft.to/lastmile_qr_scan"}, "bike_id": "8404b68ba1be1546bd32d473953a2bd1", "lat": 38.92470866666667}, {"type": "electric_scooter", "fusion_lon": 0.0, "name": "77d5faf27abc3ed55d308c2c1e2bf9bd", "lon": -77.05257883333333, "fusion_lat": 0.0, "is_disabled": 0, "is_reserved": 0, "rental_uris": {"ios": "https://dc.lft.to/lastmile_qr_scan", "android": "https://dc.lft.to/lastmile_qr_scan"}, "bike_id": "77d5faf27abc3ed55d308c2c1e2bf9bd", "lat": 38.927818333333335}, {"type": "electric_scooter", "fusion_lon": 0.0, "name": "4fcffbe9360a804a9f61f0b51315dc4d", "lon": -77.037765, "fusion_lat": 0.0, "is_disabled": 0, "is_reserved": 0, "rental_uris": {"ios": "https://dc.lft.to/lastmile_qr_scan", "android": "https://dc.lft.to/lastmile_qr_scan"}, "bike_id": "4fcffbe9360a804a9f61f0b51315dc4d", "lat": 38.902353833333336}, {"type": "electric_scooter", "fusion_lon": 0.0, "name": "85a8e049c39d5a4e9c61db5dac04eb50", "lon": -77.03384533333333, "fusion_lat": 0.0, "is_disabled": 0, "is_reserved": 0, "rental_uris": {"ios": "https://dc.lft.to/lastmile_qr_scan", "android": "https://dc.lft.to/lastmile_qr_scan"}, "bike_id": "85a8e049c39d5a4e9c61db5dac04eb50", "lat": 38.9385025}, {"type": "electric_scooter", "fusion_lon": 0.0, "name": "c1990ba70bdea3f8961f56ac6bb490be", "lon": -76.98311, "fusion_lat": 0.0, "is_disabled": 0, "is_reserved": 0, "rental_uris": {"ios": "https://dc.lft.to/lastmile_qr_scan", "android": "https://dc.lft.to/lastmile_qr_scan"}, "bike_id": "c1990ba70bdea3f8961f56ac6bb490be", "lat": 38.925526166666664}, {"type": "electric_scooter", "fusion_lon": 0.0, "name": "9a6b3da13f7187938f9597d43fc72e67", "lon": -77.04409283333334, "fusion_lat": 0.0, "is_disabled": 0, "is_reserved": 0, "rental_uris": {"ios": "https://dc.lft.to/lastmile_qr_scan", "android": "https://dc.lft.to/lastmile_qr_scan"}, "bike_id": "9a6b3da13f7187938f9597d43fc72e67", "lat": 38.89610233333333}, {"type": "electric_scooter", "fusion_lon": 0.0, "name": "91709837dd94645801556abc131bb632", "lon": -77.03486383333333, "fusion_lat": 0.0, "is_disabled": 0, "is_reserved": 0, "rental_uris": {"ios": "https://dc.lft.to/lastmile_qr_scan", "android": "https://dc.lft.to/lastmile_qr_scan"}, "bike_id": "91709837dd94645801556abc131bb632", "lat": 38.9189305}, {"type": "electric_scooter", "fusion_lon": 0.0, "name": "ba308045d8875fd4a7858a2a983d92ec", "lon": -77.0506465, "fusion_lat": 0.0, "is_disabled": 0, "is_reserved": 0, "rental_uris": {"ios": "https://dc.lft.to/lastmile_qr_scan", "android": "https://dc.lft.to/lastmile_qr_scan"}, "bike_id": "ba308045d8875fd4a7858a2a983d92ec", "lat": 38.916281}, {"type": "electric_scooter", "fusion_lon": 0.0, "name": "2b94f3ae0560530cb93d7ec388713fbb", "lon": -76.97323483333334, "fusion_lat": 0.0, "is_disabled": 0, "is_reserved": 0, "rental_uris": {"ios": "https://dc.lft.to/lastmile_qr_scan", "android": "https://dc.lft.to/lastmile_qr_scan"}, "bike_id": "2b94f3ae0560530cb93d7ec388713fbb", "lat": 38.865210833333336}, {"type": "electric_scooter", "fusion_lon": 0.0, "name": "9e1daea430059b14e7b2ee92d49d60d6", "lon": -77.0192775, "fusion_lat": 0.0, "is_disabled": 0, "is_reserved": 0, "rental_uris": {"ios": "https://dc.lft.to/lastmile_qr_scan", "android": "https://dc.lft.to/lastmile_qr_scan"}, "bike_id": "9e1daea430059b14e7b2ee92d49d60d6", "lat": 38.922604666666665}, {"type": "electric_scooter", "fusion_lon": 0.0, "name": "e7b840459547698da936a3ed7e14a085", "lon": -77.045154, "fusion_lat": 0.0, "is_disabled": 0, "is_reserved": 0, "rental_uris": {"ios": "https://dc.lft.to/lastmile_qr_scan", "android": "https://dc.lft.to/lastmile_qr_scan"}, "bike_id": "e7b840459547698da936a3ed7e14a085", "lat": 38.9078825}, {"type": "electric_scooter", "fusion_lon": 0.0, "name": "798c96d5c70b16880b1526b00afdcafa", "lon": -77.02716066666666, "fusion_lat": 0.0, "is_disabled": 0, "is_reserved": 0, "rental_uris": {"ios": "https://dc.lft.to/lastmile_qr_scan", "android": "https://dc.lft.to/lastmile_qr_scan"}, "bike_id": "798c96d5c70b16880b1526b00afdcafa", "lat": 38.90682533333333}, {"type": "electric_scooter", "fusion_lon": 0.0, "name": "47a1a6b09736965b075b0b86c91903f9", "lon": -77.07690666666667, "fusion_lat": 0.0, "is_disabled": 0, "is_reserved": 0, "rental_uris": {"ios": "https://dc.lft.to/lastmile_qr_scan", "android": "https://dc.lft.to/lastmile_qr_scan"}, "bike_id": "47a1a6b09736965b075b0b86c91903f9", "lat": 38.94288233333333}, {"type": "electric_scooter", "fusion_lon": 0.0, "name": "98bd19f5f68c537a37ec43f2e02f474c", "lon": -77.03190316666667, "fusion_lat": 0.0, "is_disabled": 0, "is_reserved": 0, "rental_uris": {"ios": "https://dc.lft.to/lastmile_qr_scan", "android": "https://dc.lft.to/lastmile_qr_scan"}, "bike_id": "98bd19f5f68c537a37ec43f2e02f474c", "lat": 38.907355}, {"type": "electric_scooter", "fusion_lon": 0.0, "name": "bc28a7bc60ad168a98c34f0ab512bb26", "lon": -76.99954366666667, "fusion_lat": 0.0, "is_disabled": 0, "is_reserved": 0, "rental_uris": {"ios": "https://dc.lft.to/lastmile_qr_scan", "android": "https://dc.lft.to/lastmile_qr_scan"}, "bike_id": "bc28a7bc60ad168a98c34f0ab512bb26", "lat": 38.9086385}, {"type": "electric_scooter", "fusion_lon": 0.0, "name": "ad41a200291f16831ec4d07c1c5ac78b", "lon": -77.04500466666667, "fusion_lat": 0.0, "is_disabled": 0, "is_reserved": 0, "rental_uris": {"ios": "https://dc.lft.to/lastmile_qr_scan", "android": "https://dc.lft.to/lastmile_qr_scan"}, "bike_id": "ad41a200291f16831ec4d07c1c5ac78b", "lat": 38.89226766666667}, {"type": "electric_scooter", "fusion_lon": 0.0, "name": "65fe43e8b0d090b1abbbd334806c455d", "lon": -77.04641333333333, "fusion_lat": 0.0, "is_disabled": 0, "is_reserved": 0, "rental_uris": {"ios": "https://dc.lft.to/lastmile_qr_scan", "android": "https://dc.lft.to/lastmile_qr_scan"}, "bike_id": "65fe43e8b0d090b1abbbd334806c455d", "lat": 38.892261500000004}, {"type": "electric_scooter", "fusion_lon": 0.0, "name": "26f7e86e1d34065c1796729888ff8d1a", "lon": -77.0194945, "fusion_lat": 0.0, "is_disabled": 0, "is_reserved": 0, "rental_uris": {"ios": "https://dc.lft.to/lastmile_qr_scan", "android": "https://dc.lft.to/lastmile_qr_scan"}, "bike_id": "26f7e86e1d34065c1796729888ff8d1a", "lat": 38.956399}, {"type": "electric_scooter", "fusion_lon": 0.0, "name": "d0d9df44afe3c1f601861db371d5fdfc", "lon": -77.01853916666667, "fusion_lat": 0.0, "is_disabled": 0, "is_reserved": 0, "rental_uris": {"ios": "https://dc.lft.to/lastmile_qr_scan", "android": "https://dc.lft.to/lastmile_qr_scan"}, "bike_id": "d0d9df44afe3c1f601861db371d5fdfc", "lat": 38.94917316666667}, {"type": "electric_scooter", "fusion_lon": 0.0, "name": "b5938b26fc6a85e5f109c3da53509909", "lon": -77.01256633333334, "fusion_lat": 0.0, "is_disabled": 0, "is_reserved": 0, "rental_uris": {"ios": "https://dc.lft.to/lastmile_qr_scan", "android": "https://dc.lft.to/lastmile_qr_scan"}, "bike_id": "b5938b26fc6a85e5f109c3da53509909", "lat": 38.901517}, {"type": "electric_scooter", "fusion_lon": 0.0, "name": "ea88c37da2b677b119b6cb27399e5074", "lon": -77.02512016666667, "fusion_lat": 0.0, "is_disabled": 0, "is_reserved": 0, "rental_uris": {"ios": "https://dc.lft.to/lastmile_qr_scan", "android": "https://dc.lft.to/lastmile_qr_scan"}, "bike_id": "ea88c37da2b677b119b6cb27399e5074", "lat": 38.897474}, {"type": "electric_scooter", "fusion_lon": 0.0, "name": "f333ad8723e8d3590fed419b7ce1b125", "lon": -77.00708266666666, "fusion_lat": 0.0, "is_disabled": 0, "is_reserved": 0, "rental_uris": {"ios": "https://dc.lft.to/lastmile_qr_scan", "android": "https://dc.lft.to/lastmile_qr_scan"}, "bike_id": "f333ad8723e8d3590fed419b7ce1b125", "lat": 38.905677}, {"type": "electric_scooter", "fusion_lon": 0.0, "name": "1c83242275a92865e228c9cef9f92983", "lon": -77.04871316666667, "fusion_lat": 0.0, "is_disabled": 0, "is_reserved": 0, "rental_uris": {"ios": "https://dc.lft.to/lastmile_qr_scan", "android": "https://dc.lft.to/lastmile_qr_scan"}, "bike_id": "1c83242275a92865e228c9cef9f92983", "lat": 38.912697}, {"type": "electric_scooter", "fusion_lon": 0.0, "name": "7cff9d56efd0377e20c4d4eeb782e635", "lon": -77.05199516666667, "fusion_lat": 0.0, "is_disabled": 0, "is_reserved": 0, "rental_uris": {"ios": "https://dc.lft.to/lastmile_qr_scan", "android": "https://dc.lft.to/lastmile_qr_scan"}, "bike_id": "7cff9d56efd0377e20c4d4eeb782e635", "lat": 38.902766}, {"type": "electric_scooter", "fusion_lon": 0.0, "name": "876ac4b53659779f3ef8ffd8cdbd2e40", "lon": -77.01982083333333, "fusion_lat": 0.0, "is_disabled": 0, "is_reserved": 0, "rental_uris": {"ios": "https://dc.lft.to/lastmile_qr_scan", "android": "https://dc.lft.to/lastmile_qr_scan"}, "bike_id": "876ac4b53659779f3ef8ffd8cdbd2e40", "lat": 38.896903}, {"type": "electric_scooter", "fusion_lon": 0.0, "name": "0384105d4b65939e102c5e40205c7463", "lon": -77.04184466666666, "fusion_lat": 0.0, "is_disabled": 0, "is_reserved": 0, "rental_uris": {"ios": "https://dc.lft.to/lastmile_qr_scan", "android": "https://dc.lft.to/lastmile_qr_scan"}, "bike_id": "0384105d4b65939e102c5e40205c7463", "lat": 38.89242083333333}, {"type": "electric_scooter", "fusion_lon": 0.0, "name": "0b6a330d092532d922e9673551009793", "lon": -77.028104, "fusion_lat": 0.0, "is_disabled": 0, "is_reserved": 0, "rental_uris": {"ios": "https://dc.lft.to/lastmile_qr_scan", "android": "https://dc.lft.to/lastmile_qr_scan"}, "bike_id": "0b6a330d092532d922e9673551009793", "lat": 38.95593133333333}, {"type": "electric_scooter", "fusion_lon": 0.0, "name": "d55c1a4e3b6500e747df9c8bff4ef2cf", "lon": -77.02728883333333, "fusion_lat": 0.0, "is_disabled": 0, "is_reserved": 0, "rental_uris": {"ios": "https://dc.lft.to/lastmile_qr_scan", "android": "https://dc.lft.to/lastmile_qr_scan"}, "bike_id": "d55c1a4e3b6500e747df9c8bff4ef2cf", "lat": 38.907376666666664}, {"type": "electric_bike", "fusion_lon": 0.0, "name": "71975a74e21896312ca81b7884647ac6", "lon": -76.96637433333333, "fusion_lat": 0.0, "is_disabled": 0, "is_reserved": 0, "rental_uris": {"ios": "https://dc.lft.to/lastmile_qr_scan", "android": "https://dc.lft.to/lastmile_qr_scan"}, "bike_id": "71975a74e21896312ca81b7884647ac6", "lat": 38.9514315}, {"type": "electric_bike", "fusion_lon": 0.0, "name": "9515f1781f0c457f4be8dade6a0bfd38", "lon": -77.09963616666667, "fusion_lat": 0.0, "is_disabled": 0, "is_reserved": 0, "rental_uris": {"ios": "https://dc.lft.to/lastmile_qr_scan", "android": "https://dc.lft.to/lastmile_qr_scan"}, "bike_id": "9515f1781f0c457f4be8dade6a0bfd38", "lat": 38.857911666666666}, {"type": "electric_scooter", "fusion_lon": 0.0, "name": "6ff8740f8c765be371819699ae9a37c3", "lon": -76.98331233333333, "fusion_lat": 0.0, "is_disabled": 0, "is_reserved": 0, "rental_uris": {"ios": "https://dc.lft.to/lastmile_qr_scan", "android": "https://dc.lft.to/lastmile_qr_scan"}, "bike_id": "6ff8740f8c765be371819699ae9a37c3", "lat": 38.900893833333335}, {"type": "electric_scooter", "fusion_lon": 0.0, "name": "cd9c10176fe9531562bed254a6161c9b", "lon": -77.02524016666666, "fusion_lat": 0.0, "is_disabled": 0, "is_reserved": 0, "rental_uris": {"ios": "https://dc.lft.to/lastmile_qr_scan", "android": "https://dc.lft.to/lastmile_qr_scan"}, "bike_id": "cd9c10176fe9531562bed254a6161c9b", "lat": 38.8976265}, {"type": "electric_scooter", "fusion_lon": 0.0, "name": "3fc35e643de9e84ca898b3b6956c936d", "lon": -77.02007416666666, "fusion_lat": 0.0, "is_disabled": 0, "is_reserved": 0, "rental_uris": {"ios": "https://dc.lft.to/lastmile_qr_scan", "android": "https://dc.lft.to/lastmile_qr_scan"}, "bike_id": "3fc35e643de9e84ca898b3b6956c936d", "lat": 38.9242135}, {"type": "electric_bike", "fusion_lon": 0.0, "name": "c2624cd2a316b3644fb78095521600e7", "lon": -76.9747665, "fusion_lat": 0.0, "is_disabled": 0, "is_reserved": 0, "rental_uris": {"ios": "https://dc.lft.to/lastmile_qr_scan", "android": "https://dc.lft.to/lastmile_qr_scan"}, "bike_id": "c2624cd2a316b3644fb78095521600e7", "lat": 38.8655865}, {"type": "electric_scooter", "fusion_lon": 0.0, "name": "88328f2ca06b3084f60dc795f12279b9", "lon": -76.99730283333334, "fusion_lat": 0.0, "is_disabled": 0, "is_reserved": 0, "rental_uris": {"ios": "https://dc.lft.to/lastmile_qr_scan", "android": "https://dc.lft.to/lastmile_qr_scan"}, "bike_id": "88328f2ca06b3084f60dc795f12279b9", "lat": 38.88224366666667}, {"type": "electric_scooter", "fusion_lon": 0.0, "name": "9a8666855cacd136ec225ade69d4bd0a", "lon": -77.038258, "fusion_lat": 0.0, "is_disabled": 0, "is_reserved": 0, "rental_uris": {"ios": "https://dc.lft.to/lastmile_qr_scan", "android": "https://dc.lft.to/lastmile_qr_scan"}, "bike_id": "9a8666855cacd136ec225ade69d4bd0a", "lat": 38.900818666666666}, {"type": "electric_scooter", "fusion_lon": 0.0, "name": "beeab6261b25121a0946e782cef04815", "lon": -77.0236955, "fusion_lat": 0.0, "is_disabled": 0, "is_reserved": 0, "rental_uris": {"ios": "https://dc.lft.to/lastmile_qr_scan", "android": "https://dc.lft.to/lastmile_qr_scan"}, "bike_id": "beeab6261b25121a0946e782cef04815", "lat": 38.8922245}, {"type": "electric_bike", "fusion_lon": 0.0, "name": "97436bd4686809dd12b680e081dda544", "lon": -77.120388, "fusion_lat": 0.0, "is_disabled": 0, "is_reserved": 0, "rental_uris": {"ios": "https://dc.lft.to/lastmile_qr_scan", "android": "https://dc.lft.to/lastmile_qr_scan"}, "bike_id": "97436bd4686809dd12b680e081dda544", "lat": 38.8242935}, {"type": "electric_scooter", "fusion_lon": 0.0, "name": "be2519c5b56b57b26e290384f268b2c1", "lon": -77.0431485, "fusion_lat": 0.0, "is_disabled": 0, "is_reserved": 0, "rental_uris": {"ios": "https://dc.lft.to/lastmile_qr_scan", "android": "https://dc.lft.to/lastmile_qr_scan"}, "bike_id": "be2519c5b56b57b26e290384f268b2c1", "lat": 38.92319216666667}, {"type": "electric_scooter", "fusion_lon": 0.0, "name": "17b6c3cc7c6d080574a90c49273bfacc", "lon": -77.02633483333334, "fusion_lat": 0.0, "is_disabled": 0, "is_reserved": 0, "rental_uris": {"ios": "https://dc.lft.to/lastmile_qr_scan", "android": "https://dc.lft.to/lastmile_qr_scan"}, "bike_id": "17b6c3cc7c6d080574a90c49273bfacc", "lat": 38.89836566666666}, {"type": "electric_scooter", "fusion_lon": 0.0, "name": "4ab02e1f3224197f37bb7041d86ae32c", "lon": -77.06483766666666, "fusion_lat": 0.0, "is_disabled": 0, "is_reserved": 0, "rental_uris": {"ios": "https://dc.lft.to/lastmile_qr_scan", "android": "https://dc.lft.to/lastmile_qr_scan"}, "bike_id": "4ab02e1f3224197f37bb7041d86ae32c", "lat": 38.905078}, {"type": "electric_scooter", "fusion_lon": 0.0, "name": "5ea67e34ebb24ef3ff7da3a5e731103d", "lon": -77.04233983333333, "fusion_lat": 0.0, "is_disabled": 0, "is_reserved": 0, "rental_uris": {"ios": "https://dc.lft.to/lastmile_qr_scan", "android": "https://dc.lft.to/lastmile_qr_scan"}, "bike_id": "5ea67e34ebb24ef3ff7da3a5e731103d", "lat": 38.92173716666667}, {"type": "electric_scooter", "fusion_lon": 0.0, "name": "0aebc22b57d09554af3b25c57a868346", "lon": -77.0392255, "fusion_lat": 0.0, "is_disabled": 0, "is_reserved": 0, "rental_uris": {"ios": "https://dc.lft.to/lastmile_qr_scan", "android": "https://dc.lft.to/lastmile_qr_scan"}, "bike_id": "0aebc22b57d09554af3b25c57a868346", "lat": 38.898983666666666}, {"type": "electric_bike", "fusion_lon": 0.0, "name": "e7a3eb329bf75e1ce67d0ac0d396f4a7", "lon": -77.068307, "fusion_lat": 0.0, "is_disabled": 0, "is_reserved": 0, "rental_uris": {"ios": "https://dc.lft.to/lastmile_qr_scan", "android": "https://dc.lft.to/lastmile_qr_scan"}, "bike_id": "e7a3eb329bf75e1ce67d0ac0d396f4a7", "lat": 38.856402333333335}, {"type": "electric_scooter", "fusion_lon": 0.0, "name": "19e9d146588e1bd71f80005284ef185a", "lon": -77.02309616666666, "fusion_lat": 0.0, "is_disabled": 0, "is_reserved": 0, "rental_uris": {"ios": "https://dc.lft.to/lastmile_qr_scan", "android": "https://dc.lft.to/lastmile_qr_scan"}, "bike_id": "19e9d146588e1bd71f80005284ef185a", "lat": 38.919440333333334}, {"type": "electric_scooter", "fusion_lon": 0.0, "name": "a8ef06ab742661e93c6e29192e856a34", "lon": -76.98599333333334, "fusion_lat": 0.0, "is_disabled": 0, "is_reserved": 0, "rental_uris": {"ios": "https://dc.lft.to/lastmile_qr_scan", "android": "https://dc.lft.to/lastmile_qr_scan"}, "bike_id": "a8ef06ab742661e93c6e29192e856a34", "lat": 38.913300166666666}, {"type": "electric_scooter", "fusion_lon": 0.0, "name": "ff737649a9e27338b14c482055ad5b06", "lon": -77.026771, "fusion_lat": 0.0, "is_disabled": 0, "is_reserved": 0, "rental_uris": {"ios": "https://dc.lft.to/lastmile_qr_scan", "android": "https://dc.lft.to/lastmile_qr_scan"}, "bike_id": "ff737649a9e27338b14c482055ad5b06", "lat": 38.89625516666667}, {"type": "electric_scooter", "fusion_lon": 0.0, "name": "2a8f511d267bcd2e804ae8033a3378bf", "lon": -76.984911, "fusion_lat": 0.0, "is_disabled": 0, "is_reserved": 0, "rental_uris": {"ios": "https://dc.lft.to/lastmile_qr_scan", "android": "https://dc.lft.to/lastmile_qr_scan"}, "bike_id": "2a8f511d267bcd2e804ae8033a3378bf", "lat": 38.90990866666667}, {"type": "electric_scooter", "fusion_lon": 0.0, "name": "500fe544ab19bbc4fd1dffb0936709be", "lon": -77.02175216666667, "fusion_lat": 0.0, "is_disabled": 0, "is_reserved": 0, "rental_uris": {"ios": "https://dc.lft.to/lastmile_qr_scan", "android": "https://dc.lft.to/lastmile_qr_scan"}, "bike_id": "500fe544ab19bbc4fd1dffb0936709be", "lat": 38.898660666666665}, {"type": "electric_bike", "fusion_lon": 0.0, "name": "f8fd102be84cfd116cb31795226f518a", "lon": -76.9452605, "fusion_lat": 0.0, "is_disabled": 0, "is_reserved": 0, "rental_uris": {"ios": "https://dc.lft.to/lastmile_qr_scan", "android": "https://dc.lft.to/lastmile_qr_scan"}, "bike_id": "f8fd102be84cfd116cb31795226f518a", "lat": 38.86286333333334}, {"type": "electric_scooter", "fusion_lon": 0.0, "name": "f8ab39abe5c8c2b7c1af11f4f4e5aba2", "lon": -77.0303725, "fusion_lat": 0.0, "is_disabled": 0, "is_reserved": 0, "rental_uris": {"ios": "https://dc.lft.to/lastmile_qr_scan", "android": "https://dc.lft.to/lastmile_qr_scan"}, "bike_id": "f8ab39abe5c8c2b7c1af11f4f4e5aba2", "lat": 38.912690833333336}, {"type": "electric_scooter", "fusion_lon": 0.0, "name": "df95e3ffe1b607c41f06e68f2d91961c", "lon": -76.991503, "fusion_lat": 0.0, "is_disabled": 0, "is_reserved": 0, "rental_uris": {"ios": "https://dc.lft.to/lastmile_qr_scan", "android": "https://dc.lft.to/lastmile_qr_scan"}, "bike_id": "df95e3ffe1b607c41f06e68f2d91961c", "lat": 38.90051966666667}, {"type": "electric_scooter", "fusion_lon": 0.0, "name": "1b01bff0459e1525665431754fa17559", "lon": -77.01503666666666, "fusion_lat": 0.0, "is_disabled": 0, "is_reserved": 0, "rental_uris": {"ios": "https://dc.lft.to/lastmile_qr_scan", "android": "https://dc.lft.to/lastmile_qr_scan"}, "bike_id": "1b01bff0459e1525665431754fa17559", "lat": 38.90145316666667}, {"type": "electric_scooter", "fusion_lon": 0.0, "name": "d66b0bf9fc9ca34c960069b0c2b1efe0", "lon": -77.0271175, "fusion_lat": 0.0, "is_disabled": 0, "is_reserved": 0, "rental_uris": {"ios": "https://dc.lft.to/lastmile_qr_scan", "android": "https://dc.lft.to/lastmile_qr_scan"}, "bike_id": "d66b0bf9fc9ca34c960069b0c2b1efe0", "lat": 38.8972975}, {"type": "electric_scooter", "fusion_lon": 0.0, "name": "c83b2438c93885653bcbb7c7bfc604c6", "lon": -77.06122666666667, "fusion_lat": 0.0, "is_disabled": 0, "is_reserved": 0, "rental_uris": {"ios": "https://dc.lft.to/lastmile_qr_scan", "android": "https://dc.lft.to/lastmile_qr_scan"}, "bike_id": "c83b2438c93885653bcbb7c7bfc604c6", "lat": 38.90458916666667}, {"type": "electric_scooter", "fusion_lon": 0.0, "name": "19527a1b3d05a78e25f306f671533fab", "lon": -77.02599083333334, "fusion_lat": 0.0, "is_disabled": 0, "is_reserved": 0, "rental_uris": {"ios": "https://dc.lft.to/lastmile_qr_scan", "android": "https://dc.lft.to/lastmile_qr_scan"}, "bike_id": "19527a1b3d05a78e25f306f671533fab", "lat": 38.916944666666666}, {"type": "electric_scooter", "fusion_lon": 0.0, "name": "07a562af0401de3ba4a602640788e9d0", "lon": -76.99503183333333, "fusion_lat": 0.0, "is_disabled": 0, "is_reserved": 0, "rental_uris": {"ios": "https://dc.lft.to/lastmile_qr_scan", "android": "https://dc.lft.to/lastmile_qr_scan"}, "bike_id": "07a562af0401de3ba4a602640788e9d0", "lat": 38.89519283333333}, {"type": "electric_scooter", "fusion_lon": 0.0, "name": "5f32c699528de1accd6f2eccd56376c7", "lon": -77.02836666666667, "fusion_lat": 0.0, "is_disabled": 0, "is_reserved": 0, "rental_uris": {"ios": "https://dc.lft.to/lastmile_qr_scan", "android": "https://dc.lft.to/lastmile_qr_scan"}, "bike_id": "5f32c699528de1accd6f2eccd56376c7", "lat": 38.9345695}, {"type": "electric_scooter", "fusion_lon": 0.0, "name": "84ac9bda93a0f9a86f841c8c6182dd30", "lon": -77.07305066666666, "fusion_lat": 0.0, "is_disabled": 0, "is_reserved": 0, "rental_uris": {"ios": "https://dc.lft.to/lastmile_qr_scan", "android": "https://dc.lft.to/lastmile_qr_scan"}, "bike_id": "84ac9bda93a0f9a86f841c8c6182dd30", "lat": 38.908399}, {"type": "electric_scooter", "fusion_lon": 0.0, "name": "f5b85ad2dbe66a3b20463ca136a79fbd", "lon": -77.02402383333333, "fusion_lat": 0.0, "is_disabled": 0, "is_reserved": 0, "rental_uris": {"ios": "https://dc.lft.to/lastmile_qr_scan", "android": "https://dc.lft.to/lastmile_qr_scan"}, "bike_id": "f5b85ad2dbe66a3b20463ca136a79fbd", "lat": 38.89684233333333}, {"type": "electric_scooter", "fusion_lon": 0.0, "name": "0fd0540853b6fc30b1bad077d45b36e6", "lon": -77.01938566666666, "fusion_lat": 0.0, "is_disabled": 0, "is_reserved": 0, "rental_uris": {"ios": "https://dc.lft.to/lastmile_qr_scan", "android": "https://dc.lft.to/lastmile_qr_scan"}, "bike_id": "0fd0540853b6fc30b1bad077d45b36e6", "lat": 38.9225635}, {"type": "electric_scooter", "fusion_lon": 0.0, "name": "cdd8c5a2b545d88ceb4b72cc48798779", "lon": -77.02362033333333, "fusion_lat": 0.0, "is_disabled": 0, "is_reserved": 0, "rental_uris": {"ios": "https://dc.lft.to/lastmile_qr_scan", "android": "https://dc.lft.to/lastmile_qr_scan"}, "bike_id": "cdd8c5a2b545d88ceb4b72cc48798779", "lat": 38.925147333333335}, {"type": "electric_scooter", "fusion_lon": 0.0, "name": "35137b507e8cd2703ac94bd27290513f", "lon": -77.02620816666666, "fusion_lat": 0.0, "is_disabled": 0, "is_reserved": 0, "rental_uris": {"ios": "https://dc.lft.to/lastmile_qr_scan", "android": "https://dc.lft.to/lastmile_qr_scan"}, "bike_id": "35137b507e8cd2703ac94bd27290513f", "lat": 38.892241166666665}, {"type": "electric_scooter", "fusion_lon": 0.0, "name": "34f5d48dd78147ea390d7204fa87a454", "lon": -77.000823, "fusion_lat": 0.0, "is_disabled": 0, "is_reserved": 0, "rental_uris": {"ios": "https://dc.lft.to/lastmile_qr_scan", "android": "https://dc.lft.to/lastmile_qr_scan"}, "bike_id": "34f5d48dd78147ea390d7204fa87a454", "lat": 38.915602166666666}, {"type": "electric_bike", "fusion_lon": 0.0, "name": "08d8cc873e4875def2c15c3566f398fe", "lon": -76.95258983333333, "fusion_lat": 0.0, "is_disabled": 0, "is_reserved": 0, "rental_uris": {"ios": "https://dc.lft.to/lastmile_qr_scan", "android": "https://dc.lft.to/lastmile_qr_scan"}, "bike_id": "08d8cc873e4875def2c15c3566f398fe", "lat": 38.90690033333333}, {"type": "electric_bike", "fusion_lon": 0.0, "name": "4bcdba5d68feb1b7304bf5b82cce0200", "lon": -76.97706966666667, "fusion_lat": 0.0, "is_disabled": 0, "is_reserved": 0, "rental_uris": {"ios": "https://dc.lft.to/lastmile_qr_scan", "android": "https://dc.lft.to/lastmile_qr_scan"}, "bike_id": "4bcdba5d68feb1b7304bf5b82cce0200", "lat": 38.82212466666667}, {"type": "electric_bike", "fusion_lon": 0.0, "name": "23f29185e29219d0d4a3c9a79176128e", "lon": -77.0100885, "fusion_lat": 0.0, "is_disabled": 0, "is_reserved": 0, "rental_uris": {"ios": "https://dc.lft.to/lastmile_qr_scan", "android": "https://dc.lft.to/lastmile_qr_scan"}, "bike_id": "23f29185e29219d0d4a3c9a79176128e", "lat": 38.95597133333333}, {"type": "electric_scooter", "fusion_lon": 0.0, "name": "3a4f95fa3e2220d6532364b09e096af5", "lon": -77.02689383333333, "fusion_lat": 0.0, "is_disabled": 0, "is_reserved": 0, "rental_uris": {"ios": "https://dc.lft.to/lastmile_qr_scan", "android": "https://dc.lft.to/lastmile_qr_scan"}, "bike_id": "3a4f95fa3e2220d6532364b09e096af5", "lat": 38.89489616666667}, {"type": "electric_scooter", "fusion_lon": 0.0, "name": "ab6a3883b853d08e8a5120dd523e63c7", "lon": -77.04335616666667, "fusion_lat": 0.0, "is_disabled": 0, "is_reserved": 0, "rental_uris": {"ios": "https://dc.lft.to/lastmile_qr_scan", "android": "https://dc.lft.to/lastmile_qr_scan"}, "bike_id": "ab6a3883b853d08e8a5120dd523e63c7", "lat": 38.892307}, {"type": "electric_scooter", "fusion_lon": 0.0, "name": "63414416234803a879c6b1d3ed2a7738", "lon": -77.0268895, "fusion_lat": 0.0, "is_disabled": 0, "is_reserved": 0, "rental_uris": {"ios": "https://dc.lft.to/lastmile_qr_scan", "android": "https://dc.lft.to/lastmile_qr_scan"}, "bike_id": "63414416234803a879c6b1d3ed2a7738", "lat": 38.91328816666667}, {"type": "electric_scooter", "fusion_lon": 0.0, "name": "a330dd8698c0dd402f93d9f3e3e277ee", "lon": -77.03430433333334, "fusion_lat": 0.0, "is_disabled": 0, "is_reserved": 0, "rental_uris": {"ios": "https://dc.lft.to/lastmile_qr_scan", "android": "https://dc.lft.to/lastmile_qr_scan"}, "bike_id": "a330dd8698c0dd402f93d9f3e3e277ee", "lat": 38.919245}, {"type": "electric_scooter", "fusion_lon": 0.0, "name": "e090e5139c3651efbaa0ffc97121d3c3", "lon": -77.02088516666667, "fusion_lat": 0.0, "is_disabled": 0, "is_reserved": 0, "rental_uris": {"ios": "https://dc.lft.to/lastmile_qr_scan", "android": "https://dc.lft.to/lastmile_qr_scan"}, "bike_id": "e090e5139c3651efbaa0ffc97121d3c3", "lat": 38.92258666666667}, {"type": "electric_scooter", "fusion_lon": 0.0, "name": "660361d3d3f0f261349a93850ad4ef9f", "lon": -77.00710216666667, "fusion_lat": 0.0, "is_disabled": 0, "is_reserved": 0, "rental_uris": {"ios": "https://dc.lft.to/lastmile_qr_scan", "android": "https://dc.lft.to/lastmile_qr_scan"}, "bike_id": "660361d3d3f0f261349a93850ad4ef9f", "lat": 38.9055745}, {"type": "electric_scooter", "fusion_lon": 0.0, "name": "7d4cc1d5784526a403f36acf0c465808", "lon": -77.0232135, "fusion_lat": 0.0, "is_disabled": 0, "is_reserved": 0, "rental_uris": {"ios": "https://dc.lft.to/lastmile_qr_scan", "android": "https://dc.lft.to/lastmile_qr_scan"}, "bike_id": "7d4cc1d5784526a403f36acf0c465808", "lat": 38.9492115}, {"type": "electric_scooter", "fusion_lon": 0.0, "name": "574f37be32d688d9cd96ee005dd03c8a", "lon": -77.0318535, "fusion_lat": 0.0, "is_disabled": 0, "is_reserved": 0, "rental_uris": {"ios": "https://dc.lft.to/lastmile_qr_scan", "android": "https://dc.lft.to/lastmile_qr_scan"}, "bike_id": "574f37be32d688d9cd96ee005dd03c8a", "lat": 38.915493}, {"type": "electric_scooter", "fusion_lon": 0.0, "name": "bedd27194c4dc81761de6cb6ab6cf954", "lon": -77.03704683333333, "fusion_lat": 0.0, "is_disabled": 0, "is_reserved": 0, "rental_uris": {"ios": "https://dc.lft.to/lastmile_qr_scan", "android": "https://dc.lft.to/lastmile_qr_scan"}, "bike_id": "bedd27194c4dc81761de6cb6ab6cf954", "lat": 38.913307}, {"type": "electric_scooter", "fusion_lon": 0.0, "name": "21cebfa012ad1e65e95dc19951bfe9ff", "lon": -76.94857533333334, "fusion_lat": 0.0, "is_disabled": 0, "is_reserved": 0, "rental_uris": {"ios": "https://dc.lft.to/lastmile_qr_scan", "android": "https://dc.lft.to/lastmile_qr_scan"}, "bike_id": "21cebfa012ad1e65e95dc19951bfe9ff", "lat": 38.86685966666667}, {"type": "electric_scooter", "fusion_lon": 0.0, "name": "ef0b8060ccb6f4ade6f882a1117f15c5", "lon": -77.00435583333334, "fusion_lat": 0.0, "is_disabled": 0, "is_reserved": 0, "rental_uris": {"ios": "https://dc.lft.to/lastmile_qr_scan", "android": "https://dc.lft.to/lastmile_qr_scan"}, "bike_id": "ef0b8060ccb6f4ade6f882a1117f15c5", "lat": 38.87656033333333}, {"type": "electric_bike", "fusion_lon": 0.0, "name": "1b6c09e7691bdcc7e494ee987ef45523", "lon": -77.05741, "fusion_lat": 0.0, "is_disabled": 0, "is_reserved": 0, "rental_uris": {"ios": "https://dc.lft.to/lastmile_qr_scan", "android": "https://dc.lft.to/lastmile_qr_scan"}, "bike_id": "1b6c09e7691bdcc7e494ee987ef45523", "lat": 38.80769183333334}, {"type": "electric_scooter", "fusion_lon": 0.0, "name": "7f51fc71358c9aa6d3d5e7cddd607f07", "lon": -76.98233016666667, "fusion_lat": 0.0, "is_disabled": 0, "is_reserved": 0, "rental_uris": {"ios": "https://dc.lft.to/lastmile_qr_scan", "android": "https://dc.lft.to/lastmile_qr_scan"}, "bike_id": "7f51fc71358c9aa6d3d5e7cddd607f07", "lat": 38.856312333333335}, {"type": "electric_scooter", "fusion_lon": 0.0, "name": "2b5eb531a5c15c7ef4a0a4a49b4b76bf", "lon": -77.02646983333334, "fusion_lat": 0.0, "is_disabled": 0, "is_reserved": 0, "rental_uris": {"ios": "https://dc.lft.to/lastmile_qr_scan", "android": "https://dc.lft.to/lastmile_qr_scan"}, "bike_id": "2b5eb531a5c15c7ef4a0a4a49b4b76bf", "lat": 38.884719833333335}, {"type": "electric_scooter", "fusion_lon": 0.0, "name": "7ff73e5709781bb7560ec2bd29d107ce", "lon": -77.03660516666666, "fusion_lat": 0.0, "is_disabled": 0, "is_reserved": 0, "rental_uris": {"ios": "https://dc.lft.to/lastmile_qr_scan", "android": "https://dc.lft.to/lastmile_qr_scan"}, "bike_id": "7ff73e5709781bb7560ec2bd29d107ce", "lat": 38.92118683333333}, {"type": "electric_scooter", "fusion_lon": 0.0, "name": "208021d0d82e7199461a1e7ee965efd8", "lon": -77.02374733333333, "fusion_lat": 0.0, "is_disabled": 0, "is_reserved": 0, "rental_uris": {"ios": "https://dc.lft.to/lastmile_qr_scan", "android": "https://dc.lft.to/lastmile_qr_scan"}, "bike_id": "208021d0d82e7199461a1e7ee965efd8", "lat": 38.892266666666664}, {"type": "electric_scooter", "fusion_lon": 0.0, "name": "2a622237493370f661d5451270049da4", "lon": -77.04255616666667, "fusion_lat": 0.0, "is_disabled": 0, "is_reserved": 0, "rental_uris": {"ios": "https://dc.lft.to/lastmile_qr_scan", "android": "https://dc.lft.to/lastmile_qr_scan"}, "bike_id": "2a622237493370f661d5451270049da4", "lat": 38.9076015}, {"type": "electric_scooter", "fusion_lon": 0.0, "name": "cd2ef4aa7439f66cd0fff032afede2ce", "lon": -77.0450715, "fusion_lat": 0.0, "is_disabled": 0, "is_reserved": 0, "rental_uris": {"ios": "https://dc.lft.to/lastmile_qr_scan", "android": "https://dc.lft.to/lastmile_qr_scan"}, "bike_id": "cd2ef4aa7439f66cd0fff032afede2ce", "lat": 38.907889833333336}, {"type": "electric_scooter", "fusion_lon": 0.0, "name": "f83fde19ae5ca905c7bd82bf5502766d", "lon": -77.04508083333333, "fusion_lat": 0.0, "is_disabled": 0, "is_reserved": 0, "rental_uris": {"ios": "https://dc.lft.to/lastmile_qr_scan", "android": "https://dc.lft.to/lastmile_qr_scan"}, "bike_id": "f83fde19ae5ca905c7bd82bf5502766d", "lat": 38.907826}, {"type": "electric_scooter", "fusion_lon": 0.0, "name": "fa95db4f4bbe1152bd609323961cd8b6", "lon": -77.04012433333334, "fusion_lat": 0.0, "is_disabled": 0, "is_reserved": 0, "rental_uris": {"ios": "https://dc.lft.to/lastmile_qr_scan", "android": "https://dc.lft.to/lastmile_qr_scan"}, "bike_id": "fa95db4f4bbe1152bd609323961cd8b6", "lat": 38.90137083333333}, {"type": "electric_scooter", "fusion_lon": 0.0, "name": "cc99520dba515af3fff7e6531c512045", "lon": -76.949603, "fusion_lat": 0.0, "is_disabled": 0, "is_reserved": 0, "rental_uris": {"ios": "https://dc.lft.to/lastmile_qr_scan", "android": "https://dc.lft.to/lastmile_qr_scan"}, "bike_id": "cc99520dba515af3fff7e6531c512045", "lat": 38.904935333333334}, {"type": "electric_scooter", "fusion_lon": 0.0, "name": "d694ad059894a06c1675c372c2d69f67", "lon": -77.03213133333334, "fusion_lat": 0.0, "is_disabled": 0, "is_reserved": 0, "rental_uris": {"ios": "https://dc.lft.to/lastmile_qr_scan", "android": "https://dc.lft.to/lastmile_qr_scan"}, "bike_id": "d694ad059894a06c1675c372c2d69f67", "lat": 38.925822}, {"type": "electric_scooter", "fusion_lon": 0.0, "name": "00dcd4b709da658a3edf580e1f95e327", "lon": -77.01965866666667, "fusion_lat": 0.0, "is_disabled": 0, "is_reserved": 0, "rental_uris": {"ios": "https://dc.lft.to/lastmile_qr_scan", "android": "https://dc.lft.to/lastmile_qr_scan"}, "bike_id": "00dcd4b709da658a3edf580e1f95e327", "lat": 38.890507166666666}, {"type": "electric_scooter", "fusion_lon": 0.0, "name": "f9ec5c057a3120ef586176aa5acc202d", "lon": -77.02413233333333, "fusion_lat": 0.0, "is_disabled": 0, "is_reserved": 0, "rental_uris": {"ios": "https://dc.lft.to/lastmile_qr_scan", "android": "https://dc.lft.to/lastmile_qr_scan"}, "bike_id": "f9ec5c057a3120ef586176aa5acc202d", "lat": 38.89649133333333}, {"type": "electric_scooter", "fusion_lon": 0.0, "name": "e758844c4675db340f5c4c2c9a741f84", "lon": -77.04897, "fusion_lat": 0.0, "is_disabled": 0, "is_reserved": 0, "rental_uris": {"ios": "https://dc.lft.to/lastmile_qr_scan", "android": "https://dc.lft.to/lastmile_qr_scan"}, "bike_id": "e758844c4675db340f5c4c2c9a741f84", "lat": 38.90058233333333}, {"type": "electric_scooter", "fusion_lon": 0.0, "name": "085ddc83df951bade67a600ee21adc97", "lon": -77.0228145, "fusion_lat": 0.0, "is_disabled": 0, "is_reserved": 0, "rental_uris": {"ios": "https://dc.lft.to/lastmile_qr_scan", "android": "https://dc.lft.to/lastmile_qr_scan"}, "bike_id": "085ddc83df951bade67a600ee21adc97", "lat": 38.9251415}, {"type": "electric_scooter", "fusion_lon": 0.0, "name": "a0fe8de8cd09bcf3dbd60c253250f8ee", "lon": -77.0335775, "fusion_lat": 0.0, "is_disabled": 0, "is_reserved": 0, "rental_uris": {"ios": "https://dc.lft.to/lastmile_qr_scan", "android": "https://dc.lft.to/lastmile_qr_scan"}, "bike_id": "a0fe8de8cd09bcf3dbd60c253250f8ee", "lat": 38.92242366666667}, {"type": "electric_scooter", "fusion_lon": 0.0, "name": "523f23a7570a3cb64bab115dd0ed822f", "lon": -77.04050083333334, "fusion_lat": 0.0, "is_disabled": 0, "is_reserved": 0, "rental_uris": {"ios": "https://dc.lft.to/lastmile_qr_scan", "android": "https://dc.lft.to/lastmile_qr_scan"}, "bike_id": "523f23a7570a3cb64bab115dd0ed822f", "lat": 38.904028333333336}, {"type": "electric_scooter", "fusion_lon": 0.0, "name": "1b403461f05b6ebe86b0f99315b25c20", "lon": -77.02797566666666, "fusion_lat": 0.0, "is_disabled": 0, "is_reserved": 0, "rental_uris": {"ios": "https://dc.lft.to/lastmile_qr_scan", "android": "https://dc.lft.to/lastmile_qr_scan"}, "bike_id": "1b403461f05b6ebe86b0f99315b25c20", "lat": 38.91018366666667}, {"type": "electric_bike", "fusion_lon": 0.0, "name": "449213996447d71ae9fec6545c1713a7", "lon": -76.92338583333333, "fusion_lat": 0.0, "is_disabled": 0, "is_reserved": 0, "rental_uris": {"ios": "https://dc.lft.to/lastmile_qr_scan", "android": "https://dc.lft.to/lastmile_qr_scan"}, "bike_id": "449213996447d71ae9fec6545c1713a7", "lat": 38.91034166666667}, {"type": "electric_scooter", "fusion_lon": 0.0, "name": "ccaba7f4265fd100de5bc356995c544f", "lon": -77.0267045, "fusion_lat": 0.0, "is_disabled": 0, "is_reserved": 0, "rental_uris": {"ios": "https://dc.lft.to/lastmile_qr_scan", "android": "https://dc.lft.to/lastmile_qr_scan"}, "bike_id": "ccaba7f4265fd100de5bc356995c544f", "lat": 38.90255916666667}, {"type": "electric_scooter", "fusion_lon": 0.0, "name": "b3ccbc93dac8f9c67e721a9f5a605ca1", "lon": -77.0787025, "fusion_lat": 0.0, "is_disabled": 0, "is_reserved": 0, "rental_uris": {"ios": "https://dc.lft.to/lastmile_qr_scan", "android": "https://dc.lft.to/lastmile_qr_scan"}, "bike_id": "b3ccbc93dac8f9c67e721a9f5a605ca1", "lat": 38.94827083333333}, {"type": "electric_scooter", "fusion_lon": 0.0, "name": "120e3e48d31b46ffd7e12b5fb305297c", "lon": -77.01977016666666, "fusion_lat": 0.0, "is_disabled": 0, "is_reserved": 0, "rental_uris": {"ios": "https://dc.lft.to/lastmile_qr_scan", "android": "https://dc.lft.to/lastmile_qr_scan"}, "bike_id": "120e3e48d31b46ffd7e12b5fb305297c", "lat": 38.896838833333334}, {"type": "electric_scooter", "fusion_lon": 0.0, "name": "94aaf62d430d85bf7df26fd67a37efec", "lon": -77.00624583333334, "fusion_lat": 0.0, "is_disabled": 0, "is_reserved": 0, "rental_uris": {"ios": "https://dc.lft.to/lastmile_qr_scan", "android": "https://dc.lft.to/lastmile_qr_scan"}, "bike_id": "94aaf62d430d85bf7df26fd67a37efec", "lat": 38.871757}, {"type": "electric_scooter", "fusion_lon": 0.0, "name": "ba08c2bc3d457ae779f007e8242dae98", "lon": -76.9700395, "fusion_lat": 0.0, "is_disabled": 0, "is_reserved": 0, "rental_uris": {"ios": "https://dc.lft.to/lastmile_qr_scan", "android": "https://dc.lft.to/lastmile_qr_scan"}, "bike_id": "ba08c2bc3d457ae779f007e8242dae98", "lat": 38.8602075}, {"type": "electric_scooter", "fusion_lon": 0.0, "name": "c5bca7c506ce4db55c17ec6415537412", "lon": -77.03651316666667, "fusion_lat": 0.0, "is_disabled": 0, "is_reserved": 0, "rental_uris": {"ios": "https://dc.lft.to/lastmile_qr_scan", "android": "https://dc.lft.to/lastmile_qr_scan"}, "bike_id": "c5bca7c506ce4db55c17ec6415537412", "lat": 38.917581166666665}, {"type": "electric_scooter", "fusion_lon": 0.0, "name": "e58ecc6c45916f4454e2fe237cf7b592", "lon": -77.0479645, "fusion_lat": 0.0, "is_disabled": 0, "is_reserved": 0, "rental_uris": {"ios": "https://dc.lft.to/lastmile_qr_scan", "android": "https://dc.lft.to/lastmile_qr_scan"}, "bike_id": "e58ecc6c45916f4454e2fe237cf7b592", "lat": 38.89611766666667}, {"type": "electric_scooter", "fusion_lon": 0.0, "name": "b166f0bfeb633d63e72f67233380934e", "lon": -77.00509066666666, "fusion_lat": 0.0, "is_disabled": 0, "is_reserved": 0, "rental_uris": {"ios": "https://dc.lft.to/lastmile_qr_scan", "android": "https://dc.lft.to/lastmile_qr_scan"}, "bike_id": "b166f0bfeb633d63e72f67233380934e", "lat": 38.960488833333336}, {"type": "electric_scooter", "fusion_lon": 0.0, "name": "faf5d265f17ba96dba8425786254e447", "lon": -77.014693, "fusion_lat": 0.0, "is_disabled": 0, "is_reserved": 0, "rental_uris": {"ios": "https://dc.lft.to/lastmile_qr_scan", "android": "https://dc.lft.to/lastmile_qr_scan"}, "bike_id": "faf5d265f17ba96dba8425786254e447", "lat": 38.9268475}, {"type": "electric_scooter", "fusion_lon": 0.0, "name": "a08c17c79639b3016db254205a878230", "lon": -77.06682883333333, "fusion_lat": 0.0, "is_disabled": 0, "is_reserved": 0, "rental_uris": {"ios": "https://dc.lft.to/lastmile_qr_scan", "android": "https://dc.lft.to/lastmile_qr_scan"}, "bike_id": "a08c17c79639b3016db254205a878230", "lat": 38.949636}, {"type": "electric_bike", "fusion_lon": 0.0, "name": "6651b95de480a41d691e5fed3a794c04", "lon": -76.9906235, "fusion_lat": 0.0, "is_disabled": 0, "is_reserved": 0, "rental_uris": {"ios": "https://dc.lft.to/lastmile_qr_scan", "android": "https://dc.lft.to/lastmile_qr_scan"}, "bike_id": "6651b95de480a41d691e5fed3a794c04", "lat": 38.9369215}, {"type": "electric_scooter", "fusion_lon": 0.0, "name": "9cc685d81b6110c12ba37e5a26b01690", "lon": -77.0317575, "fusion_lat": 0.0, "is_disabled": 0, "is_reserved": 0, "rental_uris": {"ios": "https://dc.lft.to/lastmile_qr_scan", "android": "https://dc.lft.to/lastmile_qr_scan"}, "bike_id": "9cc685d81b6110c12ba37e5a26b01690", "lat": 38.91421233333333}, {"type": "electric_scooter", "fusion_lon": 0.0, "name": "5a8204b027735e530737548619ee728b", "lon": -77.0466795, "fusion_lat": 0.0, "is_disabled": 0, "is_reserved": 0, "rental_uris": {"ios": "https://dc.lft.to/lastmile_qr_scan", "android": "https://dc.lft.to/lastmile_qr_scan"}, "bike_id": "5a8204b027735e530737548619ee728b", "lat": 38.912628166666664}, {"type": "electric_scooter", "fusion_lon": 0.0, "name": "23027bbadbd2b474d33454ab55880275", "lon": -77.0385835, "fusion_lat": 0.0, "is_disabled": 0, "is_reserved": 0, "rental_uris": {"ios": "https://dc.lft.to/lastmile_qr_scan", "android": "https://dc.lft.to/lastmile_qr_scan"}, "bike_id": "23027bbadbd2b474d33454ab55880275", "lat": 38.91178216666667}, {"type": "electric_scooter", "fusion_lon": 0.0, "name": "dc1b943a2afd7a408954c4a2e6e5331d", "lon": -77.046791, "fusion_lat": 0.0, "is_disabled": 0, "is_reserved": 0, "rental_uris": {"ios": "https://dc.lft.to/lastmile_qr_scan", "android": "https://dc.lft.to/lastmile_qr_scan"}, "bike_id": "dc1b943a2afd7a408954c4a2e6e5331d", "lat": 38.916672}, {"type": "electric_scooter", "fusion_lon": 0.0, "name": "0f4382ece27944dd388ad0b4ee8a4d8f", "lon": -77.0259485, "fusion_lat": 0.0, "is_disabled": 0, "is_reserved": 0, "rental_uris": {"ios": "https://dc.lft.to/lastmile_qr_scan", "android": "https://dc.lft.to/lastmile_qr_scan"}, "bike_id": "0f4382ece27944dd388ad0b4ee8a4d8f", "lat": 38.92096466666667}, {"type": "electric_scooter", "fusion_lon": 0.0, "name": "9432e0fc23594452d2a23bef4df0171a", "lon": -76.99948033333334, "fusion_lat": 0.0, "is_disabled": 0, "is_reserved": 0, "rental_uris": {"ios": "https://dc.lft.to/lastmile_qr_scan", "android": "https://dc.lft.to/lastmile_qr_scan"}, "bike_id": "9432e0fc23594452d2a23bef4df0171a", "lat": 38.891326}, {"type": "electric_scooter", "fusion_lon": 0.0, "name": "30145d865d97c79333bb40bf493414b3", "lon": -77.03438483333333, "fusion_lat": 0.0, "is_disabled": 0, "is_reserved": 0, "rental_uris": {"ios": "https://dc.lft.to/lastmile_qr_scan", "android": "https://dc.lft.to/lastmile_qr_scan"}, "bike_id": "30145d865d97c79333bb40bf493414b3", "lat": 38.91910266666667}, {"type": "electric_bike", "fusion_lon": 0.0, "name": "103f2ba38e907ddef009707be68ba9e6", "lon": -77.00797216666666, "fusion_lat": 0.0, "is_disabled": 0, "is_reserved": 0, "rental_uris": {"ios": "https://dc.lft.to/lastmile_qr_scan", "android": "https://dc.lft.to/lastmile_qr_scan"}, "bike_id": "103f2ba38e907ddef009707be68ba9e6", "lat": 38.9492325}, {"type": "electric_scooter", "fusion_lon": 0.0, "name": "4eb4c25100edf7f7ba54b96220757da5", "lon": -77.0278535, "fusion_lat": 0.0, "is_disabled": 0, "is_reserved": 0, "rental_uris": {"ios": "https://dc.lft.to/lastmile_qr_scan", "android": "https://dc.lft.to/lastmile_qr_scan"}, "bike_id": "4eb4c25100edf7f7ba54b96220757da5", "lat": 38.89891733333333}, {"type": "electric_scooter", "fusion_lon": 0.0, "name": "4bac917fdef99323651b3456aea10713", "lon": -76.992977, "fusion_lat": 0.0, "is_disabled": 0, "is_reserved": 0, "rental_uris": {"ios": "https://dc.lft.to/lastmile_qr_scan", "android": "https://dc.lft.to/lastmile_qr_scan"}, "bike_id": "4bac917fdef99323651b3456aea10713", "lat": 38.876443333333334}, {"type": "electric_scooter", "fusion_lon": 0.0, "name": "cda92ca840ddf0858c318433ae3da821", "lon": -77.01596966666666, "fusion_lat": 0.0, "is_disabled": 0, "is_reserved": 0, "rental_uris": {"ios": "https://dc.lft.to/lastmile_qr_scan", "android": "https://dc.lft.to/lastmile_qr_scan"}, "bike_id": "cda92ca840ddf0858c318433ae3da821", "lat": 38.90233683333334}, {"type": "electric_scooter", "fusion_lon": 0.0, "name": "f9efa82cb8ece903cc36b509d22d9145", "lon": -77.06541466666667, "fusion_lat": 0.0, "is_disabled": 0, "is_reserved": 0, "rental_uris": {"ios": "https://dc.lft.to/lastmile_qr_scan", "android": "https://dc.lft.to/lastmile_qr_scan"}, "bike_id": "f9efa82cb8ece903cc36b509d22d9145", "lat": 38.90591466666667}, {"type": "electric_scooter", "fusion_lon": 0.0, "name": "6e90eb437446389b396f7c40c75a9fea", "lon": -77.03259666666666, "fusion_lat": 0.0, "is_disabled": 0, "is_reserved": 0, "rental_uris": {"ios": "https://dc.lft.to/lastmile_qr_scan", "android": "https://dc.lft.to/lastmile_qr_scan"}, "bike_id": "6e90eb437446389b396f7c40c75a9fea", "lat": 38.911236}, {"type": "electric_scooter", "fusion_lon": 0.0, "name": "52f1da65077fc8c321df5b689979c0b9", "lon": -77.044987, "fusion_lat": 0.0, "is_disabled": 0, "is_reserved": 0, "rental_uris": {"ios": "https://dc.lft.to/lastmile_qr_scan", "android": "https://dc.lft.to/lastmile_qr_scan"}, "bike_id": "52f1da65077fc8c321df5b689979c0b9", "lat": 38.89968983333333}, {"type": "electric_scooter", "fusion_lon": 0.0, "name": "8761439bb251f951d1457e3b80d90dba", "lon": -76.95200033333333, "fusion_lat": 0.0, "is_disabled": 0, "is_reserved": 0, "rental_uris": {"ios": "https://dc.lft.to/lastmile_qr_scan", "android": "https://dc.lft.to/lastmile_qr_scan"}, "bike_id": "8761439bb251f951d1457e3b80d90dba", "lat": 38.9051265}, {"type": "electric_scooter", "fusion_lon": 0.0, "name": "1a027639ef808a3c62e324e1dbe9436c", "lon": -77.027032, "fusion_lat": 0.0, "is_disabled": 0, "is_reserved": 0, "rental_uris": {"ios": "https://dc.lft.to/lastmile_qr_scan", "android": "https://dc.lft.to/lastmile_qr_scan"}, "bike_id": "1a027639ef808a3c62e324e1dbe9436c", "lat": 38.89998466666667}, {"type": "electric_scooter", "fusion_lon": 0.0, "name": "3317cc3ad9e41869dba759fdcf6a41c3", "lon": -77.02492583333333, "fusion_lat": 0.0, "is_disabled": 0, "is_reserved": 0, "rental_uris": {"ios": "https://dc.lft.to/lastmile_qr_scan", "android": "https://dc.lft.to/lastmile_qr_scan"}, "bike_id": "3317cc3ad9e41869dba759fdcf6a41c3", "lat": 38.9180685}, {"type": "electric_scooter", "fusion_lon": 0.0, "name": "6798839d311dd65538b3a8937d5bf52b", "lon": -77.05510733333334, "fusion_lat": 0.0, "is_disabled": 0, "is_reserved": 0, "rental_uris": {"ios": "https://dc.lft.to/lastmile_qr_scan", "android": "https://dc.lft.to/lastmile_qr_scan"}, "bike_id": "6798839d311dd65538b3a8937d5bf52b", "lat": 38.92987433333333}, {"type": "electric_scooter", "fusion_lon": 0.0, "name": "a66b50156894418e225628ac9ee34b08", "lon": -77.062741, "fusion_lat": 0.0, "is_disabled": 0, "is_reserved": 0, "rental_uris": {"ios": "https://dc.lft.to/lastmile_qr_scan", "android": "https://dc.lft.to/lastmile_qr_scan"}, "bike_id": "a66b50156894418e225628ac9ee34b08", "lat": 38.905704166666666}, {"type": "electric_scooter", "fusion_lon": 0.0, "name": "2028a7f611a930c6b1650d4544ec9c5e", "lon": -77.0725225, "fusion_lat": 0.0, "is_disabled": 0, "is_reserved": 0, "rental_uris": {"ios": "https://dc.lft.to/lastmile_qr_scan", "android": "https://dc.lft.to/lastmile_qr_scan"}, "bike_id": "2028a7f611a930c6b1650d4544ec9c5e", "lat": 38.907851}, {"type": "electric_scooter", "fusion_lon": 0.0, "name": "3529cd9cf66ac70b03e18f5ecb17bbe4", "lon": -77.01406266666666, "fusion_lat": 0.0, "is_disabled": 0, "is_reserved": 0, "rental_uris": {"ios": "https://dc.lft.to/lastmile_qr_scan", "android": "https://dc.lft.to/lastmile_qr_scan"}, "bike_id": "3529cd9cf66ac70b03e18f5ecb17bbe4", "lat": 38.928507}, {"type": "electric_scooter", "fusion_lon": 0.0, "name": "11715144597e4c8dc76e022ea594119c", "lon": -77.0224125, "fusion_lat": 0.0, "is_disabled": 0, "is_reserved": 0, "rental_uris": {"ios": "https://dc.lft.to/lastmile_qr_scan", "android": "https://dc.lft.to/lastmile_qr_scan"}, "bike_id": "11715144597e4c8dc76e022ea594119c", "lat": 38.924516}, {"type": "electric_scooter", "fusion_lon": 0.0, "name": "f37cb55cf1c21ade5c586a3e30642471", "lon": -77.0423125, "fusion_lat": 0.0, "is_disabled": 0, "is_reserved": 0, "rental_uris": {"ios": "https://dc.lft.to/lastmile_qr_scan", "android": "https://dc.lft.to/lastmile_qr_scan"}, "bike_id": "f37cb55cf1c21ade5c586a3e30642471", "lat": 38.92172}, {"type": "electric_scooter", "fusion_lon": 0.0, "name": "9366aa44ecefe615d834696d9621f953", "lon": -77.01889283333334, "fusion_lat": 0.0, "is_disabled": 0, "is_reserved": 0, "rental_uris": {"ios": "https://dc.lft.to/lastmile_qr_scan", "android": "https://dc.lft.to/lastmile_qr_scan"}, "bike_id": "9366aa44ecefe615d834696d9621f953", "lat": 38.914817}, {"type": "electric_scooter", "fusion_lon": 0.0, "name": "60d839227020aa0c10ec7f811b86387f", "lon": -77.05634483333333, "fusion_lat": 0.0, "is_disabled": 0, "is_reserved": 0, "rental_uris": {"ios": "https://dc.lft.to/lastmile_qr_scan", "android": "https://dc.lft.to/lastmile_qr_scan"}, "bike_id": "60d839227020aa0c10ec7f811b86387f", "lat": 38.90696833333333}, {"type": "electric_scooter", "fusion_lon": 0.0, "name": "677e5fa200b3535aec567e3df665e97c", "lon": -77.03776783333333, "fusion_lat": 0.0, "is_disabled": 0, "is_reserved": 0, "rental_uris": {"ios": "https://dc.lft.to/lastmile_qr_scan", "android": "https://dc.lft.to/lastmile_qr_scan"}, "bike_id": "677e5fa200b3535aec567e3df665e97c", "lat": 38.9169245}, {"type": "electric_scooter", "fusion_lon": 0.0, "name": "4c5115031637cdc699c00584d76a8a09", "lon": -77.02419066666667, "fusion_lat": 0.0, "is_disabled": 0, "is_reserved": 0, "rental_uris": {"ios": "https://dc.lft.to/lastmile_qr_scan", "android": "https://dc.lft.to/lastmile_qr_scan"}, "bike_id": "4c5115031637cdc699c00584d76a8a09", "lat": 38.909757166666665}, {"type": "electric_scooter", "fusion_lon": 0.0, "name": "9d44591418657e1bd94357e48852c107", "lon": -76.99852733333333, "fusion_lat": 0.0, "is_disabled": 0, "is_reserved": 0, "rental_uris": {"ios": "https://dc.lft.to/lastmile_qr_scan", "android": "https://dc.lft.to/lastmile_qr_scan"}, "bike_id": "9d44591418657e1bd94357e48852c107", "lat": 38.837693}, {"type": "electric_bike", "fusion_lon": 0.0, "name": "4ac514963348d7867ad2c2e4e16427ea", "lon": -76.94297833333333, "fusion_lat": 0.0, "is_disabled": 0, "is_reserved": 0, "rental_uris": {"ios": "https://dc.lft.to/lastmile_qr_scan", "android": "https://dc.lft.to/lastmile_qr_scan"}, "bike_id": "4ac514963348d7867ad2c2e4e16427ea", "lat": 38.953625833333334}, {"type": "electric_scooter", "fusion_lon": 0.0, "name": "9008a68b987c0cb16f0b03748a078c97", "lon": -77.05518666666667, "fusion_lat": 0.0, "is_disabled": 0, "is_reserved": 0, "rental_uris": {"ios": "https://dc.lft.to/lastmile_qr_scan", "android": "https://dc.lft.to/lastmile_qr_scan"}, "bike_id": "9008a68b987c0cb16f0b03748a078c97", "lat": 38.929618}, {"type": "electric_scooter", "fusion_lon": 0.0, "name": "5189907e007613fdd2b941dd337a84a3", "lon": -76.99694866666667, "fusion_lat": 0.0, "is_disabled": 0, "is_reserved": 0, "rental_uris": {"ios": "https://dc.lft.to/lastmile_qr_scan", "android": "https://dc.lft.to/lastmile_qr_scan"}, "bike_id": "5189907e007613fdd2b941dd337a84a3", "lat": 38.88429266666667}, {"type": "electric_scooter", "fusion_lon": 0.0, "name": "bde209db9857ee1e4543d27198e00860", "lon": -76.975746, "fusion_lat": 0.0, "is_disabled": 0, "is_reserved": 0, "rental_uris": {"ios": "https://dc.lft.to/lastmile_qr_scan", "android": "https://dc.lft.to/lastmile_qr_scan"}, "bike_id": "bde209db9857ee1e4543d27198e00860", "lat": 38.903415333333335}, {"type": "electric_scooter", "fusion_lon": 0.0, "name": "6d980ab91224cded5a0d2af5fcd62a37", "lon": -77.03268383333334, "fusion_lat": 0.0, "is_disabled": 0, "is_reserved": 0, "rental_uris": {"ios": "https://dc.lft.to/lastmile_qr_scan", "android": "https://dc.lft.to/lastmile_qr_scan"}, "bike_id": "6d980ab91224cded5a0d2af5fcd62a37", "lat": 38.92988616666667}, {"type": "electric_scooter", "fusion_lon": 0.0, "name": "66ec4cbdaf1352225afc690045d0bc14", "lon": -76.97746933333333, "fusion_lat": 0.0, "is_disabled": 0, "is_reserved": 0, "rental_uris": {"ios": "https://dc.lft.to/lastmile_qr_scan", "android": "https://dc.lft.to/lastmile_qr_scan"}, "bike_id": "66ec4cbdaf1352225afc690045d0bc14", "lat": 38.88770233333334}, {"type": "electric_scooter", "fusion_lon": 0.0, "name": "de3f6ed2a91449c87bb69ca24484a033", "lon": -77.06298233333334, "fusion_lat": 0.0, "is_disabled": 0, "is_reserved": 0, "rental_uris": {"ios": "https://dc.lft.to/lastmile_qr_scan", "android": "https://dc.lft.to/lastmile_qr_scan"}, "bike_id": "de3f6ed2a91449c87bb69ca24484a033", "lat": 38.9039805}, {"type": "electric_scooter", "fusion_lon": 0.0, "name": "e2e31ed1cb3c419defd6bc0e72b7f61c", "lon": -77.00350233333333, "fusion_lat": 0.0, "is_disabled": 0, "is_reserved": 0, "rental_uris": {"ios": "https://dc.lft.to/lastmile_qr_scan", "android": "https://dc.lft.to/lastmile_qr_scan"}, "bike_id": "e2e31ed1cb3c419defd6bc0e72b7f61c", "lat": 38.899419}, {"type": "electric_scooter", "fusion_lon": 0.0, "name": "b2d28718845190b004b5d61680386681", "lon": -77.03431816666667, "fusion_lat": 0.0, "is_disabled": 0, "is_reserved": 0, "rental_uris": {"ios": "https://dc.lft.to/lastmile_qr_scan", "android": "https://dc.lft.to/lastmile_qr_scan"}, "bike_id": "b2d28718845190b004b5d61680386681", "lat": 38.939712666666665}, {"type": "electric_scooter", "fusion_lon": 0.0, "name": "81f3c408422717cbeff79fb6576fb1eb", "lon": -77.02952116666667, "fusion_lat": 0.0, "is_disabled": 0, "is_reserved": 0, "rental_uris": {"ios": "https://dc.lft.to/lastmile_qr_scan", "android": "https://dc.lft.to/lastmile_qr_scan"}, "bike_id": "81f3c408422717cbeff79fb6576fb1eb", "lat": 38.907658166666664}, {"type": "electric_scooter", "fusion_lon": 0.0, "name": "78c46074fa82d2cbf61bb7e854d18d84", "lon": -77.01566383333333, "fusion_lat": 0.0, "is_disabled": 0, "is_reserved": 0, "rental_uris": {"ios": "https://dc.lft.to/lastmile_qr_scan", "android": "https://dc.lft.to/lastmile_qr_scan"}, "bike_id": "78c46074fa82d2cbf61bb7e854d18d84", "lat": 38.8917685}, {"type": "electric_scooter", "fusion_lon": 0.0, "name": "f4db7509e3f15c95843873edbbe29c5b", "lon": -77.0271305, "fusion_lat": 0.0, "is_disabled": 0, "is_reserved": 0, "rental_uris": {"ios": "https://dc.lft.to/lastmile_qr_scan", "android": "https://dc.lft.to/lastmile_qr_scan"}, "bike_id": "f4db7509e3f15c95843873edbbe29c5b", "lat": 38.92335083333333}, {"type": "electric_bike", "fusion_lon": 0.0, "name": "95d5b147486e0769b0c29ffdd67faaed", "lon": -77.012961, "fusion_lat": 0.0, "is_disabled": 0, "is_reserved": 0, "rental_uris": {"ios": "https://dc.lft.to/lastmile_qr_scan", "android": "https://dc.lft.to/lastmile_qr_scan"}, "bike_id": "95d5b147486e0769b0c29ffdd67faaed", "lat": 39.00385966666666}, {"type": "electric_scooter", "fusion_lon": 0.0, "name": "39dc9c6e0ae98717ede9f00323d907a4", "lon": -77.037385, "fusion_lat": 0.0, "is_disabled": 0, "is_reserved": 0, "rental_uris": {"ios": "https://dc.lft.to/lastmile_qr_scan", "android": "https://dc.lft.to/lastmile_qr_scan"}, "bike_id": "39dc9c6e0ae98717ede9f00323d907a4", "lat": 38.903803}, {"type": "electric_scooter", "fusion_lon": 0.0, "name": "df854d8712ab3b17ddebebae957f23b0", "lon": -77.01566983333333, "fusion_lat": 0.0, "is_disabled": 0, "is_reserved": 0, "rental_uris": {"ios": "https://dc.lft.to/lastmile_qr_scan", "android": "https://dc.lft.to/lastmile_qr_scan"}, "bike_id": "df854d8712ab3b17ddebebae957f23b0", "lat": 38.89177883333333}, {"type": "electric_scooter", "fusion_lon": 0.0, "name": "6b15d7cfb128abaf7c35d84d77adb75e", "lon": -77.03973666666667, "fusion_lat": 0.0, "is_disabled": 0, "is_reserved": 0, "rental_uris": {"ios": "https://dc.lft.to/lastmile_qr_scan", "android": "https://dc.lft.to/lastmile_qr_scan"}, "bike_id": "6b15d7cfb128abaf7c35d84d77adb75e", "lat": 38.9083125}, {"type": "electric_scooter", "fusion_lon": 0.0, "name": "ca44627144b12f1034048044464dcab7", "lon": -76.99044016666667, "fusion_lat": 0.0, "is_disabled": 0, "is_reserved": 0, "rental_uris": {"ios": "https://dc.lft.to/lastmile_qr_scan", "android": "https://dc.lft.to/lastmile_qr_scan"}, "bike_id": "ca44627144b12f1034048044464dcab7", "lat": 38.897440333333336}, {"type": "electric_scooter", "fusion_lon": 0.0, "name": "fea6cb502383eef39549f01a9dacd3ba", "lon": -77.03198666666667, "fusion_lat": 0.0, "is_disabled": 0, "is_reserved": 0, "rental_uris": {"ios": "https://dc.lft.to/lastmile_qr_scan", "android": "https://dc.lft.to/lastmile_qr_scan"}, "bike_id": "fea6cb502383eef39549f01a9dacd3ba", "lat": 38.909740666666664}, {"type": "electric_scooter", "fusion_lon": 0.0, "name": "954fd0d5fb6437aa6fb73be6b5253c9e", "lon": -77.04175183333334, "fusion_lat": 0.0, "is_disabled": 0, "is_reserved": 0, "rental_uris": {"ios": "https://dc.lft.to/lastmile_qr_scan", "android": "https://dc.lft.to/lastmile_qr_scan"}, "bike_id": "954fd0d5fb6437aa6fb73be6b5253c9e", "lat": 38.909984666666666}, {"type": "electric_scooter", "fusion_lon": 0.0, "name": "47527627e9ceed866b22258cfc24331f", "lon": -77.04356816666666, "fusion_lat": 0.0, "is_disabled": 0, "is_reserved": 0, "rental_uris": {"ios": "https://dc.lft.to/lastmile_qr_scan", "android": "https://dc.lft.to/lastmile_qr_scan"}, "bike_id": "47527627e9ceed866b22258cfc24331f", "lat": 38.908811}, {"type": "electric_scooter", "fusion_lon": 0.0, "name": "91d4697740ec29a4f62e28c59040a589", "lon": -77.05009133333333, "fusion_lat": 0.0, "is_disabled": 0, "is_reserved": 0, "rental_uris": {"ios": "https://dc.lft.to/lastmile_qr_scan", "android": "https://dc.lft.to/lastmile_qr_scan"}, "bike_id": "91d4697740ec29a4f62e28c59040a589", "lat": 38.90469566666667}, {"type": "electric_scooter", "fusion_lon": 0.0, "name": "5651cc760355e321036704030b0455dc", "lon": -77.02024483333334, "fusion_lat": 0.0, "is_disabled": 0, "is_reserved": 0, "rental_uris": {"ios": "https://dc.lft.to/lastmile_qr_scan", "android": "https://dc.lft.to/lastmile_qr_scan"}, "bike_id": "5651cc760355e321036704030b0455dc", "lat": 38.92445}, {"type": "electric_scooter", "fusion_lon": 0.0, "name": "cd7e5a99227d928fa595fd3a29e127eb", "lon": -77.01566766666667, "fusion_lat": 0.0, "is_disabled": 0, "is_reserved": 0, "rental_uris": {"ios": "https://dc.lft.to/lastmile_qr_scan", "android": "https://dc.lft.to/lastmile_qr_scan"}, "bike_id": "cd7e5a99227d928fa595fd3a29e127eb", "lat": 38.891748}, {"type": "electric_scooter", "fusion_lon": 0.0, "name": "db22592fc48782ebaa072175613237d2", "lon": -77.0405, "fusion_lat": 0.0, "is_disabled": 0, "is_reserved": 0, "rental_uris": {"ios": "https://dc.lft.to/lastmile_qr_scan", "android": "https://dc.lft.to/lastmile_qr_scan"}, "bike_id": "db22592fc48782ebaa072175613237d2", "lat": 38.89898933333333}, {"type": "electric_scooter", "fusion_lon": 0.0, "name": "3c9cb176220114c57c01007b14e9fac5", "lon": -77.031741, "fusion_lat": 0.0, "is_disabled": 0, "is_reserved": 0, "rental_uris": {"ios": "https://dc.lft.to/lastmile_qr_scan", "android": "https://dc.lft.to/lastmile_qr_scan"}, "bike_id": "3c9cb176220114c57c01007b14e9fac5", "lat": 38.914206666666665}, {"type": "electric_scooter", "fusion_lon": 0.0, "name": "7a4f9296d49337ad2c59aac3fae52531", "lon": -77.0353625, "fusion_lat": 0.0, "is_disabled": 0, "is_reserved": 0, "rental_uris": {"ios": "https://dc.lft.to/lastmile_qr_scan", "android": "https://dc.lft.to/lastmile_qr_scan"}, "bike_id": "7a4f9296d49337ad2c59aac3fae52531", "lat": 38.92471666666667}, {"type": "electric_scooter", "fusion_lon": 0.0, "name": "58a637a3fd64368eb1b631cdd9cdc611", "lon": -76.994352, "fusion_lat": 0.0, "is_disabled": 0, "is_reserved": 0, "rental_uris": {"ios": "https://dc.lft.to/lastmile_qr_scan", "android": "https://dc.lft.to/lastmile_qr_scan"}, "bike_id": "58a637a3fd64368eb1b631cdd9cdc611", "lat": 38.938592166666666}, {"type": "electric_scooter", "fusion_lon": 0.0, "name": "eb28aab2bb96e27993ca649b72685a1c", "lon": -77.0379975, "fusion_lat": 0.0, "is_disabled": 0, "is_reserved": 0, "rental_uris": {"ios": "https://dc.lft.to/lastmile_qr_scan", "android": "https://dc.lft.to/lastmile_qr_scan"}, "bike_id": "eb28aab2bb96e27993ca649b72685a1c", "lat": 38.916960333333336}, {"type": "electric_scooter", "fusion_lon": 0.0, "name": "dd6364abcdc2c1ce5b0e6bbf4547f977", "lon": -77.0235785, "fusion_lat": 0.0, "is_disabled": 0, "is_reserved": 0, "rental_uris": {"ios": "https://dc.lft.to/lastmile_qr_scan", "android": "https://dc.lft.to/lastmile_qr_scan"}, "bike_id": "dd6364abcdc2c1ce5b0e6bbf4547f977", "lat": 38.90869133333333}, {"type": "electric_scooter", "fusion_lon": 0.0, "name": "72b037d31a19ea261a018dc7e86edb9e", "lon": -77.00981366666667, "fusion_lat": 0.0, "is_disabled": 0, "is_reserved": 0, "rental_uris": {"ios": "https://dc.lft.to/lastmile_qr_scan", "android": "https://dc.lft.to/lastmile_qr_scan"}, "bike_id": "72b037d31a19ea261a018dc7e86edb9e", "lat": 38.872155666666664}, {"type": "electric_scooter", "fusion_lon": 0.0, "name": "d93f1a00534b95a43d984620cf299f4f", "lon": -77.03447816666667, "fusion_lat": 0.0, "is_disabled": 0, "is_reserved": 0, "rental_uris": {"ios": "https://dc.lft.to/lastmile_qr_scan", "android": "https://dc.lft.to/lastmile_qr_scan"}, "bike_id": "d93f1a00534b95a43d984620cf299f4f", "lat": 38.90231166666667}, {"type": "electric_scooter", "fusion_lon": 0.0, "name": "bcd4ce4dea343f00786ef6dd2d3d9d1b", "lon": -77.0567935, "fusion_lat": 0.0, "is_disabled": 0, "is_reserved": 0, "rental_uris": {"ios": "https://dc.lft.to/lastmile_qr_scan", "android": "https://dc.lft.to/lastmile_qr_scan"}, "bike_id": "bcd4ce4dea343f00786ef6dd2d3d9d1b", "lat": 38.92341}, {"type": "electric_scooter", "fusion_lon": 0.0, "name": "12cc4f7ff90c7699aac01f95057ecc91", "lon": -77.029529, "fusion_lat": 0.0, "is_disabled": 0, "is_reserved": 0, "rental_uris": {"ios": "https://dc.lft.to/lastmile_qr_scan", "android": "https://dc.lft.to/lastmile_qr_scan"}, "bike_id": "12cc4f7ff90c7699aac01f95057ecc91", "lat": 38.90505783333333}, {"type": "electric_scooter", "fusion_lon": 0.0, "name": "47a26b491ded1cd5f155a3908f8d210a", "lon": -77.04409633333333, "fusion_lat": 0.0, "is_disabled": 0, "is_reserved": 0, "rental_uris": {"ios": "https://dc.lft.to/lastmile_qr_scan", "android": "https://dc.lft.to/lastmile_qr_scan"}, "bike_id": "47a26b491ded1cd5f155a3908f8d210a", "lat": 38.925844166666664}, {"type": "electric_scooter", "fusion_lon": 0.0, "name": "fa42441c5cfb588eaddc7e3f3e0c4a00", "lon": -77.07711866666666, "fusion_lat": 0.0, "is_disabled": 0, "is_reserved": 0, "rental_uris": {"ios": "https://dc.lft.to/lastmile_qr_scan", "android": "https://dc.lft.to/lastmile_qr_scan"}, "bike_id": "fa42441c5cfb588eaddc7e3f3e0c4a00", "lat": 38.93556183333333}, {"type": "electric_scooter", "fusion_lon": 0.0, "name": "d7e3d6f65fbaa2b50105118e887336ff", "lon": -77.01194433333333, "fusion_lat": 0.0, "is_disabled": 0, "is_reserved": 0, "rental_uris": {"ios": "https://dc.lft.to/lastmile_qr_scan", "android": "https://dc.lft.to/lastmile_qr_scan"}, "bike_id": "d7e3d6f65fbaa2b50105118e887336ff", "lat": 38.9002185}, {"type": "electric_scooter", "fusion_lon": 0.0, "name": "05992d6bdb41a2f502daee94d7193668", "lon": -77.04502566666666, "fusion_lat": 0.0, "is_disabled": 0, "is_reserved": 0, "rental_uris": {"ios": "https://dc.lft.to/lastmile_qr_scan", "android": "https://dc.lft.to/lastmile_qr_scan"}, "bike_id": "05992d6bdb41a2f502daee94d7193668", "lat": 38.892241166666665}, {"type": "electric_scooter", "fusion_lon": 0.0, "name": "ebac5287bc991b6d2a6efac7ac6542d3", "lon": -77.042504, "fusion_lat": 0.0, "is_disabled": 0, "is_reserved": 0, "rental_uris": {"ios": "https://dc.lft.to/lastmile_qr_scan", "android": "https://dc.lft.to/lastmile_qr_scan"}, "bike_id": "ebac5287bc991b6d2a6efac7ac6542d3", "lat": 38.92203933333333}, {"type": "electric_bike", "fusion_lon": 0.0, "name": "2e1823ddabee62099b8d13a1de626ecc", "lon": -76.976293, "fusion_lat": 0.0, "is_disabled": 0, "is_reserved": 0, "rental_uris": {"ios": "https://dc.lft.to/lastmile_qr_scan", "android": "https://dc.lft.to/lastmile_qr_scan"}, "bike_id": "2e1823ddabee62099b8d13a1de626ecc", "lat": 38.8403005}, {"type": "electric_scooter", "fusion_lon": 0.0, "name": "c22f7dc6ef5bb346812619831d27e3f0", "lon": -77.03804983333333, "fusion_lat": 0.0, "is_disabled": 0, "is_reserved": 0, "rental_uris": {"ios": "https://dc.lft.to/lastmile_qr_scan", "android": "https://dc.lft.to/lastmile_qr_scan"}, "bike_id": "c22f7dc6ef5bb346812619831d27e3f0", "lat": 38.921849}, {"type": "electric_bike", "fusion_lon": 0.0, "name": "6c47ca2626937b97a693514aa31de3d1", "lon": -77.0135965, "fusion_lat": 0.0, "is_disabled": 0, "is_reserved": 0, "rental_uris": {"ios": "https://dc.lft.to/lastmile_qr_scan", "android": "https://dc.lft.to/lastmile_qr_scan"}, "bike_id": "6c47ca2626937b97a693514aa31de3d1", "lat": 39.029284}, {"type": "electric_bike", "fusion_lon": 0.0, "name": "67b5e4ba3f64c1e418caa23bb178a5a2", "lon": -76.98661233333333, "fusion_lat": 0.0, "is_disabled": 0, "is_reserved": 0, "rental_uris": {"ios": "https://dc.lft.to/lastmile_qr_scan", "android": "https://dc.lft.to/lastmile_qr_scan"}, "bike_id": "67b5e4ba3f64c1e418caa23bb178a5a2", "lat": 38.9747755}, {"type": "electric_scooter", "fusion_lon": 0.0, "name": "66cb4a9628d5c534a6709e1f64d7e916", "lon": -77.02957966666666, "fusion_lat": 0.0, "is_disabled": 0, "is_reserved": 0, "rental_uris": {"ios": "https://dc.lft.to/lastmile_qr_scan", "android": "https://dc.lft.to/lastmile_qr_scan"}, "bike_id": "66cb4a9628d5c534a6709e1f64d7e916", "lat": 38.89851216666667}, {"type": "electric_scooter", "fusion_lon": 0.0, "name": "be5823891cee620b1a264e66b3174420", "lon": -76.99612066666667, "fusion_lat": 0.0, "is_disabled": 0, "is_reserved": 0, "rental_uris": {"ios": "https://dc.lft.to/lastmile_qr_scan", "android": "https://dc.lft.to/lastmile_qr_scan"}, "bike_id": "be5823891cee620b1a264e66b3174420", "lat": 38.887182}, {"type": "electric_scooter", "fusion_lon": 0.0, "name": "8a132570cf1ca9294d31d35a444b7d5e", "lon": -77.04341083333334, "fusion_lat": 0.0, "is_disabled": 0, "is_reserved": 0, "rental_uris": {"ios": "https://dc.lft.to/lastmile_qr_scan", "android": "https://dc.lft.to/lastmile_qr_scan"}, "bike_id": "8a132570cf1ca9294d31d35a444b7d5e", "lat": 38.908157833333334}, {"type": "electric_bike", "fusion_lon": 0.0, "name": "7442003487351770d8ed87cb28273c1e", "lon": -77.00435666666667, "fusion_lat": 0.0, "is_disabled": 0, "is_reserved": 0, "rental_uris": {"ios": "https://dc.lft.to/lastmile_qr_scan", "android": "https://dc.lft.to/lastmile_qr_scan"}, "bike_id": "7442003487351770d8ed87cb28273c1e", "lat": 38.83491}, {"type": "electric_scooter", "fusion_lon": 0.0, "name": "400999360616fad94124e520f6719ecd", "lon": -77.04642766666667, "fusion_lat": 0.0, "is_disabled": 0, "is_reserved": 0, "rental_uris": {"ios": "https://dc.lft.to/lastmile_qr_scan", "android": "https://dc.lft.to/lastmile_qr_scan"}, "bike_id": "400999360616fad94124e520f6719ecd", "lat": 38.8922285}, {"type": "electric_bike", "fusion_lon": 0.0, "name": "2df3c65e39f232600a341ec1797c6103", "lon": -77.0075625, "fusion_lat": 0.0, "is_disabled": 0, "is_reserved": 0, "rental_uris": {"ios": "https://dc.lft.to/lastmile_qr_scan", "android": "https://dc.lft.to/lastmile_qr_scan"}, "bike_id": "2df3c65e39f232600a341ec1797c6103", "lat": 38.877680833333336}, {"type": "electric_scooter", "fusion_lon": 0.0, "name": "ba3feac2a77f3c64a0d8823fb1c29e81", "lon": -76.99801266666667, "fusion_lat": 0.0, "is_disabled": 0, "is_reserved": 0, "rental_uris": {"ios": "https://dc.lft.to/lastmile_qr_scan", "android": "https://dc.lft.to/lastmile_qr_scan"}, "bike_id": "ba3feac2a77f3c64a0d8823fb1c29e81", "lat": 38.90848533333333}, {"type": "electric_scooter", "fusion_lon": 0.0, "name": "722b50ea6e8382f9e3a401e5946cab38", "lon": -77.04834966666667, "fusion_lat": 0.0, "is_disabled": 0, "is_reserved": 0, "rental_uris": {"ios": "https://dc.lft.to/lastmile_qr_scan", "android": "https://dc.lft.to/lastmile_qr_scan"}, "bike_id": "722b50ea6e8382f9e3a401e5946cab38", "lat": 38.908619333333334}, {"type": "electric_scooter", "fusion_lon": 0.0, "name": "ab231d601ca6c4d66fbfc6aaed2d7a8d", "lon": -77.00745733333333, "fusion_lat": 0.0, "is_disabled": 0, "is_reserved": 0, "rental_uris": {"ios": "https://dc.lft.to/lastmile_qr_scan", "android": "https://dc.lft.to/lastmile_qr_scan"},