{"data": {"bikes": [{"name": "054ac9f584b20c8e6df42bf7183f3652", "lon": -77.036396, "lat": 38.9274415, "type": "electric_scooter", "fusion_lon": 0.0, "is_reserved": 0, "bike_id": "054ac9f584b20c8e6df42bf7183f3652", "fusion_lat": 0.0, "is_disabled": 0, "rental_uris": {"ios": "https://dc.lft.to/lastmile_qr_scan", "android": "https://dc.lft.to/lastmile_qr_scan"}}, {"name": "9d0bdf8b86b20f0988c6a2721a433d6c", "lon": -77.02409183333333, "lat": 38.927459, "type": "electric_bike", "fusion_lon": 0.0, "is_reserved": 0, "bike_id": "9d0bdf8b86b20f0988c6a2721a433d6c", "fusion_lat": 0.0, "is_disabled": 0, "rental_uris": {"ios": "https://dc.lft.to/lastmile_qr_scan", "android": "https://dc.lft.to/lastmile_qr_scan"}}, {"name": "a1c3b1ee862f89e91bdba5f797baa40e", "lon": -76.99617983333333, "lat": 38.90090983333333, "type": "electric_scooter", "fusion_lon": 0.0, "is_reserved": 0, "bike_id": "a1c3b1ee862f89e91bdba5f797baa40e", "fusion_lat": 0.0, "is_disabled": 0, "rental_uris": {"ios": "https://dc.lft.to/lastmile_qr_scan", "android": "https://dc.lft.to/lastmile_qr_scan"}}, {"name": "01ae32bef5d9eac0dfca8bd10eb7c9e7", "lon": -77.04654083333334, "lat": 38.905496, "type": "electric_scooter", "fusion_lon": 0.0, "is_reserved": 0, "bike_id": "01ae32bef5d9eac0dfca8bd10eb7c9e7", "fusion_lat": 0.0, "is_disabled": 0, "rental_uris": {"ios": "https://dc.lft.to/lastmile_qr_scan", "android": "https://dc.lft.to/lastmile_qr_scan"}}, {"name": "a2cf928267471e4cddc3c85c2b1c39cc", "lon": -76.93196683333333, "lat": 38.89878266666667, "type": "electric_scooter", "fusion_lon": 0.0, "is_reserved": 0, "bike_id": "a2cf928267471e4cddc3c85c2b1c39cc", "fusion_lat": 0.0, "is_disabled": 0, "rental_uris": {"ios": "https://dc.lft.to/lastmile_qr_scan", "android": "https://dc.lft.to/lastmile_qr_scan"}}, {"name": "b2cdb3ccf3224458403e8718c5bc7aef", "lon": -77.02709766666666, "lat": 38.928796166666665, "type": "electric_scooter", "fusion_lon": 0.0, "is_reserved": 0, "bike_id": "b2cdb3ccf3224458403e8718c5bc7aef", "fusion_lat": 0.0, "is_disabled": 0, "rental_uris": {"ios": "https://dc.lft.to/lastmile_qr_scan", "android": "https://dc.lft.to/lastmile_qr_scan"}}, {"name": "d9b0e1ff54e9972d617fa20829e7bab7", "lon": -77.11050116666667, "lat": 38.87078833333333, "type": "electric_bike", "fusion_lon": 0.0, "is_reserved": 0, "bike_id": "d9b0e1ff54e9972d617fa20829e7bab7", "fusion_lat": 0.0, "is_disabled": 0, "rental_uris": {"ios": "https://dc.lft.to/lastmile_qr_scan", "android": "https://dc.lft.to/lastmile_qr_scan"}}, {"name": "3c4c1176dd95cfdfc6be3eb5d308591b", "lon": -76.998995, "lat": 38.948137, "type": "electric_scooter", "fusion_lon": 0.0, "is_reserved": 0, "bike_id": "3c4c1176dd95cfdfc6be3eb5d308591b", "fusion_lat": 0.0, "is_disabled": 0, "rental_uris": {"ios": "https://dc.lft.to/lastmile_qr_scan", "android": "https://dc.lft.to/lastmile_qr_scan"}}, {"name": "afa7b329f59abad46e26b098bf24f57c", "lon": -77.11606816666666, "lat": 38.854864666666664, "type": "electric_bike", "fusion_lon": 0.0, "is_reserved": 0, "bike_id": "afa7b329f59abad46e26b098bf24f57c", "fusion_lat": 0.0, "is_disabled": 0, "rental_uris": {"ios": "https://dc.lft.to/lastmile_qr_scan", "android": "https://dc.lft.to/lastmile_qr_scan"}}, {"name": "6fae777d8333e478317f6a2a3c67a9f6", "lon": -77.0292375, "lat": 38.89944233333333, "type": "electric_scooter", "fusion_lon": 0.0, "is_reserved": 0, "bike_id": "6fae777d8333e478317f6a2a3c67a9f6", "fusion_lat": 0.0, "is_disabled": 0, "rental_uris": {"ios": "https://dc.lft.to/lastmile_qr_scan", "android": "https://dc.lft.to/lastmile_qr_scan"}}, {"name": "ad04889d3a36c44f32a5e6d2231afd85", "lon": -77.03260116666667, "lat": 38.935209, "type": "electric_scooter", "fusion_lon": 0.0, "is_reserved": 0, "bike_id": "ad04889d3a36c44f32a5e6d2231afd85", "fusion_lat": 0.0, "is_disabled": 0, "rental_uris": {"ios": "https://dc.lft.to/lastmile_qr_scan", "android": "https://dc.lft.to/lastmile_qr_scan"}}, {"name": "6f8fe31aba326cd8c2c05c7f15d27466", "lon": -77.02711733333334, "lat": 38.924562, "type": "electric_scooter", "fusion_lon": 0.0, "is_reserved": 0, "bike_id": "6f8fe31aba326cd8c2c05c7f15d27466", "fusion_lat": 0.0, "is_disabled": 0, "rental_uris": {"ios": "https://dc.lft.to/lastmile_qr_scan", "android": "https://dc.lft.to/lastmile_qr_scan"}}, {"name": "c34589eb515292fff353ffa319311fb5", "lon": -77.0229835, "lat": 38.91611783333333, "type": "electric_scooter", "fusion_lon": 0.0, "is_reserved": 0, "bike_id": "c34589eb515292fff353ffa319311fb5", "fusion_lat": 0.0, "is_disabled": 0, "rental_uris": {"ios": "https://dc.lft.to/lastmile_qr_scan", "android": "https://dc.lft.to/lastmile_qr_scan"}}, {"name": "e066320398126a4bb7485b7f648f9d19", "lon": -77.127321, "lat": 38.89561333333333, "type": "electric_bike", "fusion_lon": 0.0, "is_reserved": 0, "bike_id": "e066320398126a4bb7485b7f648f9d19", "fusion_lat": 0.0, "is_disabled": 0, "rental_uris": {"ios": "https://dc.lft.to/lastmile_qr_scan", "android": "https://dc.lft.to/lastmile_qr_scan"}}, {"name": "c6d5d1123cbbab3b42e1296c2c9ec227", "lon": -77.03835583333333, "lat": 38.92158466666667, "type": "electric_scooter", "fusion_lon": 0.0, "is_reserved": 0, "bike_id": "c6d5d1123cbbab3b42e1296c2c9ec227", "fusion_lat": 0.0, "is_disabled": 0, "rental_uris": {"ios": "https://dc.lft.to/lastmile_qr_scan", "android": "https://dc.lft.to/lastmile_qr_scan"}}, {"name": "588503436af255ad2ba8dfbab6649499", "lon": -77.0311405, "lat": 38.917275, "type": "electric_scooter", "fusion_lon": 0.0, "is_reserved": 0, "bike_id": "588503436af255ad2ba8dfbab6649499", "fusion_lat": 0.0, "is_disabled": 0, "rental_uris": {"ios": "https://dc.lft.to/lastmile_qr_scan", "android": "https://dc.lft.to/lastmile_qr_scan"}}, {"name": "9f0eb5bf26f0058a67e02f4d1d1e14a7", "lon": -77.011366, "lat": 38.906367, "type": "electric_scooter", "fusion_lon": 0.0, "is_reserved": 0, "bike_id": "9f0eb5bf26f0058a67e02f4d1d1e14a7", "fusion_lat": 0.0, "is_disabled": 0, "rental_uris": {"ios": "https://dc.lft.to/lastmile_qr_scan", "android": "https://dc.lft.to/lastmile_qr_scan"}}, {"name": "d89ba12e14480da378e07db50761de4c", "lon": -76.93643616666667, "lat": 38.87147566666667, "type": "electric_bike", "fusion_lon": 0.0, "is_reserved": 0, "bike_id": "d89ba12e14480da378e07db50761de4c", "fusion_lat": 0.0, "is_disabled": 0, "rental_uris": {"ios": "https://dc.lft.to/lastmile_qr_scan", "android": "https://dc.lft.to/lastmile_qr_scan"}}, {"name": "c1082ff1fd95c849988a592bb5e4b544", "lon": -77.0243735, "lat": 38.90969416666667, "type": "electric_scooter", "fusion_lon": 0.0, "is_reserved": 0, "bike_id": "c1082ff1fd95c849988a592bb5e4b544", "fusion_lat": 0.0, "is_disabled": 0, "rental_uris": {"ios": "https://dc.lft.to/lastmile_qr_scan", "android": "https://dc.lft.to/lastmile_qr_scan"}}, {"name": "b05d997684d680f548d850fb2f92d46d", "lon": -76.9901505, "lat": 38.90503, "type": "electric_scooter", "fusion_lon": 0.0, "is_reserved": 0, "bike_id": "b05d997684d680f548d850fb2f92d46d", "fusion_lat": 0.0, "is_disabled": 0, "rental_uris": {"ios": "https://dc.lft.to/lastmile_qr_scan", "android": "https://dc.lft.to/lastmile_qr_scan"}}, {"name": "5c3c3d971be1c67eee377494bcf8b840", "lon": -77.037599, "lat": 38.91692316666666, "type": "electric_scooter", "fusion_lon": 0.0, "is_reserved": 0, "bike_id": "5c3c3d971be1c67eee377494bcf8b840", "fusion_lat": 0.0, "is_disabled": 0, "rental_uris": {"ios": "https://dc.lft.to/lastmile_qr_scan", "android": "https://dc.lft.to/lastmile_qr_scan"}}, {"name": "a87148d5f1e47ccb836faac423275fad", "lon": -77.04461066666667, "lat": 38.918940666666664, "type": "electric_scooter", "fusion_lon": 0.0, "is_reserved": 0, "bike_id": "a87148d5f1e47ccb836faac423275fad", "fusion_lat": 0.0, "is_disabled": 0, "rental_uris": {"ios": "https://dc.lft.to/lastmile_qr_scan", "android": "https://dc.lft.to/lastmile_qr_scan"}}, {"name": "6e2cdf9e58361c35801f7db1ccbe683b", "lon": -77.001844, "lat": 38.90006433333333, "type": "electric_scooter", "fusion_lon": 0.0, "is_reserved": 0, "bike_id": "6e2cdf9e58361c35801f7db1ccbe683b", "fusion_lat": 0.0, "is_disabled": 0, "rental_uris": {"ios": "https://dc.lft.to/lastmile_qr_scan", "android": "https://dc.lft.to/lastmile_qr_scan"}}, {"name": "768f9a3e03b03447b4b6934b65ef2c09", "lon": -76.96605116666667, "lat": 38.87389316666667, "type": "electric_scooter", "fusion_lon": 0.0, "is_reserved": 0, "bike_id": "768f9a3e03b03447b4b6934b65ef2c09", "fusion_lat": 0.0, "is_disabled": 0, "rental_uris": {"ios": "https://dc.lft.to/lastmile_qr_scan", "android": "https://dc.lft.to/lastmile_qr_scan"}}, {"name": "32343b15bb9d91b293a4a26f0caabb0f", "lon": -77.05913816666667, "lat": 38.900995333333334, "type": "electric_scooter", "fusion_lon": 0.0, "is_reserved": 0, "bike_id": "32343b15bb9d91b293a4a26f0caabb0f", "fusion_lat": 0.0, "is_disabled": 0, "rental_uris": {"ios": "https://dc.lft.to/lastmile_qr_scan", "android": "https://dc.lft.to/lastmile_qr_scan"}}, {"name": "14e509881aa2119b8877b24554bba08a", "lon": -77.01533366666666, "lat": 38.887378, "type": "electric_scooter", "fusion_lon": 0.0, "is_reserved": 0, "bike_id": "14e509881aa2119b8877b24554bba08a", "fusion_lat": 0.0, "is_disabled": 0, "rental_uris": {"ios": "https://dc.lft.to/lastmile_qr_scan", "android": "https://dc.lft.to/lastmile_qr_scan"}}, {"name": "6042ff5403cc059cda345d085918425e", "lon": -77.047131, "lat": 38.89733016666667, "type": "electric_scooter", "fusion_lon": 0.0, "is_reserved": 0, "bike_id": "6042ff5403cc059cda345d085918425e", "fusion_lat": 0.0, "is_disabled": 0, "rental_uris": {"ios": "https://dc.lft.to/lastmile_qr_scan", "android": "https://dc.lft.to/lastmile_qr_scan"}}, {"name": "f94f2941a7dd976e3d4bb75b2263569b", "lon": -76.98090066666667, "lat": 38.95355133333333, "type": "electric_bike", "fusion_lon": 0.0, "is_reserved": 0, "bike_id": "f94f2941a7dd976e3d4bb75b2263569b", "fusion_lat": 0.0, "is_disabled": 0, "rental_uris": {"ios": "https://dc.lft.to/lastmile_qr_scan", "android": "https://dc.lft.to/lastmile_qr_scan"}}, {"name": "86c10562bc8e1ec8ed5808572e24b55b", "lon": -77.04700033333333, "lat": 38.92171966666667, "type": "electric_scooter", "fusion_lon": 0.0, "is_reserved": 0, "bike_id": "86c10562bc8e1ec8ed5808572e24b55b", "fusion_lat": 0.0, "is_disabled": 0, "rental_uris": {"ios": "https://dc.lft.to/lastmile_qr_scan", "android": "https://dc.lft.to/lastmile_qr_scan"}}, {"name": "fab6944d0968ad6e7057b4b68a62dc1c", "lon": -77.01194833333334, "lat": 38.9170635, "type": "electric_scooter", "fusion_lon": 0.0, "is_reserved": 0, "bike_id": "fab6944d0968ad6e7057b4b68a62dc1c", "fusion_lat": 0.0, "is_disabled": 0, "rental_uris": {"ios": "https://dc.lft.to/lastmile_qr_scan", "android": "https://dc.lft.to/lastmile_qr_scan"}}, {"name": "9e9fa85eacaa4ad437c69b128cd88b45", "lon": -77.01746566666667, "lat": 38.88734933333333, "type": "electric_scooter", "fusion_lon": 0.0, "is_reserved": 0, "bike_id": "9e9fa85eacaa4ad437c69b128cd88b45", "fusion_lat": 0.0, "is_disabled": 0, "rental_uris": {"ios": "https://dc.lft.to/lastmile_qr_scan", "android": "https://dc.lft.to/lastmile_qr_scan"}}, {"name": "988f7b5d2a08e051a915136e823feead", "lon": -77.0514, "lat": 38.90431783333333, "type": "electric_scooter", "fusion_lon": 0.0, "is_reserved": 0, "bike_id": "988f7b5d2a08e051a915136e823feead", "fusion_lat": 0.0, "is_disabled": 0, "rental_uris": {"ios": "https://dc.lft.to/lastmile_qr_scan", "android": "https://dc.lft.to/lastmile_qr_scan"}}, {"name": "6ab1c7b4edf70f2884f5b96f3d19df64", "lon": -76.96865833333334, "lat": 38.87091683333333, "type": "electric_scooter", "fusion_lon": 0.0, "is_reserved": 0, "bike_id": "6ab1c7b4edf70f2884f5b96f3d19df64", "fusion_lat": 0.0, "is_disabled": 0, "rental_uris": {"ios": "https://dc.lft.to/lastmile_qr_scan", "android": "https://dc.lft.to/lastmile_qr_scan"}}, {"name": "f49f4b222b479127950d7cab06ab9662", "lon": -77.02682966666667, "lat": 38.927808666666664, "type": "electric_scooter", "fusion_lon": 0.0, "is_reserved": 0, "bike_id": "f49f4b222b479127950d7cab06ab9662", "fusion_lat": 0.0, "is_disabled": 0, "rental_uris": {"ios": "https://dc.lft.to/lastmile_qr_scan", "android": "https://dc.lft.to/lastmile_qr_scan"}}, {"name": "0817d5deba870010ff28186cebfaab73", "lon": -76.96007866666666, "lat": 38.896447, "type": "electric_scooter", "fusion_lon": 0.0, "is_reserved": 0, "bike_id": "0817d5deba870010ff28186cebfaab73", "fusion_lat": 0.0, "is_disabled": 0, "rental_uris": {"ios": "https://dc.lft.to/lastmile_qr_scan", "android": "https://dc.lft.to/lastmile_qr_scan"}}, {"name": "4e32477abef9dff7bd41c5a968dd55da", "lon": -76.989681, "lat": 38.8653505, "type": "electric_scooter", "fusion_lon": 0.0, "is_reserved": 0, "bike_id": "4e32477abef9dff7bd41c5a968dd55da", "fusion_lat": 0.0, "is_disabled": 0, "rental_uris": {"ios": "https://dc.lft.to/lastmile_qr_scan", "android": "https://dc.lft.to/lastmile_qr_scan"}}, {"name": "719ba44b834693f1a6e3c92ef0a00fe5", "lon": -77.034451, "lat": 38.9101195, "type": "electric_scooter", "fusion_lon": 0.0, "is_reserved": 0, "bike_id": "719ba44b834693f1a6e3c92ef0a00fe5", "fusion_lat": 0.0, "is_disabled": 0, "rental_uris": {"ios": "https://dc.lft.to/lastmile_qr_scan", "android": "https://dc.lft.to/lastmile_qr_scan"}}, {"name": "2c77c3f3ef177e865e3b3113c62fb8a0", "lon": -77.0057655, "lat": 38.885786, "type": "electric_scooter", "fusion_lon": 0.0, "is_reserved": 0, "bike_id": "2c77c3f3ef177e865e3b3113c62fb8a0", "fusion_lat": 0.0, "is_disabled": 0, "rental_uris": {"ios": "https://dc.lft.to/lastmile_qr_scan", "android": "https://dc.lft.to/lastmile_qr_scan"}}, {"name": "5321f752baff4bcb6431a4b305fa6e0e", "lon": -77.0383305, "lat": 38.911174833333334, "type": "electric_scooter", "fusion_lon": 0.0, "is_reserved": 0, "bike_id": "5321f752baff4bcb6431a4b305fa6e0e", "fusion_lat": 0.0, "is_disabled": 0, "rental_uris": {"ios": "https://dc.lft.to/lastmile_qr_scan", "android": "https://dc.lft.to/lastmile_qr_scan"}}, {"name": "3838871c2285ba5edd6d4e4455068a2f", "lon": -77.07432683333333, "lat": 38.9994715, "type": "electric_bike", "fusion_lon": 0.0, "is_reserved": 0, "bike_id": "3838871c2285ba5edd6d4e4455068a2f", "fusion_lat": 0.0, "is_disabled": 0, "rental_uris": {"ios": "https://dc.lft.to/lastmile_qr_scan", "android": "https://dc.lft.to/lastmile_qr_scan"}}, {"name": "00556af57fa21eb8591feaddfdfdf975", "lon": -77.0520465, "lat": 38.924708833333334, "type": "electric_scooter", "fusion_lon": 0.0, "is_reserved": 0, "bike_id": "00556af57fa21eb8591feaddfdfdf975", "fusion_lat": 0.0, "is_disabled": 0, "rental_uris": {"ios": "https://dc.lft.to/lastmile_qr_scan", "android": "https://dc.lft.to/lastmile_qr_scan"}}, {"name": "808a9ad99d436fa0045aeaf46d91272f", "lon": -76.975332, "lat": 38.840135333333336, "type": "electric_bike", "fusion_lon": 0.0, "is_reserved": 0, "bike_id": "808a9ad99d436fa0045aeaf46d91272f", "fusion_lat": 0.0, "is_disabled": 0, "rental_uris": {"ios": "https://dc.lft.to/lastmile_qr_scan", "android": "https://dc.lft.to/lastmile_qr_scan"}}, {"name": "f4aa6f39e465b14e43d9a56004ac216c", "lon": -77.02678766666666, "lat": 38.912627666666666, "type": "electric_scooter", "fusion_lon": 0.0, "is_reserved": 0, "bike_id": "f4aa6f39e465b14e43d9a56004ac216c", "fusion_lat": 0.0, "is_disabled": 0, "rental_uris": {"ios": "https://dc.lft.to/lastmile_qr_scan", "android": "https://dc.lft.to/lastmile_qr_scan"}}, {"name": "799d2c843e0311244eadbcd248117de7", "lon": -77.007647, "lat": 38.82600983333333, "type": "electric_scooter", "fusion_lon": 0.0, "is_reserved": 0, "bike_id": "799d2c843e0311244eadbcd248117de7", "fusion_lat": 0.0, "is_disabled": 0, "rental_uris": {"ios": "https://dc.lft.to/lastmile_qr_scan", "android": "https://dc.lft.to/lastmile_qr_scan"}}, {"name": "0390f38e9134946f4b985d5012a65eb2", "lon": -77.04357483333334, "lat": 38.898459333333335, "type": "electric_scooter", "fusion_lon": 0.0, "is_reserved": 0, "bike_id": "0390f38e9134946f4b985d5012a65eb2", "fusion_lat": 0.0, "is_disabled": 0, "rental_uris": {"ios": "https://dc.lft.to/lastmile_qr_scan", "android": "https://dc.lft.to/lastmile_qr_scan"}}, {"name": "cc711feeb000793a249a6cf05c8aa201", "lon": -76.987096, "lat": 38.86621866666667, "type": "electric_scooter", "fusion_lon": 0.0, "is_reserved": 0, "bike_id": "cc711feeb000793a249a6cf05c8aa201", "fusion_lat": 0.0, "is_disabled": 0, "rental_uris": {"ios": "https://dc.lft.to/lastmile_qr_scan", "android": "https://dc.lft.to/lastmile_qr_scan"}}, {"name": "20a3d3acf8fe0af5fa73bc53e59f75c8", "lon": -77.0243295, "lat": 38.9272645, "type": "electric_scooter", "fusion_lon": 0.0, "is_reserved": 0, "bike_id": "20a3d3acf8fe0af5fa73bc53e59f75c8", "fusion_lat": 0.0, "is_disabled": 0, "rental_uris": {"ios": "https://dc.lft.to/lastmile_qr_scan", "android": "https://dc.lft.to/lastmile_qr_scan"}}, {"name": "a0800428964a898f0b40b8ee119ca4ca", "lon": -77.1248305, "lat": 38.85391766666667, "type": "electric_bike", "fusion_lon": 0.0, "is_reserved": 0, "bike_id": "a0800428964a898f0b40b8ee119ca4ca", "fusion_lat": 0.0, "is_disabled": 0, "rental_uris": {"ios": "https://dc.lft.to/lastmile_qr_scan", "android": "https://dc.lft.to/lastmile_qr_scan"}}, {"name": "c161f892c618681f800f2b774048d793", "lon": -77.09519583333334, "lat": 38.838075333333336, "type": "electric_bike", "fusion_lon": 0.0, "is_reserved": 0, "bike_id": "c161f892c618681f800f2b774048d793", "fusion_lat": 0.0, "is_disabled": 0, "rental_uris": {"ios": "https://dc.lft.to/lastmile_qr_scan", "android": "https://dc.lft.to/lastmile_qr_scan"}}, {"name": "379852e5370d6649e721a06210e90a93", "lon": -77.03850866666667, "lat": 38.915536833333334, "type": "electric_scooter", "fusion_lon": 0.0, "is_reserved": 0, "bike_id": "379852e5370d6649e721a06210e90a93", "fusion_lat": 0.0, "is_disabled": 0, "rental_uris": {"ios": "https://dc.lft.to/lastmile_qr_scan", "android": "https://dc.lft.to/lastmile_qr_scan"}}, {"name": "01122c43d0ca2d226f4ad432dee83747", "lon": -77.030991, "lat": 38.92857866666667, "type": "electric_scooter", "fusion_lon": 0.0, "is_reserved": 0, "bike_id": "01122c43d0ca2d226f4ad432dee83747", "fusion_lat": 0.0, "is_disabled": 0, "rental_uris": {"ios": "https://dc.lft.to/lastmile_qr_scan", "android": "https://dc.lft.to/lastmile_qr_scan"}}, {"name": "b04146110db320b0448143c2f8e89171", "lon": -76.99626916666666, "lat": 38.9003685, "type": "electric_scooter", "fusion_lon": 0.0, "is_reserved": 0, "bike_id": "b04146110db320b0448143c2f8e89171", "fusion_lat": 0.0, "is_disabled": 0, "rental_uris": {"ios": "https://dc.lft.to/lastmile_qr_scan", "android": "https://dc.lft.to/lastmile_qr_scan"}}, {"name": "768ef19dfe58723c7e2f443d2ed00e0d", "lon": -77.0249855, "lat": 38.90632333333333, "type": "electric_scooter", "fusion_lon": 0.0, "is_reserved": 0, "bike_id": "768ef19dfe58723c7e2f443d2ed00e0d", "fusion_lat": 0.0, "is_disabled": 0, "rental_uris": {"ios": "https://dc.lft.to/lastmile_qr_scan", "android": "https://dc.lft.to/lastmile_qr_scan"}}, {"name": "869668779fe438e5ff98b8a32a2738eb", "lon": -77.04825883333334, "lat": 38.91104216666667, "type": "electric_scooter", "fusion_lon": 0.0, "is_reserved": 0, "bike_id": "869668779fe438e5ff98b8a32a2738eb", "fusion_lat": 0.0, "is_disabled": 0, "rental_uris": {"ios": "https://dc.lft.to/lastmile_qr_scan", "android": "https://dc.lft.to/lastmile_qr_scan"}}, {"name": "d792ab18ae75c167828d88030ee62180", "lon": -77.03205383333334, "lat": 38.895304, "type": "electric_scooter", "fusion_lon": 0.0, "is_reserved": 0, "bike_id": "d792ab18ae75c167828d88030ee62180", "fusion_lat": 0.0, "is_disabled": 0, "rental_uris": {"ios": "https://dc.lft.to/lastmile_qr_scan", "android": "https://dc.lft.to/lastmile_qr_scan"}}, {"name": "19434ca266da102697e45b39c7f1111d", "lon": -77.02182316666666, "lat": 38.92495516666666, "type": "electric_scooter", "fusion_lon": 0.0, "is_reserved": 0, "bike_id": "19434ca266da102697e45b39c7f1111d", "fusion_lat": 0.0, "is_disabled": 0, "rental_uris": {"ios": "https://dc.lft.to/lastmile_qr_scan", "android": "https://dc.lft.to/lastmile_qr_scan"}}, {"name": "f54bc04adfafd1c91b38c66f40fbe7a7", "lon": -77.00201766666666, "lat": 38.90237466666667, "type": "electric_scooter", "fusion_lon": 0.0, "is_reserved": 0, "bike_id": "f54bc04adfafd1c91b38c66f40fbe7a7", "fusion_lat": 0.0, "is_disabled": 0, "rental_uris": {"ios": "https://dc.lft.to/lastmile_qr_scan", "android": "https://dc.lft.to/lastmile_qr_scan"}}, {"name": "5c9c6042924b0503628a202e7aa0fc5d", "lon": -77.04310166666667, "lat": 38.905448166666666, "type": "electric_scooter", "fusion_lon": 0.0, "is_reserved": 0, "bike_id": "5c9c6042924b0503628a202e7aa0fc5d", "fusion_lat": 0.0, "is_disabled": 0, "rental_uris": {"ios": "https://dc.lft.to/lastmile_qr_scan", "android": "https://dc.lft.to/lastmile_qr_scan"}}, {"name": "9c41423eb7a0ea47635e06719ee4b7d3", "lon": -76.97556133333333, "lat": 38.92455283333334, "type": "electric_bike", "fusion_lon": 0.0, "is_reserved": 0, "bike_id": "9c41423eb7a0ea47635e06719ee4b7d3", "fusion_lat": 0.0, "is_disabled": 0, "rental_uris": {"ios": "https://dc.lft.to/lastmile_qr_scan", "android": "https://dc.lft.to/lastmile_qr_scan"}}, {"name": "6df110e472576a3aae83353e9dee05c9", "lon": -77.22800583333333, "lat": 38.91011983333333, "type": "electric_bike", "fusion_lon": 0.0, "is_reserved": 0, "bike_id": "6df110e472576a3aae83353e9dee05c9", "fusion_lat": 0.0, "is_disabled": 0, "rental_uris": {"ios": "https://dc.lft.to/lastmile_qr_scan", "android": "https://dc.lft.to/lastmile_qr_scan"}}, {"name": "2ccbc4438b712489c9dd7bce2a0dbb5c", "lon": -77.0456245, "lat": 38.924152166666666, "type": "electric_scooter", "fusion_lon": 0.0, "is_reserved": 0, "bike_id": "2ccbc4438b712489c9dd7bce2a0dbb5c", "fusion_lat": 0.0, "is_disabled": 0, "rental_uris": {"ios": "https://dc.lft.to/lastmile_qr_scan", "android": "https://dc.lft.to/lastmile_qr_scan"}}, {"name": "aa2843e9f2296479ecaa8b7842324ade", "lon": -77.04115666666667, "lat": 38.910531666666664, "type": "electric_scooter", "fusion_lon": 0.0, "is_reserved": 0, "bike_id": "aa2843e9f2296479ecaa8b7842324ade", "fusion_lat": 0.0, "is_disabled": 0, "rental_uris": {"ios": "https://dc.lft.to/lastmile_qr_scan", "android": "https://dc.lft.to/lastmile_qr_scan"}}, {"name": "d0a1cc6791708cb2ff723f317d733364", "lon": -77.014187, "lat": 38.906463, "type": "electric_scooter", "fusion_lon": 0.0, "is_reserved": 0, "bike_id": "d0a1cc6791708cb2ff723f317d733364", "fusion_lat": 0.0, "is_disabled": 0, "rental_uris": {"ios": "https://dc.lft.to/lastmile_qr_scan", "android": "https://dc.lft.to/lastmile_qr_scan"}}, {"name": "e6ecba7afd425422ac70f7e5b4cfbb3a", "lon": -77.04857566666666, "lat": 38.904693333333334, "type": "electric_scooter", "fusion_lon": 0.0, "is_reserved": 0, "bike_id": "e6ecba7afd425422ac70f7e5b4cfbb3a", "fusion_lat": 0.0, "is_disabled": 0, "rental_uris": {"ios": "https://dc.lft.to/lastmile_qr_scan", "android": "https://dc.lft.to/lastmile_qr_scan"}}, {"name": "ad3a0f11e1f60940c3c495ecf6b510c1", "lon": -76.97421683333333, "lat": 38.9323455, "type": "electric_bike", "fusion_lon": 0.0, "is_reserved": 0, "bike_id": "ad3a0f11e1f60940c3c495ecf6b510c1", "fusion_lat": 0.0, "is_disabled": 0, "rental_uris": {"ios": "https://dc.lft.to/lastmile_qr_scan", "android": "https://dc.lft.to/lastmile_qr_scan"}}, {"name": "c6013841a51171e2046b69373842465a", "lon": -77.034095, "lat": 38.928597, "type": "electric_scooter", "fusion_lon": 0.0, "is_reserved": 0, "bike_id": "c6013841a51171e2046b69373842465a", "fusion_lat": 0.0, "is_disabled": 0, "rental_uris": {"ios": "https://dc.lft.to/lastmile_qr_scan", "android": "https://dc.lft.to/lastmile_qr_scan"}}, {"name": "ad0198a144b3626d1cd6ed49cf9084ad", "lon": -76.99411316666666, "lat": 38.921087666666665, "type": "electric_scooter", "fusion_lon": 0.0, "is_reserved": 0, "bike_id": "ad0198a144b3626d1cd6ed49cf9084ad", "fusion_lat": 0.0, "is_disabled": 0, "rental_uris": {"ios": "https://dc.lft.to/lastmile_qr_scan", "android": "https://dc.lft.to/lastmile_qr_scan"}}, {"name": "637f80ef656f18470235c4ca65da55fe", "lon": -77.011024, "lat": 38.895103, "type": "electric_scooter", "fusion_lon": 0.0, "is_reserved": 0, "bike_id": "637f80ef656f18470235c4ca65da55fe", "fusion_lat": 0.0, "is_disabled": 0, "rental_uris": {"ios": "https://dc.lft.to/lastmile_qr_scan", "android": "https://dc.lft.to/lastmile_qr_scan"}}, {"name": "04de950c92dffaf70376d82b9af4e462", "lon": -77.04002516666667, "lat": 38.91261316666667, "type": "electric_scooter", "fusion_lon": 0.0, "is_reserved": 0, "bike_id": "04de950c92dffaf70376d82b9af4e462", "fusion_lat": 0.0, "is_disabled": 0, "rental_uris": {"ios": "https://dc.lft.to/lastmile_qr_scan", "android": "https://dc.lft.to/lastmile_qr_scan"}}, {"name": "5bb5831d176045e480c58a4959bea7c3", "lon": -77.00238583333334, "lat": 38.95719316666667, "type": "electric_scooter", "fusion_lon": 0.0, "is_reserved": 0, "bike_id": "5bb5831d176045e480c58a4959bea7c3", "fusion_lat": 0.0, "is_disabled": 0, "rental_uris": {"ios": "https://dc.lft.to/lastmile_qr_scan", "android": "https://dc.lft.to/lastmile_qr_scan"}}, {"name": "e948a44d9e1826b9bb513bedbafe1480", "lon": -77.0319915, "lat": 38.91426383333334, "type": "electric_scooter", "fusion_lon": 0.0, "is_reserved": 0, "bike_id": "e948a44d9e1826b9bb513bedbafe1480", "fusion_lat": 0.0, "is_disabled": 0, "rental_uris": {"ios": "https://dc.lft.to/lastmile_qr_scan", "android": "https://dc.lft.to/lastmile_qr_scan"}}, {"name": "83babbe97cf351fa26eef302db9aca18", "lon": -77.0286445, "lat": 38.9987405, "type": "electric_bike", "fusion_lon": 0.0, "is_reserved": 0, "bike_id": "83babbe97cf351fa26eef302db9aca18", "fusion_lat": 0.0, "is_disabled": 0, "rental_uris": {"ios": "https://dc.lft.to/lastmile_qr_scan", "android": "https://dc.lft.to/lastmile_qr_scan"}}, {"name": "f9585467ddadaaf17b9e69a92c13f3c7", "lon": -77.047309, "lat": 38.9133535, "type": "electric_scooter", "fusion_lon": 0.0, "is_reserved": 0, "bike_id": "f9585467ddadaaf17b9e69a92c13f3c7", "fusion_lat": 0.0, "is_disabled": 0, "rental_uris": {"ios": "https://dc.lft.to/lastmile_qr_scan", "android": "https://dc.lft.to/lastmile_qr_scan"}}, {"name": "acb89240d7379a2adf2190a5edd74b04", "lon": -76.9565415, "lat": 38.89607066666667, "type": "electric_scooter", "fusion_lon": 0.0, "is_reserved": 0, "bike_id": "acb89240d7379a2adf2190a5edd74b04", "fusion_lat": 0.0, "is_disabled": 0, "rental_uris": {"ios": "https://dc.lft.to/lastmile_qr_scan", "android": "https://dc.lft.to/lastmile_qr_scan"}}, {"name": "ddb6c87cc4d0897a776e5ecfe46e6a09", "lon": -76.96833, "lat": 38.943174, "type": "electric_bike", "fusion_lon": 0.0, "is_reserved": 0, "bike_id": "ddb6c87cc4d0897a776e5ecfe46e6a09", "fusion_lat": 0.0, "is_disabled": 0, "rental_uris": {"ios": "https://dc.lft.to/lastmile_qr_scan", "android": "https://dc.lft.to/lastmile_qr_scan"}}, {"name": "6ad4c3fe7384a91eeca2a206169837d7", "lon": -77.0098555, "lat": 38.87295316666667, "type": "electric_scooter", "fusion_lon": 0.0, "is_reserved": 0, "bike_id": "6ad4c3fe7384a91eeca2a206169837d7", "fusion_lat": 0.0, "is_disabled": 0, "rental_uris": {"ios": "https://dc.lft.to/lastmile_qr_scan", "android": "https://dc.lft.to/lastmile_qr_scan"}}, {"name": "01ac8641afe11c7c68f5458b40f6ab8e", "lon": -76.97348, "lat": 38.849610166666665, "type": "electric_scooter", "fusion_lon": 0.0, "is_reserved": 0, "bike_id": "01ac8641afe11c7c68f5458b40f6ab8e", "fusion_lat": 0.0, "is_disabled": 0, "rental_uris": {"ios": "https://dc.lft.to/lastmile_qr_scan", "android": "https://dc.lft.to/lastmile_qr_scan"}}, {"name": "db8e2611f7a518ba3dd28d8f7edda008", "lon": -77.02370783333333, "lat": 38.919601666666665, "type": "electric_scooter", "fusion_lon": 0.0, "is_reserved": 0, "bike_id": "db8e2611f7a518ba3dd28d8f7edda008", "fusion_lat": 0.0, "is_disabled": 0, "rental_uris": {"ios": "https://dc.lft.to/lastmile_qr_scan", "android": "https://dc.lft.to/lastmile_qr_scan"}}, {"name": "f48fe2b92994eb2e72f1657e1ec3bb3f", "lon": -77.03858483333333, "lat": 38.9155365, "type": "electric_scooter", "fusion_lon": 0.0, "is_reserved": 0, "bike_id": "f48fe2b92994eb2e72f1657e1ec3bb3f", "fusion_lat": 0.0, "is_disabled": 0, "rental_uris": {"ios": "https://dc.lft.to/lastmile_qr_scan", "android": "https://dc.lft.to/lastmile_qr_scan"}}, {"name": "f49dbf80ac560d2940a48218a6fb2f0f", "lon": -77.01759983333334, "lat": 38.87688216666667, "type": "electric_scooter", "fusion_lon": 0.0, "is_reserved": 0, "bike_id": "f49dbf80ac560d2940a48218a6fb2f0f", "fusion_lat": 0.0, "is_disabled": 0, "rental_uris": {"ios": "https://dc.lft.to/lastmile_qr_scan", "android": "https://dc.lft.to/lastmile_qr_scan"}}, {"name": "b2f7c0092748505356b3911be3ff7702", "lon": -77.07325116666667, "lat": 38.927278333333334, "type": "electric_bike", "fusion_lon": 0.0, "is_reserved": 0, "bike_id": "b2f7c0092748505356b3911be3ff7702", "fusion_lat": 0.0, "is_disabled": 0, "rental_uris": {"ios": "https://dc.lft.to/lastmile_qr_scan", "android": "https://dc.lft.to/lastmile_qr_scan"}}, {"name": "21999e9c7d5236f4461315f64741f148", "lon": -77.04645683333334, "lat": 39.055004833333335, "type": "electric_bike", "fusion_lon": 0.0, "is_reserved": 0, "bike_id": "21999e9c7d5236f4461315f64741f148", "fusion_lat": 0.0, "is_disabled": 0, "rental_uris": {"ios": "https://dc.lft.to/lastmile_qr_scan", "android": "https://dc.lft.to/lastmile_qr_scan"}}, {"name": "c14948748f9beb5dcce12207464e68f9", "lon": -77.01347483333333, "lat": 38.8991635, "type": "electric_scooter", "fusion_lon": 0.0, "is_reserved": 0, "bike_id": "c14948748f9beb5dcce12207464e68f9", "fusion_lat": 0.0, "is_disabled": 0, "rental_uris": {"ios": "https://dc.lft.to/lastmile_qr_scan", "android": "https://dc.lft.to/lastmile_qr_scan"}}, {"name": "2292f652bc4106f951573ecf88c9278b", "lon": -77.023766, "lat": 38.919636833333335, "type": "electric_scooter", "fusion_lon": 0.0, "is_reserved": 0, "bike_id": "2292f652bc4106f951573ecf88c9278b", "fusion_lat": 0.0, "is_disabled": 0, "rental_uris": {"ios": "https://dc.lft.to/lastmile_qr_scan", "android": "https://dc.lft.to/lastmile_qr_scan"}}, {"name": "6a65e114ce2f591ea4423add58f7b9b0", "lon": -77.023925, "lat": 38.892539166666666, "type": "electric_scooter", "fusion_lon": 0.0, "is_reserved": 0, "bike_id": "6a65e114ce2f591ea4423add58f7b9b0", "fusion_lat": 0.0, "is_disabled": 0, "rental_uris": {"ios": "https://dc.lft.to/lastmile_qr_scan", "android": "https://dc.lft.to/lastmile_qr_scan"}}, {"name": "358a9ab985029189f7cba9bb0947463a", "lon": -77.02334483333334, "lat": 38.93601016666667, "type": "electric_scooter", "fusion_lon": 0.0, "is_reserved": 0, "bike_id": "358a9ab985029189f7cba9bb0947463a", "fusion_lat": 0.0, "is_disabled": 0, "rental_uris": {"ios": "https://dc.lft.to/lastmile_qr_scan", "android": "https://dc.lft.to/lastmile_qr_scan"}}, {"name": "98d6bda4a3316abce1a29a24900a7cfb", "lon": -77.02947966666666, "lat": 38.9050055, "type": "electric_scooter", "fusion_lon": 0.0, "is_reserved": 0, "bike_id": "98d6bda4a3316abce1a29a24900a7cfb", "fusion_lat": 0.0, "is_disabled": 0, "rental_uris": {"ios": "https://dc.lft.to/lastmile_qr_scan", "android": "https://dc.lft.to/lastmile_qr_scan"}}, {"name": "782474230695988930bfc0e2cfaacec3", "lon": -77.02279883333334, "lat": 38.9164435, "type": "electric_scooter", "fusion_lon": 0.0, "is_reserved": 0, "bike_id": "782474230695988930bfc0e2cfaacec3", "fusion_lat": 0.0, "is_disabled": 0, "rental_uris": {"ios": "https://dc.lft.to/lastmile_qr_scan", "android": "https://dc.lft.to/lastmile_qr_scan"}}, {"name": "c999dfd486c6704c1efee4148e9e7dbe", "lon": -77.02470983333333, "lat": 38.932945333333336, "type": "electric_scooter", "fusion_lon": 0.0, "is_reserved": 0, "bike_id": "c999dfd486c6704c1efee4148e9e7dbe", "fusion_lat": 0.0, "is_disabled": 0, "rental_uris": {"ios": "https://dc.lft.to/lastmile_qr_scan", "android": "https://dc.lft.to/lastmile_qr_scan"}}, {"name": "e5e6381a6dc250e0b7a613988562edba", "lon": -77.02910383333334, "lat": 38.898368833333336, "type": "electric_scooter", "fusion_lon": 0.0, "is_reserved": 0, "bike_id": "e5e6381a6dc250e0b7a613988562edba", "fusion_lat": 0.0, "is_disabled": 0, "rental_uris": {"ios": "https://dc.lft.to/lastmile_qr_scan", "android": "https://dc.lft.to/lastmile_qr_scan"}}, {"name": "d6199909314937341044de0f31f51790", "lon": -77.0346935, "lat": 38.917032666666664, "type": "electric_scooter", "fusion_lon": 0.0, "is_reserved": 0, "bike_id": "d6199909314937341044de0f31f51790", "fusion_lat": 0.0, "is_disabled": 0, "rental_uris": {"ios": "https://dc.lft.to/lastmile_qr_scan", "android": "https://dc.lft.to/lastmile_qr_scan"}}, {"name": "445f97cce29761131aa81b331dec596e", "lon": -77.02690683333333, "lat": 38.91344566666667, "type": "electric_scooter", "fusion_lon": 0.0, "is_reserved": 0, "bike_id": "445f97cce29761131aa81b331dec596e", "fusion_lat": 0.0, "is_disabled": 0, "rental_uris": {"ios": "https://dc.lft.to/lastmile_qr_scan", "android": "https://dc.lft.to/lastmile_qr_scan"}}, {"name": "c22ea2d71c20180e2be8c944e68565a1", "lon": -77.02386216666666, "lat": 38.91991733333333, "type": "electric_scooter", "fusion_lon": 0.0, "is_reserved": 0, "bike_id": "c22ea2d71c20180e2be8c944e68565a1", "fusion_lat": 0.0, "is_disabled": 0, "rental_uris": {"ios": "https://dc.lft.to/lastmile_qr_scan", "android": "https://dc.lft.to/lastmile_qr_scan"}}, {"name": "cfdfaaf9990d272f72f9750df5ea83d8", "lon": -77.04566533333333, "lat": 38.91770483333333, "type": "electric_scooter", "fusion_lon": 0.0, "is_reserved": 0, "bike_id": "cfdfaaf9990d272f72f9750df5ea83d8", "fusion_lat": 0.0, "is_disabled": 0, "rental_uris": {"ios": "https://dc.lft.to/lastmile_qr_scan", "android": "https://dc.lft.to/lastmile_qr_scan"}}, {"name": "bd196f5a93d88a55ba03c1f912040678", "lon": -77.00918, "lat": 38.8955375, "type": "electric_scooter", "fusion_lon": 0.0, "is_reserved": 0, "bike_id": "bd196f5a93d88a55ba03c1f912040678", "fusion_lat": 0.0, "is_disabled": 0, "rental_uris": {"ios": "https://dc.lft.to/lastmile_qr_scan", "android": "https://dc.lft.to/lastmile_qr_scan"}}, {"name": "5fb6fef68350577f4a1cf4b85226971c", "lon": -77.04155616666667, "lat": 38.919508, "type": "electric_scooter", "fusion_lon": 0.0, "is_reserved": 0, "bike_id": "5fb6fef68350577f4a1cf4b85226971c", "fusion_lat": 0.0, "is_disabled": 0, "rental_uris": {"ios": "https://dc.lft.to/lastmile_qr_scan", "android": "https://dc.lft.to/lastmile_qr_scan"}}, {"name": "c7df172290b74196b5c5b6defa917298", "lon": -77.06263766666666, "lat": 38.90539016666666, "type": "electric_bike", "fusion_lon": 0.0, "is_reserved": 0, "bike_id": "c7df172290b74196b5c5b6defa917298", "fusion_lat": 0.0, "is_disabled": 0, "rental_uris": {"ios": "https://dc.lft.to/lastmile_qr_scan", "android": "https://dc.lft.to/lastmile_qr_scan"}}, {"name": "870a2468ed2bc83e3707900365d068b9", "lon": -77.04106333333333, "lat": 38.92796, "type": "electric_scooter", "fusion_lon": 0.0, "is_reserved": 0, "bike_id": "870a2468ed2bc83e3707900365d068b9", "fusion_lat": 0.0, "is_disabled": 0, "rental_uris": {"ios": "https://dc.lft.to/lastmile_qr_scan", "android": "https://dc.lft.to/lastmile_qr_scan"}}, {"name": "2cbdaeb0f3e7bc23ca7b36e5d9df414e", "lon": -77.04465683333333, "lat": 38.908634166666666, "type": "electric_scooter", "fusion_lon": 0.0, "is_reserved": 0, "bike_id": "2cbdaeb0f3e7bc23ca7b36e5d9df414e", "fusion_lat": 0.0, "is_disabled": 0, "rental_uris": {"ios": "https://dc.lft.to/lastmile_qr_scan", "android": "https://dc.lft.to/lastmile_qr_scan"}}, {"name": "2965953af4b5bc344264f028da1f7507", "lon": -76.993018, "lat": 38.900037833333336, "type": "electric_scooter", "fusion_lon": 0.0, "is_reserved": 0, "bike_id": "2965953af4b5bc344264f028da1f7507", "fusion_lat": 0.0, "is_disabled": 0, "rental_uris": {"ios": "https://dc.lft.to/lastmile_qr_scan", "android": "https://dc.lft.to/lastmile_qr_scan"}}, {"name": "8f9aec3e597d072134a9a79435fcf357", "lon": -77.01762833333333, "lat": 38.8768515, "type": "electric_scooter", "fusion_lon": 0.0, "is_reserved": 0, "bike_id": "8f9aec3e597d072134a9a79435fcf357", "fusion_lat": 0.0, "is_disabled": 0, "rental_uris": {"ios": "https://dc.lft.to/lastmile_qr_scan", "android": "https://dc.lft.to/lastmile_qr_scan"}}, {"name": "bbe52d9bab069d524fb110d08027cb63", "lon": -77.0469905, "lat": 38.915765, "type": "electric_scooter", "fusion_lon": 0.0, "is_reserved": 0, "bike_id": "bbe52d9bab069d524fb110d08027cb63", "fusion_lat": 0.0, "is_disabled": 0, "rental_uris": {"ios": "https://dc.lft.to/lastmile_qr_scan", "android": "https://dc.lft.to/lastmile_qr_scan"}}, {"name": "e3b7a8de5124b977533e85106da55cdb", "lon": -77.04999016666666, "lat": 38.892324, "type": "electric_scooter", "fusion_lon": 0.0, "is_reserved": 0, "bike_id": "e3b7a8de5124b977533e85106da55cdb", "fusion_lat": 0.0, "is_disabled": 0, "rental_uris": {"ios": "https://dc.lft.to/lastmile_qr_scan", "android": "https://dc.lft.to/lastmile_qr_scan"}}, {"name": "57848dd6c7f7bac9af0f5006f09210b2", "lon": -77.014042, "lat": 38.887437166666665, "type": "electric_scooter", "fusion_lon": 0.0, "is_reserved": 0, "bike_id": "57848dd6c7f7bac9af0f5006f09210b2", "fusion_lat": 0.0, "is_disabled": 0, "rental_uris": {"ios": "https://dc.lft.to/lastmile_qr_scan", "android": "https://dc.lft.to/lastmile_qr_scan"}}, {"name": "a9773a44402210c4fe5560081eed448a", "lon": -77.03647683333334, "lat": 38.903836, "type": "electric_scooter", "fusion_lon": 0.0, "is_reserved": 0, "bike_id": "a9773a44402210c4fe5560081eed448a", "fusion_lat": 0.0, "is_disabled": 0, "rental_uris": {"ios": "https://dc.lft.to/lastmile_qr_scan", "android": "https://dc.lft.to/lastmile_qr_scan"}}, {"name": "f7e3681bb01626421339e917abde496f", "lon": -77.02941783333333, "lat": 38.920727666666664, "type": "electric_scooter", "fusion_lon": 0.0, "is_reserved": 0, "bike_id": "f7e3681bb01626421339e917abde496f", "fusion_lat": 0.0, "is_disabled": 0, "rental_uris": {"ios": "https://dc.lft.to/lastmile_qr_scan", "android": "https://dc.lft.to/lastmile_qr_scan"}}, {"name": "e9725b41cc7d82a04bf5b5107d97be58", "lon": -77.02672933333334, "lat": 38.902313666666664, "type": "electric_scooter", "fusion_lon": 0.0, "is_reserved": 0, "bike_id": "e9725b41cc7d82a04bf5b5107d97be58", "fusion_lat": 0.0, "is_disabled": 0, "rental_uris": {"ios": "https://dc.lft.to/lastmile_qr_scan", "android": "https://dc.lft.to/lastmile_qr_scan"}}, {"name": "6717161bc22b56a83c347ac4a014e75a", "lon": -77.09460366666667, "lat": 38.88609, "type": "electric_bike", "fusion_lon": 0.0, "is_reserved": 0, "bike_id": "6717161bc22b56a83c347ac4a014e75a", "fusion_lat": 0.0, "is_disabled": 0, "rental_uris": {"ios": "https://dc.lft.to/lastmile_qr_scan", "android": "https://dc.lft.to/lastmile_qr_scan"}}, {"name": "59c87378748dfc4d02732fe2d4ed5984", "lon": -76.93733216666666, "lat": 38.89014, "type": "electric_scooter", "fusion_lon": 0.0, "is_reserved": 0, "bike_id": "59c87378748dfc4d02732fe2d4ed5984", "fusion_lat": 0.0, "is_disabled": 0, "rental_uris": {"ios": "https://dc.lft.to/lastmile_qr_scan", "android": "https://dc.lft.to/lastmile_qr_scan"}}, {"name": "fbc16731f2482548e802f4e9eecb9b4e", "lon": -77.03535033333333, "lat": 38.907651, "type": "electric_scooter", "fusion_lon": 0.0, "is_reserved": 0, "bike_id": "fbc16731f2482548e802f4e9eecb9b4e", "fusion_lat": 0.0, "is_disabled": 0, "rental_uris": {"ios": "https://dc.lft.to/lastmile_qr_scan", "android": "https://dc.lft.to/lastmile_qr_scan"}}, {"name": "8d718c5ad1b4929ef9c367114bc45e5b", "lon": -77.02896683333333, "lat": 38.88751216666667, "type": "electric_scooter", "fusion_lon": 0.0, "is_reserved": 0, "bike_id": "8d718c5ad1b4929ef9c367114bc45e5b", "fusion_lat": 0.0, "is_disabled": 0, "rental_uris": {"ios": "https://dc.lft.to/lastmile_qr_scan", "android": "https://dc.lft.to/lastmile_qr_scan"}}, {"name": "ab42c2fde16765328a42d267866befd9", "lon": -77.0412675, "lat": 38.921736333333335, "type": "electric_scooter", "fusion_lon": 0.0, "is_reserved": 0, "bike_id": "ab42c2fde16765328a42d267866befd9", "fusion_lat": 0.0, "is_disabled": 0, "rental_uris": {"ios": "https://dc.lft.to/lastmile_qr_scan", "android": "https://dc.lft.to/lastmile_qr_scan"}}, {"name": "dfdec1b15bce046351127c1fc83134b9", "lon": -77.0326685, "lat": 38.9276685, "type": "electric_scooter", "fusion_lon": 0.0, "is_reserved": 0, "bike_id": "dfdec1b15bce046351127c1fc83134b9", "fusion_lat": 0.0, "is_disabled": 0, "rental_uris": {"ios": "https://dc.lft.to/lastmile_qr_scan", "android": "https://dc.lft.to/lastmile_qr_scan"}}, {"name": "191b67ddfe4d81acfd0a131027241735", "lon": -77.00340983333334, "lat": 38.889832166666665, "type": "electric_scooter", "fusion_lon": 0.0, "is_reserved": 0, "bike_id": "191b67ddfe4d81acfd0a131027241735", "fusion_lat": 0.0, "is_disabled": 0, "rental_uris": {"ios": "https://dc.lft.to/lastmile_qr_scan", "android": "https://dc.lft.to/lastmile_qr_scan"}}, {"name": "a9b1ff32c286fbfa4718fbc5c8eb5e3f", "lon": -77.02195616666667, "lat": 38.91125266666667, "type": "electric_scooter", "fusion_lon": 0.0, "is_reserved": 0, "bike_id": "a9b1ff32c286fbfa4718fbc5c8eb5e3f", "fusion_lat": 0.0, "is_disabled": 0, "rental_uris": {"ios": "https://dc.lft.to/lastmile_qr_scan", "android": "https://dc.lft.to/lastmile_qr_scan"}}, {"name": "2d9033d71207ad2bc453d5572c6d10ad", "lon": -76.98840566666667, "lat": 38.9003335, "type": "electric_scooter", "fusion_lon": 0.0, "is_reserved": 0, "bike_id": "2d9033d71207ad2bc453d5572c6d10ad", "fusion_lat": 0.0, "is_disabled": 0, "rental_uris": {"ios": "https://dc.lft.to/lastmile_qr_scan", "android": "https://dc.lft.to/lastmile_qr_scan"}}, {"name": "62efee9ee7f8d3bf08872147a8c6784c", "lon": -77.0236875, "lat": 38.902176833333336, "type": "electric_scooter", "fusion_lon": 0.0, "is_reserved": 0, "bike_id": "62efee9ee7f8d3bf08872147a8c6784c", "fusion_lat": 0.0, "is_disabled": 0, "rental_uris": {"ios": "https://dc.lft.to/lastmile_qr_scan", "android": "https://dc.lft.to/lastmile_qr_scan"}}, {"name": "efb8de5d214875be551dc14fb55cd790", "lon": -77.04182216666666, "lat": 38.8922275, "type": "electric_scooter", "fusion_lon": 0.0, "is_reserved": 0, "bike_id": "efb8de5d214875be551dc14fb55cd790", "fusion_lat": 0.0, "is_disabled": 0, "rental_uris": {"ios": "https://dc.lft.to/lastmile_qr_scan", "android": "https://dc.lft.to/lastmile_qr_scan"}}, {"name": "ff592f64ec831671fbfe13bc8da5b226", "lon": -77.04651183333333, "lat": 38.90555616666666, "type": "electric_scooter", "fusion_lon": 0.0, "is_reserved": 0, "bike_id": "ff592f64ec831671fbfe13bc8da5b226", "fusion_lat": 0.0, "is_disabled": 0, "rental_uris": {"ios": "https://dc.lft.to/lastmile_qr_scan", "android": "https://dc.lft.to/lastmile_qr_scan"}}, {"name": "b5cd88b69520b019a0f2fd10995825c5", "lon": -77.03830883333333, "lat": 38.92156766666667, "type": "electric_scooter", "fusion_lon": 0.0, "is_reserved": 0, "bike_id": "b5cd88b69520b019a0f2fd10995825c5", "fusion_lat": 0.0, "is_disabled": 0, "rental_uris": {"ios": "https://dc.lft.to/lastmile_qr_scan", "android": "https://dc.lft.to/lastmile_qr_scan"}}, {"name": "c966bcf8a6652e6fa695b06c27dbdeb1", "lon": -77.03764183333334, "lat": 38.9169305, "type": "electric_scooter", "fusion_lon": 0.0, "is_reserved": 0, "bike_id": "c966bcf8a6652e6fa695b06c27dbdeb1", "fusion_lat": 0.0, "is_disabled": 0, "rental_uris": {"ios": "https://dc.lft.to/lastmile_qr_scan", "android": "https://dc.lft.to/lastmile_qr_scan"}}, {"name": "a277f082124a30852bd816ac7d376f91", "lon": -77.03117283333333, "lat": 38.915594, "type": "electric_scooter", "fusion_lon": 0.0, "is_reserved": 0, "bike_id": "a277f082124a30852bd816ac7d376f91", "fusion_lat": 0.0, "is_disabled": 0, "rental_uris": {"ios": "https://dc.lft.to/lastmile_qr_scan", "android": "https://dc.lft.to/lastmile_qr_scan"}}, {"name": "258d3c0177d791e8107d2856ebddbf3e", "lon": -77.0270735, "lat": 38.90682616666667, "type": "electric_scooter", "fusion_lon": 0.0, "is_reserved": 0, "bike_id": "258d3c0177d791e8107d2856ebddbf3e", "fusion_lat": 0.0, "is_disabled": 0, "rental_uris": {"ios": "https://dc.lft.to/lastmile_qr_scan", "android": "https://dc.lft.to/lastmile_qr_scan"}}, {"name": "25e8d4c970f3fa93cdf7dbd172184bba", "lon": -77.0219895, "lat": 38.91392783333333, "type": "electric_scooter", "fusion_lon": 0.0, "is_reserved": 0, "bike_id": "25e8d4c970f3fa93cdf7dbd172184bba", "fusion_lat": 0.0, "is_disabled": 0, "rental_uris": {"ios": "https://dc.lft.to/lastmile_qr_scan", "android": "https://dc.lft.to/lastmile_qr_scan"}}, {"name": "8bcf558e2db119d83ad983422e7da8c1", "lon": -76.997091, "lat": 38.844224, "type": "electric_scooter", "fusion_lon": 0.0, "is_reserved": 0, "bike_id": "8bcf558e2db119d83ad983422e7da8c1", "fusion_lat": 0.0, "is_disabled": 0, "rental_uris": {"ios": "https://dc.lft.to/lastmile_qr_scan", "android": "https://dc.lft.to/lastmile_qr_scan"}}, {"name": "1d47e55c8bd7f4ccc0457874132ad16e", "lon": -77.0238925, "lat": 38.91648283333333, "type": "electric_scooter", "fusion_lon": 0.0, "is_reserved": 0, "bike_id": "1d47e55c8bd7f4ccc0457874132ad16e", "fusion_lat": 0.0, "is_disabled": 0, "rental_uris": {"ios": "https://dc.lft.to/lastmile_qr_scan", "android": "https://dc.lft.to/lastmile_qr_scan"}}, {"name": "aaa3debb089116499c869c9b778d21ff", "lon": -77.031899, "lat": 38.90769216666666, "type": "electric_scooter", "fusion_lon": 0.0, "is_reserved": 0, "bike_id": "aaa3debb089116499c869c9b778d21ff", "fusion_lat": 0.0, "is_disabled": 0, "rental_uris": {"ios": "https://dc.lft.to/lastmile_qr_scan", "android": "https://dc.lft.to/lastmile_qr_scan"}}, {"name": "a08f9e260c4364404d6f60e969eba600", "lon": -77.0058225, "lat": 38.875429, "type": "electric_scooter", "fusion_lon": 0.0, "is_reserved": 0, "bike_id": "a08f9e260c4364404d6f60e969eba600", "fusion_lat": 0.0, "is_disabled": 0, "rental_uris": {"ios": "https://dc.lft.to/lastmile_qr_scan", "android": "https://dc.lft.to/lastmile_qr_scan"}}, {"name": "ea4f4d133095da1f6fb8f42be045a040", "lon": -76.98841783333333, "lat": 38.89254966666667, "type": "electric_scooter", "fusion_lon": 0.0, "is_reserved": 0, "bike_id": "ea4f4d133095da1f6fb8f42be045a040", "fusion_lat": 0.0, "is_disabled": 0, "rental_uris": {"ios": "https://dc.lft.to/lastmile_qr_scan", "android": "https://dc.lft.to/lastmile_qr_scan"}}, {"name": "3cc92a8288fffa799db826431643e64d", "lon": -77.048525, "lat": 38.919673333333336, "type": "electric_scooter", "fusion_lon": 0.0, "is_reserved": 0, "bike_id": "3cc92a8288fffa799db826431643e64d", "fusion_lat": 0.0, "is_disabled": 0, "rental_uris": {"ios": "https://dc.lft.to/lastmile_qr_scan", "android": "https://dc.lft.to/lastmile_qr_scan"}}, {"name": "32cc0b718d538e0705196702dcd820a8", "lon": -77.02295533333333, "lat": 38.92805033333333, "type": "electric_scooter", "fusion_lon": 0.0, "is_reserved": 0, "bike_id": "32cc0b718d538e0705196702dcd820a8", "fusion_lat": 0.0, "is_disabled": 0, "rental_uris": {"ios": "https://dc.lft.to/lastmile_qr_scan", "android": "https://dc.lft.to/lastmile_qr_scan"}}, {"name": "4629ce7ab1ec1a1408553617aa62685b", "lon": -77.00440283333333, "lat": 38.8767125, "type": "electric_scooter", "fusion_lon": 0.0, "is_reserved": 0, "bike_id": "4629ce7ab1ec1a1408553617aa62685b", "fusion_lat": 0.0, "is_disabled": 0, "rental_uris": {"ios": "https://dc.lft.to/lastmile_qr_scan", "android": "https://dc.lft.to/lastmile_qr_scan"}}, {"name": "5e740eb0c039671c2c10d1d99dbf7b09", "lon": -77.03581533333333, "lat": 38.919219166666664, "type": "electric_bike", "fusion_lon": 0.0, "is_reserved": 0, "bike_id": "5e740eb0c039671c2c10d1d99dbf7b09", "fusion_lat": 0.0, "is_disabled": 0, "rental_uris": {"ios": "https://dc.lft.to/lastmile_qr_scan", "android": "https://dc.lft.to/lastmile_qr_scan"}}, {"name": "e8c9a79c809c8a0b6faf91a6bc1e0ce2", "lon": -77.02693133333334, "lat": 38.90428333333333, "type": "electric_scooter", "fusion_lon": 0.0, "is_reserved": 0, "bike_id": "e8c9a79c809c8a0b6faf91a6bc1e0ce2", "fusion_lat": 0.0, "is_disabled": 0, "rental_uris": {"ios": "https://dc.lft.to/lastmile_qr_scan", "android": "https://dc.lft.to/lastmile_qr_scan"}}, {"name": "29aeaabfeee7e480cc156b3320dc2282", "lon": -77.03838633333334, "lat": 38.91191416666667, "type": "electric_scooter", "fusion_lon": 0.0, "is_reserved": 0, "bike_id": "29aeaabfeee7e480cc156b3320dc2282", "fusion_lat": 0.0, "is_disabled": 0, "rental_uris": {"ios": "https://dc.lft.to/lastmile_qr_scan", "android": "https://dc.lft.to/lastmile_qr_scan"}}, {"name": "6df69eec3bf7f6c6aaa44cf76a281d7f", "lon": -77.04817066666666, "lat": 38.910423, "type": "electric_scooter", "fusion_lon": 0.0, "is_reserved": 0, "bike_id": "6df69eec3bf7f6c6aaa44cf76a281d7f", "fusion_lat": 0.0, "is_disabled": 0, "rental_uris": {"ios": "https://dc.lft.to/lastmile_qr_scan", "android": "https://dc.lft.to/lastmile_qr_scan"}}, {"name": "1cdb4909d913103442c4cf835f0d0b1e", "lon": -76.99808216666666, "lat": 38.885648333333336, "type": "electric_scooter", "fusion_lon": 0.0, "is_reserved": 0, "bike_id": "1cdb4909d913103442c4cf835f0d0b1e", "fusion_lat": 0.0, "is_disabled": 0, "rental_uris": {"ios": "https://dc.lft.to/lastmile_qr_scan", "android": "https://dc.lft.to/lastmile_qr_scan"}}, {"name": "f71194108e88967284746f0a294b8832", "lon": -77.021912, "lat": 38.90581983333333, "type": "electric_scooter", "fusion_lon": 0.0, "is_reserved": 0, "bike_id": "f71194108e88967284746f0a294b8832", "fusion_lat": 0.0, "is_disabled": 0, "rental_uris": {"ios": "https://dc.lft.to/lastmile_qr_scan", "android": "https://dc.lft.to/lastmile_qr_scan"}}, {"name": "1c45eb825006e56d19393bdaaf38085c", "lon": -77.051215, "lat": 38.923438, "type": "electric_scooter", "fusion_lon": 0.0, "is_reserved": 0, "bike_id": "1c45eb825006e56d19393bdaaf38085c", "fusion_lat": 0.0, "is_disabled": 0, "rental_uris": {"ios": "https://dc.lft.to/lastmile_qr_scan", "android": "https://dc.lft.to/lastmile_qr_scan"}}, {"name": "09b7a414fbc2655a33af50fdcd09bd60", "lon": -77.02163283333333, "lat": 38.9260775, "type": "electric_scooter", "fusion_lon": 0.0, "is_reserved": 0, "bike_id": "09b7a414fbc2655a33af50fdcd09bd60", "fusion_lat": 0.0, "is_disabled": 0, "rental_uris": {"ios": "https://dc.lft.to/lastmile_qr_scan", "android": "https://dc.lft.to/lastmile_qr_scan"}}, {"name": "6582dba7e97ad1faa1462214a0729c94", "lon": -77.064212, "lat": 38.94554566666667, "type": "electric_scooter", "fusion_lon": 0.0, "is_reserved": 0, "bike_id": "6582dba7e97ad1faa1462214a0729c94", "fusion_lat": 0.0, "is_disabled": 0, "rental_uris": {"ios": "https://dc.lft.to/lastmile_qr_scan", "android": "https://dc.lft.to/lastmile_qr_scan"}}, {"name": "bba10b397f38b6c779238343e6ce64a9", "lon": -77.02980666666667, "lat": 38.934497, "type": "electric_scooter", "fusion_lon": 0.0, "is_reserved": 0, "bike_id": "bba10b397f38b6c779238343e6ce64a9", "fusion_lat": 0.0, "is_disabled": 0, "rental_uris": {"ios": "https://dc.lft.to/lastmile_qr_scan", "android": "https://dc.lft.to/lastmile_qr_scan"}}, {"name": "34ac67189bc4f90568d8dad5442ca116", "lon": -77.0184355, "lat": 38.903923666666664, "type": "electric_scooter", "fusion_lon": 0.0, "is_reserved": 0, "bike_id": "34ac67189bc4f90568d8dad5442ca116", "fusion_lat": 0.0, "is_disabled": 0, "rental_uris": {"ios": "https://dc.lft.to/lastmile_qr_scan", "android": "https://dc.lft.to/lastmile_qr_scan"}}, {"name": "f2cd2c413b0dfa356e09e91c32691067", "lon": -77.044951, "lat": 38.91325966666667, "type": "electric_scooter", "fusion_lon": 0.0, "is_reserved": 0, "bike_id": "f2cd2c413b0dfa356e09e91c32691067", "fusion_lat": 0.0, "is_disabled": 0, "rental_uris": {"ios": "https://dc.lft.to/lastmile_qr_scan", "android": "https://dc.lft.to/lastmile_qr_scan"}}, {"name": "135eef40ed4e6db9f1e4809778b5cbd0", "lon": -77.017253, "lat": 38.8727115, "type": "electric_scooter", "fusion_lon": 0.0, "is_reserved": 0, "bike_id": "135eef40ed4e6db9f1e4809778b5cbd0", "fusion_lat": 0.0, "is_disabled": 0, "rental_uris": {"ios": "https://dc.lft.to/lastmile_qr_scan", "android": "https://dc.lft.to/lastmile_qr_scan"}}, {"name": "65d9f4834004665e655e4f94a71a3499", "lon": -77.02453283333334, "lat": 38.91806833333333, "type": "electric_scooter", "fusion_lon": 0.0, "is_reserved": 0, "bike_id": "65d9f4834004665e655e4f94a71a3499", "fusion_lat": 0.0, "is_disabled": 0, "rental_uris": {"ios": "https://dc.lft.to/lastmile_qr_scan", "android": "https://dc.lft.to/lastmile_qr_scan"}}, {"name": "7a5ad8b7793b9f996a69d390f82a1afa", "lon": -77.0333325, "lat": 38.89826383333333, "type": "electric_scooter", "fusion_lon": 0.0, "is_reserved": 0, "bike_id": "7a5ad8b7793b9f996a69d390f82a1afa", "fusion_lat": 0.0, "is_disabled": 0, "rental_uris": {"ios": "https://dc.lft.to/lastmile_qr_scan", "android": "https://dc.lft.to/lastmile_qr_scan"}}, {"name": "36df2494ef164058789a13aa9ba84907", "lon": -77.03883516666667, "lat": 38.9325395, "type": "electric_scooter", "fusion_lon": 0.0, "is_reserved": 0, "bike_id": "36df2494ef164058789a13aa9ba84907", "fusion_lat": 0.0, "is_disabled": 0, "rental_uris": {"ios": "https://dc.lft.to/lastmile_qr_scan", "android": "https://dc.lft.to/lastmile_qr_scan"}}, {"name": "0f9b2277b488ad0a72a5c6fd3b4dd9e9", "lon": -77.05120766666667, "lat": 38.92360333333333, "type": "electric_scooter", "fusion_lon": 0.0, "is_reserved": 0, "bike_id": "0f9b2277b488ad0a72a5c6fd3b4dd9e9", "fusion_lat": 0.0, "is_disabled": 0, "rental_uris": {"ios": "https://dc.lft.to/lastmile_qr_scan", "android": "https://dc.lft.to/lastmile_qr_scan"}}, {"name": "1ec509a406f1781f79dc3194129aebbb", "lon": -76.99409983333334, "lat": 38.87784666666667, "type": "electric_scooter", "fusion_lon": 0.0, "is_reserved": 0, "bike_id": "1ec509a406f1781f79dc3194129aebbb", "fusion_lat": 0.0, "is_disabled": 0, "rental_uris": {"ios": "https://dc.lft.to/lastmile_qr_scan", "android": "https://dc.lft.to/lastmile_qr_scan"}}, {"name": "972fa75d63bb0d83a1a518850d9fb53e", "lon": -77.01754333333334, "lat": 38.8749885, "type": "electric_scooter", "fusion_lon": 0.0, "is_reserved": 0, "bike_id": "972fa75d63bb0d83a1a518850d9fb53e", "fusion_lat": 0.0, "is_disabled": 0, "rental_uris": {"ios": "https://dc.lft.to/lastmile_qr_scan", "android": "https://dc.lft.to/lastmile_qr_scan"}}, {"name": "58bda27c8e54cf7e43dd03fe3ff87c24", "lon": -77.04924616666666, "lat": 38.81344083333333, "type": "electric_bike", "fusion_lon": 0.0, "is_reserved": 0, "bike_id": "58bda27c8e54cf7e43dd03fe3ff87c24", "fusion_lat": 0.0, "is_disabled": 0, "rental_uris": {"ios": "https://dc.lft.to/lastmile_qr_scan", "android": "https://dc.lft.to/lastmile_qr_scan"}}, {"name": "e8a661f21b5fcf284c4a50723452fc5d", "lon": -77.0882135, "lat": 38.9097135, "type": "electric_bike", "fusion_lon": 0.0, "is_reserved": 0, "bike_id": "e8a661f21b5fcf284c4a50723452fc5d", "fusion_lat": 0.0, "is_disabled": 0, "rental_uris": {"ios": "https://dc.lft.to/lastmile_qr_scan", "android": "https://dc.lft.to/lastmile_qr_scan"}}, {"name": "d4cc931141b67747ce6ad1926c2cf6b5", "lon": -77.023707, "lat": 38.896201833333336, "type": "electric_scooter", "fusion_lon": 0.0, "is_reserved": 0, "bike_id": "d4cc931141b67747ce6ad1926c2cf6b5", "fusion_lat": 0.0, "is_disabled": 0, "rental_uris": {"ios": "https://dc.lft.to/lastmile_qr_scan", "android": "https://dc.lft.to/lastmile_qr_scan"}}, {"name": "dc9730859b7bd5eb2e67d313c25ec0c4", "lon": -77.0364365, "lat": 38.92347866666667, "type": "electric_scooter", "fusion_lon": 0.0, "is_reserved": 0, "bike_id": "dc9730859b7bd5eb2e67d313c25ec0c4", "fusion_lat": 0.0, "is_disabled": 0, "rental_uris": {"ios": "https://dc.lft.to/lastmile_qr_scan", "android": "https://dc.lft.to/lastmile_qr_scan"}}, {"name": "5b143ff7e2764af7638000097fbff4d9", "lon": -77.01756416666667, "lat": 38.877220333333334, "type": "electric_scooter", "fusion_lon": 0.0, "is_reserved": 0, "bike_id": "5b143ff7e2764af7638000097fbff4d9", "fusion_lat": 0.0, "is_disabled": 0, "rental_uris": {"ios": "https://dc.lft.to/lastmile_qr_scan", "android": "https://dc.lft.to/lastmile_qr_scan"}}, {"name": "34d0d85bf978f2e5e70ad8821301ef37", "lon": -77.034404, "lat": 38.930956333333334, "type": "electric_scooter", "fusion_lon": 0.0, "is_reserved": 0, "bike_id": "34d0d85bf978f2e5e70ad8821301ef37", "fusion_lat": 0.0, "is_disabled": 0, "rental_uris": {"ios": "https://dc.lft.to/lastmile_qr_scan", "android": "https://dc.lft.to/lastmile_qr_scan"}}, {"name": "36a27e9e1a41f58bbb287d51d8589503", "lon": -77.00497666666666, "lat": 38.896861666666666, "type": "electric_scooter", "fusion_lon": 0.0, "is_reserved": 0, "bike_id": "36a27e9e1a41f58bbb287d51d8589503", "fusion_lat": 0.0, "is_disabled": 0, "rental_uris": {"ios": "https://dc.lft.to/lastmile_qr_scan", "android": "https://dc.lft.to/lastmile_qr_scan"}}, {"name": "4fa8858da7c57e65cc8dcfbab7f0f151", "lon": -76.9233135, "lat": 38.8710565, "type": "electric_bike", "fusion_lon": 0.0, "is_reserved": 0, "bike_id": "4fa8858da7c57e65cc8dcfbab7f0f151", "fusion_lat": 0.0, "is_disabled": 0, "rental_uris": {"ios": "https://dc.lft.to/lastmile_qr_scan", "android": "https://dc.lft.to/lastmile_qr_scan"}}, {"name": "fecfaf2d2834709230f3710bdf6f67af", "lon": -77.0077515, "lat": 38.92668316666666, "type": "electric_scooter", "fusion_lon": 0.0, "is_reserved": 0, "bike_id": "fecfaf2d2834709230f3710bdf6f67af", "fusion_lat": 0.0, "is_disabled": 0, "rental_uris": {"ios": "https://dc.lft.to/lastmile_qr_scan", "android": "https://dc.lft.to/lastmile_qr_scan"}}, {"name": "db67e96d3b3eaf287c1192cc797abae3", "lon": -77.02346383333334, "lat": 38.94609233333333, "type": "electric_scooter", "fusion_lon": 0.0, "is_reserved": 0, "bike_id": "db67e96d3b3eaf287c1192cc797abae3", "fusion_lat": 0.0, "is_disabled": 0, "rental_uris": {"ios": "https://dc.lft.to/lastmile_qr_scan", "android": "https://dc.lft.to/lastmile_qr_scan"}}, {"name": "e9d8c50515cc9ae7643cdd391b3990c1", "lon": -77.0248935, "lat": 38.941823166666666, "type": "electric_scooter", "fusion_lon": 0.0, "is_reserved": 0, "bike_id": "e9d8c50515cc9ae7643cdd391b3990c1", "fusion_lat": 0.0, "is_disabled": 0, "rental_uris": {"ios": "https://dc.lft.to/lastmile_qr_scan", "android": "https://dc.lft.to/lastmile_qr_scan"}}, {"name": "90e25224e61e44612b18881010c8271e", "lon": -77.027986, "lat": 38.932960333333334, "type": "electric_scooter", "fusion_lon": 0.0, "is_reserved": 0, "bike_id": "90e25224e61e44612b18881010c8271e", "fusion_lat": 0.0, "is_disabled": 0, "rental_uris": {"ios": "https://dc.lft.to/lastmile_qr_scan", "android": "https://dc.lft.to/lastmile_qr_scan"}}, {"name": "4b1be8a35402b5a6441fbd08abefc0f1", "lon": -77.03983033333333, "lat": 38.90365716666667, "type": "electric_scooter", "fusion_lon": 0.0, "is_reserved": 0, "bike_id": "4b1be8a35402b5a6441fbd08abefc0f1", "fusion_lat": 0.0, "is_disabled": 0, "rental_uris": {"ios": "https://dc.lft.to/lastmile_qr_scan", "android": "https://dc.lft.to/lastmile_qr_scan"}}, {"name": "d25a04a68c1b855cdc8550d6a512ee1c", "lon": -76.99869916666667, "lat": 38.900296, "type": "electric_scooter", "fusion_lon": 0.0, "is_reserved": 0, "bike_id": "d25a04a68c1b855cdc8550d6a512ee1c", "fusion_lat": 0.0, "is_disabled": 0, "rental_uris": {"ios": "https://dc.lft.to/lastmile_qr_scan", "android": "https://dc.lft.to/lastmile_qr_scan"}}, {"name": "aaab1c67e27bf8ba1538d407caeaceed", "lon": -77.02871583333334, "lat": 38.904180833333335, "type": "electric_scooter", "fusion_lon": 0.0, "is_reserved": 0, "bike_id": "aaab1c67e27bf8ba1538d407caeaceed", "fusion_lat": 0.0, "is_disabled": 0, "rental_uris": {"ios": "https://dc.lft.to/lastmile_qr_scan", "android": "https://dc.lft.to/lastmile_qr_scan"}}, {"name": "c70cf6f084e548e6912548fd37a95ded", "lon": -76.94423766666667, "lat": 38.966169666666666, "type": "electric_bike", "fusion_lon": 0.0, "is_reserved": 0, "bike_id": "c70cf6f084e548e6912548fd37a95ded", "fusion_lat": 0.0, "is_disabled": 0, "rental_uris": {"ios": "https://dc.lft.to/lastmile_qr_scan", "android": "https://dc.lft.to/lastmile_qr_scan"}}, {"name": "54b4f213fb490e7d16e823ffd22d63ec", "lon": -77.02391583333333, "lat": 38.91745783333333, "type": "electric_scooter", "fusion_lon": 0.0, "is_reserved": 0, "bike_id": "54b4f213fb490e7d16e823ffd22d63ec", "fusion_lat": 0.0, "is_disabled": 0, "rental_uris": {"ios": "https://dc.lft.to/lastmile_qr_scan", "android": "https://dc.lft.to/lastmile_qr_scan"}}, {"name": "c166d61798e39cf053496606fcc01528", "lon": -77.01280183333333, "lat": 39.003819166666666, "type": "electric_bike", "fusion_lon": 0.0, "is_reserved": 0, "bike_id": "c166d61798e39cf053496606fcc01528", "fusion_lat": 0.0, "is_disabled": 0, "rental_uris": {"ios": "https://dc.lft.to/lastmile_qr_scan", "android": "https://dc.lft.to/lastmile_qr_scan"}}, {"name": "b29080af4af33d0023db4308e1fcca0f", "lon": -77.02417183333333, "lat": 38.92181766666667, "type": "electric_scooter", "fusion_lon": 0.0, "is_reserved": 0, "bike_id": "b29080af4af33d0023db4308e1fcca0f", "fusion_lat": 0.0, "is_disabled": 0, "rental_uris": {"ios": "https://dc.lft.to/lastmile_qr_scan", "android": "https://dc.lft.to/lastmile_qr_scan"}}, {"name": "96f9c234b7aef336f17c6de261903a90", "lon": -77.03358966666667, "lat": 38.928854666666666, "type": "electric_scooter", "fusion_lon": 0.0, "is_reserved": 0, "bike_id": "96f9c234b7aef336f17c6de261903a90", "fusion_lat": 0.0, "is_disabled": 0, "rental_uris": {"ios": "https://dc.lft.to/lastmile_qr_scan", "android": "https://dc.lft.to/lastmile_qr_scan"}}, {"name": "e4a39a177c13dc422ab1deb51bbc7291", "lon": -77.05132016666667, "lat": 38.907154, "type": "electric_scooter", "fusion_lon": 0.0, "is_reserved": 0, "bike_id": "e4a39a177c13dc422ab1deb51bbc7291", "fusion_lat": 0.0, "is_disabled": 0, "rental_uris": {"ios": "https://dc.lft.to/lastmile_qr_scan", "android": "https://dc.lft.to/lastmile_qr_scan"}}, {"name": "49807735f12bdd5b562d054615a6bbff", "lon": -77.0500465, "lat": 38.8923145, "type": "electric_scooter", "fusion_lon": 0.0, "is_reserved": 0, "bike_id": "49807735f12bdd5b562d054615a6bbff", "fusion_lat": 0.0, "is_disabled": 0, "rental_uris": {"ios": "https://dc.lft.to/lastmile_qr_scan", "android": "https://dc.lft.to/lastmile_qr_scan"}}, {"name": "a4e0d77dcc0aa4a4e1ca1ddf2af2067f", "lon": -77.03202316666666, "lat": 38.8967885, "type": "electric_scooter", "fusion_lon": 0.0, "is_reserved": 0, "bike_id": "a4e0d77dcc0aa4a4e1ca1ddf2af2067f", "fusion_lat": 0.0, "is_disabled": 0, "rental_uris": {"ios": "https://dc.lft.to/lastmile_qr_scan", "android": "https://dc.lft.to/lastmile_qr_scan"}}, {"name": "c80f18af8a533643bcd64f2ea54301d8", "lon": -77.01736533333333, "lat": 38.88331616666667, "type": "electric_scooter", "fusion_lon": 0.0, "is_reserved": 0, "bike_id": "c80f18af8a533643bcd64f2ea54301d8", "fusion_lat": 0.0, "is_disabled": 0, "rental_uris": {"ios": "https://dc.lft.to/lastmile_qr_scan", "android": "https://dc.lft.to/lastmile_qr_scan"}}, {"name": "8eafc698272aa4bcc6815cdd5c8c8b37", "lon": -76.99608733333334, "lat": 38.900288333333336, "type": "electric_scooter", "fusion_lon": 0.0, "is_reserved": 0, "bike_id": "8eafc698272aa4bcc6815cdd5c8c8b37", "fusion_lat": 0.0, "is_disabled": 0, "rental_uris": {"ios": "https://dc.lft.to/lastmile_qr_scan", "android": "https://dc.lft.to/lastmile_qr_scan"}}, {"name": "3ed59f14743589cc8e25f45776dea5a0", "lon": -77.039437, "lat": 38.902510166666666, "type": "electric_scooter", "fusion_lon": 0.0, "is_reserved": 0, "bike_id": "3ed59f14743589cc8e25f45776dea5a0", "fusion_lat": 0.0, "is_disabled": 0, "rental_uris": {"ios": "https://dc.lft.to/lastmile_qr_scan", "android": "https://dc.lft.to/lastmile_qr_scan"}}, {"name": "30a5b03a42c2213cd0c271ae4fc1d2ca", "lon": -77.0217485, "lat": 38.915636, "type": "electric_scooter", "fusion_lon": 0.0, "is_reserved": 0, "bike_id": "30a5b03a42c2213cd0c271ae4fc1d2ca", "fusion_lat": 0.0, "is_disabled": 0, "rental_uris": {"ios": "https://dc.lft.to/lastmile_qr_scan", "android": "https://dc.lft.to/lastmile_qr_scan"}}, {"name": "4181d17d3759b8cadb25d115ca3b231d", "lon": -77.0276265, "lat": 38.9542355, "type": "electric_scooter", "fusion_lon": 0.0, "is_reserved": 0, "bike_id": "4181d17d3759b8cadb25d115ca3b231d", "fusion_lat": 0.0, "is_disabled": 0, "rental_uris": {"ios": "https://dc.lft.to/lastmile_qr_scan", "android": "https://dc.lft.to/lastmile_qr_scan"}}, {"name": "f66d23225329d5e15c0c2dc21697d1e1", "lon": -76.933682, "lat": 38.8988495, "type": "electric_scooter", "fusion_lon": 0.0, "is_reserved": 0, "bike_id": "f66d23225329d5e15c0c2dc21697d1e1", "fusion_lat": 0.0, "is_disabled": 0, "rental_uris": {"ios": "https://dc.lft.to/lastmile_qr_scan", "android": "https://dc.lft.to/lastmile_qr_scan"}}, {"name": "bb616e7976d322c13ee18ba5773b38d3", "lon": -77.01999183333334, "lat": 38.9662675, "type": "electric_scooter", "fusion_lon": 0.0, "is_reserved": 0, "bike_id": "bb616e7976d322c13ee18ba5773b38d3", "fusion_lat": 0.0, "is_disabled": 0, "rental_uris": {"ios": "https://dc.lft.to/lastmile_qr_scan", "android": "https://dc.lft.to/lastmile_qr_scan"}}, {"name": "455f995f19630eed412f66e13bbe8360", "lon": -77.03332016666667, "lat": 38.8983, "type": "electric_scooter", "fusion_lon": 0.0, "is_reserved": 0, "bike_id": "455f995f19630eed412f66e13bbe8360", "fusion_lat": 0.0, "is_disabled": 0, "rental_uris": {"ios": "https://dc.lft.to/lastmile_qr_scan", "android": "https://dc.lft.to/lastmile_qr_scan"}}, {"name": "eebfe4d592abe14b2eeaa4d8f0d55707", "lon": -77.00483716666666, "lat": 38.87472016666667, "type": "electric_scooter", "fusion_lon": 0.0, "is_reserved": 0, "bike_id": "eebfe4d592abe14b2eeaa4d8f0d55707", "fusion_lat": 0.0, "is_disabled": 0, "rental_uris": {"ios": "https://dc.lft.to/lastmile_qr_scan", "android": "https://dc.lft.to/lastmile_qr_scan"}}, {"name": "fac40e5502c651230f52fc46181b6da0", "lon": -77.0363825, "lat": 38.91574816666667, "type": "electric_scooter", "fusion_lon": 0.0, "is_reserved": 0, "bike_id": "fac40e5502c651230f52fc46181b6da0", "fusion_lat": 0.0, "is_disabled": 0, "rental_uris": {"ios": "https://dc.lft.to/lastmile_qr_scan", "android": "https://dc.lft.to/lastmile_qr_scan"}}, {"name": "56d9bd8bf71f5666cbef3cd999082c46", "lon": -77.03500116666666, "lat": 38.92399483333333, "type": "electric_scooter", "fusion_lon": 0.0, "is_reserved": 0, "bike_id": "56d9bd8bf71f5666cbef3cd999082c46", "fusion_lat": 0.0, "is_disabled": 0, "rental_uris": {"ios": "https://dc.lft.to/lastmile_qr_scan", "android": "https://dc.lft.to/lastmile_qr_scan"}}, {"name": "799787a5f042e8333b9d80a5ac1f36a0", "lon": -77.034894, "lat": 38.932669833333335, "type": "electric_scooter", "fusion_lon": 0.0, "is_reserved": 0, "bike_id": "799787a5f042e8333b9d80a5ac1f36a0", "fusion_lat": 0.0, "is_disabled": 0, "rental_uris": {"ios": "https://dc.lft.to/lastmile_qr_scan", "android": "https://dc.lft.to/lastmile_qr_scan"}}, {"name": "e8d5359eabda4d08edc445a8c556e65b", "lon": -77.03148833333333, "lat": 38.929623166666666, "type": "electric_scooter", "fusion_lon": 0.0, "is_reserved": 0, "bike_id": "e8d5359eabda4d08edc445a8c556e65b", "fusion_lat": 0.0, "is_disabled": 0, "rental_uris": {"ios": "https://dc.lft.to/lastmile_qr_scan", "android": "https://dc.lft.to/lastmile_qr_scan"}}, {"name": "9ef9f1baa60b08a28b5d3562e57bbcc2", "lon": -77.03221433333333, "lat": 38.909784, "type": "electric_scooter", "fusion_lon": 0.0, "is_reserved": 0, "bike_id": "9ef9f1baa60b08a28b5d3562e57bbcc2", "fusion_lat": 0.0, "is_disabled": 0, "rental_uris": {"ios": "https://dc.lft.to/lastmile_qr_scan", "android": "https://dc.lft.to/lastmile_qr_scan"}}, {"name": "15334843093c62f0292150164293e209", "lon": -77.04244916666667, "lat": 38.90649066666667, "type": "electric_scooter", "fusion_lon": 0.0, "is_reserved": 0, "bike_id": "15334843093c62f0292150164293e209", "fusion_lat": 0.0, "is_disabled": 0, "rental_uris": {"ios": "https://dc.lft.to/lastmile_qr_scan", "android": "https://dc.lft.to/lastmile_qr_scan"}}, {"name": "f62cae14666eec484d5d40a51a9ce6db", "lon": -77.01896166666667, "lat": 38.913828, "type": "electric_scooter", "fusion_lon": 0.0, "is_reserved": 0, "bike_id": "f62cae14666eec484d5d40a51a9ce6db", "fusion_lat": 0.0, "is_disabled": 0, "rental_uris": {"ios": "https://dc.lft.to/lastmile_qr_scan", "android": "https://dc.lft.to/lastmile_qr_scan"}}, {"name": "b760494053445186ee17ebf3d37b79a9", "lon": -77.02742083333334, "lat": 38.9240575, "type": "electric_scooter", "fusion_lon": 0.0, "is_reserved": 0, "bike_id": "b760494053445186ee17ebf3d37b79a9", "fusion_lat": 0.0, "is_disabled": 0, "rental_uris": {"ios": "https://dc.lft.to/lastmile_qr_scan", "android": "https://dc.lft.to/lastmile_qr_scan"}}, {"name": "a59c70b35a46d87702e74e075000e855", "lon": -77.05434983333333, "lat": 38.92337, "type": "electric_scooter", "fusion_lon": 0.0, "is_reserved": 0, "bike_id": "a59c70b35a46d87702e74e075000e855", "fusion_lat": 0.0, "is_disabled": 0, "rental_uris": {"ios": "https://dc.lft.to/lastmile_qr_scan", "android": "https://dc.lft.to/lastmile_qr_scan"}}, {"name": "be712e7b36bcd2919d95df464bf04b8d", "lon": -77.0273005, "lat": 38.927656166666665, "type": "electric_scooter", "fusion_lon": 0.0, "is_reserved": 0, "bike_id": "be712e7b36bcd2919d95df464bf04b8d", "fusion_lat": 0.0, "is_disabled": 0, "rental_uris": {"ios": "https://dc.lft.to/lastmile_qr_scan", "android": "https://dc.lft.to/lastmile_qr_scan"}}, {"name": "f9ca9e5d75e1da07c8813d120aeb5e4b", "lon": -77.02277916666667, "lat": 38.89498366666667, "type": "electric_scooter", "fusion_lon": 0.0, "is_reserved": 0, "bike_id": "f9ca9e5d75e1da07c8813d120aeb5e4b", "fusion_lat": 0.0, "is_disabled": 0, "rental_uris": {"ios": "https://dc.lft.to/lastmile_qr_scan", "android": "https://dc.lft.to/lastmile_qr_scan"}}, {"name": "69499e4a475532dbd422c424a4e87467", "lon": -77.06380333333334, "lat": 38.905247833333334, "type": "electric_scooter", "fusion_lon": 0.0, "is_reserved": 0, "bike_id": "69499e4a475532dbd422c424a4e87467", "fusion_lat": 0.0, "is_disabled": 0, "rental_uris": {"ios": "https://dc.lft.to/lastmile_qr_scan", "android": "https://dc.lft.to/lastmile_qr_scan"}}, {"name": "430a7e6ace4254da1c8b0d73a64aec72", "lon": -77.0207975, "lat": 38.93009833333333, "type": "electric_scooter", "fusion_lon": 0.0, "is_reserved": 0, "bike_id": "430a7e6ace4254da1c8b0d73a64aec72", "fusion_lat": 0.0, "is_disabled": 0, "rental_uris": {"ios": "https://dc.lft.to/lastmile_qr_scan", "android": "https://dc.lft.to/lastmile_qr_scan"}}, {"name": "8bcb3f1178de5b2acbf9bc2db91b5b9f", "lon": -77.03536933333334, "lat": 38.923193833333336, "type": "electric_scooter", "fusion_lon": 0.0, "is_reserved": 0, "bike_id": "8bcb3f1178de5b2acbf9bc2db91b5b9f", "fusion_lat": 0.0, "is_disabled": 0, "rental_uris": {"ios": "https://dc.lft.to/lastmile_qr_scan", "android": "https://dc.lft.to/lastmile_qr_scan"}}, {"name": "6a4243f8ac4c065f44ced528538d3676", "lon": -77.04477233333333, "lat": 38.91243133333333, "type": "electric_scooter", "fusion_lon": 0.0, "is_reserved": 0, "bike_id": "6a4243f8ac4c065f44ced528538d3676", "fusion_lat": 0.0, "is_disabled": 0, "rental_uris": {"ios": "https://dc.lft.to/lastmile_qr_scan", "android": "https://dc.lft.to/lastmile_qr_scan"}}, {"name": "cd9ca9ff3242b024705ecf8433b97716", "lon": -77.029775, "lat": 38.9243945, "type": "electric_scooter", "fusion_lon": 0.0, "is_reserved": 0, "bike_id": "cd9ca9ff3242b024705ecf8433b97716", "fusion_lat": 0.0, "is_disabled": 0, "rental_uris": {"ios": "https://dc.lft.to/lastmile_qr_scan", "android": "https://dc.lft.to/lastmile_qr_scan"}}, {"name": "7afdd2aa8746d5fd39e411ecacd4ad75", "lon": -77.0218525, "lat": 38.9058065, "type": "electric_scooter", "fusion_lon": 0.0, "is_reserved": 0, "bike_id": "7afdd2aa8746d5fd39e411ecacd4ad75", "fusion_lat": 0.0, "is_disabled": 0, "rental_uris": {"ios": "https://dc.lft.to/lastmile_qr_scan", "android": "https://dc.lft.to/lastmile_qr_scan"}}, {"name": "76eb715cf9aab0446a6c2c01ab6b61b0", "lon": -77.02959716666666, "lat": 38.93983683333333, "type": "electric_scooter", "fusion_lon": 0.0, "is_reserved": 0, "bike_id": "76eb715cf9aab0446a6c2c01ab6b61b0", "fusion_lat": 0.0, "is_disabled": 0, "rental_uris": {"ios": "https://dc.lft.to/lastmile_qr_scan", "android": "https://dc.lft.to/lastmile_qr_scan"}}, {"name": "247ee3a7e391c78cbb22b156daf3931d", "lon": -77.0259, "lat": 38.96389333333333, "type": "electric_scooter", "fusion_lon": 0.0, "is_reserved": 0, "bike_id": "247ee3a7e391c78cbb22b156daf3931d", "fusion_lat": 0.0, "is_disabled": 0, "rental_uris": {"ios": "https://dc.lft.to/lastmile_qr_scan", "android": "https://dc.lft.to/lastmile_qr_scan"}}, {"name": "f31edd8cba741ac26a8f2e31acbbd4eb", "lon": -77.03709283333333, "lat": 38.9203705, "type": "electric_bike", "fusion_lon": 0.0, "is_reserved": 0, "bike_id": "f31edd8cba741ac26a8f2e31acbbd4eb", "fusion_lat": 0.0, "is_disabled": 0, "rental_uris": {"ios": "https://dc.lft.to/lastmile_qr_scan", "android": "https://dc.lft.to/lastmile_qr_scan"}}, {"name": "b58fc0fef4b02d5ad30b95957c564127", "lon": -77.016069, "lat": 38.89960883333333, "type": "electric_scooter", "fusion_lon": 0.0, "is_reserved": 0, "bike_id": "b58fc0fef4b02d5ad30b95957c564127", "fusion_lat": 0.0, "is_disabled": 0, "rental_uris": {"ios": "https://dc.lft.to/lastmile_qr_scan", "android": "https://dc.lft.to/lastmile_qr_scan"}}, {"name": "316c322103b4519172c407e658cd687d", "lon": -77.06075166666666, "lat": 38.88582433333333, "type": "electric_bike", "fusion_lon": 0.0, "is_reserved": 0, "bike_id": "316c322103b4519172c407e658cd687d", "fusion_lat": 0.0, "is_disabled": 0, "rental_uris": {"ios": "https://dc.lft.to/lastmile_qr_scan", "android": "https://dc.lft.to/lastmile_qr_scan"}}, {"name": "a02911d2c81703ce6d857be933d705a8", "lon": -77.01201816666666, "lat": 38.900107, "type": "electric_scooter", "fusion_lon": 0.0, "is_reserved": 0, "bike_id": "a02911d2c81703ce6d857be933d705a8", "fusion_lat": 0.0, "is_disabled": 0, "rental_uris": {"ios": "https://dc.lft.to/lastmile_qr_scan", "android": "https://dc.lft.to/lastmile_qr_scan"}}, {"name": "1b49504382b18375ad2a703f747f3d25", "lon": -77.025513, "lat": 38.942234666666664, "type": "electric_scooter", "fusion_lon": 0.0, "is_reserved": 0, "bike_id": "1b49504382b18375ad2a703f747f3d25", "fusion_lat": 0.0, "is_disabled": 0, "rental_uris": {"ios": "https://dc.lft.to/lastmile_qr_scan", "android": "https://dc.lft.to/lastmile_qr_scan"}}, {"name": "7ee949d8d99b79a37aed30a5137f0bea", "lon": -77.13097233333333, "lat": 39.0243465, "type": "electric_bike", "fusion_lon": 0.0, "is_reserved": 0, "bike_id": "7ee949d8d99b79a37aed30a5137f0bea", "fusion_lat": 0.0, "is_disabled": 0, "rental_uris": {"ios": "https://dc.lft.to/lastmile_qr_scan", "android": "https://dc.lft.to/lastmile_qr_scan"}}, {"name": "3c99a7a1445a76b9728706ddc82789bc", "lon": -77.02748383333333, "lat": 38.95162, "type": "electric_scooter", "fusion_lon": 0.0, "is_reserved": 0, "bike_id": "3c99a7a1445a76b9728706ddc82789bc", "fusion_lat": 0.0, "is_disabled": 0, "rental_uris": {"ios": "https://dc.lft.to/lastmile_qr_scan", "android": "https://dc.lft.to/lastmile_qr_scan"}}, {"name": "2941a879888ee8fbf4aa5c8d5721ec3c", "lon": -77.04312433333334, "lat": 38.923264333333336, "type": "electric_scooter", "fusion_lon": 0.0, "is_reserved": 0, "bike_id": "2941a879888ee8fbf4aa5c8d5721ec3c", "fusion_lat": 0.0, "is_disabled": 0, "rental_uris": {"ios": "https://dc.lft.to/lastmile_qr_scan", "android": "https://dc.lft.to/lastmile_qr_scan"}}, {"name": "8bb36f88d3d772d56da016f70e42b094", "lon": -77.09477816666667, "lat": 39.03046066666667, "type": "electric_bike", "fusion_lon": 0.0, "is_reserved": 0, "bike_id": "8bb36f88d3d772d56da016f70e42b094", "fusion_lat": 0.0, "is_disabled": 0, "rental_uris": {"ios": "https://dc.lft.to/lastmile_qr_scan", "android": "https://dc.lft.to/lastmile_qr_scan"}}, {"name": "54701c8f963d0ba113d253528dce013c", "lon": -77.02386283333334, "lat": 38.91651383333333, "type": "electric_scooter", "fusion_lon": 0.0, "is_reserved": 0, "bike_id": "54701c8f963d0ba113d253528dce013c", "fusion_lat": 0.0, "is_disabled": 0, "rental_uris": {"ios": "https://dc.lft.to/lastmile_qr_scan", "android": "https://dc.lft.to/lastmile_qr_scan"}}, {"name": "ca6cf61cfa20582e91f2f779fab6bbaa", "lon": -77.03442566666666, "lat": 38.910118, "type": "electric_scooter", "fusion_lon": 0.0, "is_reserved": 0, "bike_id": "ca6cf61cfa20582e91f2f779fab6bbaa", "fusion_lat": 0.0, "is_disabled": 0, "rental_uris": {"ios": "https://dc.lft.to/lastmile_qr_scan", "android": "https://dc.lft.to/lastmile_qr_scan"}}, {"name": "61ea85f6a6371bcc299c2b9deae4cb2f", "lon": -77.0006875, "lat": 38.90138233333333, "type": "electric_scooter", "fusion_lon": 0.0, "is_reserved": 0, "bike_id": "61ea85f6a6371bcc299c2b9deae4cb2f", "fusion_lat": 0.0, "is_disabled": 0, "rental_uris": {"ios": "https://dc.lft.to/lastmile_qr_scan", "android": "https://dc.lft.to/lastmile_qr_scan"}}, {"name": "762e45f5442876bcd345cf09c743c3af", "lon": -77.03489583333334, "lat": 38.93271983333333, "type": "electric_scooter", "fusion_lon": 0.0, "is_reserved": 0, "bike_id": "762e45f5442876bcd345cf09c743c3af", "fusion_lat": 0.0, "is_disabled": 0, "rental_uris": {"ios": "https://dc.lft.to/lastmile_qr_scan", "android": "https://dc.lft.to/lastmile_qr_scan"}}, {"name": "98341e81149eb731d8cc68ebc857a38e", "lon": -77.04694916666666, "lat": 38.915671833333334, "type": "electric_scooter", "fusion_lon": 0.0, "is_reserved": 0, "bike_id": "98341e81149eb731d8cc68ebc857a38e", "fusion_lat": 0.0, "is_disabled": 0, "rental_uris": {"ios": "https://dc.lft.to/lastmile_qr_scan", "android": "https://dc.lft.to/lastmile_qr_scan"}}, {"name": "7d113aa078a6ad9260b28665a35571c7", "lon": -77.035103, "lat": 38.90665216666667, "type": "electric_scooter", "fusion_lon": 0.0, "is_reserved": 0, "bike_id": "7d113aa078a6ad9260b28665a35571c7", "fusion_lat": 0.0, "is_disabled": 0, "rental_uris": {"ios": "https://dc.lft.to/lastmile_qr_scan", "android": "https://dc.lft.to/lastmile_qr_scan"}}, {"name": "45bd6cdb9803b2d57826747d0c8ce353", "lon": -77.078034, "lat": 38.849065333333336, "type": "electric_bike", "fusion_lon": 0.0, "is_reserved": 0, "bike_id": "45bd6cdb9803b2d57826747d0c8ce353", "fusion_lat": 0.0, "is_disabled": 0, "rental_uris": {"ios": "https://dc.lft.to/lastmile_qr_scan", "android": "https://dc.lft.to/lastmile_qr_scan"}}, {"name": "31fab38f60c10eab307e0b61a8bb26cf", "lon": -77.02477716666667, "lat": 38.90968683333333, "type": "electric_scooter", "fusion_lon": 0.0, "is_reserved": 0, "bike_id": "31fab38f60c10eab307e0b61a8bb26cf", "fusion_lat": 0.0, "is_disabled": 0, "rental_uris": {"ios": "https://dc.lft.to/lastmile_qr_scan", "android": "https://dc.lft.to/lastmile_qr_scan"}}, {"name": "98903f3f3dbf1f34afb9d521987e4a81", "lon": -77.025511, "lat": 38.94224066666666, "type": "electric_scooter", "fusion_lon": 0.0, "is_reserved": 0, "bike_id": "98903f3f3dbf1f34afb9d521987e4a81", "fusion_lat": 0.0, "is_disabled": 0, "rental_uris": {"ios": "https://dc.lft.to/lastmile_qr_scan", "android": "https://dc.lft.to/lastmile_qr_scan"}}, {"name": "1971f9cf71eb5c1214cadc40b6cd1d5c", "lon": -77.025961, "lat": 38.896783666666664, "type": "electric_scooter", "fusion_lon": 0.0, "is_reserved": 0, "bike_id": "1971f9cf71eb5c1214cadc40b6cd1d5c", "fusion_lat": 0.0, "is_disabled": 0, "rental_uris": {"ios": "https://dc.lft.to/lastmile_qr_scan", "android": "https://dc.lft.to/lastmile_qr_scan"}}, {"name": "e7c0f59d0ae32c774ca7eaa8cc4f273f", "lon": -77.02319616666666, "lat": 38.9073225, "type": "electric_scooter", "fusion_lon": 0.0, "is_reserved": 0, "bike_id": "e7c0f59d0ae32c774ca7eaa8cc4f273f", "fusion_lat": 0.0, "is_disabled": 0, "rental_uris": {"ios": "https://dc.lft.to/lastmile_qr_scan", "android": "https://dc.lft.to/lastmile_qr_scan"}}, {"name": "acfacedc7d6593a7e41c6eaac276573f", "lon": -76.9809225, "lat": 38.953565, "type": "electric_bike", "fusion_lon": 0.0, "is_reserved": 0, "bike_id": "acfacedc7d6593a7e41c6eaac276573f", "fusion_lat": 0.0, "is_disabled": 0, "rental_uris": {"ios": "https://dc.lft.to/lastmile_qr_scan", "android": "https://dc.lft.to/lastmile_qr_scan"}}, {"name": "4b8af80ad028b74250f47fc52d201076", "lon": -77.00200566666666, "lat": 38.9024365, "type": "electric_scooter", "fusion_lon": 0.0, "is_reserved": 0, "bike_id": "4b8af80ad028b74250f47fc52d201076", "fusion_lat": 0.0, "is_disabled": 0, "rental_uris": {"ios": "https://dc.lft.to/lastmile_qr_scan", "android": "https://dc.lft.to/lastmile_qr_scan"}}, {"name": "eeef93bea86a9ccf8ec93161c4e0f6ed", "lon": -77.03847083333334, "lat": 38.9155735, "type": "electric_scooter", "fusion_lon": 0.0, "is_reserved": 0, "bike_id": "eeef93bea86a9ccf8ec93161c4e0f6ed", "fusion_lat": 0.0, "is_disabled": 0, "rental_uris": {"ios": "https://dc.lft.to/lastmile_qr_scan", "android": "https://dc.lft.to/lastmile_qr_scan"}}, {"name": "05cd18bb1661a720976d6cb9505e3c03", "lon": -77.04347233333333, "lat": 38.908032666666664, "type": "electric_scooter", "fusion_lon": 0.0, "is_reserved": 0, "bike_id": "05cd18bb1661a720976d6cb9505e3c03", "fusion_lat": 0.0, "is_disabled": 0, "rental_uris": {"ios": "https://dc.lft.to/lastmile_qr_scan", "android": "https://dc.lft.to/lastmile_qr_scan"}}, {"name": "455ada684974c0ac7359aabe6f00e11f", "lon": -76.99537216666667, "lat": 38.926656666666666, "type": "electric_scooter", "fusion_lon": 0.0, "is_reserved": 0, "bike_id": "455ada684974c0ac7359aabe6f00e11f", "fusion_lat": 0.0, "is_disabled": 0, "rental_uris": {"ios": "https://dc.lft.to/lastmile_qr_scan", "android": "https://dc.lft.to/lastmile_qr_scan"}}, {"name": "7c2cb6b7831fc0c9870bb417fee1b257", "lon": -77.032409, "lat": 38.9155205, "type": "electric_scooter", "fusion_lon": 0.0, "is_reserved": 0, "bike_id": "7c2cb6b7831fc0c9870bb417fee1b257", "fusion_lat": 0.0, "is_disabled": 0, "rental_uris": {"ios": "https://dc.lft.to/lastmile_qr_scan", "android": "https://dc.lft.to/lastmile_qr_scan"}}, {"name": "02331c88daded53e9be905404f87975d", "lon": -77.02195416666666, "lat": 38.911266499999996, "type": "electric_scooter", "fusion_lon": 0.0, "is_reserved": 0, "bike_id": "02331c88daded53e9be905404f87975d", "fusion_lat": 0.0, "is_disabled": 0, "rental_uris": {"ios": "https://dc.lft.to/lastmile_qr_scan", "android": "https://dc.lft.to/lastmile_qr_scan"}}, {"name": "5300544dafa54950babfc78ade31ec26", "lon": -77.09800483333333, "lat": 38.850247333333336, "type": "electric_bike", "fusion_lon": 0.0, "is_reserved": 0, "bike_id": "5300544dafa54950babfc78ade31ec26", "fusion_lat": 0.0, "is_disabled": 0, "rental_uris": {"ios": "https://dc.lft.to/lastmile_qr_scan", "android": "https://dc.lft.to/lastmile_qr_scan"}}, {"name": "03b88be393bf15e3c88b5441a602b0c2", "lon": -76.98664516666666, "lat": 38.8672975, "type": "electric_scooter", "fusion_lon": 0.0, "is_reserved": 0, "bike_id": "03b88be393bf15e3c88b5441a602b0c2", "fusion_lat": 0.0, "is_disabled": 0, "rental_uris": {"ios": "https://dc.lft.to/lastmile_qr_scan", "android": "https://dc.lft.to/lastmile_qr_scan"}}, {"name": "a2f0afb93442c8cb68792259d70ae92f", "lon": -76.99006433333334, "lat": 38.8587945, "type": "electric_scooter", "fusion_lon": 0.0, "is_reserved": 0, "bike_id": "a2f0afb93442c8cb68792259d70ae92f", "fusion_lat": 0.0, "is_disabled": 0, "rental_uris": {"ios": "https://dc.lft.to/lastmile_qr_scan", "android": "https://dc.lft.to/lastmile_qr_scan"}}, {"name": "731908709e9b6b66e296a5e7bdf08095", "lon": -77.00194216666667, "lat": 38.90235283333333, "type": "electric_scooter", "fusion_lon": 0.0, "is_reserved": 0, "bike_id": "731908709e9b6b66e296a5e7bdf08095", "fusion_lat": 0.0, "is_disabled": 0, "rental_uris": {"ios": "https://dc.lft.to/lastmile_qr_scan", "android": "https://dc.lft.to/lastmile_qr_scan"}}, {"name": "7999a46adfbb10578814ae9109dc00d1", "lon": -76.954738, "lat": 38.8863815, "type": "electric_scooter", "fusion_lon": 0.0, "is_reserved": 0, "bike_id": "7999a46adfbb10578814ae9109dc00d1", "fusion_lat": 0.0, "is_disabled": 0, "rental_uris": {"ios": "https://dc.lft.to/lastmile_qr_scan", "android": "https://dc.lft.to/lastmile_qr_scan"}}, {"name": "fdad667b32638627088e407cadcfedff", "lon": -77.01166533333334, "lat": 38.91563383333333, "type": "electric_scooter", "fusion_lon": 0.0, "is_reserved": 0, "bike_id": "fdad667b32638627088e407cadcfedff", "fusion_lat": 0.0, "is_disabled": 0, "rental_uris": {"ios": "https://dc.lft.to/lastmile_qr_scan", "android": "https://dc.lft.to/lastmile_qr_scan"}}, {"name": "6dcd0c9fcb9f512c5ae1f92a1e5cf0fc", "lon": -77.01801416666666, "lat": 38.914171833333334, "type": "electric_scooter", "fusion_lon": 0.0, "is_reserved": 0, "bike_id": "6dcd0c9fcb9f512c5ae1f92a1e5cf0fc", "fusion_lat": 0.0, "is_disabled": 0, "rental_uris": {"ios": "https://dc.lft.to/lastmile_qr_scan", "android": "https://dc.lft.to/lastmile_qr_scan"}}, {"name": "397694188d8d1a12700dc2d6df7f1b3d", "lon": -76.98489933333333, "lat": 38.903896333333336, "type": "electric_scooter", "fusion_lon": 0.0, "is_reserved": 0, "bike_id": "397694188d8d1a12700dc2d6df7f1b3d", "fusion_lat": 0.0, "is_disabled": 0, "rental_uris": {"ios": "https://dc.lft.to/lastmile_qr_scan", "android": "https://dc.lft.to/lastmile_qr_scan"}}, {"name": "fa8b07632fb5c408e985477e19f80840", "lon": -77.18303516666667, "lat": 38.89078166666667, "type": "electric_bike", "fusion_lon": 0.0, "is_reserved": 0, "bike_id": "fa8b07632fb5c408e985477e19f80840", "fusion_lat": 0.0, "is_disabled": 0, "rental_uris": {"ios": "https://dc.lft.to/lastmile_qr_scan", "android": "https://dc.lft.to/lastmile_qr_scan"}}, {"name": "9d6561b533500146e1625a7dcaa41323", "lon": -77.03174, "lat": 38.917815, "type": "electric_scooter", "fusion_lon": 0.0, "is_reserved": 0, "bike_id": "9d6561b533500146e1625a7dcaa41323", "fusion_lat": 0.0, "is_disabled": 0, "rental_uris": {"ios": "https://dc.lft.to/lastmile_qr_scan", "android": "https://dc.lft.to/lastmile_qr_scan"}}, {"name": "17ab26f502fa46039c2cecb9b4a55ad4", "lon": -77.04609783333333, "lat": 38.916786333333334, "type": "electric_scooter", "fusion_lon": 0.0, "is_reserved": 0, "bike_id": "17ab26f502fa46039c2cecb9b4a55ad4", "fusion_lat": 0.0, "is_disabled": 0, "rental_uris": {"ios": "https://dc.lft.to/lastmile_qr_scan", "android": "https://dc.lft.to/lastmile_qr_scan"}}, {"name": "fbe161fcaf01a9f636f1bd498c1576aa", "lon": -77.02322116666667, "lat": 38.93598933333333, "type": "electric_scooter", "fusion_lon": 0.0, "is_reserved": 0, "bike_id": "fbe161fcaf01a9f636f1bd498c1576aa", "fusion_lat": 0.0, "is_disabled": 0, "rental_uris": {"ios": "https://dc.lft.to/lastmile_qr_scan", "android": "https://dc.lft.to/lastmile_qr_scan"}}, {"name": "36c8acdfec7f25146c2e2279897ab835", "lon": -77.03413416666666, "lat": 38.91917566666667, "type": "electric_scooter", "fusion_lon": 0.0, "is_reserved": 0, "bike_id": "36c8acdfec7f25146c2e2279897ab835", "fusion_lat": 0.0, "is_disabled": 0, "rental_uris": {"ios": "https://dc.lft.to/lastmile_qr_scan", "android": "https://dc.lft.to/lastmile_qr_scan"}}, {"name": "224f1bef192ac9b1dc7c0391e47e620c", "lon": -77.03329, "lat": 38.95825116666666, "type": "electric_scooter", "fusion_lon": 0.0, "is_reserved": 0, "bike_id": "224f1bef192ac9b1dc7c0391e47e620c", "fusion_lat": 0.0, "is_disabled": 0, "rental_uris": {"ios": "https://dc.lft.to/lastmile_qr_scan", "android": "https://dc.lft.to/lastmile_qr_scan"}}, {"name": "910d4ee77e5e3dee3015155833bb817a", "lon": -77.02180616666666, "lat": 38.915097, "type": "electric_scooter", "fusion_lon": 0.0, "is_reserved": 0, "bike_id": "910d4ee77e5e3dee3015155833bb817a", "fusion_lat": 0.0, "is_disabled": 0, "rental_uris": {"ios": "https://dc.lft.to/lastmile_qr_scan", "android": "https://dc.lft.to/lastmile_qr_scan"}}, {"name": "ea59761981fa7b08218961ce9eee22bd", "lon": -76.93984816666666, "lat": 38.89977533333333, "type": "electric_scooter", "fusion_lon": 0.0, "is_reserved": 0, "bike_id": "ea59761981fa7b08218961ce9eee22bd", "fusion_lat": 0.0, "is_disabled": 0, "rental_uris": {"ios": "https://dc.lft.to/lastmile_qr_scan", "android": "https://dc.lft.to/lastmile_qr_scan"}}, {"name": "b30975d348bc85f943288eafb2e74ff2", "lon": -77.05324066666667, "lat": 38.927939, "type": "electric_scooter", "fusion_lon": 0.0, "is_reserved": 0, "bike_id": "b30975d348bc85f943288eafb2e74ff2", "fusion_lat": 0.0, "is_disabled": 0, "rental_uris": {"ios": "https://dc.lft.to/lastmile_qr_scan", "android": "https://dc.lft.to/lastmile_qr_scan"}}, {"name": "23fc70db60ca778888bb910f82eaca8e", "lon": -77.007763, "lat": 38.92670416666667, "type": "electric_scooter", "fusion_lon": 0.0, "is_reserved": 0, "bike_id": "23fc70db60ca778888bb910f82eaca8e", "fusion_lat": 0.0, "is_disabled": 0, "rental_uris": {"ios": "https://dc.lft.to/lastmile_qr_scan", "android": "https://dc.lft.to/lastmile_qr_scan"}}, {"name": "403ac5d5c9f85b0eb1d1c1df378c67ee", "lon": -76.97241583333333, "lat": 38.85450733333333, "type": "electric_bike", "fusion_lon": 0.0, "is_reserved": 0, "bike_id": "403ac5d5c9f85b0eb1d1c1df378c67ee", "fusion_lat": 0.0, "is_disabled": 0, "rental_uris": {"ios": "https://dc.lft.to/lastmile_qr_scan", "android": "https://dc.lft.to/lastmile_qr_scan"}}, {"name": "cdadafee3bb32752ee0c2e11b5b3810d", "lon": -77.03516866666666, "lat": 38.92155533333333, "type": "electric_scooter", "fusion_lon": 0.0, "is_reserved": 0, "bike_id": "cdadafee3bb32752ee0c2e11b5b3810d", "fusion_lat": 0.0, "is_disabled": 0, "rental_uris": {"ios": "https://dc.lft.to/lastmile_qr_scan", "android": "https://dc.lft.to/lastmile_qr_scan"}}, {"name": "b12def2a2464de97f31e7336c87a609a", "lon": -77.01302366666667, "lat": 38.93018416666666, "type": "electric_scooter", "fusion_lon": 0.0, "is_reserved": 0, "bike_id": "b12def2a2464de97f31e7336c87a609a", "fusion_lat": 0.0, "is_disabled": 0, "rental_uris": {"ios": "https://dc.lft.to/lastmile_qr_scan", "android": "https://dc.lft.to/lastmile_qr_scan"}}, {"name": "c2b00f879cc9242be3a64cf72d4643cd", "lon": -77.02549483333334, "lat": 38.9422445, "type": "electric_scooter", "fusion_lon": 0.0, "is_reserved": 0, "bike_id": "c2b00f879cc9242be3a64cf72d4643cd", "fusion_lat": 0.0, "is_disabled": 0, "rental_uris": {"ios": "https://dc.lft.to/lastmile_qr_scan", "android": "https://dc.lft.to/lastmile_qr_scan"}}, {"name": "4f77037db1d30136aa25e0c144158ca7", "lon": -77.02293166666666, "lat": 38.91682266666667, "type": "electric_scooter", "fusion_lon": 0.0, "is_reserved": 0, "bike_id": "4f77037db1d30136aa25e0c144158ca7", "fusion_lat": 0.0, "is_disabled": 0, "rental_uris": {"ios": "https://dc.lft.to/lastmile_qr_scan", "android": "https://dc.lft.to/lastmile_qr_scan"}}, {"name": "69ebd2fc485bdd71e151976122ada941", "lon": -77.02920533333334, "lat": 38.92100033333333, "type": "electric_bike", "fusion_lon": 0.0, "is_reserved": 0, "bike_id": "69ebd2fc485bdd71e151976122ada941", "fusion_lat": 0.0, "is_disabled": 0, "rental_uris": {"ios": "https://dc.lft.to/lastmile_qr_scan", "android": "https://dc.lft.to/lastmile_qr_scan"}}, {"name": "ea974d6f2424955e9ec16b7ea14792a1", "lon": -77.05118366666666, "lat": 38.90528833333333, "type": "electric_scooter", "fusion_lon": 0.0, "is_reserved": 0, "bike_id": "ea974d6f2424955e9ec16b7ea14792a1", "fusion_lat": 0.0, "is_disabled": 0, "rental_uris": {"ios": "https://dc.lft.to/lastmile_qr_scan", "android": "https://dc.lft.to/lastmile_qr_scan"}}, {"name": "2fd6f9a091ed13b9f186d87a08f75be2", "lon": -76.93195066666667, "lat": 38.8987815, "type": "electric_scooter", "fusion_lon": 0.0, "is_reserved": 0, "bike_id": "2fd6f9a091ed13b9f186d87a08f75be2", "fusion_lat": 0.0, "is_disabled": 0, "rental_uris": {"ios": "https://dc.lft.to/lastmile_qr_scan", "android": "https://dc.lft.to/lastmile_qr_scan"}}, {"name": "a82ec13a45b5caf722d48da760e92d79", "lon": -76.994785, "lat": 38.90293033333333, "type": "electric_scooter", "fusion_lon": 0.0, "is_reserved": 0, "bike_id": "a82ec13a45b5caf722d48da760e92d79", "fusion_lat": 0.0, "is_disabled": 0, "rental_uris": {"ios": "https://dc.lft.to/lastmile_qr_scan", "android": "https://dc.lft.to/lastmile_qr_scan"}}, {"name": "934f88379b3d99cc964ebcc89ee82a24", "lon": -77.03338883333333, "lat": 38.89220733333333, "type": "electric_scooter", "fusion_lon": 0.0, "is_reserved": 0, "bike_id": "934f88379b3d99cc964ebcc89ee82a24", "fusion_lat": 0.0, "is_disabled": 0, "rental_uris": {"ios": "https://dc.lft.to/lastmile_qr_scan", "android": "https://dc.lft.to/lastmile_qr_scan"}}, {"name": "28906a42c68ef7c14bfeb26a9e268736", "lon": -77.04480583333333, "lat": 38.922398333333334, "type": "electric_scooter", "fusion_lon": 0.0, "is_reserved": 0, "bike_id": "28906a42c68ef7c14bfeb26a9e268736", "fusion_lat": 0.0, "is_disabled": 0, "rental_uris": {"ios": "https://dc.lft.to/lastmile_qr_scan", "android": "https://dc.lft.to/lastmile_qr_scan"}}, {"name": "f1d31c1bab3518b19d6ea01c0de62c25", "lon": -76.99723816666666, "lat": 38.92748133333333, "type": "electric_bike", "fusion_lon": 0.0, "is_reserved": 0, "bike_id": "f1d31c1bab3518b19d6ea01c0de62c25", "fusion_lat": 0.0, "is_disabled": 0, "rental_uris": {"ios": "https://dc.lft.to/lastmile_qr_scan", "android": "https://dc.lft.to/lastmile_qr_scan"}}, {"name": "dc64d1fee6e1d6ccddb796b7657e305f", "lon": -76.93542483333333, "lat": 38.955433166666666, "type": "electric_bike", "fusion_lon": 0.0, "is_reserved": 0, "bike_id": "dc64d1fee6e1d6ccddb796b7657e305f", "fusion_lat": 0.0, "is_disabled": 0, "rental_uris": {"ios": "https://dc.lft.to/lastmile_qr_scan", "android": "https://dc.lft.to/lastmile_qr_scan"}}, {"name": "d2718fbd9653b5e89c9810c0a504706d", "lon": -77.0447555, "lat": 38.91869666666667, "type": "electric_scooter", "fusion_lon": 0.0, "is_reserved": 0, "bike_id": "d2718fbd9653b5e89c9810c0a504706d", "fusion_lat": 0.0, "is_disabled": 0, "rental_uris": {"ios": "https://dc.lft.to/lastmile_qr_scan", "android": "https://dc.lft.to/lastmile_qr_scan"}}, {"name": "ef467082ab0bbc79bc4159dccd728b7d", "lon": -77.03279016666667, "lat": 38.902463, "type": "electric_scooter", "fusion_lon": 0.0, "is_reserved": 0, "bike_id": "ef467082ab0bbc79bc4159dccd728b7d", "fusion_lat": 0.0, "is_disabled": 0, "rental_uris": {"ios": "https://dc.lft.to/lastmile_qr_scan", "android": "https://dc.lft.to/lastmile_qr_scan"}}, {"name": "0ede690baf70134c3f110f8abd351557", "lon": -77.04498616666666, "lat": 38.9001485, "type": "electric_scooter", "fusion_lon": 0.0, "is_reserved": 0, "bike_id": "0ede690baf70134c3f110f8abd351557", "fusion_lat": 0.0, "is_disabled": 0, "rental_uris": {"ios": "https://dc.lft.to/lastmile_qr_scan", "android": "https://dc.lft.to/lastmile_qr_scan"}}, {"name": "dfbed6fc4abd5bac7a89d7ba2029a106", "lon": -76.98519033333334, "lat": 38.86669666666667, "type": "electric_scooter", "fusion_lon": 0.0, "is_reserved": 0, "bike_id": "dfbed6fc4abd5bac7a89d7ba2029a106", "fusion_lat": 0.0, "is_disabled": 0, "rental_uris": {"ios": "https://dc.lft.to/lastmile_qr_scan", "android": "https://dc.lft.to/lastmile_qr_scan"}}, {"name": "11f40cd88c7e0c3db79fee86ac23f35e", "lon": -77.04771133333334, "lat": 38.912435, "type": "electric_scooter", "fusion_lon": 0.0, "is_reserved": 0, "bike_id": "11f40cd88c7e0c3db79fee86ac23f35e", "fusion_lat": 0.0, "is_disabled": 0, "rental_uris": {"ios": "https://dc.lft.to/lastmile_qr_scan", "android": "https://dc.lft.to/lastmile_qr_scan"}}, {"name": "eceafe34e847f433e19a9a19c848c8ba", "lon": -77.0437465, "lat": 38.9257055, "type": "electric_scooter", "fusion_lon": 0.0, "is_reserved": 0, "bike_id": "eceafe34e847f433e19a9a19c848c8ba", "fusion_lat": 0.0, "is_disabled": 0, "rental_uris": {"ios": "https://dc.lft.to/lastmile_qr_scan", "android": "https://dc.lft.to/lastmile_qr_scan"}}, {"name": "12bced68119a9a9d02e3a6e17e30a3af", "lon": -77.03509483333333, "lat": 38.9620125, "type": "electric_bike", "fusion_lon": 0.0, "is_reserved": 0, "bike_id": "12bced68119a9a9d02e3a6e17e30a3af", "fusion_lat": 0.0, "is_disabled": 0, "rental_uris": {"ios": "https://dc.lft.to/lastmile_qr_scan", "android": "https://dc.lft.to/lastmile_qr_scan"}}, {"name": "35778b380cfe968232f0028e8d60322f", "lon": -77.0346735, "lat": 38.9006165, "type": "electric_scooter", "fusion_lon": 0.0, "is_reserved": 0, "bike_id": "35778b380cfe968232f0028e8d60322f", "fusion_lat": 0.0, "is_disabled": 0, "rental_uris": {"ios": "https://dc.lft.to/lastmile_qr_scan", "android": "https://dc.lft.to/lastmile_qr_scan"}}, {"name": "8884b0851eb23ec44b2e28b2f1ef0ea1", "lon": -77.03618516666667, "lat": 38.92850983333334, "type": "electric_scooter", "fusion_lon": 0.0, "is_reserved": 0, "bike_id": "8884b0851eb23ec44b2e28b2f1ef0ea1", "fusion_lat": 0.0, "is_disabled": 0, "rental_uris": {"ios": "https://dc.lft.to/lastmile_qr_scan", "android": "https://dc.lft.to/lastmile_qr_scan"}}, {"name": "7efb05ec4babaf964929e34157e95594", "lon": -77.0075485, "lat": 38.91023116666667, "type": "electric_scooter", "fusion_lon": 0.0, "is_reserved": 0, "bike_id": "7efb05ec4babaf964929e34157e95594", "fusion_lat": 0.0, "is_disabled": 0, "rental_uris": {"ios": "https://dc.lft.to/lastmile_qr_scan", "android": "https://dc.lft.to/lastmile_qr_scan"}}, {"name": "1e011b29520535c9676e1c6df4818e54", "lon": -77.05862816666667, "lat": 38.9360545, "type": "electric_scooter", "fusion_lon": 0.0, "is_reserved": 0, "bike_id": "1e011b29520535c9676e1c6df4818e54", "fusion_lat": 0.0, "is_disabled": 0, "rental_uris": {"ios": "https://dc.lft.to/lastmile_qr_scan", "android": "https://dc.lft.to/lastmile_qr_scan"}}, {"name": "77784d96b9aad512c2d928d5631556db", "lon": -77.04576266666666, "lat": 38.913333, "type": "electric_scooter", "fusion_lon": 0.0, "is_reserved": 0, "bike_id": "77784d96b9aad512c2d928d5631556db", "fusion_lat": 0.0, "is_disabled": 0, "rental_uris": {"ios": "https://dc.lft.to/lastmile_qr_scan", "android": "https://dc.lft.to/lastmile_qr_scan"}}, {"name": "836687a5f8014b257fe1a6433fc494ec", "lon": -77.04348416666667, "lat": 38.913511, "type": "electric_scooter", "fusion_lon": 0.0, "is_reserved": 0, "bike_id": "836687a5f8014b257fe1a6433fc494ec", "fusion_lat": 0.0, "is_disabled": 0, "rental_uris": {"ios": "https://dc.lft.to/lastmile_qr_scan", "android": "https://dc.lft.to/lastmile_qr_scan"}}, {"name": "73af085666e4364ff0d9812b7c78b2fe", "lon": -77.04085883333333, "lat": 38.90382016666667, "type": "electric_bike", "fusion_lon": 0.0, "is_reserved": 0, "bike_id": "73af085666e4364ff0d9812b7c78b2fe", "fusion_lat": 0.0, "is_disabled": 0, "rental_uris": {"ios": "https://dc.lft.to/lastmile_qr_scan", "android": "https://dc.lft.to/lastmile_qr_scan"}}, {"name": "2f76a6fd637567bbd7b31eed502bd722", "lon": -77.01804966666667, "lat": 38.91416316666667, "type": "electric_scooter", "fusion_lon": 0.0, "is_reserved": 0, "bike_id": "2f76a6fd637567bbd7b31eed502bd722", "fusion_lat": 0.0, "is_disabled": 0, "rental_uris": {"ios": "https://dc.lft.to/lastmile_qr_scan", "android": "https://dc.lft.to/lastmile_qr_scan"}}, {"name": "864fc8bb15e28da7c01c1bd15a21f6a5", "lon": -77.023784, "lat": 38.9173175, "type": "electric_scooter", "fusion_lon": 0.0, "is_reserved": 0, "bike_id": "864fc8bb15e28da7c01c1bd15a21f6a5", "fusion_lat": 0.0, "is_disabled": 0, "rental_uris": {"ios": "https://dc.lft.to/lastmile_qr_scan", "android": "https://dc.lft.to/lastmile_qr_scan"}}, {"name": "43b1cff3e1a9002b209c4ebfc3325bae", "lon": -77.04548233333334, "lat": 38.93403833333333, "type": "electric_scooter", "fusion_lon": 0.0, "is_reserved": 0, "bike_id": "43b1cff3e1a9002b209c4ebfc3325bae", "fusion_lat": 0.0, "is_disabled": 0, "rental_uris": {"ios": "https://dc.lft.to/lastmile_qr_scan", "android": "https://dc.lft.to/lastmile_qr_scan"}}, {"name": "72aced63e7d2c349575c1808001de2c1", "lon": -77.00109033333334, "lat": 38.907774833333335, "type": "electric_scooter", "fusion_lon": 0.0, "is_reserved": 0, "bike_id": "72aced63e7d2c349575c1808001de2c1", "fusion_lat": 0.0, "is_disabled": 0, "rental_uris": {"ios": "https://dc.lft.to/lastmile_qr_scan", "android": "https://dc.lft.to/lastmile_qr_scan"}}, {"name": "d5b4d0499d679d9bee582fc53d0721f0", "lon": -77.04177116666666, "lat": 38.9198515, "type": "electric_scooter", "fusion_lon": 0.0, "is_reserved": 0, "bike_id": "d5b4d0499d679d9bee582fc53d0721f0", "fusion_lat": 0.0, "is_disabled": 0, "rental_uris": {"ios": "https://dc.lft.to/lastmile_qr_scan", "android": "https://dc.lft.to/lastmile_qr_scan"}}, {"name": "e33d095f73103c7478efc50ba43bfec2", "lon": -77.0474875, "lat": 38.916578, "type": "electric_scooter", "fusion_lon": 0.0, "is_reserved": 0, "bike_id": "e33d095f73103c7478efc50ba43bfec2", "fusion_lat": 0.0, "is_disabled": 0, "rental_uris": {"ios": "https://dc.lft.to/lastmile_qr_scan", "android": "https://dc.lft.to/lastmile_qr_scan"}}, {"name": "62193a5e7cf5811ec6f742b2c8b9922c", "lon": -77.00569883333333, "lat": 38.875493666666664, "type": "electric_scooter", "fusion_lon": 0.0, "is_reserved": 0, "bike_id": "62193a5e7cf5811ec6f742b2c8b9922c", "fusion_lat": 0.0, "is_disabled": 0, "rental_uris": {"ios": "https://dc.lft.to/lastmile_qr_scan", "android": "https://dc.lft.to/lastmile_qr_scan"}}, {"name": "050e59ae5e2dc8bac26632d64357f064", "lon": -76.99028616666666, "lat": 38.8984965, "type": "electric_scooter", "fusion_lon": 0.0, "is_reserved": 0, "bike_id": "050e59ae5e2dc8bac26632d64357f064", "fusion_lat": 0.0, "is_disabled": 0, "rental_uris": {"ios": "https://dc.lft.to/lastmile_qr_scan", "android": "https://dc.lft.to/lastmile_qr_scan"}},