{"data": {"bikes": [{"type": "electric_scooter", "rental_uris": {"ios": "https://dc.lft.to/lastmile_qr_scan", "android": "https://dc.lft.to/lastmile_qr_scan"}, "lon": -76.94155916666666, "fusion_lon": 0.0, "is_disabled": 0, "lat": 38.88362683333333, "bike_id": "518fc4d300b8f59ea5ed8bec31938a85", "name": "518fc4d300b8f59ea5ed8bec31938a85", "is_reserved": 0, "fusion_lat": 0.0}, {"type": "electric_scooter", "rental_uris": {"ios": "https://dc.lft.to/lastmile_qr_scan", "android": "https://dc.lft.to/lastmile_qr_scan"}, "lon": -76.96531783333333, "fusion_lon": 0.0, "is_disabled": 0, "lat": 38.8762825, "bike_id": "250b6a47ef8330c0bf829e46ce2b36be", "name": "250b6a47ef8330c0bf829e46ce2b36be", "is_reserved": 0, "fusion_lat": 0.0}, {"type": "electric_scooter", "rental_uris": {"ios": "https://dc.lft.to/lastmile_qr_scan", "android": "https://dc.lft.to/lastmile_qr_scan"}, "lon": -76.99510716666667, "fusion_lon": 0.0, "is_disabled": 0, "lat": 38.88365, "bike_id": "016ccbd621c98a54b948c56a55cf9c33", "name": "016ccbd621c98a54b948c56a55cf9c33", "is_reserved": 0, "fusion_lat": 0.0}, {"type": "electric_scooter", "rental_uris": {"ios": "https://dc.lft.to/lastmile_qr_scan", "android": "https://dc.lft.to/lastmile_qr_scan"}, "lon": -77.05861483333334, "fusion_lon": 0.0, "is_disabled": 0, "lat": 38.936082, "bike_id": "78d3a34f404584b212baecbe1c761396", "name": "78d3a34f404584b212baecbe1c761396", "is_reserved": 0, "fusion_lat": 0.0}, {"type": "electric_scooter", "rental_uris": {"ios": "https://dc.lft.to/lastmile_qr_scan", "android": "https://dc.lft.to/lastmile_qr_scan"}, "lon": -77.021713, "fusion_lon": 0.0, "is_disabled": 0, "lat": 38.94289233333333, "bike_id": "7a8690a0571fa36b612bd5f6f58bcfa3", "name": "7a8690a0571fa36b612bd5f6f58bcfa3", "is_reserved": 0, "fusion_lat": 0.0}, {"type": "electric_scooter", "rental_uris": {"ios": "https://dc.lft.to/lastmile_qr_scan", "android": "https://dc.lft.to/lastmile_qr_scan"}, "lon": -77.07889133333333, "fusion_lon": 0.0, "is_disabled": 0, "lat": 38.920640666666664, "bike_id": "af71400798dfb8e23046ebe1063ccb9f", "name": "af71400798dfb8e23046ebe1063ccb9f", "is_reserved": 0, "fusion_lat": 0.0}, {"type": "electric_scooter", "rental_uris": {"ios": "https://dc.lft.to/lastmile_qr_scan", "android": "https://dc.lft.to/lastmile_qr_scan"}, "lon": -77.026365, "fusion_lon": 0.0, "is_disabled": 0, "lat": 38.925366833333335, "bike_id": "565e285cd6ad79f281512406a162903c", "name": "565e285cd6ad79f281512406a162903c", "is_reserved": 0, "fusion_lat": 0.0}, {"type": "electric_bike", "rental_uris": {"ios": "https://dc.lft.to/lastmile_qr_scan", "android": "https://dc.lft.to/lastmile_qr_scan"}, "lon": -76.92487266666667, "fusion_lon": 0.0, "is_disabled": 0, "lat": 38.958914, "bike_id": "b25fb07adba2d3cf4dc8e2bcbfb8d316", "name": "b25fb07adba2d3cf4dc8e2bcbfb8d316", "is_reserved": 0, "fusion_lat": 0.0}, {"type": "electric_scooter", "rental_uris": {"ios": "https://dc.lft.to/lastmile_qr_scan", "android": "https://dc.lft.to/lastmile_qr_scan"}, "lon": -76.99497733333334, "fusion_lon": 0.0, "is_disabled": 0, "lat": 38.881903, "bike_id": "70d06210028458c7b29ccccfa00f1e7f", "name": "70d06210028458c7b29ccccfa00f1e7f", "is_reserved": 0, "fusion_lat": 0.0}, {"type": "electric_scooter", "rental_uris": {"ios": "https://dc.lft.to/lastmile_qr_scan", "android": "https://dc.lft.to/lastmile_qr_scan"}, "lon": -77.0240075, "fusion_lon": 0.0, "is_disabled": 0, "lat": 38.90607683333333, "bike_id": "f7d21e8fe15d36cbeb5f183de425f9ad", "name": "f7d21e8fe15d36cbeb5f183de425f9ad", "is_reserved": 0, "fusion_lat": 0.0}, {"type": "electric_scooter", "rental_uris": {"ios": "https://dc.lft.to/lastmile_qr_scan", "android": "https://dc.lft.to/lastmile_qr_scan"}, "lon": -77.024874, "fusion_lon": 0.0, "is_disabled": 0, "lat": 38.941832166666664, "bike_id": "12339dca44eb95c2529f70f200953d24", "name": "12339dca44eb95c2529f70f200953d24", "is_reserved": 0, "fusion_lat": 0.0}, {"type": "electric_scooter", "rental_uris": {"ios": "https://dc.lft.to/lastmile_qr_scan", "android": "https://dc.lft.to/lastmile_qr_scan"}, "lon": -77.04195683333333, "fusion_lon": 0.0, "is_disabled": 0, "lat": 38.92053, "bike_id": "a18fb929bef2259a999d30cc75b85b8c", "name": "a18fb929bef2259a999d30cc75b85b8c", "is_reserved": 0, "fusion_lat": 0.0}, {"type": "electric_scooter", "rental_uris": {"ios": "https://dc.lft.to/lastmile_qr_scan", "android": "https://dc.lft.to/lastmile_qr_scan"}, "lon": -77.05857633333333, "fusion_lon": 0.0, "is_disabled": 0, "lat": 38.9354915, "bike_id": "35b6a377a5c398da01aba540aec16df0", "name": "35b6a377a5c398da01aba540aec16df0", "is_reserved": 0, "fusion_lat": 0.0}, {"type": "electric_scooter", "rental_uris": {"ios": "https://dc.lft.to/lastmile_qr_scan", "android": "https://dc.lft.to/lastmile_qr_scan"}, "lon": -77.045796, "fusion_lon": 0.0, "is_disabled": 0, "lat": 38.9140425, "bike_id": "3caaedf2635e1ed9cc2f00031cba6597", "name": "3caaedf2635e1ed9cc2f00031cba6597", "is_reserved": 0, "fusion_lat": 0.0}, {"type": "electric_scooter", "rental_uris": {"ios": "https://dc.lft.to/lastmile_qr_scan", "android": "https://dc.lft.to/lastmile_qr_scan"}, "lon": -77.031554, "fusion_lon": 0.0, "is_disabled": 0, "lat": 38.915586, "bike_id": "0beab425cc1509fb7cb505eb43452170", "name": "0beab425cc1509fb7cb505eb43452170", "is_reserved": 0, "fusion_lat": 0.0}, {"type": "electric_scooter", "rental_uris": {"ios": "https://dc.lft.to/lastmile_qr_scan", "android": "https://dc.lft.to/lastmile_qr_scan"}, "lon": -77.022111, "fusion_lon": 0.0, "is_disabled": 0, "lat": 38.905686, "bike_id": "a183d79644e952fe92642ed8e927a4bb", "name": "a183d79644e952fe92642ed8e927a4bb", "is_reserved": 0, "fusion_lat": 0.0}, {"type": "electric_scooter", "rental_uris": {"ios": "https://dc.lft.to/lastmile_qr_scan", "android": "https://dc.lft.to/lastmile_qr_scan"}, "lon": -77.05759233333333, "fusion_lon": 0.0, "is_disabled": 0, "lat": 38.925617, "bike_id": "344fd6bf99f57dc17db35436aea5f3ba", "name": "344fd6bf99f57dc17db35436aea5f3ba", "is_reserved": 0, "fusion_lat": 0.0}, {"type": "electric_scooter", "rental_uris": {"ios": "https://dc.lft.to/lastmile_qr_scan", "android": "https://dc.lft.to/lastmile_qr_scan"}, "lon": -77.004077, "fusion_lon": 0.0, "is_disabled": 0, "lat": 38.87666216666667, "bike_id": "4089d48296e61f1588eec3e979b3e0ae", "name": "4089d48296e61f1588eec3e979b3e0ae", "is_reserved": 0, "fusion_lat": 0.0}, {"type": "electric_scooter", "rental_uris": {"ios": "https://dc.lft.to/lastmile_qr_scan", "android": "https://dc.lft.to/lastmile_qr_scan"}, "lon": -77.02582233333334, "fusion_lon": 0.0, "is_disabled": 0, "lat": 38.904108666666666, "bike_id": "0de0ab61d515d902f4776f21b4a41c31", "name": "0de0ab61d515d902f4776f21b4a41c31", "is_reserved": 0, "fusion_lat": 0.0}, {"type": "electric_bike", "rental_uris": {"ios": "https://dc.lft.to/lastmile_qr_scan", "android": "https://dc.lft.to/lastmile_qr_scan"}, "lon": -76.98556233333333, "fusion_lon": 0.0, "is_disabled": 0, "lat": 38.85204983333333, "bike_id": "f81a1d5b63804786112319b72e071e8f", "name": "f81a1d5b63804786112319b72e071e8f", "is_reserved": 0, "fusion_lat": 0.0}, {"type": "electric_bike", "rental_uris": {"ios": "https://dc.lft.to/lastmile_qr_scan", "android": "https://dc.lft.to/lastmile_qr_scan"}, "lon": -76.93883833333334, "fusion_lon": 0.0, "is_disabled": 0, "lat": 38.956385, "bike_id": "59cedc24ee740b8723bde7f9ac133299", "name": "59cedc24ee740b8723bde7f9ac133299", "is_reserved": 0, "fusion_lat": 0.0}, {"type": "electric_scooter", "rental_uris": {"ios": "https://dc.lft.to/lastmile_qr_scan", "android": "https://dc.lft.to/lastmile_qr_scan"}, "lon": -77.03199183333334, "fusion_lon": 0.0, "is_disabled": 0, "lat": 38.9142035, "bike_id": "e903c745c63d0a4381ccbd5dc91e897e", "name": "e903c745c63d0a4381ccbd5dc91e897e", "is_reserved": 0, "fusion_lat": 0.0}, {"type": "electric_scooter", "rental_uris": {"ios": "https://dc.lft.to/lastmile_qr_scan", "android": "https://dc.lft.to/lastmile_qr_scan"}, "lon": -77.03160616666666, "fusion_lon": 0.0, "is_disabled": 0, "lat": 38.892189333333334, "bike_id": "ed20cc8b4e6fdca49887033b9d049dc8", "name": "ed20cc8b4e6fdca49887033b9d049dc8", "is_reserved": 0, "fusion_lat": 0.0}, {"type": "electric_bike", "rental_uris": {"ios": "https://dc.lft.to/lastmile_qr_scan", "android": "https://dc.lft.to/lastmile_qr_scan"}, "lon": -76.90437716666666, "fusion_lon": 0.0, "is_disabled": 0, "lat": 38.89767033333333, "bike_id": "b60978f2d5bb5b783ea518d3e6b42066", "name": "b60978f2d5bb5b783ea518d3e6b42066", "is_reserved": 0, "fusion_lat": 0.0}, {"type": "electric_scooter", "rental_uris": {"ios": "https://dc.lft.to/lastmile_qr_scan", "android": "https://dc.lft.to/lastmile_qr_scan"}, "lon": -77.02574783333333, "fusion_lon": 0.0, "is_disabled": 0, "lat": 38.917113, "bike_id": "c7eec2001c1b97c28e5e30ff178282c6", "name": "c7eec2001c1b97c28e5e30ff178282c6", "is_reserved": 0, "fusion_lat": 0.0}, {"type": "electric_scooter", "rental_uris": {"ios": "https://dc.lft.to/lastmile_qr_scan", "android": "https://dc.lft.to/lastmile_qr_scan"}, "lon": -76.99841966666666, "fusion_lon": 0.0, "is_disabled": 0, "lat": 38.9000605, "bike_id": "f55646954788bdfd59e24216d0966d17", "name": "f55646954788bdfd59e24216d0966d17", "is_reserved": 0, "fusion_lat": 0.0}, {"type": "electric_scooter", "rental_uris": {"ios": "https://dc.lft.to/lastmile_qr_scan", "android": "https://dc.lft.to/lastmile_qr_scan"}, "lon": -77.043104, "fusion_lon": 0.0, "is_disabled": 0, "lat": 38.91114316666667, "bike_id": "e9530592f8777d89e27012ee0894c239", "name": "e9530592f8777d89e27012ee0894c239", "is_reserved": 0, "fusion_lat": 0.0}, {"type": "electric_scooter", "rental_uris": {"ios": "https://dc.lft.to/lastmile_qr_scan", "android": "https://dc.lft.to/lastmile_qr_scan"}, "lon": -76.98564133333333, "fusion_lon": 0.0, "is_disabled": 0, "lat": 38.886706833333335, "bike_id": "2910cdaaf1d426308921786afc85719f", "name": "2910cdaaf1d426308921786afc85719f", "is_reserved": 0, "fusion_lat": 0.0}, {"type": "electric_scooter", "rental_uris": {"ios": "https://dc.lft.to/lastmile_qr_scan", "android": "https://dc.lft.to/lastmile_qr_scan"}, "lon": -77.01589016666667, "fusion_lon": 0.0, "is_disabled": 0, "lat": 38.92845766666667, "bike_id": "c40f62524e9a951df5243ebf06efa74e", "name": "c40f62524e9a951df5243ebf06efa74e", "is_reserved": 0, "fusion_lat": 0.0}, {"type": "electric_scooter", "rental_uris": {"ios": "https://dc.lft.to/lastmile_qr_scan", "android": "https://dc.lft.to/lastmile_qr_scan"}, "lon": -77.02523466666666, "fusion_lon": 0.0, "is_disabled": 0, "lat": 38.9193835, "bike_id": "c84d8446fe505365c9c42b95c850a6e6", "name": "c84d8446fe505365c9c42b95c850a6e6", "is_reserved": 0, "fusion_lat": 0.0}, {"type": "electric_scooter", "rental_uris": {"ios": "https://dc.lft.to/lastmile_qr_scan", "android": "https://dc.lft.to/lastmile_qr_scan"}, "lon": -76.99549633333334, "fusion_lon": 0.0, "is_disabled": 0, "lat": 38.9266225, "bike_id": "657db8b876cc0bdb54423d36de2a3c13", "name": "657db8b876cc0bdb54423d36de2a3c13", "is_reserved": 0, "fusion_lat": 0.0}, {"type": "electric_scooter", "rental_uris": {"ios": "https://dc.lft.to/lastmile_qr_scan", "android": "https://dc.lft.to/lastmile_qr_scan"}, "lon": -77.03349816666666, "fusion_lon": 0.0, "is_disabled": 0, "lat": 38.917182333333336, "bike_id": "54a9e53bbfb81d1aa99f891e6161f6b9", "name": "54a9e53bbfb81d1aa99f891e6161f6b9", "is_reserved": 0, "fusion_lat": 0.0}, {"type": "electric_scooter", "rental_uris": {"ios": "https://dc.lft.to/lastmile_qr_scan", "android": "https://dc.lft.to/lastmile_qr_scan"}, "lon": -77.03267833333334, "fusion_lon": 0.0, "is_disabled": 0, "lat": 38.935210833333336, "bike_id": "47108a1e100470e5536a162725f872c6", "name": "47108a1e100470e5536a162725f872c6", "is_reserved": 0, "fusion_lat": 0.0}, {"type": "electric_scooter", "rental_uris": {"ios": "https://dc.lft.to/lastmile_qr_scan", "android": "https://dc.lft.to/lastmile_qr_scan"}, "lon": -77.00739333333334, "fusion_lon": 0.0, "is_disabled": 0, "lat": 38.87646566666667, "bike_id": "cd280d5318d57740aa99c885bdb4e0a3", "name": "cd280d5318d57740aa99c885bdb4e0a3", "is_reserved": 0, "fusion_lat": 0.0}, {"type": "electric_scooter", "rental_uris": {"ios": "https://dc.lft.to/lastmile_qr_scan", "android": "https://dc.lft.to/lastmile_qr_scan"}, "lon": -77.0417575, "fusion_lon": 0.0, "is_disabled": 0, "lat": 38.918395333333336, "bike_id": "cb0421c7345eac9ba7844ed2daaf0dbd", "name": "cb0421c7345eac9ba7844ed2daaf0dbd", "is_reserved": 0, "fusion_lat": 0.0}, {"type": "electric_scooter", "rental_uris": {"ios": "https://dc.lft.to/lastmile_qr_scan", "android": "https://dc.lft.to/lastmile_qr_scan"}, "lon": -77.04336133333334, "fusion_lon": 0.0, "is_disabled": 0, "lat": 38.9083585, "bike_id": "4bf6a012874bc2dac38c0ad281f0da63", "name": "4bf6a012874bc2dac38c0ad281f0da63", "is_reserved": 0, "fusion_lat": 0.0}, {"type": "electric_scooter", "rental_uris": {"ios": "https://dc.lft.to/lastmile_qr_scan", "android": "https://dc.lft.to/lastmile_qr_scan"}, "lon": -77.02650883333334, "fusion_lon": 0.0, "is_disabled": 0, "lat": 38.924752166666664, "bike_id": "6cc106fcdc62b44638291ed36babf0be", "name": "6cc106fcdc62b44638291ed36babf0be", "is_reserved": 0, "fusion_lat": 0.0}, {"type": "electric_scooter", "rental_uris": {"ios": "https://dc.lft.to/lastmile_qr_scan", "android": "https://dc.lft.to/lastmile_qr_scan"}, "lon": -76.9774245, "fusion_lon": 0.0, "is_disabled": 0, "lat": 38.868310666666666, "bike_id": "2c16b6774d37ba9abeef7cf0c781d00f", "name": "2c16b6774d37ba9abeef7cf0c781d00f", "is_reserved": 0, "fusion_lat": 0.0}, {"type": "electric_scooter", "rental_uris": {"ios": "https://dc.lft.to/lastmile_qr_scan", "android": "https://dc.lft.to/lastmile_qr_scan"}, "lon": -77.0317855, "fusion_lon": 0.0, "is_disabled": 0, "lat": 38.897774, "bike_id": "422f9ab2460b4ec2d00b5ee78f66ca8e", "name": "422f9ab2460b4ec2d00b5ee78f66ca8e", "is_reserved": 0, "fusion_lat": 0.0}, {"type": "electric_scooter", "rental_uris": {"ios": "https://dc.lft.to/lastmile_qr_scan", "android": "https://dc.lft.to/lastmile_qr_scan"}, "lon": -77.03996533333333, "fusion_lon": 0.0, "is_disabled": 0, "lat": 38.914147166666666, "bike_id": "ebf9e66486200c29dbc5a009da91de7a", "name": "ebf9e66486200c29dbc5a009da91de7a", "is_reserved": 0, "fusion_lat": 0.0}, {"type": "electric_scooter", "rental_uris": {"ios": "https://dc.lft.to/lastmile_qr_scan", "android": "https://dc.lft.to/lastmile_qr_scan"}, "lon": -77.03958883333334, "fusion_lon": 0.0, "is_disabled": 0, "lat": 38.89245566666666, "bike_id": "e6c1c19b871e8d3ce2f8ce43bc5b1e2e", "name": "e6c1c19b871e8d3ce2f8ce43bc5b1e2e", "is_reserved": 0, "fusion_lat": 0.0}, {"type": "electric_bike", "rental_uris": {"ios": "https://dc.lft.to/lastmile_qr_scan", "android": "https://dc.lft.to/lastmile_qr_scan"}, "lon": -76.94535166666667, "fusion_lon": 0.0, "is_disabled": 0, "lat": 38.86461283333333, "bike_id": "d5094a5b90fec573cd2e7aa79cbad2a1", "name": "d5094a5b90fec573cd2e7aa79cbad2a1", "is_reserved": 0, "fusion_lat": 0.0}, {"type": "electric_bike", "rental_uris": {"ios": "https://dc.lft.to/lastmile_qr_scan", "android": "https://dc.lft.to/lastmile_qr_scan"}, "lon": -77.00293716666667, "fusion_lon": 0.0, "is_disabled": 0, "lat": 38.916174833333336, "bike_id": "947271f5cbcee888bc67a93879474b51", "name": "947271f5cbcee888bc67a93879474b51", "is_reserved": 0, "fusion_lat": 0.0}, {"type": "electric_scooter", "rental_uris": {"ios": "https://dc.lft.to/lastmile_qr_scan", "android": "https://dc.lft.to/lastmile_qr_scan"}, "lon": -77.06125916666667, "fusion_lon": 0.0, "is_disabled": 0, "lat": 38.904778, "bike_id": "adf50c47f097ba6b6bcb70d2adaee404", "name": "adf50c47f097ba6b6bcb70d2adaee404", "is_reserved": 0, "fusion_lat": 0.0}, {"type": "electric_scooter", "rental_uris": {"ios": "https://dc.lft.to/lastmile_qr_scan", "android": "https://dc.lft.to/lastmile_qr_scan"}, "lon": -77.03161983333334, "fusion_lon": 0.0, "is_disabled": 0, "lat": 38.8922265, "bike_id": "54a43a60dc3f6de9b829e8f82e74de10", "name": "54a43a60dc3f6de9b829e8f82e74de10", "is_reserved": 0, "fusion_lat": 0.0}, {"type": "electric_scooter", "rental_uris": {"ios": "https://dc.lft.to/lastmile_qr_scan", "android": "https://dc.lft.to/lastmile_qr_scan"}, "lon": -77.03939166666666, "fusion_lon": 0.0, "is_disabled": 0, "lat": 38.915667166666665, "bike_id": "ec352faca8ca1fea6214688b81771a75", "name": "ec352faca8ca1fea6214688b81771a75", "is_reserved": 0, "fusion_lat": 0.0}, {"type": "electric_scooter", "rental_uris": {"ios": "https://dc.lft.to/lastmile_qr_scan", "android": "https://dc.lft.to/lastmile_qr_scan"}, "lon": -77.03632633333334, "fusion_lon": 0.0, "is_disabled": 0, "lat": 38.937375333333335, "bike_id": "1eb303c7ebc400dd903f36e9a4a9755a", "name": "1eb303c7ebc400dd903f36e9a4a9755a", "is_reserved": 0, "fusion_lat": 0.0}, {"type": "electric_scooter", "rental_uris": {"ios": "https://dc.lft.to/lastmile_qr_scan", "android": "https://dc.lft.to/lastmile_qr_scan"}, "lon": -77.04336016666667, "fusion_lon": 0.0, "is_disabled": 0, "lat": 38.91104, "bike_id": "73a6289eb7828e3bc6f088ea22155e94", "name": "73a6289eb7828e3bc6f088ea22155e94", "is_reserved": 0, "fusion_lat": 0.0}, {"type": "electric_scooter", "rental_uris": {"ios": "https://dc.lft.to/lastmile_qr_scan", "android": "https://dc.lft.to/lastmile_qr_scan"}, "lon": -77.041409, "fusion_lon": 0.0, "is_disabled": 0, "lat": 38.893508, "bike_id": "433eacd5b427dd8f07953604c42f9d73", "name": "433eacd5b427dd8f07953604c42f9d73", "is_reserved": 0, "fusion_lat": 0.0}, {"type": "electric_scooter", "rental_uris": {"ios": "https://dc.lft.to/lastmile_qr_scan", "android": "https://dc.lft.to/lastmile_qr_scan"}, "lon": -77.02012133333334, "fusion_lon": 0.0, "is_disabled": 0, "lat": 38.911189666666665, "bike_id": "2beefb4bfd872423e9391f621b0990f3", "name": "2beefb4bfd872423e9391f621b0990f3", "is_reserved": 0, "fusion_lat": 0.0}, {"type": "electric_scooter", "rental_uris": {"ios": "https://dc.lft.to/lastmile_qr_scan", "android": "https://dc.lft.to/lastmile_qr_scan"}, "lon": -77.03271383333333, "fusion_lon": 0.0, "is_disabled": 0, "lat": 38.932482, "bike_id": "ec2a950f29e96aa49466de272e4223a8", "name": "ec2a950f29e96aa49466de272e4223a8", "is_reserved": 0, "fusion_lat": 0.0}, {"type": "electric_scooter", "rental_uris": {"ios": "https://dc.lft.to/lastmile_qr_scan", "android": "https://dc.lft.to/lastmile_qr_scan"}, "lon": -77.03686983333333, "fusion_lon": 0.0, "is_disabled": 0, "lat": 38.916764, "bike_id": "e8b504f5a018fa47deed753898b9416f", "name": "e8b504f5a018fa47deed753898b9416f", "is_reserved": 0, "fusion_lat": 0.0}, {"type": "electric_scooter", "rental_uris": {"ios": "https://dc.lft.to/lastmile_qr_scan", "android": "https://dc.lft.to/lastmile_qr_scan"}, "lon": -77.029084, "fusion_lon": 0.0, "is_disabled": 0, "lat": 38.89857633333333, "bike_id": "c202ff56ca9ddf73c044293dbc389ad7", "name": "c202ff56ca9ddf73c044293dbc389ad7", "is_reserved": 0, "fusion_lat": 0.0}, {"type": "electric_scooter", "rental_uris": {"ios": "https://dc.lft.to/lastmile_qr_scan", "android": "https://dc.lft.to/lastmile_qr_scan"}, "lon": -77.03639533333333, "fusion_lon": 0.0, "is_disabled": 0, "lat": 38.93712766666667, "bike_id": "b54da519283653df06e2e613e0073848", "name": "b54da519283653df06e2e613e0073848", "is_reserved": 0, "fusion_lat": 0.0}, {"type": "electric_scooter", "rental_uris": {"ios": "https://dc.lft.to/lastmile_qr_scan", "android": "https://dc.lft.to/lastmile_qr_scan"}, "lon": -77.03267833333334, "fusion_lon": 0.0, "is_disabled": 0, "lat": 38.9351385, "bike_id": "0f6097af943553a9b9d09c329288b931", "name": "0f6097af943553a9b9d09c329288b931", "is_reserved": 0, "fusion_lat": 0.0}, {"type": "electric_scooter", "rental_uris": {"ios": "https://dc.lft.to/lastmile_qr_scan", "android": "https://dc.lft.to/lastmile_qr_scan"}, "lon": -76.9938115, "fusion_lon": 0.0, "is_disabled": 0, "lat": 38.90035783333333, "bike_id": "044f7041d08b9b693afaacdd8d5a214b", "name": "044f7041d08b9b693afaacdd8d5a214b", "is_reserved": 0, "fusion_lat": 0.0}, {"type": "electric_scooter", "rental_uris": {"ios": "https://dc.lft.to/lastmile_qr_scan", "android": "https://dc.lft.to/lastmile_qr_scan"}, "lon": -77.02299833333333, "fusion_lon": 0.0, "is_disabled": 0, "lat": 38.91776866666667, "bike_id": "13dadf551eb7afae55808f8fe145d802", "name": "13dadf551eb7afae55808f8fe145d802", "is_reserved": 0, "fusion_lat": 0.0}, {"type": "electric_scooter", "rental_uris": {"ios": "https://dc.lft.to/lastmile_qr_scan", "android": "https://dc.lft.to/lastmile_qr_scan"}, "lon": -77.06290316666667, "fusion_lon": 0.0, "is_disabled": 0, "lat": 38.90496916666667, "bike_id": "57252438eb5b6ece3cb14b84912b8413", "name": "57252438eb5b6ece3cb14b84912b8413", "is_reserved": 0, "fusion_lat": 0.0}, {"type": "electric_scooter", "rental_uris": {"ios": "https://dc.lft.to/lastmile_qr_scan", "android": "https://dc.lft.to/lastmile_qr_scan"}, "lon": -77.0249775, "fusion_lon": 0.0, "is_disabled": 0, "lat": 38.91806033333334, "bike_id": "116fecbe94244805401766eda5d2b996", "name": "116fecbe94244805401766eda5d2b996", "is_reserved": 0, "fusion_lat": 0.0}, {"type": "electric_scooter", "rental_uris": {"ios": "https://dc.lft.to/lastmile_qr_scan", "android": "https://dc.lft.to/lastmile_qr_scan"}, "lon": -77.03262933333333, "fusion_lon": 0.0, "is_disabled": 0, "lat": 38.93773316666667, "bike_id": "7325b7492cfc1edd90cb01891120992b", "name": "7325b7492cfc1edd90cb01891120992b", "is_reserved": 0, "fusion_lat": 0.0}, {"type": "electric_scooter", "rental_uris": {"ios": "https://dc.lft.to/lastmile_qr_scan", "android": "https://dc.lft.to/lastmile_qr_scan"}, "lon": -77.0442745, "fusion_lon": 0.0, "is_disabled": 0, "lat": 38.925259, "bike_id": "899f392e4da430ca521f06515d918f48", "name": "899f392e4da430ca521f06515d918f48", "is_reserved": 0, "fusion_lat": 0.0}, {"type": "electric_scooter", "rental_uris": {"ios": "https://dc.lft.to/lastmile_qr_scan", "android": "https://dc.lft.to/lastmile_qr_scan"}, "lon": -77.04684933333333, "fusion_lon": 0.0, "is_disabled": 0, "lat": 38.89219633333333, "bike_id": "c5871e571ccd15f974393506c871684b", "name": "c5871e571ccd15f974393506c871684b", "is_reserved": 0, "fusion_lat": 0.0}, {"type": "electric_scooter", "rental_uris": {"ios": "https://dc.lft.to/lastmile_qr_scan", "android": "https://dc.lft.to/lastmile_qr_scan"}, "lon": -77.03742183333334, "fusion_lon": 0.0, "is_disabled": 0, "lat": 38.930938166666664, "bike_id": "c2c4cb17badea6f0c212a873fd6f23d0", "name": "c2c4cb17badea6f0c212a873fd6f23d0", "is_reserved": 0, "fusion_lat": 0.0}, {"type": "electric_scooter", "rental_uris": {"ios": "https://dc.lft.to/lastmile_qr_scan", "android": "https://dc.lft.to/lastmile_qr_scan"}, "lon": -77.03166916666666, "fusion_lon": 0.0, "is_disabled": 0, "lat": 38.918179333333335, "bike_id": "ba95e7fd5708a64c0f6f5b69ac03bf1a", "name": "ba95e7fd5708a64c0f6f5b69ac03bf1a", "is_reserved": 0, "fusion_lat": 0.0}, {"type": "electric_scooter", "rental_uris": {"ios": "https://dc.lft.to/lastmile_qr_scan", "android": "https://dc.lft.to/lastmile_qr_scan"}, "lon": -77.022059, "fusion_lon": 0.0, "is_disabled": 0, "lat": 38.878931333333334, "bike_id": "5a63a8fc0756c0cda1629b39390e34a4", "name": "5a63a8fc0756c0cda1629b39390e34a4", "is_reserved": 0, "fusion_lat": 0.0}, {"type": "electric_scooter", "rental_uris": {"ios": "https://dc.lft.to/lastmile_qr_scan", "android": "https://dc.lft.to/lastmile_qr_scan"}, "lon": -77.03234866666666, "fusion_lon": 0.0, "is_disabled": 0, "lat": 38.928813833333336, "bike_id": "65ec3f15102f5919f62ae9370c188231", "name": "65ec3f15102f5919f62ae9370c188231", "is_reserved": 0, "fusion_lat": 0.0}, {"type": "electric_scooter", "rental_uris": {"ios": "https://dc.lft.to/lastmile_qr_scan", "android": "https://dc.lft.to/lastmile_qr_scan"}, "lon": -77.0314515, "fusion_lon": 0.0, "is_disabled": 0, "lat": 38.887427833333334, "bike_id": "8f7419e59983db4eb7869aeb0c7fcd14", "name": "8f7419e59983db4eb7869aeb0c7fcd14", "is_reserved": 0, "fusion_lat": 0.0}, {"type": "electric_scooter", "rental_uris": {"ios": "https://dc.lft.to/lastmile_qr_scan", "android": "https://dc.lft.to/lastmile_qr_scan"}, "lon": -77.04162133333334, "fusion_lon": 0.0, "is_disabled": 0, "lat": 38.916161333333335, "bike_id": "2cf72a63dfe2fb10265a0c6e88f63f56", "name": "2cf72a63dfe2fb10265a0c6e88f63f56", "is_reserved": 0, "fusion_lat": 0.0}, {"type": "electric_scooter", "rental_uris": {"ios": "https://dc.lft.to/lastmile_qr_scan", "android": "https://dc.lft.to/lastmile_qr_scan"}, "lon": -77.01769366666667, "fusion_lon": 0.0, "is_disabled": 0, "lat": 38.9056535, "bike_id": "14ac82472b2bbbaba9ab7475b6853b6b", "name": "14ac82472b2bbbaba9ab7475b6853b6b", "is_reserved": 0, "fusion_lat": 0.0}, {"type": "electric_scooter", "rental_uris": {"ios": "https://dc.lft.to/lastmile_qr_scan", "android": "https://dc.lft.to/lastmile_qr_scan"}, "lon": -77.02492183333334, "fusion_lon": 0.0, "is_disabled": 0, "lat": 38.94187383333333, "bike_id": "e89e643975ebdc5032d217d39f0fc6be", "name": "e89e643975ebdc5032d217d39f0fc6be", "is_reserved": 0, "fusion_lat": 0.0}, {"type": "electric_scooter", "rental_uris": {"ios": "https://dc.lft.to/lastmile_qr_scan", "android": "https://dc.lft.to/lastmile_qr_scan"}, "lon": -77.04708883333333, "fusion_lon": 0.0, "is_disabled": 0, "lat": 38.917025, "bike_id": "81ecf6f8b6fae1b730e2f5aca67df913", "name": "81ecf6f8b6fae1b730e2f5aca67df913", "is_reserved": 0, "fusion_lat": 0.0}, {"type": "electric_scooter", "rental_uris": {"ios": "https://dc.lft.to/lastmile_qr_scan", "android": "https://dc.lft.to/lastmile_qr_scan"}, "lon": -76.98710433333333, "fusion_lon": 0.0, "is_disabled": 0, "lat": 38.8653975, "bike_id": "588f563a831c977dacdace50ee86a7b4", "name": "588f563a831c977dacdace50ee86a7b4", "is_reserved": 0, "fusion_lat": 0.0}, {"type": "electric_scooter", "rental_uris": {"ios": "https://dc.lft.to/lastmile_qr_scan", "android": "https://dc.lft.to/lastmile_qr_scan"}, "lon": -77.01133733333333, "fusion_lon": 0.0, "is_disabled": 0, "lat": 38.8852605, "bike_id": "363dd8b7f922a46c739f1c5aa81c8cb4", "name": "363dd8b7f922a46c739f1c5aa81c8cb4", "is_reserved": 0, "fusion_lat": 0.0}, {"type": "electric_scooter", "rental_uris": {"ios": "https://dc.lft.to/lastmile_qr_scan", "android": "https://dc.lft.to/lastmile_qr_scan"}, "lon": -77.029666, "fusion_lon": 0.0, "is_disabled": 0, "lat": 38.934650500000004, "bike_id": "d6c2473f1d2718904eaf58528d44b90e", "name": "d6c2473f1d2718904eaf58528d44b90e", "is_reserved": 0, "fusion_lat": 0.0}, {"type": "electric_scooter", "rental_uris": {"ios": "https://dc.lft.to/lastmile_qr_scan", "android": "https://dc.lft.to/lastmile_qr_scan"}, "lon": -77.026968, "fusion_lon": 0.0, "is_disabled": 0, "lat": 38.906756333333334, "bike_id": "79a0da0a70f3f1629b4cf559167630f8", "name": "79a0da0a70f3f1629b4cf559167630f8", "is_reserved": 0, "fusion_lat": 0.0}, {"type": "electric_scooter", "rental_uris": {"ios": "https://dc.lft.to/lastmile_qr_scan", "android": "https://dc.lft.to/lastmile_qr_scan"}, "lon": -77.0220985, "fusion_lon": 0.0, "is_disabled": 0, "lat": 38.91053333333333, "bike_id": "c2168c11bfe09e44bb0850c91b997f28", "name": "c2168c11bfe09e44bb0850c91b997f28", "is_reserved": 0, "fusion_lat": 0.0}, {"type": "electric_bike", "rental_uris": {"ios": "https://dc.lft.to/lastmile_qr_scan", "android": "https://dc.lft.to/lastmile_qr_scan"}, "lon": -77.1314515, "fusion_lon": 0.0, "is_disabled": 0, "lat": 38.861688666666666, "bike_id": "00ed0229957fa27b15d8159641bbe3f1", "name": "00ed0229957fa27b15d8159641bbe3f1", "is_reserved": 0, "fusion_lat": 0.0}, {"type": "electric_bike", "rental_uris": {"ios": "https://dc.lft.to/lastmile_qr_scan", "android": "https://dc.lft.to/lastmile_qr_scan"}, "lon": -77.041726, "fusion_lon": 0.0, "is_disabled": 0, "lat": 38.91701366666667, "bike_id": "20af268e60a2828f9bad13215fecdc89", "name": "20af268e60a2828f9bad13215fecdc89", "is_reserved": 0, "fusion_lat": 0.0}, {"type": "electric_scooter", "rental_uris": {"ios": "https://dc.lft.to/lastmile_qr_scan", "android": "https://dc.lft.to/lastmile_qr_scan"}, "lon": -77.037185, "fusion_lon": 0.0, "is_disabled": 0, "lat": 38.9286185, "bike_id": "193092366d97b8e1a4e7d262e7069ce0", "name": "193092366d97b8e1a4e7d262e7069ce0", "is_reserved": 0, "fusion_lat": 0.0}, {"type": "electric_scooter", "rental_uris": {"ios": "https://dc.lft.to/lastmile_qr_scan", "android": "https://dc.lft.to/lastmile_qr_scan"}, "lon": -77.03528933333334, "fusion_lon": 0.0, "is_disabled": 0, "lat": 38.918237166666664, "bike_id": "4fcb53c5984f6a1d6934b978e39f5284", "name": "4fcb53c5984f6a1d6934b978e39f5284", "is_reserved": 0, "fusion_lat": 0.0}, {"type": "electric_scooter", "rental_uris": {"ios": "https://dc.lft.to/lastmile_qr_scan", "android": "https://dc.lft.to/lastmile_qr_scan"}, "lon": -77.02351833333333, "fusion_lon": 0.0, "is_disabled": 0, "lat": 38.91780283333333, "bike_id": "8aa1a800db103137fad8e9d6e1c9bc82", "name": "8aa1a800db103137fad8e9d6e1c9bc82", "is_reserved": 0, "fusion_lat": 0.0}, {"type": "electric_bike", "rental_uris": {"ios": "https://dc.lft.to/lastmile_qr_scan", "android": "https://dc.lft.to/lastmile_qr_scan"}, "lon": -77.12027433333333, "fusion_lon": 0.0, "is_disabled": 0, "lat": 38.8552215, "bike_id": "2f80ca1eb7ab074259323d3e2568ca25", "name": "2f80ca1eb7ab074259323d3e2568ca25", "is_reserved": 0, "fusion_lat": 0.0}, {"type": "electric_scooter", "rental_uris": {"ios": "https://dc.lft.to/lastmile_qr_scan", "android": "https://dc.lft.to/lastmile_qr_scan"}, "lon": -77.03428366666667, "fusion_lon": 0.0, "is_disabled": 0, "lat": 38.92240666666667, "bike_id": "7125c9f2df9fc67371f0180614028409", "name": "7125c9f2df9fc67371f0180614028409", "is_reserved": 0, "fusion_lat": 0.0}, {"type": "electric_scooter", "rental_uris": {"ios": "https://dc.lft.to/lastmile_qr_scan", "android": "https://dc.lft.to/lastmile_qr_scan"}, "lon": -77.022253, "fusion_lon": 0.0, "is_disabled": 0, "lat": 38.90848183333333, "bike_id": "2c3bfbd53d2f4f8c6320fd3d5b318064", "name": "2c3bfbd53d2f4f8c6320fd3d5b318064", "is_reserved": 0, "fusion_lat": 0.0}, {"type": "electric_scooter", "rental_uris": {"ios": "https://dc.lft.to/lastmile_qr_scan", "android": "https://dc.lft.to/lastmile_qr_scan"}, "lon": -77.03145016666667, "fusion_lon": 0.0, "is_disabled": 0, "lat": 38.91566683333333, "bike_id": "b8de03dce6a1bd0d497b89a92851f821", "name": "b8de03dce6a1bd0d497b89a92851f821", "is_reserved": 0, "fusion_lat": 0.0}, {"type": "electric_scooter", "rental_uris": {"ios": "https://dc.lft.to/lastmile_qr_scan", "android": "https://dc.lft.to/lastmile_qr_scan"}, "lon": -76.97659783333333, "fusion_lon": 0.0, "is_disabled": 0, "lat": 38.89853933333333, "bike_id": "5fef4683b9e9977e2af9a87f6eeaf38e", "name": "5fef4683b9e9977e2af9a87f6eeaf38e", "is_reserved": 0, "fusion_lat": 0.0}, {"type": "electric_scooter", "rental_uris": {"ios": "https://dc.lft.to/lastmile_qr_scan", "android": "https://dc.lft.to/lastmile_qr_scan"}, "lon": -77.01944516666667, "fusion_lon": 0.0, "is_disabled": 0, "lat": 38.94927166666667, "bike_id": "b4072cdedae016f08b9e982d8c32d2c9", "name": "b4072cdedae016f08b9e982d8c32d2c9", "is_reserved": 0, "fusion_lat": 0.0}, {"type": "electric_scooter", "rental_uris": {"ios": "https://dc.lft.to/lastmile_qr_scan", "android": "https://dc.lft.to/lastmile_qr_scan"}, "lon": -76.94635516666666, "fusion_lon": 0.0, "is_disabled": 0, "lat": 38.89843, "bike_id": "2cd9dcd62e7f9854941f6af0fe39f656", "name": "2cd9dcd62e7f9854941f6af0fe39f656", "is_reserved": 0, "fusion_lat": 0.0}, {"type": "electric_bike", "rental_uris": {"ios": "https://dc.lft.to/lastmile_qr_scan", "android": "https://dc.lft.to/lastmile_qr_scan"}, "lon": -76.96112183333334, "fusion_lon": 0.0, "is_disabled": 0, "lat": 38.851891, "bike_id": "5ffa3cd9f5802cc7381008855f4bfc55", "name": "5ffa3cd9f5802cc7381008855f4bfc55", "is_reserved": 0, "fusion_lat": 0.0}, {"type": "electric_scooter", "rental_uris": {"ios": "https://dc.lft.to/lastmile_qr_scan", "android": "https://dc.lft.to/lastmile_qr_scan"}, "lon": -77.0343575, "fusion_lon": 0.0, "is_disabled": 0, "lat": 38.907275166666665, "bike_id": "48f737042db28182518b662b7fdc92c7", "name": "48f737042db28182518b662b7fdc92c7", "is_reserved": 0, "fusion_lat": 0.0}, {"type": "electric_scooter", "rental_uris": {"ios": "https://dc.lft.to/lastmile_qr_scan", "android": "https://dc.lft.to/lastmile_qr_scan"}, "lon": -77.0403, "fusion_lon": 0.0, "is_disabled": 0, "lat": 38.918031666666664, "bike_id": "1dd3bdcc22a61236075955cba69ddd5e", "name": "1dd3bdcc22a61236075955cba69ddd5e", "is_reserved": 0, "fusion_lat": 0.0}, {"type": "electric_scooter", "rental_uris": {"ios": "https://dc.lft.to/lastmile_qr_scan", "android": "https://dc.lft.to/lastmile_qr_scan"}, "lon": -77.03210766666666, "fusion_lon": 0.0, "is_disabled": 0, "lat": 38.91730666666667, "bike_id": "ed11b43d507cbf577a7b36f16674a544", "name": "ed11b43d507cbf577a7b36f16674a544", "is_reserved": 0, "fusion_lat": 0.0}, {"type": "electric_scooter", "rental_uris": {"ios": "https://dc.lft.to/lastmile_qr_scan", "android": "https://dc.lft.to/lastmile_qr_scan"}, "lon": -77.05314216666666, "fusion_lon": 0.0, "is_disabled": 0, "lat": 38.92784916666667, "bike_id": "770405dada44caaeda6f64cdc6711ba2", "name": "770405dada44caaeda6f64cdc6711ba2", "is_reserved": 0, "fusion_lat": 0.0}, {"type": "electric_scooter", "rental_uris": {"ios": "https://dc.lft.to/lastmile_qr_scan", "android": "https://dc.lft.to/lastmile_qr_scan"}, "lon": -77.0283525, "fusion_lon": 0.0, "is_disabled": 0, "lat": 38.93191233333334, "bike_id": "a759fbee94640a3eb8835cfa6e8bf2a9", "name": "a759fbee94640a3eb8835cfa6e8bf2a9", "is_reserved": 0, "fusion_lat": 0.0}, {"type": "electric_scooter", "rental_uris": {"ios": "https://dc.lft.to/lastmile_qr_scan", "android": "https://dc.lft.to/lastmile_qr_scan"}, "lon": -77.02517333333333, "fusion_lon": 0.0, "is_disabled": 0, "lat": 38.94621166666667, "bike_id": "664bdd1cdd2e9686fe7e6dedefc933df", "name": "664bdd1cdd2e9686fe7e6dedefc933df", "is_reserved": 0, "fusion_lat": 0.0}, {"type": "electric_scooter", "rental_uris": {"ios": "https://dc.lft.to/lastmile_qr_scan", "android": "https://dc.lft.to/lastmile_qr_scan"}, "lon": -77.0401595, "fusion_lon": 0.0, "is_disabled": 0, "lat": 38.918034666666664, "bike_id": "6ee80227f8aa17bc6161834fa7031843", "name": "6ee80227f8aa17bc6161834fa7031843", "is_reserved": 0, "fusion_lat": 0.0}, {"type": "electric_bike", "rental_uris": {"ios": "https://dc.lft.to/lastmile_qr_scan", "android": "https://dc.lft.to/lastmile_qr_scan"}, "lon": -77.05636116666666, "fusion_lon": 0.0, "is_disabled": 0, "lat": 38.986516333333334, "bike_id": "4dc49c605360a6e0306f58644df3746b", "name": "4dc49c605360a6e0306f58644df3746b", "is_reserved": 0, "fusion_lat": 0.0}, {"type": "electric_scooter", "rental_uris": {"ios": "https://dc.lft.to/lastmile_qr_scan", "android": "https://dc.lft.to/lastmile_qr_scan"}, "lon": -77.02802583333333, "fusion_lon": 0.0, "is_disabled": 0, "lat": 38.9057095, "bike_id": "61adb1b6ecfeb425129c017e836d3ddc", "name": "61adb1b6ecfeb425129c017e836d3ddc", "is_reserved": 0, "fusion_lat": 0.0}, {"type": "electric_scooter", "rental_uris": {"ios": "https://dc.lft.to/lastmile_qr_scan", "android": "https://dc.lft.to/lastmile_qr_scan"}, "lon": -76.93345766666667, "fusion_lon": 0.0, "is_disabled": 0, "lat": 38.888117666666666, "bike_id": "9f17630a0b4c6ee1e0a8340a695bcd0e", "name": "9f17630a0b4c6ee1e0a8340a695bcd0e", "is_reserved": 0, "fusion_lat": 0.0}, {"type": "electric_bike", "rental_uris": {"ios": "https://dc.lft.to/lastmile_qr_scan", "android": "https://dc.lft.to/lastmile_qr_scan"}, "lon": -77.03322166666666, "fusion_lon": 0.0, "is_disabled": 0, "lat": 38.92052066666667, "bike_id": "94504d6ea440802e38bef7406bd58937", "name": "94504d6ea440802e38bef7406bd58937", "is_reserved": 0, "fusion_lat": 0.0}, {"type": "electric_scooter", "rental_uris": {"ios": "https://dc.lft.to/lastmile_qr_scan", "android": "https://dc.lft.to/lastmile_qr_scan"}, "lon": -77.03206833333333, "fusion_lon": 0.0, "is_disabled": 0, "lat": 38.9089195, "bike_id": "4f3280ce73ee3cb0d985ca99f56da084", "name": "4f3280ce73ee3cb0d985ca99f56da084", "is_reserved": 0, "fusion_lat": 0.0}, {"type": "electric_scooter", "rental_uris": {"ios": "https://dc.lft.to/lastmile_qr_scan", "android": "https://dc.lft.to/lastmile_qr_scan"}, "lon": -77.043634, "fusion_lon": 0.0, "is_disabled": 0, "lat": 38.921425, "bike_id": "f88cd2799efeb55d6c359588a18caff5", "name": "f88cd2799efeb55d6c359588a18caff5", "is_reserved": 0, "fusion_lat": 0.0}, {"type": "electric_bike", "rental_uris": {"ios": "https://dc.lft.to/lastmile_qr_scan", "android": "https://dc.lft.to/lastmile_qr_scan"}, "lon": -77.00572133333333, "fusion_lon": 0.0, "is_disabled": 0, "lat": 38.839817333333336, "bike_id": "b87d741be593aa2a47cb7a38dc0b5160", "name": "b87d741be593aa2a47cb7a38dc0b5160", "is_reserved": 0, "fusion_lat": 0.0}, {"type": "electric_bike", "rental_uris": {"ios": "https://dc.lft.to/lastmile_qr_scan", "android": "https://dc.lft.to/lastmile_qr_scan"}, "lon": -76.98944666666667, "fusion_lon": 0.0, "is_disabled": 0, "lat": 38.8669595, "bike_id": "ad56ea3595f8c23cd17c1f88aadc75c4", "name": "ad56ea3595f8c23cd17c1f88aadc75c4", "is_reserved": 0, "fusion_lat": 0.0}, {"type": "electric_scooter", "rental_uris": {"ios": "https://dc.lft.to/lastmile_qr_scan", "android": "https://dc.lft.to/lastmile_qr_scan"}, "lon": -77.0316565, "fusion_lon": 0.0, "is_disabled": 0, "lat": 38.89220316666667, "bike_id": "64c79ef8e4a6e8fd07171831321eb420", "name": "64c79ef8e4a6e8fd07171831321eb420", "is_reserved": 0, "fusion_lat": 0.0}, {"type": "electric_scooter", "rental_uris": {"ios": "https://dc.lft.to/lastmile_qr_scan", "android": "https://dc.lft.to/lastmile_qr_scan"}, "lon": -77.02492266666667, "fusion_lon": 0.0, "is_disabled": 0, "lat": 38.9180535, "bike_id": "e3aa171691a1196bbd3f492b67049788", "name": "e3aa171691a1196bbd3f492b67049788", "is_reserved": 0, "fusion_lat": 0.0}, {"type": "electric_scooter", "rental_uris": {"ios": "https://dc.lft.to/lastmile_qr_scan", "android": "https://dc.lft.to/lastmile_qr_scan"}, "lon": -77.0341, "fusion_lon": 0.0, "is_disabled": 0, "lat": 38.92054783333333, "bike_id": "d881582a871481f9ba95a3c1f66e76ad", "name": "d881582a871481f9ba95a3c1f66e76ad", "is_reserved": 0, "fusion_lat": 0.0}, {"type": "electric_scooter", "rental_uris": {"ios": "https://dc.lft.to/lastmile_qr_scan", "android": "https://dc.lft.to/lastmile_qr_scan"}, "lon": -77.04275433333333, "fusion_lon": 0.0, "is_disabled": 0, "lat": 38.91027883333334, "bike_id": "62024961c9515b6e01982a5d7095b7f1", "name": "62024961c9515b6e01982a5d7095b7f1", "is_reserved": 0, "fusion_lat": 0.0}, {"type": "electric_scooter", "rental_uris": {"ios": "https://dc.lft.to/lastmile_qr_scan", "android": "https://dc.lft.to/lastmile_qr_scan"}, "lon": -77.04455233333333, "fusion_lon": 0.0, "is_disabled": 0, "lat": 38.9302015, "bike_id": "e162bcb519cac946afa034eeb4c44bef", "name": "e162bcb519cac946afa034eeb4c44bef", "is_reserved": 0, "fusion_lat": 0.0}, {"type": "electric_scooter", "rental_uris": {"ios": "https://dc.lft.to/lastmile_qr_scan", "android": "https://dc.lft.to/lastmile_qr_scan"}, "lon": -77.03757416666667, "fusion_lon": 0.0, "is_disabled": 0, "lat": 38.936013833333334, "bike_id": "c317e5b44bdc6318c7c49a12329ca6fd", "name": "c317e5b44bdc6318c7c49a12329ca6fd", "is_reserved": 0, "fusion_lat": 0.0}, {"type": "electric_scooter", "rental_uris": {"ios": "https://dc.lft.to/lastmile_qr_scan", "android": "https://dc.lft.to/lastmile_qr_scan"}, "lon": -77.04896033333333, "fusion_lon": 0.0, "is_disabled": 0, "lat": 38.897051166666664, "bike_id": "ce4046551077f69634e20b3973df6269", "name": "ce4046551077f69634e20b3973df6269", "is_reserved": 0, "fusion_lat": 0.0}, {"type": "electric_scooter", "rental_uris": {"ios": "https://dc.lft.to/lastmile_qr_scan", "android": "https://dc.lft.to/lastmile_qr_scan"}, "lon": -77.02413516666667, "fusion_lon": 0.0, "is_disabled": 0, "lat": 38.93106366666667, "bike_id": "2b951eea8d199ad2fb9db37d1d1f3d6d", "name": "2b951eea8d199ad2fb9db37d1d1f3d6d", "is_reserved": 0, "fusion_lat": 0.0}, {"type": "electric_scooter", "rental_uris": {"ios": "https://dc.lft.to/lastmile_qr_scan", "android": "https://dc.lft.to/lastmile_qr_scan"}, "lon": -77.0218005, "fusion_lon": 0.0, "is_disabled": 0, "lat": 38.917446, "bike_id": "71283c3cca2e6f38d6d0b00821ee17fe", "name": "71283c3cca2e6f38d6d0b00821ee17fe", "is_reserved": 0, "fusion_lat": 0.0}, {"type": "electric_scooter", "rental_uris": {"ios": "https://dc.lft.to/lastmile_qr_scan", "android": "https://dc.lft.to/lastmile_qr_scan"}, "lon": -77.0107755, "fusion_lon": 0.0, "is_disabled": 0, "lat": 38.911885833333336, "bike_id": "03abfd50326421a779399549abc9077c", "name": "03abfd50326421a779399549abc9077c", "is_reserved": 0, "fusion_lat": 0.0}, {"type": "electric_bike", "rental_uris": {"ios": "https://dc.lft.to/lastmile_qr_scan", "android": "https://dc.lft.to/lastmile_qr_scan"}, "lon": -76.97012033333333, "fusion_lon": 0.0, "is_disabled": 0, "lat": 38.863677333333335, "bike_id": "42c23051e15f2d7e31372c827b52a4e6", "name": "42c23051e15f2d7e31372c827b52a4e6", "is_reserved": 0, "fusion_lat": 0.0}, {"type": "electric_scooter", "rental_uris": {"ios": "https://dc.lft.to/lastmile_qr_scan", "android": "https://dc.lft.to/lastmile_qr_scan"}, "lon": -76.933544, "fusion_lon": 0.0, "is_disabled": 0, "lat": 38.899065666666665, "bike_id": "bfe21fc5a4c8eb2a455497483174dfc7", "name": "bfe21fc5a4c8eb2a455497483174dfc7", "is_reserved": 0, "fusion_lat": 0.0}, {"type": "electric_scooter", "rental_uris": {"ios": "https://dc.lft.to/lastmile_qr_scan", "android": "https://dc.lft.to/lastmile_qr_scan"}, "lon": -77.00198666666667, "fusion_lon": 0.0, "is_disabled": 0, "lat": 38.90237583333333, "bike_id": "6d4fd976c7e0c9ee01443ea37293765e", "name": "6d4fd976c7e0c9ee01443ea37293765e", "is_reserved": 0, "fusion_lat": 0.0}, {"type": "electric_scooter", "rental_uris": {"ios": "https://dc.lft.to/lastmile_qr_scan", "android": "https://dc.lft.to/lastmile_qr_scan"}, "lon": -77.03157683333333, "fusion_lon": 0.0, "is_disabled": 0, "lat": 38.914076333333334, "bike_id": "e8db278e48fae7a3005ffbd4f5c622a6", "name": "e8db278e48fae7a3005ffbd4f5c622a6", "is_reserved": 0, "fusion_lat": 0.0}, {"type": "electric_bike", "rental_uris": {"ios": "https://dc.lft.to/lastmile_qr_scan", "android": "https://dc.lft.to/lastmile_qr_scan"}, "lon": -77.1122165, "fusion_lon": 0.0, "is_disabled": 0, "lat": 38.82874283333334, "bike_id": "389ab8821122d94c1511590bb24114a4", "name": "389ab8821122d94c1511590bb24114a4", "is_reserved": 0, "fusion_lat": 0.0}, {"type": "electric_scooter", "rental_uris": {"ios": "https://dc.lft.to/lastmile_qr_scan", "android": "https://dc.lft.to/lastmile_qr_scan"}, "lon": -77.064001, "fusion_lon": 0.0, "is_disabled": 0, "lat": 38.94440616666667, "bike_id": "452663e7e6533eca5b90af18a38ef841", "name": "452663e7e6533eca5b90af18a38ef841", "is_reserved": 0, "fusion_lat": 0.0}, {"type": "electric_scooter", "rental_uris": {"ios": "https://dc.lft.to/lastmile_qr_scan", "android": "https://dc.lft.to/lastmile_qr_scan"}, "lon": -77.044468, "fusion_lon": 0.0, "is_disabled": 0, "lat": 38.93015233333333, "bike_id": "378e73b91317af43a94ed35ac906f821", "name": "378e73b91317af43a94ed35ac906f821", "is_reserved": 0, "fusion_lat": 0.0}, {"type": "electric_scooter", "rental_uris": {"ios": "https://dc.lft.to/lastmile_qr_scan", "android": "https://dc.lft.to/lastmile_qr_scan"}, "lon": -77.03166233333333, "fusion_lon": 0.0, "is_disabled": 0, "lat": 38.89223116666667, "bike_id": "6f8687dfcbf17ef7aae3c5d3d2e9ea39", "name": "6f8687dfcbf17ef7aae3c5d3d2e9ea39", "is_reserved": 0, "fusion_lat": 0.0}, {"type": "electric_scooter", "rental_uris": {"ios": "https://dc.lft.to/lastmile_qr_scan", "android": "https://dc.lft.to/lastmile_qr_scan"}, "lon": -77.00411083333333, "fusion_lon": 0.0, "is_disabled": 0, "lat": 38.8767105, "bike_id": "fd9821abf6afc7085cd3357e61d7db3b", "name": "fd9821abf6afc7085cd3357e61d7db3b", "is_reserved": 0, "fusion_lat": 0.0}, {"type": "electric_scooter", "rental_uris": {"ios": "https://dc.lft.to/lastmile_qr_scan", "android": "https://dc.lft.to/lastmile_qr_scan"}, "lon": -76.931769, "fusion_lon": 0.0, "is_disabled": 0, "lat": 38.89883566666666, "bike_id": "7d56ba5e408d15153dab08568b3505eb", "name": "7d56ba5e408d15153dab08568b3505eb", "is_reserved": 0, "fusion_lat": 0.0}, {"type": "electric_scooter", "rental_uris": {"ios": "https://dc.lft.to/lastmile_qr_scan", "android": "https://dc.lft.to/lastmile_qr_scan"}, "lon": -77.03695333333333, "fusion_lon": 0.0, "is_disabled": 0, "lat": 38.93060966666667, "bike_id": "d39210361886e8690ad796cd5c24a405", "name": "d39210361886e8690ad796cd5c24a405", "is_reserved": 0, "fusion_lat": 0.0}, {"type": "electric_scooter", "rental_uris": {"ios": "https://dc.lft.to/lastmile_qr_scan", "android": "https://dc.lft.to/lastmile_qr_scan"}, "lon": -77.03164916666667, "fusion_lon": 0.0, "is_disabled": 0, "lat": 38.892214, "bike_id": "dc913b645fda096ea39d1fc6cefc0177", "name": "dc913b645fda096ea39d1fc6cefc0177", "is_reserved": 0, "fusion_lat": 0.0}, {"type": "electric_bike", "rental_uris": {"ios": "https://dc.lft.to/lastmile_qr_scan", "android": "https://dc.lft.to/lastmile_qr_scan"}, "lon": -76.90132433333333, "fusion_lon": 0.0, "is_disabled": 0, "lat": 39.004744333333335, "bike_id": "c5ba8dd23a27ffcbc34268092c8576e1", "name": "c5ba8dd23a27ffcbc34268092c8576e1", "is_reserved": 0, "fusion_lat": 0.0}, {"type": "electric_scooter", "rental_uris": {"ios": "https://dc.lft.to/lastmile_qr_scan", "android": "https://dc.lft.to/lastmile_qr_scan"}, "lon": -77.04545316666666, "fusion_lon": 0.0, "is_disabled": 0, "lat": 38.91342, "bike_id": "214e227f1831d7d4096d494ce61f07f9", "name": "214e227f1831d7d4096d494ce61f07f9", "is_reserved": 0, "fusion_lat": 0.0}, {"type": "electric_scooter", "rental_uris": {"ios": "https://dc.lft.to/lastmile_qr_scan", "android": "https://dc.lft.to/lastmile_qr_scan"}, "lon": -77.03947, "fusion_lon": 0.0, "is_disabled": 0, "lat": 38.908168333333336, "bike_id": "23ce45b4351ba1e11161db230a54d892", "name": "23ce45b4351ba1e11161db230a54d892", "is_reserved": 0, "fusion_lat": 0.0}, {"type": "electric_scooter", "rental_uris": {"ios": "https://dc.lft.to/lastmile_qr_scan", "android": "https://dc.lft.to/lastmile_qr_scan"}, "lon": -77.0279545, "fusion_lon": 0.0, "is_disabled": 0, "lat": 38.9308055, "bike_id": "403b07563fd1543f1e23ea8874391b70", "name": "403b07563fd1543f1e23ea8874391b70", "is_reserved": 0, "fusion_lat": 0.0}, {"type": "electric_bike", "rental_uris": {"ios": "https://dc.lft.to/lastmile_qr_scan", "android": "https://dc.lft.to/lastmile_qr_scan"}, "lon": -76.92499466666666, "fusion_lon": 0.0, "is_disabled": 0, "lat": 38.999945833333335, "bike_id": "469246825625b0bda54c4e4f06c135c5", "name": "469246825625b0bda54c4e4f06c135c5", "is_reserved": 0, "fusion_lat": 0.0}, {"type": "electric_scooter", "rental_uris": {"ios": "https://dc.lft.to/lastmile_qr_scan", "android": "https://dc.lft.to/lastmile_qr_scan"}, "lon": -77.02034183333333, "fusion_lon": 0.0, "is_disabled": 0, "lat": 38.931853333333336, "bike_id": "0e788d6882c1e44f94fc7f38d23372b9", "name": "0e788d6882c1e44f94fc7f38d23372b9", "is_reserved": 0, "fusion_lat": 0.0}, {"type": "electric_scooter", "rental_uris": {"ios": "https://dc.lft.to/lastmile_qr_scan", "android": "https://dc.lft.to/lastmile_qr_scan"}, "lon": -77.04172583333333, "fusion_lon": 0.0, "is_disabled": 0, "lat": 38.91838516666667, "bike_id": "4607d1e9ab343ab978a64ca6acbeadd0", "name": "4607d1e9ab343ab978a64ca6acbeadd0", "is_reserved": 0, "fusion_lat": 0.0}, {"type": "electric_scooter", "rental_uris": {"ios": "https://dc.lft.to/lastmile_qr_scan", "android": "https://dc.lft.to/lastmile_qr_scan"}, "lon": -77.0318155, "fusion_lon": 0.0, "is_disabled": 0, "lat": 38.918263833333334, "bike_id": "0928e9c22b59daa240b87790aa4bfc8d", "name": "0928e9c22b59daa240b87790aa4bfc8d", "is_reserved": 0, "fusion_lat": 0.0}, {"type": "electric_scooter", "rental_uris": {"ios": "https://dc.lft.to/lastmile_qr_scan", "android": "https://dc.lft.to/lastmile_qr_scan"}, "lon": -77.04535366666667, "fusion_lon": 0.0, "is_disabled": 0, "lat": 38.913280666666665, "bike_id": "2e5d9ecf88179bd8f62bb73ce3e5c758", "name": "2e5d9ecf88179bd8f62bb73ce3e5c758", "is_reserved": 0, "fusion_lat": 0.0}, {"type": "electric_scooter", "rental_uris": {"ios": "https://dc.lft.to/lastmile_qr_scan", "android": "https://dc.lft.to/lastmile_qr_scan"}, "lon": -77.03223083333333, "fusion_lon": 0.0, "is_disabled": 0, "lat": 38.892213166666664, "bike_id": "12e6cb69a5fd928e714b227719267f34", "name": "12e6cb69a5fd928e714b227719267f34", "is_reserved": 0, "fusion_lat": 0.0}, {"type": "electric_scooter", "rental_uris": {"ios": "https://dc.lft.to/lastmile_qr_scan", "android": "https://dc.lft.to/lastmile_qr_scan"}, "lon": -77.05935433333333, "fusion_lon": 0.0, "is_disabled": 0, "lat": 38.909412, "bike_id": "78352dcb42d68ea102908bb15a17c1ee", "name": "78352dcb42d68ea102908bb15a17c1ee", "is_reserved": 0, "fusion_lat": 0.0}, {"type": "electric_scooter", "rental_uris": {"ios": "https://dc.lft.to/lastmile_qr_scan", "android": "https://dc.lft.to/lastmile_qr_scan"}, "lon": -77.00479483333334, "fusion_lon": 0.0, "is_disabled": 0, "lat": 38.911468166666666, "bike_id": "4aa73c0238e373ae92b45e6cfd3bc315", "name": "4aa73c0238e373ae92b45e6cfd3bc315", "is_reserved": 0, "fusion_lat": 0.0}, {"type": "electric_scooter", "rental_uris": {"ios": "https://dc.lft.to/lastmile_qr_scan", "android": "https://dc.lft.to/lastmile_qr_scan"}, "lon": -77.05754116666667, "fusion_lon": 0.0, "is_disabled": 0, "lat": 38.92392866666667, "bike_id": "aec47b6f911844956a8874fcc90802d2", "name": "aec47b6f911844956a8874fcc90802d2", "is_reserved": 0, "fusion_lat": 0.0}, {"type": "electric_bike", "rental_uris": {"ios": "https://dc.lft.to/lastmile_qr_scan", "android": "https://dc.lft.to/lastmile_qr_scan"}, "lon": -77.03344983333334, "fusion_lon": 0.0, "is_disabled": 0, "lat": 38.969408, "bike_id": "6f86fb538a66ef794726852ac873f95f", "name": "6f86fb538a66ef794726852ac873f95f", "is_reserved": 0, "fusion_lat": 0.0}, {"type": "electric_scooter", "rental_uris": {"ios": "https://dc.lft.to/lastmile_qr_scan", "android": "https://dc.lft.to/lastmile_qr_scan"}, "lon": -77.00608816666667, "fusion_lon": 0.0, "is_disabled": 0, "lat": 38.871807833333335, "bike_id": "03beaaea17510f9e1029d5c6a4b2b5e4", "name": "03beaaea17510f9e1029d5c6a4b2b5e4", "is_reserved": 0, "fusion_lat": 0.0}, {"type": "electric_scooter", "rental_uris": {"ios": "https://dc.lft.to/lastmile_qr_scan", "android": "https://dc.lft.to/lastmile_qr_scan"}, "lon": -77.03171683333333, "fusion_lon": 0.0, "is_disabled": 0, "lat": 38.92481333333333, "bike_id": "679642eaa974251227d52cc3fdf67dfb", "name": "679642eaa974251227d52cc3fdf67dfb", "is_reserved": 0, "fusion_lat": 0.0}, {"type": "electric_scooter", "rental_uris": {"ios": "https://dc.lft.to/lastmile_qr_scan", "android": "https://dc.lft.to/lastmile_qr_scan"}, "lon": -77.0332165, "fusion_lon": 0.0, "is_disabled": 0, "lat": 38.89013933333333, "bike_id": "d565f86cb8a946efa73553c0d051f31a", "name": "d565f86cb8a946efa73553c0d051f31a", "is_reserved": 0, "fusion_lat": 0.0}, {"type": "electric_scooter", "rental_uris": {"ios": "https://dc.lft.to/lastmile_qr_scan", "android": "https://dc.lft.to/lastmile_qr_scan"}, "lon": -77.01363466666666, "fusion_lon": 0.0, "is_disabled": 0, "lat": 38.886534833333336, "bike_id": "47d1c484972eefd081828f908d44e659", "name": "47d1c484972eefd081828f908d44e659", "is_reserved": 0, "fusion_lat": 0.0}, {"type": "electric_scooter", "rental_uris": {"ios": "https://dc.lft.to/lastmile_qr_scan", "android": "https://dc.lft.to/lastmile_qr_scan"}, "lon": -77.0217365, "fusion_lon": 0.0, "is_disabled": 0, "lat": 38.94291116666667, "bike_id": "3425627f6d41621db949a495dcca745c", "name": "3425627f6d41621db949a495dcca745c", "is_reserved": 0, "fusion_lat": 0.0}, {"type": "electric_scooter", "rental_uris": {"ios": "https://dc.lft.to/lastmile_qr_scan", "android": "https://dc.lft.to/lastmile_qr_scan"}, "lon": -77.00009583333333, "fusion_lon": 0.0, "is_disabled": 0, "lat": 38.9002735, "bike_id": "3b363d3ff54222a101b6add66ed6250f", "name": "3b363d3ff54222a101b6add66ed6250f", "is_reserved": 0, "fusion_lat": 0.0}, {"type": "electric_scooter", "rental_uris": {"ios": "https://dc.lft.to/lastmile_qr_scan", "android": "https://dc.lft.to/lastmile_qr_scan"}, "lon": -77.0436575, "fusion_lon": 0.0, "is_disabled": 0, "lat": 38.90239, "bike_id": "71319bf12a858697da2121734df40f26", "name": "71319bf12a858697da2121734df40f26", "is_reserved": 0, "fusion_lat": 0.0}, {"type": "electric_scooter", "rental_uris": {"ios": "https://dc.lft.to/lastmile_qr_scan", "android": "https://dc.lft.to/lastmile_qr_scan"}, "lon": -76.931433, "fusion_lon": 0.0, "is_disabled": 0, "lat": 38.89301566666666, "bike_id": "c4047700f99b21f10140d5a41b52b3d4", "name": "c4047700f99b21f10140d5a41b52b3d4", "is_reserved": 0, "fusion_lat": 0.0}, {"type": "electric_scooter", "rental_uris": {"ios": "https://dc.lft.to/lastmile_qr_scan", "android": "https://dc.lft.to/lastmile_qr_scan"}, "lon": -77.02007883333333, "fusion_lon": 0.0, "is_disabled": 0, "lat": 38.9241595, "bike_id": "d64d0eb847fed5d108ce4b8a7b8d451f", "name": "d64d0eb847fed5d108ce4b8a7b8d451f", "is_reserved": 0, "fusion_lat": 0.0}, {"type": "electric_scooter", "rental_uris": {"ios": "https://dc.lft.to/lastmile_qr_scan", "android": "https://dc.lft.to/lastmile_qr_scan"}, "lon": -76.9652855, "fusion_lon": 0.0, "is_disabled": 0, "lat": 38.87628383333333, "bike_id": "db34ecb2d88291d4d80ffb948eed8454", "name": "db34ecb2d88291d4d80ffb948eed8454", "is_reserved": 0, "fusion_lat": 0.0}, {"type": "electric_scooter", "rental_uris": {"ios": "https://dc.lft.to/lastmile_qr_scan", "android": "https://dc.lft.to/lastmile_qr_scan"}, "lon": -77.0356985, "fusion_lon": 0.0, "is_disabled": 0, "lat": 38.916908, "bike_id": "1e3fda7a81c9c1d65d65e8b12eb3fe83", "name": "1e3fda7a81c9c1d65d65e8b12eb3fe83", "is_reserved": 0, "fusion_lat": 0.0}, {"type": "electric_bike", "rental_uris": {"ios": "https://dc.lft.to/lastmile_qr_scan", "android": "https://dc.lft.to/lastmile_qr_scan"}, "lon": -77.10780566666666, "fusion_lon": 0.0, "is_disabled": 0, "lat": 38.8922065, "bike_id": "85c653e9ab8ce3510a7bd8e96acf6462", "name": "85c653e9ab8ce3510a7bd8e96acf6462", "is_reserved": 0, "fusion_lat": 0.0}, {"type": "electric_bike", "rental_uris": {"ios": "https://dc.lft.to/lastmile_qr_scan", "android": "https://dc.lft.to/lastmile_qr_scan"}, "lon": -77.02627516666666, "fusion_lon": 0.0, "is_disabled": 0, "lat": 38.9622655, "bike_id": "ad09dad1172d18fdeb568b785546c042", "name": "ad09dad1172d18fdeb568b785546c042", "is_reserved": 0, "fusion_lat": 0.0}, {"type": "electric_scooter", "rental_uris": {"ios": "https://dc.lft.to/lastmile_qr_scan", "android": "https://dc.lft.to/lastmile_qr_scan"}, "lon": -77.0326285, "fusion_lon": 0.0, "is_disabled": 0, "lat": 38.93518133333333, "bike_id": "3edd6eeb50be698754f67c2f3c378428", "name": "3edd6eeb50be698754f67c2f3c378428", "is_reserved": 0, "fusion_lat": 0.0}, {"type": "electric_scooter", "rental_uris": {"ios": "https://dc.lft.to/lastmile_qr_scan", "android": "https://dc.lft.to/lastmile_qr_scan"}, "lon": -77.00594233333334, "fusion_lon": 0.0, "is_disabled": 0, "lat": 38.906476833333336, "bike_id": "8ebbe12187ead809e46c4d270a459640", "name": "8ebbe12187ead809e46c4d270a459640", "is_reserved": 0, "fusion_lat": 0.0}, {"type": "electric_scooter", "rental_uris": {"ios": "https://dc.lft.to/lastmile_qr_scan", "android": "https://dc.lft.to/lastmile_qr_scan"}, "lon": -77.03198, "fusion_lon": 0.0, "is_disabled": 0, "lat": 38.917406666666665, "bike_id": "aff919dd2fa8aae4aa59d5840e78e952", "name": "aff919dd2fa8aae4aa59d5840e78e952", "is_reserved": 0, "fusion_lat": 0.0}, {"type": "electric_scooter", "rental_uris": {"ios": "https://dc.lft.to/lastmile_qr_scan", "android": "https://dc.lft.to/lastmile_qr_scan"}, "lon": -77.02126083333333, "fusion_lon": 0.0, "is_disabled": 0, "lat": 38.887456, "bike_id": "11757e449dcdb4bf67ebab887e5cb256", "name": "11757e449dcdb4bf67ebab887e5cb256", "is_reserved": 0, "fusion_lat": 0.0}, {"type": "electric_scooter", "rental_uris": {"ios": "https://dc.lft.to/lastmile_qr_scan", "android": "https://dc.lft.to/lastmile_qr_scan"}, "lon": -76.99903016666667, "fusion_lon": 0.0, "is_disabled": 0, "lat": 38.94823383333333, "bike_id": "099d9643e85fb32a051af433e3ce4c73", "name": "099d9643e85fb32a051af433e3ce4c73", "is_reserved": 0, "fusion_lat": 0.0}, {"type": "electric_scooter", "rental_uris": {"ios": "https://dc.lft.to/lastmile_qr_scan", "android": "https://dc.lft.to/lastmile_qr_scan"}, "lon": -77.06027483333334, "fusion_lon": 0.0, "is_disabled": 0, "lat": 38.944621, "bike_id": "034037ebef6f181f91740db845948e34", "name": "034037ebef6f181f91740db845948e34", "is_reserved": 0, "fusion_lat": 0.0}, {"type": "electric_scooter", "rental_uris": {"ios": "https://dc.lft.to/lastmile_qr_scan", "android": "https://dc.lft.to/lastmile_qr_scan"}, "lon": -77.02596933333334, "fusion_lon": 0.0, "is_disabled": 0, "lat": 38.94197166666667, "bike_id": "726f09d383eb4591fe038fa8dc73fb0f", "name": "726f09d383eb4591fe038fa8dc73fb0f", "is_reserved": 0, "fusion_lat": 0.0}, {"type": "electric_scooter", "rental_uris": {"ios": "https://dc.lft.to/lastmile_qr_scan", "android": "https://dc.lft.to/lastmile_qr_scan"}, "lon": -76.93610416666667, "fusion_lon": 0.0, "is_disabled": 0, "lat": 38.89684866666666, "bike_id": "74bc12b3a2fc4875691779bc801e7d50", "name": "74bc12b3a2fc4875691779bc801e7d50", "is_reserved": 0, "fusion_lat": 0.0}, {"type": "electric_scooter", "rental_uris": {"ios": "https://dc.lft.to/lastmile_qr_scan", "android": "https://dc.lft.to/lastmile_qr_scan"}, "lon": -77.0218275, "fusion_lon": 0.0, "is_disabled": 0, "lat": 38.91475633333334, "bike_id": "7de7c84ed8f835586ed3b25e661821b2", "name": "7de7c84ed8f835586ed3b25e661821b2", "is_reserved": 0, "fusion_lat": 0.0}, {"type": "electric_scooter", "rental_uris": {"ios": "https://dc.lft.to/lastmile_qr_scan", "android": "https://dc.lft.to/lastmile_qr_scan"}, "lon": -77.06043783333334, "fusion_lon": 0.0, "is_disabled": 0, "lat": 38.902260166666665, "bike_id": "8229110b577ca78c282cfc5a6a52f934", "name": "8229110b577ca78c282cfc5a6a52f934", "is_reserved": 0, "fusion_lat": 0.0}, {"type": "electric_scooter", "rental_uris": {"ios": "https://dc.lft.to/lastmile_qr_scan", "android": "https://dc.lft.to/lastmile_qr_scan"}, "lon": -77.032393, "fusion_lon": 0.0, "is_disabled": 0, "lat": 38.9087325, "bike_id": "b25fad3e8ea63cdd0ddc171dd12d0510", "name": "b25fad3e8ea63cdd0ddc171dd12d0510", "is_reserved": 0, "fusion_lat": 0.0}, {"type": "electric_scooter", "rental_uris": {"ios": "https://dc.lft.to/lastmile_qr_scan", "android": "https://dc.lft.to/lastmile_qr_scan"}, "lon": -77.03591183333333, "fusion_lon": 0.0, "is_disabled": 0, "lat": 38.9096605, "bike_id": "f7cab442511bd70db439d9e761f1de33", "name": "f7cab442511bd70db439d9e761f1de33", "is_reserved": 0, "fusion_lat": 0.0}, {"type": "electric_scooter", "rental_uris": {"ios": "https://dc.lft.to/lastmile_qr_scan", "android": "https://dc.lft.to/lastmile_qr_scan"}, "lon": -77.0272385, "fusion_lon": 0.0, "is_disabled": 0, "lat": 38.90152166666667, "bike_id": "97707716b4c04d5d5343a4e1e62fac53", "name": "97707716b4c04d5d5343a4e1e62fac53", "is_reserved": 0, "fusion_lat": 0.0}, {"type": "electric_scooter", "rental_uris": {"ios": "https://dc.lft.to/lastmile_qr_scan", "android": "https://dc.lft.to/lastmile_qr_scan"}, "lon": -77.0521755, "fusion_lon": 0.0, "is_disabled": 0, "lat": 38.9249155, "bike_id": "c7035a7566ade64dd21197eded0f3638", "name": "c7035a7566ade64dd21197eded0f3638", "is_reserved": 0, "fusion_lat": 0.0}, {"type": "electric_scooter", "rental_uris": {"ios": "https://dc.lft.to/lastmile_qr_scan", "android": "https://dc.lft.to/lastmile_qr_scan"}, "lon": -77.03082583333334, "fusion_lon": 0.0, "is_disabled": 0, "lat": 38.9310365, "bike_id": "149b7415731245c2406ddbfb69fef407", "name": "149b7415731245c2406ddbfb69fef407", "is_reserved": 0, "fusion_lat": 0.0}, {"type": "electric_bike", "rental_uris": {"ios": "https://dc.lft.to/lastmile_qr_scan", "android": "https://dc.lft.to/lastmile_qr_scan"}, "lon": -77.02761433333333, "fusion_lon": 0.0, "is_disabled": 0, "lat": 38.90471483333334, "bike_id": "e88b6e8aadf936ade602765b26575862", "name": "e88b6e8aadf936ade602765b26575862", "is_reserved": 0, "fusion_lat": 0.0}, {"type": "electric_scooter", "rental_uris": {"ios": "https://dc.lft.to/lastmile_qr_scan", "android": "https://dc.lft.to/lastmile_qr_scan"}, "lon": -76.99517916666667, "fusion_lon": 0.0, "is_disabled": 0, "lat": 38.88373633333333, "bike_id": "803180b13c72a47f9301fe3dddd63461", "name": "803180b13c72a47f9301fe3dddd63461", "is_reserved": 0, "fusion_lat": 0.0}, {"type": "electric_scooter", "rental_uris": {"ios": "https://dc.lft.to/lastmile_qr_scan", "android": "https://dc.lft.to/lastmile_qr_scan"}, "lon": -77.05260333333334, "fusion_lon": 0.0, "is_disabled": 0, "lat": 38.8998645, "bike_id": "b867e198565770dcb4160effcb2bc0a3", "name": "b867e198565770dcb4160effcb2bc0a3", "is_reserved": 0, "fusion_lat": 0.0}, {"type": "electric_scooter", "rental_uris": {"ios": "https://dc.lft.to/lastmile_qr_scan", "android": "https://dc.lft.to/lastmile_qr_scan"}, "lon": -76.98179466666667, "fusion_lon": 0.0, "is_disabled": 0, "lat": 38.8957735, "bike_id": "c865a83a06de39ed79bf68f1095f9fe8", "name": "c865a83a06de39ed79bf68f1095f9fe8", "is_reserved": 0, "fusion_lat": 0.0}, {"type": "electric_scooter", "rental_uris": {"ios": "https://dc.lft.to/lastmile_qr_scan", "android": "https://dc.lft.to/lastmile_qr_scan"}, "lon": -77.00206633333333, "fusion_lon": 0.0, "is_disabled": 0, "lat": 38.900701833333336, "bike_id": "4f4fc397de5181d81aadadf809782b3e", "name": "4f4fc397de5181d81aadadf809782b3e", "is_reserved": 0, "fusion_lat": 0.0}, {"type": "electric_bike", "rental_uris": {"ios": "https://dc.lft.to/lastmile_qr_scan", "android": "https://dc.lft.to/lastmile_qr_scan"}, "lon": -76.94855766666667, "fusion_lon": 0.0, "is_disabled": 0, "lat": 38.846502666666666, "bike_id": "63693d5b3bfaedf8928987ba0817c06f", "name": "63693d5b3bfaedf8928987ba0817c06f", "is_reserved": 0, "fusion_lat": 0.0}, {"type": "electric_scooter", "rental_uris": {"ios": "https://dc.lft.to/lastmile_qr_scan", "android": "https://dc.lft.to/lastmile_qr_scan"}, "lon": -77.04127533333333, "fusion_lon": 0.0, "is_disabled": 0, "lat": 38.925417333333336, "bike_id": "2f4e54e4426b0e5b3a1c7d5485c207f7", "name": "2f4e54e4426b0e5b3a1c7d5485c207f7", "is_reserved": 0, "fusion_lat": 0.0}, {"type": "electric_bike", "rental_uris": {"ios": "https://dc.lft.to/lastmile_qr_scan", "android": "https://dc.lft.to/lastmile_qr_scan"}, "lon": -77.1248645, "fusion_lon": 0.0, "is_disabled": 0, "lat": 38.85394566666667, "bike_id": "6ecee97989b6879eae5a31b97f91e74d", "name": "6ecee97989b6879eae5a31b97f91e74d", "is_reserved": 0, "fusion_lat": 0.0}, {"type": "electric_bike", "rental_uris": {"ios": "https://dc.lft.to/lastmile_qr_scan", "android": "https://dc.lft.to/lastmile_qr_scan"}, "lon": -76.94592583333333, "fusion_lon": 0.0, "is_disabled": 0, "lat": 38.95290283333333, "bike_id": "885cce384c0ea0abb080fa16d58087e0", "name": "885cce384c0ea0abb080fa16d58087e0", "is_reserved": 0, "fusion_lat": 0.0}, {"type": "electric_scooter", "rental_uris": {"ios": "https://dc.lft.to/lastmile_qr_scan", "android": "https://dc.lft.to/lastmile_qr_scan"}, "lon": -77.03287216666666, "fusion_lon": 0.0, "is_disabled": 0, "lat": 38.927490166666665, "bike_id": "1677bb7fc956648814491f177333556f", "name": "1677bb7fc956648814491f177333556f", "is_reserved": 0, "fusion_lat": 0.0}, {"type": "electric_scooter", "rental_uris": {"ios": "https://dc.lft.to/lastmile_qr_scan", "android": "https://dc.lft.to/lastmile_qr_scan"}, "lon": -76.9303835, "fusion_lon": 0.0, "is_disabled": 0, "lat": 38.895685666666665, "bike_id": "e1e0ef0ffe14e8e500625282fec82402", "name": "e1e0ef0ffe14e8e500625282fec82402", "is_reserved": 0, "fusion_lat": 0.0}, {"type": "electric_scooter", "rental_uris": {"ios": "https://dc.lft.to/lastmile_qr_scan", "android": "https://dc.lft.to/lastmile_qr_scan"}, "lon": -76.93350816666667, "fusion_lon": 0.0, "is_disabled": 0, "lat": 38.89910233333333, "bike_id": "df895f3ff24f63ff30b246890b23c688", "name": "df895f3ff24f63ff30b246890b23c688", "is_reserved": 0, "fusion_lat": 0.0}, {"type": "electric_scooter", "rental_uris": {"ios": "https://dc.lft.to/lastmile_qr_scan", "android": "https://dc.lft.to/lastmile_qr_scan"}, "lon": -77.03704066666667, "fusion_lon": 0.0, "is_disabled": 0, "lat": 38.926417, "bike_id": "66f631da85d2c4607a7671a54b183d9b", "name": "66f631da85d2c4607a7671a54b183d9b", "is_reserved": 0, "fusion_lat": 0.0}, {"type": "electric_scooter", "rental_uris": {"ios": "https://dc.lft.to/lastmile_qr_scan", "android": "https://dc.lft.to/lastmile_qr_scan"}, "lon": -76.95001766666667, "fusion_lon": 0.0, "is_disabled": 0, "lat": 38.893914, "bike_id": "19fdc702ab926cf2485f9711a516422a", "name": "19fdc702ab926cf2485f9711a516422a", "is_reserved": 0, "fusion_lat": 0.0}, {"type": "electric_scooter", "rental_uris": {"ios": "https://dc.lft.to/lastmile_qr_scan", "android": "https://dc.lft.to/lastmile_qr_scan"}, "lon": -77.0388545, "fusion_lon": 0.0, "is_disabled": 0, "lat": 38.909638666666666, "bike_id": "bb03bfafca0004195b766d1bc49d9f95", "name": "bb03bfafca0004195b766d1bc49d9f95", "is_reserved": 0, "fusion_lat": 0.0}, {"type": "electric_scooter", "rental_uris": {"ios": "https://dc.lft.to/lastmile_qr_scan", "android": "https://dc.lft.to/lastmile_qr_scan"}, "lon": -77.03766216666666, "fusion_lon": 0.0, "is_disabled": 0, "lat": 38.9297515, "bike_id": "f92772e0041e512727e2ad901d067448", "name": "f92772e0041e512727e2ad901d067448", "is_reserved": 0, "fusion_lat": 0.0}, {"type": "electric_bike", "rental_uris": {"ios": "https://dc.lft.to/lastmile_qr_scan", "android": "https://dc.lft.to/lastmile_qr_scan"}, "lon": -76.99004216666667, "fusion_lon": 0.0, "is_disabled": 0, "lat": 38.954877833333335, "bike_id": "6f05965121029e3c7c4fddd4e7a1840f", "name": "6f05965121029e3c7c4fddd4e7a1840f", "is_reserved": 0, "fusion_lat": 0.0}, {"type": "electric_scooter", "rental_uris": {"ios": "https://dc.lft.to/lastmile_qr_scan", "android": "https://dc.lft.to/lastmile_qr_scan"}, "lon": -77.05726633333333, "fusion_lon": 0.0, "is_disabled": 0, "lat": 38.93364566666666, "bike_id": "dcdd0508c7a3f0fafc71795e75db673f", "name": "dcdd0508c7a3f0fafc71795e75db673f", "is_reserved": 0, "fusion_lat": 0.0}, {"type": "electric_scooter", "rental_uris": {"ios": "https://dc.lft.to/lastmile_qr_scan", "android": "https://dc.lft.to/lastmile_qr_scan"}, "lon": -77.03185116666667, "fusion_lon": 0.0, "is_disabled": 0, "lat": 38.917637666666664, "bike_id": "9a35af8c9cf8b8f9f031131c8ac422da", "name": "9a35af8c9cf8b8f9f031131c8ac422da", "is_reserved": 0, "fusion_lat": 0.0}, {"type": "electric_scooter", "rental_uris": {"ios": "https://dc.lft.to/lastmile_qr_scan", "android": "https://dc.lft.to/lastmile_qr_scan"}, "lon": -77.02957816666667, "fusion_lon": 0.0, "is_disabled": 0, "lat": 38.904976166666664, "bike_id": "d5590aeac4d61a4d1e3be168d226e3c2", "name": "d5590aeac4d61a4d1e3be168d226e3c2", "is_reserved": 0, "fusion_lat": 0.0}, {"type": "electric_bike", "rental_uris": {"ios": "https://dc.lft.to/lastmile_qr_scan", "android": "https://dc.lft.to/lastmile_qr_scan"}, "lon": -77.02623333333334, "fusion_lon": 0.0, "is_disabled": 0, "lat": 38.962269, "bike_id": "397e169535c207443a2c55d823913bab", "name": "397e169535c207443a2c55d823913bab", "is_reserved": 0, "fusion_lat": 0.0}, {"type": "electric_scooter", "rental_uris": {"ios": "https://dc.lft.to/lastmile_qr_scan", "android": "https://dc.lft.to/lastmile_qr_scan"}, "lon": -77.03181016666667, "fusion_lon": 0.0, "is_disabled": 0, "lat": 38.920617166666666, "bike_id": "e0ff74493238787a87d05a1e36fd9e59", "name": "e0ff74493238787a87d05a1e36fd9e59", "is_reserved": 0, "fusion_lat": 0.0}, {"type": "electric_scooter", "rental_uris": {"ios": "https://dc.lft.to/lastmile_qr_scan", "android": "https://dc.lft.to/lastmile_qr_scan"}, "lon": -77.0320395, "fusion_lon": 0.0, "is_disabled": 0, "lat": 38.918207, "bike_id": "fd190b7b4d5271fb937703c8baa7c748", "name": "fd190b7b4d5271fb937703c8baa7c748", "is_reserved": 0, "fusion_lat": 0.0}, {"type": "electric_bike", "rental_uris": {"ios": "https://dc.lft.to/lastmile_qr_scan", "android": "https://dc.lft.to/lastmile_qr_scan"}, "lon": -77.36095583333334, "fusion_lon": 0.0, "is_disabled": 0, "lat": 38.939551, "bike_id": "e75e8c59e76ab6d0e9f8fdd06b73fb2a", "name": "e75e8c59e76ab6d0e9f8fdd06b73fb2a", "is_reserved": 0, "fusion_lat": 0.0}, {"type": "electric_scooter", "rental_uris": {"ios": "https://dc.lft.to/lastmile_qr_scan", "android": "https://dc.lft.to/lastmile_qr_scan"}, "lon": -77.03738916666667, "fusion_lon": 0.0, "is_disabled": 0, "lat": 38.881806, "bike_id": "6ca07b3261a4fe50467078f362fcaf8f", "name": "6ca07b3261a4fe50467078f362fcaf8f", "is_reserved": 0, "fusion_lat": 0.0}, {"type": "electric_scooter", "rental_uris": {"ios": "https://dc.lft.to/lastmile_qr_scan", "android": "https://dc.lft.to/lastmile_qr_scan"}, "lon": -77.03167916666666, "fusion_lon": 0.0, "is_disabled": 0, "lat": 38.91559083333333, "bike_id": "a88e8137ea7c78eefeb667ef8fb4acf1", "name": "a88e8137ea7c78eefeb667ef8fb4acf1", "is_reserved": 0, "fusion_lat": 0.0}, {"type": "electric_scooter", "rental_uris": {"ios": "https://dc.lft.to/lastmile_qr_scan", "android": "https://dc.lft.to/lastmile_qr_scan"}, "lon": -77.02218766666667, "fusion_lon": 0.0, "is_disabled": 0, "lat": 38.9145455, "bike_id": "33632c6de96a734fe49a3f652966dda2", "name": "33632c6de96a734fe49a3f652966dda2", "is_reserved": 0, "fusion_lat": 0.0}, {"type": "electric_scooter", "rental_uris": {"ios": "https://dc.lft.to/lastmile_qr_scan", "android": "https://dc.lft.to/lastmile_qr_scan"}, "lon": -77.03264666666666, "fusion_lon": 0.0, "is_disabled": 0, "lat": 38.921614, "bike_id": "d4dd1675ca40a2d301cf0219a5a9d2b3", "name": "d4dd1675ca40a2d301cf0219a5a9d2b3", "is_reserved": 0, "fusion_lat": 0.0}, {"type": "electric_bike", "rental_uris": {"ios": "https://dc.lft.to/lastmile_qr_scan", "android": "https://dc.lft.to/lastmile_qr_scan"}, "lon": -77.08118366666666, "fusion_lon": 0.0, "is_disabled": 0, "lat": 38.80682216666666, "bike_id": "f15b570f2d9163b738a64c0a07fdcc4b", "name": "f15b570f2d9163b738a64c0a07fdcc4b", "is_reserved": 0, "fusion_lat": 0.0}, {"type": "electric_scooter", "rental_uris": {"ios": "https://dc.lft.to/lastmile_qr_scan", "android": "https://dc.lft.to/lastmile_qr_scan"}, "lon": -77.031822, "fusion_lon": 0.0, "is_disabled": 0, "lat": 38.9098005, "bike_id": "c2279a135e97c1a593020307e6de0095", "name": "c2279a135e97c1a593020307e6de0095", "is_reserved": 0, "fusion_lat": 0.0}, {"type": "electric_scooter", "rental_uris": {"ios": "https://dc.lft.to/lastmile_qr_scan", "android": "https://dc.lft.to/lastmile_qr_scan"}, "lon": -77.00608666666666, "fusion_lon": 0.0, "is_disabled": 0, "lat": 38.87178733333333, "bike_id": "3f56323ffeba984b02b2e77aafcacb62", "name": "3f56323ffeba984b02b2e77aafcacb62", "is_reserved": 0, "fusion_lat": 0.0}, {"type": "electric_scooter", "rental_uris": {"ios": "https://dc.lft.to/lastmile_qr_scan", "android": "https://dc.lft.to/lastmile_qr_scan"}, "lon": -77.02339266666667, "fusion_lon": 0.0, "is_disabled": 0, "lat": 38.91777, "bike_id": "b8b335d5ddc6a6e5119dd64e14c19f20", "name": "b8b335d5ddc6a6e5119dd64e14c19f20", "is_reserved": 0, "fusion_lat": 0.0}, {"type": "electric_scooter", "rental_uris": {"ios": "https://dc.lft.to/lastmile_qr_scan", "android": "https://dc.lft.to/lastmile_qr_scan"}, "lon": -77.01743416666666, "fusion_lon": 0.0, "is_disabled": 0, "lat": 38.902484, "bike_id": "dedddd9c195fd1bc7afce679c5164706", "name": "dedddd9c195fd1bc7afce679c5164706", "is_reserved": 0, "fusion_lat": 0.0}, {"type": "electric_scooter", "rental_uris": {"ios": "https://dc.lft.to/lastmile_qr_scan", "android": "https://dc.lft.to/lastmile_qr_scan"}, "lon": -77.03215333333333, "fusion_lon": 0.0, "is_disabled": 0, "lat": 38.91848266666667, "bike_id": "20060ed3e196339a5e2b9a6cb9135b4a", "name": "20060ed3e196339a5e2b9a6cb9135b4a", "is_reserved": 0, "fusion_lat": 0.0}, {"type": "electric_scooter", "rental_uris": {"ios": "https://dc.lft.to/lastmile_qr_scan", "android": "https://dc.lft.to/lastmile_qr_scan"}, "lon": -76.9760165, "fusion_lon": 0.0, "is_disabled": 0, "lat": 38.90334333333333, "bike_id": "7f9efa13e91179fcbc84db82262abec9", "name": "7f9efa13e91179fcbc84db82262abec9", "is_reserved": 0, "fusion_lat": 0.0}, {"type": "electric_bike", "rental_uris": {"ios": "https://dc.lft.to/lastmile_qr_scan", "android": "https://dc.lft.to/lastmile_qr_scan"}, "lon": -77.01216866666667, "fusion_lon": 0.0, "is_disabled": 0, "lat": 38.870946333333336, "bike_id": "e6071c90918bf9569a16b9640aca12db", "name": "e6071c90918bf9569a16b9640aca12db", "is_reserved": 0, "fusion_lat": 0.0}, {"type": "electric_scooter", "rental_uris": {"ios": "https://dc.lft.to/lastmile_qr_scan", "android": "https://dc.lft.to/lastmile_qr_scan"}, "lon": -77.05909083333333, "fusion_lon": 0.0, "is_disabled": 0, "lat": 38.90236, "bike_id": "73a1a7279b9481445054321b2f0ec7fe", "name": "73a1a7279b9481445054321b2f0ec7fe", "is_reserved": 0, "fusion_lat": 0.0}, {"type": "electric_scooter", "rental_uris": {"ios": "https://dc.lft.to/lastmile_qr_scan", "android": "https://dc.lft.to/lastmile_qr_scan"}, "lon": -76.992085, "fusion_lon": 0.0, "is_disabled": 0, "lat": 38.90822933333333, "bike_id": "fd08b09409b45d420f9d37f44b6396bd", "name": "fd08b09409b45d420f9d37f44b6396bd", "is_reserved": 0, "fusion_lat": 0.0}, {"type": "electric_scooter", "rental_uris": {"ios": "https://dc.lft.to/lastmile_qr_scan", "android": "https://dc.lft.to/lastmile_qr_scan"}, "lon": -77.02426133333333, "fusion_lon": 0.0, "is_disabled": 0, "lat": 38.92047516666667, "bike_id": "91fa963c8789b5221b2a31e8636ed08f", "name": "91fa963c8789b5221b2a31e8636ed08f", "is_reserved": 0, "fusion_lat": 0.0}, {"type": "electric_scooter", "rental_uris": {"ios": "https://dc.lft.to/lastmile_qr_scan", "android": "https://dc.lft.to/lastmile_qr_scan"}, "lon": -76.97727683333333, "fusion_lon": 0.0, "is_disabled": 0, "lat": 38.87284783333333, "bike_id": "1d1bfdefbad64f245c304366534fb583", "name": "1d1bfdefbad64f245c304366534fb583", "is_reserved": 0, "fusion_lat": 0.0}, {"type": "electric_scooter", "rental_uris": {"ios": "https://dc.lft.to/lastmile_qr_scan", "android": "https://dc.lft.to/lastmile_qr_scan"}, "lon": -77.03216466666667, "fusion_lon": 0.0, "is_disabled": 0, "lat": 38.918425666666664, "bike_id": "99daee433d3b2d088f9c70ad32b8d986", "name": "99daee433d3b2d088f9c70ad32b8d986", "is_reserved": 0, "fusion_lat": 0.0}, {"type": "electric_scooter", "rental_uris": {"ios": "https://dc.lft.to/lastmile_qr_scan", "android": "https://dc.lft.to/lastmile_qr_scan"}, "lon": -77.04574316666667, "fusion_lon": 0.0, "is_disabled": 0, "lat": 38.92238283333333, "bike_id": "6e760a35ff598a6878d004504e17e8e9", "name": "6e760a35ff598a6878d004504e17e8e9", "is_reserved": 0, "fusion_lat": 0.0}, {"type": "electric_scooter", "rental_uris": {"ios": "https://dc.lft.to/lastmile_qr_scan", "android": "https://dc.lft.to/lastmile_qr_scan"}, "lon": -77.006629, "fusion_lon": 0.0, "is_disabled": 0, "lat": 38.90006483333333, "bike_id": "e4972d841a1c9692852f114df61555ab", "name": "e4972d841a1c9692852f114df61555ab", "is_reserved": 0, "fusion_lat": 0.0}, {"type": "electric_scooter", "rental_uris": {"ios": "https://dc.lft.to/lastmile_qr_scan", "android": "https://dc.lft.to/lastmile_qr_scan"}, "lon": -77.0610865, "fusion_lon": 0.0, "is_disabled": 0, "lat": 38.90528116666667, "bike_id": "cbe3b50ec847a32719defcac87264b51", "name": "cbe3b50ec847a32719defcac87264b51", "is_reserved": 0, "fusion_lat": 0.0}, {"type": "electric_scooter", "rental_uris": {"ios": "https://dc.lft.to/lastmile_qr_scan", "android": "https://dc.lft.to/lastmile_qr_scan"}, "lon": -77.046605, "fusion_lon": 0.0, "is_disabled": 0, "lat": 38.900016666666666, "bike_id": "1b0fc1326a2524a603123a449199a1a5", "name": "1b0fc1326a2524a603123a449199a1a5", "is_reserved": 0, "fusion_lat": 0.0}, {"type": "electric_scooter", "rental_uris": {"ios": "https://dc.lft.to/lastmile_qr_scan", "android": "https://dc.lft.to/lastmile_qr_scan"}, "lon": -77.02301433333334, "fusion_lon": 0.0, "is_disabled": 0, "lat": 38.9160245, "bike_id": "e722d522123246e27abc7265d448fd33", "name": "e722d522123246e27abc7265d448fd33", "is_reserved": 0, "fusion_lat": 0.0}, {"type": "electric_scooter", "rental_uris": {"ios": "https://dc.lft.to/lastmile_qr_scan", "android": "https://dc.lft.to/lastmile_qr_scan"}, "lon": -77.01949783333333, "fusion_lon": 0.0, "is_disabled": 0, "lat": 38.92255766666667, "bike_id": "10000f69ff051cf59e948b778ced149b", "name": "10000f69ff051cf59e948b778ced149b", "is_reserved": 0, "fusion_lat": 0.0}, {"type": "electric_scooter", "rental_uris": {"ios": "https://dc.lft.to/lastmile_qr_scan", "android": "https://dc.lft.to/lastmile_qr_scan"}, "lon": -77.03857416666666, "fusion_lon": 0.0, "is_disabled": 0, "lat": 38.90811816666667, "bike_id": "07610363dc68ece0d31c2b8177bb9e48", "name": "07610363dc68ece0d31c2b8177bb9e48", "is_reserved": 0, "fusion_lat": 0.0}, {"type": "electric_scooter", "rental_uris": {"ios": "https://dc.lft.to/lastmile_qr_scan", "android": "https://dc.lft.to/lastmile_qr_scan"}, "lon": -76.9964545, "fusion_lon": 0.0, "is_disabled": 0, "lat": 38.90887983333333, "bike_id": "ebecfe88d2aa913bffb2ced8c59cc61e", "name": "ebecfe88d2aa913bffb2ced8c59cc61e", "is_reserved": 0, "fusion_lat": 0.0}, {"type": "electric_scooter", "rental_uris": {"ios": "https://dc.lft.to/lastmile_qr_scan", "android": "https://dc.lft.to/lastmile_qr_scan"}, "lon": -76.995285, "fusion_lon": 0.0, "is_disabled": 0, "lat": 38.884555666666664, "bike_id": "5eb8a9a8c4f00190efb22767a9d6453e", "name": "5eb8a9a8c4f00190efb22767a9d6453e", "is_reserved": 0, "fusion_lat": 0.0}, {"type": "electric_scooter", "rental_uris": {"ios": "https://dc.lft.to/lastmile_qr_scan", "android": "https://dc.lft.to/lastmile_qr_scan"}, "lon": -77.0419035, "fusion_lon": 0.0, "is_disabled": 0, "lat": 38.90526533333333, "bike_id": "5beea472cfc5f7db08c362608f23e26a", "name": "5beea472cfc5f7db08c362608f23e26a", "is_reserved": 0, "fusion_lat": 0.0}, {"type": "electric_scooter", "rental_uris": {"ios": "https://dc.lft.to/lastmile_qr_scan", "android": "https://dc.lft.to/lastmile_qr_scan"}, "lon": -77.04189383333333, "fusion_lon": 0.0, "is_disabled": 0, "lat": 38.905657166666664, "bike_id": "787cbfdaf1fc6fad51d42f5bb48090a6", "name": "787cbfdaf1fc6fad51d42f5bb48090a6", "is_reserved": 0, "fusion_lat": 0.0}, {"type": "electric_scooter", "rental_uris": {"ios": "https://dc.lft.to/lastmile_qr_scan", "android": "https://dc.lft.to/lastmile_qr_scan"}, "lon": -76.980784, "fusion_lon": 0.0, "is_disabled": 0, "lat": 38.919525666666665, "bike_id": "81190a3c755dd317e9e92dffb661fafa", "name": "81190a3c755dd317e9e92dffb661fafa", "is_reserved": 0, "fusion_lat": 0.0}, {"type": "electric_scooter", "rental_uris": {"ios": "https://dc.lft.to/lastmile_qr_scan", "android": "https://dc.lft.to/lastmile_qr_scan"}, "lon": -77.060497, "fusion_lon": 0.0, "is_disabled": 0, "lat": 38.902347, "bike_id": "e764cd4532e040f67f31c11afc198526", "name": "e764cd4532e040f67f31c11afc198526", "is_reserved": 0, "fusion_lat": 0.0}, {"type": "electric_scooter", "rental_uris": {"ios": "https://dc.lft.to/lastmile_qr_scan", "android": "https://dc.lft.to/lastmile_qr_scan"}, "lon": -77.03416033333333, "fusion_lon": 0.0, "is_disabled": 0, "lat": 38.930913833333335, "bike_id": "15093db2d7405f74a9a1216a0c2a3796", "name": "15093db2d7405f74a9a1216a0c2a3796", "is_reserved": 0, "fusion_lat": 0.0}, {"type": "electric_scooter", "rental_uris": {"ios": "https://dc.lft.to/lastmile_qr_scan", "android": "https://dc.lft.to/lastmile_qr_scan"}, "lon": -77.02179616666666, "fusion_lon": 0.0, "is_disabled": 0, "lat": 38.91571316666667, "bike_id": "38c846bdb0467ec69d2064474eb78dad", "name": "38c846bdb0467ec69d2064474eb78dad", "is_reserved": 0, "fusion_lat": 0.0}, {"type": "electric_scooter", "rental_uris": {"ios": "https://dc.lft.to/lastmile_qr_scan", "android": "https://dc.lft.to/lastmile_qr_scan"}, "lon": -77.011343, "fusion_lon": 0.0, "is_disabled": 0, "lat": 38.885260833333334, "bike_id": "b5bfb41d8422754bd76f8d2e111b1fcc", "name": "b5bfb41d8422754bd76f8d2e111b1fcc", "is_reserved": 0, "fusion_lat": 0.0}, {"type": "electric_scooter", "rental_uris": {"ios": "https://dc.lft.to/lastmile_qr_scan", "android": "https://dc.lft.to/lastmile_qr_scan"}, "lon": -77.0272625, "fusion_lon": 0.0, "is_disabled": 0, "lat": 38.932479666666666, "bike_id": "46daba2e9ee5c5e456875f73bfe1e4b7", "name": "46daba2e9ee5c5e456875f73bfe1e4b7", "is_reserved": 0, "fusion_lat": 0.0}, {"type": "electric_bike", "rental_uris": {"ios": "https://dc.lft.to/lastmile_qr_scan", "android": "https://dc.lft.to/lastmile_qr_scan"}, "lon": -77.08612516666666, "fusion_lon": 0.0, "is_disabled": 0, "lat": 38.85942266666667, "bike_id": "2deadc58d6cca243688c1ef0d8165cc4", "name": "2deadc58d6cca243688c1ef0d8165cc4", "is_reserved": 0, "fusion_lat": 0.0}, {"type": "electric_scooter", "rental_uris": {"ios": "https://dc.lft.to/lastmile_qr_scan", "android": "https://dc.lft.to/lastmile_qr_scan"}, "lon": -77.03962633333333, "fusion_lon": 0.0, "is_disabled": 0, "lat": 38.892424166666665, "bike_id": "9e1b73be561c30aaaa9b1d184dda6e4d", "name": "9e1b73be561c30aaaa9b1d184dda6e4d", "is_reserved": 0, "fusion_lat": 0.0}, {"type": "electric_scooter", "rental_uris": {"ios": "https://dc.lft.to/lastmile_qr_scan", "android": "https://dc.lft.to/lastmile_qr_scan"}, "lon": -77.03740616666667, "fusion_lon": 0.0, "is_disabled": 0, "lat": 38.90279483333333, "bike_id": "ae90919006c19b8776572e3c3d04e3ed", "name": "ae90919006c19b8776572e3c3d04e3ed", "is_reserved": 0, "fusion_lat": 0.0}, {"type": "electric_scooter", "rental_uris": {"ios": "https://dc.lft.to/lastmile_qr_scan", "android": "https://dc.lft.to/lastmile_qr_scan"}, "lon": -77.04224016666667, "fusion_lon": 0.0, "is_disabled": 0, "lat": 38.92173066666667, "bike_id": "7c25f31506cebf7930be905db62bdb07", "name": "7c25f31506cebf7930be905db62bdb07", "is_reserved": 0, "fusion_lat": 0.0}, {"type": "electric_scooter", "rental_uris": {"ios": "https://dc.lft.to/lastmile_qr_scan", "android": "https://dc.lft.to/lastmile_qr_scan"}, "lon": -77.04365433333334, "fusion_lon": 0.0, "is_disabled": 0, "lat": 38.93327083333333, "bike_id": "868a32514d4156a1b822728a072479a9", "name": "868a32514d4156a1b822728a072479a9", "is_reserved": 0, "fusion_lat": 0.0}, {"type": "electric_scooter", "rental_uris": {"ios": "https://dc.lft.to/lastmile_qr_scan", "android": "https://dc.lft.to/lastmile_qr_scan"}, "lon": -77.02966516666666, "fusion_lon": 0.0, "is_disabled": 0, "lat": 38.925873, "bike_id": "e08d694f52c66b77971a7f5df1d72ebc", "name": "e08d694f52c66b77971a7f5df1d72ebc", "is_reserved": 0, "fusion_lat": 0.0}, {"type": "electric_scooter", "rental_uris": {"ios": "https://dc.lft.to/lastmile_qr_scan", "android": "https://dc.lft.to/lastmile_qr_scan"}, "lon": -77.04385616666667, "fusion_lon": 0.0, "is_disabled": 0, "lat": 38.910734, "bike_id": "3956430f7cd5e1f6fde41d4012a92a64", "name": "3956430f7cd5e1f6fde41d4012a92a64", "is_reserved": 0, "fusion_lat": 0.0}, {"type": "electric_bike", "rental_uris": {"ios": "https://dc.lft.to/lastmile_qr_scan", "android": "https://dc.lft.to/lastmile_qr_scan"}, "lon": -76.94788816666667, "fusion_lon": 0.0, "is_disabled": 0, "lat": 38.89400216666667, "bike_id": "5b3ce280ffaf577202de3ce9dfba31f8", "name": "5b3ce280ffaf577202de3ce9dfba31f8", "is_reserved": 0, "fusion_lat": 0.0}, {"type": "electric_scooter", "rental_uris": {"ios": "https://dc.lft.to/lastmile_qr_scan", "android": "https://dc.lft.to/lastmile_qr_scan"}, "lon": -77.0396565, "fusion_lon": 0.0, "is_disabled": 0, "lat": 38.896340333333335, "bike_id": "ab1b28508e82433c13f0208b8aae2f88", "name": "ab1b28508e82433c13f0208b8aae2f88", "is_reserved": 0, "fusion_lat": 0.0}, {"type": "electric_scooter", "rental_uris": {"ios": "https://dc.lft.to/lastmile_qr_scan", "android": "https://dc.lft.to/lastmile_qr_scan"}, "lon": -77.03433583333333, "fusion_lon": 0.0, "is_disabled": 0, "lat": 38.90730816666667, "bike_id": "0599c9289f238218155fd37c85c6e321", "name": "0599c9289f238218155fd37c85c6e321", "is_reserved": 0, "fusion_lat": 0.0}, {"type": "electric_bike", "rental_uris": {"ios": "https://dc.lft.to/lastmile_qr_scan", "android": "https://dc.lft.to/lastmile_qr_scan"}, "lon": -76.9783285, "fusion_lon": 0.0, "is_disabled": 0, "lat": 38.870735333333336, "bike_id": "1457cc70034e6c57f7699f64c2d4e85a", "name": "1457cc70034e6c57f7699f64c2d4e85a", "is_reserved": 0, "fusion_lat": 0.0}, {"type": "electric_scooter", "rental_uris": {"ios": "https://dc.lft.to/lastmile_qr_scan", "android": "https://dc.lft.to/lastmile_qr_scan"}, "lon": -77.0223295, "fusion_lon": 0.0, "is_disabled": 0, "lat": 38.91251, "bike_id": "dceab25da9a6693c96ca1552375008c4", "name": "dceab25da9a6693c96ca1552375008c4", "is_reserved": 0, "fusion_lat": 0.0}, {"type": "electric_bike", "rental_uris": {"ios": "https://dc.lft.to/lastmile_qr_scan", "android": "https://dc.lft.to/lastmile_qr_scan"}, "lon": -76.9902065, "fusion_lon": 0.0, "is_disabled": 0, "lat": 38.95473583333333, "bike_id": "50e032c7b653c1bd9bfa86b5a1845ad8", "name": "50e032c7b653c1bd9bfa86b5a1845ad8", "is_reserved": 0, "fusion_lat": 0.0}, {"type": "electric_scooter", "rental_uris": {"ios": "https://dc.lft.to/lastmile_qr_scan", "android": "https://dc.lft.to/lastmile_qr_scan"}, "lon": -77.01434366666666, "fusion_lon": 0.0, "is_disabled": 0, "lat": 38.91459533333333, "bike_id": "84fd9916bed3810924b0b7bdcee307ff", "name": "84fd9916bed3810924b0b7bdcee307ff", "is_reserved": 0, "fusion_lat": 0.0}, {"type": "electric_bike", "rental_uris": {"ios": "https://dc.lft.to/lastmile_qr_scan", "android": "https://dc.lft.to/lastmile_qr_scan"}, "lon": -76.96267266666666, "fusion_lon": 0.0, "is_disabled": 0, "lat": 38.8824045, "bike_id": "0474fab6b09ff5c9f29debde966f52c2", "name": "0474fab6b09ff5c9f29debde966f52c2", "is_reserved": 0, "fusion_lat": 0.0}, {"type": "electric_scooter", "rental_uris": {"ios": "https://dc.lft.to/lastmile_qr_scan", "android": "https://dc.lft.to/lastmile_qr_scan"}, "lon": -76.95420066666667, "fusion_lon": 0.0, "is_disabled": 0, "lat": 38.89061516666666, "bike_id": "9543d4c9c7e16f1e42700445bdcd540c", "name": "9543d4c9c7e16f1e42700445bdcd540c", "is_reserved": 0, "fusion_lat": 0.0}, {"type": "electric_scooter", "rental_uris": {"ios": "https://dc.lft.to/lastmile_qr_scan", "android": "https://dc.lft.to/lastmile_qr_scan"}, "lon": -77.03586433333334, "fusion_lon": 0.0, "is_disabled": 0, "lat": 38.93741983333334, "bike_id": "d7c84c1e8e6c8e1f6d649b30f72a48cd", "name": "d7c84c1e8e6c8e1f6d649b30f72a48cd", "is_reserved": 0, "fusion_lat": 0.0}, {"type": "electric_scooter", "rental_uris": {"ios": "https://dc.lft.to/lastmile_qr_scan", "android": "https://dc.lft.to/lastmile_qr_scan"}, "lon": -77.009263, "fusion_lon": 0.0, "is_disabled": 0, "lat": 38.87199, "bike_id": "ea94fe9c0e1c58e8f5e8751da5c2d7ad", "name": "ea94fe9c0e1c58e8f5e8751da5c2d7ad", "is_reserved": 0, "fusion_lat": 0.0}, {"type": "electric_scooter", "rental_uris": {"ios": "https://dc.lft.to/lastmile_qr_scan", "android": "https://dc.lft.to/lastmile_qr_scan"}, "lon": -77.02204316666666, "fusion_lon": 0.0, "is_disabled": 0, "lat": 38.898683166666665, "bike_id": "2f6c64f3fb3c0ac41d2b6b9ce225b97c", "name": "2f6c64f3fb3c0ac41d2b6b9ce225b97c", "is_reserved": 0, "fusion_lat": 0.0}, {"type": "electric_scooter", "rental_uris": {"ios": "https://dc.lft.to/lastmile_qr_scan", "android": "https://dc.lft.to/lastmile_qr_scan"}, "lon": -76.986154, "fusion_lon": 0.0, "is_disabled": 0, "lat": 38.88000683333333, "bike_id": "4a8501a4ac60861a971db29cd9e04bc0", "name": "4a8501a4ac60861a971db29cd9e04bc0", "is_reserved": 0, "fusion_lat": 0.0}, {"type": "electric_scooter", "rental_uris": {"ios": "https://dc.lft.to/lastmile_qr_scan", "android": "https://dc.lft.to/lastmile_qr_scan"}, "lon": -77.06451533333333, "fusion_lon": 0.0, "is_disabled": 0, "lat": 38.9052005, "bike_id": "7f46f70bf4fbc5bdf846e2afbe78eae1", "name": "7f46f70bf4fbc5bdf846e2afbe78eae1", "is_reserved": 0, "fusion_lat": 0.0}, {"type": "electric_scooter", "rental_uris": {"ios": "https://dc.lft.to/lastmile_qr_scan", "android": "https://dc.lft.to/lastmile_qr_scan"}, "lon": -77.021009, "fusion_lon": 0.0, "is_disabled": 0, "lat": 38.91079766666667, "bike_id": "7f72d4e0eb4f5d67efe4093ed29b2e5b", "name": "7f72d4e0eb4f5d67efe4093ed29b2e5b", "is_reserved": 0, "fusion_lat": 0.0}, {"type": "electric_scooter", "rental_uris": {"ios": "https://dc.lft.to/lastmile_qr_scan", "android": "https://dc.lft.to/lastmile_qr_scan"}, "lon": -77.03223016666666, "fusion_lon": 0.0, "is_disabled": 0, "lat": 38.91844666666667, "bike_id": "105eac45308b9986c2000a6534035a9c", "name": "105eac45308b9986c2000a6534035a9c", "is_reserved": 0, "fusion_lat": 0.0}, {"type": "electric_scooter", "rental_uris": {"ios": "https://dc.lft.to/lastmile_qr_scan", "android": "https://dc.lft.to/lastmile_qr_scan"}, "lon": -77.02353966666666, "fusion_lon": 0.0, "is_disabled": 0, "lat": 38.9304985, "bike_id": "00d43818158bdace1ae1424e6e08cf85", "name": "00d43818158bdace1ae1424e6e08cf85", "is_reserved": 0, "fusion_lat": 0.0}, {"type": "electric_scooter", "rental_uris": {"ios": "https://dc.lft.to/lastmile_qr_scan", "android": "https://dc.lft.to/lastmile_qr_scan"}, "lon": -77.0417115, "fusion_lon": 0.0, "is_disabled": 0, "lat": 38.917284, "bike_id": "dcfcd2045b78f2c24395336ff956cd1d", "name": "dcfcd2045b78f2c24395336ff956cd1d", "is_reserved": 0, "fusion_lat": 0.0}, {"type": "electric_scooter", "rental_uris": {"ios": "https://dc.lft.to/lastmile_qr_scan", "android": "https://dc.lft.to/lastmile_qr_scan"}, "lon": -76.92578916666666, "fusion_lon": 0.0, "is_disabled": 0, "lat": 38.89777633333333, "bike_id": "dd22607eac0a5c062937a21872fd1709", "name": "dd22607eac0a5c062937a21872fd1709", "is_reserved": 0, "fusion_lat": 0.0}, {"type": "electric_scooter", "rental_uris": {"ios": "https://dc.lft.to/lastmile_qr_scan", "android": "https://dc.lft.to/lastmile_qr_scan"}, "lon": -77.02650433333334, "fusion_lon": 0.0, "is_disabled": 0, "lat": 38.93862383333333, "bike_id": "dde23cee8cb6a573088a8b94e17dca13", "name": "dde23cee8cb6a573088a8b94e17dca13", "is_reserved": 0, "fusion_lat": 0.0}, {"type": "electric_scooter", "rental_uris": {"ios": "https://dc.lft.to/lastmile_qr_scan", "android": "https://dc.lft.to/lastmile_qr_scan"}, "lon": -77.00377133333333, "fusion_lon": 0.0, "is_disabled": 0, "lat": 38.884378166666664, "bike_id": "4e07908cca14b3af2a761c36504c699b", "name": "4e07908cca14b3af2a761c36504c699b", "is_reserved": 0, "fusion_lat": 0.0}, {"type": "electric_scooter", "rental_uris": {"ios": "https://dc.lft.to/lastmile_qr_scan", "android": "https://dc.lft.to/lastmile_qr_scan"}, "lon": -77.00306716666667, "fusion_lon": 0.0, "is_disabled": 0, "lat": 38.92476666666666, "bike_id": "6de338ca172441fa46976638855f0a8d", "name": "6de338ca172441fa46976638855f0a8d", "is_reserved": 0, "fusion_lat": 0.0}, {"type": "electric_scooter", "rental_uris": {"ios": "https://dc.lft.to/lastmile_qr_scan", "android": "https://dc.lft.to/lastmile_qr_scan"}, "lon": -76.99829033333333, "fusion_lon": 0.0, "is_disabled": 0, "lat": 38.885308, "bike_id": "03f82d3c4021a5828bdaee610779e492", "name": "03f82d3c4021a5828bdaee610779e492", "is_reserved": 0, "fusion_lat": 0.0}, {"type": "electric_bike", "rental_uris": {"ios": "https://dc.lft.to/lastmile_qr_scan", "android": "https://dc.lft.to/lastmile_qr_scan"}, "lon": -77.022702, "fusion_lon": 0.0, "is_disabled": 0, "lat": 38.9447545, "bike_id": "7139cee80231536815a311abb6787582", "name": "7139cee80231536815a311abb6787582", "is_reserved": 0, "fusion_lat": 0.0}, {"type": "electric_scooter", "rental_uris": {"ios": "https://dc.lft.to/lastmile_qr_scan", "android": "https://dc.lft.to/lastmile_qr_scan"}, "lon": -77.02716533333333, "fusion_lon": 0.0, "is_disabled": 0, "lat": 38.906855166666666, "bike_id": "ea08f767cc3a4d3d0562bb6eb7f6fce2", "name": "ea08f767cc3a4d3d0562bb6eb7f6fce2", "is_reserved": 0, "fusion_lat": 0.0}, {"type": "electric_scooter", "rental_uris": {"ios": "https://dc.lft.to/lastmile_qr_scan", "android": "https://dc.lft.to/lastmile_qr_scan"}, "lon": -77.02589533333334, "fusion_lon": 0.0, "is_disabled": 0, "lat": 38.914150666666664, "bike_id": "40c769b0aadcda2beab4b63f91b6650c", "name": "40c769b0aadcda2beab4b63f91b6650c", "is_reserved": 0, "fusion_lat": 0.0}, {"type": "electric_scooter", "rental_uris": {"ios": "https://dc.lft.to/lastmile_qr_scan", "android": "https://dc.lft.to/lastmile_qr_scan"}, "lon": -77.02199666666667, "fusion_lon": 0.0, "is_disabled": 0, "lat": 38.910458166666665, "bike_id": "563ae6c7ee6fc9389aec4dddb16aae63", "name": "563ae6c7ee6fc9389aec4dddb16aae63", "is_reserved": 0, "fusion_lat": 0.0}, {"type": "electric_bike", "rental_uris": {"ios": "https://dc.lft.to/lastmile_qr_scan", "android": "https://dc.lft.to/lastmile_qr_scan"}, "lon": -76.993556, "fusion_lon": 0.0, "is_disabled": 0, "lat": 38.84505716666666, "bike_id": "1ac7d6238e6045870ec565db2dfee2d0", "name": "1ac7d6238e6045870ec565db2dfee2d0", "is_reserved": 0, "fusion_lat": 0.0}, {"type": "electric_scooter", "rental_uris": {"ios": "https://dc.lft.to/lastmile_qr_scan", "android": "https://dc.lft.to/lastmile_qr_scan"}, "lon": -77.03119583333333, "fusion_lon": 0.0, "is_disabled": 0, "lat": 38.93765533333333, "bike_id": "2874323da4b1cd42547c869907181cd4", "name": "2874323da4b1cd42547c869907181cd4", "is_reserved": 0, "fusion_lat": 0.0}, {"type": "electric_scooter", "rental_uris": {"ios": "https://dc.lft.to/lastmile_qr_scan", "android": "https://dc.lft.to/lastmile_qr_scan"}, "lon": -77.02692583333334, "fusion_lon": 0.0, "is_disabled": 0, "lat": 38.90677433333333, "bike_id": "91df4b927085c9e556a91eaf76345ed1", "name": "91df4b927085c9e556a91eaf76345ed1", "is_reserved": 0, "fusion_lat": 0.0}, {"type": "electric_scooter", "rental_uris": {"ios": "https://dc.lft.to/lastmile_qr_scan", "android": "https://dc.lft.to/lastmile_qr_scan"}, "lon": -77.0526665, "fusion_lon": 0.0, "is_disabled": 0, "lat": 38.92544, "bike_id": "d6656326f987fe4ba899a9d85a02d80f", "name": "d6656326f987fe4ba899a9d85a02d80f", "is_reserved": 0, "fusion_lat": 0.0}, {"type": "electric_scooter", "rental_uris": {"ios": "https://dc.lft.to/lastmile_qr_scan", "android": "https://dc.lft.to/lastmile_qr_scan"}, "lon": -77.01513033333333, "fusion_lon": 0.0, "is_disabled": 0, "lat": 38.894844666666664, "bike_id": "d6233a2fcad27e2c67202bc05a040589", "name": "d6233a2fcad27e2c67202bc05a040589", "is_reserved": 0, "fusion_lat": 0.0}, {"type": "electric_scooter", "rental_uris": {"ios": "https://dc.lft.to/lastmile_qr_scan", "android": "https://dc.lft.to/lastmile_qr_scan"}, "lon": -76.97953466666667, "fusion_lon": 0.0, "is_disabled": 0, "lat": 38.945282, "bike_id": "d28e6d7d3628b041db5cba14b73d0d52", "name": "d28e6d7d3628b041db5cba14b73d0d52", "is_reserved": 0, "fusion_lat": 0.0}, {"type": "electric_scooter", "rental_uris": {"ios": "https://dc.lft.to/lastmile_qr_scan", "android": "https://dc.lft.to/lastmile_qr_scan"}, "lon": -77.044936, "fusion_lon": 0.0, "is_disabled": 0, "lat": 38.90375916666667, "bike_id": "09e7ab8d9a1481517687490e5c6f5433", "name": "09e7ab8d9a1481517687490e5c6f5433", "is_reserved": 0, "fusion_lat": 0.0}, {"type": "electric_scooter", "rental_uris": {"ios": "https://dc.lft.to/lastmile_qr_scan", "android": "https://dc.lft.to/lastmile_qr_scan"}, "lon": -77.011649, "fusion_lon": 0.0, "is_disabled": 0, "lat": 38.90036383333333, "bike_id": "3d29ef189d03440d02532249ba9e1abb", "name": "3d29ef189d03440d02532249ba9e1abb", "is_reserved": 0, "fusion_lat": 0.0}, {"type": "electric_scooter", "rental_uris": {"ios": "https://dc.lft.to/lastmile_qr_scan", "android": "https://dc.lft.to/lastmile_qr_scan"}, "lon": -77.00618333333334, "fusion_lon": 0.0, "is_disabled": 0, "lat": 38.905944166666664, "bike_id": "5814f35b3922c30c25cb642046fa1d8c", "name": "5814f35b3922c30c25cb642046fa1d8c", "is_reserved": 0, "fusion_lat": 0.0}, {"type": "electric_scooter", "rental_uris": {"ios": "https://dc.lft.to/lastmile_qr_scan", "android": "https://dc.lft.to/lastmile_qr_scan"}, "lon": -77.02316583333334, "fusion_lon": 0.0, "is_disabled": 0, "lat": 38.91635983333333, "bike_id": "1dcb02bdc565067abf9655b09ea172b3", "name": "1dcb02bdc565067abf9655b09ea172b3", "is_reserved": 0, "fusion_lat": 0.0}, {"type": "electric_bike", "rental_uris": {"ios": "https://dc.lft.to/lastmile_qr_scan", "android": "https://dc.lft.to/lastmile_qr_scan"}, "lon": -77.02065916666666, "fusion_lon": 0.0, "is_disabled": 0, "lat": 38.9643965, "bike_id": "e7ded1607af8b80c5c3361d9489f250e", "name": "e7ded1607af8b80c5c3361d9489f250e", "is_reserved": 0, "fusion_lat": 0.0}, {"type": "electric_scooter", "rental_uris": {"ios": "https://dc.lft.to/lastmile_qr_scan", "android": "https://dc.lft.to/lastmile_qr_scan"}, "lon": -77.05221933333333, "fusion_lon": 0.0, "is_disabled": 0, "lat": 38.924970333333334, "bike_id": "fac5f87a1d9eb34587f1690683ef323b", "name": "fac5f87a1d9eb34587f1690683ef323b", "is_reserved": 0, "fusion_lat": 0.0}, {"type": "electric_scooter", "rental_uris": {"ios": "https://dc.lft.to/lastmile_qr_scan", "android": "https://dc.lft.to/lastmile_qr_scan"}, "lon": -77.03218966666667, "fusion_lon": 0.0, "is_disabled": 0, "lat": 38.91405916666667, "bike_id": "7b8749047abb15ef473125753752f249", "name": "7b8749047abb15ef473125753752f249", "is_reserved": 0, "fusion_lat": 0.0}, {"type": "electric_scooter", "rental_uris": {"ios": "https://dc.lft.to/lastmile_qr_scan", "android": "https://dc.lft.to/lastmile_qr_scan"}, "lon": -77.0074935, "fusion_lon": 0.0, "is_disabled": 0, "lat": 38.876486, "bike_id": "8e978c1d1ac33015d095031851a89a44", "name": "8e978c1d1ac33015d095031851a89a44", "is_reserved": 0, "fusion_lat": 0.0}, {"type": "electric_bike", "rental_uris": {"ios": "https://dc.lft.to/lastmile_qr_scan", "android": "https://dc.lft.to/lastmile_qr_scan"}, "lon": -77.0980035, "fusion_lon": 0.0, "is_disabled": 0, "lat": 38.850296666666665, "bike_id": "204b699a7ca22fe57ca3961c65be7c45", "name": "204b699a7ca22fe57ca3961c65be7c45", "is_reserved": 0, "fusion_lat": 0.0}, {"type": "electric_scooter", "rental_uris": {"ios": "https://dc.lft.to/lastmile_qr_scan", "android": "https://dc.lft.to/lastmile_qr_scan"}, "lon": -76.92878866666666, "fusion_lon": 0.0, "is_disabled": 0, "lat": 38.885234, "bike_id": "363d3b4e29b0b7dc973a7aef00606eba", "name": "363d3b4e29b0b7dc973a7aef00606eba", "is_reserved": 0, "fusion_lat": 0.0}, {"type": "electric_scooter", "rental_uris": {"ios": "https://dc.lft.to/lastmile_qr_scan", "android": "https://dc.lft.to/lastmile_qr_scan"}, "lon": -77.0331155, "fusion_lon": 0.0, "is_disabled": 0, "lat": 38.900284166666665, "bike_id": "e8509303240daae3dfbcede7fa220413", "name": "e8509303240daae3dfbcede7fa220413", "is_reserved": 0, "fusion_lat": 0.0}, {"type": "electric_scooter", "rental_uris": {"ios": "https://dc.lft.to/lastmile_qr_scan", "android": "https://dc.lft.to/lastmile_qr_scan"}, "lon": -77.041876, "fusion_lon": 0.0, "is_disabled": 0, "lat": 38.90143616666667, "bike_id": "6aa64a320fca0433aaf566873b89089f", "name": "6aa64a320fca0433aaf566873b89089f", "is_reserved": 0, "fusion_lat": 0.0}, {"type": "electric_bike", "rental_uris": {"ios": "https://dc.lft.to/lastmile_qr_scan", "android": "https://dc.lft.to/lastmile_qr_scan"}, "lon": -76.99666, "fusion_lon": 0.0, "is_disabled": 0, "lat": 38.89738066666666, "bike_id": "2cbda0e4e386ead4329ee5d62559b210", "name": "2cbda0e4e386ead4329ee5d62559b210", "is_reserved": 0, "fusion_lat": 0.0}, {"type": "electric_scooter", "rental_uris": {"ios": "https://dc.lft.to/lastmile_qr_scan", "android": "https://dc.lft.to/lastmile_qr_scan"}, "lon": -77.04772566666666, "fusion_lon": 0.0, "is_disabled": 0, "lat": 38.90853416666667, "bike_id": "c9b66df078740017e1be28acb5fb72ec", "name": "c9b66df078740017e1be28acb5fb72ec", "is_reserved": 0, "fusion_lat": 0.0}, {"type": "electric_bike", "rental_uris": {"ios": "https://dc.lft.to/lastmile_qr_scan", "android": "https://dc.lft.to/lastmile_qr_scan"}, "lon": -77.00332533333334, "fusion_lon": 0.0, "is_disabled": 0, "lat": 38.874968833333334, "bike_id": "46ec5e8afc8cfadfa86b8cca10975b06", "name": "46ec5e8afc8cfadfa86b8cca10975b06", "is_reserved": 0, "fusion_lat": 0.0}, {"type": "electric_scooter", "rental_uris": {"ios": "https://dc.lft.to/lastmile_qr_scan", "android": "https://dc.lft.to/lastmile_qr_scan"}, "lon": -77.02721616666666, "fusion_lon": 0.0, "is_disabled": 0, "lat": 38.92482316666667, "bike_id": "15197ae46557b92193de6e435202d0d9", "name": "15197ae46557b92193de6e435202d0d9", "is_reserved": 0, "fusion_lat": 0.0}, {"type": "electric_scooter", "rental_uris": {"ios": "https://dc.lft.to/lastmile_qr_scan", "android": "https://dc.lft.to/lastmile_qr_scan"},