{"data": {"bikes": [{"lat": 38.8921905, "is_disabled": 0, "type": "electric_scooter", "lon": -77.0451115, "bike_id": "8b91fbe4bb373c3e8c15984260da8fa2", "fusion_lat": 0.0, "name": "8b91fbe4bb373c3e8c15984260da8fa2", "is_reserved": 0, "rental_uris": {"android": "https://dc.lft.to/lastmile_qr_scan", "ios": "https://dc.lft.to/lastmile_qr_scan"}, "fusion_lon": 0.0}, {"lat": 38.90270316666667, "is_disabled": 0, "type": "electric_scooter", "lon": -77.03858216666667, "bike_id": "aace3dcebc5ba6f0fdf79c2e37609c4e", "fusion_lat": 0.0, "name": "aace3dcebc5ba6f0fdf79c2e37609c4e", "is_reserved": 0, "rental_uris": {"android": "https://dc.lft.to/lastmile_qr_scan", "ios": "https://dc.lft.to/lastmile_qr_scan"}, "fusion_lon": 0.0}, {"lat": 38.90379716666666, "is_disabled": 0, "type": "electric_scooter", "lon": -77.0363005, "bike_id": "faefa7c8b42f63ebe982f8b335be4aed", "fusion_lat": 0.0, "name": "faefa7c8b42f63ebe982f8b335be4aed", "is_reserved": 0, "rental_uris": {"android": "https://dc.lft.to/lastmile_qr_scan", "ios": "https://dc.lft.to/lastmile_qr_scan"}, "fusion_lon": 0.0}, {"lat": 38.93247683333333, "is_disabled": 0, "type": "electric_scooter", "lon": -77.0327705, "bike_id": "7cc5c4ceec7eef8a066608c587076a49", "fusion_lat": 0.0, "name": "7cc5c4ceec7eef8a066608c587076a49", "is_reserved": 0, "rental_uris": {"android": "https://dc.lft.to/lastmile_qr_scan", "ios": "https://dc.lft.to/lastmile_qr_scan"}, "fusion_lon": 0.0}, {"lat": 38.90737583333333, "is_disabled": 0, "type": "electric_scooter", "lon": -77.02716533333333, "bike_id": "cfb9537407a094c8f6f0eeccde4636b3", "fusion_lat": 0.0, "name": "cfb9537407a094c8f6f0eeccde4636b3", "is_reserved": 0, "rental_uris": {"android": "https://dc.lft.to/lastmile_qr_scan", "ios": "https://dc.lft.to/lastmile_qr_scan"}, "fusion_lon": 0.0}, {"lat": 38.89738066666666, "is_disabled": 0, "type": "electric_scooter", "lon": -77.02728, "bike_id": "4f9824cb6d304718879e96a1166c738a", "fusion_lat": 0.0, "name": "4f9824cb6d304718879e96a1166c738a", "is_reserved": 0, "rental_uris": {"android": "https://dc.lft.to/lastmile_qr_scan", "ios": "https://dc.lft.to/lastmile_qr_scan"}, "fusion_lon": 0.0}, {"lat": 38.922164333333335, "is_disabled": 0, "type": "electric_scooter", "lon": -77.04238233333334, "bike_id": "851901866b7e354cf3d48c9a747b12e6", "fusion_lat": 0.0, "name": "851901866b7e354cf3d48c9a747b12e6", "is_reserved": 0, "rental_uris": {"android": "https://dc.lft.to/lastmile_qr_scan", "ios": "https://dc.lft.to/lastmile_qr_scan"}, "fusion_lon": 0.0}, {"lat": 38.9288425, "is_disabled": 0, "type": "electric_scooter", "lon": -77.027091, "bike_id": "b107a92c257001de5ec24d8a0fc9ddb0", "fusion_lat": 0.0, "name": "b107a92c257001de5ec24d8a0fc9ddb0", "is_reserved": 0, "rental_uris": {"android": "https://dc.lft.to/lastmile_qr_scan", "ios": "https://dc.lft.to/lastmile_qr_scan"}, "fusion_lon": 0.0}, {"lat": 38.923798166666664, "is_disabled": 0, "type": "electric_scooter", "lon": -77.03124566666666, "bike_id": "6f83877a952de28d0e7ad3b822d82718", "fusion_lat": 0.0, "name": "6f83877a952de28d0e7ad3b822d82718", "is_reserved": 0, "rental_uris": {"android": "https://dc.lft.to/lastmile_qr_scan", "ios": "https://dc.lft.to/lastmile_qr_scan"}, "fusion_lon": 0.0}, {"lat": 38.927635, "is_disabled": 0, "type": "electric_scooter", "lon": -77.02620833333333, "bike_id": "819aa5153447c73a9c932b1302aa54da", "fusion_lat": 0.0, "name": "819aa5153447c73a9c932b1302aa54da", "is_reserved": 0, "rental_uris": {"android": "https://dc.lft.to/lastmile_qr_scan", "ios": "https://dc.lft.to/lastmile_qr_scan"}, "fusion_lon": 0.0}, {"lat": 38.92246883333333, "is_disabled": 0, "type": "electric_scooter", "lon": -77.03468816666667, "bike_id": "6162e08debb2c2d040b7b4b609449282", "fusion_lat": 0.0, "name": "6162e08debb2c2d040b7b4b609449282", "is_reserved": 0, "rental_uris": {"android": "https://dc.lft.to/lastmile_qr_scan", "ios": "https://dc.lft.to/lastmile_qr_scan"}, "fusion_lon": 0.0}, {"lat": 38.90304916666667, "is_disabled": 0, "type": "electric_scooter", "lon": -77.04179283333333, "bike_id": "573f1c0ed5ee6e065c64f4418c3396cd", "fusion_lat": 0.0, "name": "573f1c0ed5ee6e065c64f4418c3396cd", "is_reserved": 0, "rental_uris": {"android": "https://dc.lft.to/lastmile_qr_scan", "ios": "https://dc.lft.to/lastmile_qr_scan"}, "fusion_lon": 0.0}, {"lat": 38.935091, "is_disabled": 0, "type": "electric_scooter", "lon": -77.03351083333334, "bike_id": "fca241778351f1a62412f998438e27ab", "fusion_lat": 0.0, "name": "fca241778351f1a62412f998438e27ab", "is_reserved": 0, "rental_uris": {"android": "https://dc.lft.to/lastmile_qr_scan", "ios": "https://dc.lft.to/lastmile_qr_scan"}, "fusion_lon": 0.0}, {"lat": 38.902609, "is_disabled": 0, "type": "electric_scooter", "lon": -77.01758566666666, "bike_id": "53ce442b24a9bcc5319642862a3eb107", "fusion_lat": 0.0, "name": "53ce442b24a9bcc5319642862a3eb107", "is_reserved": 0, "rental_uris": {"android": "https://dc.lft.to/lastmile_qr_scan", "ios": "https://dc.lft.to/lastmile_qr_scan"}, "fusion_lon": 0.0}, {"lat": 38.90455333333333, "is_disabled": 0, "type": "electric_scooter", "lon": -77.062877, "bike_id": "9d0d1047f2660cab6236edf556a3810c", "fusion_lat": 0.0, "name": "9d0d1047f2660cab6236edf556a3810c", "is_reserved": 0, "rental_uris": {"android": "https://dc.lft.to/lastmile_qr_scan", "ios": "https://dc.lft.to/lastmile_qr_scan"}, "fusion_lon": 0.0}, {"lat": 38.89681866666667, "is_disabled": 0, "type": "electric_scooter", "lon": -76.93608466666667, "bike_id": "e1662289bf669f78b201fd6a2c6c2f5f", "fusion_lat": 0.0, "name": "e1662289bf669f78b201fd6a2c6c2f5f", "is_reserved": 0, "rental_uris": {"android": "https://dc.lft.to/lastmile_qr_scan", "ios": "https://dc.lft.to/lastmile_qr_scan"}, "fusion_lon": 0.0}, {"lat": 38.902136, "is_disabled": 0, "type": "electric_scooter", "lon": -77.03361033333333, "bike_id": "d4cb38d2bf88dcf15ed7db8315e1c466", "fusion_lat": 0.0, "name": "d4cb38d2bf88dcf15ed7db8315e1c466", "is_reserved": 0, "rental_uris": {"android": "https://dc.lft.to/lastmile_qr_scan", "ios": "https://dc.lft.to/lastmile_qr_scan"}, "fusion_lon": 0.0}, {"lat": 38.9171135, "is_disabled": 0, "type": "electric_scooter", "lon": -77.02573216666667, "bike_id": "94a8272fa52117aa0506129892bb2965", "fusion_lat": 0.0, "name": "94a8272fa52117aa0506129892bb2965", "is_reserved": 0, "rental_uris": {"android": "https://dc.lft.to/lastmile_qr_scan", "ios": "https://dc.lft.to/lastmile_qr_scan"}, "fusion_lon": 0.0}, {"lat": 38.921166166666666, "is_disabled": 0, "type": "electric_scooter", "lon": -77.04167483333333, "bike_id": "c94e24195e3bedaf9c30dfa9d1cc74a8", "fusion_lat": 0.0, "name": "c94e24195e3bedaf9c30dfa9d1cc74a8", "is_reserved": 0, "rental_uris": {"android": "https://dc.lft.to/lastmile_qr_scan", "ios": "https://dc.lft.to/lastmile_qr_scan"}, "fusion_lon": 0.0}, {"lat": 38.88447166666667, "is_disabled": 0, "type": "electric_scooter", "lon": -76.9509635, "bike_id": "abb4aeb855002cfa312ef7bf841dbb89", "fusion_lat": 0.0, "name": "abb4aeb855002cfa312ef7bf841dbb89", "is_reserved": 0, "rental_uris": {"android": "https://dc.lft.to/lastmile_qr_scan", "ios": "https://dc.lft.to/lastmile_qr_scan"}, "fusion_lon": 0.0}, {"lat": 38.924947333333336, "is_disabled": 0, "type": "electric_scooter", "lon": -77.05227383333333, "bike_id": "1f89ed4e7cd4cc5cc4e377d319102610", "fusion_lat": 0.0, "name": "1f89ed4e7cd4cc5cc4e377d319102610", "is_reserved": 0, "rental_uris": {"android": "https://dc.lft.to/lastmile_qr_scan", "ios": "https://dc.lft.to/lastmile_qr_scan"}, "fusion_lon": 0.0}, {"lat": 38.948234666666664, "is_disabled": 0, "type": "electric_scooter", "lon": -76.99904066666667, "bike_id": "a94275a92a02efeee199a3b69d11e13d", "fusion_lat": 0.0, "name": "a94275a92a02efeee199a3b69d11e13d", "is_reserved": 0, "rental_uris": {"android": "https://dc.lft.to/lastmile_qr_scan", "ios": "https://dc.lft.to/lastmile_qr_scan"}, "fusion_lon": 0.0}, {"lat": 38.91739283333333, "is_disabled": 0, "type": "electric_scooter", "lon": -77.03190766666667, "bike_id": "73658ff8a9d5ce03177a968fbd86a7f2", "fusion_lat": 0.0, "name": "73658ff8a9d5ce03177a968fbd86a7f2", "is_reserved": 0, "rental_uris": {"android": "https://dc.lft.to/lastmile_qr_scan", "ios": "https://dc.lft.to/lastmile_qr_scan"}, "fusion_lon": 0.0}, {"lat": 38.90223983333333, "is_disabled": 0, "type": "electric_scooter", "lon": -77.06040866666666, "bike_id": "f8a81a77e02be2e45d6a2f896795bad4", "fusion_lat": 0.0, "name": "f8a81a77e02be2e45d6a2f896795bad4", "is_reserved": 0, "rental_uris": {"android": "https://dc.lft.to/lastmile_qr_scan", "ios": "https://dc.lft.to/lastmile_qr_scan"}, "fusion_lon": 0.0}, {"lat": 38.944579166666664, "is_disabled": 0, "type": "electric_scooter", "lon": -77.0601915, "bike_id": "02ea0212f7d6c82a3a95f2185b03e438", "fusion_lat": 0.0, "name": "02ea0212f7d6c82a3a95f2185b03e438", "is_reserved": 0, "rental_uris": {"android": "https://dc.lft.to/lastmile_qr_scan", "ios": "https://dc.lft.to/lastmile_qr_scan"}, "fusion_lon": 0.0}, {"lat": 38.919987166666665, "is_disabled": 0, "type": "electric_scooter", "lon": -77.03229666666667, "bike_id": "c250ebbcc231a4409400b63c10696568", "fusion_lat": 0.0, "name": "c250ebbcc231a4409400b63c10696568", "is_reserved": 0, "rental_uris": {"android": "https://dc.lft.to/lastmile_qr_scan", "ios": "https://dc.lft.to/lastmile_qr_scan"}, "fusion_lon": 0.0}, {"lat": 38.923634666666665, "is_disabled": 0, "type": "electric_scooter", "lon": -77.05133266666667, "bike_id": "56edc16b21d1e6daec5ca4a0a54f7ce7", "fusion_lat": 0.0, "name": "56edc16b21d1e6daec5ca4a0a54f7ce7", "is_reserved": 0, "rental_uris": {"android": "https://dc.lft.to/lastmile_qr_scan", "ios": "https://dc.lft.to/lastmile_qr_scan"}, "fusion_lon": 0.0}, {"lat": 38.8801275, "is_disabled": 0, "type": "electric_scooter", "lon": -76.96012, "bike_id": "7dbf8d272429513be5712ce604e7fe74", "fusion_lat": 0.0, "name": "7dbf8d272429513be5712ce604e7fe74", "is_reserved": 0, "rental_uris": {"android": "https://dc.lft.to/lastmile_qr_scan", "ios": "https://dc.lft.to/lastmile_qr_scan"}, "fusion_lon": 0.0}, {"lat": 38.9253975, "is_disabled": 0, "type": "electric_scooter", "lon": -77.05269883333334, "bike_id": "3ce2436ad1a8f7a1c5e588dad508fe79", "fusion_lat": 0.0, "name": "3ce2436ad1a8f7a1c5e588dad508fe79", "is_reserved": 0, "rental_uris": {"android": "https://dc.lft.to/lastmile_qr_scan", "ios": "https://dc.lft.to/lastmile_qr_scan"}, "fusion_lon": 0.0}, {"lat": 38.938592666666665, "is_disabled": 0, "type": "electric_scooter", "lon": -77.030893, "bike_id": "aaccc00ecce3140c9d8b7d0151906933", "fusion_lat": 0.0, "name": "aaccc00ecce3140c9d8b7d0151906933", "is_reserved": 0, "rental_uris": {"android": "https://dc.lft.to/lastmile_qr_scan", "ios": "https://dc.lft.to/lastmile_qr_scan"}, "fusion_lon": 0.0}, {"lat": 38.91807166666667, "is_disabled": 0, "type": "electric_scooter", "lon": -77.0319405, "bike_id": "a1252fb25b85955d97a26728eadfc2b8", "fusion_lat": 0.0, "name": "a1252fb25b85955d97a26728eadfc2b8", "is_reserved": 0, "rental_uris": {"android": "https://dc.lft.to/lastmile_qr_scan", "ios": "https://dc.lft.to/lastmile_qr_scan"}, "fusion_lon": 0.0}, {"lat": 38.893579833333334, "is_disabled": 0, "type": "electric_scooter", "lon": -77.02204133333333, "bike_id": "ceeb541101ea907f627b898b88f513f5", "fusion_lat": 0.0, "name": "ceeb541101ea907f627b898b88f513f5", "is_reserved": 0, "rental_uris": {"android": "https://dc.lft.to/lastmile_qr_scan", "ios": "https://dc.lft.to/lastmile_qr_scan"}, "fusion_lon": 0.0}, {"lat": 38.8665265, "is_disabled": 0, "type": "electric_scooter", "lon": -76.98886983333334, "bike_id": "a0d1f1271fe8da469ccdc2ccbd7cb506", "fusion_lat": 0.0, "name": "a0d1f1271fe8da469ccdc2ccbd7cb506", "is_reserved": 0, "rental_uris": {"android": "https://dc.lft.to/lastmile_qr_scan", "ios": "https://dc.lft.to/lastmile_qr_scan"}, "fusion_lon": 0.0}, {"lat": 38.911236333333335, "is_disabled": 0, "type": "electric_scooter", "lon": -77.02694216666667, "bike_id": "c5a04cb290d93146100250221fe190f0", "fusion_lat": 0.0, "name": "c5a04cb290d93146100250221fe190f0", "is_reserved": 0, "rental_uris": {"android": "https://dc.lft.to/lastmile_qr_scan", "ios": "https://dc.lft.to/lastmile_qr_scan"}, "fusion_lon": 0.0}, {"lat": 38.91750616666667, "is_disabled": 0, "type": "electric_scooter", "lon": -77.041557, "bike_id": "0986e8b7f4058a5ebda7ab16b3f6cbb5", "fusion_lat": 0.0, "name": "0986e8b7f4058a5ebda7ab16b3f6cbb5", "is_reserved": 0, "rental_uris": {"android": "https://dc.lft.to/lastmile_qr_scan", "ios": "https://dc.lft.to/lastmile_qr_scan"}, "fusion_lon": 0.0}, {"lat": 38.921987666666666, "is_disabled": 0, "type": "electric_scooter", "lon": -77.04230433333333, "bike_id": "3f6a48701187a77e5ae3c8617fee9d89", "fusion_lat": 0.0, "name": "3f6a48701187a77e5ae3c8617fee9d89", "is_reserved": 0, "rental_uris": {"android": "https://dc.lft.to/lastmile_qr_scan", "ios": "https://dc.lft.to/lastmile_qr_scan"}, "fusion_lon": 0.0}, {"lat": 38.93871166666667, "is_disabled": 0, "type": "electric_scooter", "lon": -77.0312215, "bike_id": "4c8a63d293b0fc5270b01f0837ba46b8", "fusion_lat": 0.0, "name": "4c8a63d293b0fc5270b01f0837ba46b8", "is_reserved": 0, "rental_uris": {"android": "https://dc.lft.to/lastmile_qr_scan", "ios": "https://dc.lft.to/lastmile_qr_scan"}, "fusion_lon": 0.0}, {"lat": 38.910055666666665, "is_disabled": 0, "type": "electric_scooter", "lon": -76.99391516666667, "bike_id": "516b4629ac16e341ea6a101bb41a7ee6", "fusion_lat": 0.0, "name": "516b4629ac16e341ea6a101bb41a7ee6", "is_reserved": 0, "rental_uris": {"android": "https://dc.lft.to/lastmile_qr_scan", "ios": "https://dc.lft.to/lastmile_qr_scan"}, "fusion_lon": 0.0}, {"lat": 38.916696, "is_disabled": 0, "type": "electric_scooter", "lon": -77.027213, "bike_id": "eb97bbfffa8e37b87ef88d798cd1196e", "fusion_lat": 0.0, "name": "eb97bbfffa8e37b87ef88d798cd1196e", "is_reserved": 0, "rental_uris": {"android": "https://dc.lft.to/lastmile_qr_scan", "ios": "https://dc.lft.to/lastmile_qr_scan"}, "fusion_lon": 0.0}, {"lat": 38.90553466666667, "is_disabled": 0, "type": "electric_bike", "lon": -77.05854433333333, "bike_id": "622dbf6f9b57c1b1d26ddb99b0e1c9cd", "fusion_lat": 0.0, "name": "622dbf6f9b57c1b1d26ddb99b0e1c9cd", "is_reserved": 0, "rental_uris": {"android": "https://dc.lft.to/lastmile_qr_scan", "ios": "https://dc.lft.to/lastmile_qr_scan"}, "fusion_lon": 0.0}, {"lat": 38.892212, "is_disabled": 0, "type": "electric_scooter", "lon": -77.04199316666667, "bike_id": "2fb95ded9a229aa47c973e72a9f05dbc", "fusion_lat": 0.0, "name": "2fb95ded9a229aa47c973e72a9f05dbc", "is_reserved": 0, "rental_uris": {"android": "https://dc.lft.to/lastmile_qr_scan", "ios": "https://dc.lft.to/lastmile_qr_scan"}, "fusion_lon": 0.0}, {"lat": 38.9170845, "is_disabled": 0, "type": "electric_scooter", "lon": -77.031238, "bike_id": "22fa0a702743a0650ce51e0025cb6c3f", "fusion_lat": 0.0, "name": "22fa0a702743a0650ce51e0025cb6c3f", "is_reserved": 0, "rental_uris": {"android": "https://dc.lft.to/lastmile_qr_scan", "ios": "https://dc.lft.to/lastmile_qr_scan"}, "fusion_lon": 0.0}, {"lat": 38.900547333333336, "is_disabled": 0, "type": "electric_scooter", "lon": -77.00201316666667, "bike_id": "1266acc44d0718ce5f9e62fec4989bd0", "fusion_lat": 0.0, "name": "1266acc44d0718ce5f9e62fec4989bd0", "is_reserved": 0, "rental_uris": {"android": "https://dc.lft.to/lastmile_qr_scan", "ios": "https://dc.lft.to/lastmile_qr_scan"}, "fusion_lon": 0.0}, {"lat": 38.920792666666664, "is_disabled": 0, "type": "electric_scooter", "lon": -77.03646233333333, "bike_id": "597b6fd4847fa1970346fb1534485b18", "fusion_lat": 0.0, "name": "597b6fd4847fa1970346fb1534485b18", "is_reserved": 0, "rental_uris": {"android": "https://dc.lft.to/lastmile_qr_scan", "ios": "https://dc.lft.to/lastmile_qr_scan"}, "fusion_lon": 0.0}, {"lat": 38.88676516666666, "is_disabled": 0, "type": "electric_bike", "lon": -77.16240966666666, "bike_id": "6119aa48add1c62be727fce2d8b6b3ac", "fusion_lat": 0.0, "name": "6119aa48add1c62be727fce2d8b6b3ac", "is_reserved": 0, "rental_uris": {"android": "https://dc.lft.to/lastmile_qr_scan", "ios": "https://dc.lft.to/lastmile_qr_scan"}, "fusion_lon": 0.0}, {"lat": 38.890046, "is_disabled": 0, "type": "electric_scooter", "lon": -76.937436, "bike_id": "18591729ffc667f55459296b23cef3d6", "fusion_lat": 0.0, "name": "18591729ffc667f55459296b23cef3d6", "is_reserved": 0, "rental_uris": {"android": "https://dc.lft.to/lastmile_qr_scan", "ios": "https://dc.lft.to/lastmile_qr_scan"}, "fusion_lon": 0.0}, {"lat": 38.92091766666667, "is_disabled": 0, "type": "electric_scooter", "lon": -77.01731583333333, "bike_id": "ee461034f2fb8cb9862679b8f1448cd0", "fusion_lat": 0.0, "name": "ee461034f2fb8cb9862679b8f1448cd0", "is_reserved": 0, "rental_uris": {"android": "https://dc.lft.to/lastmile_qr_scan", "ios": "https://dc.lft.to/lastmile_qr_scan"}, "fusion_lon": 0.0}, {"lat": 38.929904666666665, "is_disabled": 0, "type": "electric_scooter", "lon": -77.03636383333334, "bike_id": "a8cb8bb85d209f1fc93c31b0ccef7ff1", "fusion_lat": 0.0, "name": "a8cb8bb85d209f1fc93c31b0ccef7ff1", "is_reserved": 0, "rental_uris": {"android": "https://dc.lft.to/lastmile_qr_scan", "ios": "https://dc.lft.to/lastmile_qr_scan"}, "fusion_lon": 0.0}, {"lat": 38.90107316666667, "is_disabled": 0, "type": "electric_scooter", "lon": -76.99548083333333, "bike_id": "daf109aa8abc772044d874d93914a3a9", "fusion_lat": 0.0, "name": "daf109aa8abc772044d874d93914a3a9", "is_reserved": 0, "rental_uris": {"android": "https://dc.lft.to/lastmile_qr_scan", "ios": "https://dc.lft.to/lastmile_qr_scan"}, "fusion_lon": 0.0}, {"lat": 38.89927616666667, "is_disabled": 0, "type": "electric_scooter", "lon": -77.03276016666666, "bike_id": "67d45a2a60e294b858b3b29e066106d6", "fusion_lat": 0.0, "name": "67d45a2a60e294b858b3b29e066106d6", "is_reserved": 0, "rental_uris": {"android": "https://dc.lft.to/lastmile_qr_scan", "ios": "https://dc.lft.to/lastmile_qr_scan"}, "fusion_lon": 0.0}, {"lat": 38.90418783333333, "is_disabled": 0, "type": "electric_scooter", "lon": -77.0688965, "bike_id": "fe97c623428489c0288361d2ecfa428a", "fusion_lat": 0.0, "name": "fe97c623428489c0288361d2ecfa428a", "is_reserved": 0, "rental_uris": {"android": "https://dc.lft.to/lastmile_qr_scan", "ios": "https://dc.lft.to/lastmile_qr_scan"}, "fusion_lon": 0.0}, {"lat": 38.88524066666667, "is_disabled": 0, "type": "electric_scooter", "lon": -77.01134333333333, "bike_id": "79698d970772c1c26324207ad4f92179", "fusion_lat": 0.0, "name": "79698d970772c1c26324207ad4f92179", "is_reserved": 0, "rental_uris": {"android": "https://dc.lft.to/lastmile_qr_scan", "ios": "https://dc.lft.to/lastmile_qr_scan"}, "fusion_lon": 0.0}, {"lat": 38.86165966666667, "is_disabled": 0, "type": "electric_bike", "lon": -77.13146233333333, "bike_id": "842b5cb4dd63bcd3a22b051cdbc94ca3", "fusion_lat": 0.0, "name": "842b5cb4dd63bcd3a22b051cdbc94ca3", "is_reserved": 0, "rental_uris": {"android": "https://dc.lft.to/lastmile_qr_scan", "ios": "https://dc.lft.to/lastmile_qr_scan"}, "fusion_lon": 0.0}, {"lat": 38.866981, "is_disabled": 0, "type": "electric_scooter", "lon": -76.98713466666666, "bike_id": "616bfcce67ff1d9ca7ec48e464864958", "fusion_lat": 0.0, "name": "616bfcce67ff1d9ca7ec48e464864958", "is_reserved": 0, "rental_uris": {"android": "https://dc.lft.to/lastmile_qr_scan", "ios": "https://dc.lft.to/lastmile_qr_scan"}, "fusion_lon": 0.0}, {"lat": 38.9178295, "is_disabled": 0, "type": "electric_bike", "lon": -76.97187666666667, "bike_id": "97efb26bbda7b273de12f325ea55391e", "fusion_lat": 0.0, "name": "97efb26bbda7b273de12f325ea55391e", "is_reserved": 0, "rental_uris": {"android": "https://dc.lft.to/lastmile_qr_scan", "ios": "https://dc.lft.to/lastmile_qr_scan"}, "fusion_lon": 0.0}, {"lat": 38.906777166666664, "is_disabled": 0, "type": "electric_scooter", "lon": -77.02695266666667, "bike_id": "dc054530f5a9b79559adb19975d37f84", "fusion_lat": 0.0, "name": "dc054530f5a9b79559adb19975d37f84", "is_reserved": 0, "rental_uris": {"android": "https://dc.lft.to/lastmile_qr_scan", "ios": "https://dc.lft.to/lastmile_qr_scan"}, "fusion_lon": 0.0}, {"lat": 38.903748666666665, "is_disabled": 0, "type": "electric_scooter", "lon": -77.04485566666666, "bike_id": "bba5430cdb25b32fa00fbeda2b77b102", "fusion_lat": 0.0, "name": "bba5430cdb25b32fa00fbeda2b77b102", "is_reserved": 0, "rental_uris": {"android": "https://dc.lft.to/lastmile_qr_scan", "ios": "https://dc.lft.to/lastmile_qr_scan"}, "fusion_lon": 0.0}, {"lat": 38.9056095, "is_disabled": 0, "type": "electric_scooter", "lon": -77.01768733333333, "bike_id": "37b736d8f94347d408f35d8cccb235a8", "fusion_lat": 0.0, "name": "37b736d8f94347d408f35d8cccb235a8", "is_reserved": 0, "rental_uris": {"android": "https://dc.lft.to/lastmile_qr_scan", "ios": "https://dc.lft.to/lastmile_qr_scan"}, "fusion_lon": 0.0}, {"lat": 38.90576733333333, "is_disabled": 0, "type": "electric_scooter", "lon": -77.00600266666666, "bike_id": "8308c0b1d840f7d6c70e450ca55511d3", "fusion_lat": 0.0, "name": "8308c0b1d840f7d6c70e450ca55511d3", "is_reserved": 0, "rental_uris": {"android": "https://dc.lft.to/lastmile_qr_scan", "ios": "https://dc.lft.to/lastmile_qr_scan"}, "fusion_lon": 0.0}, {"lat": 38.8989575, "is_disabled": 0, "type": "electric_scooter", "lon": -76.997303, "bike_id": "3398b1728b508888085788e396b070f9", "fusion_lat": 0.0, "name": "3398b1728b508888085788e396b070f9", "is_reserved": 0, "rental_uris": {"android": "https://dc.lft.to/lastmile_qr_scan", "ios": "https://dc.lft.to/lastmile_qr_scan"}, "fusion_lon": 0.0}, {"lat": 38.89365883333333, "is_disabled": 0, "type": "electric_scooter", "lon": -77.00327766666666, "bike_id": "a3371b193c8b9f0deeddfcc24738c8dd", "fusion_lat": 0.0, "name": "a3371b193c8b9f0deeddfcc24738c8dd", "is_reserved": 0, "rental_uris": {"android": "https://dc.lft.to/lastmile_qr_scan", "ios": "https://dc.lft.to/lastmile_qr_scan"}, "fusion_lon": 0.0}, {"lat": 38.90580966666667, "is_disabled": 0, "type": "electric_scooter", "lon": -77.00881183333334, "bike_id": "367b6142bf39eb0b410ceb8e9ee5d68e", "fusion_lat": 0.0, "name": "367b6142bf39eb0b410ceb8e9ee5d68e", "is_reserved": 0, "rental_uris": {"android": "https://dc.lft.to/lastmile_qr_scan", "ios": "https://dc.lft.to/lastmile_qr_scan"}, "fusion_lon": 0.0}, {"lat": 38.92038316666667, "is_disabled": 0, "type": "electric_scooter", "lon": -77.029919, "bike_id": "f5c4ba317619c3e4388effe314f71eef", "fusion_lat": 0.0, "name": "f5c4ba317619c3e4388effe314f71eef", "is_reserved": 0, "rental_uris": {"android": "https://dc.lft.to/lastmile_qr_scan", "ios": "https://dc.lft.to/lastmile_qr_scan"}, "fusion_lon": 0.0}, {"lat": 38.877215, "is_disabled": 0, "type": "electric_scooter", "lon": -77.0175695, "bike_id": "c7b5eba3ab01661c8fd761d6d73015f9", "fusion_lat": 0.0, "name": "c7b5eba3ab01661c8fd761d6d73015f9", "is_reserved": 0, "rental_uris": {"android": "https://dc.lft.to/lastmile_qr_scan", "ios": "https://dc.lft.to/lastmile_qr_scan"}, "fusion_lon": 0.0}, {"lat": 38.88140083333333, "is_disabled": 0, "type": "electric_scooter", "lon": -76.99510333333333, "bike_id": "806a2cbe5ce71f7332a9267765ab866a", "fusion_lat": 0.0, "name": "806a2cbe5ce71f7332a9267765ab866a", "is_reserved": 0, "rental_uris": {"android": "https://dc.lft.to/lastmile_qr_scan", "ios": "https://dc.lft.to/lastmile_qr_scan"}, "fusion_lon": 0.0}, {"lat": 38.8988415, "is_disabled": 0, "type": "electric_scooter", "lon": -76.93173683333333, "bike_id": "3484ac89ef26368ac0d6d6ac9360c2b0", "fusion_lat": 0.0, "name": "3484ac89ef26368ac0d6d6ac9360c2b0", "is_reserved": 0, "rental_uris": {"android": "https://dc.lft.to/lastmile_qr_scan", "ios": "https://dc.lft.to/lastmile_qr_scan"}, "fusion_lon": 0.0}, {"lat": 38.868899666666664, "is_disabled": 0, "type": "electric_scooter", "lon": -76.98315766666667, "bike_id": "20d33f16f12dfedfe8dc0d012e0e4cf8", "fusion_lat": 0.0, "name": "20d33f16f12dfedfe8dc0d012e0e4cf8", "is_reserved": 0, "rental_uris": {"android": "https://dc.lft.to/lastmile_qr_scan", "ios": "https://dc.lft.to/lastmile_qr_scan"}, "fusion_lon": 0.0}, {"lat": 38.9126885, "is_disabled": 0, "type": "electric_scooter", "lon": -77.04483516666667, "bike_id": "d3a7931488b7eecc8f6273535b47fa62", "fusion_lat": 0.0, "name": "d3a7931488b7eecc8f6273535b47fa62", "is_reserved": 0, "rental_uris": {"android": "https://dc.lft.to/lastmile_qr_scan", "ios": "https://dc.lft.to/lastmile_qr_scan"}, "fusion_lon": 0.0}, {"lat": 38.9020785, "is_disabled": 0, "type": "electric_scooter", "lon": -76.99272466666666, "bike_id": "b762161d381d9d2c61b2b738cf5ca286", "fusion_lat": 0.0, "name": "b762161d381d9d2c61b2b738cf5ca286", "is_reserved": 0, "rental_uris": {"android": "https://dc.lft.to/lastmile_qr_scan", "ios": "https://dc.lft.to/lastmile_qr_scan"}, "fusion_lon": 0.0}, {"lat": 38.89927616666667, "is_disabled": 0, "type": "electric_scooter", "lon": -77.028066, "bike_id": "4355e04a399d07605718329137b8be3a", "fusion_lat": 0.0, "name": "4355e04a399d07605718329137b8be3a", "is_reserved": 0, "rental_uris": {"android": "https://dc.lft.to/lastmile_qr_scan", "ios": "https://dc.lft.to/lastmile_qr_scan"}, "fusion_lon": 0.0}, {"lat": 38.934871333333334, "is_disabled": 0, "type": "electric_bike", "lon": -77.020901, "bike_id": "0c99751215c862f7006455b4d82b45cb", "fusion_lat": 0.0, "name": "0c99751215c862f7006455b4d82b45cb", "is_reserved": 0, "rental_uris": {"android": "https://dc.lft.to/lastmile_qr_scan", "ios": "https://dc.lft.to/lastmile_qr_scan"}, "fusion_lon": 0.0}, {"lat": 38.919505666666666, "is_disabled": 0, "type": "electric_scooter", "lon": -77.07985516666666, "bike_id": "324f6e5bc161e9cceae9cae86f733de3", "fusion_lat": 0.0, "name": "324f6e5bc161e9cceae9cae86f733de3", "is_reserved": 0, "rental_uris": {"android": "https://dc.lft.to/lastmile_qr_scan", "ios": "https://dc.lft.to/lastmile_qr_scan"}, "fusion_lon": 0.0}, {"lat": 38.90229383333333, "is_disabled": 0, "type": "electric_scooter", "lon": -77.00582533333333, "bike_id": "238bb4e461947e3450b429797bd7ec8a", "fusion_lat": 0.0, "name": "238bb4e461947e3450b429797bd7ec8a", "is_reserved": 0, "rental_uris": {"android": "https://dc.lft.to/lastmile_qr_scan", "ios": "https://dc.lft.to/lastmile_qr_scan"}, "fusion_lon": 0.0}, {"lat": 38.91800766666667, "is_disabled": 0, "type": "electric_bike", "lon": -77.223323, "bike_id": "ffb7acb8165f36b56c1454fb63cae259", "fusion_lat": 0.0, "name": "ffb7acb8165f36b56c1454fb63cae259", "is_reserved": 0, "rental_uris": {"android": "https://dc.lft.to/lastmile_qr_scan", "ios": "https://dc.lft.to/lastmile_qr_scan"}, "fusion_lon": 0.0}, {"lat": 38.92313733333334, "is_disabled": 0, "type": "electric_scooter", "lon": -77.0365685, "bike_id": "6255bc68e1e198b4a811f3bf26ef1dcb", "fusion_lat": 0.0, "name": "6255bc68e1e198b4a811f3bf26ef1dcb", "is_reserved": 0, "rental_uris": {"android": "https://dc.lft.to/lastmile_qr_scan", "ios": "https://dc.lft.to/lastmile_qr_scan"}, "fusion_lon": 0.0}, {"lat": 38.931883666666664, "is_disabled": 0, "type": "electric_scooter", "lon": -77.02833233333334, "bike_id": "05e4d40eea1993294545b552fecbc520", "fusion_lat": 0.0, "name": "05e4d40eea1993294545b552fecbc520", "is_reserved": 0, "rental_uris": {"android": "https://dc.lft.to/lastmile_qr_scan", "ios": "https://dc.lft.to/lastmile_qr_scan"}, "fusion_lon": 0.0}, {"lat": 38.912660333333335, "is_disabled": 0, "type": "electric_scooter", "lon": -77.022514, "bike_id": "e910f232337046c76dffabd26949342f", "fusion_lat": 0.0, "name": "e910f232337046c76dffabd26949342f", "is_reserved": 0, "rental_uris": {"android": "https://dc.lft.to/lastmile_qr_scan", "ios": "https://dc.lft.to/lastmile_qr_scan"}, "fusion_lon": 0.0}, {"lat": 38.890109833333334, "is_disabled": 0, "type": "electric_scooter", "lon": -76.93743833333333, "bike_id": "6d26579f31028261f322ef50e4b3a50d", "fusion_lat": 0.0, "name": "6d26579f31028261f322ef50e4b3a50d", "is_reserved": 0, "rental_uris": {"android": "https://dc.lft.to/lastmile_qr_scan", "ios": "https://dc.lft.to/lastmile_qr_scan"}, "fusion_lon": 0.0}, {"lat": 38.9181595, "is_disabled": 0, "type": "electric_scooter", "lon": -77.03205466666667, "bike_id": "d804b14d4f2db940ba7310da6f3a1f9d", "fusion_lat": 0.0, "name": "d804b14d4f2db940ba7310da6f3a1f9d", "is_reserved": 0, "rental_uris": {"android": "https://dc.lft.to/lastmile_qr_scan", "ios": "https://dc.lft.to/lastmile_qr_scan"}, "fusion_lon": 0.0}, {"lat": 38.9228385, "is_disabled": 0, "type": "electric_scooter", "lon": -77.03665716666667, "bike_id": "30afb74e20248c3305af8c6eddf62032", "fusion_lat": 0.0, "name": "30afb74e20248c3305af8c6eddf62032", "is_reserved": 0, "rental_uris": {"android": "https://dc.lft.to/lastmile_qr_scan", "ios": "https://dc.lft.to/lastmile_qr_scan"}, "fusion_lon": 0.0}, {"lat": 38.9201845, "is_disabled": 0, "type": "electric_scooter", "lon": -77.01437916666667, "bike_id": "7196d9034ad815f3769490c0d33b0378", "fusion_lat": 0.0, "name": "7196d9034ad815f3769490c0d33b0378", "is_reserved": 0, "rental_uris": {"android": "https://dc.lft.to/lastmile_qr_scan", "ios": "https://dc.lft.to/lastmile_qr_scan"}, "fusion_lon": 0.0}, {"lat": 38.91052916666666, "is_disabled": 0, "type": "electric_scooter", "lon": -77.04405633333333, "bike_id": "6d52d778da221e0b82329b5e20e6ebb4", "fusion_lat": 0.0, "name": "6d52d778da221e0b82329b5e20e6ebb4", "is_reserved": 0, "rental_uris": {"android": "https://dc.lft.to/lastmile_qr_scan", "ios": "https://dc.lft.to/lastmile_qr_scan"}, "fusion_lon": 0.0}, {"lat": 38.91124, "is_disabled": 0, "type": "electric_scooter", "lon": -77.026931, "bike_id": "084894f6a3c3a614c44017fbf6b9eb76", "fusion_lat": 0.0, "name": "084894f6a3c3a614c44017fbf6b9eb76", "is_reserved": 0, "rental_uris": {"android": "https://dc.lft.to/lastmile_qr_scan", "ios": "https://dc.lft.to/lastmile_qr_scan"}, "fusion_lon": 0.0}, {"lat": 38.91676733333333, "is_disabled": 0, "type": "electric_scooter", "lon": -77.02974033333334, "bike_id": "0aed96ecc7a5404fd88c4cb0a7cc262a", "fusion_lat": 0.0, "name": "0aed96ecc7a5404fd88c4cb0a7cc262a", "is_reserved": 0, "rental_uris": {"android": "https://dc.lft.to/lastmile_qr_scan", "ios": "https://dc.lft.to/lastmile_qr_scan"}, "fusion_lon": 0.0}, {"lat": 38.89674816666667, "is_disabled": 0, "type": "electric_scooter", "lon": -77.05127416666667, "bike_id": "bc9c1d0d38158a7f9286b3df6d8400bd", "fusion_lat": 0.0, "name": "bc9c1d0d38158a7f9286b3df6d8400bd", "is_reserved": 0, "rental_uris": {"android": "https://dc.lft.to/lastmile_qr_scan", "ios": "https://dc.lft.to/lastmile_qr_scan"}, "fusion_lon": 0.0}, {"lat": 38.876617333333336, "is_disabled": 0, "type": "electric_scooter", "lon": -77.0041565, "bike_id": "dec8e4cfe1c8f17a177df3ff1227d1ab", "fusion_lat": 0.0, "name": "dec8e4cfe1c8f17a177df3ff1227d1ab", "is_reserved": 0, "rental_uris": {"android": "https://dc.lft.to/lastmile_qr_scan", "ios": "https://dc.lft.to/lastmile_qr_scan"}, "fusion_lon": 0.0}, {"lat": 38.93517333333333, "is_disabled": 0, "type": "electric_scooter", "lon": -77.03266866666667, "bike_id": "e90ca3efe1ee4547791a811790a20f31", "fusion_lat": 0.0, "name": "e90ca3efe1ee4547791a811790a20f31", "is_reserved": 0, "rental_uris": {"android": "https://dc.lft.to/lastmile_qr_scan", "ios": "https://dc.lft.to/lastmile_qr_scan"}, "fusion_lon": 0.0}, {"lat": 38.93670783333334, "is_disabled": 0, "type": "electric_bike", "lon": -76.952043, "bike_id": "bf4cad14c5e50bbcd28cec57c0dada89", "fusion_lat": 0.0, "name": "bf4cad14c5e50bbcd28cec57c0dada89", "is_reserved": 0, "rental_uris": {"android": "https://dc.lft.to/lastmile_qr_scan", "ios": "https://dc.lft.to/lastmile_qr_scan"}, "fusion_lon": 0.0}, {"lat": 38.87295266666667, "is_disabled": 0, "type": "electric_bike", "lon": -76.9608375, "bike_id": "34a238e5135bee374c2084e13dcaf352", "fusion_lat": 0.0, "name": "34a238e5135bee374c2084e13dcaf352", "is_reserved": 0, "rental_uris": {"android": "https://dc.lft.to/lastmile_qr_scan", "ios": "https://dc.lft.to/lastmile_qr_scan"}, "fusion_lon": 0.0}, {"lat": 38.93013066666666, "is_disabled": 0, "type": "electric_bike", "lon": -77.21646433333333, "bike_id": "7e93b28ff400ce1020ad4f1c66883efa", "fusion_lat": 0.0, "name": "7e93b28ff400ce1020ad4f1c66883efa", "is_reserved": 0, "rental_uris": {"android": "https://dc.lft.to/lastmile_qr_scan", "ios": "https://dc.lft.to/lastmile_qr_scan"}, "fusion_lon": 0.0}, {"lat": 38.994221333333336, "is_disabled": 0, "type": "electric_bike", "lon": -77.02652316666666, "bike_id": "c53f26798ec2260d59d432f9443d2c68", "fusion_lat": 0.0, "name": "c53f26798ec2260d59d432f9443d2c68", "is_reserved": 0, "rental_uris": {"android": "https://dc.lft.to/lastmile_qr_scan", "ios": "https://dc.lft.to/lastmile_qr_scan"}, "fusion_lon": 0.0}, {"lat": 38.91269233333333, "is_disabled": 0, "type": "electric_scooter", "lon": -77.03940933333334, "bike_id": "4f446b394cfc4194b6186555109eb4fb", "fusion_lat": 0.0, "name": "4f446b394cfc4194b6186555109eb4fb", "is_reserved": 0, "rental_uris": {"android": "https://dc.lft.to/lastmile_qr_scan", "ios": "https://dc.lft.to/lastmile_qr_scan"}, "fusion_lon": 0.0}, {"lat": 38.9072555, "is_disabled": 0, "type": "electric_scooter", "lon": -77.03436816666667, "bike_id": "154aa4d3ab53ac0a65ebc1f6082810ca", "fusion_lat": 0.0, "name": "154aa4d3ab53ac0a65ebc1f6082810ca", "is_reserved": 0, "rental_uris": {"android": "https://dc.lft.to/lastmile_qr_scan", "ios": "https://dc.lft.to/lastmile_qr_scan"}, "fusion_lon": 0.0}, {"lat": 38.919633166666664, "is_disabled": 0, "type": "electric_bike", "lon": -76.972644, "bike_id": "78e02cc9b75dda43ba37ec75aa9c0b7b", "fusion_lat": 0.0, "name": "78e02cc9b75dda43ba37ec75aa9c0b7b", "is_reserved": 0, "rental_uris": {"android": "https://dc.lft.to/lastmile_qr_scan", "ios": "https://dc.lft.to/lastmile_qr_scan"}, "fusion_lon": 0.0}, {"lat": 38.90000416666667, "is_disabled": 0, "type": "electric_scooter", "lon": -77.00675183333334, "bike_id": "b7e2da6ccd3e741d42a265268e4ee656", "fusion_lat": 0.0, "name": "b7e2da6ccd3e741d42a265268e4ee656", "is_reserved": 0, "rental_uris": {"android": "https://dc.lft.to/lastmile_qr_scan", "ios": "https://dc.lft.to/lastmile_qr_scan"}, "fusion_lon": 0.0}, {"lat": 38.899364166666665, "is_disabled": 0, "type": "electric_scooter", "lon": -77.0411675, "bike_id": "3edf534d488c4dcb7eb380cf5dcbc859", "fusion_lat": 0.0, "name": "3edf534d488c4dcb7eb380cf5dcbc859", "is_reserved": 0, "rental_uris": {"android": "https://dc.lft.to/lastmile_qr_scan", "ios": "https://dc.lft.to/lastmile_qr_scan"}, "fusion_lon": 0.0}, {"lat": 38.91115333333333, "is_disabled": 0, "type": "electric_scooter", "lon": -77.04456366666666, "bike_id": "173eeb794d7b9be28d4f27de31571340", "fusion_lat": 0.0, "name": "173eeb794d7b9be28d4f27de31571340", "is_reserved": 0, "rental_uris": {"android": "https://dc.lft.to/lastmile_qr_scan", "ios": "https://dc.lft.to/lastmile_qr_scan"}, "fusion_lon": 0.0}, {"lat": 38.85454383333333, "is_disabled": 0, "type": "electric_scooter", "lon": -76.97240683333334, "bike_id": "44675a4e42a89d80cc1b9c67126962c2", "fusion_lat": 0.0, "name": "44675a4e42a89d80cc1b9c67126962c2", "is_reserved": 0, "rental_uris": {"android": "https://dc.lft.to/lastmile_qr_scan", "ios": "https://dc.lft.to/lastmile_qr_scan"}, "fusion_lon": 0.0}, {"lat": 38.904067, "is_disabled": 0, "type": "electric_scooter", "lon": -77.02581183333334, "bike_id": "7300135368ef57026781022d83652821", "fusion_lat": 0.0, "name": "7300135368ef57026781022d83652821", "is_reserved": 0, "rental_uris": {"android": "https://dc.lft.to/lastmile_qr_scan", "ios": "https://dc.lft.to/lastmile_qr_scan"}, "fusion_lon": 0.0}, {"lat": 38.933704, "is_disabled": 0, "type": "electric_bike", "lon": -76.97227633333333, "bike_id": "121b1b5f0591a3126a644c720ed21677", "fusion_lat": 0.0, "name": "121b1b5f0591a3126a644c720ed21677", "is_reserved": 0, "rental_uris": {"android": "https://dc.lft.to/lastmile_qr_scan", "ios": "https://dc.lft.to/lastmile_qr_scan"}, "fusion_lon": 0.0}, {"lat": 38.902223666666664, "is_disabled": 0, "type": "electric_scooter", "lon": -77.043546, "bike_id": "a84e41e776d41b27244b60b08f275584", "fusion_lat": 0.0, "name": "a84e41e776d41b27244b60b08f275584", "is_reserved": 0, "rental_uris": {"android": "https://dc.lft.to/lastmile_qr_scan", "ios": "https://dc.lft.to/lastmile_qr_scan"}, "fusion_lon": 0.0}, {"lat": 39.03050066666667, "is_disabled": 0, "type": "electric_bike", "lon": -77.09482616666666, "bike_id": "aebcfd058939145ce6529a7438e4025e", "fusion_lat": 0.0, "name": "aebcfd058939145ce6529a7438e4025e", "is_reserved": 0, "rental_uris": {"android": "https://dc.lft.to/lastmile_qr_scan", "ios": "https://dc.lft.to/lastmile_qr_scan"}, "fusion_lon": 0.0}, {"lat": 38.8851065, "is_disabled": 0, "type": "electric_scooter", "lon": -77.00681333333333, "bike_id": "aae0fc57cc980d6f6391c81be44401ec", "fusion_lat": 0.0, "name": "aae0fc57cc980d6f6391c81be44401ec", "is_reserved": 0, "rental_uris": {"android": "https://dc.lft.to/lastmile_qr_scan", "ios": "https://dc.lft.to/lastmile_qr_scan"}, "fusion_lon": 0.0}, {"lat": 38.90380866666667, "is_disabled": 0, "type": "electric_scooter", "lon": -77.04909666666667, "bike_id": "defe3901dd49538760ee0748f54b17de", "fusion_lat": 0.0, "name": "defe3901dd49538760ee0748f54b17de", "is_reserved": 0, "rental_uris": {"android": "https://dc.lft.to/lastmile_qr_scan", "ios": "https://dc.lft.to/lastmile_qr_scan"}, "fusion_lon": 0.0}, {"lat": 38.9134115, "is_disabled": 0, "type": "electric_scooter", "lon": -77.0487875, "bike_id": "d990cc810363768abd5fc6a44168353a", "fusion_lat": 0.0, "name": "d990cc810363768abd5fc6a44168353a", "is_reserved": 0, "rental_uris": {"android": "https://dc.lft.to/lastmile_qr_scan", "ios": "https://dc.lft.to/lastmile_qr_scan"}, "fusion_lon": 0.0}, {"lat": 38.89555216666667, "is_disabled": 0, "type": "electric_scooter", "lon": -77.04674266666666, "bike_id": "e8d7f2a88d154a428b81c702deae1bb1", "fusion_lat": 0.0, "name": "e8d7f2a88d154a428b81c702deae1bb1", "is_reserved": 0, "rental_uris": {"android": "https://dc.lft.to/lastmile_qr_scan", "ios": "https://dc.lft.to/lastmile_qr_scan"}, "fusion_lon": 0.0}, {"lat": 38.9223435, "is_disabled": 0, "type": "electric_scooter", "lon": -77.07313366666666, "bike_id": "4b698d5f85ae74cee8a909b7f0756f91", "fusion_lat": 0.0, "name": "4b698d5f85ae74cee8a909b7f0756f91", "is_reserved": 0, "rental_uris": {"android": "https://dc.lft.to/lastmile_qr_scan", "ios": "https://dc.lft.to/lastmile_qr_scan"}, "fusion_lon": 0.0}, {"lat": 38.90335433333333, "is_disabled": 0, "type": "electric_scooter", "lon": -77.03832916666667, "bike_id": "6d686762b85511ab4d6418962f1696c4", "fusion_lat": 0.0, "name": "6d686762b85511ab4d6418962f1696c4", "is_reserved": 0, "rental_uris": {"android": "https://dc.lft.to/lastmile_qr_scan", "ios": "https://dc.lft.to/lastmile_qr_scan"}, "fusion_lon": 0.0}, {"lat": 38.905761166666665, "is_disabled": 0, "type": "electric_scooter", "lon": -77.00049966666667, "bike_id": "35abbde9865bcac9f908d97c243cecf9", "fusion_lat": 0.0, "name": "35abbde9865bcac9f908d97c243cecf9", "is_reserved": 0, "rental_uris": {"android": "https://dc.lft.to/lastmile_qr_scan", "ios": "https://dc.lft.to/lastmile_qr_scan"}, "fusion_lon": 0.0}, {"lat": 38.9067195, "is_disabled": 0, "type": "electric_scooter", "lon": -77.03828583333333, "bike_id": "60fd8a74db09bccf96d5715ac5341320", "fusion_lat": 0.0, "name": "60fd8a74db09bccf96d5715ac5341320", "is_reserved": 0, "rental_uris": {"android": "https://dc.lft.to/lastmile_qr_scan", "ios": "https://dc.lft.to/lastmile_qr_scan"}, "fusion_lon": 0.0}, {"lat": 38.934178, "is_disabled": 0, "type": "electric_scooter", "lon": -77.04134733333333, "bike_id": "d319691edd75c7310f8c20d2daf23525", "fusion_lat": 0.0, "name": "d319691edd75c7310f8c20d2daf23525", "is_reserved": 0, "rental_uris": {"android": "https://dc.lft.to/lastmile_qr_scan", "ios": "https://dc.lft.to/lastmile_qr_scan"}, "fusion_lon": 0.0}, {"lat": 38.915612, "is_disabled": 0, "type": "electric_scooter", "lon": -77.02005383333334, "bike_id": "2b5a8b186c32470a1868219f78eaaf20", "fusion_lat": 0.0, "name": "2b5a8b186c32470a1868219f78eaaf20", "is_reserved": 0, "rental_uris": {"android": "https://dc.lft.to/lastmile_qr_scan", "ios": "https://dc.lft.to/lastmile_qr_scan"}, "fusion_lon": 0.0}, {"lat": 38.88427683333333, "is_disabled": 0, "type": "electric_scooter", "lon": -76.95756033333333, "bike_id": "838beab9a64c8c3ee52598c179500875", "fusion_lat": 0.0, "name": "838beab9a64c8c3ee52598c179500875", "is_reserved": 0, "rental_uris": {"android": "https://dc.lft.to/lastmile_qr_scan", "ios": "https://dc.lft.to/lastmile_qr_scan"}, "fusion_lon": 0.0}, {"lat": 38.9073175, "is_disabled": 0, "type": "electric_scooter", "lon": -77.02710083333334, "bike_id": "7c1a64420765043fd38751c4a92fa994", "fusion_lat": 0.0, "name": "7c1a64420765043fd38751c4a92fa994", "is_reserved": 0, "rental_uris": {"android": "https://dc.lft.to/lastmile_qr_scan", "ios": "https://dc.lft.to/lastmile_qr_scan"}, "fusion_lon": 0.0}, {"lat": 38.89657116666667, "is_disabled": 0, "type": "electric_scooter", "lon": -77.0282445, "bike_id": "f826929c87d7306e829eb212496ee1b6", "fusion_lat": 0.0, "name": "f826929c87d7306e829eb212496ee1b6", "is_reserved": 0, "rental_uris": {"android": "https://dc.lft.to/lastmile_qr_scan", "ios": "https://dc.lft.to/lastmile_qr_scan"}, "fusion_lon": 0.0}, {"lat": 38.92441266666667, "is_disabled": 0, "type": "electric_scooter", "lon": -77.04030366666667, "bike_id": "9ea194958170259ef4f4de01f998bdcb", "fusion_lat": 0.0, "name": "9ea194958170259ef4f4de01f998bdcb", "is_reserved": 0, "rental_uris": {"android": "https://dc.lft.to/lastmile_qr_scan", "ios": "https://dc.lft.to/lastmile_qr_scan"}, "fusion_lon": 0.0}, {"lat": 38.8999415, "is_disabled": 0, "type": "electric_scooter", "lon": -77.03156933333334, "bike_id": "b2894c3579eb8636d9a0f93967dc08a8", "fusion_lat": 0.0, "name": "b2894c3579eb8636d9a0f93967dc08a8", "is_reserved": 0, "rental_uris": {"android": "https://dc.lft.to/lastmile_qr_scan", "ios": "https://dc.lft.to/lastmile_qr_scan"}, "fusion_lon": 0.0}, {"lat": 38.90966783333333, "is_disabled": 0, "type": "electric_scooter", "lon": -77.03237733333333, "bike_id": "1c75435e42e7949640e17a160ecdf22a", "fusion_lat": 0.0, "name": "1c75435e42e7949640e17a160ecdf22a", "is_reserved": 0, "rental_uris": {"android": "https://dc.lft.to/lastmile_qr_scan", "ios": "https://dc.lft.to/lastmile_qr_scan"}, "fusion_lon": 0.0}, {"lat": 38.902723333333334, "is_disabled": 0, "type": "electric_scooter", "lon": -77.0384775, "bike_id": "1523817c2a85e87b17e8e35d147e88d5", "fusion_lat": 0.0, "name": "1523817c2a85e87b17e8e35d147e88d5", "is_reserved": 0, "rental_uris": {"android": "https://dc.lft.to/lastmile_qr_scan", "ios": "https://dc.lft.to/lastmile_qr_scan"}, "fusion_lon": 0.0}, {"lat": 38.91676, "is_disabled": 0, "type": "electric_scooter", "lon": -77.0271975, "bike_id": "2c413f6ba8e9f1989ca72dd3cfc3bb44", "fusion_lat": 0.0, "name": "2c413f6ba8e9f1989ca72dd3cfc3bb44", "is_reserved": 0, "rental_uris": {"android": "https://dc.lft.to/lastmile_qr_scan", "ios": "https://dc.lft.to/lastmile_qr_scan"}, "fusion_lon": 0.0}, {"lat": 38.91874083333333, "is_disabled": 0, "type": "electric_scooter", "lon": -77.0444815, "bike_id": "28c8896298536eaaa551d6d4672845d8", "fusion_lat": 0.0, "name": "28c8896298536eaaa551d6d4672845d8", "is_reserved": 0, "rental_uris": {"android": "https://dc.lft.to/lastmile_qr_scan", "ios": "https://dc.lft.to/lastmile_qr_scan"}, "fusion_lon": 0.0}, {"lat": 38.9234315, "is_disabled": 0, "type": "electric_scooter", "lon": -77.03523633333333, "bike_id": "9ad0efd5b3a0a3ea1f9edafe057ad527", "fusion_lat": 0.0, "name": "9ad0efd5b3a0a3ea1f9edafe057ad527", "is_reserved": 0, "rental_uris": {"android": "https://dc.lft.to/lastmile_qr_scan", "ios": "https://dc.lft.to/lastmile_qr_scan"}, "fusion_lon": 0.0}, {"lat": 38.8996455, "is_disabled": 0, "type": "electric_scooter", "lon": -76.927281, "bike_id": "56b7f8532e77ac744af92fa634d01b70", "fusion_lat": 0.0, "name": "56b7f8532e77ac744af92fa634d01b70", "is_reserved": 0, "rental_uris": {"android": "https://dc.lft.to/lastmile_qr_scan", "ios": "https://dc.lft.to/lastmile_qr_scan"}, "fusion_lon": 0.0}, {"lat": 38.888612, "is_disabled": 0, "type": "electric_scooter", "lon": -77.04010266666667, "bike_id": "32a8a416d915c0c095c2d496e9d91f51", "fusion_lat": 0.0, "name": "32a8a416d915c0c095c2d496e9d91f51", "is_reserved": 0, "rental_uris": {"android": "https://dc.lft.to/lastmile_qr_scan", "ios": "https://dc.lft.to/lastmile_qr_scan"}, "fusion_lon": 0.0}, {"lat": 38.90171816666667, "is_disabled": 0, "type": "electric_scooter", "lon": -77.02488716666667, "bike_id": "5fcc91d2535ed454745fa68a1cda5665", "fusion_lat": 0.0, "name": "5fcc91d2535ed454745fa68a1cda5665", "is_reserved": 0, "rental_uris": {"android": "https://dc.lft.to/lastmile_qr_scan", "ios": "https://dc.lft.to/lastmile_qr_scan"}, "fusion_lon": 0.0}, {"lat": 38.84430016666666, "is_disabled": 0, "type": "electric_scooter", "lon": -76.99779266666667, "bike_id": "268bd2449ce16e78106c57369bffd304", "fusion_lat": 0.0, "name": "268bd2449ce16e78106c57369bffd304", "is_reserved": 0, "rental_uris": {"android": "https://dc.lft.to/lastmile_qr_scan", "ios": "https://dc.lft.to/lastmile_qr_scan"}, "fusion_lon": 0.0}, {"lat": 38.95152133333333, "is_disabled": 0, "type": "electric_scooter", "lon": -77.01864966666666, "bike_id": "56fa150c58aa49d12a530737b0cd2b70", "fusion_lat": 0.0, "name": "56fa150c58aa49d12a530737b0cd2b70", "is_reserved": 0, "rental_uris": {"android": "https://dc.lft.to/lastmile_qr_scan", "ios": "https://dc.lft.to/lastmile_qr_scan"}, "fusion_lon": 0.0}, {"lat": 38.954916, "is_disabled": 0, "type": "electric_scooter", "lon": -77.06558616666666, "bike_id": "220db45544cdf7ed6d3db7cb6e74f1ee", "fusion_lat": 0.0, "name": "220db45544cdf7ed6d3db7cb6e74f1ee", "is_reserved": 0, "rental_uris": {"android": "https://dc.lft.to/lastmile_qr_scan", "ios": "https://dc.lft.to/lastmile_qr_scan"}, "fusion_lon": 0.0}, {"lat": 38.92284933333333, "is_disabled": 0, "type": "electric_scooter", "lon": -77.0296865, "bike_id": "45768c144358a628e8683b4344cf44bc", "fusion_lat": 0.0, "name": "45768c144358a628e8683b4344cf44bc", "is_reserved": 0, "rental_uris": {"android": "https://dc.lft.to/lastmile_qr_scan", "ios": "https://dc.lft.to/lastmile_qr_scan"}, "fusion_lon": 0.0}, {"lat": 38.892452166666665, "is_disabled": 0, "type": "electric_scooter", "lon": -77.039544, "bike_id": "9bb158eee24bf64e3720892b3fda6ea4", "fusion_lat": 0.0, "name": "9bb158eee24bf64e3720892b3fda6ea4", "is_reserved": 0, "rental_uris": {"android": "https://dc.lft.to/lastmile_qr_scan", "ios": "https://dc.lft.to/lastmile_qr_scan"}, "fusion_lon": 0.0}, {"lat": 38.918650666666665, "is_disabled": 0, "type": "electric_scooter", "lon": -77.03176116666667, "bike_id": "7cccc003a353ffa0d371b0f021fc2441", "fusion_lat": 0.0, "name": "7cccc003a353ffa0d371b0f021fc2441", "is_reserved": 0, "rental_uris": {"android": "https://dc.lft.to/lastmile_qr_scan", "ios": "https://dc.lft.to/lastmile_qr_scan"}, "fusion_lon": 0.0}, {"lat": 38.89222016666667, "is_disabled": 0, "type": "electric_scooter", "lon": -77.023205, "bike_id": "f475056f55c5e017855d14b4bed6c674", "fusion_lat": 0.0, "name": "f475056f55c5e017855d14b4bed6c674", "is_reserved": 0, "rental_uris": {"android": "https://dc.lft.to/lastmile_qr_scan", "ios": "https://dc.lft.to/lastmile_qr_scan"}, "fusion_lon": 0.0}, {"lat": 38.9078085, "is_disabled": 0, "type": "electric_scooter", "lon": -77.04486383333334, "bike_id": "59cc597751ef86248caa806709b6a3c9", "fusion_lat": 0.0, "name": "59cc597751ef86248caa806709b6a3c9", "is_reserved": 0, "rental_uris": {"android": "https://dc.lft.to/lastmile_qr_scan", "ios": "https://dc.lft.to/lastmile_qr_scan"}, "fusion_lon": 0.0}, {"lat": 38.930840333333336, "is_disabled": 0, "type": "electric_scooter", "lon": -77.03741133333334, "bike_id": "0d45962a82dcf46ca459922fb5c4ef3a", "fusion_lat": 0.0, "name": "0d45962a82dcf46ca459922fb5c4ef3a", "is_reserved": 0, "rental_uris": {"android": "https://dc.lft.to/lastmile_qr_scan", "ios": "https://dc.lft.to/lastmile_qr_scan"}, "fusion_lon": 0.0}, {"lat": 38.90547933333333, "is_disabled": 0, "type": "electric_scooter", "lon": -77.0486825, "bike_id": "c9098c9c191b493a4db260eaa2cd06da", "fusion_lat": 0.0, "name": "c9098c9c191b493a4db260eaa2cd06da", "is_reserved": 0, "rental_uris": {"android": "https://dc.lft.to/lastmile_qr_scan", "ios": "https://dc.lft.to/lastmile_qr_scan"}, "fusion_lon": 0.0}, {"lat": 38.9110615, "is_disabled": 0, "type": "electric_scooter", "lon": -77.04482016666667, "bike_id": "76384e8736cb7d6860df3f858127a6e8", "fusion_lat": 0.0, "name": "76384e8736cb7d6860df3f858127a6e8", "is_reserved": 0, "rental_uris": {"android": "https://dc.lft.to/lastmile_qr_scan", "ios": "https://dc.lft.to/lastmile_qr_scan"}, "fusion_lon": 0.0}, {"lat": 38.92742116666667, "is_disabled": 0, "type": "electric_scooter", "lon": -77.03415433333333, "bike_id": "6292a3ae3fd1725111ca7352b38020c9", "fusion_lat": 0.0, "name": "6292a3ae3fd1725111ca7352b38020c9", "is_reserved": 0, "rental_uris": {"android": "https://dc.lft.to/lastmile_qr_scan", "ios": "https://dc.lft.to/lastmile_qr_scan"}, "fusion_lon": 0.0}, {"lat": 38.87923333333333, "is_disabled": 0, "type": "electric_bike", "lon": -77.0237255, "bike_id": "ca4b9ade787ea75a70c6d8004e7320c8", "fusion_lat": 0.0, "name": "ca4b9ade787ea75a70c6d8004e7320c8", "is_reserved": 0, "rental_uris": {"android": "https://dc.lft.to/lastmile_qr_scan", "ios": "https://dc.lft.to/lastmile_qr_scan"}, "fusion_lon": 0.0}, {"lat": 38.9032615, "is_disabled": 0, "type": "electric_scooter", "lon": -77.03335433333334, "bike_id": "4c03e9e3b81aa995d73dee30eb33d47d", "fusion_lat": 0.0, "name": "4c03e9e3b81aa995d73dee30eb33d47d", "is_reserved": 0, "rental_uris": {"android": "https://dc.lft.to/lastmile_qr_scan", "ios": "https://dc.lft.to/lastmile_qr_scan"}, "fusion_lon": 0.0}, {"lat": 38.90958916666666, "is_disabled": 0, "type": "electric_scooter", "lon": -77.03831316666667, "bike_id": "b9ee95752fd7f6de4af250f94d196381", "fusion_lat": 0.0, "name": "b9ee95752fd7f6de4af250f94d196381", "is_reserved": 0, "rental_uris": {"android": "https://dc.lft.to/lastmile_qr_scan", "ios": "https://dc.lft.to/lastmile_qr_scan"}, "fusion_lon": 0.0}, {"lat": 38.96091883333333, "is_disabled": 0, "type": "electric_scooter", "lon": -77.08285416666666, "bike_id": "329aaa8652f1e62072f36c8ff9490d12", "fusion_lat": 0.0, "name": "329aaa8652f1e62072f36c8ff9490d12", "is_reserved": 0, "rental_uris": {"android": "https://dc.lft.to/lastmile_qr_scan", "ios": "https://dc.lft.to/lastmile_qr_scan"}, "fusion_lon": 0.0}, {"lat": 38.91417366666667, "is_disabled": 0, "type": "electric_scooter", "lon": -77.031785, "bike_id": "de8d272b7cd3de035b6caed2458ec9f4", "fusion_lat": 0.0, "name": "de8d272b7cd3de035b6caed2458ec9f4", "is_reserved": 0, "rental_uris": {"android": "https://dc.lft.to/lastmile_qr_scan", "ios": "https://dc.lft.to/lastmile_qr_scan"}, "fusion_lon": 0.0}, {"lat": 38.900037, "is_disabled": 0, "type": "electric_scooter", "lon": -76.99841583333334, "bike_id": "058916784c83c46099c432cadd95deaf", "fusion_lat": 0.0, "name": "058916784c83c46099c432cadd95deaf", "is_reserved": 0, "rental_uris": {"android": "https://dc.lft.to/lastmile_qr_scan", "ios": "https://dc.lft.to/lastmile_qr_scan"}, "fusion_lon": 0.0}, {"lat": 38.9021805, "is_disabled": 0, "type": "electric_scooter", "lon": -77.04874283333334, "bike_id": "7e6be2a10101fdf93027114912cdb462", "fusion_lat": 0.0, "name": "7e6be2a10101fdf93027114912cdb462", "is_reserved": 0, "rental_uris": {"android": "https://dc.lft.to/lastmile_qr_scan", "ios": "https://dc.lft.to/lastmile_qr_scan"}, "fusion_lon": 0.0}, {"lat": 38.92591216666667, "is_disabled": 0, "type": "electric_scooter", "lon": -77.02143566666666, "bike_id": "ed22ee50456b82c607fcba28791e2dd1", "fusion_lat": 0.0, "name": "ed22ee50456b82c607fcba28791e2dd1", "is_reserved": 0, "rental_uris": {"android": "https://dc.lft.to/lastmile_qr_scan", "ios": "https://dc.lft.to/lastmile_qr_scan"}, "fusion_lon": 0.0}, {"lat": 38.933978833333335, "is_disabled": 0, "type": "electric_scooter", "lon": -77.04128716666666, "bike_id": "3c1793e7e6a91dfa1a49f7a1e7e59ecf", "fusion_lat": 0.0, "name": "3c1793e7e6a91dfa1a49f7a1e7e59ecf", "is_reserved": 0, "rental_uris": {"android": "https://dc.lft.to/lastmile_qr_scan", "ios": "https://dc.lft.to/lastmile_qr_scan"}, "fusion_lon": 0.0}, {"lat": 38.934838666666664, "is_disabled": 0, "type": "electric_scooter", "lon": -77.07270733333333, "bike_id": "c65bc48e88b825955b7baaff4a06307e", "fusion_lat": 0.0, "name": "c65bc48e88b825955b7baaff4a06307e", "is_reserved": 0, "rental_uris": {"android": "https://dc.lft.to/lastmile_qr_scan", "ios": "https://dc.lft.to/lastmile_qr_scan"}, "fusion_lon": 0.0}, {"lat": 38.983818, "is_disabled": 0, "type": "electric_bike", "lon": -77.00535416666666, "bike_id": "53ba81d5922928fb3996d168f26134e6", "fusion_lat": 0.0, "name": "53ba81d5922928fb3996d168f26134e6", "is_reserved": 0, "rental_uris": {"android": "https://dc.lft.to/lastmile_qr_scan", "ios": "https://dc.lft.to/lastmile_qr_scan"}, "fusion_lon": 0.0}, {"lat": 38.89387383333333, "is_disabled": 0, "type": "electric_scooter", "lon": -76.95002616666666, "bike_id": "c259315e96bdfdcad0b8bf9fd0dd960d", "fusion_lat": 0.0, "name": "c259315e96bdfdcad0b8bf9fd0dd960d", "is_reserved": 0, "rental_uris": {"android": "https://dc.lft.to/lastmile_qr_scan", "ios": "https://dc.lft.to/lastmile_qr_scan"}, "fusion_lon": 0.0}, {"lat": 38.892186, "is_disabled": 0, "type": "electric_scooter", "lon": -77.0419515, "bike_id": "55d46d1c04335df8a634347dbbb00678", "fusion_lat": 0.0, "name": "55d46d1c04335df8a634347dbbb00678", "is_reserved": 0, "rental_uris": {"android": "https://dc.lft.to/lastmile_qr_scan", "ios": "https://dc.lft.to/lastmile_qr_scan"}, "fusion_lon": 0.0}, {"lat": 38.9528505, "is_disabled": 0, "type": "electric_bike", "lon": -76.94592183333333, "bike_id": "43c9eda223c35189e20d135afcd7f209", "fusion_lat": 0.0, "name": "43c9eda223c35189e20d135afcd7f209", "is_reserved": 0, "rental_uris": {"android": "https://dc.lft.to/lastmile_qr_scan", "ios": "https://dc.lft.to/lastmile_qr_scan"}, "fusion_lon": 0.0}, {"lat": 38.91764833333333, "is_disabled": 0, "type": "electric_scooter", "lon": -77.03186966666667, "bike_id": "695e854a52349f9313000fc3c7e05ea8", "fusion_lat": 0.0, "name": "695e854a52349f9313000fc3c7e05ea8", "is_reserved": 0, "rental_uris": {"android": "https://dc.lft.to/lastmile_qr_scan", "ios": "https://dc.lft.to/lastmile_qr_scan"}, "fusion_lon": 0.0}, {"lat": 38.92257433333333, "is_disabled": 0, "type": "electric_scooter", "lon": -77.04693633333333, "bike_id": "3c2729492c8bfc0f2da3651e55f9cc0e", "fusion_lat": 0.0, "name": "3c2729492c8bfc0f2da3651e55f9cc0e", "is_reserved": 0, "rental_uris": {"android": "https://dc.lft.to/lastmile_qr_scan", "ios": "https://dc.lft.to/lastmile_qr_scan"}, "fusion_lon": 0.0}, {"lat": 38.89568966666667, "is_disabled": 0, "type": "electric_scooter", "lon": -76.9304115, "bike_id": "cbf40e4b2dded801b7783295fa089e91", "fusion_lat": 0.0, "name": "cbf40e4b2dded801b7783295fa089e91", "is_reserved": 0, "rental_uris": {"android": "https://dc.lft.to/lastmile_qr_scan", "ios": "https://dc.lft.to/lastmile_qr_scan"}, "fusion_lon": 0.0}, {"lat": 38.903355, "is_disabled": 0, "type": "electric_scooter", "lon": -77.04485366666667, "bike_id": "fe2f2de0202cfb6ceca089cdbf5e201f", "fusion_lat": 0.0, "name": "fe2f2de0202cfb6ceca089cdbf5e201f", "is_reserved": 0, "rental_uris": {"android": "https://dc.lft.to/lastmile_qr_scan", "ios": "https://dc.lft.to/lastmile_qr_scan"}, "fusion_lon": 0.0}, {"lat": 38.906275666666666, "is_disabled": 0, "type": "electric_scooter", "lon": -77.03153116666667, "bike_id": "a7de827646703c520c42de9c26879a30", "fusion_lat": 0.0, "name": "a7de827646703c520c42de9c26879a30", "is_reserved": 0, "rental_uris": {"android": "https://dc.lft.to/lastmile_qr_scan", "ios": "https://dc.lft.to/lastmile_qr_scan"}, "fusion_lon": 0.0}, {"lat": 38.89910666666667, "is_disabled": 0, "type": "electric_scooter", "lon": -76.93346716666667, "bike_id": "51b6e877ed754782749e84c960952def", "fusion_lat": 0.0, "name": "51b6e877ed754782749e84c960952def", "is_reserved": 0, "rental_uris": {"android": "https://dc.lft.to/lastmile_qr_scan", "ios": "https://dc.lft.to/lastmile_qr_scan"}, "fusion_lon": 0.0}, {"lat": 38.935927166666666, "is_disabled": 0, "type": "electric_scooter", "lon": -77.0375125, "bike_id": "b4ce6e1666a25092948e03227ab942dd", "fusion_lat": 0.0, "name": "b4ce6e1666a25092948e03227ab942dd", "is_reserved": 0, "rental_uris": {"android": "https://dc.lft.to/lastmile_qr_scan", "ios": "https://dc.lft.to/lastmile_qr_scan"}, "fusion_lon": 0.0}, {"lat": 38.91412716666667, "is_disabled": 0, "type": "electric_scooter", "lon": -77.02953616666667, "bike_id": "a5bf71c0cce1803d988f69ce5927c724", "fusion_lat": 0.0, "name": "a5bf71c0cce1803d988f69ce5927c724", "is_reserved": 0, "rental_uris": {"android": "https://dc.lft.to/lastmile_qr_scan", "ios": "https://dc.lft.to/lastmile_qr_scan"}, "fusion_lon": 0.0}, {"lat": 38.891910333333335, "is_disabled": 0, "type": "electric_scooter", "lon": -77.025057, "bike_id": "a28bc35c867037fbbf94018b68ba7925", "fusion_lat": 0.0, "name": "a28bc35c867037fbbf94018b68ba7925", "is_reserved": 0, "rental_uris": {"android": "https://dc.lft.to/lastmile_qr_scan", "ios": "https://dc.lft.to/lastmile_qr_scan"}, "fusion_lon": 0.0}, {"lat": 38.939524666666664, "is_disabled": 0, "type": "electric_bike", "lon": -77.36093033333333, "bike_id": "6aacc17bca16049600556350fc884626", "fusion_lat": 0.0, "name": "6aacc17bca16049600556350fc884626", "is_reserved": 0, "rental_uris": {"android": "https://dc.lft.to/lastmile_qr_scan", "ios": "https://dc.lft.to/lastmile_qr_scan"}, "fusion_lon": 0.0}, {"lat": 38.933605666666665, "is_disabled": 0, "type": "electric_scooter", "lon": -77.057278, "bike_id": "3a846f539b4ff350a49073cf6300696c", "fusion_lat": 0.0, "name": "3a846f539b4ff350a49073cf6300696c", "is_reserved": 0, "rental_uris": {"android": "https://dc.lft.to/lastmile_qr_scan", "ios": "https://dc.lft.to/lastmile_qr_scan"}, "fusion_lon": 0.0}, {"lat": 38.8625215, "is_disabled": 0, "type": "electric_scooter", "lon": -76.995188, "bike_id": "c045cff9cc203b62eb07bdcf9e2cf4de", "fusion_lat": 0.0, "name": "c045cff9cc203b62eb07bdcf9e2cf4de", "is_reserved": 0, "rental_uris": {"android": "https://dc.lft.to/lastmile_qr_scan", "ios": "https://dc.lft.to/lastmile_qr_scan"}, "fusion_lon": 0.0}, {"lat": 38.8848685, "is_disabled": 0, "type": "electric_scooter", "lon": -77.00708166666666, "bike_id": "4b57b1621bc8d936433b9c998ea0d38e", "fusion_lat": 0.0, "name": "4b57b1621bc8d936433b9c998ea0d38e", "is_reserved": 0, "rental_uris": {"android": "https://dc.lft.to/lastmile_qr_scan", "ios": "https://dc.lft.to/lastmile_qr_scan"}, "fusion_lon": 0.0}, {"lat": 38.87178766666667, "is_disabled": 0, "type": "electric_scooter", "lon": -77.00610883333333, "bike_id": "89282699fa1e6d817a007d76f0c9d52c", "fusion_lat": 0.0, "name": "89282699fa1e6d817a007d76f0c9d52c", "is_reserved": 0, "rental_uris": {"android": "https://dc.lft.to/lastmile_qr_scan", "ios": "https://dc.lft.to/lastmile_qr_scan"}, "fusion_lon": 0.0}, {"lat": 38.9248825, "is_disabled": 0, "type": "electric_scooter", "lon": -77.07322083333334, "bike_id": "b76da25e03647aa3c35bc1c3c9d50b04", "fusion_lat": 0.0, "name": "b76da25e03647aa3c35bc1c3c9d50b04", "is_reserved": 0, "rental_uris": {"android": "https://dc.lft.to/lastmile_qr_scan", "ios": "https://dc.lft.to/lastmile_qr_scan"}, "fusion_lon": 0.0}, {"lat": 38.92465283333333, "is_disabled": 0, "type": "electric_scooter", "lon": -77.05234483333334, "bike_id": "f71d5a4ce526c23ba9274038b7906cfb", "fusion_lat": 0.0, "name": "f71d5a4ce526c23ba9274038b7906cfb", "is_reserved": 0, "rental_uris": {"android": "https://dc.lft.to/lastmile_qr_scan", "ios": "https://dc.lft.to/lastmile_qr_scan"}, "fusion_lon": 0.0}, {"lat": 38.966174, "is_disabled": 0, "type": "electric_bike", "lon": -77.03430816666666, "bike_id": "e28e0cfa20bb487da2282bc334e8af39", "fusion_lat": 0.0, "name": "e28e0cfa20bb487da2282bc334e8af39", "is_reserved": 0, "rental_uris": {"android": "https://dc.lft.to/lastmile_qr_scan", "ios": "https://dc.lft.to/lastmile_qr_scan"}, "fusion_lon": 0.0}, {"lat": 38.910334666666664, "is_disabled": 0, "type": "electric_scooter", "lon": -77.03196933333334, "bike_id": "7c708bf034ab579ae26356e23e829f27", "fusion_lat": 0.0, "name": "7c708bf034ab579ae26356e23e829f27", "is_reserved": 0, "rental_uris": {"android": "https://dc.lft.to/lastmile_qr_scan", "ios": "https://dc.lft.to/lastmile_qr_scan"}, "fusion_lon": 0.0}, {"lat": 38.90947583333333, "is_disabled": 0, "type": "electric_scooter", "lon": -77.04477633333333, "bike_id": "5084c82d632274b1b1c983af644f3be6", "fusion_lat": 0.0, "name": "5084c82d632274b1b1c983af644f3be6", "is_reserved": 0, "rental_uris": {"android": "https://dc.lft.to/lastmile_qr_scan", "ios": "https://dc.lft.to/lastmile_qr_scan"}, "fusion_lon": 0.0}, {"lat": 38.88070583333333, "is_disabled": 0, "type": "electric_scooter", "lon": -77.0055945, "bike_id": "6107773c13678d1a168e93cff88d275d", "fusion_lat": 0.0, "name": "6107773c13678d1a168e93cff88d275d", "is_reserved": 0, "rental_uris": {"android": "https://dc.lft.to/lastmile_qr_scan", "ios": "https://dc.lft.to/lastmile_qr_scan"}, "fusion_lon": 0.0}, {"lat": 38.842901499999996, "is_disabled": 0, "type": "electric_scooter", "lon": -76.99951516666667, "bike_id": "2d970daa0db9ef9bdba8dd3d185f58f7", "fusion_lat": 0.0, "name": "2d970daa0db9ef9bdba8dd3d185f58f7", "is_reserved": 0, "rental_uris": {"android": "https://dc.lft.to/lastmile_qr_scan", "ios": "https://dc.lft.to/lastmile_qr_scan"}, "fusion_lon": 0.0}, {"lat": 38.89996816666667, "is_disabled": 0, "type": "electric_scooter", "lon": -76.99849883333333, "bike_id": "f5d59733e2dc09608cafdf9cdf9bfa92", "fusion_lat": 0.0, "name": "f5d59733e2dc09608cafdf9cdf9bfa92", "is_reserved": 0, "rental_uris": {"android": "https://dc.lft.to/lastmile_qr_scan", "ios": "https://dc.lft.to/lastmile_qr_scan"}, "fusion_lon": 0.0}, {"lat": 38.9042265, "is_disabled": 0, "type": "electric_scooter", "lon": -77.046563, "bike_id": "0387679594b66273a3ac9d1a391d1037", "fusion_lat": 0.0, "name": "0387679594b66273a3ac9d1a391d1037", "is_reserved": 0, "rental_uris": {"android": "https://dc.lft.to/lastmile_qr_scan", "ios": "https://dc.lft.to/lastmile_qr_scan"}, "fusion_lon": 0.0}, {"lat": 38.914835333333336, "is_disabled": 0, "type": "electric_scooter", "lon": -77.03182633333333, "bike_id": "bf9888526eb72144f00de10a9264d70b", "fusion_lat": 0.0, "name": "bf9888526eb72144f00de10a9264d70b", "is_reserved": 0, "rental_uris": {"android": "https://dc.lft.to/lastmile_qr_scan", "ios": "https://dc.lft.to/lastmile_qr_scan"}, "fusion_lon": 0.0}, {"lat": 38.92179566666667, "is_disabled": 0, "type": "electric_scooter", "lon": -77.0422625, "bike_id": "68d86f22b6ef640e894847e33d711e47", "fusion_lat": 0.0, "name": "68d86f22b6ef640e894847e33d711e47", "is_reserved": 0, "rental_uris": {"android": "https://dc.lft.to/lastmile_qr_scan", "ios": "https://dc.lft.to/lastmile_qr_scan"}, "fusion_lon": 0.0}, {"lat": 38.9057315, "is_disabled": 0, "type": "electric_scooter", "lon": -77.0058135, "bike_id": "4fa3ab8e031f44e61bccdcbfa58ccb4e", "fusion_lat": 0.0, "name": "4fa3ab8e031f44e61bccdcbfa58ccb4e", "is_reserved": 0, "rental_uris": {"android": "https://dc.lft.to/lastmile_qr_scan", "ios": "https://dc.lft.to/lastmile_qr_scan"}, "fusion_lon": 0.0}, {"lat": 38.91710283333333, "is_disabled": 0, "type": "electric_scooter", "lon": -77.0324745, "bike_id": "22afee32044fd0d208322ee7b607efd7", "fusion_lat": 0.0, "name": "22afee32044fd0d208322ee7b607efd7", "is_reserved": 0, "rental_uris": {"android": "https://dc.lft.to/lastmile_qr_scan", "ios": "https://dc.lft.to/lastmile_qr_scan"}, "fusion_lon": 0.0}, {"lat": 38.89220566666667, "is_disabled": 0, "type": "electric_scooter", "lon": -77.042012, "bike_id": "891a4225431ed0ea713ff0f4992843a8", "fusion_lat": 0.0, "name": "891a4225431ed0ea713ff0f4992843a8", "is_reserved": 0, "rental_uris": {"android": "https://dc.lft.to/lastmile_qr_scan", "ios": "https://dc.lft.to/lastmile_qr_scan"}, "fusion_lon": 0.0}, {"lat": 38.923106, "is_disabled": 0, "type": "electric_scooter", "lon": -77.04220283333333, "bike_id": "dadbf623731275a32670af7d9b29d7d8", "fusion_lat": 0.0, "name": "dadbf623731275a32670af7d9b29d7d8", "is_reserved": 0, "rental_uris": {"android": "https://dc.lft.to/lastmile_qr_scan", "ios": "https://dc.lft.to/lastmile_qr_scan"}, "fusion_lon": 0.0}, {"lat": 38.89220616666667, "is_disabled": 0, "type": "electric_scooter", "lon": -77.03221316666666, "bike_id": "fdd30eb02bd834cd5b9f220a3db09466", "fusion_lat": 0.0, "name": "fdd30eb02bd834cd5b9f220a3db09466", "is_reserved": 0, "rental_uris": {"android": "https://dc.lft.to/lastmile_qr_scan", "ios": "https://dc.lft.to/lastmile_qr_scan"}, "fusion_lon": 0.0}, {"lat": 38.86359916666667, "is_disabled": 0, "type": "electric_scooter", "lon": -76.99034016666667, "bike_id": "bfc814562901cc08bd765ea57dc05b1d", "fusion_lat": 0.0, "name": "bfc814562901cc08bd765ea57dc05b1d", "is_reserved": 0, "rental_uris": {"android": "https://dc.lft.to/lastmile_qr_scan", "ios": "https://dc.lft.to/lastmile_qr_scan"}, "fusion_lon": 0.0}, {"lat": 38.8836375, "is_disabled": 0, "type": "electric_scooter", "lon": -76.9950625, "bike_id": "34c096ce47f162c34eab63289e5ddaaa", "fusion_lat": 0.0, "name": "34c096ce47f162c34eab63289e5ddaaa", "is_reserved": 0, "rental_uris": {"android": "https://dc.lft.to/lastmile_qr_scan", "ios": "https://dc.lft.to/lastmile_qr_scan"}, "fusion_lon": 0.0}, {"lat": 38.89961683333333, "is_disabled": 0, "type": "electric_scooter", "lon": -77.02296933333334, "bike_id": "3932d7c86157455f8ca3d210de4f7688", "fusion_lat": 0.0, "name": "3932d7c86157455f8ca3d210de4f7688", "is_reserved": 0, "rental_uris": {"android": "https://dc.lft.to/lastmile_qr_scan", "ios": "https://dc.lft.to/lastmile_qr_scan"}, "fusion_lon": 0.0}, {"lat": 38.89486516666667, "is_disabled": 0, "type": "electric_scooter", "lon": -76.99502216666667, "bike_id": "69858883cca8ba4d5dd9be9a8ea2b85e", "fusion_lat": 0.0, "name": "69858883cca8ba4d5dd9be9a8ea2b85e", "is_reserved": 0, "rental_uris": {"android": "https://dc.lft.to/lastmile_qr_scan", "ios": "https://dc.lft.to/lastmile_qr_scan"}, "fusion_lon": 0.0}, {"lat": 38.89218366666667, "is_disabled": 0, "type": "electric_scooter", "lon": -77.045167, "bike_id": "f828688edf24d9e515c8b11310d623cd", "fusion_lat": 0.0, "name": "f828688edf24d9e515c8b11310d623cd", "is_reserved": 0, "rental_uris": {"android": "https://dc.lft.to/lastmile_qr_scan", "ios": "https://dc.lft.to/lastmile_qr_scan"}, "fusion_lon": 0.0}, {"lat": 38.8962395, "is_disabled": 0, "type": "electric_scooter", "lon": -77.02849733333333, "bike_id": "bbeff5db238b0928732e60e70410a9aa", "fusion_lat": 0.0, "name": "bbeff5db238b0928732e60e70410a9aa", "is_reserved": 0, "rental_uris": {"android": "https://dc.lft.to/lastmile_qr_scan", "ios": "https://dc.lft.to/lastmile_qr_scan"}, "fusion_lon": 0.0}, {"lat": 38.92164266666666, "is_disabled": 0, "type": "electric_scooter", "lon": -77.04011533333333, "bike_id": "a804fc5c52d35f8107bad98747d780e5", "fusion_lat": 0.0, "name": "a804fc5c52d35f8107bad98747d780e5", "is_reserved": 0, "rental_uris": {"android": "https://dc.lft.to/lastmile_qr_scan", "ios": "https://dc.lft.to/lastmile_qr_scan"}, "fusion_lon": 0.0}, {"lat": 38.890038, "is_disabled": 0, "type": "electric_scooter", "lon": -76.9374545, "bike_id": "0141adcbc6309503505990dbe712ca9a", "fusion_lat": 0.0, "name": "0141adcbc6309503505990dbe712ca9a", "is_reserved": 0, "rental_uris": {"android": "https://dc.lft.to/lastmile_qr_scan", "ios": "https://dc.lft.to/lastmile_qr_scan"}, "fusion_lon": 0.0}, {"lat": 38.911238, "is_disabled": 0, "type": "electric_scooter", "lon": -77.03840583333333, "bike_id": "8f28bf5c7d717ccf729707a322457b08", "fusion_lat": 0.0, "name": "8f28bf5c7d717ccf729707a322457b08", "is_reserved": 0, "rental_uris": {"android": "https://dc.lft.to/lastmile_qr_scan", "ios": "https://dc.lft.to/lastmile_qr_scan"}, "fusion_lon": 0.0}, {"lat": 38.9244695, "is_disabled": 0, "type": "electric_scooter", "lon": -77.0402495, "bike_id": "f85c99cda9a2227da459d2677edfa811", "fusion_lat": 0.0, "name": "f85c99cda9a2227da459d2677edfa811", "is_reserved": 0, "rental_uris": {"android": "https://dc.lft.to/lastmile_qr_scan", "ios": "https://dc.lft.to/lastmile_qr_scan"}, "fusion_lon": 0.0}, {"lat": 38.914262666666666, "is_disabled": 0, "type": "electric_scooter", "lon": -77.03184, "bike_id": "1a9fdf6aea31999969af0002e43fdc3b", "fusion_lat": 0.0, "name": "1a9fdf6aea31999969af0002e43fdc3b", "is_reserved": 0, "rental_uris": {"android": "https://dc.lft.to/lastmile_qr_scan", "ios": "https://dc.lft.to/lastmile_qr_scan"}, "fusion_lon": 0.0}, {"lat": 38.87147316666667, "is_disabled": 0, "type": "electric_bike", "lon": -76.9365075, "bike_id": "cc7d6a4724b66c5c3504ba5b6132b658", "fusion_lat": 0.0, "name": "cc7d6a4724b66c5c3504ba5b6132b658", "is_reserved": 0, "rental_uris": {"android": "https://dc.lft.to/lastmile_qr_scan", "ios": "https://dc.lft.to/lastmile_qr_scan"}, "fusion_lon": 0.0}, {"lat": 38.894760166666664, "is_disabled": 0, "type": "electric_scooter", "lon": -77.009902, "bike_id": "9e99b3cd5b108e1b94b384664c3386f7", "fusion_lat": 0.0, "name": "9e99b3cd5b108e1b94b384664c3386f7", "is_reserved": 0, "rental_uris": {"android": "https://dc.lft.to/lastmile_qr_scan", "ios": "https://dc.lft.to/lastmile_qr_scan"}, "fusion_lon": 0.0}, {"lat": 38.91559433333333, "is_disabled": 0, "type": "electric_scooter", "lon": -77.03153166666667, "bike_id": "f41181873b3495bbf323b68154b53a49", "fusion_lat": 0.0, "name": "f41181873b3495bbf323b68154b53a49", "is_reserved": 0, "rental_uris": {"android": "https://dc.lft.to/lastmile_qr_scan", "ios": "https://dc.lft.to/lastmile_qr_scan"}, "fusion_lon": 0.0}, {"lat": 38.9080685, "is_disabled": 0, "type": "electric_scooter", "lon": -77.04339016666667, "bike_id": "db0c08d3f02f5069c738bbce9968dad8", "fusion_lat": 0.0, "name": "db0c08d3f02f5069c738bbce9968dad8", "is_reserved": 0, "rental_uris": {"android": "https://dc.lft.to/lastmile_qr_scan", "ios": "https://dc.lft.to/lastmile_qr_scan"}, "fusion_lon": 0.0}, {"lat": 38.914797666666665, "is_disabled": 0, "type": "electric_scooter", "lon": -77.03233233333333, "bike_id": "b14256f52bc3eb10b429aae355aba53a", "fusion_lat": 0.0, "name": "b14256f52bc3eb10b429aae355aba53a", "is_reserved": 0, "rental_uris": {"android": "https://dc.lft.to/lastmile_qr_scan", "ios": "https://dc.lft.to/lastmile_qr_scan"}, "fusion_lon": 0.0}, {"lat": 38.91421783333333, "is_disabled": 0, "type": "electric_scooter", "lon": -77.03186266666667, "bike_id": "564f89e4715d032d52208c184c50f551", "fusion_lat": 0.0, "name": "564f89e4715d032d52208c184c50f551", "is_reserved": 0, "rental_uris": {"android": "https://dc.lft.to/lastmile_qr_scan", "ios": "https://dc.lft.to/lastmile_qr_scan"}, "fusion_lon": 0.0}, {"lat": 38.9206665, "is_disabled": 0, "type": "electric_scooter", "lon": -77.038057, "bike_id": "8a744fe74235d2c2ffca0999920df9f8", "fusion_lat": 0.0, "name": "8a744fe74235d2c2ffca0999920df9f8", "is_reserved": 0, "rental_uris": {"android": "https://dc.lft.to/lastmile_qr_scan", "ios": "https://dc.lft.to/lastmile_qr_scan"}, "fusion_lon": 0.0}, {"lat": 38.9232295, "is_disabled": 0, "type": "electric_scooter", "lon": -77.0354765, "bike_id": "c492147e2daee03f0af655fea3806b57", "fusion_lat": 0.0, "name": "c492147e2daee03f0af655fea3806b57", "is_reserved": 0, "rental_uris": {"android": "https://dc.lft.to/lastmile_qr_scan", "ios": "https://dc.lft.to/lastmile_qr_scan"}, "fusion_lon": 0.0}, {"lat": 38.931906833333336, "is_disabled": 0, "type": "electric_scooter", "lon": -77.02835016666667, "bike_id": "571f07266316907a1fb1b7fb4c8048b2", "fusion_lat": 0.0, "name": "571f07266316907a1fb1b7fb4c8048b2", "is_reserved": 0, "rental_uris": {"android": "https://dc.lft.to/lastmile_qr_scan", "ios": "https://dc.lft.to/lastmile_qr_scan"}, "fusion_lon": 0.0}, {"lat": 38.90288733333333, "is_disabled": 0, "type": "electric_scooter", "lon": -77.03668866666666, "bike_id": "2ee0dde518d9f733dfab0ddc4853454a", "fusion_lat": 0.0, "name": "2ee0dde518d9f733dfab0ddc4853454a", "is_reserved": 0, "rental_uris": {"android": "https://dc.lft.to/lastmile_qr_scan", "ios": "https://dc.lft.to/lastmile_qr_scan"}, "fusion_lon": 0.0}, {"lat": 38.902377666666666, "is_disabled": 0, "type": "electric_scooter", "lon": -77.02692916666666, "bike_id": "549cc4272bbdfe22a00464ab62db313d", "fusion_lat": 0.0, "name": "549cc4272bbdfe22a00464ab62db313d", "is_reserved": 0, "rental_uris": {"android": "https://dc.lft.to/lastmile_qr_scan", "ios": "https://dc.lft.to/lastmile_qr_scan"}, "fusion_lon": 0.0}, {"lat": 38.928725666666665, "is_disabled": 0, "type": "electric_scooter", "lon": -77.0330245, "bike_id": "c2602972fac4fbba1299a2211752f4ba", "fusion_lat": 0.0, "name": "c2602972fac4fbba1299a2211752f4ba", "is_reserved": 0, "rental_uris": {"android": "https://dc.lft.to/lastmile_qr_scan", "ios": "https://dc.lft.to/lastmile_qr_scan"}, "fusion_lon": 0.0}, {"lat": 38.895782833333335, "is_disabled": 0, "type": "electric_bike", "lon": -77.12702383333334, "bike_id": "ac2811636ff95d9912d1def82dd5a860", "fusion_lat": 0.0, "name": "ac2811636ff95d9912d1def82dd5a860", "is_reserved": 0, "rental_uris": {"android": "https://dc.lft.to/lastmile_qr_scan", "ios": "https://dc.lft.to/lastmile_qr_scan"}, "fusion_lon": 0.0}, {"lat": 38.9335735, "is_disabled": 0, "type": "electric_bike", "lon": -77.09963316666666, "bike_id": "6a8db60517dcf575dd6aff34cd02fca9", "fusion_lat": 0.0, "name": "6a8db60517dcf575dd6aff34cd02fca9", "is_reserved": 0, "rental_uris": {"android": "https://dc.lft.to/lastmile_qr_scan", "ios": "https://dc.lft.to/lastmile_qr_scan"}, "fusion_lon": 0.0}, {"lat": 38.910952333333334, "is_disabled": 0, "type": "electric_scooter", "lon": -77.03183066666666, "bike_id": "a0de20092c417848776e5c2aa4990cf3", "fusion_lat": 0.0, "name": "a0de20092c417848776e5c2aa4990cf3", "is_reserved": 0, "rental_uris": {"android": "https://dc.lft.to/lastmile_qr_scan", "ios": "https://dc.lft.to/lastmile_qr_scan"}, "fusion_lon": 0.0}, {"lat": 38.87093266666667, "is_disabled": 0, "type": "electric_bike", "lon": -77.01208333333334, "bike_id": "5ed961e0d75c9028d606146da0104ee8", "fusion_lat": 0.0, "name": "5ed961e0d75c9028d606146da0104ee8", "is_reserved": 0, "rental_uris": {"android": "https://dc.lft.to/lastmile_qr_scan", "ios": "https://dc.lft.to/lastmile_qr_scan"}, "fusion_lon": 0.0}, {"lat": 38.871786666666665, "is_disabled": 0, "type": "electric_scooter", "lon": -77.00608433333333, "bike_id": "3c195d1cafc73ff863f4eb9129e502c9", "fusion_lat": 0.0, "name": "3c195d1cafc73ff863f4eb9129e502c9", "is_reserved": 0, "rental_uris": {"android": "https://dc.lft.to/lastmile_qr_scan", "ios": "https://dc.lft.to/lastmile_qr_scan"}, "fusion_lon": 0.0}, {"lat": 38.9155885, "is_disabled": 0, "type": "electric_scooter", "lon": -77.031705, "bike_id": "1642c62795e7572f8835ab21862c1f93", "fusion_lat": 0.0, "name": "1642c62795e7572f8835ab21862c1f93", "is_reserved": 0, "rental_uris": {"android": "https://dc.lft.to/lastmile_qr_scan", "ios": "https://dc.lft.to/lastmile_qr_scan"}, "fusion_lon": 0.0}, {"lat": 38.90760366666667, "is_disabled": 0, "type": "electric_scooter", "lon": -77.07030333333333, "bike_id": "0a9809e9eb8244f233b007ef464c6ca6", "fusion_lat": 0.0, "name": "0a9809e9eb8244f233b007ef464c6ca6", "is_reserved": 0, "rental_uris": {"android": "https://dc.lft.to/lastmile_qr_scan", "ios": "https://dc.lft.to/lastmile_qr_scan"}, "fusion_lon": 0.0}, {"lat": 38.86655116666667, "is_disabled": 0, "type": "electric_scooter", "lon": -76.98883366666666, "bike_id": "a479f87fa3eee98df6c54ad683bfa517", "fusion_lat": 0.0, "name": "a479f87fa3eee98df6c54ad683bfa517", "is_reserved": 0, "rental_uris": {"android": "https://dc.lft.to/lastmile_qr_scan", "ios": "https://dc.lft.to/lastmile_qr_scan"}, "fusion_lon": 0.0}, {"lat": 38.907315, "is_disabled": 0, "type": "electric_scooter", "lon": -76.93546883333333, "bike_id": "ae6cc017ba50f4b0909740428d84502a", "fusion_lat": 0.0, "name": "ae6cc017ba50f4b0909740428d84502a", "is_reserved": 0, "rental_uris": {"android": "https://dc.lft.to/lastmile_qr_scan", "ios": "https://dc.lft.to/lastmile_qr_scan"}, "fusion_lon": 0.0}, {"lat": 38.921609333333336, "is_disabled": 0, "type": "electric_scooter", "lon": -77.03267983333333, "bike_id": "270583068fa37992f039b8f69814fbb5", "fusion_lat": 0.0, "name": "270583068fa37992f039b8f69814fbb5", "is_reserved": 0, "rental_uris": {"android": "https://dc.lft.to/lastmile_qr_scan", "ios": "https://dc.lft.to/lastmile_qr_scan"}, "fusion_lon": 0.0}, {"lat": 38.903754666666664, "is_disabled": 0, "type": "electric_scooter", "lon": -77.0448455, "bike_id": "24030e9c4e7656774544bfe6206c947c", "fusion_lat": 0.0, "name": "24030e9c4e7656774544bfe6206c947c", "is_reserved": 0, "rental_uris": {"android": "https://dc.lft.to/lastmile_qr_scan", "ios": "https://dc.lft.to/lastmile_qr_scan"}, "fusion_lon": 0.0}, {"lat": 38.89703816666667, "is_disabled": 0, "type": "electric_scooter", "lon": -77.02593083333333, "bike_id": "0a5f41ba3f9f54b94c17dc0ca50ea44d", "fusion_lat": 0.0, "name": "0a5f41ba3f9f54b94c17dc0ca50ea44d", "is_reserved": 0, "rental_uris": {"android": "https://dc.lft.to/lastmile_qr_scan", "ios": "https://dc.lft.to/lastmile_qr_scan"}, "fusion_lon": 0.0}, {"lat": 38.8068125, "is_disabled": 0, "type": "electric_bike", "lon": -77.08116, "bike_id": "6ceaee676c07cf607439ddde625c103a", "fusion_lat": 0.0, "name": "6ceaee676c07cf607439ddde625c103a", "is_reserved": 0, "rental_uris": {"android": "https://dc.lft.to/lastmile_qr_scan", "ios": "https://dc.lft.to/lastmile_qr_scan"}, "fusion_lon": 0.0}, {"lat": 38.905613333333335, "is_disabled": 0, "type": "electric_scooter", "lon": -77.00554, "bike_id": "53a66211dce957100dc8ad60a2bcd73b", "fusion_lat": 0.0, "name": "53a66211dce957100dc8ad60a2bcd73b", "is_reserved": 0, "rental_uris": {"android": "https://dc.lft.to/lastmile_qr_scan", "ios": "https://dc.lft.to/lastmile_qr_scan"}, "fusion_lon": 0.0}, {"lat": 38.90320966666667, "is_disabled": 0, "type": "electric_scooter", "lon": -76.9759855, "bike_id": "e1bb715bff45038cafef36408961362d", "fusion_lat": 0.0, "name": "e1bb715bff45038cafef36408961362d", "is_reserved": 0, "rental_uris": {"android": "https://dc.lft.to/lastmile_qr_scan", "ios": "https://dc.lft.to/lastmile_qr_scan"}, "fusion_lon": 0.0}, {"lat": 38.905763, "is_disabled": 0, "type": "electric_scooter", "lon": -77.026894, "bike_id": "af05f58677ae60cea4788e251fdaa8df", "fusion_lat": 0.0, "name": "af05f58677ae60cea4788e251fdaa8df", "is_reserved": 0, "rental_uris": {"android": "https://dc.lft.to/lastmile_qr_scan", "ios": "https://dc.lft.to/lastmile_qr_scan"}, "fusion_lon": 0.0}, {"lat": 38.92240483333333, "is_disabled": 0, "type": "electric_scooter", "lon": -77.01950966666666, "bike_id": "694d5100715b48772c72068b245d86a5", "fusion_lat": 0.0, "name": "694d5100715b48772c72068b245d86a5", "is_reserved": 0, "rental_uris": {"android": "https://dc.lft.to/lastmile_qr_scan", "ios": "https://dc.lft.to/lastmile_qr_scan"}, "fusion_lon": 0.0}, {"lat": 38.935021166666665, "is_disabled": 0, "type": "electric_scooter", "lon": -77.04290016666667, "bike_id": "0f5d4125eb9ae8f011cc83b2a4388b45", "fusion_lat": 0.0, "name": "0f5d4125eb9ae8f011cc83b2a4388b45", "is_reserved": 0, "rental_uris": {"android": "https://dc.lft.to/lastmile_qr_scan", "ios": "https://dc.lft.to/lastmile_qr_scan"}, "fusion_lon": 0.0}, {"lat": 38.89637183333333, "is_disabled": 0, "type": "electric_scooter", "lon": -77.02659333333334, "bike_id": "c91e4728cfb430092c2ebc9c5cd53e0d", "fusion_lat": 0.0, "name": "c91e4728cfb430092c2ebc9c5cd53e0d", "is_reserved": 0, "rental_uris": {"android": "https://dc.lft.to/lastmile_qr_scan", "ios": "https://dc.lft.to/lastmile_qr_scan"}, "fusion_lon": 0.0}, {"lat": 38.892245333333335, "is_disabled": 0, "type": "electric_bike", "lon": -77.03443583333333, "bike_id": "9497fad1b55c7b2e089cc71e6f899baf", "fusion_lat": 0.0, "name": "9497fad1b55c7b2e089cc71e6f899baf", "is_reserved": 0, "rental_uris": {"android": "https://dc.lft.to/lastmile_qr_scan", "ios": "https://dc.lft.to/lastmile_qr_scan"}, "fusion_lon": 0.0}, {"lat": 38.90636683333334, "is_disabled": 0, "type": "electric_scooter", "lon": -77.0338465, "bike_id": "236f04569b3f11032470711b93dd2fd1", "fusion_lat": 0.0, "name": "236f04569b3f11032470711b93dd2fd1", "is_reserved": 0, "rental_uris": {"android": "https://dc.lft.to/lastmile_qr_scan", "ios": "https://dc.lft.to/lastmile_qr_scan"}, "fusion_lon": 0.0}, {"lat": 38.906787666666666, "is_disabled": 0, "type": "electric_scooter", "lon": -77.037515, "bike_id": "7698d98e95f4eef7e049f62c32c1a543", "fusion_lat": 0.0, "name": "7698d98e95f4eef7e049f62c32c1a543", "is_reserved": 0, "rental_uris": {"android": "https://dc.lft.to/lastmile_qr_scan", "ios": "https://dc.lft.to/lastmile_qr_scan"}, "fusion_lon": 0.0}, {"lat": 38.905315333333334, "is_disabled": 0, "type": "electric_scooter", "lon": -77.041878, "bike_id": "34aa140ae996f929a94a70877aa9f865", "fusion_lat": 0.0, "name": "34aa140ae996f929a94a70877aa9f865", "is_reserved": 0, "rental_uris": {"android": "https://dc.lft.to/lastmile_qr_scan", "ios": "https://dc.lft.to/lastmile_qr_scan"}, "fusion_lon": 0.0}, {"lat": 38.916783, "is_disabled": 0, "type": "electric_scooter", "lon": -77.041415, "bike_id": "b045050555ca69f0557e53c695fd6a5d", "fusion_lat": 0.0, "name": "b045050555ca69f0557e53c695fd6a5d", "is_reserved": 0, "rental_uris": {"android": "https://dc.lft.to/lastmile_qr_scan", "ios": "https://dc.lft.to/lastmile_qr_scan"}, "fusion_lon": 0.0}, {"lat": 38.9053325, "is_disabled": 0, "type": "electric_scooter", "lon": -77.04189916666667, "bike_id": "06fee4a776e12f2130c0a3787d3fe6ff", "fusion_lat": 0.0, "name": "06fee4a776e12f2130c0a3787d3fe6ff", "is_reserved": 0, "rental_uris": {"android": "https://dc.lft.to/lastmile_qr_scan", "ios": "https://dc.lft.to/lastmile_qr_scan"}, "fusion_lon": 0.0}, {"lat": 38.949208, "is_disabled": 0, "type": "electric_scooter", "lon": -77.019372, "bike_id": "a012ed32732e7ea134598dd6ab6f6373", "fusion_lat": 0.0, "name": "a012ed32732e7ea134598dd6ab6f6373", "is_reserved": 0, "rental_uris": {"android": "https://dc.lft.to/lastmile_qr_scan", "ios": "https://dc.lft.to/lastmile_qr_scan"}, "fusion_lon": 0.0}, {"lat": 38.8661345, "is_disabled": 0, "type": "electric_scooter", "lon": -76.98694616666667, "bike_id": "82196427ab05ea64b2523a4c20f679e5", "fusion_lat": 0.0, "name": "82196427ab05ea64b2523a4c20f679e5", "is_reserved": 0, "rental_uris": {"android": "https://dc.lft.to/lastmile_qr_scan", "ios": "https://dc.lft.to/lastmile_qr_scan"}, "fusion_lon": 0.0}, {"lat": 38.912668833333335, "is_disabled": 0, "type": "electric_scooter", "lon": -77.02254433333333, "bike_id": "b3bf581c1c26bdbe72e584215b6d3b11", "fusion_lat": 0.0, "name": "b3bf581c1c26bdbe72e584215b6d3b11", "is_reserved": 0, "rental_uris": {"android": "https://dc.lft.to/lastmile_qr_scan", "ios": "https://dc.lft.to/lastmile_qr_scan"}, "fusion_lon": 0.0}, {"lat": 38.8900015, "is_disabled": 0, "type": "electric_scooter", "lon": -76.95416616666667, "bike_id": "c3b997928e73f93729d89f1d58c3e1aa", "fusion_lat": 0.0, "name": "c3b997928e73f93729d89f1d58c3e1aa", "is_reserved": 0, "rental_uris": {"android": "https://dc.lft.to/lastmile_qr_scan", "ios": "https://dc.lft.to/lastmile_qr_scan"}, "fusion_lon": 0.0}, {"lat": 38.91993466666667, "is_disabled": 0, "type": "electric_scooter", "lon": -77.03223416666667, "bike_id": "cfe5bd7fb4e25c155b2728f9e79218d4", "fusion_lat": 0.0, "name": "cfe5bd7fb4e25c155b2728f9e79218d4", "is_reserved": 0, "rental_uris": {"android": "https://dc.lft.to/lastmile_qr_scan", "ios": "https://dc.lft.to/lastmile_qr_scan"}, "fusion_lon": 0.0}, {"lat": 38.8826325, "is_disabled": 0, "type": "electric_scooter", "lon": -77.0036535, "bike_id": "a5e1d27ec5cc6dad1ae3e03531df1d0c", "fusion_lat": 0.0, "name": "a5e1d27ec5cc6dad1ae3e03531df1d0c", "is_reserved": 0, "rental_uris": {"android": "https://dc.lft.to/lastmile_qr_scan", "ios": "https://dc.lft.to/lastmile_qr_scan"}, "fusion_lon": 0.0}, {"lat": 38.899350166666665, "is_disabled": 0, "type": "electric_scooter", "lon": -77.0279945, "bike_id": "f68f5a48d6ff06084a8ddb3cc1a14cb1", "fusion_lat": 0.0, "name": "f68f5a48d6ff06084a8ddb3cc1a14cb1", "is_reserved": 0, "rental_uris": {"android": "https://dc.lft.to/lastmile_qr_scan", "ios": "https://dc.lft.to/lastmile_qr_scan"}, "fusion_lon": 0.0}, {"lat": 38.91357283333333, "is_disabled": 0, "type": "electric_scooter", "lon": -77.03958916666667, "bike_id": "6b41b693aeb46d3f2f8c26016f46b0ef", "fusion_lat": 0.0, "name": "6b41b693aeb46d3f2f8c26016f46b0ef", "is_reserved": 0, "rental_uris": {"android": "https://dc.lft.to/lastmile_qr_scan", "ios": "https://dc.lft.to/lastmile_qr_scan"}, "fusion_lon": 0.0}, {"lat": 38.842689166666666, "is_disabled": 0, "type": "electric_bike", "lon": -76.98839033333333, "bike_id": "97e9f0eaeea40167279272ffe5e1858d", "fusion_lat": 0.0, "name": "97e9f0eaeea40167279272ffe5e1858d", "is_reserved": 0, "rental_uris": {"android": "https://dc.lft.to/lastmile_qr_scan", "ios": "https://dc.lft.to/lastmile_qr_scan"}, "fusion_lon": 0.0}, {"lat": 38.926105166666666, "is_disabled": 0, "type": "electric_scooter", "lon": -76.99605933333333, "bike_id": "f4531272e3801aa43360b4d2366c5a86", "fusion_lat": 0.0, "name": "f4531272e3801aa43360b4d2366c5a86", "is_reserved": 0, "rental_uris": {"android": "https://dc.lft.to/lastmile_qr_scan", "ios": "https://dc.lft.to/lastmile_qr_scan"}, "fusion_lon": 0.0}, {"lat": 38.915671333333336, "is_disabled": 0, "type": "electric_scooter", "lon": -77.04003516666667, "bike_id": "c49f53e395d74cd6f56cc0a0724ad551", "fusion_lat": 0.0, "name": "c49f53e395d74cd6f56cc0a0724ad551", "is_reserved": 0, "rental_uris": {"android": "https://dc.lft.to/lastmile_qr_scan", "ios": "https://dc.lft.to/lastmile_qr_scan"}, "fusion_lon": 0.0}, {"lat": 38.905200666666666, "is_disabled": 0, "type": "electric_scooter", "lon": -77.04353616666667, "bike_id": "9b5c3fb1ff879ddc2ab6ad15ef33dfa9", "fusion_lat": 0.0, "name": "9b5c3fb1ff879ddc2ab6ad15ef33dfa9", "is_reserved": 0, "rental_uris": {"android": "https://dc.lft.to/lastmile_qr_scan", "ios": "https://dc.lft.to/lastmile_qr_scan"}, "fusion_lon": 0.0}, {"lat": 38.92656933333333, "is_disabled": 0, "type": "electric_scooter", "lon": -76.99559366666666, "bike_id": "1069f5a1788ceefb501258900989e245", "fusion_lat": 0.0, "name": "1069f5a1788ceefb501258900989e245", "is_reserved": 0, "rental_uris": {"android": "https://dc.lft.to/lastmile_qr_scan", "ios": "https://dc.lft.to/lastmile_qr_scan"}, "fusion_lon": 0.0}, {"lat": 38.90264533333333, "is_disabled": 0, "type": "electric_scooter", "lon": -77.04601683333334, "bike_id": "21d0fb643a6abb6f80a2b922405a2f44", "fusion_lat": 0.0, "name": "21d0fb643a6abb6f80a2b922405a2f44", "is_reserved": 0, "rental_uris": {"android": "https://dc.lft.to/lastmile_qr_scan", "ios": "https://dc.lft.to/lastmile_qr_scan"}, "fusion_lon": 0.0}, {"lat": 38.8866895, "is_disabled": 0, "type": "electric_scooter", "lon": -76.98557933333333, "bike_id": "e6bf735dae71823659487fc1579bd5a1", "fusion_lat": 0.0, "name": "e6bf735dae71823659487fc1579bd5a1", "is_reserved": 0, "rental_uris": {"android": "https://dc.lft.to/lastmile_qr_scan", "ios": "https://dc.lft.to/lastmile_qr_scan"}, "fusion_lon": 0.0}, {"lat": 38.913387166666666, "is_disabled": 0, "type": "electric_scooter", "lon": -77.03166633333333, "bike_id": "057a4d6c01534a12773dc228ccea619c", "fusion_lat": 0.0, "name": "057a4d6c01534a12773dc228ccea619c", "is_reserved": 0, "rental_uris": {"android": "https://dc.lft.to/lastmile_qr_scan", "ios": "https://dc.lft.to/lastmile_qr_scan"}, "fusion_lon": 0.0}, {"lat": 38.9170825, "is_disabled": 0, "type": "electric_scooter", "lon": -77.02572683333334, "bike_id": "d7fbf1c061db72410c5104f0eacfb86b", "fusion_lat": 0.0, "name": "d7fbf1c061db72410c5104f0eacfb86b", "is_reserved": 0, "rental_uris": {"android": "https://dc.lft.to/lastmile_qr_scan", "ios": "https://dc.lft.to/lastmile_qr_scan"}, "fusion_lon": 0.0}, {"lat": 38.911181, "is_disabled": 0, "type": "electric_scooter", "lon": -77.04325633333333, "bike_id": "071e05a9d4b48fda37d5a2d35b76efc5", "fusion_lat": 0.0, "name": "071e05a9d4b48fda37d5a2d35b76efc5", "is_reserved": 0, "rental_uris": {"android": "https://dc.lft.to/lastmile_qr_scan", "ios": "https://dc.lft.to/lastmile_qr_scan"}, "fusion_lon": 0.0}, {"lat": 38.904079833333334, "is_disabled": 0, "type": "electric_scooter", "lon": -77.025836, "bike_id": "459f09a8ac5467f8de9ca31efc04d135", "fusion_lat": 0.0, "name": "459f09a8ac5467f8de9ca31efc04d135", "is_reserved": 0, "rental_uris": {"android": "https://dc.lft.to/lastmile_qr_scan", "ios": "https://dc.lft.to/lastmile_qr_scan"}, "fusion_lon": 0.0}, {"lat": 38.925679, "is_disabled": 0, "type": "electric_scooter", "lon": -77.05758616666667, "bike_id": "e5f3357e281b21a5bf7048e7f00bbe82", "fusion_lat": 0.0, "name": "e5f3357e281b21a5bf7048e7f00bbe82", "is_reserved": 0, "rental_uris": {"android": "https://dc.lft.to/lastmile_qr_scan", "ios": "https://dc.lft.to/lastmile_qr_scan"}, "fusion_lon": 0.0}, {"lat": 38.918355, "is_disabled": 0, "type": "electric_scooter", "lon": -77.04171433333333, "bike_id": "e3a072a9349a2693863d9c3495d4a3ce", "fusion_lat": 0.0, "name": "e3a072a9349a2693863d9c3495d4a3ce", "is_reserved": 0, "rental_uris": {"android": "https://dc.lft.to/lastmile_qr_scan", "ios": "https://dc.lft.to/lastmile_qr_scan"}, "fusion_lon": 0.0}, {"lat": 38.9036965, "is_disabled": 0, "type": "electric_scooter", "lon": -77.01838466666666, "bike_id": "c21ac7f99e23c524f7d9f3cb640978a9", "fusion_lat": 0.0, "name": "c21ac7f99e23c524f7d9f3cb640978a9", "is_reserved": 0, "rental_uris": {"android": "https://dc.lft.to/lastmile_qr_scan", "ios": "https://dc.lft.to/lastmile_qr_scan"}, "fusion_lon": 0.0}, {"lat": 38.919238666666665, "is_disabled": 0, "type": "electric_scooter", "lon": -77.04809533333334, "bike_id": "97c845dcad5dbe25ed8c3a4e8dd6bf3c", "fusion_lat": 0.0, "name": "97c845dcad5dbe25ed8c3a4e8dd6bf3c", "is_reserved": 0, "rental_uris": {"android": "https://dc.lft.to/lastmile_qr_scan", "ios": "https://dc.lft.to/lastmile_qr_scan"}, "fusion_lon": 0.0}, {"lat": 38.89999533333334, "is_disabled": 0, "type": "electric_scooter", "lon": -76.998489, "bike_id": "bda13445e1f39eda3587281796f855f9", "fusion_lat": 0.0, "name": "bda13445e1f39eda3587281796f855f9", "is_reserved": 0, "rental_uris": {"android": "https://dc.lft.to/lastmile_qr_scan", "ios": "https://dc.lft.to/lastmile_qr_scan"}, "fusion_lon": 0.0}, {"lat": 38.9284275, "is_disabled": 0, "type": "electric_scooter", "lon": -77.01593583333333, "bike_id": "7b4f617bd06e090063a6a8e24302e5b7", "fusion_lat": 0.0, "name": "7b4f617bd06e090063a6a8e24302e5b7", "is_reserved": 0, "rental_uris": {"android": "https://dc.lft.to/lastmile_qr_scan", "ios": "https://dc.lft.to/lastmile_qr_scan"}, "fusion_lon": 0.0}, {"lat": 38.897661, "is_disabled": 0, "type": "electric_bike", "lon": -76.90444533333333, "bike_id": "96dd4a0909198fec35f3c6d65501ddf3", "fusion_lat": 0.0, "name": "96dd4a0909198fec35f3c6d65501ddf3", "is_reserved": 0, "rental_uris": {"android": "https://dc.lft.to/lastmile_qr_scan", "ios": "https://dc.lft.to/lastmile_qr_scan"}, "fusion_lon": 0.0}, {"lat": 38.9037875, "is_disabled": 0, "type": "electric_scooter", "lon": -77.044795, "bike_id": "938fdfb72638c6b36dcb4ddc615d7e2d", "fusion_lat": 0.0, "name": "938fdfb72638c6b36dcb4ddc615d7e2d", "is_reserved": 0, "rental_uris": {"android": "https://dc.lft.to/lastmile_qr_scan", "ios": "https://dc.lft.to/lastmile_qr_scan"}, "fusion_lon": 0.0}, {"lat": 38.876452, "is_disabled": 0, "type": "electric_scooter", "lon": -77.0041885, "bike_id": "84688128e32dc09c07e1417c435510d4", "fusion_lat": 0.0, "name": "84688128e32dc09c07e1417c435510d4", "is_reserved": 0, "rental_uris": {"android": "https://dc.lft.to/lastmile_qr_scan", "ios": "https://dc.lft.to/lastmile_qr_scan"}, "fusion_lon": 0.0}, {"lat": 38.932529333333335, "is_disabled": 0, "type": "electric_scooter", "lon": -77.03279083333334, "bike_id": "0e3172cd26fae77c271ecd3a1729847a", "fusion_lat": 0.0, "name": "0e3172cd26fae77c271ecd3a1729847a", "is_reserved": 0, "rental_uris": {"android": "https://dc.lft.to/lastmile_qr_scan", "ios": "https://dc.lft.to/lastmile_qr_scan"}, "fusion_lon": 0.0}, {"lat": 38.935184166666666, "is_disabled": 0, "type": "electric_scooter", "lon": -77.03265583333334, "bike_id": "fe9dd48470df2307019c5868eeffc3be", "fusion_lat": 0.0, "name": "fe9dd48470df2307019c5868eeffc3be", "is_reserved": 0, "rental_uris": {"android": "https://dc.lft.to/lastmile_qr_scan", "ios": "https://dc.lft.to/lastmile_qr_scan"}, "fusion_lon": 0.0}, {"lat": 38.852040333333335, "is_disabled": 0, "type": "electric_bike", "lon": -76.9855445, "bike_id": "fcb3491f6e06a77f2861dcd9a1b5be54", "fusion_lat": 0.0, "name": "fcb3491f6e06a77f2861dcd9a1b5be54", "is_reserved": 0, "rental_uris": {"android": "https://dc.lft.to/lastmile_qr_scan", "ios": "https://dc.lft.to/lastmile_qr_scan"}, "fusion_lon": 0.0}, {"lat": 38.956214833333334, "is_disabled": 0, "type": "electric_bike", "lon": -76.93885316666666, "bike_id": "71ec768cd6d57f5f8cb5359550e7b13f", "fusion_lat": 0.0, "name": "71ec768cd6d57f5f8cb5359550e7b13f", "is_reserved": 0, "rental_uris": {"android": "https://dc.lft.to/lastmile_qr_scan", "ios": "https://dc.lft.to/lastmile_qr_scan"}, "fusion_lon": 0.0}, {"lat": 38.90572083333333, "is_disabled": 0, "type": "electric_scooter", "lon": -77.00600633333333, "bike_id": "7b033b4adf40a6afb312d40627621713", "fusion_lat": 0.0, "name": "7b033b4adf40a6afb312d40627621713", "is_reserved": 0, "rental_uris": {"android": "https://dc.lft.to/lastmile_qr_scan", "ios": "https://dc.lft.to/lastmile_qr_scan"}, "fusion_lon": 0.0}, {"lat": 38.917095333333336, "is_disabled": 0, "type": "electric_scooter", "lon": -77.02668333333334, "bike_id": "18c39dffc4add2066dcfa5509dcb090a", "fusion_lat": 0.0, "name": "18c39dffc4add2066dcfa5509dcb090a", "is_reserved": 0, "rental_uris": {"android": "https://dc.lft.to/lastmile_qr_scan", "ios": "https://dc.lft.to/lastmile_qr_scan"}, "fusion_lon": 0.0}, {"lat": 38.906746, "is_disabled": 0, "type": "electric_scooter", "lon": -77.02693283333333, "bike_id": "0a260b5f00379ad5032b8d8132584b2b", "fusion_lat": 0.0, "name": "0a260b5f00379ad5032b8d8132584b2b", "is_reserved": 0, "rental_uris": {"android": "https://dc.lft.to/lastmile_qr_scan", "ios": "https://dc.lft.to/lastmile_qr_scan"}, "fusion_lon": 0.0}, {"lat": 38.89958816666667, "is_disabled": 0, "type": "electric_scooter", "lon": -77.025589, "bike_id": "7af31f3de22261b55e578d29cb7b6ffa", "fusion_lat": 0.0, "name": "7af31f3de22261b55e578d29cb7b6ffa", "is_reserved": 0, "rental_uris": {"android": "https://dc.lft.to/lastmile_qr_scan", "ios": "https://dc.lft.to/lastmile_qr_scan"}, "fusion_lon": 0.0}, {"lat": 38.91415833333333, "is_disabled": 0, "type": "electric_bike", "lon": -77.03821366666666, "bike_id": "dedddff846059d6daaf094a1cf2fcfd7", "fusion_lat": 0.0, "name": "dedddff846059d6daaf094a1cf2fcfd7", "is_reserved": 0, "rental_uris": {"android": "https://dc.lft.to/lastmile_qr_scan", "ios": "https://dc.lft.to/lastmile_qr_scan"}, "fusion_lon": 0.0}, {"lat": 38.907168166666665, "is_disabled": 0, "type": "electric_scooter", "lon": -77.0168305, "bike_id": "95dbf75a8ef2f69f98d1b73d40a2b510", "fusion_lat": 0.0, "name": "95dbf75a8ef2f69f98d1b73d40a2b510", "is_reserved": 0, "rental_uris": {"android": "https://dc.lft.to/lastmile_qr_scan", "ios": "https://dc.lft.to/lastmile_qr_scan"}, "fusion_lon": 0.0}, {"lat": 38.9182485, "is_disabled": 0, "type": "electric_scooter", "lon": -77.02695, "bike_id": "9b251ca93b11d8e23b733c634bf94994", "fusion_lat": 0.0, "name": "9b251ca93b11d8e23b733c634bf94994", "is_reserved": 0, "rental_uris": {"android": "https://dc.lft.to/lastmile_qr_scan", "ios": "https://dc.lft.to/lastmile_qr_scan"}, "fusion_lon": 0.0}, {"lat": 38.84108583333333, "is_disabled": 0, "type": "electric_bike", "lon": -77.08943866666667, "bike_id": "ab073d9bad6347467d47971092483884", "fusion_lat": 0.0, "name": "ab073d9bad6347467d47971092483884", "is_reserved": 0, "rental_uris": {"android": "https://dc.lft.to/lastmile_qr_scan", "ios": "https://dc.lft.to/lastmile_qr_scan"}, "fusion_lon": 0.0}, {"lat": 38.898753, "is_disabled": 0, "type": "electric_scooter", "lon": -76.93185366666667, "bike_id": "b8ff028b67a123dccd1a870d6f4175da", "fusion_lat": 0.0, "name": "b8ff028b67a123dccd1a870d6f4175da", "is_reserved": 0, "rental_uris": {"android": "https://dc.lft.to/lastmile_qr_scan", "ios": "https://dc.lft.to/lastmile_qr_scan"}, "fusion_lon": 0.0}, {"lat": 38.90193766666667, "is_disabled": 0, "type": "electric_scooter", "lon": -77.02186166666667, "bike_id": "fe89d7648748affcac0bb9fa9a2ece90", "fusion_lat": 0.0, "name": "fe89d7648748affcac0bb9fa9a2ece90", "is_reserved": 0, "rental_uris": {"android": "https://dc.lft.to/lastmile_qr_scan", "ios": "https://dc.lft.to/lastmile_qr_scan"}, "fusion_lon": 0.0}, {"lat": 38.97086616666667, "is_disabled": 0, "type": "electric_bike", "lon": -77.06970683333333, "bike_id": "7ded4bf23762db12d52a2d3b09bfe071", "fusion_lat": 0.0, "name": "7ded4bf23762db12d52a2d3b09bfe071", "is_reserved": 0, "rental_uris": {"android": "https://dc.lft.to/lastmile_qr_scan", "ios": "https://dc.lft.to/lastmile_qr_scan"}, "fusion_lon": 0.0}, {"lat": 38.892161333333334, "is_disabled": 0, "type": "electric_scooter", "lon": -77.0222285, "bike_id": "d15578f176d87d69763c6de566e010f1", "fusion_lat": 0.0, "name": "d15578f176d87d69763c6de566e010f1", "is_reserved": 0, "rental_uris": {"android": "https://dc.lft.to/lastmile_qr_scan", "ios": "https://dc.lft.to/lastmile_qr_scan"}, "fusion_lon": 0.0}, {"lat": 38.879174, "is_disabled": 0, "type": "electric_scooter", "lon": -77.0309385, "bike_id": "fadc36460afecab89e44251cf3de00e1", "fusion_lat": 0.0, "name": "fadc36460afecab89e44251cf3de00e1", "is_reserved": 0, "rental_uris": {"android": "https://dc.lft.to/lastmile_qr_scan", "ios": "https://dc.lft.to/lastmile_qr_scan"}, "fusion_lon": 0.0}, {"lat": 38.898176, "is_disabled": 0, "type": "electric_bike", "lon": -77.02468516666667, "bike_id": "142d574bb1ad6130e44c01e77c82f95f", "fusion_lat": 0.0, "name": "142d574bb1ad6130e44c01e77c82f95f", "is_reserved": 0, "rental_uris": {"android": "https://dc.lft.to/lastmile_qr_scan", "ios": "https://dc.lft.to/lastmile_qr_scan"}, "fusion_lon": 0.0}, {"lat": 38.919939, "is_disabled": 0, "type": "electric_scooter", "lon": -77.03215383333334, "bike_id": "525ee4bbe35f346a67ef805b84d77370", "fusion_lat": 0.0, "name": "525ee4bbe35f346a67ef805b84d77370", "is_reserved": 0, "rental_uris": {"android": "https://dc.lft.to/lastmile_qr_scan", "ios": "https://dc.lft.to/lastmile_qr_scan"}, "fusion_lon": 0.0}, {"lat": 38.89791233333333, "is_disabled": 0, "type": "electric_scooter", "lon": -77.03168266666667, "bike_id": "7f8bfcbe4cdb7e2533163474853c2659", "fusion_lat": 0.0, "name": "7f8bfcbe4cdb7e2533163474853c2659", "is_reserved": 0, "rental_uris": {"android": "https://dc.lft.to/lastmile_qr_scan", "ios": "https://dc.lft.to/lastmile_qr_scan"}, "fusion_lon": 0.0}, {"lat": 38.8922135, "is_disabled": 0, "type": "electric_scooter", "lon": -77.048602, "bike_id": "f898741a4eef2703cb9a3892110d8889", "fusion_lat": 0.0, "name": "f898741a4eef2703cb9a3892110d8889", "is_reserved": 0, "rental_uris": {"android": "https://dc.lft.to/lastmile_qr_scan", "ios": "https://dc.lft.to/lastmile_qr_scan"}, "fusion_lon": 0.0}, {"lat": 38.92876183333333, "is_disabled": 0, "type": "electric_scooter", "lon": -77.03311483333333, "bike_id": "e78aea15894f0a882291a20d5eb39603", "fusion_lat": 0.0, "name": "e78aea15894f0a882291a20d5eb39603", "is_reserved": 0, "rental_uris": {"android": "https://dc.lft.to/lastmile_qr_scan", "ios": "https://dc.lft.to/lastmile_qr_scan"}, "fusion_lon": 0.0}, {"lat": 38.900617, "is_disabled": 0, "type": "electric_scooter", "lon": -77.05066, "bike_id": "015226c7e81363d94937d35678580bc2", "fusion_lat": 0.0, "name": "015226c7e81363d94937d35678580bc2", "is_reserved": 0, "rental_uris": {"android": "https://dc.lft.to/lastmile_qr_scan", "ios": "https://dc.lft.to/lastmile_qr_scan"}, "fusion_lon": 0.0}, {"lat": 38.904798, "is_disabled": 0, "type": "electric_scooter", "lon": -77.06123366666667, "bike_id": "ccb41f478fe2168c94d4b5cc58c240ad", "fusion_lat": 0.0, "name": "ccb41f478fe2168c94d4b5cc58c240ad", "is_reserved": 0, "rental_uris": {"android": "https://dc.lft.to/lastmile_qr_scan", "ios": "https://dc.lft.to/lastmile_qr_scan"}, "fusion_lon": 0.0}, {"lat": 38.916108, "is_disabled": 0, "type": "electric_bike", "lon": -77.0029605, "bike_id": "fb2a881915e2285bde5accb2ab79a8d2", "fusion_lat": 0.0, "name": "fb2a881915e2285bde5accb2ab79a8d2", "is_reserved": 0, "rental_uris": {"android": "https://dc.lft.to/lastmile_qr_scan", "ios": "https://dc.lft.to/lastmile_qr_scan"}, "fusion_lon": 0.0},