{"data": {"bikes": [{"bike_id": "070ffb7b0554730098bf52e3b990860e", "type": "electric_scooter", "is_disabled": 0, "lat": 38.90543816666667, "rental_uris": {"ios": "https://dc.lft.to/lastmile_qr_scan", "android": "https://dc.lft.to/lastmile_qr_scan"}, "is_reserved": 0, "fusion_lon": 0.0, "fusion_lat": 0.0, "lon": -77.005847, "name": "070ffb7b0554730098bf52e3b990860e"}, {"bike_id": "436edfa9f1d4f86fe4cc6b883d139f29", "type": "electric_scooter", "is_disabled": 0, "lat": 38.90562833333333, "rental_uris": {"ios": "https://dc.lft.to/lastmile_qr_scan", "android": "https://dc.lft.to/lastmile_qr_scan"}, "is_reserved": 0, "fusion_lon": 0.0, "fusion_lat": 0.0, "lon": -77.016804, "name": "436edfa9f1d4f86fe4cc6b883d139f29"}, {"bike_id": "0953e06a2c7fa27b0a8210bc5f655278", "type": "electric_bike", "is_disabled": 0, "lat": 38.85490683333333, "rental_uris": {"ios": "https://dc.lft.to/lastmile_qr_scan", "android": "https://dc.lft.to/lastmile_qr_scan"}, "is_reserved": 0, "fusion_lon": 0.0, "fusion_lat": 0.0, "lon": -77.11616033333334, "name": "0953e06a2c7fa27b0a8210bc5f655278"}, {"bike_id": "4fd459eae55d25a0a927da5c4f5fc349", "type": "electric_bike", "is_disabled": 0, "lat": 38.855245333333336, "rental_uris": {"ios": "https://dc.lft.to/lastmile_qr_scan", "android": "https://dc.lft.to/lastmile_qr_scan"}, "is_reserved": 0, "fusion_lon": 0.0, "fusion_lat": 0.0, "lon": -77.1201375, "name": "4fd459eae55d25a0a927da5c4f5fc349"}, {"bike_id": "3068565ebea828a905f043488cd6b786", "type": "electric_scooter", "is_disabled": 0, "lat": 38.915636, "rental_uris": {"ios": "https://dc.lft.to/lastmile_qr_scan", "android": "https://dc.lft.to/lastmile_qr_scan"}, "is_reserved": 0, "fusion_lon": 0.0, "fusion_lat": 0.0, "lon": -77.038376, "name": "3068565ebea828a905f043488cd6b786"}, {"bike_id": "91ba53ff8b32f57731b389fb6235b5b5", "type": "electric_bike", "is_disabled": 0, "lat": 38.992240833333334, "rental_uris": {"ios": "https://dc.lft.to/lastmile_qr_scan", "android": "https://dc.lft.to/lastmile_qr_scan"}, "is_reserved": 0, "fusion_lon": 0.0, "fusion_lat": 0.0, "lon": -76.94406383333333, "name": "91ba53ff8b32f57731b389fb6235b5b5"}, {"bike_id": "850bdf7aaeef7569b57292d62000d2b9", "type": "electric_scooter", "is_disabled": 0, "lat": 38.91554383333333, "rental_uris": {"ios": "https://dc.lft.to/lastmile_qr_scan", "android": "https://dc.lft.to/lastmile_qr_scan"}, "is_reserved": 0, "fusion_lon": 0.0, "fusion_lat": 0.0, "lon": -77.0035915, "name": "850bdf7aaeef7569b57292d62000d2b9"}, {"bike_id": "9c00a33d078fe228780d62250f1f1c84", "type": "electric_scooter", "is_disabled": 0, "lat": 38.90239916666667, "rental_uris": {"ios": "https://dc.lft.to/lastmile_qr_scan", "android": "https://dc.lft.to/lastmile_qr_scan"}, "is_reserved": 0, "fusion_lon": 0.0, "fusion_lat": 0.0, "lon": -77.00208466666666, "name": "9c00a33d078fe228780d62250f1f1c84"}, {"bike_id": "156c5aeae458b9baa1bf9edf25c374b4", "type": "electric_scooter", "is_disabled": 0, "lat": 38.947205833333335, "rental_uris": {"ios": "https://dc.lft.to/lastmile_qr_scan", "android": "https://dc.lft.to/lastmile_qr_scan"}, "is_reserved": 0, "fusion_lon": 0.0, "fusion_lat": 0.0, "lon": -77.06545083333333, "name": "156c5aeae458b9baa1bf9edf25c374b4"}, {"bike_id": "8e0615e9288fd08c6b9a2c8c85c37007", "type": "electric_scooter", "is_disabled": 0, "lat": 38.91772183333333, "rental_uris": {"ios": "https://dc.lft.to/lastmile_qr_scan", "android": "https://dc.lft.to/lastmile_qr_scan"}, "is_reserved": 0, "fusion_lon": 0.0, "fusion_lat": 0.0, "lon": -77.02505566666666, "name": "8e0615e9288fd08c6b9a2c8c85c37007"}, {"bike_id": "0397e01fc5fb66dd111e6b06128e815b", "type": "electric_scooter", "is_disabled": 0, "lat": 38.9233945, "rental_uris": {"ios": "https://dc.lft.to/lastmile_qr_scan", "android": "https://dc.lft.to/lastmile_qr_scan"}, "is_reserved": 0, "fusion_lon": 0.0, "fusion_lat": 0.0, "lon": -77.03480566666667, "name": "0397e01fc5fb66dd111e6b06128e815b"}, {"bike_id": "a68464a3e95e1802c00de89529e2c224", "type": "electric_scooter", "is_disabled": 0, "lat": 38.9068625, "rental_uris": {"ios": "https://dc.lft.to/lastmile_qr_scan", "android": "https://dc.lft.to/lastmile_qr_scan"}, "is_reserved": 0, "fusion_lon": 0.0, "fusion_lat": 0.0, "lon": -77.02600416666667, "name": "a68464a3e95e1802c00de89529e2c224"}, {"bike_id": "c76f2714d6e21181141f2f2b1959fba7", "type": "electric_scooter", "is_disabled": 0, "lat": 38.91703183333333, "rental_uris": {"ios": "https://dc.lft.to/lastmile_qr_scan", "android": "https://dc.lft.to/lastmile_qr_scan"}, "is_reserved": 0, "fusion_lon": 0.0, "fusion_lat": 0.0, "lon": -77.01202166666667, "name": "c76f2714d6e21181141f2f2b1959fba7"}, {"bike_id": "45f6c924a55a439cdc0ed5a3fdf1703e", "type": "electric_bike", "is_disabled": 0, "lat": 38.85563716666667, "rental_uris": {"ios": "https://dc.lft.to/lastmile_qr_scan", "android": "https://dc.lft.to/lastmile_qr_scan"}, "is_reserved": 0, "fusion_lon": 0.0, "fusion_lat": 0.0, "lon": -77.11316166666667, "name": "45f6c924a55a439cdc0ed5a3fdf1703e"}, {"bike_id": "09ce2a3fa7b57c5b1238061884078d8a", "type": "electric_scooter", "is_disabled": 0, "lat": 38.92769583333333, "rental_uris": {"ios": "https://dc.lft.to/lastmile_qr_scan", "android": "https://dc.lft.to/lastmile_qr_scan"}, "is_reserved": 0, "fusion_lon": 0.0, "fusion_lat": 0.0, "lon": -77.02726783333334, "name": "09ce2a3fa7b57c5b1238061884078d8a"}, {"bike_id": "2b2d3593a92a140710f31ca7d16dd1d0", "type": "electric_scooter", "is_disabled": 0, "lat": 38.91972033333333, "rental_uris": {"ios": "https://dc.lft.to/lastmile_qr_scan", "android": "https://dc.lft.to/lastmile_qr_scan"}, "is_reserved": 0, "fusion_lon": 0.0, "fusion_lat": 0.0, "lon": -77.04078866666667, "name": "2b2d3593a92a140710f31ca7d16dd1d0"}, {"bike_id": "2d890b6f820a9e7a840ceba787e37ebd", "type": "electric_scooter", "is_disabled": 0, "lat": 38.912493166666664, "rental_uris": {"ios": "https://dc.lft.to/lastmile_qr_scan", "android": "https://dc.lft.to/lastmile_qr_scan"}, "is_reserved": 0, "fusion_lon": 0.0, "fusion_lat": 0.0, "lon": -77.05877733333334, "name": "2d890b6f820a9e7a840ceba787e37ebd"}, {"bike_id": "46ef702151ee90abfb6f03d6ef76198e", "type": "electric_scooter", "is_disabled": 0, "lat": 38.91761183333333, "rental_uris": {"ios": "https://dc.lft.to/lastmile_qr_scan", "android": "https://dc.lft.to/lastmile_qr_scan"}, "is_reserved": 0, "fusion_lon": 0.0, "fusion_lat": 0.0, "lon": -77.04043183333333, "name": "46ef702151ee90abfb6f03d6ef76198e"}, {"bike_id": "13e5bdc934ba6335afa5935b39b58dde", "type": "electric_scooter", "is_disabled": 0, "lat": 38.93196016666667, "rental_uris": {"ios": "https://dc.lft.to/lastmile_qr_scan", "android": "https://dc.lft.to/lastmile_qr_scan"}, "is_reserved": 0, "fusion_lon": 0.0, "fusion_lat": 0.0, "lon": -77.023991, "name": "13e5bdc934ba6335afa5935b39b58dde"}, {"bike_id": "05b02edbda63db4be3ea4d131e5a145d", "type": "electric_scooter", "is_disabled": 0, "lat": 38.876824666666664, "rental_uris": {"ios": "https://dc.lft.to/lastmile_qr_scan", "android": "https://dc.lft.to/lastmile_qr_scan"}, "is_reserved": 0, "fusion_lon": 0.0, "fusion_lat": 0.0, "lon": -77.00053716666666, "name": "05b02edbda63db4be3ea4d131e5a145d"}, {"bike_id": "5161d1ce368a7f5c05433d976eb58645", "type": "electric_scooter", "is_disabled": 0, "lat": 38.87624566666667, "rental_uris": {"ios": "https://dc.lft.to/lastmile_qr_scan", "android": "https://dc.lft.to/lastmile_qr_scan"}, "is_reserved": 0, "fusion_lon": 0.0, "fusion_lat": 0.0, "lon": -76.96525366666667, "name": "5161d1ce368a7f5c05433d976eb58645"}, {"bike_id": "8b34de672f379ce9a79958cc91c9efe3", "type": "electric_scooter", "is_disabled": 0, "lat": 38.900651333333336, "rental_uris": {"ios": "https://dc.lft.to/lastmile_qr_scan", "android": "https://dc.lft.to/lastmile_qr_scan"}, "is_reserved": 0, "fusion_lon": 0.0, "fusion_lat": 0.0, "lon": -76.92742616666666, "name": "8b34de672f379ce9a79958cc91c9efe3"}, {"bike_id": "7920a314d32f7be2f9bc19eabfe4714e", "type": "electric_scooter", "is_disabled": 0, "lat": 38.9018595, "rental_uris": {"ios": "https://dc.lft.to/lastmile_qr_scan", "android": "https://dc.lft.to/lastmile_qr_scan"}, "is_reserved": 0, "fusion_lon": 0.0, "fusion_lat": 0.0, "lon": -77.0203375, "name": "7920a314d32f7be2f9bc19eabfe4714e"}, {"bike_id": "6c7c1ea9d4213e4e1b88c083980b2c75", "type": "electric_scooter", "is_disabled": 0, "lat": 38.90046183333333, "rental_uris": {"ios": "https://dc.lft.to/lastmile_qr_scan", "android": "https://dc.lft.to/lastmile_qr_scan"}, "is_reserved": 0, "fusion_lon": 0.0, "fusion_lat": 0.0, "lon": -77.013362, "name": "6c7c1ea9d4213e4e1b88c083980b2c75"}, {"bike_id": "b0c2d621e6e52a848af302ec2dcfa126", "type": "electric_scooter", "is_disabled": 0, "lat": 38.93931383333333, "rental_uris": {"ios": "https://dc.lft.to/lastmile_qr_scan", "android": "https://dc.lft.to/lastmile_qr_scan"}, "is_reserved": 0, "fusion_lon": 0.0, "fusion_lat": 0.0, "lon": -77.03671, "name": "b0c2d621e6e52a848af302ec2dcfa126"}, {"bike_id": "2cfd563cbac2e701625bef3092eddc6d", "type": "electric_bike", "is_disabled": 0, "lat": 38.93296316666667, "rental_uris": {"ios": "https://dc.lft.to/lastmile_qr_scan", "android": "https://dc.lft.to/lastmile_qr_scan"}, "is_reserved": 0, "fusion_lon": 0.0, "fusion_lat": 0.0, "lon": -77.02063733333334, "name": "2cfd563cbac2e701625bef3092eddc6d"}, {"bike_id": "ec13b6b8124fd8b890c66da58a1518af", "type": "electric_scooter", "is_disabled": 0, "lat": 38.923221833333336, "rental_uris": {"ios": "https://dc.lft.to/lastmile_qr_scan", "android": "https://dc.lft.to/lastmile_qr_scan"}, "is_reserved": 0, "fusion_lon": 0.0, "fusion_lat": 0.0, "lon": -77.04441416666667, "name": "ec13b6b8124fd8b890c66da58a1518af"}, {"bike_id": "da08e3911dcdcb2d6a42351f22042970", "type": "electric_scooter", "is_disabled": 0, "lat": 38.905784, "rental_uris": {"ios": "https://dc.lft.to/lastmile_qr_scan", "android": "https://dc.lft.to/lastmile_qr_scan"}, "is_reserved": 0, "fusion_lon": 0.0, "fusion_lat": 0.0, "lon": -77.05161833333334, "name": "da08e3911dcdcb2d6a42351f22042970"}, {"bike_id": "1388a2c98d70676df1efd679001556c9", "type": "electric_scooter", "is_disabled": 0, "lat": 38.949960833333336, "rental_uris": {"ios": "https://dc.lft.to/lastmile_qr_scan", "android": "https://dc.lft.to/lastmile_qr_scan"}, "is_reserved": 0, "fusion_lon": 0.0, "fusion_lat": 0.0, "lon": -77.01831466666667, "name": "1388a2c98d70676df1efd679001556c9"}, {"bike_id": "e59dc49bed7d4fa475539657688d6df8", "type": "electric_scooter", "is_disabled": 0, "lat": 38.900242666666664, "rental_uris": {"ios": "https://dc.lft.to/lastmile_qr_scan", "android": "https://dc.lft.to/lastmile_qr_scan"}, "is_reserved": 0, "fusion_lon": 0.0, "fusion_lat": 0.0, "lon": -76.99862683333333, "name": "e59dc49bed7d4fa475539657688d6df8"}, {"bike_id": "1af1dfa6a2171b680fefde64e18b5981", "type": "electric_bike", "is_disabled": 0, "lat": 38.895667833333334, "rental_uris": {"ios": "https://dc.lft.to/lastmile_qr_scan", "android": "https://dc.lft.to/lastmile_qr_scan"}, "is_reserved": 0, "fusion_lon": 0.0, "fusion_lat": 0.0, "lon": -77.12735633333334, "name": "1af1dfa6a2171b680fefde64e18b5981"}, {"bike_id": "175e4e4851a77ac1f3a2293708669a4c", "type": "electric_scooter", "is_disabled": 0, "lat": 38.911066, "rental_uris": {"ios": "https://dc.lft.to/lastmile_qr_scan", "android": "https://dc.lft.to/lastmile_qr_scan"}, "is_reserved": 0, "fusion_lon": 0.0, "fusion_lat": 0.0, "lon": -77.02774916666667, "name": "175e4e4851a77ac1f3a2293708669a4c"}, {"bike_id": "febee00c23cb896513a7e2fa7270d479", "type": "electric_scooter", "is_disabled": 0, "lat": 38.968504, "rental_uris": {"ios": "https://dc.lft.to/lastmile_qr_scan", "android": "https://dc.lft.to/lastmile_qr_scan"}, "is_reserved": 0, "fusion_lon": 0.0, "fusion_lat": 0.0, "lon": -77.02730966666667, "name": "febee00c23cb896513a7e2fa7270d479"}, {"bike_id": "fea288913c58af8fbd9614df80bd4aba", "type": "electric_scooter", "is_disabled": 0, "lat": 38.87650583333333, "rental_uris": {"ios": "https://dc.lft.to/lastmile_qr_scan", "android": "https://dc.lft.to/lastmile_qr_scan"}, "is_reserved": 0, "fusion_lon": 0.0, "fusion_lat": 0.0, "lon": -76.96505266666667, "name": "fea288913c58af8fbd9614df80bd4aba"}, {"bike_id": "46004e642edf2da56551e90da2c53f72", "type": "electric_scooter", "is_disabled": 0, "lat": 38.861908, "rental_uris": {"ios": "https://dc.lft.to/lastmile_qr_scan", "android": "https://dc.lft.to/lastmile_qr_scan"}, "is_reserved": 0, "fusion_lon": 0.0, "fusion_lat": 0.0, "lon": -76.95949683333333, "name": "46004e642edf2da56551e90da2c53f72"}, {"bike_id": "4d76c61dbf4160ebf9909991bbf294cf", "type": "electric_scooter", "is_disabled": 0, "lat": 38.89596133333333, "rental_uris": {"ios": "https://dc.lft.to/lastmile_qr_scan", "android": "https://dc.lft.to/lastmile_qr_scan"}, "is_reserved": 0, "fusion_lon": 0.0, "fusion_lat": 0.0, "lon": -77.04425166666667, "name": "4d76c61dbf4160ebf9909991bbf294cf"}, {"bike_id": "5a48d2c3e121b85822ea9d975631dd16", "type": "electric_bike", "is_disabled": 0, "lat": 38.995306, "rental_uris": {"ios": "https://dc.lft.to/lastmile_qr_scan", "android": "https://dc.lft.to/lastmile_qr_scan"}, "is_reserved": 0, "fusion_lon": 0.0, "fusion_lat": 0.0, "lon": -77.069475, "name": "5a48d2c3e121b85822ea9d975631dd16"}, {"bike_id": "df0e7e6e381dca2254d68fb4b385215f", "type": "electric_scooter", "is_disabled": 0, "lat": 38.89837883333333, "rental_uris": {"ios": "https://dc.lft.to/lastmile_qr_scan", "android": "https://dc.lft.to/lastmile_qr_scan"}, "is_reserved": 0, "fusion_lon": 0.0, "fusion_lat": 0.0, "lon": -77.03305966666667, "name": "df0e7e6e381dca2254d68fb4b385215f"}, {"bike_id": "dcbfa1462b1ecb7929f7af03b59633f6", "type": "electric_scooter", "is_disabled": 0, "lat": 38.900233, "rental_uris": {"ios": "https://dc.lft.to/lastmile_qr_scan", "android": "https://dc.lft.to/lastmile_qr_scan"}, "is_reserved": 0, "fusion_lon": 0.0, "fusion_lat": 0.0, "lon": -77.011682, "name": "dcbfa1462b1ecb7929f7af03b59633f6"}, {"bike_id": "f7ebb31e7ccfb5daa64d6f1d9ecae022", "type": "electric_scooter", "is_disabled": 0, "lat": 38.9221905, "rental_uris": {"ios": "https://dc.lft.to/lastmile_qr_scan", "android": "https://dc.lft.to/lastmile_qr_scan"}, "is_reserved": 0, "fusion_lon": 0.0, "fusion_lat": 0.0, "lon": -77.04333116666666, "name": "f7ebb31e7ccfb5daa64d6f1d9ecae022"}, {"bike_id": "45ecc74c6f1959a4e41d7493d4e98115", "type": "electric_scooter", "is_disabled": 0, "lat": 38.862436333333335, "rental_uris": {"ios": "https://dc.lft.to/lastmile_qr_scan", "android": "https://dc.lft.to/lastmile_qr_scan"}, "is_reserved": 0, "fusion_lon": 0.0, "fusion_lat": 0.0, "lon": -76.99496416666666, "name": "45ecc74c6f1959a4e41d7493d4e98115"}, {"bike_id": "081ea70b065aacfdf3c3de06dbe8d707", "type": "electric_scooter", "is_disabled": 0, "lat": 38.90023133333333, "rental_uris": {"ios": "https://dc.lft.to/lastmile_qr_scan", "android": "https://dc.lft.to/lastmile_qr_scan"}, "is_reserved": 0, "fusion_lon": 0.0, "fusion_lat": 0.0, "lon": -77.002144, "name": "081ea70b065aacfdf3c3de06dbe8d707"}, {"bike_id": "d1614dab378eda2fb9bb7b55e1d3e65d", "type": "electric_bike", "is_disabled": 0, "lat": 38.89848083333333, "rental_uris": {"ios": "https://dc.lft.to/lastmile_qr_scan", "android": "https://dc.lft.to/lastmile_qr_scan"}, "is_reserved": 0, "fusion_lon": 0.0, "fusion_lat": 0.0, "lon": -77.05297566666667, "name": "d1614dab378eda2fb9bb7b55e1d3e65d"}, {"bike_id": "67bf962eff3f7323180bc47438ed40bd", "type": "electric_scooter", "is_disabled": 0, "lat": 38.945969833333336, "rental_uris": {"ios": "https://dc.lft.to/lastmile_qr_scan", "android": "https://dc.lft.to/lastmile_qr_scan"}, "is_reserved": 0, "fusion_lon": 0.0, "fusion_lat": 0.0, "lon": -77.029848, "name": "67bf962eff3f7323180bc47438ed40bd"}, {"bike_id": "2c6f12a61e9fc7209daf2f3a612788d9", "type": "electric_scooter", "is_disabled": 0, "lat": 38.911949, "rental_uris": {"ios": "https://dc.lft.to/lastmile_qr_scan", "android": "https://dc.lft.to/lastmile_qr_scan"}, "is_reserved": 0, "fusion_lon": 0.0, "fusion_lat": 0.0, "lon": -77.03217433333333, "name": "2c6f12a61e9fc7209daf2f3a612788d9"}, {"bike_id": "52b3dc10392fc0bbbbee8c60a5d307cd", "type": "electric_scooter", "is_disabled": 0, "lat": 38.8996225, "rental_uris": {"ios": "https://dc.lft.to/lastmile_qr_scan", "android": "https://dc.lft.to/lastmile_qr_scan"}, "is_reserved": 0, "fusion_lon": 0.0, "fusion_lat": 0.0, "lon": -77.0160625, "name": "52b3dc10392fc0bbbbee8c60a5d307cd"}, {"bike_id": "9d690ddc8160f7a4d3fff3f91d37362c", "type": "electric_scooter", "is_disabled": 0, "lat": 38.86699, "rental_uris": {"ios": "https://dc.lft.to/lastmile_qr_scan", "android": "https://dc.lft.to/lastmile_qr_scan"}, "is_reserved": 0, "fusion_lon": 0.0, "fusion_lat": 0.0, "lon": -76.9871305, "name": "9d690ddc8160f7a4d3fff3f91d37362c"}, {"bike_id": "aa28d722018c20209dcf13cadef07c84", "type": "electric_bike", "is_disabled": 0, "lat": 39.024382333333335, "rental_uris": {"ios": "https://dc.lft.to/lastmile_qr_scan", "android": "https://dc.lft.to/lastmile_qr_scan"}, "is_reserved": 0, "fusion_lon": 0.0, "fusion_lat": 0.0, "lon": -77.13100583333333, "name": "aa28d722018c20209dcf13cadef07c84"}, {"bike_id": "c70e2f10ebd7f286b1336fed93250d20", "type": "electric_scooter", "is_disabled": 0, "lat": 38.908547666666664, "rental_uris": {"ios": "https://dc.lft.to/lastmile_qr_scan", "android": "https://dc.lft.to/lastmile_qr_scan"}, "is_reserved": 0, "fusion_lon": 0.0, "fusion_lat": 0.0, "lon": -77.0197315, "name": "c70e2f10ebd7f286b1336fed93250d20"}, {"bike_id": "b471ee32b67aadd5eac5aea2f668b90b", "type": "electric_scooter", "is_disabled": 0, "lat": 38.930802166666666, "rental_uris": {"ios": "https://dc.lft.to/lastmile_qr_scan", "android": "https://dc.lft.to/lastmile_qr_scan"}, "is_reserved": 0, "fusion_lon": 0.0, "fusion_lat": 0.0, "lon": -77.03749033333334, "name": "b471ee32b67aadd5eac5aea2f668b90b"}, {"bike_id": "75e47139f2f285f9071de097b5e9915b", "type": "electric_scooter", "is_disabled": 0, "lat": 38.908687666666665, "rental_uris": {"ios": "https://dc.lft.to/lastmile_qr_scan", "android": "https://dc.lft.to/lastmile_qr_scan"}, "is_reserved": 0, "fusion_lon": 0.0, "fusion_lat": 0.0, "lon": -77.02353066666667, "name": "75e47139f2f285f9071de097b5e9915b"}, {"bike_id": "bd1a9eff4ea563a4ebf0d4ad8364e986", "type": "electric_scooter", "is_disabled": 0, "lat": 38.9345885, "rental_uris": {"ios": "https://dc.lft.to/lastmile_qr_scan", "android": "https://dc.lft.to/lastmile_qr_scan"}, "is_reserved": 0, "fusion_lon": 0.0, "fusion_lat": 0.0, "lon": -76.96440166666666, "name": "bd1a9eff4ea563a4ebf0d4ad8364e986"}, {"bike_id": "c47a19d5463500e63cf2870a8bc885c2", "type": "electric_scooter", "is_disabled": 0, "lat": 38.90095016666667, "rental_uris": {"ios": "https://dc.lft.to/lastmile_qr_scan", "android": "https://dc.lft.to/lastmile_qr_scan"}, "is_reserved": 0, "fusion_lon": 0.0, "fusion_lat": 0.0, "lon": -77.01925933333334, "name": "c47a19d5463500e63cf2870a8bc885c2"}, {"bike_id": "ab8801c7924b3835e4d36adfd97b33c0", "type": "electric_scooter", "is_disabled": 0, "lat": 38.91709783333334, "rental_uris": {"ios": "https://dc.lft.to/lastmile_qr_scan", "android": "https://dc.lft.to/lastmile_qr_scan"}, "is_reserved": 0, "fusion_lon": 0.0, "fusion_lat": 0.0, "lon": -77.02878466666667, "name": "ab8801c7924b3835e4d36adfd97b33c0"}, {"bike_id": "eb0a8313de6d69497c4ee2ea6821cf9d", "type": "electric_scooter", "is_disabled": 0, "lat": 38.915749, "rental_uris": {"ios": "https://dc.lft.to/lastmile_qr_scan", "android": "https://dc.lft.to/lastmile_qr_scan"}, "is_reserved": 0, "fusion_lon": 0.0, "fusion_lat": 0.0, "lon": -77.03637716666667, "name": "eb0a8313de6d69497c4ee2ea6821cf9d"}, {"bike_id": "41b91e11a89e3f94190b236da6128d97", "type": "electric_scooter", "is_disabled": 0, "lat": 38.902491166666664, "rental_uris": {"ios": "https://dc.lft.to/lastmile_qr_scan", "android": "https://dc.lft.to/lastmile_qr_scan"}, "is_reserved": 0, "fusion_lon": 0.0, "fusion_lat": 0.0, "lon": -77.01771083333334, "name": "41b91e11a89e3f94190b236da6128d97"}, {"bike_id": "b535a2f839fc344c75912237e51d6567", "type": "electric_scooter", "is_disabled": 0, "lat": 38.9125515, "rental_uris": {"ios": "https://dc.lft.to/lastmile_qr_scan", "android": "https://dc.lft.to/lastmile_qr_scan"}, "is_reserved": 0, "fusion_lon": 0.0, "fusion_lat": 0.0, "lon": -77.03829533333334, "name": "b535a2f839fc344c75912237e51d6567"}, {"bike_id": "381534f265e2d08ae9551a48cb958b75", "type": "electric_scooter", "is_disabled": 0, "lat": 38.93142066666667, "rental_uris": {"ios": "https://dc.lft.to/lastmile_qr_scan", "android": "https://dc.lft.to/lastmile_qr_scan"}, "is_reserved": 0, "fusion_lon": 0.0, "fusion_lat": 0.0, "lon": -77.04244233333333, "name": "381534f265e2d08ae9551a48cb958b75"}, {"bike_id": "7f645543f4fb17bed98086fca737c2f1", "type": "electric_scooter", "is_disabled": 0, "lat": 38.9447045, "rental_uris": {"ios": "https://dc.lft.to/lastmile_qr_scan", "android": "https://dc.lft.to/lastmile_qr_scan"}, "is_reserved": 0, "fusion_lon": 0.0, "fusion_lat": 0.0, "lon": -77.02343216666667, "name": "7f645543f4fb17bed98086fca737c2f1"}, {"bike_id": "5095fa19eef0633c5959dba8d59eca61", "type": "electric_scooter", "is_disabled": 0, "lat": 38.89702283333333, "rental_uris": {"ios": "https://dc.lft.to/lastmile_qr_scan", "android": "https://dc.lft.to/lastmile_qr_scan"}, "is_reserved": 0, "fusion_lon": 0.0, "fusion_lat": 0.0, "lon": -76.92998883333334, "name": "5095fa19eef0633c5959dba8d59eca61"}, {"bike_id": "65674e0ad334feec277120fcb1cd4002", "type": "electric_scooter", "is_disabled": 0, "lat": 38.8788375, "rental_uris": {"ios": "https://dc.lft.to/lastmile_qr_scan", "android": "https://dc.lft.to/lastmile_qr_scan"}, "is_reserved": 0, "fusion_lon": 0.0, "fusion_lat": 0.0, "lon": -76.99156933333333, "name": "65674e0ad334feec277120fcb1cd4002"}, {"bike_id": "47c3185e68ea25976276f2c0803ae7e6", "type": "electric_scooter", "is_disabled": 0, "lat": 38.90740483333333, "rental_uris": {"ios": "https://dc.lft.to/lastmile_qr_scan", "android": "https://dc.lft.to/lastmile_qr_scan"}, "is_reserved": 0, "fusion_lon": 0.0, "fusion_lat": 0.0, "lon": -77.0426645, "name": "47c3185e68ea25976276f2c0803ae7e6"}, {"bike_id": "54c8fe6ec6b3eccb31362a21c389d7f0", "type": "electric_scooter", "is_disabled": 0, "lat": 38.882138833333336, "rental_uris": {"ios": "https://dc.lft.to/lastmile_qr_scan", "android": "https://dc.lft.to/lastmile_qr_scan"}, "is_reserved": 0, "fusion_lon": 0.0, "fusion_lat": 0.0, "lon": -77.02909433333333, "name": "54c8fe6ec6b3eccb31362a21c389d7f0"}, {"bike_id": "c5236e79887b70a7565c19bf6a97dd4e", "type": "electric_bike", "is_disabled": 0, "lat": 38.919022166666664, "rental_uris": {"ios": "https://dc.lft.to/lastmile_qr_scan", "android": "https://dc.lft.to/lastmile_qr_scan"}, "is_reserved": 0, "fusion_lon": 0.0, "fusion_lat": 0.0, "lon": -77.00066433333333, "name": "c5236e79887b70a7565c19bf6a97dd4e"}, {"bike_id": "3fc8861d80cd6284368893f9a0ec6443", "type": "electric_scooter", "is_disabled": 0, "lat": 38.908446, "rental_uris": {"ios": "https://dc.lft.to/lastmile_qr_scan", "android": "https://dc.lft.to/lastmile_qr_scan"}, "is_reserved": 0, "fusion_lon": 0.0, "fusion_lat": 0.0, "lon": -77.02061583333334, "name": "3fc8861d80cd6284368893f9a0ec6443"}, {"bike_id": "a7ed062a36cb88c893515f5cf06609d9", "type": "electric_scooter", "is_disabled": 0, "lat": 38.88721266666667, "rental_uris": {"ios": "https://dc.lft.to/lastmile_qr_scan", "android": "https://dc.lft.to/lastmile_qr_scan"}, "is_reserved": 0, "fusion_lon": 0.0, "fusion_lat": 0.0, "lon": -77.02175216666667, "name": "a7ed062a36cb88c893515f5cf06609d9"}, {"bike_id": "5377fb79dcfc83612af8f51c2592fb3a", "type": "electric_scooter", "is_disabled": 0, "lat": 38.91553233333333, "rental_uris": {"ios": "https://dc.lft.to/lastmile_qr_scan", "android": "https://dc.lft.to/lastmile_qr_scan"}, "is_reserved": 0, "fusion_lon": 0.0, "fusion_lat": 0.0, "lon": -77.02134933333333, "name": "5377fb79dcfc83612af8f51c2592fb3a"}, {"bike_id": "a6c430af8925cadb257d31ae62b5e87b", "type": "electric_bike", "is_disabled": 0, "lat": 38.8039285, "rental_uris": {"ios": "https://dc.lft.to/lastmile_qr_scan", "android": "https://dc.lft.to/lastmile_qr_scan"}, "is_reserved": 0, "fusion_lon": 0.0, "fusion_lat": 0.0, "lon": -77.05566966666666, "name": "a6c430af8925cadb257d31ae62b5e87b"}, {"bike_id": "bb0a2ad8b3db7cf0bdd4261c007420b2", "type": "electric_scooter", "is_disabled": 0, "lat": 38.88430016666667, "rental_uris": {"ios": "https://dc.lft.to/lastmile_qr_scan", "android": "https://dc.lft.to/lastmile_qr_scan"}, "is_reserved": 0, "fusion_lon": 0.0, "fusion_lat": 0.0, "lon": -76.95757416666666, "name": "bb0a2ad8b3db7cf0bdd4261c007420b2"}, {"bike_id": "7c4bbfdadb58559051565efb5076c6ea", "type": "electric_scooter", "is_disabled": 0, "lat": 38.915442666666664, "rental_uris": {"ios": "https://dc.lft.to/lastmile_qr_scan", "android": "https://dc.lft.to/lastmile_qr_scan"}, "is_reserved": 0, "fusion_lon": 0.0, "fusion_lat": 0.0, "lon": -77.02006183333333, "name": "7c4bbfdadb58559051565efb5076c6ea"}, {"bike_id": "89e2eb5397e5b9db4709a7639bddc53b", "type": "electric_scooter", "is_disabled": 0, "lat": 38.866300833333334, "rental_uris": {"ios": "https://dc.lft.to/lastmile_qr_scan", "android": "https://dc.lft.to/lastmile_qr_scan"}, "is_reserved": 0, "fusion_lon": 0.0, "fusion_lat": 0.0, "lon": -76.9890875, "name": "89e2eb5397e5b9db4709a7639bddc53b"}, {"bike_id": "7487f589b6a59f525726a048eb6fb4d3", "type": "electric_scooter", "is_disabled": 0, "lat": 38.916829, "rental_uris": {"ios": "https://dc.lft.to/lastmile_qr_scan", "android": "https://dc.lft.to/lastmile_qr_scan"}, "is_reserved": 0, "fusion_lon": 0.0, "fusion_lat": 0.0, "lon": -77.03865166666667, "name": "7487f589b6a59f525726a048eb6fb4d3"}, {"bike_id": "ee58636c9f6d1044344c97470dfc66bd", "type": "electric_bike", "is_disabled": 0, "lat": 38.8651465, "rental_uris": {"ios": "https://dc.lft.to/lastmile_qr_scan", "android": "https://dc.lft.to/lastmile_qr_scan"}, "is_reserved": 0, "fusion_lon": 0.0, "fusion_lat": 0.0, "lon": -77.12931966666666, "name": "ee58636c9f6d1044344c97470dfc66bd"}, {"bike_id": "d5812328fb279af8b2e1ec69b5c62e49", "type": "electric_scooter", "is_disabled": 0, "lat": 38.92629083333333, "rental_uris": {"ios": "https://dc.lft.to/lastmile_qr_scan", "android": "https://dc.lft.to/lastmile_qr_scan"}, "is_reserved": 0, "fusion_lon": 0.0, "fusion_lat": 0.0, "lon": -77.037123, "name": "d5812328fb279af8b2e1ec69b5c62e49"}, {"bike_id": "ca60a1e1b09cb178c78c4e4a096ec88a", "type": "electric_scooter", "is_disabled": 0, "lat": 38.91497783333333, "rental_uris": {"ios": "https://dc.lft.to/lastmile_qr_scan", "android": "https://dc.lft.to/lastmile_qr_scan"}, "is_reserved": 0, "fusion_lon": 0.0, "fusion_lat": 0.0, "lon": -77.03181383333333, "name": "ca60a1e1b09cb178c78c4e4a096ec88a"}, {"bike_id": "062acf92b24f473850c2837525e0bbe4", "type": "electric_scooter", "is_disabled": 0, "lat": 38.908131166666664, "rental_uris": {"ios": "https://dc.lft.to/lastmile_qr_scan", "android": "https://dc.lft.to/lastmile_qr_scan"}, "is_reserved": 0, "fusion_lon": 0.0, "fusion_lat": 0.0, "lon": -77.02606016666667, "name": "062acf92b24f473850c2837525e0bbe4"}, {"bike_id": "1ba0cfd9a1166da4b29e4f8b937a305b", "type": "electric_scooter", "is_disabled": 0, "lat": 38.902710666666664, "rental_uris": {"ios": "https://dc.lft.to/lastmile_qr_scan", "android": "https://dc.lft.to/lastmile_qr_scan"}, "is_reserved": 0, "fusion_lon": 0.0, "fusion_lat": 0.0, "lon": -77.03578466666667, "name": "1ba0cfd9a1166da4b29e4f8b937a305b"}, {"bike_id": "918da397214a8e1db7fdf92fa16e0002", "type": "electric_scooter", "is_disabled": 0, "lat": 38.9010425, "rental_uris": {"ios": "https://dc.lft.to/lastmile_qr_scan", "android": "https://dc.lft.to/lastmile_qr_scan"}, "is_reserved": 0, "fusion_lon": 0.0, "fusion_lat": 0.0, "lon": -77.0505715, "name": "918da397214a8e1db7fdf92fa16e0002"}, {"bike_id": "e9957ac2bc953df5e78856a55c4871db", "type": "electric_scooter", "is_disabled": 0, "lat": 38.91002483333333, "rental_uris": {"ios": "https://dc.lft.to/lastmile_qr_scan", "android": "https://dc.lft.to/lastmile_qr_scan"}, "is_reserved": 0, "fusion_lon": 0.0, "fusion_lat": 0.0, "lon": -77.04001983333333, "name": "e9957ac2bc953df5e78856a55c4871db"}, {"bike_id": "45ca064cec2eabe1eddb3c2b0c7cd4b0", "type": "electric_scooter", "is_disabled": 0, "lat": 38.92341016666666, "rental_uris": {"ios": "https://dc.lft.to/lastmile_qr_scan", "android": "https://dc.lft.to/lastmile_qr_scan"}, "is_reserved": 0, "fusion_lon": 0.0, "fusion_lat": 0.0, "lon": -77.05248916666666, "name": "45ca064cec2eabe1eddb3c2b0c7cd4b0"}, {"bike_id": "e855730d8096369533f227d70835ad97", "type": "electric_scooter", "is_disabled": 0, "lat": 38.912676, "rental_uris": {"ios": "https://dc.lft.to/lastmile_qr_scan", "android": "https://dc.lft.to/lastmile_qr_scan"}, "is_reserved": 0, "fusion_lon": 0.0, "fusion_lat": 0.0, "lon": -77.03146216666667, "name": "e855730d8096369533f227d70835ad97"}, {"bike_id": "77c3405be3ec4878817f349742a2ed69", "type": "electric_scooter", "is_disabled": 0, "lat": 38.93191066666667, "rental_uris": {"ios": "https://dc.lft.to/lastmile_qr_scan", "android": "https://dc.lft.to/lastmile_qr_scan"}, "is_reserved": 0, "fusion_lon": 0.0, "fusion_lat": 0.0, "lon": -77.02022166666667, "name": "77c3405be3ec4878817f349742a2ed69"}, {"bike_id": "dda2e392b2d522531bd914e1ebe35617", "type": "electric_scooter", "is_disabled": 0, "lat": 38.9059045, "rental_uris": {"ios": "https://dc.lft.to/lastmile_qr_scan", "android": "https://dc.lft.to/lastmile_qr_scan"}, "is_reserved": 0, "fusion_lon": 0.0, "fusion_lat": 0.0, "lon": -77.00329966666666, "name": "dda2e392b2d522531bd914e1ebe35617"}, {"bike_id": "e887f3afdb47147f2855a7aa2c0257ce", "type": "electric_scooter", "is_disabled": 0, "lat": 38.91801233333333, "rental_uris": {"ios": "https://dc.lft.to/lastmile_qr_scan", "android": "https://dc.lft.to/lastmile_qr_scan"}, "is_reserved": 0, "fusion_lon": 0.0, "fusion_lat": 0.0, "lon": -77.03444366666666, "name": "e887f3afdb47147f2855a7aa2c0257ce"}, {"bike_id": "2fa28f3f5c52ac41a2211f8fe3347ef4", "type": "electric_scooter", "is_disabled": 0, "lat": 38.904464, "rental_uris": {"ios": "https://dc.lft.to/lastmile_qr_scan", "android": "https://dc.lft.to/lastmile_qr_scan"}, "is_reserved": 0, "fusion_lon": 0.0, "fusion_lat": 0.0, "lon": -76.98001283333333, "name": "2fa28f3f5c52ac41a2211f8fe3347ef4"}, {"bike_id": "bb45022a81e2cb86eecfd17a1b7f9d33", "type": "electric_scooter", "is_disabled": 0, "lat": 38.91968983333334, "rental_uris": {"ios": "https://dc.lft.to/lastmile_qr_scan", "android": "https://dc.lft.to/lastmile_qr_scan"}, "is_reserved": 0, "fusion_lon": 0.0, "fusion_lat": 0.0, "lon": -77.04082666666666, "name": "bb45022a81e2cb86eecfd17a1b7f9d33"}, {"bike_id": "ac145565564614c417980908a139a48e", "type": "electric_scooter", "is_disabled": 0, "lat": 38.9232425, "rental_uris": {"ios": "https://dc.lft.to/lastmile_qr_scan", "android": "https://dc.lft.to/lastmile_qr_scan"}, "is_reserved": 0, "fusion_lon": 0.0, "fusion_lat": 0.0, "lon": -77.0295875, "name": "ac145565564614c417980908a139a48e"}, {"bike_id": "f4656bc0156925a5d40ea65e3ab0c6fe", "type": "electric_scooter", "is_disabled": 0, "lat": 38.915657333333336, "rental_uris": {"ios": "https://dc.lft.to/lastmile_qr_scan", "android": "https://dc.lft.to/lastmile_qr_scan"}, "is_reserved": 0, "fusion_lon": 0.0, "fusion_lat": 0.0, "lon": -77.0312475, "name": "f4656bc0156925a5d40ea65e3ab0c6fe"}, {"bike_id": "db5223b6db3d0a03efc19122a496d305", "type": "electric_scooter", "is_disabled": 0, "lat": 38.90420816666666, "rental_uris": {"ios": "https://dc.lft.to/lastmile_qr_scan", "android": "https://dc.lft.to/lastmile_qr_scan"}, "is_reserved": 0, "fusion_lon": 0.0, "fusion_lat": 0.0, "lon": -77.02410366666666, "name": "db5223b6db3d0a03efc19122a496d305"}, {"bike_id": "5a2290a1b9151fe89301d7c6f71b2031", "type": "electric_bike", "is_disabled": 0, "lat": 38.961775333333335, "rental_uris": {"ios": "https://dc.lft.to/lastmile_qr_scan", "android": "https://dc.lft.to/lastmile_qr_scan"}, "is_reserved": 0, "fusion_lon": 0.0, "fusion_lat": 0.0, "lon": -77.07383383333334, "name": "5a2290a1b9151fe89301d7c6f71b2031"}, {"bike_id": "dbee8131dbfba7c4b823ba84ec2a659c", "type": "electric_scooter", "is_disabled": 0, "lat": 38.926272166666664, "rental_uris": {"ios": "https://dc.lft.to/lastmile_qr_scan", "android": "https://dc.lft.to/lastmile_qr_scan"}, "is_reserved": 0, "fusion_lon": 0.0, "fusion_lat": 0.0, "lon": -77.03708833333333, "name": "dbee8131dbfba7c4b823ba84ec2a659c"}, {"bike_id": "6cbd653dd77d34b8fc2a1e176224b008", "type": "electric_scooter", "is_disabled": 0, "lat": 38.94196316666667, "rental_uris": {"ios": "https://dc.lft.to/lastmile_qr_scan", "android": "https://dc.lft.to/lastmile_qr_scan"}, "is_reserved": 0, "fusion_lon": 0.0, "fusion_lat": 0.0, "lon": -77.03658366666667, "name": "6cbd653dd77d34b8fc2a1e176224b008"}, {"bike_id": "48590b263bae5e99c3c070aa50884c3a", "type": "electric_bike", "is_disabled": 0, "lat": 38.896113666666665, "rental_uris": {"ios": "https://dc.lft.to/lastmile_qr_scan", "android": "https://dc.lft.to/lastmile_qr_scan"}, "is_reserved": 0, "fusion_lon": 0.0, "fusion_lat": 0.0, "lon": -76.90733333333333, "name": "48590b263bae5e99c3c070aa50884c3a"}, {"bike_id": "590d787c5ffbf8248ba9142f4d90efcd", "type": "electric_scooter", "is_disabled": 0, "lat": 38.91270166666666, "rental_uris": {"ios": "https://dc.lft.to/lastmile_qr_scan", "android": "https://dc.lft.to/lastmile_qr_scan"}, "is_reserved": 0, "fusion_lon": 0.0, "fusion_lat": 0.0, "lon": -77.04500133333333, "name": "590d787c5ffbf8248ba9142f4d90efcd"}, {"bike_id": "1956fe64319534de5caab1d862d508b1", "type": "electric_scooter", "is_disabled": 0, "lat": 38.904094666666666, "rental_uris": {"ios": "https://dc.lft.to/lastmile_qr_scan", "android": "https://dc.lft.to/lastmile_qr_scan"}, "is_reserved": 0, "fusion_lon": 0.0, "fusion_lat": 0.0, "lon": -76.97329466666666, "name": "1956fe64319534de5caab1d862d508b1"}, {"bike_id": "dc1ca2a3a1c02390d25aa699c88ff8df", "type": "electric_scooter", "is_disabled": 0, "lat": 38.924207833333334, "rental_uris": {"ios": "https://dc.lft.to/lastmile_qr_scan", "android": "https://dc.lft.to/lastmile_qr_scan"}, "is_reserved": 0, "fusion_lon": 0.0, "fusion_lat": 0.0, "lon": -77.02007866666666, "name": "dc1ca2a3a1c02390d25aa699c88ff8df"}, {"bike_id": "c0d4c8cc0825f1f2beb9477df6213a00", "type": "electric_scooter", "is_disabled": 0, "lat": 38.896158666666665, "rental_uris": {"ios": "https://dc.lft.to/lastmile_qr_scan", "android": "https://dc.lft.to/lastmile_qr_scan"}, "is_reserved": 0, "fusion_lon": 0.0, "fusion_lat": 0.0, "lon": -77.0220315, "name": "c0d4c8cc0825f1f2beb9477df6213a00"}, {"bike_id": "11489a26d5dc5bfe34afef86ed24374f", "type": "electric_scooter", "is_disabled": 0, "lat": 38.89993583333333, "rental_uris": {"ios": "https://dc.lft.to/lastmile_qr_scan", "android": "https://dc.lft.to/lastmile_qr_scan"}, "is_reserved": 0, "fusion_lon": 0.0, "fusion_lat": 0.0, "lon": -77.02209416666666, "name": "11489a26d5dc5bfe34afef86ed24374f"}, {"bike_id": "ef2c20fbd26bc10912358915c1329c1e", "type": "electric_bike", "is_disabled": 0, "lat": 38.81937416666667, "rental_uris": {"ios": "https://dc.lft.to/lastmile_qr_scan", "android": "https://dc.lft.to/lastmile_qr_scan"}, "is_reserved": 0, "fusion_lon": 0.0, "fusion_lat": 0.0, "lon": -77.00200283333334, "name": "ef2c20fbd26bc10912358915c1329c1e"}, {"bike_id": "db83b0e38af453cc42e551e54e522b54", "type": "electric_scooter", "is_disabled": 0, "lat": 38.91337816666667, "rental_uris": {"ios": "https://dc.lft.to/lastmile_qr_scan", "android": "https://dc.lft.to/lastmile_qr_scan"}, "is_reserved": 0, "fusion_lon": 0.0, "fusion_lat": 0.0, "lon": -77.04048866666666, "name": "db83b0e38af453cc42e551e54e522b54"}, {"bike_id": "7ae09b1d3be066aad3918260cdcca118", "type": "electric_scooter", "is_disabled": 0, "lat": 38.89221766666667, "rental_uris": {"ios": "https://dc.lft.to/lastmile_qr_scan", "android": "https://dc.lft.to/lastmile_qr_scan"}, "is_reserved": 0, "fusion_lon": 0.0, "fusion_lat": 0.0, "lon": -77.0226125, "name": "7ae09b1d3be066aad3918260cdcca118"}, {"bike_id": "7987848531cc5c1ec6738e5758e96e5c", "type": "electric_scooter", "is_disabled": 0, "lat": 38.8975455, "rental_uris": {"ios": "https://dc.lft.to/lastmile_qr_scan", "android": "https://dc.lft.to/lastmile_qr_scan"}, "is_reserved": 0, "fusion_lon": 0.0, "fusion_lat": 0.0, "lon": -77.02753533333333, "name": "7987848531cc5c1ec6738e5758e96e5c"}, {"bike_id": "ca17d68b5b48b54050b8ea292f1b2c3d", "type": "electric_scooter", "is_disabled": 0, "lat": 38.89880083333333, "rental_uris": {"ios": "https://dc.lft.to/lastmile_qr_scan", "android": "https://dc.lft.to/lastmile_qr_scan"}, "is_reserved": 0, "fusion_lon": 0.0, "fusion_lat": 0.0, "lon": -76.97683166666667, "name": "ca17d68b5b48b54050b8ea292f1b2c3d"}, {"bike_id": "81840c75765cb9f90c0efcc91e2ef9bf", "type": "electric_scooter", "is_disabled": 0, "lat": 38.95710716666667, "rental_uris": {"ios": "https://dc.lft.to/lastmile_qr_scan", "android": "https://dc.lft.to/lastmile_qr_scan"}, "is_reserved": 0, "fusion_lon": 0.0, "fusion_lat": 0.0, "lon": -77.02403516666666, "name": "81840c75765cb9f90c0efcc91e2ef9bf"}, {"bike_id": "2964019beee2958a26d9b65a54ad0a90", "type": "electric_scooter", "is_disabled": 0, "lat": 38.92200366666667, "rental_uris": {"ios": "https://dc.lft.to/lastmile_qr_scan", "android": "https://dc.lft.to/lastmile_qr_scan"}, "is_reserved": 0, "fusion_lon": 0.0, "fusion_lat": 0.0, "lon": -77.02031533333333, "name": "2964019beee2958a26d9b65a54ad0a90"}, {"bike_id": "c19ad3ee25e8a2dae264e63bc17e7279", "type": "electric_scooter", "is_disabled": 0, "lat": 38.908757, "rental_uris": {"ios": "https://dc.lft.to/lastmile_qr_scan", "android": "https://dc.lft.to/lastmile_qr_scan"}, "is_reserved": 0, "fusion_lon": 0.0, "fusion_lat": 0.0, "lon": -77.0229135, "name": "c19ad3ee25e8a2dae264e63bc17e7279"}, {"bike_id": "5d8628955a85efb92a510ba7f7225195", "type": "electric_scooter", "is_disabled": 0, "lat": 38.91661533333333, "rental_uris": {"ios": "https://dc.lft.to/lastmile_qr_scan", "android": "https://dc.lft.to/lastmile_qr_scan"}, "is_reserved": 0, "fusion_lon": 0.0, "fusion_lat": 0.0, "lon": -77.03203066666667, "name": "5d8628955a85efb92a510ba7f7225195"}, {"bike_id": "5080120e5f1601c25296d96a09636d91", "type": "electric_scooter", "is_disabled": 0, "lat": 38.904894166666665, "rental_uris": {"ios": "https://dc.lft.to/lastmile_qr_scan", "android": "https://dc.lft.to/lastmile_qr_scan"}, "is_reserved": 0, "fusion_lon": 0.0, "fusion_lat": 0.0, "lon": -77.04121966666666, "name": "5080120e5f1601c25296d96a09636d91"}, {"bike_id": "56dc24d2271845cd31a5892efd8a6151", "type": "electric_scooter", "is_disabled": 0, "lat": 38.930628166666665, "rental_uris": {"ios": "https://dc.lft.to/lastmile_qr_scan", "android": "https://dc.lft.to/lastmile_qr_scan"}, "is_reserved": 0, "fusion_lon": 0.0, "fusion_lat": 0.0, "lon": -77.03898816666667, "name": "56dc24d2271845cd31a5892efd8a6151"}, {"bike_id": "f7616d3c01fd9623a6b6c95f09d6763c", "type": "electric_scooter", "is_disabled": 0, "lat": 38.925464166666664, "rental_uris": {"ios": "https://dc.lft.to/lastmile_qr_scan", "android": "https://dc.lft.to/lastmile_qr_scan"}, "is_reserved": 0, "fusion_lon": 0.0, "fusion_lat": 0.0, "lon": -77.03859266666667, "name": "f7616d3c01fd9623a6b6c95f09d6763c"}, {"bike_id": "cb27ad03b6b0ff88d22af639cdfe00be", "type": "electric_scooter", "is_disabled": 0, "lat": 38.931855, "rental_uris": {"ios": "https://dc.lft.to/lastmile_qr_scan", "android": "https://dc.lft.to/lastmile_qr_scan"}, "is_reserved": 0, "fusion_lon": 0.0, "fusion_lat": 0.0, "lon": -77.0843135, "name": "cb27ad03b6b0ff88d22af639cdfe00be"}, {"bike_id": "3e07abd2856477867c1d77281f111b57", "type": "electric_bike", "is_disabled": 0, "lat": 38.94919216666667, "rental_uris": {"ios": "https://dc.lft.to/lastmile_qr_scan", "android": "https://dc.lft.to/lastmile_qr_scan"}, "is_reserved": 0, "fusion_lon": 0.0, "fusion_lat": 0.0, "lon": -77.00800233333334, "name": "3e07abd2856477867c1d77281f111b57"}, {"bike_id": "94bce64b97f60f345616286f2ff8a1a7", "type": "electric_scooter", "is_disabled": 0, "lat": 38.90956466666667, "rental_uris": {"ios": "https://dc.lft.to/lastmile_qr_scan", "android": "https://dc.lft.to/lastmile_qr_scan"}, "is_reserved": 0, "fusion_lon": 0.0, "fusion_lat": 0.0, "lon": -77.04871216666666, "name": "94bce64b97f60f345616286f2ff8a1a7"}, {"bike_id": "b754da11486da1f47f674cfba626fbfc", "type": "electric_scooter", "is_disabled": 0, "lat": 38.9036585, "rental_uris": {"ios": "https://dc.lft.to/lastmile_qr_scan", "android": "https://dc.lft.to/lastmile_qr_scan"}, "is_reserved": 0, "fusion_lon": 0.0, "fusion_lat": 0.0, "lon": -77.03154416666666, "name": "b754da11486da1f47f674cfba626fbfc"}, {"bike_id": "552e97bebe6cc62f7c5eaac9d9406268", "type": "electric_scooter", "is_disabled": 0, "lat": 38.920757, "rental_uris": {"ios": "https://dc.lft.to/lastmile_qr_scan", "android": "https://dc.lft.to/lastmile_qr_scan"}, "is_reserved": 0, "fusion_lon": 0.0, "fusion_lat": 0.0, "lon": -77.024342, "name": "552e97bebe6cc62f7c5eaac9d9406268"}, {"bike_id": "1781ae26def24622b7bc989ef5493747", "type": "electric_scooter", "is_disabled": 0, "lat": 38.93173866666667, "rental_uris": {"ios": "https://dc.lft.to/lastmile_qr_scan", "android": "https://dc.lft.to/lastmile_qr_scan"}, "is_reserved": 0, "fusion_lon": 0.0, "fusion_lat": 0.0, "lon": -77.03155633333333, "name": "1781ae26def24622b7bc989ef5493747"}, {"bike_id": "d3519414b002070aabae3566325426d5", "type": "electric_scooter", "is_disabled": 0, "lat": 38.866286, "rental_uris": {"ios": "https://dc.lft.to/lastmile_qr_scan", "android": "https://dc.lft.to/lastmile_qr_scan"}, "is_reserved": 0, "fusion_lon": 0.0, "fusion_lat": 0.0, "lon": -76.98714516666666, "name": "d3519414b002070aabae3566325426d5"}, {"bike_id": "bd70cb72b337e1798e2098a5c2d9f99b", "type": "electric_scooter", "is_disabled": 0, "lat": 38.91486333333334, "rental_uris": {"ios": "https://dc.lft.to/lastmile_qr_scan", "android": "https://dc.lft.to/lastmile_qr_scan"}, "is_reserved": 0, "fusion_lon": 0.0, "fusion_lat": 0.0, "lon": -77.03564016666667, "name": "bd70cb72b337e1798e2098a5c2d9f99b"}, {"bike_id": "f2d3d197fb9aa0b2dd92d3705f586a6d", "type": "electric_bike", "is_disabled": 0, "lat": 38.896803, "rental_uris": {"ios": "https://dc.lft.to/lastmile_qr_scan", "android": "https://dc.lft.to/lastmile_qr_scan"}, "is_reserved": 0, "fusion_lon": 0.0, "fusion_lat": 0.0, "lon": -77.02403483333333, "name": "f2d3d197fb9aa0b2dd92d3705f586a6d"}, {"bike_id": "751810ebc1fab8b8f83116f6e2832fce", "type": "electric_scooter", "is_disabled": 0, "lat": 38.896449, "rental_uris": {"ios": "https://dc.lft.to/lastmile_qr_scan", "android": "https://dc.lft.to/lastmile_qr_scan"}, "is_reserved": 0, "fusion_lon": 0.0, "fusion_lat": 0.0, "lon": -77.070851, "name": "751810ebc1fab8b8f83116f6e2832fce"}, {"bike_id": "471bfb3ce3b21f4110be8f7c5524c76d", "type": "electric_scooter", "is_disabled": 0, "lat": 38.92877166666667, "rental_uris": {"ios": "https://dc.lft.to/lastmile_qr_scan", "android": "https://dc.lft.to/lastmile_qr_scan"}, "is_reserved": 0, "fusion_lon": 0.0, "fusion_lat": 0.0, "lon": -77.03923983333334, "name": "471bfb3ce3b21f4110be8f7c5524c76d"}, {"bike_id": "4b9dd958e2f25e7ef00969912905e601", "type": "electric_scooter", "is_disabled": 0, "lat": 38.92324083333333, "rental_uris": {"ios": "https://dc.lft.to/lastmile_qr_scan", "android": "https://dc.lft.to/lastmile_qr_scan"}, "is_reserved": 0, "fusion_lon": 0.0, "fusion_lat": 0.0, "lon": -77.05572933333333, "name": "4b9dd958e2f25e7ef00969912905e601"}, {"bike_id": "e54cbb6b765f061a7a2a2fe02f6f041e", "type": "electric_scooter", "is_disabled": 0, "lat": 38.915536, "rental_uris": {"ios": "https://dc.lft.to/lastmile_qr_scan", "android": "https://dc.lft.to/lastmile_qr_scan"}, "is_reserved": 0, "fusion_lon": 0.0, "fusion_lat": 0.0, "lon": -77.03256633333334, "name": "e54cbb6b765f061a7a2a2fe02f6f041e"}, {"bike_id": "411813b0171c7ff0d75877d669c4b0c7", "type": "electric_bike", "is_disabled": 0, "lat": 38.897249, "rental_uris": {"ios": "https://dc.lft.to/lastmile_qr_scan", "android": "https://dc.lft.to/lastmile_qr_scan"}, "is_reserved": 0, "fusion_lon": 0.0, "fusion_lat": 0.0, "lon": -76.97346283333333, "name": "411813b0171c7ff0d75877d669c4b0c7"}, {"bike_id": "3e2808c7ea3d52ca175b372bf4e4aa8f", "type": "electric_scooter", "is_disabled": 0, "lat": 38.908534, "rental_uris": {"ios": "https://dc.lft.to/lastmile_qr_scan", "android": "https://dc.lft.to/lastmile_qr_scan"}, "is_reserved": 0, "fusion_lon": 0.0, "fusion_lat": 0.0, "lon": -76.99966033333334, "name": "3e2808c7ea3d52ca175b372bf4e4aa8f"}, {"bike_id": "c3cb226ca421fa0699a2b1efc3f7a3e9", "type": "electric_scooter", "is_disabled": 0, "lat": 38.90871, "rental_uris": {"ios": "https://dc.lft.to/lastmile_qr_scan", "android": "https://dc.lft.to/lastmile_qr_scan"}, "is_reserved": 0, "fusion_lon": 0.0, "fusion_lat": 0.0, "lon": -77.03180383333333, "name": "c3cb226ca421fa0699a2b1efc3f7a3e9"}, {"bike_id": "e1f5c3dbe5f7d126f2ce38b5b5f7df07", "type": "electric_scooter", "is_disabled": 0, "lat": 38.8878235, "rental_uris": {"ios": "https://dc.lft.to/lastmile_qr_scan", "android": "https://dc.lft.to/lastmile_qr_scan"}, "is_reserved": 0, "fusion_lon": 0.0, "fusion_lat": 0.0, "lon": -76.95536233333333, "name": "e1f5c3dbe5f7d126f2ce38b5b5f7df07"}, {"bike_id": "4aa7797e717a413f230c67b2d9a7c8e8", "type": "electric_scooter", "is_disabled": 0, "lat": 38.916738, "rental_uris": {"ios": "https://dc.lft.to/lastmile_qr_scan", "android": "https://dc.lft.to/lastmile_qr_scan"}, "is_reserved": 0, "fusion_lon": 0.0, "fusion_lat": 0.0, "lon": -77.02326583333334, "name": "4aa7797e717a413f230c67b2d9a7c8e8"}, {"bike_id": "68484f309cb8e917e3ad6152b85ac4b5", "type": "electric_scooter", "is_disabled": 0, "lat": 38.90959466666666, "rental_uris": {"ios": "https://dc.lft.to/lastmile_qr_scan", "android": "https://dc.lft.to/lastmile_qr_scan"}, "is_reserved": 0, "fusion_lon": 0.0, "fusion_lat": 0.0, "lon": -77.0454005, "name": "68484f309cb8e917e3ad6152b85ac4b5"}, {"bike_id": "ece71ddc63aa28fc32de250d37d46b61", "type": "electric_scooter", "is_disabled": 0, "lat": 38.90735216666667, "rental_uris": {"ios": "https://dc.lft.to/lastmile_qr_scan", "android": "https://dc.lft.to/lastmile_qr_scan"}, "is_reserved": 0, "fusion_lon": 0.0, "fusion_lat": 0.0, "lon": -77.029653, "name": "ece71ddc63aa28fc32de250d37d46b61"}, {"bike_id": "a21599e78c9be121b573f32fa0ea8008", "type": "electric_scooter", "is_disabled": 0, "lat": 38.91710233333333, "rental_uris": {"ios": "https://dc.lft.to/lastmile_qr_scan", "android": "https://dc.lft.to/lastmile_qr_scan"}, "is_reserved": 0, "fusion_lon": 0.0, "fusion_lat": 0.0, "lon": -77.03867216666667, "name": "a21599e78c9be121b573f32fa0ea8008"}, {"bike_id": "67aaad9512dd6d0582bbd72cefd13131", "type": "electric_scooter", "is_disabled": 0, "lat": 38.90500733333333, "rental_uris": {"ios": "https://dc.lft.to/lastmile_qr_scan", "android": "https://dc.lft.to/lastmile_qr_scan"}, "is_reserved": 0, "fusion_lon": 0.0, "fusion_lat": 0.0, "lon": -77.068837, "name": "67aaad9512dd6d0582bbd72cefd13131"}, {"bike_id": "ac7545a79f8ec3f91f9182e5930d4a06", "type": "electric_scooter", "is_disabled": 0, "lat": 38.920358666666665, "rental_uris": {"ios": "https://dc.lft.to/lastmile_qr_scan", "android": "https://dc.lft.to/lastmile_qr_scan"}, "is_reserved": 0, "fusion_lon": 0.0, "fusion_lat": 0.0, "lon": -77.03407116666666, "name": "ac7545a79f8ec3f91f9182e5930d4a06"}, {"bike_id": "f60fa2a754d042f660737ba65ba6ad70", "type": "electric_bike", "is_disabled": 0, "lat": 38.93706783333333, "rental_uris": {"ios": "https://dc.lft.to/lastmile_qr_scan", "android": "https://dc.lft.to/lastmile_qr_scan"}, "is_reserved": 0, "fusion_lon": 0.0, "fusion_lat": 0.0, "lon": -77.0560315, "name": "f60fa2a754d042f660737ba65ba6ad70"}, {"bike_id": "164ef29541bb8dad92574a83c9a0dd81", "type": "electric_bike", "is_disabled": 0, "lat": 38.83158383333333, "rental_uris": {"ios": "https://dc.lft.to/lastmile_qr_scan", "android": "https://dc.lft.to/lastmile_qr_scan"}, "is_reserved": 0, "fusion_lon": 0.0, "fusion_lat": 0.0, "lon": -76.99541666666667, "name": "164ef29541bb8dad92574a83c9a0dd81"}, {"bike_id": "33bd384633056137732f742391383b5b", "type": "electric_scooter", "is_disabled": 0, "lat": 38.93548966666667, "rental_uris": {"ios": "https://dc.lft.to/lastmile_qr_scan", "android": "https://dc.lft.to/lastmile_qr_scan"}, "is_reserved": 0, "fusion_lon": 0.0, "fusion_lat": 0.0, "lon": -77.025065, "name": "33bd384633056137732f742391383b5b"}, {"bike_id": "4a3b7e73f2c0dc99ddb2d1f3395b5f72", "type": "electric_scooter", "is_disabled": 0, "lat": 38.900826, "rental_uris": {"ios": "https://dc.lft.to/lastmile_qr_scan", "android": "https://dc.lft.to/lastmile_qr_scan"}, "is_reserved": 0, "fusion_lon": 0.0, "fusion_lat": 0.0, "lon": -77.03084633333333, "name": "4a3b7e73f2c0dc99ddb2d1f3395b5f72"}, {"bike_id": "571b306eb8cda5eea66e8685df192b1d", "type": "electric_scooter", "is_disabled": 0, "lat": 38.887131833333335, "rental_uris": {"ios": "https://dc.lft.to/lastmile_qr_scan", "android": "https://dc.lft.to/lastmile_qr_scan"}, "is_reserved": 0, "fusion_lon": 0.0, "fusion_lat": 0.0, "lon": -77.017767, "name": "571b306eb8cda5eea66e8685df192b1d"}, {"bike_id": "48f5239e90962bcfda233c4c67c4ebee", "type": "electric_scooter", "is_disabled": 0, "lat": 38.901055666666664, "rental_uris": {"ios": "https://dc.lft.to/lastmile_qr_scan", "android": "https://dc.lft.to/lastmile_qr_scan"}, "is_reserved": 0, "fusion_lon": 0.0, "fusion_lat": 0.0, "lon": -77.01232666666667, "name": "48f5239e90962bcfda233c4c67c4ebee"}, {"bike_id": "3f2a06bb9db4c1d9a189460efa6d9c39", "type": "electric_scooter", "is_disabled": 0, "lat": 38.90544, "rental_uris": {"ios": "https://dc.lft.to/lastmile_qr_scan", "android": "https://dc.lft.to/lastmile_qr_scan"}, "is_reserved": 0, "fusion_lon": 0.0, "fusion_lat": 0.0, "lon": -77.00593733333334, "name": "3f2a06bb9db4c1d9a189460efa6d9c39"}, {"bike_id": "ddd0525f9cf8433183bb35f5b1c6774a", "type": "electric_scooter", "is_disabled": 0, "lat": 38.9132575, "rental_uris": {"ios": "https://dc.lft.to/lastmile_qr_scan", "android": "https://dc.lft.to/lastmile_qr_scan"}, "is_reserved": 0, "fusion_lon": 0.0, "fusion_lat": 0.0, "lon": -77.03860083333333, "name": "ddd0525f9cf8433183bb35f5b1c6774a"}, {"bike_id": "5efc0deb80b56f6bffd4df5824bbd9da", "type": "electric_bike", "is_disabled": 0, "lat": 38.859381, "rental_uris": {"ios": "https://dc.lft.to/lastmile_qr_scan", "android": "https://dc.lft.to/lastmile_qr_scan"}, "is_reserved": 0, "fusion_lon": 0.0, "fusion_lat": 0.0, "lon": -77.11830733333333, "name": "5efc0deb80b56f6bffd4df5824bbd9da"}, {"bike_id": "dddaad2b517d97912ad1e2bb5b87f766", "type": "electric_scooter", "is_disabled": 0, "lat": 38.91557666666667, "rental_uris": {"ios": "https://dc.lft.to/lastmile_qr_scan", "android": "https://dc.lft.to/lastmile_qr_scan"}, "is_reserved": 0, "fusion_lon": 0.0, "fusion_lat": 0.0, "lon": -77.02407416666667, "name": "dddaad2b517d97912ad1e2bb5b87f766"}, {"bike_id": "7d67b7e0a22d4e2c356eb6416c2ea99d", "type": "electric_bike", "is_disabled": 0, "lat": 38.823689, "rental_uris": {"ios": "https://dc.lft.to/lastmile_qr_scan", "android": "https://dc.lft.to/lastmile_qr_scan"}, "is_reserved": 0, "fusion_lon": 0.0, "fusion_lat": 0.0, "lon": -77.00216666666667, "name": "7d67b7e0a22d4e2c356eb6416c2ea99d"}, {"bike_id": "f38e1272add4176cd011426e64044485", "type": "electric_scooter", "is_disabled": 0, "lat": 38.875279666666664, "rental_uris": {"ios": "https://dc.lft.to/lastmile_qr_scan", "android": "https://dc.lft.to/lastmile_qr_scan"}, "is_reserved": 0, "fusion_lon": 0.0, "fusion_lat": 0.0, "lon": -77.00066066666666, "name": "f38e1272add4176cd011426e64044485"}, {"bike_id": "4ee1876aa53de23cab089b5a72dc4990", "type": "electric_scooter", "is_disabled": 0, "lat": 38.923735, "rental_uris": {"ios": "https://dc.lft.to/lastmile_qr_scan", "android": "https://dc.lft.to/lastmile_qr_scan"}, "is_reserved": 0, "fusion_lon": 0.0, "fusion_lat": 0.0, "lon": -77.05032183333333, "name": "4ee1876aa53de23cab089b5a72dc4990"}, {"bike_id": "5165a306eb9cebf4e290ab96b03f3fe6", "type": "electric_scooter", "is_disabled": 0, "lat": 38.9111775, "rental_uris": {"ios": "https://dc.lft.to/lastmile_qr_scan", "android": "https://dc.lft.to/lastmile_qr_scan"}, "is_reserved": 0, "fusion_lon": 0.0, "fusion_lat": 0.0, "lon": -77.04989683333334, "name": "5165a306eb9cebf4e290ab96b03f3fe6"}, {"bike_id": "b89dc36c1063caed963a5f0c3a4ee216", "type": "electric_scooter", "is_disabled": 0, "lat": 38.92365566666667, "rental_uris": {"ios": "https://dc.lft.to/lastmile_qr_scan", "android": "https://dc.lft.to/lastmile_qr_scan"}, "is_reserved": 0, "fusion_lon": 0.0, "fusion_lat": 0.0, "lon": -77.05050583333333, "name": "b89dc36c1063caed963a5f0c3a4ee216"}, {"bike_id": "fdaa4a66e1d11e50465ea8d0c2fa945f", "type": "electric_scooter", "is_disabled": 0, "lat": 38.915756, "rental_uris": {"ios": "https://dc.lft.to/lastmile_qr_scan", "android": "https://dc.lft.to/lastmile_qr_scan"}, "is_reserved": 0, "fusion_lon": 0.0, "fusion_lat": 0.0, "lon": -77.01959716666667, "name": "fdaa4a66e1d11e50465ea8d0c2fa945f"}, {"bike_id": "014307256099972518c6cb3f2c9925c6", "type": "electric_bike", "is_disabled": 0, "lat": 38.936091, "rental_uris": {"ios": "https://dc.lft.to/lastmile_qr_scan", "android": "https://dc.lft.to/lastmile_qr_scan"}, "is_reserved": 0, "fusion_lon": 0.0, "fusion_lat": 0.0, "lon": -77.05861483333334, "name": "014307256099972518c6cb3f2c9925c6"}, {"bike_id": "bfa85d0275fe696f9108749f49024a1b", "type": "electric_scooter", "is_disabled": 0, "lat": 38.909584833333334, "rental_uris": {"ios": "https://dc.lft.to/lastmile_qr_scan", "android": "https://dc.lft.to/lastmile_qr_scan"}, "is_reserved": 0, "fusion_lon": 0.0, "fusion_lat": 0.0, "lon": -77.022795, "name": "bfa85d0275fe696f9108749f49024a1b"}, {"bike_id": "ce91fb451eecb21b59cba51b705d96a8", "type": "electric_scooter", "is_disabled": 0, "lat": 38.876874, "rental_uris": {"ios": "https://dc.lft.to/lastmile_qr_scan", "android": "https://dc.lft.to/lastmile_qr_scan"}, "is_reserved": 0, "fusion_lon": 0.0, "fusion_lat": 0.0, "lon": -77.01754183333334, "name": "ce91fb451eecb21b59cba51b705d96a8"}, {"bike_id": "e27fcc2cbd4fdfc0fb39b868058a4e5f", "type": "electric_scooter", "is_disabled": 0, "lat": 38.89731466666667, "rental_uris": {"ios": "https://dc.lft.to/lastmile_qr_scan", "android": "https://dc.lft.to/lastmile_qr_scan"}, "is_reserved": 0, "fusion_lon": 0.0, "fusion_lat": 0.0, "lon": -77.054747, "name": "e27fcc2cbd4fdfc0fb39b868058a4e5f"}, {"bike_id": "4ba929727c8db17c047eb293e630dac7", "type": "electric_scooter", "is_disabled": 0, "lat": 38.916082, "rental_uris": {"ios": "https://dc.lft.to/lastmile_qr_scan", "android": "https://dc.lft.to/lastmile_qr_scan"}, "is_reserved": 0, "fusion_lon": 0.0, "fusion_lat": 0.0, "lon": -77.023915, "name": "4ba929727c8db17c047eb293e630dac7"}, {"bike_id": "194408da618d350651e0882a1e2a27f3", "type": "electric_scooter", "is_disabled": 0, "lat": 38.852067166666664, "rental_uris": {"ios": "https://dc.lft.to/lastmile_qr_scan", "android": "https://dc.lft.to/lastmile_qr_scan"}, "is_reserved": 0, "fusion_lon": 0.0, "fusion_lat": 0.0, "lon": -76.98556316666667, "name": "194408da618d350651e0882a1e2a27f3"}, {"bike_id": "b8d4ed6d03e3a60a3c95594088a246dc", "type": "electric_scooter", "is_disabled": 0, "lat": 38.90560383333333, "rental_uris": {"ios": "https://dc.lft.to/lastmile_qr_scan", "android": "https://dc.lft.to/lastmile_qr_scan"}, "is_reserved": 0, "fusion_lon": 0.0, "fusion_lat": 0.0, "lon": -77.02211983333333, "name": "b8d4ed6d03e3a60a3c95594088a246dc"}, {"bike_id": "1ca88290e3f56bc0a3b88cc39e9418ec", "type": "electric_scooter", "is_disabled": 0, "lat": 38.93257633333333, "rental_uris": {"ios": "https://dc.lft.to/lastmile_qr_scan", "android": "https://dc.lft.to/lastmile_qr_scan"}, "is_reserved": 0, "fusion_lon": 0.0, "fusion_lat": 0.0, "lon": -77.03278666666667, "name": "1ca88290e3f56bc0a3b88cc39e9418ec"}, {"bike_id": "5cc29a5d6437834e41d87bb38c75a098", "type": "electric_scooter", "is_disabled": 0, "lat": 38.871207, "rental_uris": {"ios": "https://dc.lft.to/lastmile_qr_scan", "android": "https://dc.lft.to/lastmile_qr_scan"}, "is_reserved": 0, "fusion_lon": 0.0, "fusion_lat": 0.0, "lon": -76.9824065, "name": "5cc29a5d6437834e41d87bb38c75a098"}, {"bike_id": "1e4c856e9706ba4d3799e6a48faea108", "type": "electric_bike", "is_disabled": 0, "lat": 38.8198245, "rental_uris": {"ios": "https://dc.lft.to/lastmile_qr_scan", "android": "https://dc.lft.to/lastmile_qr_scan"}, "is_reserved": 0, "fusion_lon": 0.0, "fusion_lat": 0.0, "lon": -76.99810933333333, "name": "1e4c856e9706ba4d3799e6a48faea108"}, {"bike_id": "e37c0cf3093c76505ab851595bfca664", "type": "electric_bike", "is_disabled": 0, "lat": 39.0578975, "rental_uris": {"ios": "https://dc.lft.to/lastmile_qr_scan", "android": "https://dc.lft.to/lastmile_qr_scan"}, "is_reserved": 0, "fusion_lon": 0.0, "fusion_lat": 0.0, "lon": -77.15024716666667, "name": "e37c0cf3093c76505ab851595bfca664"}, {"bike_id": "1d94270cc59bfdac017b47cdc3fd9dab", "type": "electric_scooter", "is_disabled": 0, "lat": 38.900710833333335, "rental_uris": {"ios": "https://dc.lft.to/lastmile_qr_scan", "android": "https://dc.lft.to/lastmile_qr_scan"}, "is_reserved": 0, "fusion_lon": 0.0, "fusion_lat": 0.0, "lon": -76.99013466666666, "name": "1d94270cc59bfdac017b47cdc3fd9dab"}, {"bike_id": "b0b56596ae87f603d82379cb0fc3aaad", "type": "electric_scooter", "is_disabled": 0, "lat": 38.857147833333336, "rental_uris": {"ios": "https://dc.lft.to/lastmile_qr_scan", "android": "https://dc.lft.to/lastmile_qr_scan"}, "is_reserved": 0, "fusion_lon": 0.0, "fusion_lat": 0.0, "lon": -76.98980466666667, "name": "b0b56596ae87f603d82379cb0fc3aaad"}, {"bike_id": "e996336f62703b616bcacb3df7dc91b7", "type": "electric_scooter", "is_disabled": 0, "lat": 38.90247466666667, "rental_uris": {"ios": "https://dc.lft.to/lastmile_qr_scan", "android": "https://dc.lft.to/lastmile_qr_scan"}, "is_reserved": 0, "fusion_lon": 0.0, "fusion_lat": 0.0, "lon": -77.03654066666667, "name": "e996336f62703b616bcacb3df7dc91b7"}, {"bike_id": "1c67fc56bc319763ee91fb429cc9cb5b", "type": "electric_scooter", "is_disabled": 0, "lat": 38.9169285, "rental_uris": {"ios": "https://dc.lft.to/lastmile_qr_scan", "android": "https://dc.lft.to/lastmile_qr_scan"}, "is_reserved": 0, "fusion_lon": 0.0, "fusion_lat": 0.0, "lon": -77.025138, "name": "1c67fc56bc319763ee91fb429cc9cb5b"}, {"bike_id": "994fe51f72836e4980692bb06bec6563", "type": "electric_scooter", "is_disabled": 0, "lat": 38.901906833333335, "rental_uris": {"ios": "https://dc.lft.to/lastmile_qr_scan", "android": "https://dc.lft.to/lastmile_qr_scan"}, "is_reserved": 0, "fusion_lon": 0.0, "fusion_lat": 0.0, "lon": -77.0504165, "name": "994fe51f72836e4980692bb06bec6563"}, {"bike_id": "fdd570f8372d86360883312fd63f9de1", "type": "electric_scooter", "is_disabled": 0, "lat": 38.91103, "rental_uris": {"ios": "https://dc.lft.to/lastmile_qr_scan", "android": "https://dc.lft.to/lastmile_qr_scan"}, "is_reserved": 0, "fusion_lon": 0.0, "fusion_lat": 0.0, "lon": -77.04473666666667, "name": "fdd570f8372d86360883312fd63f9de1"}, {"bike_id": "612227d1fd22b4de12f0d776b481cd27", "type": "electric_scooter", "is_disabled": 0, "lat": 38.93876866666667, "rental_uris": {"ios": "https://dc.lft.to/lastmile_qr_scan", "android": "https://dc.lft.to/lastmile_qr_scan"}, "is_reserved": 0, "fusion_lon": 0.0, "fusion_lat": 0.0, "lon": -77.0246765, "name": "612227d1fd22b4de12f0d776b481cd27"}, {"bike_id": "dc84ad922231952dbb90330b37cf7f82", "type": "electric_scooter", "is_disabled": 0, "lat": 38.90532733333333, "rental_uris": {"ios": "https://dc.lft.to/lastmile_qr_scan", "android": "https://dc.lft.to/lastmile_qr_scan"}, "is_reserved": 0, "fusion_lon": 0.0, "fusion_lat": 0.0, "lon": -77.0502495, "name": "dc84ad922231952dbb90330b37cf7f82"}, {"bike_id": "5114914faa96143731634718b4840ab7", "type": "electric_scooter", "is_disabled": 0, "lat": 38.955785666666664, "rental_uris": {"ios": "https://dc.lft.to/lastmile_qr_scan", "android": "https://dc.lft.to/lastmile_qr_scan"}, "is_reserved": 0, "fusion_lon": 0.0, "fusion_lat": 0.0, "lon": -77.080393, "name": "5114914faa96143731634718b4840ab7"}, {"bike_id": "8b73986a66c7ee5d423f04c4793ef26d", "type": "electric_bike", "is_disabled": 0, "lat": 38.935288666666665, "rental_uris": {"ios": "https://dc.lft.to/lastmile_qr_scan", "android": "https://dc.lft.to/lastmile_qr_scan"}, "is_reserved": 0, "fusion_lon": 0.0, "fusion_lat": 0.0, "lon": -76.96448266666667, "name": "8b73986a66c7ee5d423f04c4793ef26d"}, {"bike_id": "6131a3062a1cdcce41433d98cc6c7aec", "type": "electric_scooter", "is_disabled": 0, "lat": 38.88654983333333, "rental_uris": {"ios": "https://dc.lft.to/lastmile_qr_scan", "android": "https://dc.lft.to/lastmile_qr_scan"}, "is_reserved": 0, "fusion_lon": 0.0, "fusion_lat": 0.0, "lon": -77.0282665, "name": "6131a3062a1cdcce41433d98cc6c7aec"}, {"bike_id": "2b2b4c4037f3692a923e1a20cedb91a9", "type": "electric_scooter", "is_disabled": 0, "lat": 38.903716333333335, "rental_uris": {"ios": "https://dc.lft.to/lastmile_qr_scan", "android": "https://dc.lft.to/lastmile_qr_scan"}, "is_reserved": 0, "fusion_lon": 0.0, "fusion_lat": 0.0, "lon": -77.03209183333334, "name": "2b2b4c4037f3692a923e1a20cedb91a9"}, {"bike_id": "8a28e3f6cd987284cba9f70407b04393", "type": "electric_scooter", "is_disabled": 0, "lat": 38.90787183333333, "rental_uris": {"ios": "https://dc.lft.to/lastmile_qr_scan", "android": "https://dc.lft.to/lastmile_qr_scan"}, "is_reserved": 0, "fusion_lon": 0.0, "fusion_lat": 0.0, "lon": -77.043422, "name": "8a28e3f6cd987284cba9f70407b04393"}, {"bike_id": "a201a267586e6fac78570bb0ef638d2a", "type": "electric_scooter", "is_disabled": 0, "lat": 38.91768833333333, "rental_uris": {"ios": "https://dc.lft.to/lastmile_qr_scan", "android": "https://dc.lft.to/lastmile_qr_scan"}, "is_reserved": 0, "fusion_lon": 0.0, "fusion_lat": 0.0, "lon": -77.04770216666667, "name": "a201a267586e6fac78570bb0ef638d2a"}, {"bike_id": "2ce1af96b309122a7e493bc0d99aa704", "type": "electric_scooter", "is_disabled": 0, "lat": 38.889442333333335, "rental_uris": {"ios": "https://dc.lft.to/lastmile_qr_scan", "android": "https://dc.lft.to/lastmile_qr_scan"}, "is_reserved": 0, "fusion_lon": 0.0, "fusion_lat": 0.0, "lon": -77.0497425, "name": "2ce1af96b309122a7e493bc0d99aa704"}, {"bike_id": "c5009342e30cc92d56fde77e8d2ad0c6", "type": "electric_scooter", "is_disabled": 0, "lat": 38.92484616666667, "rental_uris": {"ios": "https://dc.lft.to/lastmile_qr_scan", "android": "https://dc.lft.to/lastmile_qr_scan"}, "is_reserved": 0, "fusion_lon": 0.0, "fusion_lat": 0.0, "lon": -77.03181883333333, "name": "c5009342e30cc92d56fde77e8d2ad0c6"}, {"bike_id": "d0b97c7c8e51f67536e6cf91b1e13cb1", "type": "electric_bike", "is_disabled": 0, "lat": 38.809778, "rental_uris": {"ios": "https://dc.lft.to/lastmile_qr_scan", "android": "https://dc.lft.to/lastmile_qr_scan"}, "is_reserved": 0, "fusion_lon": 0.0, "fusion_lat": 0.0, "lon": -77.08630866666667, "name": "d0b97c7c8e51f67536e6cf91b1e13cb1"}, {"bike_id": "a4abe131cb609d7de710b6535b3f602e", "type": "electric_scooter", "is_disabled": 0, "lat": 38.9233225, "rental_uris": {"ios": "https://dc.lft.to/lastmile_qr_scan", "android": "https://dc.lft.to/lastmile_qr_scan"}, "is_reserved": 0, "fusion_lon": 0.0, "fusion_lat": 0.0, "lon": -77.0351385, "name": "a4abe131cb609d7de710b6535b3f602e"}, {"bike_id": "4684d3208fd9bf8d58978f20a15efbd0", "type": "electric_scooter", "is_disabled": 0, "lat": 38.92046233333333, "rental_uris": {"ios": "https://dc.lft.to/lastmile_qr_scan", "android": "https://dc.lft.to/lastmile_qr_scan"}, "is_reserved": 0, "fusion_lon": 0.0, "fusion_lat": 0.0, "lon": -77.025759, "name": "4684d3208fd9bf8d58978f20a15efbd0"}, {"bike_id": "fb6262f750848d9960cf740d62442b13", "type": "electric_scooter", "is_disabled": 0, "lat": 38.90297866666667, "rental_uris": {"ios": "https://dc.lft.to/lastmile_qr_scan", "android": "https://dc.lft.to/lastmile_qr_scan"}, "is_reserved": 0, "fusion_lon": 0.0, "fusion_lat": 0.0, "lon": -77.0174525, "name": "fb6262f750848d9960cf740d62442b13"}, {"bike_id": "1eeb8193114b2b69ed49845042b80663", "type": "electric_scooter", "is_disabled": 0, "lat": 38.913515833333335, "rental_uris": {"ios": "https://dc.lft.to/lastmile_qr_scan", "android": "https://dc.lft.to/lastmile_qr_scan"}, "is_reserved": 0, "fusion_lon": 0.0, "fusion_lat": 0.0, "lon": -77.03207716666667, "name": "1eeb8193114b2b69ed49845042b80663"}, {"bike_id": "e7400961dae30257e711203b2123448b", "type": "electric_scooter", "is_disabled": 0, "lat": 38.917117833333336, "rental_uris": {"ios": "https://dc.lft.to/lastmile_qr_scan", "android": "https://dc.lft.to/lastmile_qr_scan"}, "is_reserved": 0, "fusion_lon": 0.0, "fusion_lat": 0.0, "lon": -77.02661016666667, "name": "e7400961dae30257e711203b2123448b"}, {"bike_id": "8f60d82acd51a352c698332d38510e37", "type": "electric_scooter", "is_disabled": 0, "lat": 38.937136, "rental_uris": {"ios": "https://dc.lft.to/lastmile_qr_scan", "android": "https://dc.lft.to/lastmile_qr_scan"}, "is_reserved": 0, "fusion_lon": 0.0, "fusion_lat": 0.0, "lon": -77.03638983333333, "name": "8f60d82acd51a352c698332d38510e37"}, {"bike_id": "4cf873bf392d03a91cd6a163dcc6fc00", "type": "electric_scooter", "is_disabled": 0, "lat": 38.903139333333336, "rental_uris": {"ios": "https://dc.lft.to/lastmile_qr_scan", "android": "https://dc.lft.to/lastmile_qr_scan"}, "is_reserved": 0, "fusion_lon": 0.0, "fusion_lat": 0.0, "lon": -76.99131033333333, "name": "4cf873bf392d03a91cd6a163dcc6fc00"}, {"bike_id": "3fdfc82b269eb02db439a6e1d5d8784a", "type": "electric_scooter", "is_disabled": 0, "lat": 38.863748333333334, "rental_uris": {"ios": "https://dc.lft.to/lastmile_qr_scan", "android": "https://dc.lft.to/lastmile_qr_scan"}, "is_reserved": 0, "fusion_lon": 0.0, "fusion_lat": 0.0, "lon": -76.99063433333333, "name": "3fdfc82b269eb02db439a6e1d5d8784a"}, {"bike_id": "6b0948edb99c29570aff94180920b954", "type": "electric_scooter", "is_disabled": 0, "lat": 38.920711833333336, "rental_uris": {"ios": "https://dc.lft.to/lastmile_qr_scan", "android": "https://dc.lft.to/lastmile_qr_scan"}, "is_reserved": 0, "fusion_lon": 0.0, "fusion_lat": 0.0, "lon": -77.02211066666666, "name": "6b0948edb99c29570aff94180920b954"}, {"bike_id": "5341866c71601eb54ae79a01c56035eb", "type": "electric_scooter", "is_disabled": 0, "lat": 38.91639583333333, "rental_uris": {"ios": "https://dc.lft.to/lastmile_qr_scan", "android": "https://dc.lft.to/lastmile_qr_scan"}, "is_reserved": 0, "fusion_lon": 0.0, "fusion_lat": 0.0, "lon": -77.031981, "name": "5341866c71601eb54ae79a01c56035eb"}, {"bike_id": "f71ea250bb021fbef2a6261647931435", "type": "electric_bike", "is_disabled": 0, "lat": 38.906928666666666, "rental_uris": {"ios": "https://dc.lft.to/lastmile_qr_scan", "android": "https://dc.lft.to/lastmile_qr_scan"}, "is_reserved": 0, "fusion_lon": 0.0, "fusion_lat": 0.0, "lon": -76.95252366666666, "name": "f71ea250bb021fbef2a6261647931435"}, {"bike_id": "04a2f9a8fb35e1848f661093f0e40a2a", "type": "electric_scooter", "is_disabled": 0, "lat": 38.9097275, "rental_uris": {"ios": "https://dc.lft.to/lastmile_qr_scan", "android": "https://dc.lft.to/lastmile_qr_scan"}, "is_reserved": 0, "fusion_lon": 0.0, "fusion_lat": 0.0, "lon": -77.03147783333333, "name": "04a2f9a8fb35e1848f661093f0e40a2a"}, {"bike_id": "690cddfc50a355979feb21d7737585c7", "type": "electric_scooter", "is_disabled": 0, "lat": 38.9083855, "rental_uris": {"ios": "https://dc.lft.to/lastmile_qr_scan", "android": "https://dc.lft.to/lastmile_qr_scan"}, "is_reserved": 0, "fusion_lon": 0.0, "fusion_lat": 0.0, "lon": -77.02177866666666, "name": "690cddfc50a355979feb21d7737585c7"}, {"bike_id": "5128850e969e99af85376ac9877e48ae", "type": "electric_scooter", "is_disabled": 0, "lat": 38.89348616666667, "rental_uris": {"ios": "https://dc.lft.to/lastmile_qr_scan", "android": "https://dc.lft.to/lastmile_qr_scan"}, "is_reserved": 0, "fusion_lon": 0.0, "fusion_lat": 0.0, "lon": -76.9927575, "name": "5128850e969e99af85376ac9877e48ae"}, {"bike_id": "9e99430484c4b9d97288db4b02c1a478", "type": "electric_scooter", "is_disabled": 0, "lat": 38.90564533333333, "rental_uris": {"ios": "https://dc.lft.to/lastmile_qr_scan", "android": "https://dc.lft.to/lastmile_qr_scan"}, "is_reserved": 0, "fusion_lon": 0.0, "fusion_lat": 0.0, "lon": -77.0180215, "name": "9e99430484c4b9d97288db4b02c1a478"}, {"bike_id": "bec88bc771580deeeb1471b1495c4a12", "type": "electric_bike", "is_disabled": 0, "lat": 39.05497666666667, "rental_uris": {"ios": "https://dc.lft.to/lastmile_qr_scan", "android": "https://dc.lft.to/lastmile_qr_scan"}, "is_reserved": 0, "fusion_lon": 0.0, "fusion_lat": 0.0, "lon": -77.11791416666667, "name": "bec88bc771580deeeb1471b1495c4a12"}, {"bike_id": "bb558529339efceab492666cb706704d", "type": "electric_scooter", "is_disabled": 0, "lat": 38.897362333333334, "rental_uris": {"ios": "https://dc.lft.to/lastmile_qr_scan", "android": "https://dc.lft.to/lastmile_qr_scan"}, "is_reserved": 0, "fusion_lon": 0.0, "fusion_lat": 0.0, "lon": -77.04693966666666, "name": "bb558529339efceab492666cb706704d"}, {"bike_id": "f7db10d50b887e22b2eb9cf291a163db", "type": "electric_scooter", "is_disabled": 0, "lat": 38.86831933333333, "rental_uris": {"ios": "https://dc.lft.to/lastmile_qr_scan", "android": "https://dc.lft.to/lastmile_qr_scan"}, "is_reserved": 0, "fusion_lon": 0.0, "fusion_lat": 0.0, "lon": -77.01146716666666, "name": "f7db10d50b887e22b2eb9cf291a163db"}, {"bike_id": "5235add5b8fe49254041db78342e4368", "type": "electric_bike", "is_disabled": 0, "lat": 39.03738716666667, "rental_uris": {"ios": "https://dc.lft.to/lastmile_qr_scan", "android": "https://dc.lft.to/lastmile_qr_scan"}, "is_reserved": 0, "fusion_lon": 0.0, "fusion_lat": 0.0, "lon": -77.05483733333334, "name": "5235add5b8fe49254041db78342e4368"}, {"bike_id": "aee99bce8ad30975332e85a0f64aee1b", "type": "electric_scooter", "is_disabled": 0, "lat": 38.9039825, "rental_uris": {"ios": "https://dc.lft.to/lastmile_qr_scan", "android": "https://dc.lft.to/lastmile_qr_scan"}, "is_reserved": 0, "fusion_lon": 0.0, "fusion_lat": 0.0, "lon": -77.02491666666667, "name": "aee99bce8ad30975332e85a0f64aee1b"}, {"bike_id": "d50b5fd6e494d4c8d5aba789ed98892f", "type": "electric_scooter", "is_disabled": 0, "lat": 38.9142125, "rental_uris": {"ios": "https://dc.lft.to/lastmile_qr_scan", "android": "https://dc.lft.to/lastmile_qr_scan"}, "is_reserved": 0, "fusion_lon": 0.0, "fusion_lat": 0.0, "lon": -77.01803766666667, "name": "d50b5fd6e494d4c8d5aba789ed98892f"}, {"bike_id": "755d61de1f9a799505959694f2baf8c7", "type": "electric_scooter", "is_disabled": 0, "lat": 38.93028183333333, "rental_uris": {"ios": "https://dc.lft.to/lastmile_qr_scan", "android": "https://dc.lft.to/lastmile_qr_scan"}, "is_reserved": 0, "fusion_lon": 0.0, "fusion_lat": 0.0, "lon": -77.02349183333334, "name": "755d61de1f9a799505959694f2baf8c7"}, {"bike_id": "b5a9f04741996b8c505343a77f28e0ef", "type": "electric_scooter", "is_disabled": 0, "lat": 38.9048395, "rental_uris": {"ios": "https://dc.lft.to/lastmile_qr_scan", "android": "https://dc.lft.to/lastmile_qr_scan"}, "is_reserved": 0, "fusion_lon": 0.0, "fusion_lat": 0.0, "lon": -77.0612245, "name": "b5a9f04741996b8c505343a77f28e0ef"}, {"bike_id": "2c61038e152a3f0b5fb42d99314042e8", "type": "electric_scooter", "is_disabled": 0, "lat": 38.89845366666667, "rental_uris": {"ios": "https://dc.lft.to/lastmile_qr_scan", "android": "https://dc.lft.to/lastmile_qr_scan"}, "is_reserved": 0, "fusion_lon": 0.0, "fusion_lat": 0.0, "lon": -76.94631783333334, "name": "2c61038e152a3f0b5fb42d99314042e8"}, {"bike_id": "a3fab8a27137c5a7afbbaead9c4af5a4", "type": "electric_bike", "is_disabled": 0, "lat": 38.81511116666667, "rental_uris": {"ios": "https://dc.lft.to/lastmile_qr_scan", "android": "https://dc.lft.to/lastmile_qr_scan"}, "is_reserved": 0, "fusion_lon": 0.0, "fusion_lat": 0.0, "lon": -77.126529, "name": "a3fab8a27137c5a7afbbaead9c4af5a4"}, {"bike_id": "407301272ec9af46200644ae552bcf3f", "type": "electric_scooter", "is_disabled": 0, "lat": 38.92392016666667, "rental_uris": {"ios": "https://dc.lft.to/lastmile_qr_scan", "android": "https://dc.lft.to/lastmile_qr_scan"}, "is_reserved": 0, "fusion_lon": 0.0, "fusion_lat": 0.0, "lon": -77.044512, "name": "407301272ec9af46200644ae552bcf3f"}, {"bike_id": "a44f0aa96c4d11ba984cfa07b25f6a7a", "type": "electric_bike", "is_disabled": 0, "lat": 38.796042666666665, "rental_uris": {"ios": "https://dc.lft.to/lastmile_qr_scan", "android": "https://dc.lft.to/lastmile_qr_scan"}, "is_reserved": 0, "fusion_lon": 0.0, "fusion_lat": 0.0, "lon": -76.99744766666667, "name": "a44f0aa96c4d11ba984cfa07b25f6a7a"}, {"bike_id": "99f8a7c884f6bcf520cf937cf5808ce0", "type": "electric_scooter", "is_disabled": 0, "lat": 38.923297166666664, "rental_uris": {"ios": "https://dc.lft.to/lastmile_qr_scan", "android": "https://dc.lft.to/lastmile_qr_scan"}, "is_reserved": 0, "fusion_lon": 0.0, "fusion_lat": 0.0, "lon": -77.05418466666667, "name": "99f8a7c884f6bcf520cf937cf5808ce0"}, {"bike_id": "dd28e3f869505c340e03b40602790e03", "type": "electric_scooter", "is_disabled": 0, "lat": 38.912678, "rental_uris": {"ios": "https://dc.lft.to/lastmile_qr_scan", "android": "https://dc.lft.to/lastmile_qr_scan"}, "is_reserved": 0, "fusion_lon": 0.0, "fusion_lat": 0.0, "lon": -77.04499583333333, "name": "dd28e3f869505c340e03b40602790e03"}, {"bike_id": "7a9aec61e39a40259511710bc2ed475e", "type": "electric_scooter", "is_disabled": 0, "lat": 38.895266166666666, "rental_uris": {"ios": "https://dc.lft.to/lastmile_qr_scan", "android": "https://dc.lft.to/lastmile_qr_scan"}, "is_reserved": 0, "fusion_lon": 0.0, "fusion_lat": 0.0, "lon": -77.01137916666667, "name": "7a9aec61e39a40259511710bc2ed475e"}, {"bike_id": "603016302e25f0a569993a20909d55ef", "type": "electric_scooter", "is_disabled": 0, "lat": 38.92452483333334, "rental_uris": {"ios": "https://dc.lft.to/lastmile_qr_scan", "android": "https://dc.lft.to/lastmile_qr_scan"}, "is_reserved": 0, "fusion_lon": 0.0, "fusion_lat": 0.0, "lon": -77.0334055, "name": "603016302e25f0a569993a20909d55ef"}, {"bike_id": "601ef1e20b4e72f6416e808d67905e2d", "type": "electric_scooter", "is_disabled": 0, "lat": 38.918826, "rental_uris": {"ios": "https://dc.lft.to/lastmile_qr_scan", "android": "https://dc.lft.to/lastmile_qr_scan"}, "is_reserved": 0, "fusion_lon": 0.0, "fusion_lat": 0.0, "lon": -77.05943133333334, "name": "601ef1e20b4e72f6416e808d67905e2d"}, {"bike_id": "c5dd0cc3ec0752e66784c545df136866", "type": "electric_scooter", "is_disabled": 0, "lat": 38.898324333333335, "rental_uris": {"ios": "https://dc.lft.to/lastmile_qr_scan", "android": "https://dc.lft.to/lastmile_qr_scan"}, "is_reserved": 0, "fusion_lon": 0.0, "fusion_lat": 0.0, "lon": -77.03086066666667, "name": "c5dd0cc3ec0752e66784c545df136866"}, {"bike_id": "f6ce2468ac17ff45900b0be11a8fcc2b", "type": "electric_scooter", "is_disabled": 0, "lat": 38.893892666666666, "rental_uris": {"ios": "https://dc.lft.to/lastmile_qr_scan", "android": "https://dc.lft.to/lastmile_qr_scan"}, "is_reserved": 0, "fusion_lon": 0.0, "fusion_lat": 0.0, "lon": -77.02268916666667, "name": "f6ce2468ac17ff45900b0be11a8fcc2b"}, {"bike_id": "9554e392ffd4fe952f585ba3dff0487e", "type": "electric_scooter", "is_disabled": 0, "lat": 38.91180266666667, "rental_uris": {"ios": "https://dc.lft.to/lastmile_qr_scan", "android": "https://dc.lft.to/lastmile_qr_scan"}, "is_reserved": 0, "fusion_lon": 0.0, "fusion_lat": 0.0, "lon": -77.02957033333334, "name": "9554e392ffd4fe952f585ba3dff0487e"}, {"bike_id": "72c0bb60b9e401692fadb936b2a91e51", "type": "electric_scooter", "is_disabled": 0, "lat": 38.9307875, "rental_uris": {"ios": "https://dc.lft.to/lastmile_qr_scan", "android": "https://dc.lft.to/lastmile_qr_scan"}, "is_reserved": 0, "fusion_lon": 0.0, "fusion_lat": 0.0, "lon": -77.02795233333333, "name": "72c0bb60b9e401692fadb936b2a91e51"}, {"bike_id": "8e6777decb9ac5fad8588464230bec46", "type": "electric_scooter", "is_disabled": 0, "lat": 38.919496, "rental_uris": {"ios": "https://dc.lft.to/lastmile_qr_scan", "android": "https://dc.lft.to/lastmile_qr_scan"}, "is_reserved": 0, "fusion_lon": 0.0, "fusion_lat": 0.0, "lon": -77.02507616666666, "name": "8e6777decb9ac5fad8588464230bec46"}, {"bike_id": "283f8ac7513d89e5c75ca135961daef7", "type": "electric_scooter", "is_disabled": 0, "lat": 38.91640433333333, "rental_uris": {"ios": "https://dc.lft.to/lastmile_qr_scan", "android": "https://dc.lft.to/lastmile_qr_scan"}, "is_reserved": 0, "fusion_lon": 0.0, "fusion_lat": 0.0, "lon": -77.0320375, "name": "283f8ac7513d89e5c75ca135961daef7"}, {"bike_id": "83b2ae1ff3e26e87fd2e3a7f5ea44702", "type": "electric_scooter", "is_disabled": 0, "lat": 38.892937, "rental_uris": {"ios": "https://dc.lft.to/lastmile_qr_scan", "android": "https://dc.lft.to/lastmile_qr_scan"}, "is_reserved": 0, "fusion_lon": 0.0, "fusion_lat": 0.0, "lon": -77.033372, "name": "83b2ae1ff3e26e87fd2e3a7f5ea44702"}, {"bike_id": "277af02a6fbf87ad58d4b937614b9fe2", "type": "electric_bike", "is_disabled": 0, "lat": 38.84282, "rental_uris": {"ios": "https://dc.lft.to/lastmile_qr_scan", "android": "https://dc.lft.to/lastmile_qr_scan"}, "is_reserved": 0, "fusion_lon": 0.0, "fusion_lat": 0.0, "lon": -76.98846383333333, "name": "277af02a6fbf87ad58d4b937614b9fe2"}, {"bike_id": "1b17bf68ab72539c0ad8961fb5421a0b", "type": "electric_scooter", "is_disabled": 0, "lat": 38.93918466666667, "rental_uris": {"ios": "https://dc.lft.to/lastmile_qr_scan", "android": "https://dc.lft.to/lastmile_qr_scan"}, "is_reserved": 0, "fusion_lon": 0.0, "fusion_lat": 0.0, "lon": -77.0605115, "name": "1b17bf68ab72539c0ad8961fb5421a0b"}, {"bike_id": "f0521a36918e6d88e17717281ae9ac84", "type": "electric_bike", "is_disabled": 0, "lat": 38.87300166666667, "rental_uris": {"ios": "https://dc.lft.to/lastmile_qr_scan", "android": "https://dc.lft.to/lastmile_qr_scan"}, "is_reserved": 0, "fusion_lon": 0.0, "fusion_lat": 0.0, "lon": -77.13927433333333, "name": "f0521a36918e6d88e17717281ae9ac84"}, {"bike_id": "21fb365ae889af281fa7b48a8e3ca933", "type": "electric_scooter", "is_disabled": 0, "lat": 38.92345433333333, "rental_uris": {"ios": "https://dc.lft.to/lastmile_qr_scan", "android": "https://dc.lft.to/lastmile_qr_scan"}, "is_reserved": 0, "fusion_lon": 0.0, "fusion_lat": 0.0, "lon": -77.05119833333333, "name": "21fb365ae889af281fa7b48a8e3ca933"}, {"bike_id": "6d70fb34a216d921159138716af28491", "type": "electric_scooter", "is_disabled": 0, "lat": 38.92034366666667, "rental_uris": {"ios": "https://dc.lft.to/lastmile_qr_scan", "android": "https://dc.lft.to/lastmile_qr_scan"}, "is_reserved": 0, "fusion_lon": 0.0, "fusion_lat": 0.0, "lon": -77.01307116666666, "name": "6d70fb34a216d921159138716af28491"}, {"bike_id": "fd82b44bd127bbd831c653efd931b865", "type": "electric_scooter", "is_disabled": 0, "lat": 38.963937666666666, "rental_uris": {"ios": "https://dc.lft.to/lastmile_qr_scan", "android": "https://dc.lft.to/lastmile_qr_scan"}, "is_reserved": 0, "fusion_lon": 0.0, "fusion_lat": 0.0, "lon": -77.02591583333333, "name": "fd82b44bd127bbd831c653efd931b865"}, {"bike_id": "e1dd4fb2676e92dbe144b52f6ed53c16", "type": "electric_scooter", "is_disabled": 0, "lat": 38.916917166666664, "rental_uris": {"ios": "https://dc.lft.to/lastmile_qr_scan", "android": "https://dc.lft.to/lastmile_qr_scan"}, "is_reserved": 0, "fusion_lon": 0.0, "fusion_lat": 0.0, "lon": -77.02877733333334, "name": "e1dd4fb2676e92dbe144b52f6ed53c16"}, {"bike_id": "c08765b157cd4a0cbdbb50c82e6899c8", "type": "electric_bike", "is_disabled": 0, "lat": 38.839341833333336, "rental_uris": {"ios": "https://dc.lft.to/lastmile_qr_scan", "android": "https://dc.lft.to/lastmile_qr_scan"}, "is_reserved": 0, "fusion_lon": 0.0, "fusion_lat": 0.0, "lon": -77.079033, "name": "c08765b157cd4a0cbdbb50c82e6899c8"}, {"bike_id": "fc9d082ac605f994b538ae628c1e4c97", "type": "electric_scooter", "is_disabled": 0, "lat": 38.9339185, "rental_uris": {"ios": "https://dc.lft.to/lastmile_qr_scan", "android": "https://dc.lft.to/lastmile_qr_scan"}, "is_reserved": 0, "fusion_lon": 0.0, "fusion_lat": 0.0, "lon": -77.03220983333334, "name": "fc9d082ac605f994b538ae628c1e4c97"}, {"bike_id": "cad65a0323fcaf9502c7f83c4f8cfa25", "type": "electric_scooter", "is_disabled": 0, "lat": 38.9199175, "rental_uris": {"ios": "https://dc.lft.to/lastmile_qr_scan", "android": "https://dc.lft.to/lastmile_qr_scan"}, "is_reserved": 0, "fusion_lon": 0.0, "fusion_lat": 0.0, "lon": -77.03242033333333, "name": "cad65a0323fcaf9502c7f83c4f8cfa25"}, {"bike_id": "eb72a3830824300a898dd9010ef96908", "type": "electric_scooter", "is_disabled": 0, "lat": 38.88427983333333, "rental_uris": {"ios": "https://dc.lft.to/lastmile_qr_scan", "android": "https://dc.lft.to/lastmile_qr_scan"}, "is_reserved": 0, "fusion_lon": 0.0, "fusion_lat": 0.0, "lon": -76.95755266666667, "name": "eb72a3830824300a898dd9010ef96908"}, {"bike_id": "1769f5b58a00ade1afbac70b79353332", "type": "electric_scooter", "is_disabled": 0, "lat": 38.90553933333333, "rental_uris": {"ios": "https://dc.lft.to/lastmile_qr_scan", "android": "https://dc.lft.to/lastmile_qr_scan"}, "is_reserved": 0, "fusion_lon": 0.0, "fusion_lat": 0.0, "lon": -76.99620716666666, "name": "1769f5b58a00ade1afbac70b79353332"}, {"bike_id": "19ac8174674abe84c86ee5856f8d23fc", "type": "electric_bike", "is_disabled": 0, "lat": 38.81163016666667, "rental_uris": {"ios": "https://dc.lft.to/lastmile_qr_scan", "android": "https://dc.lft.to/lastmile_qr_scan"}, "is_reserved": 0, "fusion_lon": 0.0, "fusion_lat": 0.0, "lon": -77.06956933333333, "name": "19ac8174674abe84c86ee5856f8d23fc"}, {"bike_id": "390a7109c818ff5e406de086e4f6b237", "type": "electric_scooter", "is_disabled": 0, "lat": 38.9067715, "rental_uris": {"ios": "https://dc.lft.to/lastmile_qr_scan", "android": "https://dc.lft.to/lastmile_qr_scan"}, "is_reserved": 0, "fusion_lon": 0.0, "fusion_lat": 0.0, "lon": -77.03458383333333, "name": "390a7109c818ff5e406de086e4f6b237"}, {"bike_id": "c30656ef58355a0b7fc163021edf1f9b", "type": "electric_bike", "is_disabled": 0, "lat": 38.950897166666664, "rental_uris": {"ios": "https://dc.lft.to/lastmile_qr_scan", "android": "https://dc.lft.to/lastmile_qr_scan"}, "is_reserved": 0, "fusion_lon": 0.0, "fusion_lat": 0.0, "lon": -76.99795083333333, "name": "c30656ef58355a0b7fc163021edf1f9b"}, {"bike_id": "b04cb6ee8ee321a98dec6ea14c6ab31d", "type": "electric_bike", "is_disabled": 0, "lat": 38.95329016666667, "rental_uris": {"ios": "https://dc.lft.to/lastmile_qr_scan", "android": "https://dc.lft.to/lastmile_qr_scan"}, "is_reserved": 0, "fusion_lon": 0.0, "fusion_lat": 0.0, "lon": -76.98248333333333, "name": "b04cb6ee8ee321a98dec6ea14c6ab31d"}, {"bike_id": "6a04154bfcd7f8d1d385dc746a472d09", "type": "electric_bike", "is_disabled": 0, "lat": 38.804463, "rental_uris": {"ios": "https://dc.lft.to/lastmile_qr_scan", "android": "https://dc.lft.to/lastmile_qr_scan"}, "is_reserved": 0, "fusion_lon": 0.0, "fusion_lat": 0.0, "lon": -77.0539615, "name": "6a04154bfcd7f8d1d385dc746a472d09"}, {"bike_id": "6f6d63d9c4f5d2a95f1bfb8e55dfaee9", "type": "electric_scooter", "is_disabled": 0, "lat": 38.918566166666665, "rental_uris": {"ios": "https://dc.lft.to/lastmile_qr_scan", "android": "https://dc.lft.to/lastmile_qr_scan"}, "is_reserved": 0, "fusion_lon": 0.0, "fusion_lat": 0.0, "lon": -77.02309383333333, "name": "6f6d63d9c4f5d2a95f1bfb8e55dfaee9"}, {"bike_id": "f0df56740336cc498249390d02734570", "type": "electric_scooter", "is_disabled": 0, "lat": 38.876871666666666, "rental_uris": {"ios": "https://dc.lft.to/lastmile_qr_scan", "android": "https://dc.lft.to/lastmile_qr_scan"}, "is_reserved": 0, "fusion_lon": 0.0, "fusion_lat": 0.0, "lon": -77.01756016666667, "name": "f0df56740336cc498249390d02734570"}, {"bike_id": "a79be0e16e92cfc0d514962420e03cbf", "type": "electric_scooter", "is_disabled": 0, "lat": 38.91980516666667, "rental_uris": {"ios": "https://dc.lft.to/lastmile_qr_scan", "android": "https://dc.lft.to/lastmile_qr_scan"}, "is_reserved": 0, "fusion_lon": 0.0, "fusion_lat": 0.0, "lon": -77.01203216666667, "name": "a79be0e16e92cfc0d514962420e03cbf"}, {"bike_id": "7a0f7648b3944f971e9ace766893d0de", "type": "electric_scooter", "is_disabled": 0, "lat": 38.919725166666666, "rental_uris": {"ios": "https://dc.lft.to/lastmile_qr_scan", "android": "https://dc.lft.to/lastmile_qr_scan"}, "is_reserved": 0, "fusion_lon": 0.0, "fusion_lat": 0.0, "lon": -77.04221583333333, "name": "7a0f7648b3944f971e9ace766893d0de"}, {"bike_id": "45d00c66d75e679e93d0dc6f933d9f0d", "type": "electric_scooter", "is_disabled": 0, "lat": 38.905235833333336, "rental_uris": {"ios": "https://dc.lft.to/lastmile_qr_scan", "android": "https://dc.lft.to/lastmile_qr_scan"}, "is_reserved": 0, "fusion_lon": 0.0, "fusion_lat": 0.0, "lon": -77.0502075, "name": "45d00c66d75e679e93d0dc6f933d9f0d"}, {"bike_id": "ea99f1f975cd831bfb6935443445b92c", "type": "electric_scooter", "is_disabled": 0, "lat": 38.9118515, "rental_uris": {"ios": "https://dc.lft.to/lastmile_qr_scan", "android": "https://dc.lft.to/lastmile_qr_scan"}, "is_reserved": 0, "fusion_lon": 0.0, "fusion_lat": 0.0, "lon": -77.039679, "name": "ea99f1f975cd831bfb6935443445b92c"}, {"bike_id": "f700b5b7d94440dcb4c98dc8b802d860", "type": "electric_scooter", "is_disabled": 0, "lat": 38.909090166666665, "rental_uris": {"ios": "https://dc.lft.to/lastmile_qr_scan", "android": "https://dc.lft.to/lastmile_qr_scan"}, "is_reserved": 0, "fusion_lon": 0.0, "fusion_lat": 0.0, "lon": -77.0271575, "name": "f700b5b7d94440dcb4c98dc8b802d860"}, {"bike_id": "33321f1b76c43b9c38028001dabd1d5f", "type": "electric_scooter", "is_disabled": 0, "lat": 38.91565766666667, "rental_uris": {"ios": "https://dc.lft.to/lastmile_qr_scan", "android": "https://dc.lft.to/lastmile_qr_scan"}, "is_reserved": 0, "fusion_lon": 0.0, "fusion_lat": 0.0, "lon": -77.03137366666667, "name": "33321f1b76c43b9c38028001dabd1d5f"}, {"bike_id": "154b114df690b73abe15caa4001a3937", "type": "electric_bike", "is_disabled": 0, "lat": 38.990974333333334, "rental_uris": {"ios": "https://dc.lft.to/lastmile_qr_scan", "android": "https://dc.lft.to/lastmile_qr_scan"}, "is_reserved": 0, "fusion_lon": 0.0, "fusion_lat": 0.0, "lon": -76.9937805, "name": "154b114df690b73abe15caa4001a3937"}, {"bike_id": "b7c9c271a94dffffc5d04d2f0d667937", "type": "electric_scooter", "is_disabled": 0, "lat": 38.92618433333333, "rental_uris": {"ios": "https://dc.lft.to/lastmile_qr_scan", "android": "https://dc.lft.to/lastmile_qr_scan"}, "is_reserved": 0, "fusion_lon": 0.0, "fusion_lat": 0.0, "lon": -77.03782533333333, "name": "b7c9c271a94dffffc5d04d2f0d667937"}, {"bike_id": "4bcaaeda9e80822ee66d6377e1f2a24d", "type": "electric_scooter", "is_disabled": 0, "lat": 38.892426666666665, "rental_uris": {"ios": "https://dc.lft.to/lastmile_qr_scan", "android": "https://dc.lft.to/lastmile_qr_scan"}, "is_reserved": 0, "fusion_lon": 0.0, "fusion_lat": 0.0, "lon": -77.045013, "name": "4bcaaeda9e80822ee66d6377e1f2a24d"}, {"bike_id": "3cfdddcb97a8a341e61679dad816ce39", "type": "electric_scooter", "is_disabled": 0, "lat": 38.85893816666667, "rental_uris": {"ios": "https://dc.lft.to/lastmile_qr_scan", "android": "https://dc.lft.to/lastmile_qr_scan"}, "is_reserved": 0, "fusion_lon": 0.0, "fusion_lat": 0.0, "lon": -76.99724883333333, "name": "3cfdddcb97a8a341e61679dad816ce39"}, {"bike_id": "6f780881a2ee3dda7e155fb4047a1690", "type": "electric_scooter", "is_disabled": 0, "lat": 38.877326333333336, "rental_uris": {"ios": "https://dc.lft.to/lastmile_qr_scan", "android": "https://dc.lft.to/lastmile_qr_scan"}, "is_reserved": 0, "fusion_lon": 0.0, "fusion_lat": 0.0, "lon": -77.00478833333334, "name": "6f780881a2ee3dda7e155fb4047a1690"}, {"bike_id": "2bf4778a7e190e93f1ad698f49f936d5", "type": "electric_scooter", "is_disabled": 0, "lat": 38.87814566666667, "rental_uris": {"ios": "https://dc.lft.to/lastmile_qr_scan", "android": "https://dc.lft.to/lastmile_qr_scan"}, "is_reserved": 0, "fusion_lon": 0.0, "fusion_lat": 0.0, "lon": -76.97171066666667, "name": "2bf4778a7e190e93f1ad698f49f936d5"}, {"bike_id": "57ac9c47ecec6ee9cfc15e2ce078662b", "type": "electric_bike", "is_disabled": 0, "lat": 38.96506316666667, "rental_uris": {"ios": "https://dc.lft.to/lastmile_qr_scan", "android": "https://dc.lft.to/lastmile_qr_scan"}, "is_reserved": 0, "fusion_lon": 0.0, "fusion_lat": 0.0, "lon": -77.02823383333333, "name": "57ac9c47ecec6ee9cfc15e2ce078662b"}, {"bike_id": "c4331e09b1cdb372f4b3017fdf093b77", "type": "electric_scooter", "is_disabled": 0, "lat": 38.892419333333336, "rental_uris": {"ios": "https://dc.lft.to/lastmile_qr_scan", "android": "https://dc.lft.to/lastmile_qr_scan"}, "is_reserved": 0, "fusion_lon": 0.0, "fusion_lat": 0.0, "lon": -77.039593, "name": "c4331e09b1cdb372f4b3017fdf093b77"}, {"bike_id": "288e5f60e22d01302e2e1bb87505f86c", "type": "electric_scooter", "is_disabled": 0, "lat": 38.93772583333333, "rental_uris": {"ios": "https://dc.lft.to/lastmile_qr_scan", "android": "https://dc.lft.to/lastmile_qr_scan"}, "is_reserved": 0, "fusion_lon": 0.0, "fusion_lat": 0.0, "lon": -77.019694, "name": "288e5f60e22d01302e2e1bb87505f86c"}, {"bike_id": "a85f4392695abba2b57677721bfc1511", "type": "electric_scooter", "is_disabled": 0, "lat": 38.911058833333335, "rental_uris": {"ios": "https://dc.lft.to/lastmile_qr_scan", "android": "https://dc.lft.to/lastmile_qr_scan"}, "is_reserved": 0, "fusion_lon": 0.0, "fusion_lat": 0.0, "lon": -77.00216683333333, "name": "a85f4392695abba2b57677721bfc1511"}, {"bike_id": "d8ad0db5fd4e28068c3ec5085a574f6e", "type": "electric_scooter", "is_disabled": 0, "lat": 38.90247816666667, "rental_uris": {"ios": "https://dc.lft.to/lastmile_qr_scan", "android": "https://dc.lft.to/lastmile_qr_scan"}, "is_reserved": 0, "fusion_lon": 0.0, "fusion_lat": 0.0, "lon": -77.01898766666666, "name": "d8ad0db5fd4e28068c3ec5085a574f6e"}, {"bike_id": "c65a097aaae4bd13ef0bb97fdc31bec3", "type": "electric_scooter", "is_disabled": 0, "lat": 38.8831345, "rental_uris": {"ios": "https://dc.lft.to/lastmile_qr_scan", "android": "https://dc.lft.to/lastmile_qr_scan"}, "is_reserved": 0, "fusion_lon": 0.0, "fusion_lat": 0.0, "lon": -77.0034165, "name": "c65a097aaae4bd13ef0bb97fdc31bec3"}, {"bike_id": "059064916a8bd8ff109d620f4c8ddda1", "type": "electric_scooter", "is_disabled": 0, "lat": 38.92495, "rental_uris": {"ios": "https://dc.lft.to/lastmile_qr_scan", "android": "https://dc.lft.to/lastmile_qr_scan"}, "is_reserved": 0, "fusion_lon": 0.0, "fusion_lat": 0.0, "lon": -77.02442733333334, "name": "059064916a8bd8ff109d620f4c8ddda1"}, {"bike_id": "72a3fabfa28f57ef01ccab47e6b98483", "type": "electric_scooter", "is_disabled": 0, "lat": 38.91539383333333, "rental_uris": {"ios": "https://dc.lft.to/lastmile_qr_scan", "android": "https://dc.lft.to/lastmile_qr_scan"}, "is_reserved": 0, "fusion_lon": 0.0, "fusion_lat": 0.0, "lon": -77.022074, "name": "72a3fabfa28f57ef01ccab47e6b98483"}, {"bike_id": "4931621c255e4988f0e43e9dce58e7dc", "type": "electric_scooter", "is_disabled": 0, "lat": 38.96549066666667, "rental_uris": {"ios": "https://dc.lft.to/lastmile_qr_scan", "android": "https://dc.lft.to/lastmile_qr_scan"}, "is_reserved": 0, "fusion_lon": 0.0, "fusion_lat": 0.0, "lon": -77.03628016666667, "name": "4931621c255e4988f0e43e9dce58e7dc"}, {"bike_id": "c058e1945955539d62f46d968f663fdd", "type": "electric_scooter", "is_disabled": 0, "lat": 38.906523166666666, "rental_uris": {"ios": "https://dc.lft.to/lastmile_qr_scan", "android": "https://dc.lft.to/lastmile_qr_scan"}, "is_reserved": 0, "fusion_lon": 0.0, "fusion_lat": 0.0, "lon": -77.01459016666666, "name": "c058e1945955539d62f46d968f663fdd"}, {"bike_id": "3fc28d67c5518804a3e6affbea13410e", "type": "electric_scooter", "is_disabled": 0, "lat": 38.9082075, "rental_uris": {"ios": "https://dc.lft.to/lastmile_qr_scan", "android": "https://dc.lft.to/lastmile_qr_scan"}, "is_reserved": 0, "fusion_lon": 0.0, "fusion_lat": 0.0, "lon": -77.034702, "name": "3fc28d67c5518804a3e6affbea13410e"}, {"bike_id": "70cfa37b7d8eb5959a8d12a45be2e576", "type": "electric_scooter", "is_disabled": 0, "lat": 38.923653333333334, "rental_uris": {"ios": "https://dc.lft.to/lastmile_qr_scan", "android": "https://dc.lft.to/lastmile_qr_scan"}, "is_reserved": 0, "fusion_lon": 0.0, "fusion_lat": 0.0, "lon": -77.05051316666666, "name": "70cfa37b7d8eb5959a8d12a45be2e576"}, {"bike_id": "6d0493ba00a00c2c79c510a5d3029167", "type": "electric_scooter", "is_disabled": 0, "lat": 38.913497, "rental_uris": {"ios": "https://dc.lft.to/lastmile_qr_scan", "android": "https://dc.lft.to/lastmile_qr_scan"}, "is_reserved": 0, "fusion_lon": 0.0, "fusion_lat": 0.0, "lon": -77.02077033333333, "name": "6d0493ba00a00c2c79c510a5d3029167"}, {"bike_id": "4b0cd24dafa99d5aeb2f6f81099d6612", "type": "electric_scooter", "is_disabled": 0, "lat": 38.90869466666667, "rental_uris": {"ios": "https://dc.lft.to/lastmile_qr_scan", "android": "https://dc.lft.to/lastmile_qr_scan"}, "is_reserved": 0, "fusion_lon": 0.0, "fusion_lat": 0.0, "lon": -76.99797183333334, "name": "4b0cd24dafa99d5aeb2f6f81099d6612"}, {"bike_id": "5fe438f2089e36cb812254c774446b2e", "type": "electric_scooter", "is_disabled": 0, "lat": 38.906454333333336, "rental_uris": {"ios": "https://dc.lft.to/lastmile_qr_scan", "android": "https://dc.lft.to/lastmile_qr_scan"}, "is_reserved": 0, "fusion_lon": 0.0, "fusion_lat": 0.0, "lon": -76.98565966666666, "name": "5fe438f2089e36cb812254c774446b2e"}, {"bike_id": "68870fe0fcd088de5ab4f15e5341c9ae", "type": "electric_scooter", "is_disabled": 0, "lat": 38.916918833333334, "rental_uris": {"ios": "https://dc.lft.to/lastmile_qr_scan", "android": "https://dc.lft.to/lastmile_qr_scan"}, "is_reserved": 0, "fusion_lon": 0.0, "fusion_lat": 0.0, "lon": -77.031629, "name": "68870fe0fcd088de5ab4f15e5341c9ae"}, {"bike_id": "d5a94355669839f09d72178ceef97a03", "type": "electric_scooter", "is_disabled": 0, "lat": 38.88520416666667, "rental_uris": {"ios": "https://dc.lft.to/lastmile_qr_scan", "android": "https://dc.lft.to/lastmile_qr_scan"}, "is_reserved": 0, "fusion_lon": 0.0, "fusion_lat": 0.0, "lon": -76.990943, "name": "d5a94355669839f09d72178ceef97a03"}, {"bike_id": "53a1abb8d7126ee4abf3972886488778", "type": "electric_scooter", "is_disabled": 0, "lat": 38.91853533333333, "rental_uris": {"ios": "https://dc.lft.to/lastmile_qr_scan", "android": "https://dc.lft.to/lastmile_qr_scan"}, "is_reserved": 0, "fusion_lon": 0.0, "fusion_lat": 0.0, "lon": -77.041009, "name": "53a1abb8d7126ee4abf3972886488778"}, {"bike_id": "3e44e918844cab0f857013ccf7bd5dee", "type": "electric_bike", "is_disabled": 0, "lat": 38.8342255, "rental_uris": {"ios": "https://dc.lft.to/lastmile_qr_scan", "android": "https://dc.lft.to/lastmile_qr_scan"}, "is_reserved": 0, "fusion_lon": 0.0, "fusion_lat": 0.0, "lon": -77.0587565, "name": "3e44e918844cab0f857013ccf7bd5dee"}, {"bike_id": "c27743f01540214981f9d3d4763d82ad", "type": "electric_scooter", "is_disabled": 0, "lat": 38.873872, "rental_uris": {"ios": "https://dc.lft.to/lastmile_qr_scan", "android": "https://dc.lft.to/lastmile_qr_scan"}, "is_reserved": 0, "fusion_lon": 0.0, "fusion_lat": 0.0, "lon": -77.04334883333334, "name": "c27743f01540214981f9d3d4763d82ad"}, {"bike_id": "272279d653987294d385c09dbe925f74", "type": "electric_scooter", "is_disabled": 0, "lat": 38.906129166666666, "rental_uris": {"ios": "https://dc.lft.to/lastmile_qr_scan", "android": "https://dc.lft.to/lastmile_qr_scan"}, "is_reserved": 0, "fusion_lon": 0.0, "fusion_lat": 0.0, "lon": -77.02574983333334, "name": "272279d653987294d385c09dbe925f74"}, {"bike_id": "377d92c6e516a40d3e26f9b0e47fe19f", "type": "electric_scooter", "is_disabled": 0, "lat": 38.919239, "rental_uris": {"ios": "https://dc.lft.to/lastmile_qr_scan", "android": "https://dc.lft.to/lastmile_qr_scan"}, "is_reserved": 0, "fusion_lon": 0.0, "fusion_lat": 0.0, "lon": -77.024163, "name": "377d92c6e516a40d3e26f9b0e47fe19f"}, {"bike_id": "1c4191abea16187312f2e861ae8abc98", "type": "electric_scooter", "is_disabled": 0, "lat": 38.90142083333333, "rental_uris": {"ios": "https://dc.lft.to/lastmile_qr_scan", "android": "https://dc.lft.to/lastmile_qr_scan"}, "is_reserved": 0, "fusion_lon": 0.0, "fusion_lat": 0.0, "lon": -77.06073933333333, "name": "1c4191abea16187312f2e861ae8abc98"}, {"bike_id": "24f2a4e310aa484dc96e8b8ea1d92747", "type": "electric_scooter", "is_disabled": 0, "lat": 38.912413, "rental_uris": {"ios": "https://dc.lft.to/lastmile_qr_scan", "android": "https://dc.lft.to/lastmile_qr_scan"}, "is_reserved": 0, "fusion_lon": 0.0, "fusion_lat": 0.0, "lon": -77.03844283333333, "name": "24f2a4e310aa484dc96e8b8ea1d92747"}, {"bike_id": "1ecb9dba9e5e2ae76c0af389c847f413", "type": "electric_scooter", "is_disabled": 0, "lat": 38.88745683333333, "rental_uris": {"ios": "https://dc.lft.to/lastmile_qr_scan", "android": "https://dc.lft.to/lastmile_qr_scan"}, "is_reserved": 0, "fusion_lon": 0.0, "fusion_lat": 0.0, "lon": -77.0284525, "name": "1ecb9dba9e5e2ae76c0af389c847f413"}, {"bike_id": "5c3ba10003518f22acfbb347fefc2b47", "type": "electric_scooter", "is_disabled": 0, "lat": 38.900961833333334, "rental_uris": {"ios": "https://dc.lft.to/lastmile_qr_scan", "android": "https://dc.lft.to/lastmile_qr_scan"}, "is_reserved": 0, "fusion_lon": 0.0, "fusion_lat": 0.0, "lon": -76.983391, "name": "5c3ba10003518f22acfbb347fefc2b47"}, {"bike_id": "2c06f9385987a7c489d467f4285a25d8", "type": "electric_scooter", "is_disabled": 0, "lat": 38.928223833333334, "rental_uris": {"ios": "https://dc.lft.to/lastmile_qr_scan", "android": "https://dc.lft.to/lastmile_qr_scan"}, "is_reserved": 0, "fusion_lon": 0.0, "fusion_lat": 0.0, "lon": -77.05424933333333, "name": "2c06f9385987a7c489d467f4285a25d8"}, {"bike_id": "45924772e706b5c291da537317e000f4", "type": "electric_scooter", "is_disabled": 0, "lat": 38.89328483333333, "rental_uris": {"ios": "https://dc.lft.to/lastmile_qr_scan", "android": "https://dc.lft.to/lastmile_qr_scan"}, "is_reserved": 0, "fusion_lon": 0.0, "fusion_lat": 0.0, "lon": -76.9505375, "name": "45924772e706b5c291da537317e000f4"}, {"bike_id": "b474ad44813f381d78b9e147ef00e085", "type": "electric_scooter", "is_disabled": 0, "lat": 38.928263666666666, "rental_uris": {"ios": "https://dc.lft.to/lastmile_qr_scan", "android": "https://dc.lft.to/lastmile_qr_scan"}, "is_reserved": 0, "fusion_lon": 0.0, "fusion_lat": 0.0, "lon": -77.02253883333333, "name": "b474ad44813f381d78b9e147ef00e085"}, {"bike_id": "bfe25f1e402afd49d8c8a1761268b627", "type": "electric_scooter", "is_disabled": 0, "lat": 38.89845416666667, "rental_uris": {"ios": "https://dc.lft.to/lastmile_qr_scan", "android": "https://dc.lft.to/lastmile_qr_scan"}, "is_reserved": 0, "fusion_lon": 0.0, "fusion_lat": 0.0, "lon": -76.94634183333334, "name": "bfe25f1e402afd49d8c8a1761268b627"}, {"bike_id": "01973be6c6db217c55b3f124d825de1e", "type": "electric_scooter", "is_disabled": 0, "lat": 38.919644166666664, "rental_uris": {"ios": "https://dc.lft.to/lastmile_qr_scan", "android": "https://dc.lft.to/lastmile_qr_scan"}, "is_reserved": 0, "fusion_lon": 0.0, "fusion_lat": 0.0, "lon": -77.014301, "name": "01973be6c6db217c55b3f124d825de1e"}, {"bike_id": "eca4d93cafa725d58fafbd8f2caf2e64", "type": "electric_scooter", "is_disabled": 0, "lat": 38.906224333333334, "rental_uris": {"ios": "https://dc.lft.to/lastmile_qr_scan", "android": "https://dc.lft.to/lastmile_qr_scan"}, "is_reserved": 0, "fusion_lon": 0.0, "fusion_lat": 0.0, "lon": -77.02950466666667, "name": "eca4d93cafa725d58fafbd8f2caf2e64"}, {"bike_id": "6ef35c0a9d3ba0cc8fd867624e4a4656", "type": "electric_bike", "is_disabled": 0, "lat": 39.01480216666667, "rental_uris": {"ios": "https://dc.lft.to/lastmile_qr_scan", "android": "https://dc.lft.to/lastmile_qr_scan"}, "is_reserved": 0, "fusion_lon": 0.0, "fusion_lat": 0.0, "lon": -77.054935, "name": "6ef35c0a9d3ba0cc8fd867624e4a4656"}, {"bike_id": "4e1d9cbefd64db63225eae69dae2613b", "type": "electric_scooter", "is_disabled": 0, "lat": 38.892299333333334, "rental_uris": {"ios": "https://dc.lft.to/lastmile_qr_scan", "android": "https://dc.lft.to/lastmile_qr_scan"}, "is_reserved": 0, "fusion_lon": 0.0, "fusion_lat": 0.0, "lon": -77.01374133333333, "name": "4e1d9cbefd64db63225eae69dae2613b"}, {"bike_id": "6cd3be7073c2ef7ab67a25f03e0e1292", "type": "electric_scooter", "is_disabled": 0, "lat": 38.957772, "rental_uris": {"ios": "https://dc.lft.to/lastmile_qr_scan", "android": "https://dc.lft.to/lastmile_qr_scan"}, "is_reserved": 0, "fusion_lon": 0.0, "fusion_lat": 0.0, "lon": -77.0246035, "name": "6cd3be7073c2ef7ab67a25f03e0e1292"},