{"data": {"bikes": [{"lon": -77.032802, "lat": 38.92901916666667, "name": "c6cc7c662a68224b080ed7eb95c94fd0", "fusion_lat": 0.0, "fusion_lon": 0.0, "rental_uris": {"android": "https://dc.lft.to/lastmile_qr_scan", "ios": "https://dc.lft.to/lastmile_qr_scan"}, "is_reserved": 0, "is_disabled": 0, "type": "electric_scooter", "bike_id": "c6cc7c662a68224b080ed7eb95c94fd0"}, {"lon": -76.945718, "lat": 38.866219, "name": "260758e99f8f7783dd77bf76196a7318", "fusion_lat": 0.0, "fusion_lon": 0.0, "rental_uris": {"android": "https://dc.lft.to/lastmile_qr_scan", "ios": "https://dc.lft.to/lastmile_qr_scan"}, "is_reserved": 0, "is_disabled": 0, "type": "electric_bike", "bike_id": "260758e99f8f7783dd77bf76196a7318"}, {"lon": -77.0322465, "lat": 38.892210166666665, "name": "838a6442d66fdf81a22bdb6f10c60635", "fusion_lat": 0.0, "fusion_lon": 0.0, "rental_uris": {"android": "https://dc.lft.to/lastmile_qr_scan", "ios": "https://dc.lft.to/lastmile_qr_scan"}, "is_reserved": 0, "is_disabled": 0, "type": "electric_scooter", "bike_id": "838a6442d66fdf81a22bdb6f10c60635"}, {"lon": -77.0465515, "lat": 38.90426516666667, "name": "c797731db7603003ce2c2ba5225e6a85", "fusion_lat": 0.0, "fusion_lon": 0.0, "rental_uris": {"android": "https://dc.lft.to/lastmile_qr_scan", "ios": "https://dc.lft.to/lastmile_qr_scan"}, "is_reserved": 0, "is_disabled": 0, "type": "electric_bike", "bike_id": "c797731db7603003ce2c2ba5225e6a85"}, {"lon": -77.02487866666667, "lat": 38.9386505, "name": "ce1e3faeae691f5c4ffeb784086b4bbf", "fusion_lat": 0.0, "fusion_lon": 0.0, "rental_uris": {"android": "https://dc.lft.to/lastmile_qr_scan", "ios": "https://dc.lft.to/lastmile_qr_scan"}, "is_reserved": 0, "is_disabled": 0, "type": "electric_scooter", "bike_id": "ce1e3faeae691f5c4ffeb784086b4bbf"}, {"lon": -77.01551316666666, "lat": 38.891985, "name": "10e9773550278f24490c9200f1d0a594", "fusion_lat": 0.0, "fusion_lon": 0.0, "rental_uris": {"android": "https://dc.lft.to/lastmile_qr_scan", "ios": "https://dc.lft.to/lastmile_qr_scan"}, "is_reserved": 0, "is_disabled": 0, "type": "electric_scooter", "bike_id": "10e9773550278f24490c9200f1d0a594"}, {"lon": -77.03255666666666, "lat": 38.932418166666665, "name": "6d6cd93c9b23b2a7de824f08cb6d6436", "fusion_lat": 0.0, "fusion_lon": 0.0, "rental_uris": {"android": "https://dc.lft.to/lastmile_qr_scan", "ios": "https://dc.lft.to/lastmile_qr_scan"}, "is_reserved": 0, "is_disabled": 0, "type": "electric_scooter", "bike_id": "6d6cd93c9b23b2a7de824f08cb6d6436"}, {"lon": -77.022824, "lat": 38.8969785, "name": "bf0cf6adf9fe05e76ecc435dfd02232f", "fusion_lat": 0.0, "fusion_lon": 0.0, "rental_uris": {"android": "https://dc.lft.to/lastmile_qr_scan", "ios": "https://dc.lft.to/lastmile_qr_scan"}, "is_reserved": 0, "is_disabled": 0, "type": "electric_scooter", "bike_id": "bf0cf6adf9fe05e76ecc435dfd02232f"}, {"lon": -76.97310083333333, "lat": 38.9198955, "name": "53e01a9dda9b63e4c8c74061982f0b73", "fusion_lat": 0.0, "fusion_lon": 0.0, "rental_uris": {"android": "https://dc.lft.to/lastmile_qr_scan", "ios": "https://dc.lft.to/lastmile_qr_scan"}, "is_reserved": 0, "is_disabled": 0, "type": "electric_scooter", "bike_id": "53e01a9dda9b63e4c8c74061982f0b73"}, {"lon": -77.02989966666667, "lat": 38.95628, "name": "10a77da076b443d28b837b5e452801da", "fusion_lat": 0.0, "fusion_lon": 0.0, "rental_uris": {"android": "https://dc.lft.to/lastmile_qr_scan", "ios": "https://dc.lft.to/lastmile_qr_scan"}, "is_reserved": 0, "is_disabled": 0, "type": "electric_scooter", "bike_id": "10a77da076b443d28b837b5e452801da"}, {"lon": -77.03855566666667, "lat": 38.9046315, "name": "6c3b78e8212c795fdcf85cfcec6d8004", "fusion_lat": 0.0, "fusion_lon": 0.0, "rental_uris": {"android": "https://dc.lft.to/lastmile_qr_scan", "ios": "https://dc.lft.to/lastmile_qr_scan"}, "is_reserved": 0, "is_disabled": 0, "type": "electric_scooter", "bike_id": "6c3b78e8212c795fdcf85cfcec6d8004"}, {"lon": -77.0386985, "lat": 38.932520333333336, "name": "24baf32f3e5984b9fda1f89cb4f424ec", "fusion_lat": 0.0, "fusion_lon": 0.0, "rental_uris": {"android": "https://dc.lft.to/lastmile_qr_scan", "ios": "https://dc.lft.to/lastmile_qr_scan"}, "is_reserved": 0, "is_disabled": 0, "type": "electric_scooter", "bike_id": "24baf32f3e5984b9fda1f89cb4f424ec"}, {"lon": -77.01910083333334, "lat": 38.917299166666666, "name": "6a2804568b9a84773f4325d09bc71bec", "fusion_lat": 0.0, "fusion_lon": 0.0, "rental_uris": {"android": "https://dc.lft.to/lastmile_qr_scan", "ios": "https://dc.lft.to/lastmile_qr_scan"}, "is_reserved": 0, "is_disabled": 0, "type": "electric_scooter", "bike_id": "6a2804568b9a84773f4325d09bc71bec"}, {"lon": -77.0407135, "lat": 38.812379666666665, "name": "2cc75682a62d1f2106c293d54ab03464", "fusion_lat": 0.0, "fusion_lon": 0.0, "rental_uris": {"android": "https://dc.lft.to/lastmile_qr_scan", "ios": "https://dc.lft.to/lastmile_qr_scan"}, "is_reserved": 0, "is_disabled": 0, "type": "electric_bike", "bike_id": "2cc75682a62d1f2106c293d54ab03464"}, {"lon": -77.02252383333334, "lat": 38.9249925, "name": "012390f0b70beafc5325fcc98f9d9f77", "fusion_lat": 0.0, "fusion_lon": 0.0, "rental_uris": {"android": "https://dc.lft.to/lastmile_qr_scan", "ios": "https://dc.lft.to/lastmile_qr_scan"}, "is_reserved": 0, "is_disabled": 0, "type": "electric_scooter", "bike_id": "012390f0b70beafc5325fcc98f9d9f77"}, {"lon": -77.03181483333333, "lat": 38.8999185, "name": "4dcf43feb9ff8c7af12631ca59c5729d", "fusion_lat": 0.0, "fusion_lon": 0.0, "rental_uris": {"android": "https://dc.lft.to/lastmile_qr_scan", "ios": "https://dc.lft.to/lastmile_qr_scan"}, "is_reserved": 0, "is_disabled": 0, "type": "electric_scooter", "bike_id": "4dcf43feb9ff8c7af12631ca59c5729d"}, {"lon": -77.03284533333333, "lat": 38.936885333333336, "name": "75b8113cdc0e25d0afca1d0f607f487e", "fusion_lat": 0.0, "fusion_lon": 0.0, "rental_uris": {"android": "https://dc.lft.to/lastmile_qr_scan", "ios": "https://dc.lft.to/lastmile_qr_scan"}, "is_reserved": 0, "is_disabled": 0, "type": "electric_scooter", "bike_id": "75b8113cdc0e25d0afca1d0f607f487e"}, {"lon": -76.99828133333334, "lat": 38.885352, "name": "70c23770641879fdfedfcf18e450691f", "fusion_lat": 0.0, "fusion_lon": 0.0, "rental_uris": {"android": "https://dc.lft.to/lastmile_qr_scan", "ios": "https://dc.lft.to/lastmile_qr_scan"}, "is_reserved": 0, "is_disabled": 0, "type": "electric_scooter", "bike_id": "70c23770641879fdfedfcf18e450691f"}, {"lon": -76.93201316666666, "lat": 38.872365333333335, "name": "29167035e1c82d0d5fea348082389b8e", "fusion_lat": 0.0, "fusion_lon": 0.0, "rental_uris": {"android": "https://dc.lft.to/lastmile_qr_scan", "ios": "https://dc.lft.to/lastmile_qr_scan"}, "is_reserved": 0, "is_disabled": 0, "type": "electric_bike", "bike_id": "29167035e1c82d0d5fea348082389b8e"}, {"lon": -77.0281505, "lat": 38.923651166666666, "name": "c7898f3e2b0bab7a1a4628335d4d5cc0", "fusion_lat": 0.0, "fusion_lon": 0.0, "rental_uris": {"android": "https://dc.lft.to/lastmile_qr_scan", "ios": "https://dc.lft.to/lastmile_qr_scan"}, "is_reserved": 0, "is_disabled": 0, "type": "electric_scooter", "bike_id": "c7898f3e2b0bab7a1a4628335d4d5cc0"}, {"lon": -77.0198585, "lat": 38.902317, "name": "8804e09323524b073f70eebacc6dcdd2", "fusion_lat": 0.0, "fusion_lon": 0.0, "rental_uris": {"android": "https://dc.lft.to/lastmile_qr_scan", "ios": "https://dc.lft.to/lastmile_qr_scan"}, "is_reserved": 0, "is_disabled": 0, "type": "electric_scooter", "bike_id": "8804e09323524b073f70eebacc6dcdd2"}, {"lon": -77.041753, "lat": 38.916546833333335, "name": "cad9f1d0b741030ca21ba5fdc426886f", "fusion_lat": 0.0, "fusion_lon": 0.0, "rental_uris": {"android": "https://dc.lft.to/lastmile_qr_scan", "ios": "https://dc.lft.to/lastmile_qr_scan"}, "is_reserved": 0, "is_disabled": 0, "type": "electric_scooter", "bike_id": "cad9f1d0b741030ca21ba5fdc426886f"}, {"lon": -77.02704966666667, "lat": 38.950022833333335, "name": "4985c43ef4eee14acad4b303b9305598", "fusion_lat": 0.0, "fusion_lon": 0.0, "rental_uris": {"android": "https://dc.lft.to/lastmile_qr_scan", "ios": "https://dc.lft.to/lastmile_qr_scan"}, "is_reserved": 0, "is_disabled": 0, "type": "electric_scooter", "bike_id": "4985c43ef4eee14acad4b303b9305598"}, {"lon": -77.03288566666667, "lat": 38.95649866666667, "name": "e1dad589ae2a802398646708cff1c2f8", "fusion_lat": 0.0, "fusion_lon": 0.0, "rental_uris": {"android": "https://dc.lft.to/lastmile_qr_scan", "ios": "https://dc.lft.to/lastmile_qr_scan"}, "is_reserved": 0, "is_disabled": 0, "type": "electric_scooter", "bike_id": "e1dad589ae2a802398646708cff1c2f8"}, {"lon": -77.08942166666667, "lat": 38.841095, "name": "3cff99c8fa0a68bcfd6ae0bc98932c24", "fusion_lat": 0.0, "fusion_lon": 0.0, "rental_uris": {"android": "https://dc.lft.to/lastmile_qr_scan", "ios": "https://dc.lft.to/lastmile_qr_scan"}, "is_reserved": 0, "is_disabled": 0, "type": "electric_bike", "bike_id": "3cff99c8fa0a68bcfd6ae0bc98932c24"}, {"lon": -76.99381166666667, "lat": 38.900574, "name": "1b46741bd618de03e64098d4d8c33e45", "fusion_lat": 0.0, "fusion_lon": 0.0, "rental_uris": {"android": "https://dc.lft.to/lastmile_qr_scan", "ios": "https://dc.lft.to/lastmile_qr_scan"}, "is_reserved": 0, "is_disabled": 0, "type": "electric_scooter", "bike_id": "1b46741bd618de03e64098d4d8c33e45"}, {"lon": -77.02283216666666, "lat": 38.9112415, "name": "5e9a7a65a8c3637a544660c4e1175378", "fusion_lat": 0.0, "fusion_lon": 0.0, "rental_uris": {"android": "https://dc.lft.to/lastmile_qr_scan", "ios": "https://dc.lft.to/lastmile_qr_scan"}, "is_reserved": 0, "is_disabled": 0, "type": "electric_bike", "bike_id": "5e9a7a65a8c3637a544660c4e1175378"}, {"lon": -77.002058, "lat": 38.9007635, "name": "5c5e2b217a8182e9ddfe91b67037c432", "fusion_lat": 0.0, "fusion_lon": 0.0, "rental_uris": {"android": "https://dc.lft.to/lastmile_qr_scan", "ios": "https://dc.lft.to/lastmile_qr_scan"}, "is_reserved": 0, "is_disabled": 0, "type": "electric_scooter", "bike_id": "5c5e2b217a8182e9ddfe91b67037c432"}, {"lon": -77.08214783333334, "lat": 38.9355425, "name": "008cecd130cb47ff65f01b4496e03b6d", "fusion_lat": 0.0, "fusion_lon": 0.0, "rental_uris": {"android": "https://dc.lft.to/lastmile_qr_scan", "ios": "https://dc.lft.to/lastmile_qr_scan"}, "is_reserved": 0, "is_disabled": 0, "type": "electric_scooter", "bike_id": "008cecd130cb47ff65f01b4496e03b6d"}, {"lon": -77.0214895, "lat": 38.89220866666667, "name": "9623c291872bc0bb15ca62e99ddd9b45", "fusion_lat": 0.0, "fusion_lon": 0.0, "rental_uris": {"android": "https://dc.lft.to/lastmile_qr_scan", "ios": "https://dc.lft.to/lastmile_qr_scan"}, "is_reserved": 0, "is_disabled": 0, "type": "electric_scooter", "bike_id": "9623c291872bc0bb15ca62e99ddd9b45"}, {"lon": -77.02710016666667, "lat": 38.950010166666665, "name": "777bc236c0fa97439f454c051469029e", "fusion_lat": 0.0, "fusion_lon": 0.0, "rental_uris": {"android": "https://dc.lft.to/lastmile_qr_scan", "ios": "https://dc.lft.to/lastmile_qr_scan"}, "is_reserved": 0, "is_disabled": 0, "type": "electric_scooter", "bike_id": "777bc236c0fa97439f454c051469029e"}, {"lon": -77.043058, "lat": 39.054458833333335, "name": "1009b75b4d39b29c8b9af9a45196f0f1", "fusion_lat": 0.0, "fusion_lon": 0.0, "rental_uris": {"android": "https://dc.lft.to/lastmile_qr_scan", "ios": "https://dc.lft.to/lastmile_qr_scan"}, "is_reserved": 0, "is_disabled": 0, "type": "electric_bike", "bike_id": "1009b75b4d39b29c8b9af9a45196f0f1"}, {"lon": -77.17842516666667, "lat": 39.088573, "name": "f1c801d03c261d9470bbecc7e0634cc8", "fusion_lat": 0.0, "fusion_lon": 0.0, "rental_uris": {"android": "https://dc.lft.to/lastmile_qr_scan", "ios": "https://dc.lft.to/lastmile_qr_scan"}, "is_reserved": 0, "is_disabled": 0, "type": "electric_bike", "bike_id": "f1c801d03c261d9470bbecc7e0634cc8"}, {"lon": -77.0439975, "lat": 38.92235733333333, "name": "732f83abeae0c5542b1aad2891956276", "fusion_lat": 0.0, "fusion_lon": 0.0, "rental_uris": {"android": "https://dc.lft.to/lastmile_qr_scan", "ios": "https://dc.lft.to/lastmile_qr_scan"}, "is_reserved": 0, "is_disabled": 0, "type": "electric_scooter", "bike_id": "732f83abeae0c5542b1aad2891956276"}, {"lon": -77.0034695, "lat": 38.8946075, "name": "b7bfbcfb4efe5839dfca49d6f6256e42", "fusion_lat": 0.0, "fusion_lon": 0.0, "rental_uris": {"android": "https://dc.lft.to/lastmile_qr_scan", "ios": "https://dc.lft.to/lastmile_qr_scan"}, "is_reserved": 0, "is_disabled": 0, "type": "electric_scooter", "bike_id": "b7bfbcfb4efe5839dfca49d6f6256e42"}, {"lon": -77.02829016666666, "lat": 38.88741683333333, "name": "f52a8c61658afbc7ed72fa74d9d60d67", "fusion_lat": 0.0, "fusion_lon": 0.0, "rental_uris": {"android": "https://dc.lft.to/lastmile_qr_scan", "ios": "https://dc.lft.to/lastmile_qr_scan"}, "is_reserved": 0, "is_disabled": 0, "type": "electric_scooter", "bike_id": "f52a8c61658afbc7ed72fa74d9d60d67"}, {"lon": -77.045427, "lat": 38.89482783333333, "name": "3e85c3c31b7c9ab685db6df4436c7195", "fusion_lat": 0.0, "fusion_lon": 0.0, "rental_uris": {"android": "https://dc.lft.to/lastmile_qr_scan", "ios": "https://dc.lft.to/lastmile_qr_scan"}, "is_reserved": 0, "is_disabled": 0, "type": "electric_scooter", "bike_id": "3e85c3c31b7c9ab685db6df4436c7195"}, {"lon": -77.03191066666666, "lat": 38.907903166666664, "name": "df6f7935c75840ef0efd2ea0ef0a3ef4", "fusion_lat": 0.0, "fusion_lon": 0.0, "rental_uris": {"android": "https://dc.lft.to/lastmile_qr_scan", "ios": "https://dc.lft.to/lastmile_qr_scan"}, "is_reserved": 0, "is_disabled": 0, "type": "electric_scooter", "bike_id": "df6f7935c75840ef0efd2ea0ef0a3ef4"}, {"lon": -76.94761433333333, "lat": 38.89630916666667, "name": "2fa1c03990f974ba1e1d7df685cb9924", "fusion_lat": 0.0, "fusion_lon": 0.0, "rental_uris": {"android": "https://dc.lft.to/lastmile_qr_scan", "ios": "https://dc.lft.to/lastmile_qr_scan"}, "is_reserved": 0, "is_disabled": 0, "type": "electric_bike", "bike_id": "2fa1c03990f974ba1e1d7df685cb9924"}, {"lon": -76.99077066666666, "lat": 38.84283466666667, "name": "3553e8cfe6d2addb9e27d44193c9cfba", "fusion_lat": 0.0, "fusion_lon": 0.0, "rental_uris": {"android": "https://dc.lft.to/lastmile_qr_scan", "ios": "https://dc.lft.to/lastmile_qr_scan"}, "is_reserved": 0, "is_disabled": 0, "type": "electric_scooter", "bike_id": "3553e8cfe6d2addb9e27d44193c9cfba"}, {"lon": -77.05005633333333, "lat": 38.892323166666664, "name": "e0c5f4741a0bba46a1fb7a25b36a6a42", "fusion_lat": 0.0, "fusion_lon": 0.0, "rental_uris": {"android": "https://dc.lft.to/lastmile_qr_scan", "ios": "https://dc.lft.to/lastmile_qr_scan"}, "is_reserved": 0, "is_disabled": 0, "type": "electric_scooter", "bike_id": "e0c5f4741a0bba46a1fb7a25b36a6a42"}, {"lon": -77.02698266666667, "lat": 38.90937383333333, "name": "1da632fcce74d67127a88964f26c892c", "fusion_lat": 0.0, "fusion_lon": 0.0, "rental_uris": {"android": "https://dc.lft.to/lastmile_qr_scan", "ios": "https://dc.lft.to/lastmile_qr_scan"}, "is_reserved": 0, "is_disabled": 0, "type": "electric_scooter", "bike_id": "1da632fcce74d67127a88964f26c892c"}, {"lon": -77.02971383333333, "lat": 38.911281, "name": "d3c74e5f71a1509e725d0c899ae338c6", "fusion_lat": 0.0, "fusion_lon": 0.0, "rental_uris": {"android": "https://dc.lft.to/lastmile_qr_scan", "ios": "https://dc.lft.to/lastmile_qr_scan"}, "is_reserved": 0, "is_disabled": 0, "type": "electric_scooter", "bike_id": "d3c74e5f71a1509e725d0c899ae338c6"}, {"lon": -76.97020233333333, "lat": 38.92032566666666, "name": "ab05a07d5d1312d247bfbda3387bdf37", "fusion_lat": 0.0, "fusion_lon": 0.0, "rental_uris": {"android": "https://dc.lft.to/lastmile_qr_scan", "ios": "https://dc.lft.to/lastmile_qr_scan"}, "is_reserved": 0, "is_disabled": 0, "type": "electric_scooter", "bike_id": "ab05a07d5d1312d247bfbda3387bdf37"}, {"lon": -77.00337316666666, "lat": 38.89525016666666, "name": "8dea37b0923d71b4842793ebd2b6eda9", "fusion_lat": 0.0, "fusion_lon": 0.0, "rental_uris": {"android": "https://dc.lft.to/lastmile_qr_scan", "ios": "https://dc.lft.to/lastmile_qr_scan"}, "is_reserved": 0, "is_disabled": 0, "type": "electric_scooter", "bike_id": "8dea37b0923d71b4842793ebd2b6eda9"}, {"lon": -77.02726616666666, "lat": 38.940893, "name": "e8eeaee8f639d17b30a33780e20416a9", "fusion_lat": 0.0, "fusion_lon": 0.0, "rental_uris": {"android": "https://dc.lft.to/lastmile_qr_scan", "ios": "https://dc.lft.to/lastmile_qr_scan"}, "is_reserved": 0, "is_disabled": 0, "type": "electric_scooter", "bike_id": "e8eeaee8f639d17b30a33780e20416a9"}, {"lon": -77.031873, "lat": 38.90021483333334, "name": "d0898cfd97cc6c0ee518b43efc68ff9e", "fusion_lat": 0.0, "fusion_lon": 0.0, "rental_uris": {"android": "https://dc.lft.to/lastmile_qr_scan", "ios": "https://dc.lft.to/lastmile_qr_scan"}, "is_reserved": 0, "is_disabled": 0, "type": "electric_scooter", "bike_id": "d0898cfd97cc6c0ee518b43efc68ff9e"}, {"lon": -77.05935083333334, "lat": 38.93668133333333, "name": "249b47af1418d7ae5ca61279403cd5f1", "fusion_lat": 0.0, "fusion_lon": 0.0, "rental_uris": {"android": "https://dc.lft.to/lastmile_qr_scan", "ios": "https://dc.lft.to/lastmile_qr_scan"}, "is_reserved": 0, "is_disabled": 0, "type": "electric_scooter", "bike_id": "249b47af1418d7ae5ca61279403cd5f1"}, {"lon": -77.0376095, "lat": 38.922162666666665, "name": "79ed51921afc92cb6c34caca13a417d3", "fusion_lat": 0.0, "fusion_lon": 0.0, "rental_uris": {"android": "https://dc.lft.to/lastmile_qr_scan", "ios": "https://dc.lft.to/lastmile_qr_scan"}, "is_reserved": 0, "is_disabled": 0, "type": "electric_scooter", "bike_id": "79ed51921afc92cb6c34caca13a417d3"}, {"lon": -77.03343116666667, "lat": 38.89831, "name": "691bdcfaacadeaca7845acacbb180cad", "fusion_lat": 0.0, "fusion_lon": 0.0, "rental_uris": {"android": "https://dc.lft.to/lastmile_qr_scan", "ios": "https://dc.lft.to/lastmile_qr_scan"}, "is_reserved": 0, "is_disabled": 0, "type": "electric_scooter", "bike_id": "691bdcfaacadeaca7845acacbb180cad"}, {"lon": -77.01897466666667, "lat": 38.93915, "name": "960c034ae55f143bfc292676111de822", "fusion_lat": 0.0, "fusion_lon": 0.0, "rental_uris": {"android": "https://dc.lft.to/lastmile_qr_scan", "ios": "https://dc.lft.to/lastmile_qr_scan"}, "is_reserved": 0, "is_disabled": 0, "type": "electric_scooter", "bike_id": "960c034ae55f143bfc292676111de822"}, {"lon": -76.8782355, "lat": 38.9923905, "name": "41c6d55fa987bf798140423cef648279", "fusion_lat": 0.0, "fusion_lon": 0.0, "rental_uris": {"android": "https://dc.lft.to/lastmile_qr_scan", "ios": "https://dc.lft.to/lastmile_qr_scan"}, "is_reserved": 0, "is_disabled": 0, "type": "electric_bike", "bike_id": "41c6d55fa987bf798140423cef648279"}, {"lon": -76.98230066666666, "lat": 38.9250415, "name": "4263ba80f63d307d8a1b10dc994ea7ec", "fusion_lat": 0.0, "fusion_lon": 0.0, "rental_uris": {"android": "https://dc.lft.to/lastmile_qr_scan", "ios": "https://dc.lft.to/lastmile_qr_scan"}, "is_reserved": 0, "is_disabled": 0, "type": "electric_bike", "bike_id": "4263ba80f63d307d8a1b10dc994ea7ec"}, {"lon": -77.05519233333334, "lat": 38.89930233333333, "name": "639dc81d242b6e4dc9cd87751e6d7d40", "fusion_lat": 0.0, "fusion_lon": 0.0, "rental_uris": {"android": "https://dc.lft.to/lastmile_qr_scan", "ios": "https://dc.lft.to/lastmile_qr_scan"}, "is_reserved": 0, "is_disabled": 0, "type": "electric_scooter", "bike_id": "639dc81d242b6e4dc9cd87751e6d7d40"}, {"lon": -76.98177016666666, "lat": 38.9003985, "name": "0e26c107bbc123d5e854750efc2c5c00", "fusion_lat": 0.0, "fusion_lon": 0.0, "rental_uris": {"android": "https://dc.lft.to/lastmile_qr_scan", "ios": "https://dc.lft.to/lastmile_qr_scan"}, "is_reserved": 0, "is_disabled": 0, "type": "electric_scooter", "bike_id": "0e26c107bbc123d5e854750efc2c5c00"}, {"lon": -77.0378855, "lat": 38.92635333333333, "name": "6763effd4a5925d8ce32729ec6affe34", "fusion_lat": 0.0, "fusion_lon": 0.0, "rental_uris": {"android": "https://dc.lft.to/lastmile_qr_scan", "ios": "https://dc.lft.to/lastmile_qr_scan"}, "is_reserved": 0, "is_disabled": 0, "type": "electric_scooter", "bike_id": "6763effd4a5925d8ce32729ec6affe34"}, {"lon": -77.10735366666667, "lat": 38.8558605, "name": "165614e720791a08a91046260400ea62", "fusion_lat": 0.0, "fusion_lon": 0.0, "rental_uris": {"android": "https://dc.lft.to/lastmile_qr_scan", "ios": "https://dc.lft.to/lastmile_qr_scan"}, "is_reserved": 0, "is_disabled": 0, "type": "electric_bike", "bike_id": "165614e720791a08a91046260400ea62"}, {"lon": -76.9487285, "lat": 38.88962266666667, "name": "ef930fae5733b61fcee1d8b685990d30", "fusion_lat": 0.0, "fusion_lon": 0.0, "rental_uris": {"android": "https://dc.lft.to/lastmile_qr_scan", "ios": "https://dc.lft.to/lastmile_qr_scan"}, "is_reserved": 0, "is_disabled": 0, "type": "electric_bike", "bike_id": "ef930fae5733b61fcee1d8b685990d30"}, {"lon": -76.98778616666667, "lat": 38.9002695, "name": "fd59821fc8013a91673bf5c8a7f9d5cf", "fusion_lat": 0.0, "fusion_lon": 0.0, "rental_uris": {"android": "https://dc.lft.to/lastmile_qr_scan", "ios": "https://dc.lft.to/lastmile_qr_scan"}, "is_reserved": 0, "is_disabled": 0, "type": "electric_scooter", "bike_id": "fd59821fc8013a91673bf5c8a7f9d5cf"}, {"lon": -76.97744866666666, "lat": 38.900089333333334, "name": "d69f869fa1ac9c7e4615501577334fde", "fusion_lat": 0.0, "fusion_lon": 0.0, "rental_uris": {"android": "https://dc.lft.to/lastmile_qr_scan", "ios": "https://dc.lft.to/lastmile_qr_scan"}, "is_reserved": 0, "is_disabled": 0, "type": "electric_scooter", "bike_id": "d69f869fa1ac9c7e4615501577334fde"}, {"lon": -77.02010016666667, "lat": 38.899426, "name": "36dfbac30c65a7f310a51fa0bb3285c4", "fusion_lat": 0.0, "fusion_lon": 0.0, "rental_uris": {"android": "https://dc.lft.to/lastmile_qr_scan", "ios": "https://dc.lft.to/lastmile_qr_scan"}, "is_reserved": 0, "is_disabled": 0, "type": "electric_scooter", "bike_id": "36dfbac30c65a7f310a51fa0bb3285c4"}, {"lon": -77.05148866666667, "lat": 38.90530483333333, "name": "65f0e57bb3e62f444a8e71e75a937acf", "fusion_lat": 0.0, "fusion_lon": 0.0, "rental_uris": {"android": "https://dc.lft.to/lastmile_qr_scan", "ios": "https://dc.lft.to/lastmile_qr_scan"}, "is_reserved": 0, "is_disabled": 0, "type": "electric_scooter", "bike_id": "65f0e57bb3e62f444a8e71e75a937acf"}, {"lon": -77.026843, "lat": 38.89217983333333, "name": "d53b4db7d6dd96d1c262bbe9676455a2", "fusion_lat": 0.0, "fusion_lon": 0.0, "rental_uris": {"android": "https://dc.lft.to/lastmile_qr_scan", "ios": "https://dc.lft.to/lastmile_qr_scan"}, "is_reserved": 0, "is_disabled": 0, "type": "electric_scooter", "bike_id": "d53b4db7d6dd96d1c262bbe9676455a2"}, {"lon": -77.05229216666666, "lat": 38.92505633333333, "name": "a6639d25b1292e2d7100216204de9b9b", "fusion_lat": 0.0, "fusion_lon": 0.0, "rental_uris": {"android": "https://dc.lft.to/lastmile_qr_scan", "ios": "https://dc.lft.to/lastmile_qr_scan"}, "is_reserved": 0, "is_disabled": 0, "type": "electric_scooter", "bike_id": "a6639d25b1292e2d7100216204de9b9b"}, {"lon": -76.94652516666666, "lat": 38.898283166666666, "name": "bff82c96f2ebb20d13e6f38feff55670", "fusion_lat": 0.0, "fusion_lon": 0.0, "rental_uris": {"android": "https://dc.lft.to/lastmile_qr_scan", "ios": "https://dc.lft.to/lastmile_qr_scan"}, "is_reserved": 0, "is_disabled": 0, "type": "electric_scooter", "bike_id": "bff82c96f2ebb20d13e6f38feff55670"}, {"lon": -77.02212016666667, "lat": 38.88769333333333, "name": "d7df72b466f3d9cdecd4a76598e2bcc8", "fusion_lat": 0.0, "fusion_lon": 0.0, "rental_uris": {"android": "https://dc.lft.to/lastmile_qr_scan", "ios": "https://dc.lft.to/lastmile_qr_scan"}, "is_reserved": 0, "is_disabled": 0, "type": "electric_scooter", "bike_id": "d7df72b466f3d9cdecd4a76598e2bcc8"}, {"lon": -76.94892883333333, "lat": 38.895245, "name": "ea67d4938620e0dc38ca2876f4b062f3", "fusion_lat": 0.0, "fusion_lon": 0.0, "rental_uris": {"android": "https://dc.lft.to/lastmile_qr_scan", "ios": "https://dc.lft.to/lastmile_qr_scan"}, "is_reserved": 0, "is_disabled": 0, "type": "electric_scooter", "bike_id": "ea67d4938620e0dc38ca2876f4b062f3"}, {"lon": -77.0432435, "lat": 38.900257, "name": "894c6f205fc37bcd13559c9da1d6b2e5", "fusion_lat": 0.0, "fusion_lon": 0.0, "rental_uris": {"android": "https://dc.lft.to/lastmile_qr_scan", "ios": "https://dc.lft.to/lastmile_qr_scan"}, "is_reserved": 0, "is_disabled": 0, "type": "electric_scooter", "bike_id": "894c6f205fc37bcd13559c9da1d6b2e5"}, {"lon": -77.021837, "lat": 38.91883683333333, "name": "c7d063af68520ed59aabbb8616c94192", "fusion_lat": 0.0, "fusion_lon": 0.0, "rental_uris": {"android": "https://dc.lft.to/lastmile_qr_scan", "ios": "https://dc.lft.to/lastmile_qr_scan"}, "is_reserved": 0, "is_disabled": 0, "type": "electric_scooter", "bike_id": "c7d063af68520ed59aabbb8616c94192"}, {"lon": -77.00564483333333, "lat": 38.9056525, "name": "7d6ab2a12c2ba6ec88f6141e101764d6", "fusion_lat": 0.0, "fusion_lon": 0.0, "rental_uris": {"android": "https://dc.lft.to/lastmile_qr_scan", "ios": "https://dc.lft.to/lastmile_qr_scan"}, "is_reserved": 0, "is_disabled": 0, "type": "electric_scooter", "bike_id": "7d6ab2a12c2ba6ec88f6141e101764d6"}, {"lon": -77.01763883333334, "lat": 38.902590333333336, "name": "8d502b3fda7c46d70000e01341c0fc63", "fusion_lat": 0.0, "fusion_lon": 0.0, "rental_uris": {"android": "https://dc.lft.to/lastmile_qr_scan", "ios": "https://dc.lft.to/lastmile_qr_scan"}, "is_reserved": 0, "is_disabled": 0, "type": "electric_scooter", "bike_id": "8d502b3fda7c46d70000e01341c0fc63"}, {"lon": -77.05728833333333, "lat": 38.933690166666665, "name": "0d6f781497ae9e6ac7b1cdbbf825f0e0", "fusion_lat": 0.0, "fusion_lon": 0.0, "rental_uris": {"android": "https://dc.lft.to/lastmile_qr_scan", "ios": "https://dc.lft.to/lastmile_qr_scan"}, "is_reserved": 0, "is_disabled": 0, "type": "electric_scooter", "bike_id": "0d6f781497ae9e6ac7b1cdbbf825f0e0"}, {"lon": -76.90816116666667, "lat": 38.9945565, "name": "83434dda6f2d5b2a3640dc6b9986027c", "fusion_lat": 0.0, "fusion_lon": 0.0, "rental_uris": {"android": "https://dc.lft.to/lastmile_qr_scan", "ios": "https://dc.lft.to/lastmile_qr_scan"}, "is_reserved": 0, "is_disabled": 0, "type": "electric_bike", "bike_id": "83434dda6f2d5b2a3640dc6b9986027c"}, {"lon": -77.04820466666666, "lat": 38.91337466666667, "name": "35e4acc7074eb6a79f4ee017e45d6bd3", "fusion_lat": 0.0, "fusion_lon": 0.0, "rental_uris": {"android": "https://dc.lft.to/lastmile_qr_scan", "ios": "https://dc.lft.to/lastmile_qr_scan"}, "is_reserved": 0, "is_disabled": 0, "type": "electric_scooter", "bike_id": "35e4acc7074eb6a79f4ee017e45d6bd3"}, {"lon": -77.03212216666667, "lat": 38.929747666666664, "name": "1adb91021aef79ee3e4848fe3bce19e5", "fusion_lat": 0.0, "fusion_lon": 0.0, "rental_uris": {"android": "https://dc.lft.to/lastmile_qr_scan", "ios": "https://dc.lft.to/lastmile_qr_scan"}, "is_reserved": 0, "is_disabled": 0, "type": "electric_scooter", "bike_id": "1adb91021aef79ee3e4848fe3bce19e5"}, {"lon": -77.02588066666667, "lat": 38.892441, "name": "632e2968fc07269c0840dbe9575b69ce", "fusion_lat": 0.0, "fusion_lon": 0.0, "rental_uris": {"android": "https://dc.lft.to/lastmile_qr_scan", "ios": "https://dc.lft.to/lastmile_qr_scan"}, "is_reserved": 0, "is_disabled": 0, "type": "electric_scooter", "bike_id": "632e2968fc07269c0840dbe9575b69ce"}, {"lon": -77.03462383333333, "lat": 38.907307333333335, "name": "d8f9c02b63e5b6f2e72d407d0ad42b15", "fusion_lat": 0.0, "fusion_lon": 0.0, "rental_uris": {"android": "https://dc.lft.to/lastmile_qr_scan", "ios": "https://dc.lft.to/lastmile_qr_scan"}, "is_reserved": 0, "is_disabled": 0, "type": "electric_scooter", "bike_id": "d8f9c02b63e5b6f2e72d407d0ad42b15"}, {"lon": -77.0485795, "lat": 38.904775666666666, "name": "7f610540e0e1c838c3232824f59ba456", "fusion_lat": 0.0, "fusion_lon": 0.0, "rental_uris": {"android": "https://dc.lft.to/lastmile_qr_scan", "ios": "https://dc.lft.to/lastmile_qr_scan"}, "is_reserved": 0, "is_disabled": 0, "type": "electric_scooter", "bike_id": "7f610540e0e1c838c3232824f59ba456"}, {"lon": -77.0280285, "lat": 38.904373666666665, "name": "91c27b1ccebc3f62ccf30593c87c4801", "fusion_lat": 0.0, "fusion_lon": 0.0, "rental_uris": {"android": "https://dc.lft.to/lastmile_qr_scan", "ios": "https://dc.lft.to/lastmile_qr_scan"}, "is_reserved": 0, "is_disabled": 0, "type": "electric_scooter", "bike_id": "91c27b1ccebc3f62ccf30593c87c4801"}, {"lon": -76.9843635, "lat": 38.9142645, "name": "9739681f40844aebefe8275adf2fb941", "fusion_lat": 0.0, "fusion_lon": 0.0, "rental_uris": {"android": "https://dc.lft.to/lastmile_qr_scan", "ios": "https://dc.lft.to/lastmile_qr_scan"}, "is_reserved": 0, "is_disabled": 0, "type": "electric_scooter", "bike_id": "9739681f40844aebefe8275adf2fb941"}, {"lon": -76.9855005, "lat": 38.910311666666665, "name": "b04da0e489faf44beaf31bdb63cfb39b", "fusion_lat": 0.0, "fusion_lon": 0.0, "rental_uris": {"android": "https://dc.lft.to/lastmile_qr_scan", "ios": "https://dc.lft.to/lastmile_qr_scan"}, "is_reserved": 0, "is_disabled": 0, "type": "electric_bike", "bike_id": "b04da0e489faf44beaf31bdb63cfb39b"}, {"lon": -77.03942666666667, "lat": 38.9081775, "name": "b6067c5ccc3e697e67cd9fca97346bd7", "fusion_lat": 0.0, "fusion_lon": 0.0, "rental_uris": {"android": "https://dc.lft.to/lastmile_qr_scan", "ios": "https://dc.lft.to/lastmile_qr_scan"}, "is_reserved": 0, "is_disabled": 0, "type": "electric_scooter", "bike_id": "b6067c5ccc3e697e67cd9fca97346bd7"}, {"lon": -77.02390283333334, "lat": 38.93429233333333, "name": "66e384364ffb1bd43c23e91ccb5b444d", "fusion_lat": 0.0, "fusion_lon": 0.0, "rental_uris": {"android": "https://dc.lft.to/lastmile_qr_scan", "ios": "https://dc.lft.to/lastmile_qr_scan"}, "is_reserved": 0, "is_disabled": 0, "type": "electric_scooter", "bike_id": "66e384364ffb1bd43c23e91ccb5b444d"}, {"lon": -77.04697283333333, "lat": 38.92133966666667, "name": "4da64c1855ee0a86c5b40fe7fe9133ee", "fusion_lat": 0.0, "fusion_lon": 0.0, "rental_uris": {"android": "https://dc.lft.to/lastmile_qr_scan", "ios": "https://dc.lft.to/lastmile_qr_scan"}, "is_reserved": 0, "is_disabled": 0, "type": "electric_scooter", "bike_id": "4da64c1855ee0a86c5b40fe7fe9133ee"}, {"lon": -77.03640533333333, "lat": 38.90267633333333, "name": "8d21419a1c7fa28fbf2f1445bac008f8", "fusion_lat": 0.0, "fusion_lon": 0.0, "rental_uris": {"android": "https://dc.lft.to/lastmile_qr_scan", "ios": "https://dc.lft.to/lastmile_qr_scan"}, "is_reserved": 0, "is_disabled": 0, "type": "electric_scooter", "bike_id": "8d21419a1c7fa28fbf2f1445bac008f8"}, {"lon": -76.946679, "lat": 38.89870833333333, "name": "065519a48c18c8749c6296cdfc8590c9", "fusion_lat": 0.0, "fusion_lon": 0.0, "rental_uris": {"android": "https://dc.lft.to/lastmile_qr_scan", "ios": "https://dc.lft.to/lastmile_qr_scan"}, "is_reserved": 0, "is_disabled": 0, "type": "electric_scooter", "bike_id": "065519a48c18c8749c6296cdfc8590c9"}, {"lon": -77.00336416666667, "lat": 38.89357583333334, "name": "02e8d19fda604ccde9b086cb90829213", "fusion_lat": 0.0, "fusion_lon": 0.0, "rental_uris": {"android": "https://dc.lft.to/lastmile_qr_scan", "ios": "https://dc.lft.to/lastmile_qr_scan"}, "is_reserved": 0, "is_disabled": 0, "type": "electric_scooter", "bike_id": "02e8d19fda604ccde9b086cb90829213"}, {"lon": -77.02584766666666, "lat": 38.89244566666667, "name": "0336a2ab9e0951cc0d194edfb07d2487", "fusion_lat": 0.0, "fusion_lon": 0.0, "rental_uris": {"android": "https://dc.lft.to/lastmile_qr_scan", "ios": "https://dc.lft.to/lastmile_qr_scan"}, "is_reserved": 0, "is_disabled": 0, "type": "electric_scooter", "bike_id": "0336a2ab9e0951cc0d194edfb07d2487"}, {"lon": -77.04740383333333, "lat": 38.91255916666667, "name": "ee0897ba9f164f0d3aa6b86d57a9fffd", "fusion_lat": 0.0, "fusion_lon": 0.0, "rental_uris": {"android": "https://dc.lft.to/lastmile_qr_scan", "ios": "https://dc.lft.to/lastmile_qr_scan"}, "is_reserved": 0, "is_disabled": 0, "type": "electric_scooter", "bike_id": "ee0897ba9f164f0d3aa6b86d57a9fffd"}, {"lon": -77.04687333333334, "lat": 38.921009166666664, "name": "1981b0c7d54cd0a6ad571f4fb2647130", "fusion_lat": 0.0, "fusion_lon": 0.0, "rental_uris": {"android": "https://dc.lft.to/lastmile_qr_scan", "ios": "https://dc.lft.to/lastmile_qr_scan"}, "is_reserved": 0, "is_disabled": 0, "type": "electric_scooter", "bike_id": "1981b0c7d54cd0a6ad571f4fb2647130"}, {"lon": -77.038188, "lat": 38.9206255, "name": "b0aa7c9eb5c6b0906bd8c519fa60a546", "fusion_lat": 0.0, "fusion_lon": 0.0, "rental_uris": {"android": "https://dc.lft.to/lastmile_qr_scan", "ios": "https://dc.lft.to/lastmile_qr_scan"}, "is_reserved": 0, "is_disabled": 0, "type": "electric_scooter", "bike_id": "b0aa7c9eb5c6b0906bd8c519fa60a546"}, {"lon": -77.0448035, "lat": 38.9108045, "name": "c9840102c0b3691fb7c3c16ea7771b24", "fusion_lat": 0.0, "fusion_lon": 0.0, "rental_uris": {"android": "https://dc.lft.to/lastmile_qr_scan", "ios": "https://dc.lft.to/lastmile_qr_scan"}, "is_reserved": 0, "is_disabled": 0, "type": "electric_scooter", "bike_id": "c9840102c0b3691fb7c3c16ea7771b24"}, {"lon": -77.00209266666667, "lat": 38.952422166666665, "name": "ad29b986899dd5627bbff201d62034ad", "fusion_lat": 0.0, "fusion_lon": 0.0, "rental_uris": {"android": "https://dc.lft.to/lastmile_qr_scan", "ios": "https://dc.lft.to/lastmile_qr_scan"}, "is_reserved": 0, "is_disabled": 0, "type": "electric_scooter", "bike_id": "ad29b986899dd5627bbff201d62034ad"}, {"lon": -77.04784416666666, "lat": 38.8936565, "name": "d47dca7d0d7faf94a277ceebd0903a7c", "fusion_lat": 0.0, "fusion_lon": 0.0, "rental_uris": {"android": "https://dc.lft.to/lastmile_qr_scan", "ios": "https://dc.lft.to/lastmile_qr_scan"}, "is_reserved": 0, "is_disabled": 0, "type": "electric_scooter", "bike_id": "d47dca7d0d7faf94a277ceebd0903a7c"}, {"lon": -77.03210216666666, "lat": 38.89406316666667, "name": "82a51c4070ffa8277baeddbcf4213905", "fusion_lat": 0.0, "fusion_lon": 0.0, "rental_uris": {"android": "https://dc.lft.to/lastmile_qr_scan", "ios": "https://dc.lft.to/lastmile_qr_scan"}, "is_reserved": 0, "is_disabled": 0, "type": "electric_scooter", "bike_id": "82a51c4070ffa8277baeddbcf4213905"}, {"lon": -77.03701383333333, "lat": 38.92644333333333, "name": "6c12d85c95051f0fc9a3864db3a30c72", "fusion_lat": 0.0, "fusion_lon": 0.0, "rental_uris": {"android": "https://dc.lft.to/lastmile_qr_scan", "ios": "https://dc.lft.to/lastmile_qr_scan"}, "is_reserved": 0, "is_disabled": 0, "type": "electric_scooter", "bike_id": "6c12d85c95051f0fc9a3864db3a30c72"}, {"lon": -77.00304733333333, "lat": 38.91155466666667, "name": "033e700648283343554079ce0d8b6905", "fusion_lat": 0.0, "fusion_lon": 0.0, "rental_uris": {"android": "https://dc.lft.to/lastmile_qr_scan", "ios": "https://dc.lft.to/lastmile_qr_scan"}, "is_reserved": 0, "is_disabled": 0, "type": "electric_bike", "bike_id": "033e700648283343554079ce0d8b6905"}, {"lon": -77.04120983333334, "lat": 38.918950833333334, "name": "bd32efad6ee658c01bfc79f21c9fbf3c", "fusion_lat": 0.0, "fusion_lon": 0.0, "rental_uris": {"android": "https://dc.lft.to/lastmile_qr_scan", "ios": "https://dc.lft.to/lastmile_qr_scan"}, "is_reserved": 0, "is_disabled": 0, "type": "electric_scooter", "bike_id": "bd32efad6ee658c01bfc79f21c9fbf3c"}, {"lon": -77.023989, "lat": 38.920016833333335, "name": "091fc027d4cc5334da3e18e2d6395dca", "fusion_lat": 0.0, "fusion_lon": 0.0, "rental_uris": {"android": "https://dc.lft.to/lastmile_qr_scan", "ios": "https://dc.lft.to/lastmile_qr_scan"}, "is_reserved": 0, "is_disabled": 0, "type": "electric_scooter", "bike_id": "091fc027d4cc5334da3e18e2d6395dca"}, {"lon": -77.04829616666666, "lat": 38.90056833333333, "name": "9b93e1d8bc3de52b151aab45d811397d", "fusion_lat": 0.0, "fusion_lon": 0.0, "rental_uris": {"android": "https://dc.lft.to/lastmile_qr_scan", "ios": "https://dc.lft.to/lastmile_qr_scan"}, "is_reserved": 0, "is_disabled": 0, "type": "electric_scooter", "bike_id": "9b93e1d8bc3de52b151aab45d811397d"}, {"lon": -77.031699, "lat": 38.909595, "name": "70e72783e3f738a06ead6f23fc794c73", "fusion_lat": 0.0, "fusion_lon": 0.0, "rental_uris": {"android": "https://dc.lft.to/lastmile_qr_scan", "ios": "https://dc.lft.to/lastmile_qr_scan"}, "is_reserved": 0, "is_disabled": 0, "type": "electric_scooter", "bike_id": "70e72783e3f738a06ead6f23fc794c73"}, {"lon": -77.03473016666666, "lat": 38.917049166666665, "name": "c8f2e3563c9fce980f121177e4093d54", "fusion_lat": 0.0, "fusion_lon": 0.0, "rental_uris": {"android": "https://dc.lft.to/lastmile_qr_scan", "ios": "https://dc.lft.to/lastmile_qr_scan"}, "is_reserved": 0, "is_disabled": 0, "type": "electric_scooter", "bike_id": "c8f2e3563c9fce980f121177e4093d54"}, {"lon": -77.06344433333334, "lat": 38.906805, "name": "accfa77feb3ecf733f68e55e2a83b518", "fusion_lat": 0.0, "fusion_lon": 0.0, "rental_uris": {"android": "https://dc.lft.to/lastmile_qr_scan", "ios": "https://dc.lft.to/lastmile_qr_scan"}, "is_reserved": 0, "is_disabled": 0, "type": "electric_scooter", "bike_id": "accfa77feb3ecf733f68e55e2a83b518"}, {"lon": -77.03683966666667, "lat": 38.92265016666666, "name": "458ca6478c217016d64da627679ba7f1", "fusion_lat": 0.0, "fusion_lon": 0.0, "rental_uris": {"android": "https://dc.lft.to/lastmile_qr_scan", "ios": "https://dc.lft.to/lastmile_qr_scan"}, "is_reserved": 0, "is_disabled": 0, "type": "electric_scooter", "bike_id": "458ca6478c217016d64da627679ba7f1"}, {"lon": -77.00814833333334, "lat": 38.90555466666667, "name": "c524afff4a724694b1fe99716114279d", "fusion_lat": 0.0, "fusion_lon": 0.0, "rental_uris": {"android": "https://dc.lft.to/lastmile_qr_scan", "ios": "https://dc.lft.to/lastmile_qr_scan"}, "is_reserved": 0, "is_disabled": 0, "type": "electric_scooter", "bike_id": "c524afff4a724694b1fe99716114279d"}, {"lon": -77.00213283333333, "lat": 38.924522, "name": "9a8482ce80392739910f519ec2dd0206", "fusion_lat": 0.0, "fusion_lon": 0.0, "rental_uris": {"android": "https://dc.lft.to/lastmile_qr_scan", "ios": "https://dc.lft.to/lastmile_qr_scan"}, "is_reserved": 0, "is_disabled": 0, "type": "electric_scooter", "bike_id": "9a8482ce80392739910f519ec2dd0206"}, {"lon": -77.03131433333333, "lat": 38.9191705, "name": "2fc722c3ad26668d6ed81d557bd86f57", "fusion_lat": 0.0, "fusion_lon": 0.0, "rental_uris": {"android": "https://dc.lft.to/lastmile_qr_scan", "ios": "https://dc.lft.to/lastmile_qr_scan"}, "is_reserved": 0, "is_disabled": 0, "type": "electric_scooter", "bike_id": "2fc722c3ad26668d6ed81d557bd86f57"}, {"lon": -77.02761816666667, "lat": 38.913445, "name": "4936c48ff6a22d831afc9f55467b5a8b", "fusion_lat": 0.0, "fusion_lon": 0.0, "rental_uris": {"android": "https://dc.lft.to/lastmile_qr_scan", "ios": "https://dc.lft.to/lastmile_qr_scan"}, "is_reserved": 0, "is_disabled": 0, "type": "electric_scooter", "bike_id": "4936c48ff6a22d831afc9f55467b5a8b"}, {"lon": -76.98410383333334, "lat": 38.89993316666666, "name": "47253920902373b311c9e1fdc97b963a", "fusion_lat": 0.0, "fusion_lon": 0.0, "rental_uris": {"android": "https://dc.lft.to/lastmile_qr_scan", "ios": "https://dc.lft.to/lastmile_qr_scan"}, "is_reserved": 0, "is_disabled": 0, "type": "electric_scooter", "bike_id": "47253920902373b311c9e1fdc97b963a"}, {"lon": -77.005892, "lat": 38.89801716666667, "name": "da8d581123eb4dc920c4fcb768c162d0", "fusion_lat": 0.0, "fusion_lon": 0.0, "rental_uris": {"android": "https://dc.lft.to/lastmile_qr_scan", "ios": "https://dc.lft.to/lastmile_qr_scan"}, "is_reserved": 0, "is_disabled": 0, "type": "electric_bike", "bike_id": "da8d581123eb4dc920c4fcb768c162d0"}, {"lon": -76.9192265, "lat": 38.8907665, "name": "cf2a9b7d8c6eb8ca3f22bc46fbc0dc25", "fusion_lat": 0.0, "fusion_lon": 0.0, "rental_uris": {"android": "https://dc.lft.to/lastmile_qr_scan", "ios": "https://dc.lft.to/lastmile_qr_scan"}, "is_reserved": 0, "is_disabled": 0, "type": "electric_scooter", "bike_id": "cf2a9b7d8c6eb8ca3f22bc46fbc0dc25"}, {"lon": -77.04700966666667, "lat": 38.92154816666667, "name": "ec58c6224db62b6762c714e4b4db1ea8", "fusion_lat": 0.0, "fusion_lon": 0.0, "rental_uris": {"android": "https://dc.lft.to/lastmile_qr_scan", "ios": "https://dc.lft.to/lastmile_qr_scan"}, "is_reserved": 0, "is_disabled": 0, "type": "electric_scooter", "bike_id": "ec58c6224db62b6762c714e4b4db1ea8"}, {"lon": -77.012045, "lat": 38.893137, "name": "f236bd905e1eaa72ffe78c14a1a8d059", "fusion_lat": 0.0, "fusion_lon": 0.0, "rental_uris": {"android": "https://dc.lft.to/lastmile_qr_scan", "ios": "https://dc.lft.to/lastmile_qr_scan"}, "is_reserved": 0, "is_disabled": 0, "type": "electric_scooter", "bike_id": "f236bd905e1eaa72ffe78c14a1a8d059"}, {"lon": -77.00342166666667, "lat": 38.893561, "name": "6617e240ec63374c9fd6e9a086c7d6da", "fusion_lat": 0.0, "fusion_lon": 0.0, "rental_uris": {"android": "https://dc.lft.to/lastmile_qr_scan", "ios": "https://dc.lft.to/lastmile_qr_scan"}, "is_reserved": 0, "is_disabled": 0, "type": "electric_scooter", "bike_id": "6617e240ec63374c9fd6e9a086c7d6da"}, {"lon": -76.93433516666667, "lat": 38.899653, "name": "aea5932f2000ebb4a7b979edd208b85a", "fusion_lat": 0.0, "fusion_lon": 0.0, "rental_uris": {"android": "https://dc.lft.to/lastmile_qr_scan", "ios": "https://dc.lft.to/lastmile_qr_scan"}, "is_reserved": 0, "is_disabled": 0, "type": "electric_scooter", "bike_id": "aea5932f2000ebb4a7b979edd208b85a"}, {"lon": -76.99275366666667, "lat": 38.89981616666667, "name": "70609dd3db2f9c362fd217a5db19fb88", "fusion_lat": 0.0, "fusion_lon": 0.0, "rental_uris": {"android": "https://dc.lft.to/lastmile_qr_scan", "ios": "https://dc.lft.to/lastmile_qr_scan"}, "is_reserved": 0, "is_disabled": 0, "type": "electric_scooter", "bike_id": "70609dd3db2f9c362fd217a5db19fb88"}, {"lon": -77.02308133333334, "lat": 38.9178085, "name": "8e32e6489d4333196959b5fef7cf5b94", "fusion_lat": 0.0, "fusion_lon": 0.0, "rental_uris": {"android": "https://dc.lft.to/lastmile_qr_scan", "ios": "https://dc.lft.to/lastmile_qr_scan"}, "is_reserved": 0, "is_disabled": 0, "type": "electric_scooter", "bike_id": "8e32e6489d4333196959b5fef7cf5b94"}, {"lon": -76.990069, "lat": 38.86508216666667, "name": "1c756b35030dd3a41df9c9727d387a1a", "fusion_lat": 0.0, "fusion_lon": 0.0, "rental_uris": {"android": "https://dc.lft.to/lastmile_qr_scan", "ios": "https://dc.lft.to/lastmile_qr_scan"}, "is_reserved": 0, "is_disabled": 0, "type": "electric_scooter", "bike_id": "1c756b35030dd3a41df9c9727d387a1a"}, {"lon": -77.05139883333334, "lat": 38.90818766666666, "name": "b8cb8d23509f4e44ebe7d21330826456", "fusion_lat": 0.0, "fusion_lon": 0.0, "rental_uris": {"android": "https://dc.lft.to/lastmile_qr_scan", "ios": "https://dc.lft.to/lastmile_qr_scan"}, "is_reserved": 0, "is_disabled": 0, "type": "electric_scooter", "bike_id": "b8cb8d23509f4e44ebe7d21330826456"}, {"lon": -77.01217, "lat": 38.914958166666665, "name": "16484d7a7310f0d1187c0b5889579369", "fusion_lat": 0.0, "fusion_lon": 0.0, "rental_uris": {"android": "https://dc.lft.to/lastmile_qr_scan", "ios": "https://dc.lft.to/lastmile_qr_scan"}, "is_reserved": 0, "is_disabled": 0, "type": "electric_scooter", "bike_id": "16484d7a7310f0d1187c0b5889579369"}, {"lon": -76.99414716666666, "lat": 38.90144033333333, "name": "37cf0bf046ab11f53b53da577d2ccbb9", "fusion_lat": 0.0, "fusion_lon": 0.0, "rental_uris": {"android": "https://dc.lft.to/lastmile_qr_scan", "ios": "https://dc.lft.to/lastmile_qr_scan"}, "is_reserved": 0, "is_disabled": 0, "type": "electric_scooter", "bike_id": "37cf0bf046ab11f53b53da577d2ccbb9"}, {"lon": -77.024048, "lat": 38.93497266666667, "name": "e0eb16d9b7168ab36b16b41acb970cb4", "fusion_lat": 0.0, "fusion_lon": 0.0, "rental_uris": {"android": "https://dc.lft.to/lastmile_qr_scan", "ios": "https://dc.lft.to/lastmile_qr_scan"}, "is_reserved": 0, "is_disabled": 0, "type": "electric_scooter", "bike_id": "e0eb16d9b7168ab36b16b41acb970cb4"}, {"lon": -76.92997933333334, "lat": 38.887973333333335, "name": "57a743cf0477c0b0906fe7816aa4f25b", "fusion_lat": 0.0, "fusion_lon": 0.0, "rental_uris": {"android": "https://dc.lft.to/lastmile_qr_scan", "ios": "https://dc.lft.to/lastmile_qr_scan"}, "is_reserved": 0, "is_disabled": 0, "type": "electric_bike", "bike_id": "57a743cf0477c0b0906fe7816aa4f25b"}, {"lon": -77.07929666666666, "lat": 38.9487365, "name": "ea9c684bf724088a9404dd72dea18767", "fusion_lat": 0.0, "fusion_lon": 0.0, "rental_uris": {"android": "https://dc.lft.to/lastmile_qr_scan", "ios": "https://dc.lft.to/lastmile_qr_scan"}, "is_reserved": 0, "is_disabled": 0, "type": "electric_scooter", "bike_id": "ea9c684bf724088a9404dd72dea18767"}, {"lon": -76.99026466666666, "lat": 38.86408466666666, "name": "e073f66b314b9c6aedf261e47bcd16cd", "fusion_lat": 0.0, "fusion_lon": 0.0, "rental_uris": {"android": "https://dc.lft.to/lastmile_qr_scan", "ios": "https://dc.lft.to/lastmile_qr_scan"}, "is_reserved": 0, "is_disabled": 0, "type": "electric_scooter", "bike_id": "e073f66b314b9c6aedf261e47bcd16cd"}, {"lon": -77.00344383333334, "lat": 38.903605166666665, "name": "e0782c35902edbb8ddf44b8675a9b5c9", "fusion_lat": 0.0, "fusion_lon": 0.0, "rental_uris": {"android": "https://dc.lft.to/lastmile_qr_scan", "ios": "https://dc.lft.to/lastmile_qr_scan"}, "is_reserved": 0, "is_disabled": 0, "type": "electric_scooter", "bike_id": "e0782c35902edbb8ddf44b8675a9b5c9"}, {"lon": -77.01357283333333, "lat": 38.8759585, "name": "b204577b6054678447cac872d9967741", "fusion_lat": 0.0, "fusion_lon": 0.0, "rental_uris": {"android": "https://dc.lft.to/lastmile_qr_scan", "ios": "https://dc.lft.to/lastmile_qr_scan"}, "is_reserved": 0, "is_disabled": 0, "type": "electric_scooter", "bike_id": "b204577b6054678447cac872d9967741"}, {"lon": -77.0239025, "lat": 38.95736483333334, "name": "80ddb1a5af6f53976ea1a1dcdb94fb5d", "fusion_lat": 0.0, "fusion_lon": 0.0, "rental_uris": {"android": "https://dc.lft.to/lastmile_qr_scan", "ios": "https://dc.lft.to/lastmile_qr_scan"}, "is_reserved": 0, "is_disabled": 0, "type": "electric_scooter", "bike_id": "80ddb1a5af6f53976ea1a1dcdb94fb5d"}, {"lon": -77.04966316666666, "lat": 38.91261, "name": "a6c640ce0af8ec49fd0a32d52206101b", "fusion_lat": 0.0, "fusion_lon": 0.0, "rental_uris": {"android": "https://dc.lft.to/lastmile_qr_scan", "ios": "https://dc.lft.to/lastmile_qr_scan"}, "is_reserved": 0, "is_disabled": 0, "type": "electric_scooter", "bike_id": "a6c640ce0af8ec49fd0a32d52206101b"}, {"lon": -77.03965316666667, "lat": 38.91988883333333, "name": "317e70639a15a3f5aa449272a4f82326", "fusion_lat": 0.0, "fusion_lon": 0.0, "rental_uris": {"android": "https://dc.lft.to/lastmile_qr_scan", "ios": "https://dc.lft.to/lastmile_qr_scan"}, "is_reserved": 0, "is_disabled": 0, "type": "electric_scooter", "bike_id": "317e70639a15a3f5aa449272a4f82326"}, {"lon": -77.05322533333333, "lat": 38.902682, "name": "c3ec758997a1350c633d48dbe6c6a2db", "fusion_lat": 0.0, "fusion_lon": 0.0, "rental_uris": {"android": "https://dc.lft.to/lastmile_qr_scan", "ios": "https://dc.lft.to/lastmile_qr_scan"}, "is_reserved": 0, "is_disabled": 0, "type": "electric_scooter", "bike_id": "c3ec758997a1350c633d48dbe6c6a2db"}, {"lon": -76.98780166666667, "lat": 38.90030216666667, "name": "4925fc359a8d7575e806a298cdffa065", "fusion_lat": 0.0, "fusion_lon": 0.0, "rental_uris": {"android": "https://dc.lft.to/lastmile_qr_scan", "ios": "https://dc.lft.to/lastmile_qr_scan"}, "is_reserved": 0, "is_disabled": 0, "type": "electric_scooter", "bike_id": "4925fc359a8d7575e806a298cdffa065"}, {"lon": -77.02635533333333, "lat": 38.915512, "name": "e4e03d075592191a78870493e4902dd8", "fusion_lat": 0.0, "fusion_lon": 0.0, "rental_uris": {"android": "https://dc.lft.to/lastmile_qr_scan", "ios": "https://dc.lft.to/lastmile_qr_scan"}, "is_reserved": 0, "is_disabled": 0, "type": "electric_scooter", "bike_id": "e4e03d075592191a78870493e4902dd8"}, {"lon": -76.909707, "lat": 38.85428566666667, "name": "8e45916a37d459cc2930027c1e9896d7", "fusion_lat": 0.0, "fusion_lon": 0.0, "rental_uris": {"android": "https://dc.lft.to/lastmile_qr_scan", "ios": "https://dc.lft.to/lastmile_qr_scan"}, "is_reserved": 0, "is_disabled": 0, "type": "electric_bike", "bike_id": "8e45916a37d459cc2930027c1e9896d7"}, {"lon": -77.00676966666667, "lat": 38.895927666666665, "name": "93560fda1ce2fb6225ba486d9cd92810", "fusion_lat": 0.0, "fusion_lon": 0.0, "rental_uris": {"android": "https://dc.lft.to/lastmile_qr_scan", "ios": "https://dc.lft.to/lastmile_qr_scan"}, "is_reserved": 0, "is_disabled": 0, "type": "electric_scooter", "bike_id": "93560fda1ce2fb6225ba486d9cd92810"}, {"lon": -77.0231195, "lat": 38.917816, "name": "6f611376917ee1ea4b30804507af4c44", "fusion_lat": 0.0, "fusion_lon": 0.0, "rental_uris": {"android": "https://dc.lft.to/lastmile_qr_scan", "ios": "https://dc.lft.to/lastmile_qr_scan"}, "is_reserved": 0, "is_disabled": 0, "type": "electric_scooter", "bike_id": "6f611376917ee1ea4b30804507af4c44"}, {"lon": -77.04372916666667, "lat": 38.892211833333334, "name": "f1b66929c43824243f66c69447ae2949", "fusion_lat": 0.0, "fusion_lon": 0.0, "rental_uris": {"android": "https://dc.lft.to/lastmile_qr_scan", "ios": "https://dc.lft.to/lastmile_qr_scan"}, "is_reserved": 0, "is_disabled": 0, "type": "electric_scooter", "bike_id": "f1b66929c43824243f66c69447ae2949"}, {"lon": -77.018731, "lat": 38.8874825, "name": "b74fd6f8ef006b2e9c7f563bac022d47", "fusion_lat": 0.0, "fusion_lon": 0.0, "rental_uris": {"android": "https://dc.lft.to/lastmile_qr_scan", "ios": "https://dc.lft.to/lastmile_qr_scan"}, "is_reserved": 0, "is_disabled": 0, "type": "electric_scooter", "bike_id": "b74fd6f8ef006b2e9c7f563bac022d47"}, {"lon": -77.0259715, "lat": 38.9047675, "name": "e009af940f6614d4aaebc01f60075b01", "fusion_lat": 0.0, "fusion_lon": 0.0, "rental_uris": {"android": "https://dc.lft.to/lastmile_qr_scan", "ios": "https://dc.lft.to/lastmile_qr_scan"}, "is_reserved": 0, "is_disabled": 0, "type": "electric_scooter", "bike_id": "e009af940f6614d4aaebc01f60075b01"}, {"lon": -77.033492, "lat": 38.89529483333333, "name": "166b3321689fd5efd1b7a845cb3fae90", "fusion_lat": 0.0, "fusion_lon": 0.0, "rental_uris": {"android": "https://dc.lft.to/lastmile_qr_scan", "ios": "https://dc.lft.to/lastmile_qr_scan"}, "is_reserved": 0, "is_disabled": 0, "type": "electric_scooter", "bike_id": "166b3321689fd5efd1b7a845cb3fae90"}, {"lon": -77.04578766666667, "lat": 38.916273333333336, "name": "c65c092cfd61741aa03b65f840c3dfcc", "fusion_lat": 0.0, "fusion_lon": 0.0, "rental_uris": {"android": "https://dc.lft.to/lastmile_qr_scan", "ios": "https://dc.lft.to/lastmile_qr_scan"}, "is_reserved": 0, "is_disabled": 0, "type": "electric_bike", "bike_id": "c65c092cfd61741aa03b65f840c3dfcc"}, {"lon": -77.02726783333334, "lat": 38.899821833333334, "name": "1e931c9f864b86c21f25a4cef4a7c9df", "fusion_lat": 0.0, "fusion_lon": 0.0, "rental_uris": {"android": "https://dc.lft.to/lastmile_qr_scan", "ios": "https://dc.lft.to/lastmile_qr_scan"}, "is_reserved": 0, "is_disabled": 0, "type": "electric_scooter", "bike_id": "1e931c9f864b86c21f25a4cef4a7c9df"}, {"lon": -77.03551, "lat": 38.9082595, "name": "a2a4a1f2dec02d230c6c1b703534c2f1", "fusion_lat": 0.0, "fusion_lon": 0.0, "rental_uris": {"android": "https://dc.lft.to/lastmile_qr_scan", "ios": "https://dc.lft.to/lastmile_qr_scan"}, "is_reserved": 0, "is_disabled": 0, "type": "electric_scooter", "bike_id": "a2a4a1f2dec02d230c6c1b703534c2f1"}, {"lon": -77.0266295, "lat": 38.93860983333333, "name": "ac5d7a2f3795a451d8c5ebe2312da9a9", "fusion_lat": 0.0, "fusion_lon": 0.0, "rental_uris": {"android": "https://dc.lft.to/lastmile_qr_scan", "ios": "https://dc.lft.to/lastmile_qr_scan"}, "is_reserved": 0, "is_disabled": 0, "type": "electric_scooter", "bike_id": "ac5d7a2f3795a451d8c5ebe2312da9a9"}, {"lon": -77.00665433333333, "lat": 38.8748345, "name": "1cca97589c79c5149bcce103fc4c3073", "fusion_lat": 0.0, "fusion_lon": 0.0, "rental_uris": {"android": "https://dc.lft.to/lastmile_qr_scan", "ios": "https://dc.lft.to/lastmile_qr_scan"}, "is_reserved": 0, "is_disabled": 0, "type": "electric_scooter", "bike_id": "1cca97589c79c5149bcce103fc4c3073"}, {"lon": -77.04797866666667, "lat": 38.900376666666666, "name": "fec6485546de4fa8524615eaf39af18a", "fusion_lat": 0.0, "fusion_lon": 0.0, "rental_uris": {"android": "https://dc.lft.to/lastmile_qr_scan", "ios": "https://dc.lft.to/lastmile_qr_scan"}, "is_reserved": 0, "is_disabled": 0, "type": "electric_scooter", "bike_id": "fec6485546de4fa8524615eaf39af18a"}, {"lon": -77.04630766666666, "lat": 38.919189333333335, "name": "9826162a3adfac479384a97207184ab9", "fusion_lat": 0.0, "fusion_lon": 0.0, "rental_uris": {"android": "https://dc.lft.to/lastmile_qr_scan", "ios": "https://dc.lft.to/lastmile_qr_scan"}, "is_reserved": 0, "is_disabled": 0, "type": "electric_scooter", "bike_id": "9826162a3adfac479384a97207184ab9"}, {"lon": -77.14123266666667, "lat": 38.816044166666664, "name": "c4c716032851d4e10ea5be8649cff64d", "fusion_lat": 0.0, "fusion_lon": 0.0, "rental_uris": {"android": "https://dc.lft.to/lastmile_qr_scan", "ios": "https://dc.lft.to/lastmile_qr_scan"}, "is_reserved": 0, "is_disabled": 0, "type": "electric_bike", "bike_id": "c4c716032851d4e10ea5be8649cff64d"}, {"lon": -77.027659, "lat": 38.89192366666666, "name": "60757f84a4b5dbda4736710d0db36146", "fusion_lat": 0.0, "fusion_lon": 0.0, "rental_uris": {"android": "https://dc.lft.to/lastmile_qr_scan", "ios": "https://dc.lft.to/lastmile_qr_scan"}, "is_reserved": 0, "is_disabled": 0, "type": "electric_scooter", "bike_id": "60757f84a4b5dbda4736710d0db36146"}, {"lon": -77.00042716666667, "lat": 38.87378666666667, "name": "71aa6960f2b127d874cf646c3d6c4e9a", "fusion_lat": 0.0, "fusion_lon": 0.0, "rental_uris": {"android": "https://dc.lft.to/lastmile_qr_scan", "ios": "https://dc.lft.to/lastmile_qr_scan"}, "is_reserved": 0, "is_disabled": 0, "type": "electric_scooter", "bike_id": "71aa6960f2b127d874cf646c3d6c4e9a"}, {"lon": -77.04974316666667, "lat": 38.90114616666666, "name": "56a01d1ae8833cce049b2e6e9f9b3fe9", "fusion_lat": 0.0, "fusion_lon": 0.0, "rental_uris": {"android": "https://dc.lft.to/lastmile_qr_scan", "ios": "https://dc.lft.to/lastmile_qr_scan"}, "is_reserved": 0, "is_disabled": 0, "type": "electric_scooter", "bike_id": "56a01d1ae8833cce049b2e6e9f9b3fe9"}, {"lon": -77.0234015, "lat": 38.933173833333335, "name": "b59180e182e6821244c5543a9cd169a3", "fusion_lat": 0.0, "fusion_lon": 0.0, "rental_uris": {"android": "https://dc.lft.to/lastmile_qr_scan", "ios": "https://dc.lft.to/lastmile_qr_scan"}, "is_reserved": 0, "is_disabled": 0, "type": "electric_scooter", "bike_id": "b59180e182e6821244c5543a9cd169a3"}, {"lon": -76.9353505, "lat": 38.89679316666667, "name": "a79e89971f58418371e8bb2b369c3701", "fusion_lat": 0.0, "fusion_lon": 0.0, "rental_uris": {"android": "https://dc.lft.to/lastmile_qr_scan", "ios": "https://dc.lft.to/lastmile_qr_scan"}, "is_reserved": 0, "is_disabled": 0, "type": "electric_scooter", "bike_id": "a79e89971f58418371e8bb2b369c3701"}, {"lon": -77.021853, "lat": 38.911307, "name": "9a007dda39c708dd756da9c3b8569b4c", "fusion_lat": 0.0, "fusion_lon": 0.0, "rental_uris": {"android": "https://dc.lft.to/lastmile_qr_scan", "ios": "https://dc.lft.to/lastmile_qr_scan"}, "is_reserved": 0, "is_disabled": 0, "type": "electric_scooter", "bike_id": "9a007dda39c708dd756da9c3b8569b4c"}, {"lon": -77.00164683333334, "lat": 38.907771333333336, "name": "d8649a850d4e34edeb17f27fae3d4cbf", "fusion_lat": 0.0, "fusion_lon": 0.0, "rental_uris": {"android": "https://dc.lft.to/lastmile_qr_scan", "ios": "https://dc.lft.to/lastmile_qr_scan"}, "is_reserved": 0, "is_disabled": 0, "type": "electric_scooter", "bike_id": "d8649a850d4e34edeb17f27fae3d4cbf"}, {"lon": -77.02200766666667, "lat": 38.91088633333333, "name": "c07de63c4b5bab7497b6925343728b9f", "fusion_lat": 0.0, "fusion_lon": 0.0, "rental_uris": {"android": "https://dc.lft.to/lastmile_qr_scan", "ios": "https://dc.lft.to/lastmile_qr_scan"}, "is_reserved": 0, "is_disabled": 0, "type": "electric_scooter", "bike_id": "c07de63c4b5bab7497b6925343728b9f"}, {"lon": -77.03839083333334, "lat": 38.911919833333336, "name": "769906f3c6e6e83a9e5aa3128d5bad37", "fusion_lat": 0.0, "fusion_lon": 0.0, "rental_uris": {"android": "https://dc.lft.to/lastmile_qr_scan", "ios": "https://dc.lft.to/lastmile_qr_scan"}, "is_reserved": 0, "is_disabled": 0, "type": "electric_scooter", "bike_id": "769906f3c6e6e83a9e5aa3128d5bad37"}, {"lon": -77.0399585, "lat": 38.90733816666667, "name": "b2d2d06f5e61d965394ebf9328218f24", "fusion_lat": 0.0, "fusion_lon": 0.0, "rental_uris": {"android": "https://dc.lft.to/lastmile_qr_scan", "ios": "https://dc.lft.to/lastmile_qr_scan"}, "is_reserved": 0, "is_disabled": 0, "type": "electric_scooter", "bike_id": "b2d2d06f5e61d965394ebf9328218f24"}, {"lon": -77.02958166666667, "lat": 38.9227415, "name": "278a54fe23953f5e459fadaada2be5d0", "fusion_lat": 0.0, "fusion_lon": 0.0, "rental_uris": {"android": "https://dc.lft.to/lastmile_qr_scan", "ios": "https://dc.lft.to/lastmile_qr_scan"}, "is_reserved": 0, "is_disabled": 0, "type": "electric_scooter", "bike_id": "278a54fe23953f5e459fadaada2be5d0"}, {"lon": -77.0366895, "lat": 38.908417166666666, "name": "618f4985c99d2caa6697d239bed2cd72", "fusion_lat": 0.0, "fusion_lon": 0.0, "rental_uris": {"android": "https://dc.lft.to/lastmile_qr_scan", "ios": "https://dc.lft.to/lastmile_qr_scan"}, "is_reserved": 0, "is_disabled": 0, "type": "electric_scooter", "bike_id": "618f4985c99d2caa6697d239bed2cd72"}, {"lon": -76.99869683333333, "lat": 38.900188166666666, "name": "4e3de370725e45987fe199f732891701", "fusion_lat": 0.0, "fusion_lon": 0.0, "rental_uris": {"android": "https://dc.lft.to/lastmile_qr_scan", "ios": "https://dc.lft.to/lastmile_qr_scan"}, "is_reserved": 0, "is_disabled": 0, "type": "electric_scooter", "bike_id": "4e3de370725e45987fe199f732891701"}, {"lon": -76.93668066666666, "lat": 38.880281833333335, "name": "10d4685340fe7e76040fdde7434111da", "fusion_lat": 0.0, "fusion_lon": 0.0, "rental_uris": {"android": "https://dc.lft.to/lastmile_qr_scan", "ios": "https://dc.lft.to/lastmile_qr_scan"}, "is_reserved": 0, "is_disabled": 0, "type": "electric_scooter", "bike_id": "10d4685340fe7e76040fdde7434111da"}, {"lon": -77.13180533333333, "lat": 38.869088166666664, "name": "9fd0ffea8cc8cd203460477c6646bf7b", "fusion_lat": 0.0, "fusion_lon": 0.0, "rental_uris": {"android": "https://dc.lft.to/lastmile_qr_scan", "ios": "https://dc.lft.to/lastmile_qr_scan"}, "is_reserved": 0, "is_disabled": 0, "type": "electric_bike", "bike_id": "9fd0ffea8cc8cd203460477c6646bf7b"}, {"lon": -77.0467315, "lat": 38.91562616666667, "name": "887cf289fe9fda5c6fa19f3b8fddefb8", "fusion_lat": 0.0, "fusion_lon": 0.0, "rental_uris": {"android": "https://dc.lft.to/lastmile_qr_scan", "ios": "https://dc.lft.to/lastmile_qr_scan"}, "is_reserved": 0, "is_disabled": 0, "type": "electric_scooter", "bike_id": "887cf289fe9fda5c6fa19f3b8fddefb8"}, {"lon": -77.030688, "lat": 38.880453333333335, "name": "6ec3194d45924ce638b8fee8f0c6b818", "fusion_lat": 0.0, "fusion_lon": 0.0, "rental_uris": {"android": "https://dc.lft.to/lastmile_qr_scan", "ios": "https://dc.lft.to/lastmile_qr_scan"}, "is_reserved": 0, "is_disabled": 0, "type": "electric_scooter", "bike_id": "6ec3194d45924ce638b8fee8f0c6b818"}, {"lon": -77.03801266666666, "lat": 38.9966835, "name": "418262f2a9e4f497c5446caab2b19452", "fusion_lat": 0.0, "fusion_lon": 0.0, "rental_uris": {"android": "https://dc.lft.to/lastmile_qr_scan", "ios": "https://dc.lft.to/lastmile_qr_scan"}, "is_reserved": 0, "is_disabled": 0, "type": "electric_bike", "bike_id": "418262f2a9e4f497c5446caab2b19452"}, {"lon": -77.01920283333334, "lat": 38.916578, "name": "30e66d6aa52bda0d09a0ba93a995c260", "fusion_lat": 0.0, "fusion_lon": 0.0, "rental_uris": {"android": "https://dc.lft.to/lastmile_qr_scan", "ios": "https://dc.lft.to/lastmile_qr_scan"}, "is_reserved": 0, "is_disabled": 0, "type": "electric_scooter", "bike_id": "30e66d6aa52bda0d09a0ba93a995c260"}, {"lon": -77.0241115, "lat": 38.909573333333334, "name": "ed8e6018f55f234665c0bbd570a00625", "fusion_lat": 0.0, "fusion_lon": 0.0, "rental_uris": {"android": "https://dc.lft.to/lastmile_qr_scan", "ios": "https://dc.lft.to/lastmile_qr_scan"}, "is_reserved": 0, "is_disabled": 0, "type": "electric_scooter", "bike_id": "ed8e6018f55f234665c0bbd570a00625"}, {"lon": -77.02819966666667, "lat": 38.8851205, "name": "4c7a0390ef1fe794431e51020b9111c7", "fusion_lat": 0.0, "fusion_lon": 0.0, "rental_uris": {"android": "https://dc.lft.to/lastmile_qr_scan", "ios": "https://dc.lft.to/lastmile_qr_scan"}, "is_reserved": 0, "is_disabled": 0, "type": "electric_scooter", "bike_id": "4c7a0390ef1fe794431e51020b9111c7"}, {"lon": -77.02722483333334, "lat": 38.899778, "name": "63bb21ab90b3ff604033046bfb3346d9", "fusion_lat": 0.0, "fusion_lon": 0.0, "rental_uris": {"android": "https://dc.lft.to/lastmile_qr_scan", "ios": "https://dc.lft.to/lastmile_qr_scan"}, "is_reserved": 0, "is_disabled": 0, "type": "electric_scooter", "bike_id": "63bb21ab90b3ff604033046bfb3346d9"}, {"lon": -77.04292833333334, "lat": 38.90726016666667, "name": "7c0e819c77351ec6c9f1537de121adf6", "fusion_lat": 0.0, "fusion_lon": 0.0, "rental_uris": {"android": "https://dc.lft.to/lastmile_qr_scan", "ios": "https://dc.lft.to/lastmile_qr_scan"}, "is_reserved": 0, "is_disabled": 0, "type": "electric_scooter", "bike_id": "7c0e819c77351ec6c9f1537de121adf6"}, {"lon": -77.02925666666667, "lat": 38.930631166666664, "name": "c96fcec2719da20839c3d87bf9652848", "fusion_lat": 0.0, "fusion_lon": 0.0, "rental_uris": {"android": "https://dc.lft.to/lastmile_qr_scan", "ios": "https://dc.lft.to/lastmile_qr_scan"}, "is_reserved": 0, "is_disabled": 0, "type": "electric_scooter", "bike_id": "c96fcec2719da20839c3d87bf9652848"}, {"lon": -77.03214466666667, "lat": 38.92004716666667, "name": "9cc4732080904e973190275711880858", "fusion_lat": 0.0, "fusion_lon": 0.0, "rental_uris": {"android": "https://dc.lft.to/lastmile_qr_scan", "ios": "https://dc.lft.to/lastmile_qr_scan"}, "is_reserved": 0, "is_disabled": 0, "type": "electric_scooter", "bike_id": "9cc4732080904e973190275711880858"}, {"lon": -77.0365925, "lat": 38.922823666666666, "name": "ddc3e7539f12d260beb412a2a855d352", "fusion_lat": 0.0, "fusion_lon": 0.0, "rental_uris": {"android": "https://dc.lft.to/lastmile_qr_scan", "ios": "https://dc.lft.to/lastmile_qr_scan"}, "is_reserved": 0, "is_disabled": 0, "type": "electric_scooter", "bike_id": "ddc3e7539f12d260beb412a2a855d352"}, {"lon": -77.03412333333333, "lat": 38.92944933333333, "name": "02002bbcb9236d2d6d8a2ab07a6299e9", "fusion_lat": 0.0, "fusion_lon": 0.0, "rental_uris": {"android": "https://dc.lft.to/lastmile_qr_scan", "ios": "https://dc.lft.to/lastmile_qr_scan"}, "is_reserved": 0, "is_disabled": 0, "type": "electric_scooter", "bike_id": "02002bbcb9236d2d6d8a2ab07a6299e9"}, {"lon": -77.03669466666666, "lat": 38.90378233333333, "name": "cbc622151ed7d602c846d0c2ac251e64", "fusion_lat": 0.0, "fusion_lon": 0.0, "rental_uris": {"android": "https://dc.lft.to/lastmile_qr_scan", "ios": "https://dc.lft.to/lastmile_qr_scan"}, "is_reserved": 0, "is_disabled": 0, "type": "electric_scooter", "bike_id": "cbc622151ed7d602c846d0c2ac251e64"}, {"lon": -77.22561066666667, "lat": 38.92966083333334, "name": "7d56d02ad65f3b6db86fbf6cfa3b854b", "fusion_lat": 0.0, "fusion_lon": 0.0, "rental_uris": {"android": "https://dc.lft.to/lastmile_qr_scan", "ios": "https://dc.lft.to/lastmile_qr_scan"}, "is_reserved": 0, "is_disabled": 0, "type": "electric_bike", "bike_id": "7d56d02ad65f3b6db86fbf6cfa3b854b"}, {"lon": -77.02429, "lat": 38.90721516666667, "name": "7ef10164218c59e5a3dd9a6c41d5ec0d", "fusion_lat": 0.0, "fusion_lon": 0.0, "rental_uris": {"android": "https://dc.lft.to/lastmile_qr_scan", "ios": "https://dc.lft.to/lastmile_qr_scan"}, "is_reserved": 0, "is_disabled": 0, "type": "electric_scooter", "bike_id": "7ef10164218c59e5a3dd9a6c41d5ec0d"}, {"lon": -77.04158733333334, "lat": 38.91399783333333, "name": "f0fac0b0747790da41cc491fbb746b2b", "fusion_lat": 0.0, "fusion_lon": 0.0, "rental_uris": {"android": "https://dc.lft.to/lastmile_qr_scan", "ios": "https://dc.lft.to/lastmile_qr_scan"}, "is_reserved": 0, "is_disabled": 0, "type": "electric_scooter", "bike_id": "f0fac0b0747790da41cc491fbb746b2b"}, {"lon": -77.005795, "lat": 38.9026285, "name": "9b80ed1d61baa96769b41af0b2c04a5d", "fusion_lat": 0.0, "fusion_lon": 0.0, "rental_uris": {"android": "https://dc.lft.to/lastmile_qr_scan", "ios": "https://dc.lft.to/lastmile_qr_scan"}, "is_reserved": 0, "is_disabled": 0, "type": "electric_scooter", "bike_id": "9b80ed1d61baa96769b41af0b2c04a5d"}, {"lon": -77.00593683333334, "lat": 38.91565333333333, "name": "d444cb33e2b8cfd50ff2f256427b142e", "fusion_lat": 0.0, "fusion_lon": 0.0, "rental_uris": {"android": "https://dc.lft.to/lastmile_qr_scan", "ios": "https://dc.lft.to/lastmile_qr_scan"}, "is_reserved": 0, "is_disabled": 0, "type": "electric_scooter", "bike_id": "d444cb33e2b8cfd50ff2f256427b142e"}, {"lon": -77.04333866666667, "lat": 38.9221925, "name": "71df2e47b9480e29554881edae5bc8c7", "fusion_lat": 0.0, "fusion_lon": 0.0, "rental_uris": {"android": "https://dc.lft.to/lastmile_qr_scan", "ios": "https://dc.lft.to/lastmile_qr_scan"}, "is_reserved": 0, "is_disabled": 0, "type": "electric_scooter", "bike_id": "71df2e47b9480e29554881edae5bc8c7"}, {"lon": -77.02339866666667, "lat": 38.96203233333333, "name": "08719b2e009e5a666c999a7c38600517", "fusion_lat": 0.0, "fusion_lon": 0.0, "rental_uris": {"android": "https://dc.lft.to/lastmile_qr_scan", "ios": "https://dc.lft.to/lastmile_qr_scan"}, "is_reserved": 0, "is_disabled": 0, "type": "electric_scooter", "bike_id": "08719b2e009e5a666c999a7c38600517"}, {"lon": -77.12502966666666, "lat": 39.02415216666667, "name": "731ce8ffc2a11d670fbba064ebc23ccd", "fusion_lat": 0.0, "fusion_lon": 0.0, "rental_uris": {"android": "https://dc.lft.to/lastmile_qr_scan", "ios": "https://dc.lft.to/lastmile_qr_scan"}, "is_reserved": 0, "is_disabled": 0, "type": "electric_bike", "bike_id": "731ce8ffc2a11d670fbba064ebc23ccd"}, {"lon": -77.04328133333334, "lat": 38.90297666666667, "name": "810a0551b28409196fdcfcfd6a1b8575", "fusion_lat": 0.0, "fusion_lon": 0.0, "rental_uris": {"android": "https://dc.lft.to/lastmile_qr_scan", "ios": "https://dc.lft.to/lastmile_qr_scan"}, "is_reserved": 0, "is_disabled": 0, "type": "electric_scooter", "bike_id": "810a0551b28409196fdcfcfd6a1b8575"}, {"lon": -77.0434635, "lat": 38.903767, "name": "9cbdf865be41a3972f7eaf39ec46c1e8", "fusion_lat": 0.0, "fusion_lon": 0.0, "rental_uris": {"android": "https://dc.lft.to/lastmile_qr_scan", "ios": "https://dc.lft.to/lastmile_qr_scan"}, "is_reserved": 0, "is_disabled": 0, "type": "electric_scooter", "bike_id": "9cbdf865be41a3972f7eaf39ec46c1e8"}, {"lon": -77.00912916666667, "lat": 38.879276, "name": "7147b904474026bca64813d9bed85928", "fusion_lat": 0.0, "fusion_lon": 0.0, "rental_uris": {"android": "https://dc.lft.to/lastmile_qr_scan", "ios": "https://dc.lft.to/lastmile_qr_scan"}, "is_reserved": 0, "is_disabled": 0, "type": "electric_scooter", "bike_id": "7147b904474026bca64813d9bed85928"}, {"lon": -77.04387733333333, "lat": 38.9293535, "name": "695b2c90e683bf4d051b159e8729cc54", "fusion_lat": 0.0, "fusion_lon": 0.0, "rental_uris": {"android": "https://dc.lft.to/lastmile_qr_scan", "ios": "https://dc.lft.to/lastmile_qr_scan"}, "is_reserved": 0, "is_disabled": 0, "type": "electric_scooter", "bike_id": "695b2c90e683bf4d051b159e8729cc54"}, {"lon": -77.036473, "lat": 38.936331333333335, "name": "1211ea25df5e119003caa3c13e7de054", "fusion_lat": 0.0, "fusion_lon": 0.0, "rental_uris": {"android": "https://dc.lft.to/lastmile_qr_scan", "ios": "https://dc.lft.to/lastmile_qr_scan"}, "is_reserved": 0, "is_disabled": 0, "type": "electric_scooter", "bike_id": "1211ea25df5e119003caa3c13e7de054"}, {"lon": -77.02634633333334, "lat": 38.91552266666667, "name": "3f20aa8fda80b0a99821453501bafe32", "fusion_lat": 0.0, "fusion_lon": 0.0, "rental_uris": {"android": "https://dc.lft.to/lastmile_qr_scan", "ios": "https://dc.lft.to/lastmile_qr_scan"}, "is_reserved": 0, "is_disabled": 0, "type": "electric_scooter", "bike_id": "3f20aa8fda80b0a99821453501bafe32"}, {"lon": -77.0465435, "lat": 38.9073205, "name": "b2a115db7c4d83bce42fb7f5a6ac9ebf", "fusion_lat": 0.0, "fusion_lon": 0.0, "rental_uris": {"android": "https://dc.lft.to/lastmile_qr_scan", "ios": "https://dc.lft.to/lastmile_qr_scan"}, "is_reserved": 0, "is_disabled": 0, "type": "electric_scooter", "bike_id": "b2a115db7c4d83bce42fb7f5a6ac9ebf"}, {"lon": -77.00333966666666, "lat": 38.8972955, "name": "fae16b23fd5f3f31c26dd57e8490533c", "fusion_lat": 0.0, "fusion_lon": 0.0, "rental_uris": {"android": "https://dc.lft.to/lastmile_qr_scan", "ios": "https://dc.lft.to/lastmile_qr_scan"}, "is_reserved": 0, "is_disabled": 0, "type": "electric_scooter", "bike_id": "fae16b23fd5f3f31c26dd57e8490533c"}, {"lon": -77.011859, "lat": 38.900059666666664, "name": "068e506a6e2c97f28f7174f660005ece", "fusion_lat": 0.0, "fusion_lon": 0.0, "rental_uris": {"android": "https://dc.lft.to/lastmile_qr_scan", "ios": "https://dc.lft.to/lastmile_qr_scan"}, "is_reserved": 0, "is_disabled": 0, "type": "electric_scooter", "bike_id": "068e506a6e2c97f28f7174f660005ece"}, {"lon": -77.00169316666667, "lat": 38.90769233333333, "name": "ab6e12a01ed069cf60dae2f53353d4b2", "fusion_lat": 0.0, "fusion_lon": 0.0, "rental_uris": {"android": "https://dc.lft.to/lastmile_qr_scan", "ios": "https://dc.lft.to/lastmile_qr_scan"}, "is_reserved": 0, "is_disabled": 0, "type": "electric_scooter", "bike_id": "ab6e12a01ed069cf60dae2f53353d4b2"}, {"lon": -76.98862533333333, "lat": 38.90027833333333, "name": "2d148d6e2a81751a17013abe03c6ca22", "fusion_lat": 0.0, "fusion_lon": 0.0, "rental_uris": {"android": "https://dc.lft.to/lastmile_qr_scan", "ios": "https://dc.lft.to/lastmile_qr_scan"}, "is_reserved": 0, "is_disabled": 0, "type": "electric_scooter", "bike_id": "2d148d6e2a81751a17013abe03c6ca22"}, {"lon": -77.03647183333334, "lat": 38.9028615, "name": "779f181a68a6b855e0a48b4e88a35e69", "fusion_lat": 0.0, "fusion_lon": 0.0, "rental_uris": {"android": "https://dc.lft.to/lastmile_qr_scan", "ios": "https://dc.lft.to/lastmile_qr_scan"}, "is_reserved": 0, "is_disabled": 0, "type": "electric_scooter", "bike_id": "779f181a68a6b855e0a48b4e88a35e69"}, {"lon": -76.96103766666667, "lat": 38.92866883333333, "name": "67714ed6cb74d55a52053e5d249097ec", "fusion_lat": 0.0, "fusion_lon": 0.0, "rental_uris": {"android": "https://dc.lft.to/lastmile_qr_scan", "ios": "https://dc.lft.to/lastmile_qr_scan"}, "is_reserved": 0, "is_disabled": 0, "type": "electric_bike", "bike_id": "67714ed6cb74d55a52053e5d249097ec"}, {"lon": -77.03229283333333, "lat": 38.92168083333333, "name": "f9edc911c7429c470ff9f0ab08965f37", "fusion_lat": 0.0, "fusion_lon": 0.0, "rental_uris": {"android": "https://dc.lft.to/lastmile_qr_scan", "ios": "https://dc.lft.to/lastmile_qr_scan"}, "is_reserved": 0, "is_disabled": 0, "type": "electric_scooter", "bike_id": "f9edc911c7429c470ff9f0ab08965f37"}, {"lon": -77.03206116666667, "lat": 38.938648666666666, "name": "4fd4a8e462d16a135c536aa8904a2002", "fusion_lat": 0.0, "fusion_lon": 0.0, "rental_uris": {"android": "https://dc.lft.to/lastmile_qr_scan", "ios": "https://dc.lft.to/lastmile_qr_scan"}, "is_reserved": 0, "is_disabled": 0, "type": "electric_scooter", "bike_id": "4fd4a8e462d16a135c536aa8904a2002"}, {"lon": -77.007102, "lat": 38.88488066666667, "name": "7fa6c2dc308972ecc7cc7279ed1ce157", "fusion_lat": 0.0, "fusion_lon": 0.0, "rental_uris": {"android": "https://dc.lft.to/lastmile_qr_scan", "ios": "https://dc.lft.to/lastmile_qr_scan"}, "is_reserved": 0, "is_disabled": 0, "type": "electric_scooter", "bike_id": "7fa6c2dc308972ecc7cc7279ed1ce157"}, {"lon": -77.029349, "lat": 38.9428055, "name": "34513cd7d8cc9544bccc77fd7e986bfb", "fusion_lat": 0.0, "fusion_lon": 0.0, "rental_uris": {"android": "https://dc.lft.to/lastmile_qr_scan", "ios": "https://dc.lft.to/lastmile_qr_scan"}, "is_reserved": 0, "is_disabled": 0, "type": "electric_scooter", "bike_id": "34513cd7d8cc9544bccc77fd7e986bfb"}, {"lon": -77.01357733333333, "lat": 38.871607833333336, "name": "957ee14cfba06e95b35e111fafb7d3cd", "fusion_lat": 0.0, "fusion_lon": 0.0, "rental_uris": {"android": "https://dc.lft.to/lastmile_qr_scan", "ios": "https://dc.lft.to/lastmile_qr_scan"}, "is_reserved": 0, "is_disabled": 0, "type": "electric_scooter", "bike_id": "957ee14cfba06e95b35e111fafb7d3cd"}, {"lon": -77.02694666666666, "lat": 38.906991, "name": "fb789ff4a654f033fca32b2dfbb5a0f4", "fusion_lat": 0.0, "fusion_lon": 0.0, "rental_uris": {"android": "https://dc.lft.to/lastmile_qr_scan", "ios": "https://dc.lft.to/lastmile_qr_scan"}, "is_reserved": 0, "is_disabled": 0, "type": "electric_scooter", "bike_id": "fb789ff4a654f033fca32b2dfbb5a0f4"}, {"lon": -77.034268, "lat": 38.919277666666666, "name": "31490c61f5d43e903292c6e4f9c4b683", "fusion_lat": 0.0, "fusion_lon": 0.0, "rental_uris": {"android": "https://dc.lft.to/lastmile_qr_scan", "ios": "https://dc.lft.to/lastmile_qr_scan"}, "is_reserved": 0, "is_disabled": 0, "type": "electric_scooter", "bike_id": "31490c61f5d43e903292c6e4f9c4b683"}, {"lon": -77.0338725, "lat": 38.886589, "name": "6e0ba84a3256a83ec17b1f267ca2434d", "fusion_lat": 0.0, "fusion_lon": 0.0, "rental_uris": {"android": "https://dc.lft.to/lastmile_qr_scan", "ios": "https://dc.lft.to/lastmile_qr_scan"}, "is_reserved": 0, "is_disabled": 0, "type": "electric_scooter", "bike_id": "6e0ba84a3256a83ec17b1f267ca2434d"}, {"lon": -77.03853916666667, "lat": 38.911924166666665, "name": "b9452192953f58e958983fe7a5668641", "fusion_lat": 0.0, "fusion_lon": 0.0, "rental_uris": {"android": "https://dc.lft.to/lastmile_qr_scan", "ios": "https://dc.lft.to/lastmile_qr_scan"}, "is_reserved": 0, "is_disabled": 0, "type": "electric_scooter", "bike_id": "b9452192953f58e958983fe7a5668641"}, {"lon": -77.05001016666667, "lat": 38.901122, "name": "2e83c1c99ef8f7e50979b2748a54288d", "fusion_lat": 0.0, "fusion_lon": 0.0, "rental_uris": {"android": "https://dc.lft.to/lastmile_qr_scan", "ios": "https://dc.lft.to/lastmile_qr_scan"}, "is_reserved": 0, "is_disabled": 0, "type": "electric_scooter", "bike_id": "2e83c1c99ef8f7e50979b2748a54288d"}, {"lon": -77.06039033333333, "lat": 38.9392125, "name": "d45661d80f372848be10275210dd2c2e", "fusion_lat": 0.0, "fusion_lon": 0.0, "rental_uris": {"android": "https://dc.lft.to/lastmile_qr_scan", "ios": "https://dc.lft.to/lastmile_qr_scan"}, "is_reserved": 0, "is_disabled": 0, "type": "electric_scooter", "bike_id": "d45661d80f372848be10275210dd2c2e"}, {"lon": -77.05050583333333, "lat": 38.9242185, "name": "79e0d0379aa995c3baf665b717d38bcd", "fusion_lat": 0.0, "fusion_lon": 0.0, "rental_uris": {"android": "https://dc.lft.to/lastmile_qr_scan", "ios": "https://dc.lft.to/lastmile_qr_scan"}, "is_reserved": 0, "is_disabled": 0, "type": "electric_scooter", "bike_id": "79e0d0379aa995c3baf665b717d38bcd"}, {"lon": -77.00554533333333, "lat": 38.87533916666667, "name": "5abb276a08efcb57384504383fbe59ac", "fusion_lat": 0.0, "fusion_lon": 0.0, "rental_uris": {"android": "https://dc.lft.to/lastmile_qr_scan", "ios": "https://dc.lft.to/lastmile_qr_scan"}, "is_reserved": 0, "is_disabled": 0, "type": "electric_scooter", "bike_id": "5abb276a08efcb57384504383fbe59ac"}, {"lon": -77.12902533333333, "lat": 38.86377433333333, "name": "9d95cdc58d99a498736e654f0bbebcad", "fusion_lat": 0.0, "fusion_lon": 0.0, "rental_uris": {"android": "https://dc.lft.to/lastmile_qr_scan", "ios": "https://dc.lft.to/lastmile_qr_scan"}, "is_reserved": 0, "is_disabled": 0, "type": "electric_bike", "bike_id": "9d95cdc58d99a498736e654f0bbebcad"}, {"lon": -77.0336015, "lat": 38.898231333333335, "name": "af252e88c1f7ff6f2d1ae8b1d6dc74bb", "fusion_lat": 0.0, "fusion_lon": 0.0, "rental_uris": {"android": "https://dc.lft.to/lastmile_qr_scan", "ios": "https://dc.lft.to/lastmile_qr_scan"}, "is_reserved": 0, "is_disabled": 0, "type": "electric_scooter", "bike_id": "af252e88c1f7ff6f2d1ae8b1d6dc74bb"}, {"lon": -77.0326375, "lat": 38.929868666666664, "name": "0b33ff61e16412360d5a6cac1c856882", "fusion_lat": 0.0, "fusion_lon": 0.0, "rental_uris": {"android": "https://dc.lft.to/lastmile_qr_scan", "ios": "https://dc.lft.to/lastmile_qr_scan"}, "is_reserved": 0, "is_disabled": 0, "type": "electric_scooter", "bike_id": "0b33ff61e16412360d5a6cac1c856882"}, {"lon": -77.06634433333333, "lat": 38.91370366666666, "name": "79a9653afe72113faffd671b83b5f022", "fusion_lat": 0.0, "fusion_lon": 0.0, "rental_uris": {"android": "https://dc.lft.to/lastmile_qr_scan", "ios": "https://dc.lft.to/lastmile_qr_scan"}, "is_reserved": 0, "is_disabled": 0, "type": "electric_scooter", "bike_id": "79a9653afe72113faffd671b83b5f022"}, {"lon": -77.04235466666667, "lat": 38.90129233333333, "name": "d448e78795f2b70980c535d8b9fcdd26", "fusion_lat": 0.0, "fusion_lon": 0.0, "rental_uris": {"android": "https://dc.lft.to/lastmile_qr_scan", "ios": "https://dc.lft.to/lastmile_qr_scan"}, "is_reserved": 0, "is_disabled": 0, "type": "electric_scooter", "bike_id": "d448e78795f2b70980c535d8b9fcdd26"}, {"lon": -77.03357433333333, "lat": 38.887572, "name": "6e7d47c91af1b8eff1796a2f06558b38", "fusion_lat": 0.0, "fusion_lon": 0.0, "rental_uris": {"android": "https://dc.lft.to/lastmile_qr_scan", "ios": "https://dc.lft.to/lastmile_qr_scan"}, "is_reserved": 0, "is_disabled": 0, "type": "electric_scooter", "bike_id": "6e7d47c91af1b8eff1796a2f06558b38"}, {"lon": -77.03191583333333, "lat": 38.89341783333333, "name": "d763f4d42efa1287c56737e2bb8fc85d", "fusion_lat": 0.0, "fusion_lon": 0.0, "rental_uris": {"android": "https://dc.lft.to/lastmile_qr_scan", "ios": "https://dc.lft.to/lastmile_qr_scan"}, "is_reserved": 0, "is_disabled": 0, "type": "electric_scooter", "bike_id": "d763f4d42efa1287c56737e2bb8fc85d"}, {"lon": -77.02385516666666, "lat": 38.911576333333336, "name": "9d52a20444ca2c6aed75265f9b689cf5", "fusion_lat": 0.0, "fusion_lon": 0.0, "rental_uris": {"android": "https://dc.lft.to/lastmile_qr_scan", "ios": "https://dc.lft.to/lastmile_qr_scan"}, "is_reserved": 0, "is_disabled": 0, "type": "electric_scooter", "bike_id": "9d52a20444ca2c6aed75265f9b689cf5"}, {"lon": -77.02695666666666, "lat": 38.915932166666664, "name": "385640ca49683086db9a89f611b7d30d", "fusion_lat": 0.0, "fusion_lon": 0.0, "rental_uris": {"android": "https://dc.lft.to/lastmile_qr_scan", "ios": "https://dc.lft.to/lastmile_qr_scan"}, "is_reserved": 0, "is_disabled": 0, "type": "electric_scooter", "bike_id": "385640ca49683086db9a89f611b7d30d"}, {"lon": -77.0420725, "lat": 38.901435, "name": "83717fc8d6805d2d7e2cd4270b56f5f0", "fusion_lat": 0.0, "fusion_lon": 0.0, "rental_uris": {"android": "https://dc.lft.to/lastmile_qr_scan", "ios": "https://dc.lft.to/lastmile_qr_scan"}, "is_reserved": 0, "is_disabled": 0, "type": "electric_scooter", "bike_id": "83717fc8d6805d2d7e2cd4270b56f5f0"}, {"lon": -76.948618, "lat": 38.8959365, "name": "c4c223e0b9bd71a66f8a2b29046cc9c6", "fusion_lat": 0.0, "fusion_lon": 0.0, "rental_uris": {"android": "https://dc.lft.to/lastmile_qr_scan", "ios": "https://dc.lft.to/lastmile_qr_scan"}, "is_reserved": 0, "is_disabled": 0, "type": "electric_scooter", "bike_id": "c4c223e0b9bd71a66f8a2b29046cc9c6"}, {"lon": -77.02472866666666, "lat": 38.9265065, "name": "0c57aa19dc3ef3cde60f27afa114f644", "fusion_lat": 0.0, "fusion_lon": 0.0, "rental_uris": {"android": "https://dc.lft.to/lastmile_qr_scan", "ios": "https://dc.lft.to/lastmile_qr_scan"}, "is_reserved": 0, "is_disabled": 0, "type": "electric_scooter", "bike_id": "0c57aa19dc3ef3cde60f27afa114f644"}, {"lon": -77.00862483333333, "lat": 38.827316, "name": "a1e6d93ecb6c12a00df1c674df3eb2d6", "fusion_lat": 0.0, "fusion_lon": 0.0, "rental_uris": {"android": "https://dc.lft.to/lastmile_qr_scan", "ios": "https://dc.lft.to/lastmile_qr_scan"}, "is_reserved": 0, "is_disabled": 0, "type": "electric_bike", "bike_id": "a1e6d93ecb6c12a00df1c674df3eb2d6"}, {"lon": -77.0247985, "lat": 38.938763, "name": "431f76404ff4d792b78ac04a3bc28719", "fusion_lat": 0.0, "fusion_lon": 0.0, "rental_uris": {"android": "https://dc.lft.to/lastmile_qr_scan", "ios": "https://dc.lft.to/lastmile_qr_scan"}, "is_reserved": 0, "is_disabled": 0, "type": "electric_scooter", "bike_id": "431f76404ff4d792b78ac04a3bc28719"}, {"lon": -77.04170533333334, "lat": 38.907424166666665, "name": "4c6346be06150d031b69c97c57da22bd", "fusion_lat": 0.0, "fusion_lon": 0.0, "rental_uris": {"android": "https://dc.lft.to/lastmile_qr_scan", "ios": "https://dc.lft.to/lastmile_qr_scan"}, "is_reserved": 0, "is_disabled": 0, "type": "electric_scooter", "bike_id": "4c6346be06150d031b69c97c57da22bd"}, {"lon": -77.05320383333333, "lat": 38.902702, "name": "d59da70383d36491928c973a5b86fa1b", "fusion_lat": 0.0, "fusion_lon": 0.0, "rental_uris": {"android": "https://dc.lft.to/lastmile_qr_scan", "ios": "https://dc.lft.to/lastmile_qr_scan"}, "is_reserved": 0, "is_disabled": 0, "type": "electric_scooter", "bike_id": "d59da70383d36491928c973a5b86fa1b"}, {"lon": -77.00343516666666, "lat": 38.899164999999996, "name": "e8fa11c7d38e19694fbe12d2a4770123", "fusion_lat": 0.0, "fusion_lon": 0.0, "rental_uris": {"android": "https://dc.lft.to/lastmile_qr_scan", "ios": "https://dc.lft.to/lastmile_qr_scan"}, "is_reserved": 0, "is_disabled": 0, "type": "electric_scooter", "bike_id": "e8fa11c7d38e19694fbe12d2a4770123"}, {"lon": -77.072733, "lat": 38.934849166666666, "name": "431c5be84322a37c923e57ca92e1e697", "fusion_lat": 0.0, "fusion_lon": 0.0, "rental_uris": {"android": "https://dc.lft.to/lastmile_qr_scan", "ios": "https://dc.lft.to/lastmile_qr_scan"}, "is_reserved": 0, "is_disabled": 0, "type": "electric_scooter", "bike_id": "431c5be84322a37c923e57ca92e1e697"}, {"lon": -77.06174316666667, "lat": 38.943055333333334, "name": "917be6146e64f5bcccaaaa879b24b6d8", "fusion_lat": 0.0, "fusion_lon": 0.0, "rental_uris": {"android": "https://dc.lft.to/lastmile_qr_scan", "ios": "https://dc.lft.to/lastmile_qr_scan"}, "is_reserved": 0, "is_disabled": 0, "type": "electric_scooter", "bike_id": "917be6146e64f5bcccaaaa879b24b6d8"}, {"lon": -76.9856995, "lat": 38.85588083333333, "name": "71ad50c5ec00705e72a795fedf5c6439", "fusion_lat": 0.0, "fusion_lon": 0.0, "rental_uris": {"android": "https://dc.lft.to/lastmile_qr_scan", "ios": "https://dc.lft.to/lastmile_qr_scan"}, "is_reserved": 0, "is_disabled": 0, "type": "electric_scooter", "bike_id": "71ad50c5ec00705e72a795fedf5c6439"}, {"lon": -77.03206533333334, "lat": 38.9171705, "name": "307625a4bdf08dad0f47127859e0e1e3", "fusion_lat": 0.0, "fusion_lon": 0.0, "rental_uris": {"android": "https://dc.lft.to/lastmile_qr_scan", "ios": "https://dc.lft.to/lastmile_qr_scan"}, "is_reserved": 0, "is_disabled": 0, "type": "electric_scooter", "bike_id": "307625a4bdf08dad0f47127859e0e1e3"}, {"lon": -77.02409133333333, "lat": 38.92079, "name": "38b147aca045359f4a6e9c26aafe2256", "fusion_lat": 0.0, "fusion_lon": 0.0, "rental_uris": {"android": "https://dc.lft.to/lastmile_qr_scan", "ios": "https://dc.lft.to/lastmile_qr_scan"}, "is_reserved": 0, "is_disabled": 0, "type": "electric_scooter", "bike_id": "38b147aca045359f4a6e9c26aafe2256"}, {"lon": -77.03344933333334, "lat": 38.899616, "name": "dee7fde57aec143684f58eda8a42cf79", "fusion_lat": 0.0, "fusion_lon": 0.0, "rental_uris": {"android": "https://dc.lft.to/lastmile_qr_scan", "ios": "https://dc.lft.to/lastmile_qr_scan"}, "is_reserved": 0, "is_disabled": 0, "type": "electric_scooter", "bike_id": "dee7fde57aec143684f58eda8a42cf79"}, {"lon": -77.02597833333333, "lat": 38.90030633333333, "name": "b9b6e7bb815f134a0c886bf287da0f6b", "fusion_lat": 0.0, "fusion_lon": 0.0, "rental_uris": {"android": "https://dc.lft.to/lastmile_qr_scan", "ios": "https://dc.lft.to/lastmile_qr_scan"}, "is_reserved": 0, "is_disabled": 0, "type": "electric_scooter", "bike_id": "b9b6e7bb815f134a0c886bf287da0f6b"}, {"lon": -77.04492983333333, "lat": 38.91849166666667, "name": "3a70c4c401f07385591684a01b729eab", "fusion_lat": 0.0, "fusion_lon": 0.0, "rental_uris": {"android": "https://dc.lft.to/lastmile_qr_scan", "ios": "https://dc.lft.to/lastmile_qr_scan"}, "is_reserved": 0, "is_disabled": 0, "type": "electric_scooter", "bike_id": "3a70c4c401f07385591684a01b729eab"}, {"lon": -77.03472, "lat": 38.90895866666666, "name": "fdb269f1199dcd57c5937b98ded28f95", "fusion_lat": 0.0, "fusion_lon": 0.0, "rental_uris": {"android": "https://dc.lft.to/lastmile_qr_scan", "ios": "https://dc.lft.to/lastmile_qr_scan"}, "is_reserved": 0, "is_disabled": 0, "type": "electric_scooter", "bike_id": "fdb269f1199dcd57c5937b98ded28f95"}, {"lon": -77.0223715, "lat": 38.878804, "name": "d5ffc48c81f2075e80de1ff155a7009d", "fusion_lat": 0.0, "fusion_lon": 0.0, "rental_uris": {"android": "https://dc.lft.to/lastmile_qr_scan", "ios": "https://dc.lft.to/lastmile_qr_scan"}, "is_reserved": 0, "is_disabled": 0, "type": "electric_scooter", "bike_id": "d5ffc48c81f2075e80de1ff155a7009d"}, {"lon": -77.0220165, "lat": 38.88716566666667, "name": "b7dd65ea99d8c64e71fb47390ce25014", "fusion_lat": 0.0, "fusion_lon": 0.0, "rental_uris": {"android": "https://dc.lft.to/lastmile_qr_scan", "ios": "https://dc.lft.to/lastmile_qr_scan"}, "is_reserved": 0, "is_disabled": 0, "type": "electric_scooter", "bike_id": "b7dd65ea99d8c64e71fb47390ce25014"}, {"lon": -77.02228416666667, "lat": 38.912674833333334, "name": "498a8b9f543553ff528d591841cd025e", "fusion_lat": 0.0, "fusion_lon": 0.0, "rental_uris": {"android": "https://dc.lft.to/lastmile_qr_scan", "ios": "https://dc.lft.to/lastmile_qr_scan"}, "is_reserved": 0, "is_disabled": 0, "type": "electric_scooter", "bike_id": "498a8b9f543553ff528d591841cd025e"}, {"lon": -77.027673, "lat": 38.8919525, "name": "c4f7c8c72821444be9752412190edb5e", "fusion_lat": 0.0, "fusion_lon": 0.0, "rental_uris": {"android": "https://dc.lft.to/lastmile_qr_scan", "ios": "https://dc.lft.to/lastmile_qr_scan"}, "is_reserved": 0, "is_disabled": 0, "type": "electric_scooter", "bike_id": "c4f7c8c72821444be9752412190edb5e"}, {"lon": -76.98122283333333, "lat": 38.89669166666667, "name": "d30eaca20911055190454f2ddbaf9eda", "fusion_lat": 0.0, "fusion_lon": 0.0, "rental_uris": {"android": "https://dc.lft.to/lastmile_qr_scan", "ios": "https://dc.lft.to/lastmile_qr_scan"}, "is_reserved": 0, "is_disabled": 0, "type": "electric_bike", "bike_id": "d30eaca20911055190454f2ddbaf9eda"}, {"lon": -77.02974633333334, "lat": 38.916853, "name": "759dba4a2d41b0b9972f2b38be7597ec", "fusion_lat": 0.0, "fusion_lon": 0.0, "rental_uris": {"android": "https://dc.lft.to/lastmile_qr_scan", "ios": "https://dc.lft.to/lastmile_qr_scan"}, "is_reserved": 0, "is_disabled": 0, "type": "electric_scooter", "bike_id": "759dba4a2d41b0b9972f2b38be7597ec"}, {"lon": -77.02422533333333, "lat": 38.87970283333333, "name": "d73fa65746423427b5c47190cb2185cd", "fusion_lat": 0.0, "fusion_lon": 0.0, "rental_uris": {"android": "https://dc.lft.to/lastmile_qr_scan", "ios": "https://dc.lft.to/lastmile_qr_scan"}, "is_reserved": 0, "is_disabled": 0, "type": "electric_scooter", "bike_id": "d73fa65746423427b5c47190cb2185cd"}, {"lon": -77.03341583333334, "lat": 38.8983605, "name": "095526f3daa05e989a24161d963db0c9", "fusion_lat": 0.0, "fusion_lon": 0.0, "rental_uris": {"android": "https://dc.lft.to/lastmile_qr_scan", "ios": "https://dc.lft.to/lastmile_qr_scan"}, "is_reserved": 0, "is_disabled": 0, "type": "electric_scooter", "bike_id": "095526f3daa05e989a24161d963db0c9"}, {"lon": -77.02958516666666, "lat": 38.92251233333333, "name": "d53de9a07e78c8ad4f0db72fb76bcc63", "fusion_lat": 0.0, "fusion_lon": 0.0, "rental_uris": {"android": "https://dc.lft.to/lastmile_qr_scan", "ios": "https://dc.lft.to/lastmile_qr_scan"}, "is_reserved": 0, "is_disabled": 0, "type": "electric_scooter", "bike_id": "d53de9a07e78c8ad4f0db72fb76bcc63"}, {"lon": -76.98328033333334, "lat": 38.966059, "name": "2723bd9273b728e4c0ee5990649cbd13", "fusion_lat": 0.0, "fusion_lon": 0.0, "rental_uris": {"android": "https://dc.lft.to/lastmile_qr_scan", "ios": "https://dc.lft.to/lastmile_qr_scan"}, "is_reserved": 0, "is_disabled": 0, "type": "electric_bike", "bike_id": "2723bd9273b728e4c0ee5990649cbd13"}, {"lon": -77.04146066666667, "lat": 38.8922485, "name": "c23e7b658909bc023c37852e4df0f286", "fusion_lat": 0.0, "fusion_lon": 0.0, "rental_uris": {"android": "https://dc.lft.to/lastmile_qr_scan", "ios": "https://dc.lft.to/lastmile_qr_scan"}, "is_reserved": 0, "is_disabled": 0, "type": "electric_scooter", "bike_id": "c23e7b658909bc023c37852e4df0f286"}, {"lon": -77.11227416666667, "lat": 38.812207666666666, "name": "65e628373310cf06823a0bb080970dc9", "fusion_lat": 0.0, "fusion_lon": 0.0, "rental_uris": {"android": "https://dc.lft.to/lastmile_qr_scan", "ios": "https://dc.lft.to/lastmile_qr_scan"}, "is_reserved": 0, "is_disabled": 0, "type": "electric_bike", "bike_id": "65e628373310cf06823a0bb080970dc9"}, {"lon": -76.95257183333334, "lat": 38.906945, "name": "d741e42ccb2cb75873888afa3d8d62c6", "fusion_lat": 0.0, "fusion_lon": 0.0, "rental_uris": {"android": "https://dc.lft.to/lastmile_qr_scan", "ios": "https://dc.lft.to/lastmile_qr_scan"}, "is_reserved": 0, "is_disabled": 0, "type": "electric_bike", "bike_id": "d741e42ccb2cb75873888afa3d8d62c6"}, {"lon": -77.01705066666666, "lat": 38.9138465, "name": "c43bc460dfdb766383ad0e8a443d7bd3", "fusion_lat": 0.0, "fusion_lon": 0.0, "rental_uris": {"android": "https://dc.lft.to/lastmile_qr_scan", "ios": "https://dc.lft.to/lastmile_qr_scan"}, "is_reserved": 0, "is_disabled": 0, "type": "electric_scooter", "bike_id": "c43bc460dfdb766383ad0e8a443d7bd3"}, {"lon": -76.98260583333334, "lat": 38.86351716666667, "name": "2a1b5dcabf9e979c513237c532da3b47", "fusion_lat": 0.0, "fusion_lon": 0.0, "rental_uris": {"android": "https://dc.lft.to/lastmile_qr_scan", "ios": "https://dc.lft.to/lastmile_qr_scan"}, "is_reserved": 0, "is_disabled": 0, "type": "electric_scooter", "bike_id": "2a1b5dcabf9e979c513237c532da3b47"}, {"lon": -77.022006, "lat": 38.9312655, "name": "065f02e29bc5fa615527c0e9b1ab87a3", "fusion_lat": 0.0, "fusion_lon": 0.0, "rental_uris": {"android": "https://dc.lft.to/lastmile_qr_scan", "ios": "https://dc.lft.to/lastmile_qr_scan"}, "is_reserved": 0, "is_disabled": 0, "type": "electric_scooter", "bike_id": "065f02e29bc5fa615527c0e9b1ab87a3"}, {"lon": -77.04786883333334, "lat": 38.8937825, "name": "ec8393d3ab3d20d61a30ac67fd32deb6", "fusion_lat": 0.0, "fusion_lon": 0.0, "rental_uris": {"android": "https://dc.lft.to/lastmile_qr_scan", "ios": "https://dc.lft.to/lastmile_qr_scan"}, "is_reserved": 0, "is_disabled": 0, "type": "electric_scooter", "bike_id": "ec8393d3ab3d20d61a30ac67fd32deb6"}, {"lon": -77.03274866666666, "lat": 38.929276333333334, "name": "044fe947da10ab3e8d02dfc09bf34082", "fusion_lat": 0.0, "fusion_lon": 0.0, "rental_uris": {"android": "https://dc.lft.to/lastmile_qr_scan", "ios": "https://dc.lft.to/lastmile_qr_scan"}, "is_reserved": 0, "is_disabled": 0, "type": "electric_bike", "bike_id": "044fe947da10ab3e8d02dfc09bf34082"}, {"lon": -77.018329, "lat": 38.908814, "name": "7ce3eb6297b23429f11b5f77876e0a23", "fusion_lat": 0.0, "fusion_lon": 0.0, "rental_uris": {"android": "https://dc.lft.to/lastmile_qr_scan", "ios": "https://dc.lft.to/lastmile_qr_scan"}, "is_reserved": 0, "is_disabled": 0, "type": "electric_scooter", "bike_id": "7ce3eb6297b23429f11b5f77876e0a23"}, {"lon": -77.04229483333333, "lat": 38.93859533333333, "name": "2530d5a3aadec27a3eecdb1a9f332568", "fusion_lat": 0.0, "fusion_lon": 0.0, "rental_uris": {"android": "https://dc.lft.to/lastmile_qr_scan", "ios": "https://dc.lft.to/lastmile_qr_scan"}, "is_reserved": 0, "is_disabled": 0, "type": "electric_bike", "bike_id": "2530d5a3aadec27a3eecdb1a9f332568"}, {"lon": -77.05318933333334, "lat": 38.902671, "name": "b09894bf0cc04fb3e4c08e084d6f591f", "fusion_lat": 0.0, "fusion_lon": 0.0, "rental_uris": {"android": "https://dc.lft.to/lastmile_qr_scan", "ios": "https://dc.lft.to/lastmile_qr_scan"}, "is_reserved": 0, "is_disabled": 0, "type": "electric_scooter", "bike_id": "b09894bf0cc04fb3e4c08e084d6f591f"}, {"lon": -77.04427466666667, "lat": 38.905704166666666, "name": "8b3bb67e0e1ffe65b37bc981d5c63d9e", "fusion_lat": 0.0, "fusion_lon": 0.0, "rental_uris": {"android": "https://dc.lft.to/lastmile_qr_scan", "ios": "https://dc.lft.to/lastmile_qr_scan"}, "is_reserved": 0, "is_disabled": 0, "type": "electric_scooter", "bike_id": "8b3bb67e0e1ffe65b37bc981d5c63d9e"}, {"lon": -77.032575, "lat": 38.93816533333333, "name": "7ad96b48eee589ed8621cbb828af5113", "fusion_lat": 0.0, "fusion_lon": 0.0, "rental_uris": {"android": "https://dc.lft.to/lastmile_qr_scan", "ios": "https://dc.lft.to/lastmile_qr_scan"}, "is_reserved": 0, "is_disabled": 0, "type": "electric_scooter", "bike_id": "7ad96b48eee589ed8621cbb828af5113"}, {"lon": -77.01655233333334, "lat": 38.953288666666666, "name": "9312e5edb9464607d5f6f63bceee8ced", "fusion_lat": 0.0, "fusion_lon": 0.0, "rental_uris": {"android": "https://dc.lft.to/lastmile_qr_scan", "ios": "https://dc.lft.to/lastmile_qr_scan"}, "is_reserved": 0, "is_disabled": 0, "type": "electric_scooter", "bike_id": "9312e5edb9464607d5f6f63bceee8ced"}, {"lon": -76.99763966666667, "lat": 38.922609333333334, "name": "ac7ab1f3a7d85f93edc92bc49b13e182", "fusion_lat": 0.0, "fusion_lon": 0.0, "rental_uris": {"android": "https://dc.lft.to/lastmile_qr_scan", "ios": "https://dc.lft.to/lastmile_qr_scan"}, "is_reserved": 0, "is_disabled": 0, "type": "electric_scooter", "bike_id": "ac7ab1f3a7d85f93edc92bc49b13e182"}, {"lon": -77.01191516666667, "lat": 38.899937, "name": "3c8ca9b2854c2f49798b66c6f02d5d8b", "fusion_lat": 0.0, "fusion_lon": 0.0, "rental_uris": {"android": "https://dc.lft.to/lastmile_qr_scan", "ios": "https://dc.lft.to/lastmile_qr_scan"}, "is_reserved": 0, "is_disabled": 0, "type": "electric_scooter", "bike_id": "3c8ca9b2854c2f49798b66c6f02d5d8b"}, {"lon": -77.06006366666666, "lat": 38.902827333333335, "name": "2fda247621cfc7601b214ed3f1819525", "fusion_lat": 0.0, "fusion_lon": 0.0, "rental_uris": {"android": "https://dc.lft.to/lastmile_qr_scan", "ios": "https://dc.lft.to/lastmile_qr_scan"}, "is_reserved": 0, "is_disabled": 0, "type": "electric_bike", "bike_id": "2fda247621cfc7601b214ed3f1819525"}, {"lon": -77.023966, "lat": 38.90174966666667, "name": "4b5f1cff2d4737e8732daf498cbb0081", "fusion_lat": 0.0, "fusion_lon": 0.0, "rental_uris": {"android": "https://dc.lft.to/lastmile_qr_scan", "ios": "https://dc.lft.to/lastmile_qr_scan"}, "is_reserved": 0, "is_disabled": 0, "type": "electric_scooter", "bike_id": "4b5f1cff2d4737e8732daf498cbb0081"}, {"lon": -77.03631766666666, "lat": 38.9559845, "name": "7979dc4032d88743ffcfaa54ac8aa38b", "fusion_lat": 0.0, "fusion_lon": 0.0, "rental_uris": {"android": "https://dc.lft.to/lastmile_qr_scan", "ios": "https://dc.lft.to/lastmile_qr_scan"}, "is_reserved": 0, "is_disabled": 0, "type": "electric_scooter", "bike_id": "7979dc4032d88743ffcfaa54ac8aa38b"}, {"lon": -77.00145583333334, "lat": 38.9001645, "name": "7559c4c1df014979aa5fd60ff906ce12", "fusion_lat": 0.0, "fusion_lon": 0.0, "rental_uris": {"android": "https://dc.lft.to/lastmile_qr_scan", "ios": "https://dc.lft.to/lastmile_qr_scan"}, "is_reserved": 0, "is_disabled": 0, "type": "electric_scooter", "bike_id": "7559c4c1df014979aa5fd60ff906ce12"}, {"lon": -77.0259705, "lat": 38.920352, "name": "6a6abed8ab312babcc9d130934005524", "fusion_lat": 0.0, "fusion_lon": 0.0, "rental_uris": {"android": "https://dc.lft.to/lastmile_qr_scan", "ios": "https://dc.lft.to/lastmile_qr_scan"}, "is_reserved": 0, "is_disabled": 0, "type": "electric_scooter", "bike_id": "6a6abed8ab312babcc9d130934005524"}, {"lon": -77.11219333333334, "lat": 38.828760333333335, "name": "c529b3b1ea8804239bebaa801aac9a49", "fusion_lat": 0.0, "fusion_lon": 0.0, "rental_uris": {"android": "https://dc.lft.to/lastmile_qr_scan", "ios": "https://dc.lft.to/lastmile_qr_scan"}, "is_reserved": 0, "is_disabled": 0, "type": "electric_bike", "bike_id": "c529b3b1ea8804239bebaa801aac9a49"}, {"lon": -77.05617333333333, "lat": 38.924242666666665, "name": "503063e4464f0d4c368258b28008773f", "fusion_lat": 0.0, "fusion_lon": 0.0, "rental_uris": {"android": "https://dc.lft.to/lastmile_qr_scan", "ios": "https://dc.lft.to/lastmile_qr_scan"}, "is_reserved": 0, "is_disabled": 0, "type": "electric_scooter", "bike_id": "503063e4464f0d4c368258b28008773f"}, {"lon": -77.0768325, "lat": 38.831939166666665, "name": "a7243ee72348ec183fd4dad2b56c50e3", "fusion_lat": 0.0, "fusion_lon": 0.0, "rental_uris": {"android": "https://dc.lft.to/lastmile_qr_scan", "ios": "https://dc.lft.to/lastmile_qr_scan"}, "is_reserved": 0, "is_disabled": 0, "type": "electric_bike", "bike_id": "a7243ee72348ec183fd4dad2b56c50e3"}, {"lon": -77.07349216666667, "lat": 38.933551666666666, "name": "65053dab5df383d7609244708253fe70", "fusion_lat": 0.0, "fusion_lon": 0.0, "rental_uris": {"android": "https://dc.lft.to/lastmile_qr_scan", "ios": "https://dc.lft.to/lastmile_qr_scan"}, "is_reserved": 0, "is_disabled": 0, "type": "electric_scooter", "bike_id": "65053dab5df383d7609244708253fe70"}, {"lon": -77.048816, "lat": 38.901141, "name": "d0eddcf74c9508204a1851f8353617f7", "fusion_lat": 0.0, "fusion_lon": 0.0, "rental_uris": {"android": "https://dc.lft.to/lastmile_qr_scan", "ios": "https://dc.lft.to/lastmile_qr_scan"}, "is_reserved": 0, "is_disabled": 0, "type": "electric_scooter", "bike_id": "d0eddcf74c9508204a1851f8353617f7"}, {"lon": -77.12260533333334, "lat": 38.891878166666665, "name": "482bdf932e34aa9068052e0ede04b081", "fusion_lat": 0.0, "fusion_lon": 0.0, "rental_uris": {"android": "https://dc.lft.to/lastmile_qr_scan", "ios": "https://dc.lft.to/lastmile_qr_scan"}, "is_reserved": 0, "is_disabled": 0, "type": "electric_bike", "bike_id": "482bdf932e34aa9068052e0ede04b081"}, {"lon": -77.04761133333334, "lat": 38.90212316666667, "name": "e2f6f15ebd7d9412f5fab63bf894fc57", "fusion_lat": 0.0, "fusion_lon": 0.0, "rental_uris": {"android": "https://dc.lft.to/lastmile_qr_scan", "ios": "https://dc.lft.to/lastmile_qr_scan"}, "is_reserved": 0, "is_disabled": 0, "type": "electric_scooter", "bike_id": "e2f6f15ebd7d9412f5fab63bf894fc57"}, {"lon": -76.93541033333334, "lat": 38.95549066666667, "name": "6fc9cf00d56bf122ecdd6e20068a7bf0", "fusion_lat": 0.0, "fusion_lon": 0.0, "rental_uris": {"android": "https://dc.lft.to/lastmile_qr_scan", "ios": "https://dc.lft.to/lastmile_qr_scan"}, "is_reserved": 0, "is_disabled": 0, "type": "electric_bike", "bike_id": "6fc9cf00d56bf122ecdd6e20068a7bf0"}, {"lon": -77.035711, "lat": 38.957241833333335, "name": "1581ce29873483c784f95bad6412aa21", "fusion_lat": 0.0, "fusion_lon": 0.0, "rental_uris": {"android": "https://dc.lft.to/lastmile_qr_scan", "ios": "https://dc.lft.to/lastmile_qr_scan"}, "is_reserved": 0, "is_disabled": 0, "type": "electric_scooter", "bike_id": "1581ce29873483c784f95bad6412aa21"}, {"lon": -77.03449933333333, "lat": 38.902924666666664, "name": "175d2e79ff62ae6a8c66364c8cd3383c", "fusion_lat": 0.0, "fusion_lon": 0.0, "rental_uris": {"android": "https://dc.lft.to/lastmile_qr_scan", "ios": "https://dc.lft.to/lastmile_qr_scan"}, "is_reserved": 0, "is_disabled": 0, "type": "electric_scooter", "bike_id": "175d2e79ff62ae6a8c66364c8cd3383c"}, {"lon": -76.987317, "lat": 38.944304333333335, "name": "f29379dee87e9ec2476be080d9d13ebc", "fusion_lat": 0.0, "fusion_lon": 0.0, "rental_uris": {"android": "https://dc.lft.to/lastmile_qr_scan", "ios": "https://dc.lft.to/lastmile_qr_scan"}, "is_reserved": 0, "is_disabled": 0, "type": "electric_bike", "bike_id": "f29379dee87e9ec2476be080d9d13ebc"}, {"lon": -77.0120255, "lat": 38.918887166666664, "name": "8f15d504d84b08cb86042a30918af619", "fusion_lat": 0.0, "fusion_lon": 0.0, "rental_uris": {"android": "https://dc.lft.to/lastmile_qr_scan", "ios": "https://dc.lft.to/lastmile_qr_scan"}, "is_reserved": 0, "is_disabled": 0, "type": "electric_scooter", "bike_id": "8f15d504d84b08cb86042a30918af619"}, {"lon": -77.047503, "lat": 38.90231633333333, "name": "aba2807bc91ad4fdcf0fd24736e70ea8", "fusion_lat": 0.0, "fusion_lon": 0.0, "rental_uris": {"android": "https://dc.lft.to/lastmile_qr_scan", "ios": "https://dc.lft.to/lastmile_qr_scan"}, "is_reserved": 0, "is_disabled": 0, "type": "electric_scooter", "bike_id": "aba2807bc91ad4fdcf0fd24736e70ea8"}, {"lon": -77.01094416666666, "lat": 38.90559016666667, "name": "b3cb93e48470dcd065447214bed2a514", "fusion_lat": 0.0, "fusion_lon": 0.0, "rental_uris": {"android": "https://dc.lft.to/lastmile_qr_scan", "ios": "https://dc.lft.to/lastmile_qr_scan"}, "is_reserved": 0, "is_disabled": 0, "type": "electric_scooter", "bike_id": "b3cb93e48470dcd065447214bed2a514"}, {"lon": -76.97622766666667, "lat": 38.90571283333333, "name": "073adfc6bafd67cf28fcbd72ee107d9d", "fusion_lat": 0.0, "fusion_lon": 0.0, "rental_uris": {"android": "https://dc.lft.to/lastmile_qr_scan", "ios": "https://dc.lft.to/lastmile_qr_scan"}, "is_reserved": 0, "is_disabled": 0, "type": "electric_scooter", "bike_id": "073adfc6bafd67cf28fcbd72ee107d9d"}, {"lon": -77.01110833333334, "lat": 38.894988, "name": "37bf234e526372de3d901552dd799e75", "fusion_lat": 0.0, "fusion_lon": 0.0, "rental_uris": {"android": "https://dc.lft.to/lastmile_qr_scan", "ios": "https://dc.lft.to/lastmile_qr_scan"},