{"data": {"bikes": [{"is_disabled": 0, "fusion_lon": 0.0, "fusion_lat": 0.0, "lat": 38.919123666666664, "type": "electric_scooter", "lon": -77.02516416666667, "bike_id": "99b2fb88a4b6440b624bbc7dcd2593da", "rental_uris": {"android": "https://dc.lft.to/lastmile_qr_scan", "ios": "https://dc.lft.to/lastmile_qr_scan"}, "name": "99b2fb88a4b6440b624bbc7dcd2593da", "is_reserved": 0}, {"is_disabled": 0, "fusion_lon": 0.0, "fusion_lat": 0.0, "lat": 38.89557516666667, "type": "electric_scooter", "lon": -77.022782, "bike_id": "08ab764e18a59eb20ce9d08e33525228", "rental_uris": {"android": "https://dc.lft.to/lastmile_qr_scan", "ios": "https://dc.lft.to/lastmile_qr_scan"}, "name": "08ab764e18a59eb20ce9d08e33525228", "is_reserved": 0}, {"is_disabled": 0, "fusion_lon": 0.0, "fusion_lat": 0.0, "lat": 38.8949075, "type": "electric_scooter", "lon": -77.022822, "bike_id": "50d65ca37b38c34013adf1b0f245fcf8", "rental_uris": {"android": "https://dc.lft.to/lastmile_qr_scan", "ios": "https://dc.lft.to/lastmile_qr_scan"}, "name": "50d65ca37b38c34013adf1b0f245fcf8", "is_reserved": 0}, {"is_disabled": 0, "fusion_lon": 0.0, "fusion_lat": 0.0, "lat": 38.87665916666667, "type": "electric_scooter", "lon": -77.00388883333333, "bike_id": "0aea323f7cbb94fdeafe5b349b4df79b", "rental_uris": {"android": "https://dc.lft.to/lastmile_qr_scan", "ios": "https://dc.lft.to/lastmile_qr_scan"}, "name": "0aea323f7cbb94fdeafe5b349b4df79b", "is_reserved": 0}, {"is_disabled": 0, "fusion_lon": 0.0, "fusion_lat": 0.0, "lat": 38.91677166666667, "type": "electric_scooter", "lon": -77.02975116666667, "bike_id": "8d03dce2c473b2863b7df87f759edc02", "rental_uris": {"android": "https://dc.lft.to/lastmile_qr_scan", "ios": "https://dc.lft.to/lastmile_qr_scan"}, "name": "8d03dce2c473b2863b7df87f759edc02", "is_reserved": 0}, {"is_disabled": 0, "fusion_lon": 0.0, "fusion_lat": 0.0, "lat": 38.9242705, "type": "electric_scooter", "lon": -77.04481466666667, "bike_id": "eb937ded9d24c8da322a08c28e111b79", "rental_uris": {"android": "https://dc.lft.to/lastmile_qr_scan", "ios": "https://dc.lft.to/lastmile_qr_scan"}, "name": "eb937ded9d24c8da322a08c28e111b79", "is_reserved": 0}, {"is_disabled": 0, "fusion_lon": 0.0, "fusion_lat": 0.0, "lat": 38.9012375, "type": "electric_scooter", "lon": -77.02703, "bike_id": "cb62d9325954da73f16e0777f0c117f2", "rental_uris": {"android": "https://dc.lft.to/lastmile_qr_scan", "ios": "https://dc.lft.to/lastmile_qr_scan"}, "name": "cb62d9325954da73f16e0777f0c117f2", "is_reserved": 0}, {"is_disabled": 0, "fusion_lon": 0.0, "fusion_lat": 0.0, "lat": 38.911810333333335, "type": "electric_scooter", "lon": -77.027048, "bike_id": "ca9ea6e6be3102e45d629615c55dfbcf", "rental_uris": {"android": "https://dc.lft.to/lastmile_qr_scan", "ios": "https://dc.lft.to/lastmile_qr_scan"}, "name": "ca9ea6e6be3102e45d629615c55dfbcf", "is_reserved": 0}, {"is_disabled": 0, "fusion_lon": 0.0, "fusion_lat": 0.0, "lat": 38.93544, "type": "electric_scooter", "lon": -77.058188, "bike_id": "a7efeabcb77d29eca14a1912f52b4b3a", "rental_uris": {"android": "https://dc.lft.to/lastmile_qr_scan", "ios": "https://dc.lft.to/lastmile_qr_scan"}, "name": "a7efeabcb77d29eca14a1912f52b4b3a", "is_reserved": 0}, {"is_disabled": 0, "fusion_lon": 0.0, "fusion_lat": 0.0, "lat": 38.944962833333335, "type": "electric_bike", "lon": -76.98663933333333, "bike_id": "6a6fcb49d3bf787f7ba7e40879b5319d", "rental_uris": {"android": "https://dc.lft.to/lastmile_qr_scan", "ios": "https://dc.lft.to/lastmile_qr_scan"}, "name": "6a6fcb49d3bf787f7ba7e40879b5319d", "is_reserved": 0}, {"is_disabled": 0, "fusion_lon": 0.0, "fusion_lat": 0.0, "lat": 38.91268616666667, "type": "electric_scooter", "lon": -77.04147233333333, "bike_id": "a4a972b2252b54e70304f332c5a2014c", "rental_uris": {"android": "https://dc.lft.to/lastmile_qr_scan", "ios": "https://dc.lft.to/lastmile_qr_scan"}, "name": "a4a972b2252b54e70304f332c5a2014c", "is_reserved": 0}, {"is_disabled": 0, "fusion_lon": 0.0, "fusion_lat": 0.0, "lat": 38.95125316666667, "type": "electric_scooter", "lon": -77.014028, "bike_id": "af91c16efb689331fbfbf7fce1874638", "rental_uris": {"android": "https://dc.lft.to/lastmile_qr_scan", "ios": "https://dc.lft.to/lastmile_qr_scan"}, "name": "af91c16efb689331fbfbf7fce1874638", "is_reserved": 0}, {"is_disabled": 0, "fusion_lon": 0.0, "fusion_lat": 0.0, "lat": 38.8451205, "type": "electric_bike", "lon": -76.97215066666666, "bike_id": "2211d3dd0bfa270a1a7c8719bc229a7f", "rental_uris": {"android": "https://dc.lft.to/lastmile_qr_scan", "ios": "https://dc.lft.to/lastmile_qr_scan"}, "name": "2211d3dd0bfa270a1a7c8719bc229a7f", "is_reserved": 0}, {"is_disabled": 0, "fusion_lon": 0.0, "fusion_lat": 0.0, "lat": 38.91404683333333, "type": "electric_scooter", "lon": -77.04211066666667, "bike_id": "16cbea0aaba1bc8f1fabb42474369f7c", "rental_uris": {"android": "https://dc.lft.to/lastmile_qr_scan", "ios": "https://dc.lft.to/lastmile_qr_scan"}, "name": "16cbea0aaba1bc8f1fabb42474369f7c", "is_reserved": 0}, {"is_disabled": 0, "fusion_lon": 0.0, "fusion_lat": 0.0, "lat": 38.91417366666667, "type": "electric_scooter", "lon": -77.03763033333334, "bike_id": "051d31d6a86ce4f2de4c316f077280dc", "rental_uris": {"android": "https://dc.lft.to/lastmile_qr_scan", "ios": "https://dc.lft.to/lastmile_qr_scan"}, "name": "051d31d6a86ce4f2de4c316f077280dc", "is_reserved": 0}, {"is_disabled": 0, "fusion_lon": 0.0, "fusion_lat": 0.0, "lat": 38.9207315, "type": "electric_scooter", "lon": -77.02411166666667, "bike_id": "1919daa96ca0ff1d14bdd9252fca4e1f", "rental_uris": {"android": "https://dc.lft.to/lastmile_qr_scan", "ios": "https://dc.lft.to/lastmile_qr_scan"}, "name": "1919daa96ca0ff1d14bdd9252fca4e1f", "is_reserved": 0}, {"is_disabled": 0, "fusion_lon": 0.0, "fusion_lat": 0.0, "lat": 38.8974225, "type": "electric_scooter", "lon": -77.04675433333334, "bike_id": "cf53133674ad3ac0c30994b7412be953", "rental_uris": {"android": "https://dc.lft.to/lastmile_qr_scan", "ios": "https://dc.lft.to/lastmile_qr_scan"}, "name": "cf53133674ad3ac0c30994b7412be953", "is_reserved": 0}, {"is_disabled": 0, "fusion_lon": 0.0, "fusion_lat": 0.0, "lat": 38.909059166666665, "type": "electric_scooter", "lon": -77.02715166666667, "bike_id": "1b53981b51c3c78d144c816b57bcfb91", "rental_uris": {"android": "https://dc.lft.to/lastmile_qr_scan", "ios": "https://dc.lft.to/lastmile_qr_scan"}, "name": "1b53981b51c3c78d144c816b57bcfb91", "is_reserved": 0}, {"is_disabled": 0, "fusion_lon": 0.0, "fusion_lat": 0.0, "lat": 38.99865416666667, "type": "electric_bike", "lon": -77.02882216666667, "bike_id": "5504d11a19e002439ea92e9068830148", "rental_uris": {"android": "https://dc.lft.to/lastmile_qr_scan", "ios": "https://dc.lft.to/lastmile_qr_scan"}, "name": "5504d11a19e002439ea92e9068830148", "is_reserved": 0}, {"is_disabled": 0, "fusion_lon": 0.0, "fusion_lat": 0.0, "lat": 38.908722, "type": "electric_scooter", "lon": -77.0269155, "bike_id": "453ad4d575aa15d45aac2f819051a1d6", "rental_uris": {"android": "https://dc.lft.to/lastmile_qr_scan", "ios": "https://dc.lft.to/lastmile_qr_scan"}, "name": "453ad4d575aa15d45aac2f819051a1d6", "is_reserved": 0}, {"is_disabled": 0, "fusion_lon": 0.0, "fusion_lat": 0.0, "lat": 38.8990765, "type": "electric_scooter", "lon": -77.03930166666666, "bike_id": "7b79ebe59887fe190bddf1e5348f22d6", "rental_uris": {"android": "https://dc.lft.to/lastmile_qr_scan", "ios": "https://dc.lft.to/lastmile_qr_scan"}, "name": "7b79ebe59887fe190bddf1e5348f22d6", "is_reserved": 0}, {"is_disabled": 0, "fusion_lon": 0.0, "fusion_lat": 0.0, "lat": 38.93928483333333, "type": "electric_scooter", "lon": -77.07468866666666, "bike_id": "a394109cd22d8a9aa927ab55cd6456c4", "rental_uris": {"android": "https://dc.lft.to/lastmile_qr_scan", "ios": "https://dc.lft.to/lastmile_qr_scan"}, "name": "a394109cd22d8a9aa927ab55cd6456c4", "is_reserved": 0}, {"is_disabled": 0, "fusion_lon": 0.0, "fusion_lat": 0.0, "lat": 38.930551333333334, "type": "electric_scooter", "lon": -77.02973683333333, "bike_id": "8fce59897dbed8aaf3568c62a7628194", "rental_uris": {"android": "https://dc.lft.to/lastmile_qr_scan", "ios": "https://dc.lft.to/lastmile_qr_scan"}, "name": "8fce59897dbed8aaf3568c62a7628194", "is_reserved": 0}, {"is_disabled": 0, "fusion_lon": 0.0, "fusion_lat": 0.0, "lat": 38.90129616666667, "type": "electric_scooter", "lon": -77.04421516666666, "bike_id": "799eba4bc42a6d25ef321bd374fa25f3", "rental_uris": {"android": "https://dc.lft.to/lastmile_qr_scan", "ios": "https://dc.lft.to/lastmile_qr_scan"}, "name": "799eba4bc42a6d25ef321bd374fa25f3", "is_reserved": 0}, {"is_disabled": 0, "fusion_lon": 0.0, "fusion_lat": 0.0, "lat": 39.024959, "type": "electric_bike", "lon": -77.12571416666667, "bike_id": "e78050b23321c1043b7764003bdc682b", "rental_uris": {"android": "https://dc.lft.to/lastmile_qr_scan", "ios": "https://dc.lft.to/lastmile_qr_scan"}, "name": "e78050b23321c1043b7764003bdc682b", "is_reserved": 0}, {"is_disabled": 0, "fusion_lon": 0.0, "fusion_lat": 0.0, "lat": 38.900267, "type": "electric_scooter", "lon": -76.99626533333333, "bike_id": "1dbcee1039e8019f0e4d89a94efc5abf", "rental_uris": {"android": "https://dc.lft.to/lastmile_qr_scan", "ios": "https://dc.lft.to/lastmile_qr_scan"}, "name": "1dbcee1039e8019f0e4d89a94efc5abf", "is_reserved": 0}, {"is_disabled": 0, "fusion_lon": 0.0, "fusion_lat": 0.0, "lat": 38.898499666666666, "type": "electric_scooter", "lon": -77.0290595, "bike_id": "fe10a2a19c49249195909c3ecbde741d", "rental_uris": {"android": "https://dc.lft.to/lastmile_qr_scan", "ios": "https://dc.lft.to/lastmile_qr_scan"}, "name": "fe10a2a19c49249195909c3ecbde741d", "is_reserved": 0}, {"is_disabled": 0, "fusion_lon": 0.0, "fusion_lat": 0.0, "lat": 38.91843883333333, "type": "electric_scooter", "lon": -77.03225466666666, "bike_id": "4055f4b6555c80d31f356b7b96d9800a", "rental_uris": {"android": "https://dc.lft.to/lastmile_qr_scan", "ios": "https://dc.lft.to/lastmile_qr_scan"}, "name": "4055f4b6555c80d31f356b7b96d9800a", "is_reserved": 0}, {"is_disabled": 0, "fusion_lon": 0.0, "fusion_lat": 0.0, "lat": 38.923799333333335, "type": "electric_scooter", "lon": -77.03078083333334, "bike_id": "c1afdf1d4c01b60383044d18bb1e9b13", "rental_uris": {"android": "https://dc.lft.to/lastmile_qr_scan", "ios": "https://dc.lft.to/lastmile_qr_scan"}, "name": "c1afdf1d4c01b60383044d18bb1e9b13", "is_reserved": 0}, {"is_disabled": 0, "fusion_lon": 0.0, "fusion_lat": 0.0, "lat": 38.9170195, "type": "electric_scooter", "lon": -77.027349, "bike_id": "e4240cccda7a3756098c5ba2bac93f87", "rental_uris": {"android": "https://dc.lft.to/lastmile_qr_scan", "ios": "https://dc.lft.to/lastmile_qr_scan"}, "name": "e4240cccda7a3756098c5ba2bac93f87", "is_reserved": 0}, {"is_disabled": 0, "fusion_lon": 0.0, "fusion_lat": 0.0, "lat": 38.902586, "type": "electric_scooter", "lon": -77.03962366666667, "bike_id": "f31f1e20c3b9e191165f431741321a78", "rental_uris": {"android": "https://dc.lft.to/lastmile_qr_scan", "ios": "https://dc.lft.to/lastmile_qr_scan"}, "name": "f31f1e20c3b9e191165f431741321a78", "is_reserved": 0}, {"is_disabled": 0, "fusion_lon": 0.0, "fusion_lat": 0.0, "lat": 38.92242866666667, "type": "electric_scooter", "lon": -77.03664, "bike_id": "176aee8a99d02e96c6259e2b6577fb5f", "rental_uris": {"android": "https://dc.lft.to/lastmile_qr_scan", "ios": "https://dc.lft.to/lastmile_qr_scan"}, "name": "176aee8a99d02e96c6259e2b6577fb5f", "is_reserved": 0}, {"is_disabled": 0, "fusion_lon": 0.0, "fusion_lat": 0.0, "lat": 38.94320116666667, "type": "electric_scooter", "lon": -77.06174583333333, "bike_id": "6e4157e045e3ad0caa6d0e8f4a860213", "rental_uris": {"android": "https://dc.lft.to/lastmile_qr_scan", "ios": "https://dc.lft.to/lastmile_qr_scan"}, "name": "6e4157e045e3ad0caa6d0e8f4a860213", "is_reserved": 0}, {"is_disabled": 0, "fusion_lon": 0.0, "fusion_lat": 0.0, "lat": 38.926306833333335, "type": "electric_scooter", "lon": -77.035071, "bike_id": "f811db8fd45885d7aac8e0bdeb5b1239", "rental_uris": {"android": "https://dc.lft.to/lastmile_qr_scan", "ios": "https://dc.lft.to/lastmile_qr_scan"}, "name": "f811db8fd45885d7aac8e0bdeb5b1239", "is_reserved": 0}, {"is_disabled": 0, "fusion_lon": 0.0, "fusion_lat": 0.0, "lat": 38.890166666666666, "type": "electric_scooter", "lon": -76.9383705, "bike_id": "b6711c795ea34e9ba70c37ddfc6c1fac", "rental_uris": {"android": "https://dc.lft.to/lastmile_qr_scan", "ios": "https://dc.lft.to/lastmile_qr_scan"}, "name": "b6711c795ea34e9ba70c37ddfc6c1fac", "is_reserved": 0}, {"is_disabled": 0, "fusion_lon": 0.0, "fusion_lat": 0.0, "lat": 38.930870166666665, "type": "electric_scooter", "lon": -77.03622383333334, "bike_id": "889ab04bf0d5143b981ba353d5670491", "rental_uris": {"android": "https://dc.lft.to/lastmile_qr_scan", "ios": "https://dc.lft.to/lastmile_qr_scan"}, "name": "889ab04bf0d5143b981ba353d5670491", "is_reserved": 0}, {"is_disabled": 0, "fusion_lon": 0.0, "fusion_lat": 0.0, "lat": 38.91466916666667, "type": "electric_scooter", "lon": -77.01989766666667, "bike_id": "7fcecef5944f1c23b5174578810ba611", "rental_uris": {"android": "https://dc.lft.to/lastmile_qr_scan", "ios": "https://dc.lft.to/lastmile_qr_scan"}, "name": "7fcecef5944f1c23b5174578810ba611", "is_reserved": 0}, {"is_disabled": 0, "fusion_lon": 0.0, "fusion_lat": 0.0, "lat": 38.9036145, "type": "electric_scooter", "lon": -77.00342166666667, "bike_id": "f033b90e6173c3f2561afc3dca6fc531", "rental_uris": {"android": "https://dc.lft.to/lastmile_qr_scan", "ios": "https://dc.lft.to/lastmile_qr_scan"}, "name": "f033b90e6173c3f2561afc3dca6fc531", "is_reserved": 0}, {"is_disabled": 0, "fusion_lon": 0.0, "fusion_lat": 0.0, "lat": 38.9236345, "type": "electric_bike", "lon": -77.05131933333334, "bike_id": "432ebf97baa3d875c897026db1e9df32", "rental_uris": {"android": "https://dc.lft.to/lastmile_qr_scan", "ios": "https://dc.lft.to/lastmile_qr_scan"}, "name": "432ebf97baa3d875c897026db1e9df32", "is_reserved": 0}, {"is_disabled": 0, "fusion_lon": 0.0, "fusion_lat": 0.0, "lat": 38.916994333333335, "type": "electric_scooter", "lon": -77.033482, "bike_id": "9171a96c15832dd054979fbd817673df", "rental_uris": {"android": "https://dc.lft.to/lastmile_qr_scan", "ios": "https://dc.lft.to/lastmile_qr_scan"}, "name": "9171a96c15832dd054979fbd817673df", "is_reserved": 0}, {"is_disabled": 0, "fusion_lon": 0.0, "fusion_lat": 0.0, "lat": 38.930710833333336, "type": "electric_scooter", "lon": -77.02985183333334, "bike_id": "68dc3c765509ecc1b664fbb1ae5687fd", "rental_uris": {"android": "https://dc.lft.to/lastmile_qr_scan", "ios": "https://dc.lft.to/lastmile_qr_scan"}, "name": "68dc3c765509ecc1b664fbb1ae5687fd", "is_reserved": 0}, {"is_disabled": 0, "fusion_lon": 0.0, "fusion_lat": 0.0, "lat": 38.9230955, "type": "electric_scooter", "lon": -77.03918116666667, "bike_id": "7d6d5c2b76161f9bb9fe5a3764a09a0c", "rental_uris": {"android": "https://dc.lft.to/lastmile_qr_scan", "ios": "https://dc.lft.to/lastmile_qr_scan"}, "name": "7d6d5c2b76161f9bb9fe5a3764a09a0c", "is_reserved": 0}, {"is_disabled": 0, "fusion_lon": 0.0, "fusion_lat": 0.0, "lat": 38.911698333333334, "type": "electric_scooter", "lon": -77.02699083333333, "bike_id": "c3dfb42c778f62045a8530d957840b49", "rental_uris": {"android": "https://dc.lft.to/lastmile_qr_scan", "ios": "https://dc.lft.to/lastmile_qr_scan"}, "name": "c3dfb42c778f62045a8530d957840b49", "is_reserved": 0}, {"is_disabled": 0, "fusion_lon": 0.0, "fusion_lat": 0.0, "lat": 38.89505, "type": "electric_scooter", "lon": -76.94880733333333, "bike_id": "565101a75fa41c69a7b630152373f56d", "rental_uris": {"android": "https://dc.lft.to/lastmile_qr_scan", "ios": "https://dc.lft.to/lastmile_qr_scan"}, "name": "565101a75fa41c69a7b630152373f56d", "is_reserved": 0}, {"is_disabled": 0, "fusion_lon": 0.0, "fusion_lat": 0.0, "lat": 38.90376116666667, "type": "electric_scooter", "lon": -76.98965916666667, "bike_id": "7a0e8bf43a23f2e0c3c90950542edaf4", "rental_uris": {"android": "https://dc.lft.to/lastmile_qr_scan", "ios": "https://dc.lft.to/lastmile_qr_scan"}, "name": "7a0e8bf43a23f2e0c3c90950542edaf4", "is_reserved": 0}, {"is_disabled": 0, "fusion_lon": 0.0, "fusion_lat": 0.0, "lat": 38.90678533333333, "type": "electric_scooter", "lon": -77.009073, "bike_id": "99ca37d537b67cc0a67a213a311f5342", "rental_uris": {"android": "https://dc.lft.to/lastmile_qr_scan", "ios": "https://dc.lft.to/lastmile_qr_scan"}, "name": "99ca37d537b67cc0a67a213a311f5342", "is_reserved": 0}, {"is_disabled": 0, "fusion_lon": 0.0, "fusion_lat": 0.0, "lat": 38.90879733333333, "type": "electric_scooter", "lon": -77.0269225, "bike_id": "c1de30bfcffa87c962058861ba6431de", "rental_uris": {"android": "https://dc.lft.to/lastmile_qr_scan", "ios": "https://dc.lft.to/lastmile_qr_scan"}, "name": "c1de30bfcffa87c962058861ba6431de", "is_reserved": 0}, {"is_disabled": 0, "fusion_lon": 0.0, "fusion_lat": 0.0, "lat": 38.94204366666666, "type": "electric_scooter", "lon": -77.01833316666666, "bike_id": "2b5e8740bb1c79c248b82eb596cca71d", "rental_uris": {"android": "https://dc.lft.to/lastmile_qr_scan", "ios": "https://dc.lft.to/lastmile_qr_scan"}, "name": "2b5e8740bb1c79c248b82eb596cca71d", "is_reserved": 0}, {"is_disabled": 0, "fusion_lon": 0.0, "fusion_lat": 0.0, "lat": 38.916363, "type": "electric_scooter", "lon": -77.050654, "bike_id": "41e6e9bf74cab8c21f243559e5239010", "rental_uris": {"android": "https://dc.lft.to/lastmile_qr_scan", "ios": "https://dc.lft.to/lastmile_qr_scan"}, "name": "41e6e9bf74cab8c21f243559e5239010", "is_reserved": 0}, {"is_disabled": 0, "fusion_lon": 0.0, "fusion_lat": 0.0, "lat": 38.92474583333333, "type": "electric_scooter", "lon": -77.02671833333333, "bike_id": "821288de9e44890b80c13f172e43c409", "rental_uris": {"android": "https://dc.lft.to/lastmile_qr_scan", "ios": "https://dc.lft.to/lastmile_qr_scan"}, "name": "821288de9e44890b80c13f172e43c409", "is_reserved": 0}, {"is_disabled": 0, "fusion_lon": 0.0, "fusion_lat": 0.0, "lat": 38.931923166666664, "type": "electric_scooter", "lon": -77.02837866666667, "bike_id": "f65134255e45a79131dc19c98f14f239", "rental_uris": {"android": "https://dc.lft.to/lastmile_qr_scan", "ios": "https://dc.lft.to/lastmile_qr_scan"}, "name": "f65134255e45a79131dc19c98f14f239", "is_reserved": 0}, {"is_disabled": 0, "fusion_lon": 0.0, "fusion_lat": 0.0, "lat": 38.894711666666666, "type": "electric_scooter", "lon": -76.9773255, "bike_id": "1400d347e6118dd247b7d966862d088e", "rental_uris": {"android": "https://dc.lft.to/lastmile_qr_scan", "ios": "https://dc.lft.to/lastmile_qr_scan"}, "name": "1400d347e6118dd247b7d966862d088e", "is_reserved": 0}, {"is_disabled": 0, "fusion_lon": 0.0, "fusion_lat": 0.0, "lat": 38.909399, "type": "electric_scooter", "lon": -76.9921425, "bike_id": "30593d4d6ab302bb33521d305601a72b", "rental_uris": {"android": "https://dc.lft.to/lastmile_qr_scan", "ios": "https://dc.lft.to/lastmile_qr_scan"}, "name": "30593d4d6ab302bb33521d305601a72b", "is_reserved": 0}, {"is_disabled": 0, "fusion_lon": 0.0, "fusion_lat": 0.0, "lat": 38.897403833333335, "type": "electric_scooter", "lon": -77.01606016666666, "bike_id": "7fa509c0b719bbbbb1f032082b67599d", "rental_uris": {"android": "https://dc.lft.to/lastmile_qr_scan", "ios": "https://dc.lft.to/lastmile_qr_scan"}, "name": "7fa509c0b719bbbbb1f032082b67599d", "is_reserved": 0}, {"is_disabled": 0, "fusion_lon": 0.0, "fusion_lat": 0.0, "lat": 38.90110883333333, "type": "electric_scooter", "lon": -77.039247, "bike_id": "a7c535a804e0d42897d6e4612f17f46e", "rental_uris": {"android": "https://dc.lft.to/lastmile_qr_scan", "ios": "https://dc.lft.to/lastmile_qr_scan"}, "name": "a7c535a804e0d42897d6e4612f17f46e", "is_reserved": 0}, {"is_disabled": 0, "fusion_lon": 0.0, "fusion_lat": 0.0, "lat": 38.91201983333333, "type": "electric_scooter", "lon": -77.0008035, "bike_id": "121d297b216f740df9a70f67a71430be", "rental_uris": {"android": "https://dc.lft.to/lastmile_qr_scan", "ios": "https://dc.lft.to/lastmile_qr_scan"}, "name": "121d297b216f740df9a70f67a71430be", "is_reserved": 0}, {"is_disabled": 0, "fusion_lon": 0.0, "fusion_lat": 0.0, "lat": 38.8998335, "type": "electric_scooter", "lon": -77.01619483333333, "bike_id": "3aa07053fdf0edd6fefff4524167fdeb", "rental_uris": {"android": "https://dc.lft.to/lastmile_qr_scan", "ios": "https://dc.lft.to/lastmile_qr_scan"}, "name": "3aa07053fdf0edd6fefff4524167fdeb", "is_reserved": 0}, {"is_disabled": 0, "fusion_lon": 0.0, "fusion_lat": 0.0, "lat": 38.93681183333333, "type": "electric_scooter", "lon": -77.03619533333334, "bike_id": "a7ebfebea3df00ea405956fa9b64525d", "rental_uris": {"android": "https://dc.lft.to/lastmile_qr_scan", "ios": "https://dc.lft.to/lastmile_qr_scan"}, "name": "a7ebfebea3df00ea405956fa9b64525d", "is_reserved": 0}, {"is_disabled": 0, "fusion_lon": 0.0, "fusion_lat": 0.0, "lat": 38.94450666666667, "type": "electric_scooter", "lon": -77.06039766666666, "bike_id": "066508a7102405252ccfab1e3a4a45e2", "rental_uris": {"android": "https://dc.lft.to/lastmile_qr_scan", "ios": "https://dc.lft.to/lastmile_qr_scan"}, "name": "066508a7102405252ccfab1e3a4a45e2", "is_reserved": 0}, {"is_disabled": 0, "fusion_lon": 0.0, "fusion_lat": 0.0, "lat": 38.91147766666667, "type": "electric_scooter", "lon": -76.98487733333333, "bike_id": "d270a9e1b42c51761fa18a7f817ec897", "rental_uris": {"android": "https://dc.lft.to/lastmile_qr_scan", "ios": "https://dc.lft.to/lastmile_qr_scan"}, "name": "d270a9e1b42c51761fa18a7f817ec897", "is_reserved": 0}, {"is_disabled": 0, "fusion_lon": 0.0, "fusion_lat": 0.0, "lat": 38.91497283333333, "type": "electric_scooter", "lon": -76.9837805, "bike_id": "14d41401de0143641d08947e0815e218", "rental_uris": {"android": "https://dc.lft.to/lastmile_qr_scan", "ios": "https://dc.lft.to/lastmile_qr_scan"}, "name": "14d41401de0143641d08947e0815e218", "is_reserved": 0}, {"is_disabled": 0, "fusion_lon": 0.0, "fusion_lat": 0.0, "lat": 38.92851533333334, "type": "electric_scooter", "lon": -77.05630133333334, "bike_id": "772cfb67eaf165c113a9dbd0902b2542", "rental_uris": {"android": "https://dc.lft.to/lastmile_qr_scan", "ios": "https://dc.lft.to/lastmile_qr_scan"}, "name": "772cfb67eaf165c113a9dbd0902b2542", "is_reserved": 0}, {"is_disabled": 0, "fusion_lon": 0.0, "fusion_lat": 0.0, "lat": 38.905577666666666, "type": "electric_scooter", "lon": -77.0465695, "bike_id": "660e657c7ed1851b9dda7578ca869206", "rental_uris": {"android": "https://dc.lft.to/lastmile_qr_scan", "ios": "https://dc.lft.to/lastmile_qr_scan"}, "name": "660e657c7ed1851b9dda7578ca869206", "is_reserved": 0}, {"is_disabled": 0, "fusion_lon": 0.0, "fusion_lat": 0.0, "lat": 38.862423, "type": "electric_scooter", "lon": -76.99492, "bike_id": "9917033ba4a6e3e97d58608551206ccc", "rental_uris": {"android": "https://dc.lft.to/lastmile_qr_scan", "ios": "https://dc.lft.to/lastmile_qr_scan"}, "name": "9917033ba4a6e3e97d58608551206ccc", "is_reserved": 0}, {"is_disabled": 0, "fusion_lon": 0.0, "fusion_lat": 0.0, "lat": 38.9215625, "type": "electric_scooter", "lon": -77.034602, "bike_id": "8973a298bf3911db3be76f5e3b559fd9", "rental_uris": {"android": "https://dc.lft.to/lastmile_qr_scan", "ios": "https://dc.lft.to/lastmile_qr_scan"}, "name": "8973a298bf3911db3be76f5e3b559fd9", "is_reserved": 0}, {"is_disabled": 0, "fusion_lon": 0.0, "fusion_lat": 0.0, "lat": 38.83933716666667, "type": "electric_bike", "lon": -77.07900766666667, "bike_id": "d486dfdae8f3d0a1220825c2803cca82", "rental_uris": {"android": "https://dc.lft.to/lastmile_qr_scan", "ios": "https://dc.lft.to/lastmile_qr_scan"}, "name": "d486dfdae8f3d0a1220825c2803cca82", "is_reserved": 0}, {"is_disabled": 0, "fusion_lon": 0.0, "fusion_lat": 0.0, "lat": 38.91194633333333, "type": "electric_scooter", "lon": -77.038582, "bike_id": "81459ff4a6ad920bec6a89228cd9bf49", "rental_uris": {"android": "https://dc.lft.to/lastmile_qr_scan", "ios": "https://dc.lft.to/lastmile_qr_scan"}, "name": "81459ff4a6ad920bec6a89228cd9bf49", "is_reserved": 0}, {"is_disabled": 0, "fusion_lon": 0.0, "fusion_lat": 0.0, "lat": 38.91856166666667, "type": "electric_bike", "lon": -76.96094783333334, "bike_id": "409cd1a837f7bd7be4144bdebea617cc", "rental_uris": {"android": "https://dc.lft.to/lastmile_qr_scan", "ios": "https://dc.lft.to/lastmile_qr_scan"}, "name": "409cd1a837f7bd7be4144bdebea617cc", "is_reserved": 0}, {"is_disabled": 0, "fusion_lon": 0.0, "fusion_lat": 0.0, "lat": 38.92502433333333, "type": "electric_scooter", "lon": -77.05215816666667, "bike_id": "4497e18f79fbe3a6373cbe6886d6f998", "rental_uris": {"android": "https://dc.lft.to/lastmile_qr_scan", "ios": "https://dc.lft.to/lastmile_qr_scan"}, "name": "4497e18f79fbe3a6373cbe6886d6f998", "is_reserved": 0}, {"is_disabled": 0, "fusion_lon": 0.0, "fusion_lat": 0.0, "lat": 38.87808066666667, "type": "electric_scooter", "lon": -77.0142815, "bike_id": "133837453ad2417375caec9dda719975", "rental_uris": {"android": "https://dc.lft.to/lastmile_qr_scan", "ios": "https://dc.lft.to/lastmile_qr_scan"}, "name": "133837453ad2417375caec9dda719975", "is_reserved": 0}, {"is_disabled": 0, "fusion_lon": 0.0, "fusion_lat": 0.0, "lat": 38.935600666666666, "type": "electric_scooter", "lon": -77.03481833333333, "bike_id": "0c569fc2a2b7887749f7f47600b5c96f", "rental_uris": {"android": "https://dc.lft.to/lastmile_qr_scan", "ios": "https://dc.lft.to/lastmile_qr_scan"}, "name": "0c569fc2a2b7887749f7f47600b5c96f", "is_reserved": 0}, {"is_disabled": 0, "fusion_lon": 0.0, "fusion_lat": 0.0, "lat": 38.92124066666667, "type": "electric_bike", "lon": -77.01212366666667, "bike_id": "3bacfc4b8b0a327989fe1154b91c89f1", "rental_uris": {"android": "https://dc.lft.to/lastmile_qr_scan", "ios": "https://dc.lft.to/lastmile_qr_scan"}, "name": "3bacfc4b8b0a327989fe1154b91c89f1", "is_reserved": 0}, {"is_disabled": 0, "fusion_lon": 0.0, "fusion_lat": 0.0, "lat": 38.91328883333333, "type": "electric_scooter", "lon": -77.03185533333334, "bike_id": "58c6c372f9cb6b8ead889b29741a7a24", "rental_uris": {"android": "https://dc.lft.to/lastmile_qr_scan", "ios": "https://dc.lft.to/lastmile_qr_scan"}, "name": "58c6c372f9cb6b8ead889b29741a7a24", "is_reserved": 0}, {"is_disabled": 0, "fusion_lon": 0.0, "fusion_lat": 0.0, "lat": 38.91348466666667, "type": "electric_scooter", "lon": -77.0321335, "bike_id": "a368f79d07c7d4479694c53c6f41279a", "rental_uris": {"android": "https://dc.lft.to/lastmile_qr_scan", "ios": "https://dc.lft.to/lastmile_qr_scan"}, "name": "a368f79d07c7d4479694c53c6f41279a", "is_reserved": 0}, {"is_disabled": 0, "fusion_lon": 0.0, "fusion_lat": 0.0, "lat": 38.92162283333333, "type": "electric_scooter", "lon": -77.03392383333333, "bike_id": "2ffac39ceb6c4072ba7521cc730b8499", "rental_uris": {"android": "https://dc.lft.to/lastmile_qr_scan", "ios": "https://dc.lft.to/lastmile_qr_scan"}, "name": "2ffac39ceb6c4072ba7521cc730b8499", "is_reserved": 0}, {"is_disabled": 0, "fusion_lon": 0.0, "fusion_lat": 0.0, "lat": 38.918155166666665, "type": "electric_scooter", "lon": -77.04000966666666, "bike_id": "e14d97c16c2704820ad08ab5b9bb0a4a", "rental_uris": {"android": "https://dc.lft.to/lastmile_qr_scan", "ios": "https://dc.lft.to/lastmile_qr_scan"}, "name": "e14d97c16c2704820ad08ab5b9bb0a4a", "is_reserved": 0}, {"is_disabled": 0, "fusion_lon": 0.0, "fusion_lat": 0.0, "lat": 38.89787483333333, "type": "electric_scooter", "lon": -77.02480933333334, "bike_id": "89bd3c807be61a47d87d4b73eb948352", "rental_uris": {"android": "https://dc.lft.to/lastmile_qr_scan", "ios": "https://dc.lft.to/lastmile_qr_scan"}, "name": "89bd3c807be61a47d87d4b73eb948352", "is_reserved": 0}, {"is_disabled": 0, "fusion_lon": 0.0, "fusion_lat": 0.0, "lat": 38.941776833333336, "type": "electric_scooter", "lon": -77.03654633333333, "bike_id": "0e82185916974a35b16fa6b2951ac88a", "rental_uris": {"android": "https://dc.lft.to/lastmile_qr_scan", "ios": "https://dc.lft.to/lastmile_qr_scan"}, "name": "0e82185916974a35b16fa6b2951ac88a", "is_reserved": 0}, {"is_disabled": 0, "fusion_lon": 0.0, "fusion_lat": 0.0, "lat": 38.918192, "type": "electric_scooter", "lon": -77.02717683333333, "bike_id": "245e8e6a7887d03bc0b7f66e09f73c02", "rental_uris": {"android": "https://dc.lft.to/lastmile_qr_scan", "ios": "https://dc.lft.to/lastmile_qr_scan"}, "name": "245e8e6a7887d03bc0b7f66e09f73c02", "is_reserved": 0}, {"is_disabled": 0, "fusion_lon": 0.0, "fusion_lat": 0.0, "lat": 38.932783666666666, "type": "electric_scooter", "lon": -77.0363935, "bike_id": "3379b9bc26f398825f3124f2ab1e628b", "rental_uris": {"android": "https://dc.lft.to/lastmile_qr_scan", "ios": "https://dc.lft.to/lastmile_qr_scan"}, "name": "3379b9bc26f398825f3124f2ab1e628b", "is_reserved": 0}, {"is_disabled": 0, "fusion_lon": 0.0, "fusion_lat": 0.0, "lat": 38.9019885, "type": "electric_scooter", "lon": -77.04808433333334, "bike_id": "45be801c308568288fe3737d880866ae", "rental_uris": {"android": "https://dc.lft.to/lastmile_qr_scan", "ios": "https://dc.lft.to/lastmile_qr_scan"}, "name": "45be801c308568288fe3737d880866ae", "is_reserved": 0}, {"is_disabled": 0, "fusion_lon": 0.0, "fusion_lat": 0.0, "lat": 38.90035866666667, "type": "electric_scooter", "lon": -77.001963, "bike_id": "adc0642d7c6a34563e8ba5bed6f48935", "rental_uris": {"android": "https://dc.lft.to/lastmile_qr_scan", "ios": "https://dc.lft.to/lastmile_qr_scan"}, "name": "adc0642d7c6a34563e8ba5bed6f48935", "is_reserved": 0}, {"is_disabled": 0, "fusion_lon": 0.0, "fusion_lat": 0.0, "lat": 38.956516666666666, "type": "electric_scooter", "lon": -77.01497166666667, "bike_id": "df08827b65116728914f540809b9b52d", "rental_uris": {"android": "https://dc.lft.to/lastmile_qr_scan", "ios": "https://dc.lft.to/lastmile_qr_scan"}, "name": "df08827b65116728914f540809b9b52d", "is_reserved": 0}, {"is_disabled": 0, "fusion_lon": 0.0, "fusion_lat": 0.0, "lat": 38.89489416666667, "type": "electric_scooter", "lon": -77.00213533333333, "bike_id": "1220fc2c017e93f6e77b5216c7c24152", "rental_uris": {"android": "https://dc.lft.to/lastmile_qr_scan", "ios": "https://dc.lft.to/lastmile_qr_scan"}, "name": "1220fc2c017e93f6e77b5216c7c24152", "is_reserved": 0}, {"is_disabled": 0, "fusion_lon": 0.0, "fusion_lat": 0.0, "lat": 38.87927833333333, "type": "electric_scooter", "lon": -77.000514, "bike_id": "c83dc9c9311d81bcf64be42d9a15923c", "rental_uris": {"android": "https://dc.lft.to/lastmile_qr_scan", "ios": "https://dc.lft.to/lastmile_qr_scan"}, "name": "c83dc9c9311d81bcf64be42d9a15923c", "is_reserved": 0}, {"is_disabled": 0, "fusion_lon": 0.0, "fusion_lat": 0.0, "lat": 38.92253916666667, "type": "electric_scooter", "lon": -77.030787, "bike_id": "12632bc43da9f3909e146a5acdb963d1", "rental_uris": {"android": "https://dc.lft.to/lastmile_qr_scan", "ios": "https://dc.lft.to/lastmile_qr_scan"}, "name": "12632bc43da9f3909e146a5acdb963d1", "is_reserved": 0}, {"is_disabled": 0, "fusion_lon": 0.0, "fusion_lat": 0.0, "lat": 38.83352516666667, "type": "electric_bike", "lon": -76.96557033333333, "bike_id": "80ab5d2b34bd509bde2ce8455119c2f6", "rental_uris": {"android": "https://dc.lft.to/lastmile_qr_scan", "ios": "https://dc.lft.to/lastmile_qr_scan"}, "name": "80ab5d2b34bd509bde2ce8455119c2f6", "is_reserved": 0}, {"is_disabled": 0, "fusion_lon": 0.0, "fusion_lat": 0.0, "lat": 38.90500333333333, "type": "electric_scooter", "lon": -77.029306, "bike_id": "dcf0a420f50b01adfa38923c0e3e03dc", "rental_uris": {"android": "https://dc.lft.to/lastmile_qr_scan", "ios": "https://dc.lft.to/lastmile_qr_scan"}, "name": "dcf0a420f50b01adfa38923c0e3e03dc", "is_reserved": 0}, {"is_disabled": 0, "fusion_lon": 0.0, "fusion_lat": 0.0, "lat": 38.94547933333333, "type": "electric_scooter", "lon": -77.04248716666666, "bike_id": "df58ead9bb4f9e0516b4c621f6aa51dc", "rental_uris": {"android": "https://dc.lft.to/lastmile_qr_scan", "ios": "https://dc.lft.to/lastmile_qr_scan"}, "name": "df58ead9bb4f9e0516b4c621f6aa51dc", "is_reserved": 0}, {"is_disabled": 0, "fusion_lon": 0.0, "fusion_lat": 0.0, "lat": 38.873923833333336, "type": "electric_scooter", "lon": -77.00194766666667, "bike_id": "3cd92891c3bb1e09cc779d0810b593bf", "rental_uris": {"android": "https://dc.lft.to/lastmile_qr_scan", "ios": "https://dc.lft.to/lastmile_qr_scan"}, "name": "3cd92891c3bb1e09cc779d0810b593bf", "is_reserved": 0}, {"is_disabled": 0, "fusion_lon": 0.0, "fusion_lat": 0.0, "lat": 38.91856033333333, "type": "electric_bike", "lon": -76.96093233333333, "bike_id": "9d74d566e3e52b897f7d414694ad8653", "rental_uris": {"android": "https://dc.lft.to/lastmile_qr_scan", "ios": "https://dc.lft.to/lastmile_qr_scan"}, "name": "9d74d566e3e52b897f7d414694ad8653", "is_reserved": 0}, {"is_disabled": 0, "fusion_lon": 0.0, "fusion_lat": 0.0, "lat": 38.9505995, "type": "electric_bike", "lon": -76.967381, "bike_id": "d6c67c2b387273c327eb3b0e5b2d461b", "rental_uris": {"android": "https://dc.lft.to/lastmile_qr_scan", "ios": "https://dc.lft.to/lastmile_qr_scan"}, "name": "d6c67c2b387273c327eb3b0e5b2d461b", "is_reserved": 0}, {"is_disabled": 0, "fusion_lon": 0.0, "fusion_lat": 0.0, "lat": 38.8923775, "type": "electric_scooter", "lon": -77.03180066666667, "bike_id": "c7fb8122a1c788b3058b80976bf4cbd8", "rental_uris": {"android": "https://dc.lft.to/lastmile_qr_scan", "ios": "https://dc.lft.to/lastmile_qr_scan"}, "name": "c7fb8122a1c788b3058b80976bf4cbd8", "is_reserved": 0}, {"is_disabled": 0, "fusion_lon": 0.0, "fusion_lat": 0.0, "lat": 38.90554916666667, "type": "electric_scooter", "lon": -77.02958966666667, "bike_id": "09d6bde30deaf445a2216e889d551c46", "rental_uris": {"android": "https://dc.lft.to/lastmile_qr_scan", "ios": "https://dc.lft.to/lastmile_qr_scan"}, "name": "09d6bde30deaf445a2216e889d551c46", "is_reserved": 0}, {"is_disabled": 0, "fusion_lon": 0.0, "fusion_lat": 0.0, "lat": 38.96314016666667, "type": "electric_bike", "lon": -77.05763316666666, "bike_id": "876dec9686f0a37d75148b9e1ee44777", "rental_uris": {"android": "https://dc.lft.to/lastmile_qr_scan", "ios": "https://dc.lft.to/lastmile_qr_scan"}, "name": "876dec9686f0a37d75148b9e1ee44777", "is_reserved": 0}, {"is_disabled": 0, "fusion_lon": 0.0, "fusion_lat": 0.0, "lat": 38.868472, "type": "electric_bike", "lon": -77.09726533333334, "bike_id": "55cc07199dd534cea909ba670fc581c3", "rental_uris": {"android": "https://dc.lft.to/lastmile_qr_scan", "ios": "https://dc.lft.to/lastmile_qr_scan"}, "name": "55cc07199dd534cea909ba670fc581c3", "is_reserved": 0}, {"is_disabled": 0, "fusion_lon": 0.0, "fusion_lat": 0.0, "lat": 38.882485333333335, "type": "electric_scooter", "lon": -77.00347633333334, "bike_id": "4c616e2aee22e31d74121500d8f8650d", "rental_uris": {"android": "https://dc.lft.to/lastmile_qr_scan", "ios": "https://dc.lft.to/lastmile_qr_scan"}, "name": "4c616e2aee22e31d74121500d8f8650d", "is_reserved": 0}, {"is_disabled": 0, "fusion_lon": 0.0, "fusion_lat": 0.0, "lat": 38.87914416666667, "type": "electric_scooter", "lon": -77.0080585, "bike_id": "8046dcdbb07b00215f71bdaab23f4aa6", "rental_uris": {"android": "https://dc.lft.to/lastmile_qr_scan", "ios": "https://dc.lft.to/lastmile_qr_scan"}, "name": "8046dcdbb07b00215f71bdaab23f4aa6", "is_reserved": 0}, {"is_disabled": 0, "fusion_lon": 0.0, "fusion_lat": 0.0, "lat": 38.90127316666667, "type": "electric_scooter", "lon": -77.0305015, "bike_id": "8336eb456620d5f505f96c62d784d8fe", "rental_uris": {"android": "https://dc.lft.to/lastmile_qr_scan", "ios": "https://dc.lft.to/lastmile_qr_scan"}, "name": "8336eb456620d5f505f96c62d784d8fe", "is_reserved": 0}, {"is_disabled": 0, "fusion_lon": 0.0, "fusion_lat": 0.0, "lat": 38.93194233333333, "type": "electric_bike", "lon": -77.22941766666666, "bike_id": "400d77e9ba4f47053c582e55fc0b8eb8", "rental_uris": {"android": "https://dc.lft.to/lastmile_qr_scan", "ios": "https://dc.lft.to/lastmile_qr_scan"}, "name": "400d77e9ba4f47053c582e55fc0b8eb8", "is_reserved": 0}, {"is_disabled": 0, "fusion_lon": 0.0, "fusion_lat": 0.0, "lat": 38.91752183333333, "type": "electric_scooter", "lon": -77.02490433333334, "bike_id": "3fcf6692fc51d3fb76d7ed5d79c0d8da", "rental_uris": {"android": "https://dc.lft.to/lastmile_qr_scan", "ios": "https://dc.lft.to/lastmile_qr_scan"}, "name": "3fcf6692fc51d3fb76d7ed5d79c0d8da", "is_reserved": 0}, {"is_disabled": 0, "fusion_lon": 0.0, "fusion_lat": 0.0, "lat": 38.95276716666667, "type": "electric_bike", "lon": -77.06979083333333, "bike_id": "7ad8846dc9643c439ac6a328ed33db3a", "rental_uris": {"android": "https://dc.lft.to/lastmile_qr_scan", "ios": "https://dc.lft.to/lastmile_qr_scan"}, "name": "7ad8846dc9643c439ac6a328ed33db3a", "is_reserved": 0}, {"is_disabled": 0, "fusion_lon": 0.0, "fusion_lat": 0.0, "lat": 38.99255866666667, "type": "electric_bike", "lon": -77.04995433333333, "bike_id": "63fd382007f96f7a2d841af6f4eb0861", "rental_uris": {"android": "https://dc.lft.to/lastmile_qr_scan", "ios": "https://dc.lft.to/lastmile_qr_scan"}, "name": "63fd382007f96f7a2d841af6f4eb0861", "is_reserved": 0}, {"is_disabled": 0, "fusion_lon": 0.0, "fusion_lat": 0.0, "lat": 38.909706166666666, "type": "electric_scooter", "lon": -77.02174783333334, "bike_id": "dd14ff1aec9096eda426fd38652a8a42", "rental_uris": {"android": "https://dc.lft.to/lastmile_qr_scan", "ios": "https://dc.lft.to/lastmile_qr_scan"}, "name": "dd14ff1aec9096eda426fd38652a8a42", "is_reserved": 0}, {"is_disabled": 0, "fusion_lon": 0.0, "fusion_lat": 0.0, "lat": 38.95078933333333, "type": "electric_scooter", "lon": -77.02874883333334, "bike_id": "8891d59f451f030ed3b7edffd42e9227", "rental_uris": {"android": "https://dc.lft.to/lastmile_qr_scan", "ios": "https://dc.lft.to/lastmile_qr_scan"}, "name": "8891d59f451f030ed3b7edffd42e9227", "is_reserved": 0}, {"is_disabled": 0, "fusion_lon": 0.0, "fusion_lat": 0.0, "lat": 38.8686115, "type": "electric_bike", "lon": -76.916612, "bike_id": "08d6480517fcb784281a6028ca79c093", "rental_uris": {"android": "https://dc.lft.to/lastmile_qr_scan", "ios": "https://dc.lft.to/lastmile_qr_scan"}, "name": "08d6480517fcb784281a6028ca79c093", "is_reserved": 0}, {"is_disabled": 0, "fusion_lon": 0.0, "fusion_lat": 0.0, "lat": 38.916985833333335, "type": "electric_scooter", "lon": -77.0329365, "bike_id": "7e6bef14ad44518a025623f9c52748c1", "rental_uris": {"android": "https://dc.lft.to/lastmile_qr_scan", "ios": "https://dc.lft.to/lastmile_qr_scan"}, "name": "7e6bef14ad44518a025623f9c52748c1", "is_reserved": 0}, {"is_disabled": 0, "fusion_lon": 0.0, "fusion_lat": 0.0, "lat": 38.90852233333333, "type": "electric_scooter", "lon": -77.04773983333334, "bike_id": "49edb9b50eef7fa0ec4dc892d2d55a3a", "rental_uris": {"android": "https://dc.lft.to/lastmile_qr_scan", "ios": "https://dc.lft.to/lastmile_qr_scan"}, "name": "49edb9b50eef7fa0ec4dc892d2d55a3a", "is_reserved": 0}, {"is_disabled": 0, "fusion_lon": 0.0, "fusion_lat": 0.0, "lat": 38.924301166666666, "type": "electric_scooter", "lon": -77.035506, "bike_id": "8f5ab5dbe2c9e871218399a603f2e484", "rental_uris": {"android": "https://dc.lft.to/lastmile_qr_scan", "ios": "https://dc.lft.to/lastmile_qr_scan"}, "name": "8f5ab5dbe2c9e871218399a603f2e484", "is_reserved": 0}, {"is_disabled": 0, "fusion_lon": 0.0, "fusion_lat": 0.0, "lat": 38.89224566666667, "type": "electric_scooter", "lon": -77.031807, "bike_id": "05980f4d5a7a2c7f2e2dc92cc78467c3", "rental_uris": {"android": "https://dc.lft.to/lastmile_qr_scan", "ios": "https://dc.lft.to/lastmile_qr_scan"}, "name": "05980f4d5a7a2c7f2e2dc92cc78467c3", "is_reserved": 0}, {"is_disabled": 0, "fusion_lon": 0.0, "fusion_lat": 0.0, "lat": 38.91929983333333, "type": "electric_scooter", "lon": -77.034301, "bike_id": "48400056fe3415e4799c800665d3bb20", "rental_uris": {"android": "https://dc.lft.to/lastmile_qr_scan", "ios": "https://dc.lft.to/lastmile_qr_scan"}, "name": "48400056fe3415e4799c800665d3bb20", "is_reserved": 0}, {"is_disabled": 0, "fusion_lon": 0.0, "fusion_lat": 0.0, "lat": 38.89888633333333, "type": "electric_scooter", "lon": -77.02161833333334, "bike_id": "3d46fa6b6078c099baf48cc70c2038af", "rental_uris": {"android": "https://dc.lft.to/lastmile_qr_scan", "ios": "https://dc.lft.to/lastmile_qr_scan"}, "name": "3d46fa6b6078c099baf48cc70c2038af", "is_reserved": 0}, {"is_disabled": 0, "fusion_lon": 0.0, "fusion_lat": 0.0, "lat": 38.93522816666667, "type": "electric_scooter", "lon": -77.06639866666667, "bike_id": "b5d864ade8bfe7bcf412008c3722a7be", "rental_uris": {"android": "https://dc.lft.to/lastmile_qr_scan", "ios": "https://dc.lft.to/lastmile_qr_scan"}, "name": "b5d864ade8bfe7bcf412008c3722a7be", "is_reserved": 0}, {"is_disabled": 0, "fusion_lon": 0.0, "fusion_lat": 0.0, "lat": 38.865919833333336, "type": "electric_scooter", "lon": -77.01072833333333, "bike_id": "05e2c90cbe5abb7757fa552f2437d4f2", "rental_uris": {"android": "https://dc.lft.to/lastmile_qr_scan", "ios": "https://dc.lft.to/lastmile_qr_scan"}, "name": "05e2c90cbe5abb7757fa552f2437d4f2", "is_reserved": 0}, {"is_disabled": 0, "fusion_lon": 0.0, "fusion_lat": 0.0, "lat": 38.93092633333333, "type": "electric_scooter", "lon": -77.03621233333334, "bike_id": "0a34e2eb8bf56c17ebe3a3fb09d1258e", "rental_uris": {"android": "https://dc.lft.to/lastmile_qr_scan", "ios": "https://dc.lft.to/lastmile_qr_scan"}, "name": "0a34e2eb8bf56c17ebe3a3fb09d1258e", "is_reserved": 0}, {"is_disabled": 0, "fusion_lon": 0.0, "fusion_lat": 0.0, "lat": 38.90845766666666, "type": "electric_scooter", "lon": -77.06085366666667, "bike_id": "1f4e3ea045612106601dcffba965d68e", "rental_uris": {"android": "https://dc.lft.to/lastmile_qr_scan", "ios": "https://dc.lft.to/lastmile_qr_scan"}, "name": "1f4e3ea045612106601dcffba965d68e", "is_reserved": 0}, {"is_disabled": 0, "fusion_lon": 0.0, "fusion_lat": 0.0, "lat": 38.924454833333336, "type": "electric_scooter", "lon": -77.04022766666667, "bike_id": "07704180ad2dfc2394bad90ec2159e5d", "rental_uris": {"android": "https://dc.lft.to/lastmile_qr_scan", "ios": "https://dc.lft.to/lastmile_qr_scan"}, "name": "07704180ad2dfc2394bad90ec2159e5d", "is_reserved": 0}, {"is_disabled": 0, "fusion_lon": 0.0, "fusion_lat": 0.0, "lat": 38.896358, "type": "electric_scooter", "lon": -77.02708766666667, "bike_id": "b45e9f44d041c89d153bbc473389e68e", "rental_uris": {"android": "https://dc.lft.to/lastmile_qr_scan", "ios": "https://dc.lft.to/lastmile_qr_scan"}, "name": "b45e9f44d041c89d153bbc473389e68e", "is_reserved": 0}, {"is_disabled": 0, "fusion_lon": 0.0, "fusion_lat": 0.0, "lat": 38.9364075, "type": "electric_scooter", "lon": -77.02697383333333, "bike_id": "25c72db7a69d29a4679331ad7c1c61a0", "rental_uris": {"android": "https://dc.lft.to/lastmile_qr_scan", "ios": "https://dc.lft.to/lastmile_qr_scan"}, "name": "25c72db7a69d29a4679331ad7c1c61a0", "is_reserved": 0}, {"is_disabled": 0, "fusion_lon": 0.0, "fusion_lat": 0.0, "lat": 38.90481966666667, "type": "electric_scooter", "lon": -77.06219483333334, "bike_id": "55d2080c3994b694eb0e289bca96a9f6", "rental_uris": {"android": "https://dc.lft.to/lastmile_qr_scan", "ios": "https://dc.lft.to/lastmile_qr_scan"}, "name": "55d2080c3994b694eb0e289bca96a9f6", "is_reserved": 0}, {"is_disabled": 0, "fusion_lon": 0.0, "fusion_lat": 0.0, "lat": 38.90704366666667, "type": "electric_scooter", "lon": -76.9869105, "bike_id": "0e4abe1b403c66ac4d233a9b3fcb24dd", "rental_uris": {"android": "https://dc.lft.to/lastmile_qr_scan", "ios": "https://dc.lft.to/lastmile_qr_scan"}, "name": "0e4abe1b403c66ac4d233a9b3fcb24dd", "is_reserved": 0}, {"is_disabled": 0, "fusion_lon": 0.0, "fusion_lat": 0.0, "lat": 38.925280666666666, "type": "electric_scooter", "lon": -77.076603, "bike_id": "6fe730e5d995ad85d28a685cb8ecc899", "rental_uris": {"android": "https://dc.lft.to/lastmile_qr_scan", "ios": "https://dc.lft.to/lastmile_qr_scan"}, "name": "6fe730e5d995ad85d28a685cb8ecc899", "is_reserved": 0}, {"is_disabled": 0, "fusion_lon": 0.0, "fusion_lat": 0.0, "lat": 38.89475016666667, "type": "electric_scooter", "lon": -76.99418466666667, "bike_id": "52ff805c9128f08e216d185e33d23566", "rental_uris": {"android": "https://dc.lft.to/lastmile_qr_scan", "ios": "https://dc.lft.to/lastmile_qr_scan"}, "name": "52ff805c9128f08e216d185e33d23566", "is_reserved": 0}, {"is_disabled": 0, "fusion_lon": 0.0, "fusion_lat": 0.0, "lat": 38.90021933333333, "type": "electric_scooter", "lon": -77.01992883333334, "bike_id": "4f095f540bfb969df902cddf3e7a623f", "rental_uris": {"android": "https://dc.lft.to/lastmile_qr_scan", "ios": "https://dc.lft.to/lastmile_qr_scan"}, "name": "4f095f540bfb969df902cddf3e7a623f", "is_reserved": 0}, {"is_disabled": 0, "fusion_lon": 0.0, "fusion_lat": 0.0, "lat": 38.863649333333335, "type": "electric_scooter", "lon": -76.9906775, "bike_id": "db4889096d56b3eb65996fbe17d267e9", "rental_uris": {"android": "https://dc.lft.to/lastmile_qr_scan", "ios": "https://dc.lft.to/lastmile_qr_scan"}, "name": "db4889096d56b3eb65996fbe17d267e9", "is_reserved": 0}, {"is_disabled": 0, "fusion_lon": 0.0, "fusion_lat": 0.0, "lat": 38.899492333333335, "type": "electric_scooter", "lon": -77.04787616666667, "bike_id": "4ea1ceec28f4bd0e8b4cf2e22d660585", "rental_uris": {"android": "https://dc.lft.to/lastmile_qr_scan", "ios": "https://dc.lft.to/lastmile_qr_scan"}, "name": "4ea1ceec28f4bd0e8b4cf2e22d660585", "is_reserved": 0}, {"is_disabled": 0, "fusion_lon": 0.0, "fusion_lat": 0.0, "lat": 38.910343833333336, "type": "electric_scooter", "lon": -77.0337295, "bike_id": "5e0c931ced74cadf8d18334c4cf1f5be", "rental_uris": {"android": "https://dc.lft.to/lastmile_qr_scan", "ios": "https://dc.lft.to/lastmile_qr_scan"}, "name": "5e0c931ced74cadf8d18334c4cf1f5be", "is_reserved": 0}, {"is_disabled": 0, "fusion_lon": 0.0, "fusion_lat": 0.0, "lat": 38.92470983333333, "type": "electric_scooter", "lon": -77.02989916666667, "bike_id": "b89c1c095e18bdba9c35cb5edd09f126", "rental_uris": {"android": "https://dc.lft.to/lastmile_qr_scan", "ios": "https://dc.lft.to/lastmile_qr_scan"}, "name": "b89c1c095e18bdba9c35cb5edd09f126", "is_reserved": 0}, {"is_disabled": 0, "fusion_lon": 0.0, "fusion_lat": 0.0, "lat": 38.92052483333333, "type": "electric_scooter", "lon": -77.02612616666667, "bike_id": "95c1e008dc3d739f89c59a9038d418d7", "rental_uris": {"android": "https://dc.lft.to/lastmile_qr_scan", "ios": "https://dc.lft.to/lastmile_qr_scan"}, "name": "95c1e008dc3d739f89c59a9038d418d7", "is_reserved": 0}, {"is_disabled": 0, "fusion_lon": 0.0, "fusion_lat": 0.0, "lat": 38.908403166666666, "type": "electric_scooter", "lon": -76.99702816666667, "bike_id": "c5da5054cc5772574bddf4fb571b34df", "rental_uris": {"android": "https://dc.lft.to/lastmile_qr_scan", "ios": "https://dc.lft.to/lastmile_qr_scan"}, "name": "c5da5054cc5772574bddf4fb571b34df", "is_reserved": 0}, {"is_disabled": 0, "fusion_lon": 0.0, "fusion_lat": 0.0, "lat": 38.9021315, "type": "electric_scooter", "lon": -77.0237235, "bike_id": "580c09bee7b63403786709f118b6553a", "rental_uris": {"android": "https://dc.lft.to/lastmile_qr_scan", "ios": "https://dc.lft.to/lastmile_qr_scan"}, "name": "580c09bee7b63403786709f118b6553a", "is_reserved": 0}, {"is_disabled": 0, "fusion_lon": 0.0, "fusion_lat": 0.0, "lat": 38.90558633333333, "type": "electric_scooter", "lon": -77.03350266666666, "bike_id": "1a36ec5d870c20060fdd9f0c8e8c1c2a", "rental_uris": {"android": "https://dc.lft.to/lastmile_qr_scan", "ios": "https://dc.lft.to/lastmile_qr_scan"}, "name": "1a36ec5d870c20060fdd9f0c8e8c1c2a", "is_reserved": 0}, {"is_disabled": 0, "fusion_lon": 0.0, "fusion_lat": 0.0, "lat": 38.903593666666666, "type": "electric_scooter", "lon": -77.06269483333334, "bike_id": "e147890b1be0f3162435d0165da9651b", "rental_uris": {"android": "https://dc.lft.to/lastmile_qr_scan", "ios": "https://dc.lft.to/lastmile_qr_scan"}, "name": "e147890b1be0f3162435d0165da9651b", "is_reserved": 0}, {"is_disabled": 0, "fusion_lon": 0.0, "fusion_lat": 0.0, "lat": 38.91860283333333, "type": "electric_scooter", "lon": -77.04180516666666, "bike_id": "66614173cb219955d0ce381ba3e6f5a7", "rental_uris": {"android": "https://dc.lft.to/lastmile_qr_scan", "ios": "https://dc.lft.to/lastmile_qr_scan"}, "name": "66614173cb219955d0ce381ba3e6f5a7", "is_reserved": 0}, {"is_disabled": 0, "fusion_lon": 0.0, "fusion_lat": 0.0, "lat": 38.845175833333336, "type": "electric_bike", "lon": -77.07798833333334, "bike_id": "26fb4f992f6236933ba20f88e30b2c91", "rental_uris": {"android": "https://dc.lft.to/lastmile_qr_scan", "ios": "https://dc.lft.to/lastmile_qr_scan"}, "name": "26fb4f992f6236933ba20f88e30b2c91", "is_reserved": 0}, {"is_disabled": 0, "fusion_lon": 0.0, "fusion_lat": 0.0, "lat": 38.918195833333336, "type": "electric_scooter", "lon": -77.0121305, "bike_id": "ab0a7baa5aae9db4039afe8eda256ca0", "rental_uris": {"android": "https://dc.lft.to/lastmile_qr_scan", "ios": "https://dc.lft.to/lastmile_qr_scan"}, "name": "ab0a7baa5aae9db4039afe8eda256ca0", "is_reserved": 0}, {"is_disabled": 0, "fusion_lon": 0.0, "fusion_lat": 0.0, "lat": 38.90129916666667, "type": "electric_scooter", "lon": -77.017857, "bike_id": "ce918aa1dbb5a68c7e46f6b2febe39b4", "rental_uris": {"android": "https://dc.lft.to/lastmile_qr_scan", "ios": "https://dc.lft.to/lastmile_qr_scan"}, "name": "ce918aa1dbb5a68c7e46f6b2febe39b4", "is_reserved": 0}, {"is_disabled": 0, "fusion_lon": 0.0, "fusion_lat": 0.0, "lat": 38.9155735, "type": "electric_scooter", "lon": -77.0314815, "bike_id": "a178d2b0b51a61cca905867230f47ba2", "rental_uris": {"android": "https://dc.lft.to/lastmile_qr_scan", "ios": "https://dc.lft.to/lastmile_qr_scan"}, "name": "a178d2b0b51a61cca905867230f47ba2", "is_reserved": 0}, {"is_disabled": 0, "fusion_lon": 0.0, "fusion_lat": 0.0, "lat": 38.91813066666667, "type": "electric_scooter", "lon": -77.03565783333333, "bike_id": "dbcd1d8c414cc80ab3ea26a72a733947", "rental_uris": {"android": "https://dc.lft.to/lastmile_qr_scan", "ios": "https://dc.lft.to/lastmile_qr_scan"}, "name": "dbcd1d8c414cc80ab3ea26a72a733947", "is_reserved": 0}, {"is_disabled": 0, "fusion_lon": 0.0, "fusion_lat": 0.0, "lat": 38.85212883333333, "type": "electric_bike", "lon": -77.1275255, "bike_id": "9630e99241f05b6808ba48828fa2905a", "rental_uris": {"android": "https://dc.lft.to/lastmile_qr_scan", "ios": "https://dc.lft.to/lastmile_qr_scan"}, "name": "9630e99241f05b6808ba48828fa2905a", "is_reserved": 0}, {"is_disabled": 0, "fusion_lon": 0.0, "fusion_lat": 0.0, "lat": 38.892508666666664, "type": "electric_scooter", "lon": -76.99855183333334, "bike_id": "4230039aa677e62c7b844f49653c8ffd", "rental_uris": {"android": "https://dc.lft.to/lastmile_qr_scan", "ios": "https://dc.lft.to/lastmile_qr_scan"}, "name": "4230039aa677e62c7b844f49653c8ffd", "is_reserved": 0}, {"is_disabled": 0, "fusion_lon": 0.0, "fusion_lat": 0.0, "lat": 38.944953166666664, "type": "electric_bike", "lon": -77.00681833333333, "bike_id": "b49e09fe581470811d3d3a89e7b6feb0", "rental_uris": {"android": "https://dc.lft.to/lastmile_qr_scan", "ios": "https://dc.lft.to/lastmile_qr_scan"}, "name": "b49e09fe581470811d3d3a89e7b6feb0", "is_reserved": 0}, {"is_disabled": 0, "fusion_lon": 0.0, "fusion_lat": 0.0, "lat": 38.9087255, "type": "electric_scooter", "lon": -77.04352866666666, "bike_id": "89e728159186560004b4384497e951ca", "rental_uris": {"android": "https://dc.lft.to/lastmile_qr_scan", "ios": "https://dc.lft.to/lastmile_qr_scan"}, "name": "89e728159186560004b4384497e951ca", "is_reserved": 0}, {"is_disabled": 0, "fusion_lon": 0.0, "fusion_lat": 0.0, "lat": 38.91931683333333, "type": "electric_scooter", "lon": -77.034315, "bike_id": "028f2352d231cf932158b5c55b7356dd", "rental_uris": {"android": "https://dc.lft.to/lastmile_qr_scan", "ios": "https://dc.lft.to/lastmile_qr_scan"}, "name": "028f2352d231cf932158b5c55b7356dd", "is_reserved": 0}, {"is_disabled": 0, "fusion_lon": 0.0, "fusion_lat": 0.0, "lat": 38.8973295, "type": "electric_scooter", "lon": -77.04713866666667, "bike_id": "bdcd44f48c6d80ff18392988a7b12be2", "rental_uris": {"android": "https://dc.lft.to/lastmile_qr_scan", "ios": "https://dc.lft.to/lastmile_qr_scan"}, "name": "bdcd44f48c6d80ff18392988a7b12be2", "is_reserved": 0}, {"is_disabled": 0, "fusion_lon": 0.0, "fusion_lat": 0.0, "lat": 38.899676, "type": "electric_scooter", "lon": -76.987147, "bike_id": "c0d59b02214ef223743934106b00cc18", "rental_uris": {"android": "https://dc.lft.to/lastmile_qr_scan", "ios": "https://dc.lft.to/lastmile_qr_scan"}, "name": "c0d59b02214ef223743934106b00cc18", "is_reserved": 0}, {"is_disabled": 0, "fusion_lon": 0.0, "fusion_lat": 0.0, "lat": 38.919975666666666, "type": "electric_scooter", "lon": -76.983975, "bike_id": "0fc7341cc4dcc044edcece39b8bea68f", "rental_uris": {"android": "https://dc.lft.to/lastmile_qr_scan", "ios": "https://dc.lft.to/lastmile_qr_scan"}, "name": "0fc7341cc4dcc044edcece39b8bea68f", "is_reserved": 0}, {"is_disabled": 0, "fusion_lon": 0.0, "fusion_lat": 0.0, "lat": 38.91553483333333, "type": "electric_scooter", "lon": -77.0237245, "bike_id": "f0a94c90df9acd20a0d67bcf43dced1d", "rental_uris": {"android": "https://dc.lft.to/lastmile_qr_scan", "ios": "https://dc.lft.to/lastmile_qr_scan"}, "name": "f0a94c90df9acd20a0d67bcf43dced1d", "is_reserved": 0}, {"is_disabled": 0, "fusion_lon": 0.0, "fusion_lat": 0.0, "lat": 38.93308533333333, "type": "electric_scooter", "lon": -77.03261216666667, "bike_id": "f3123529d6bfc7f12d248ce030e1b70d", "rental_uris": {"android": "https://dc.lft.to/lastmile_qr_scan", "ios": "https://dc.lft.to/lastmile_qr_scan"}, "name": "f3123529d6bfc7f12d248ce030e1b70d", "is_reserved": 0}, {"is_disabled": 0, "fusion_lon": 0.0, "fusion_lat": 0.0, "lat": 38.92243283333333, "type": "electric_scooter", "lon": -77.0366625, "bike_id": "69c5e8b99ed42cc5b8fe4aeeaf9aff2d", "rental_uris": {"android": "https://dc.lft.to/lastmile_qr_scan", "ios": "https://dc.lft.to/lastmile_qr_scan"}, "name": "69c5e8b99ed42cc5b8fe4aeeaf9aff2d", "is_reserved": 0}, {"is_disabled": 0, "fusion_lon": 0.0, "fusion_lat": 0.0, "lat": 38.915645833333336, "type": "electric_scooter", "lon": -77.03870833333333, "bike_id": "a29458ace742a581eded195042445fed", "rental_uris": {"android": "https://dc.lft.to/lastmile_qr_scan", "ios": "https://dc.lft.to/lastmile_qr_scan"}, "name": "a29458ace742a581eded195042445fed", "is_reserved": 0}, {"is_disabled": 0, "fusion_lon": 0.0, "fusion_lat": 0.0, "lat": 38.897670166666664, "type": "electric_scooter", "lon": -77.05125483333333, "bike_id": "0cb2f489fa4f4c7cdf00564a9ef06a1f", "rental_uris": {"android": "https://dc.lft.to/lastmile_qr_scan", "ios": "https://dc.lft.to/lastmile_qr_scan"}, "name": "0cb2f489fa4f4c7cdf00564a9ef06a1f", "is_reserved": 0}, {"is_disabled": 0, "fusion_lon": 0.0, "fusion_lat": 0.0, "lat": 38.865934833333334, "type": "electric_bike", "lon": -76.93236783333333, "bike_id": "878127aaa7a38a775a71c80b482ce443", "rental_uris": {"android": "https://dc.lft.to/lastmile_qr_scan", "ios": "https://dc.lft.to/lastmile_qr_scan"}, "name": "878127aaa7a38a775a71c80b482ce443", "is_reserved": 0}, {"is_disabled": 0, "fusion_lon": 0.0, "fusion_lat": 0.0, "lat": 38.91769383333333, "type": "electric_scooter", "lon": -77.031893, "bike_id": "208ec57bd30e3bb3ef40a84aa0269225", "rental_uris": {"android": "https://dc.lft.to/lastmile_qr_scan", "ios": "https://dc.lft.to/lastmile_qr_scan"}, "name": "208ec57bd30e3bb3ef40a84aa0269225", "is_reserved": 0}, {"is_disabled": 0, "fusion_lon": 0.0, "fusion_lat": 0.0, "lat": 38.915362, "type": "electric_scooter", "lon": -77.021802, "bike_id": "9cbb1c43917f923a6ee3211103d02047", "rental_uris": {"android": "https://dc.lft.to/lastmile_qr_scan", "ios": "https://dc.lft.to/lastmile_qr_scan"}, "name": "9cbb1c43917f923a6ee3211103d02047", "is_reserved": 0}, {"is_disabled": 0, "fusion_lon": 0.0, "fusion_lat": 0.0, "lat": 38.904292833333336, "type": "electric_scooter", "lon": -77.02610283333334, "bike_id": "3644f575f70c8bc30f8eaf34469fad90", "rental_uris": {"android": "https://dc.lft.to/lastmile_qr_scan", "ios": "https://dc.lft.to/lastmile_qr_scan"}, "name": "3644f575f70c8bc30f8eaf34469fad90", "is_reserved": 0}, {"is_disabled": 0, "fusion_lon": 0.0, "fusion_lat": 0.0, "lat": 38.9540035, "type": "electric_scooter", "lon": -77.02756416666666, "bike_id": "fd5a813487d0d3ec5c2bbf9a0628af0e", "rental_uris": {"android": "https://dc.lft.to/lastmile_qr_scan", "ios": "https://dc.lft.to/lastmile_qr_scan"}, "name": "fd5a813487d0d3ec5c2bbf9a0628af0e", "is_reserved": 0}, {"is_disabled": 0, "fusion_lon": 0.0, "fusion_lat": 0.0, "lat": 38.927134833333334, "type": "electric_scooter", "lon": -77.05365316666666, "bike_id": "ca54ef965555ceefe3407b42bafebc8e", "rental_uris": {"android": "https://dc.lft.to/lastmile_qr_scan", "ios": "https://dc.lft.to/lastmile_qr_scan"}, "name": "ca54ef965555ceefe3407b42bafebc8e", "is_reserved": 0}, {"is_disabled": 0, "fusion_lon": 0.0, "fusion_lat": 0.0, "lat": 38.902497333333336, "type": "electric_scooter", "lon": -77.01795016666667, "bike_id": "42034ea8f6305aef173173e388277e19", "rental_uris": {"android": "https://dc.lft.to/lastmile_qr_scan", "ios": "https://dc.lft.to/lastmile_qr_scan"}, "name": "42034ea8f6305aef173173e388277e19", "is_reserved": 0}, {"is_disabled": 0, "fusion_lon": 0.0, "fusion_lat": 0.0, "lat": 38.927904833333336, "type": "electric_scooter", "lon": -77.031174, "bike_id": "ed9cb5537dc315f1aaa64f72079c5498", "rental_uris": {"android": "https://dc.lft.to/lastmile_qr_scan", "ios": "https://dc.lft.to/lastmile_qr_scan"}, "name": "ed9cb5537dc315f1aaa64f72079c5498", "is_reserved": 0}, {"is_disabled": 0, "fusion_lon": 0.0, "fusion_lat": 0.0, "lat": 38.935376833333336, "type": "electric_scooter", "lon": -77.03411666666666, "bike_id": "b3f12adaedb4e319a0daaf755ce6efd2", "rental_uris": {"android": "https://dc.lft.to/lastmile_qr_scan", "ios": "https://dc.lft.to/lastmile_qr_scan"}, "name": "b3f12adaedb4e319a0daaf755ce6efd2", "is_reserved": 0}, {"is_disabled": 0, "fusion_lon": 0.0, "fusion_lat": 0.0, "lat": 38.94194266666667, "type": "electric_scooter", "lon": -77.03330283333334, "bike_id": "13bf5bc3b514018f899bf2c0b8be1c84", "rental_uris": {"android": "https://dc.lft.to/lastmile_qr_scan", "ios": "https://dc.lft.to/lastmile_qr_scan"}, "name": "13bf5bc3b514018f899bf2c0b8be1c84", "is_reserved": 0}, {"is_disabled": 0, "fusion_lon": 0.0, "fusion_lat": 0.0, "lat": 38.908385833333334, "type": "electric_scooter", "lon": -77.04877266666666, "bike_id": "8050e232fb82fed6b8113deb674aaccd", "rental_uris": {"android": "https://dc.lft.to/lastmile_qr_scan", "ios": "https://dc.lft.to/lastmile_qr_scan"}, "name": "8050e232fb82fed6b8113deb674aaccd", "is_reserved": 0}, {"is_disabled": 0, "fusion_lon": 0.0, "fusion_lat": 0.0, "lat": 38.91224583333333, "type": "electric_scooter", "lon": -77.0271625, "bike_id": "f2b257ac7db973cf24a63ab818d80a4f", "rental_uris": {"android": "https://dc.lft.to/lastmile_qr_scan", "ios": "https://dc.lft.to/lastmile_qr_scan"}, "name": "f2b257ac7db973cf24a63ab818d80a4f", "is_reserved": 0}, {"is_disabled": 0, "fusion_lon": 0.0, "fusion_lat": 0.0, "lat": 38.88741783333333, "type": "electric_scooter", "lon": -77.02569083333333, "bike_id": "762a72f55ac7c2f028c7a0f88f4a82ec", "rental_uris": {"android": "https://dc.lft.to/lastmile_qr_scan", "ios": "https://dc.lft.to/lastmile_qr_scan"}, "name": "762a72f55ac7c2f028c7a0f88f4a82ec", "is_reserved": 0}, {"is_disabled": 0, "fusion_lon": 0.0, "fusion_lat": 0.0, "lat": 38.857887166666664, "type": "electric_bike", "lon": -76.9874565, "bike_id": "1fa97a166995cbf7106ba398edc25d11", "rental_uris": {"android": "https://dc.lft.to/lastmile_qr_scan", "ios": "https://dc.lft.to/lastmile_qr_scan"}, "name": "1fa97a166995cbf7106ba398edc25d11", "is_reserved": 0}, {"is_disabled": 0, "fusion_lon": 0.0, "fusion_lat": 0.0, "lat": 38.88123316666667, "type": "electric_scooter", "lon": -77.016769, "bike_id": "4620e79cb78ddf5cd4f37eedafa17f3c", "rental_uris": {"android": "https://dc.lft.to/lastmile_qr_scan", "ios": "https://dc.lft.to/lastmile_qr_scan"}, "name": "4620e79cb78ddf5cd4f37eedafa17f3c", "is_reserved": 0}, {"is_disabled": 0, "fusion_lon": 0.0, "fusion_lat": 0.0, "lat": 38.908564166666665, "type": "electric_scooter", "lon": -76.99804233333333, "bike_id": "4d94a93824a2108a7d46f1777682cc37", "rental_uris": {"android": "https://dc.lft.to/lastmile_qr_scan", "ios": "https://dc.lft.to/lastmile_qr_scan"}, "name": "4d94a93824a2108a7d46f1777682cc37", "is_reserved": 0}, {"is_disabled": 0, "fusion_lon": 0.0, "fusion_lat": 0.0, "lat": 38.918830666666665, "type": "electric_scooter", "lon": -77.04178783333333, "bike_id": "7bf09a92af797eb019881628e9d53962", "rental_uris": {"android": "https://dc.lft.to/lastmile_qr_scan", "ios": "https://dc.lft.to/lastmile_qr_scan"}, "name": "7bf09a92af797eb019881628e9d53962", "is_reserved": 0}, {"is_disabled": 0, "fusion_lon": 0.0, "fusion_lat": 0.0, "lat": 38.89666666666667, "type": "electric_scooter", "lon": -77.05036733333333, "bike_id": "9133f5be4f4189706c4fc4266162619e", "rental_uris": {"android": "https://dc.lft.to/lastmile_qr_scan", "ios": "https://dc.lft.to/lastmile_qr_scan"}, "name": "9133f5be4f4189706c4fc4266162619e", "is_reserved": 0}, {"is_disabled": 0, "fusion_lon": 0.0, "fusion_lat": 0.0, "lat": 38.9178345, "type": "electric_scooter", "lon": -77.03434366666667, "bike_id": "ff6516122c7a6e332782a1120f1861a5", "rental_uris": {"android": "https://dc.lft.to/lastmile_qr_scan", "ios": "https://dc.lft.to/lastmile_qr_scan"}, "name": "ff6516122c7a6e332782a1120f1861a5", "is_reserved": 0}, {"is_disabled": 0, "fusion_lon": 0.0, "fusion_lat": 0.0, "lat": 38.956154166666664, "type": "electric_scooter", "lon": -77.032851, "bike_id": "76fdbc1d0fcc6428b1a26fff86c0db4e", "rental_uris": {"android": "https://dc.lft.to/lastmile_qr_scan", "ios": "https://dc.lft.to/lastmile_qr_scan"}, "name": "76fdbc1d0fcc6428b1a26fff86c0db4e", "is_reserved": 0}, {"is_disabled": 0, "fusion_lon": 0.0, "fusion_lat": 0.0, "lat": 38.90680616666667, "type": "electric_scooter", "lon": -77.03643816666667, "bike_id": "35b1d13bb54e738a99f8c1dbbe1bfc21", "rental_uris": {"android": "https://dc.lft.to/lastmile_qr_scan", "ios": "https://dc.lft.to/lastmile_qr_scan"}, "name": "35b1d13bb54e738a99f8c1dbbe1bfc21", "is_reserved": 0}, {"is_disabled": 0, "fusion_lon": 0.0, "fusion_lat": 0.0, "lat": 38.88004383333333, "type": "electric_bike", "lon": -76.91597716666666, "bike_id": "1274319ea9b3fb893e52c4d7552da0fc", "rental_uris": {"android": "https://dc.lft.to/lastmile_qr_scan", "ios": "https://dc.lft.to/lastmile_qr_scan"}, "name": "1274319ea9b3fb893e52c4d7552da0fc", "is_reserved": 0}, {"is_disabled": 0, "fusion_lon": 0.0, "fusion_lat": 0.0, "lat": 38.9178285, "type": "electric_scooter", "lon": -77.02295333333333, "bike_id": "dd0c9ca51e8d35710421feca158c3a15", "rental_uris": {"android": "https://dc.lft.to/lastmile_qr_scan", "ios": "https://dc.lft.to/lastmile_qr_scan"}, "name": "dd0c9ca51e8d35710421feca158c3a15", "is_reserved": 0}, {"is_disabled": 0, "fusion_lon": 0.0, "fusion_lat": 0.0, "lat": 38.9665435, "type": "electric_bike", "lon": -76.93018833333333, "bike_id": "44ce7d4f06302a0ade3e75b8d4e93736", "rental_uris": {"android": "https://dc.lft.to/lastmile_qr_scan", "ios": "https://dc.lft.to/lastmile_qr_scan"}, "name": "44ce7d4f06302a0ade3e75b8d4e93736", "is_reserved": 0}, {"is_disabled": 0, "fusion_lon": 0.0, "fusion_lat": 0.0, "lat": 38.915501, "type": "electric_scooter", "lon": -77.01232016666667, "bike_id": "5b19633276882b83390ada8084197ea2", "rental_uris": {"android": "https://dc.lft.to/lastmile_qr_scan", "ios": "https://dc.lft.to/lastmile_qr_scan"}, "name": "5b19633276882b83390ada8084197ea2", "is_reserved": 0}, {"is_disabled": 0, "fusion_lon": 0.0, "fusion_lat": 0.0, "lat": 38.89273216666667, "type": "electric_scooter", "lon": -77.03204166666667, "bike_id": "dff90753a33d12336ae3588b6b55c6ca", "rental_uris": {"android": "https://dc.lft.to/lastmile_qr_scan", "ios": "https://dc.lft.to/lastmile_qr_scan"}, "name": "dff90753a33d12336ae3588b6b55c6ca", "is_reserved": 0}, {"is_disabled": 0, "fusion_lon": 0.0, "fusion_lat": 0.0, "lat": 38.92163433333333, "type": "electric_scooter", "lon": -77.03845633333333, "bike_id": "19ed9c783b5035737240c10c87b326f3", "rental_uris": {"android": "https://dc.lft.to/lastmile_qr_scan", "ios": "https://dc.lft.to/lastmile_qr_scan"}, "name": "19ed9c783b5035737240c10c87b326f3", "is_reserved": 0}, {"is_disabled": 0, "fusion_lon": 0.0, "fusion_lat": 0.0, "lat": 38.923284, "type": "electric_scooter", "lon": -77.04205866666666, "bike_id": "6e0dccd810f57b5384c90c2ad5d32b0a", "rental_uris": {"android": "https://dc.lft.to/lastmile_qr_scan", "ios": "https://dc.lft.to/lastmile_qr_scan"}, "name": "6e0dccd810f57b5384c90c2ad5d32b0a", "is_reserved": 0}, {"is_disabled": 0, "fusion_lon": 0.0, "fusion_lat": 0.0, "lat": 38.84844783333333, "type": "electric_bike", "lon": -77.08048716666667, "bike_id": "9b59278a256bf46e94675fd58a4eae37", "rental_uris": {"android": "https://dc.lft.to/lastmile_qr_scan", "ios": "https://dc.lft.to/lastmile_qr_scan"}, "name": "9b59278a256bf46e94675fd58a4eae37", "is_reserved": 0}, {"is_disabled": 0, "fusion_lon": 0.0, "fusion_lat": 0.0, "lat": 38.8968, "type": "electric_scooter", "lon": -76.9472285, "bike_id": "965df16ebdbf153dc51cfb06cbe2e8fa", "rental_uris": {"android": "https://dc.lft.to/lastmile_qr_scan", "ios": "https://dc.lft.to/lastmile_qr_scan"}, "name": "965df16ebdbf153dc51cfb06cbe2e8fa", "is_reserved": 0}, {"is_disabled": 0, "fusion_lon": 0.0, "fusion_lat": 0.0, "lat": 38.9660555, "type": "electric_bike", "lon": -76.9834485, "bike_id": "aa1bf07aba0697232f07639e0d143a6c", "rental_uris": {"android": "https://dc.lft.to/lastmile_qr_scan", "ios": "https://dc.lft.to/lastmile_qr_scan"}, "name": "aa1bf07aba0697232f07639e0d143a6c", "is_reserved": 0}, {"is_disabled": 0, "fusion_lon": 0.0, "fusion_lat": 0.0, "lat": 38.944525666666664, "type": "electric_scooter", "lon": -77.0635655, "bike_id": "f52c4b70cceeb446d7de2c2568edfa87", "rental_uris": {"android": "https://dc.lft.to/lastmile_qr_scan", "ios": "https://dc.lft.to/lastmile_qr_scan"}, "name": "f52c4b70cceeb446d7de2c2568edfa87", "is_reserved": 0}, {"is_disabled": 0, "fusion_lon": 0.0, "fusion_lat": 0.0, "lat": 38.90012133333333, "type": "electric_scooter", "lon": -76.99757716666667, "bike_id": "035c54a2240e49f20e2e8a113a33aba3", "rental_uris": {"android": "https://dc.lft.to/lastmile_qr_scan", "ios": "https://dc.lft.to/lastmile_qr_scan"}, "name": "035c54a2240e49f20e2e8a113a33aba3", "is_reserved": 0}, {"is_disabled": 0, "fusion_lon": 0.0, "fusion_lat": 0.0, "lat": 38.908494, "type": "electric_scooter", "lon": -77.02383383333333, "bike_id": "8a1874de06c7c44250c09df85b20b9eb", "rental_uris": {"android": "https://dc.lft.to/lastmile_qr_scan", "ios": "https://dc.lft.to/lastmile_qr_scan"}, "name": "8a1874de06c7c44250c09df85b20b9eb", "is_reserved": 0}, {"is_disabled": 0, "fusion_lon": 0.0, "fusion_lat": 0.0, "lat": 38.87575066666667, "type": "electric_scooter", "lon": -77.019917, "bike_id": "64c18959ffe41d51cbe06679127ab13b", "rental_uris": {"android": "https://dc.lft.to/lastmile_qr_scan", "ios": "https://dc.lft.to/lastmile_qr_scan"}, "name": "64c18959ffe41d51cbe06679127ab13b", "is_reserved": 0}, {"is_disabled": 0, "fusion_lon": 0.0, "fusion_lat": 0.0, "lat": 38.95357766666667, "type": "electric_bike", "lon": -76.98092966666667, "bike_id": "91f6b225f0f018edef6a003c0ea43973", "rental_uris": {"android": "https://dc.lft.to/lastmile_qr_scan", "ios": "https://dc.lft.to/lastmile_qr_scan"}, "name": "91f6b225f0f018edef6a003c0ea43973", "is_reserved": 0}, {"is_disabled": 0, "fusion_lon": 0.0, "fusion_lat": 0.0, "lat": 38.91782283333333, "type": "electric_scooter", "lon": -77.022943, "bike_id": "35efa5e2321a40a019f36d8ec2188ac1", "rental_uris": {"android": "https://dc.lft.to/lastmile_qr_scan", "ios": "https://dc.lft.to/lastmile_qr_scan"}, "name": "35efa5e2321a40a019f36d8ec2188ac1", "is_reserved": 0}, {"is_disabled": 0, "fusion_lon": 0.0, "fusion_lat": 0.0, "lat": 38.915449333333335, "type": "electric_scooter", "lon": -77.01974016666667, "bike_id": "670165b6ab00fbaebbea9b2809902276", "rental_uris": {"android": "https://dc.lft.to/lastmile_qr_scan", "ios": "https://dc.lft.to/lastmile_qr_scan"}, "name": "670165b6ab00fbaebbea9b2809902276", "is_reserved": 0}, {"is_disabled": 0, "fusion_lon": 0.0, "fusion_lat": 0.0, "lat": 38.917891166666664, "type": "electric_scooter", "lon": -77.036612, "bike_id": "02305d2af3c94fb9f88099ad55b00e7c", "rental_uris": {"android": "https://dc.lft.to/lastmile_qr_scan", "ios": "https://dc.lft.to/lastmile_qr_scan"}, "name": "02305d2af3c94fb9f88099ad55b00e7c", "is_reserved": 0}, {"is_disabled": 0, "fusion_lon": 0.0, "fusion_lat": 0.0, "lat": 38.902710166666665, "type": "electric_scooter", "lon": -77.03652766666667, "bike_id": "862cdb335c53f3c1def1e717d32dc764", "rental_uris": {"android": "https://dc.lft.to/lastmile_qr_scan", "ios": "https://dc.lft.to/lastmile_qr_scan"}, "name": "862cdb335c53f3c1def1e717d32dc764", "is_reserved": 0}, {"is_disabled": 0, "fusion_lon": 0.0, "fusion_lat": 0.0, "lat": 38.93397983333333, "type": "electric_scooter", "lon": -77.027319, "bike_id": "409901649304d144ba0ca6f4ca35bf51", "rental_uris": {"android": "https://dc.lft.to/lastmile_qr_scan", "ios": "https://dc.lft.to/lastmile_qr_scan"}, "name": "409901649304d144ba0ca6f4ca35bf51", "is_reserved": 0}, {"is_disabled": 0, "fusion_lon": 0.0, "fusion_lat": 0.0, "lat": 38.90588066666667, "type": "electric_scooter", "lon": -77.0238115, "bike_id": "96568bcfc8ee12e449929e9378493d79", "rental_uris": {"android": "https://dc.lft.to/lastmile_qr_scan", "ios": "https://dc.lft.to/lastmile_qr_scan"}, "name": "96568bcfc8ee12e449929e9378493d79", "is_reserved": 0}, {"is_disabled": 0, "fusion_lon": 0.0, "fusion_lat": 0.0, "lat": 38.91540233333333, "type": "electric_scooter", "lon": -77.02173683333334, "bike_id": "6f86947f812c81fb3954a3dab5eafb42", "rental_uris": {"android": "https://dc.lft.to/lastmile_qr_scan", "ios": "https://dc.lft.to/lastmile_qr_scan"}, "name": "6f86947f812c81fb3954a3dab5eafb42", "is_reserved": 0}, {"is_disabled": 0, "fusion_lon": 0.0, "fusion_lat": 0.0, "lat": 38.8849205, "type": "electric_scooter", "lon": -77.02062316666667, "bike_id": "e66acf73583960a355b4a46706cef22a", "rental_uris": {"android": "https://dc.lft.to/lastmile_qr_scan", "ios": "https://dc.lft.to/lastmile_qr_scan"}, "name": "e66acf73583960a355b4a46706cef22a", "is_reserved": 0}, {"is_disabled": 0, "fusion_lon": 0.0, "fusion_lat": 0.0, "lat": 38.949244666666665, "type": "electric_bike", "lon": -77.00804383333333, "bike_id": "485d8787a3f229a91988c322fd809c3d", "rental_uris": {"android": "https://dc.lft.to/lastmile_qr_scan", "ios": "https://dc.lft.to/lastmile_qr_scan"}, "name": "485d8787a3f229a91988c322fd809c3d", "is_reserved": 0}, {"is_disabled": 0, "fusion_lon": 0.0, "fusion_lat": 0.0, "lat": 38.90833416666667, "type": "electric_scooter", "lon": -76.99701266666666, "bike_id": "cbcf1e7f8644e3f5c628a1c36cfa5dd2", "rental_uris": {"android": "https://dc.lft.to/lastmile_qr_scan", "ios": "https://dc.lft.to/lastmile_qr_scan"}, "name": "cbcf1e7f8644e3f5c628a1c36cfa5dd2", "is_reserved": 0}, {"is_disabled": 0, "fusion_lon": 0.0, "fusion_lat": 0.0, "lat": 38.8993935, "type": "electric_scooter", "lon": -77.02940583333333, "bike_id": "3fab37c3e2dc370893e279ec7f39f2a1", "rental_uris": {"android": "https://dc.lft.to/lastmile_qr_scan", "ios": "https://dc.lft.to/lastmile_qr_scan"}, "name": "3fab37c3e2dc370893e279ec7f39f2a1", "is_reserved": 0}, {"is_disabled": 0, "fusion_lon": 0.0, "fusion_lat": 0.0, "lat": 38.909566, "type": "electric_scooter", "lon": -77.02716316666667, "bike_id": "92dda873bbdee91d560dd1de89f39ee7", "rental_uris": {"android": "https://dc.lft.to/lastmile_qr_scan", "ios": "https://dc.lft.to/lastmile_qr_scan"}, "name": "92dda873bbdee91d560dd1de89f39ee7", "is_reserved": 0}, {"is_disabled": 0, "fusion_lon": 0.0, "fusion_lat": 0.0, "lat": 38.88998, "type": "electric_scooter", "lon": -77.04896016666666, "bike_id": "2978e9a6af065618a40e4ceebfeec384", "rental_uris": {"android": "https://dc.lft.to/lastmile_qr_scan", "ios": "https://dc.lft.to/lastmile_qr_scan"}, "name": "2978e9a6af065618a40e4ceebfeec384", "is_reserved": 0}, {"is_disabled": 0, "fusion_lon": 0.0, "fusion_lat": 0.0, "lat": 38.895721, "type": "electric_scooter", "lon": -77.02309216666667, "bike_id": "fa9aab88c92ce4bb7f51f2e27e402ac4", "rental_uris": {"android": "https://dc.lft.to/lastmile_qr_scan", "ios": "https://dc.lft.to/lastmile_qr_scan"}, "name": "fa9aab88c92ce4bb7f51f2e27e402ac4", "is_reserved": 0}, {"is_disabled": 0, "fusion_lon": 0.0, "fusion_lat": 0.0, "lat": 38.97539833333333, "type": "electric_bike", "lon": -76.99532033333334, "bike_id": "e3861f26da4b137b4d59ebc693fd29c2", "rental_uris": {"android": "https://dc.lft.to/lastmile_qr_scan", "ios": "https://dc.lft.to/lastmile_qr_scan"}, "name": "e3861f26da4b137b4d59ebc693fd29c2", "is_reserved": 0}, {"is_disabled": 0, "fusion_lon": 0.0, "fusion_lat": 0.0, "lat": 38.91604666666667, "type": "electric_scooter", "lon": -77.0401555, "bike_id": "87fc96ab613da4478cbb1033edcb84da", "rental_uris": {"android": "https://dc.lft.to/lastmile_qr_scan", "ios": "https://dc.lft.to/lastmile_qr_scan"}, "name": "87fc96ab613da4478cbb1033edcb84da", "is_reserved": 0}, {"is_disabled": 0, "fusion_lon": 0.0, "fusion_lat": 0.0, "lat": 38.933085, "type": "electric_scooter", "lon": -77.03265833333333, "bike_id": "c94b39980aa1bd642adc85c9067d921d", "rental_uris": {"android": "https://dc.lft.to/lastmile_qr_scan", "ios": "https://dc.lft.to/lastmile_qr_scan"}, "name": "c94b39980aa1bd642adc85c9067d921d", "is_reserved": 0}, {"is_disabled": 0, "fusion_lon": 0.0, "fusion_lat": 0.0, "lat": 38.9088705, "type": "electric_scooter", "lon": -77.033932, "bike_id": "1c2973fac23958782d288453f6729a75", "rental_uris": {"android": "https://dc.lft.to/lastmile_qr_scan", "ios": "https://dc.lft.to/lastmile_qr_scan"}, "name": "1c2973fac23958782d288453f6729a75", "is_reserved": 0}, {"is_disabled": 0, "fusion_lon": 0.0, "fusion_lat": 0.0, "lat": 38.898344333333334, "type": "electric_scooter", "lon": -76.9463475, "bike_id": "a0bfcd358df325df443172505626b1fd", "rental_uris": {"android": "https://dc.lft.to/lastmile_qr_scan", "ios": "https://dc.lft.to/lastmile_qr_scan"}, "name": "a0bfcd358df325df443172505626b1fd", "is_reserved": 0}, {"is_disabled": 0, "fusion_lon": 0.0, "fusion_lat": 0.0, "lat": 38.915981, "type": "electric_bike", "lon": -76.9715415, "bike_id": "197270b20316e2016b7db3522ff984f3", "rental_uris": {"android": "https://dc.lft.to/lastmile_qr_scan", "ios": "https://dc.lft.to/lastmile_qr_scan"}, "name": "197270b20316e2016b7db3522ff984f3", "is_reserved": 0}, {"is_disabled": 0, "fusion_lon": 0.0, "fusion_lat": 0.0, "lat": 38.908528, "type": "electric_scooter", "lon": -77.00986533333334, "bike_id": "d6c9d891df225100dabc6d2a490251dc", "rental_uris": {"android": "https://dc.lft.to/lastmile_qr_scan", "ios": "https://dc.lft.to/lastmile_qr_scan"}, "name": "d6c9d891df225100dabc6d2a490251dc", "is_reserved": 0}, {"is_disabled": 0, "fusion_lon": 0.0, "fusion_lat": 0.0, "lat": 38.92327816666667, "type": "electric_scooter", "lon": -77.04310266666667, "bike_id": "09737ec6eb83a9e0e31c45182b0e920e", "rental_uris": {"android": "https://dc.lft.to/lastmile_qr_scan", "ios": "https://dc.lft.to/lastmile_qr_scan"}, "name": "09737ec6eb83a9e0e31c45182b0e920e", "is_reserved": 0}, {"is_disabled": 0, "fusion_lon": 0.0, "fusion_lat": 0.0, "lat": 38.917092333333336, "type": "electric_scooter", "lon": -77.02986516666667, "bike_id": "f50d936b763583fd93b497abdd2cb222", "rental_uris": {"android": "https://dc.lft.to/lastmile_qr_scan", "ios": "https://dc.lft.to/lastmile_qr_scan"}, "name": "f50d936b763583fd93b497abdd2cb222", "is_reserved": 0}, {"is_disabled": 0, "fusion_lon": 0.0, "fusion_lat": 0.0, "lat": 38.935596333333336, "type": "electric_bike", "lon": -77.08188716666666, "bike_id": "af5877632884880cd4f025ffbd6850dd", "rental_uris": {"android": "https://dc.lft.to/lastmile_qr_scan", "ios": "https://dc.lft.to/lastmile_qr_scan"}, "name": "af5877632884880cd4f025ffbd6850dd", "is_reserved": 0}, {"is_disabled": 0, "fusion_lon": 0.0, "fusion_lat": 0.0, "lat": 38.86909933333333, "type": "electric_bike", "lon": -77.13183616666667, "bike_id": "faf188ca2c454fccffd6713ea523d402", "rental_uris": {"android": "https://dc.lft.to/lastmile_qr_scan", "ios": "https://dc.lft.to/lastmile_qr_scan"}, "name": "faf188ca2c454fccffd6713ea523d402", "is_reserved": 0}, {"is_disabled": 0, "fusion_lon": 0.0, "fusion_lat": 0.0, "lat": 38.91154183333333, "type": "electric_scooter", "lon": -77.02389683333334, "bike_id": "4c62223b517dac2c8d2a2475842dc43f", "rental_uris": {"android": "https://dc.lft.to/lastmile_qr_scan", "ios": "https://dc.lft.to/lastmile_qr_scan"}, "name": "4c62223b517dac2c8d2a2475842dc43f", "is_reserved": 0}, {"is_disabled": 0, "fusion_lon": 0.0, "fusion_lat": 0.0, "lat": 38.91984766666667, "type": "electric_bike", "lon": -76.973122, "bike_id": "1367468cd1d457e245642251a32f40b2", "rental_uris": {"android": "https://dc.lft.to/lastmile_qr_scan", "ios": "https://dc.lft.to/lastmile_qr_scan"}, "name": "1367468cd1d457e245642251a32f40b2", "is_reserved": 0}, {"is_disabled": 0, "fusion_lon": 0.0, "fusion_lat": 0.0, "lat": 38.8710805, "type": "electric_bike", "lon": -77.00768033333334, "bike_id": "4d4e00aab2284120629d8d962420a7a2", "rental_uris": {"android": "https://dc.lft.to/lastmile_qr_scan", "ios": "https://dc.lft.to/lastmile_qr_scan"}, "name": "4d4e00aab2284120629d8d962420a7a2", "is_reserved": 0}, {"is_disabled": 0, "fusion_lon": 0.0, "fusion_lat": 0.0, "lat": 38.905002833333334, "type": "electric_scooter", "lon": -77.029525, "bike_id": "2cd713ca8810a411d68cecca71e2ff2b", "rental_uris": {"android": "https://dc.lft.to/lastmile_qr_scan", "ios": "https://dc.lft.to/lastmile_qr_scan"}, "name": "2cd713ca8810a411d68cecca71e2ff2b", "is_reserved": 0}, {"is_disabled": 0, "fusion_lon": 0.0, "fusion_lat": 0.0, "lat": 38.930048, "type": "electric_scooter", "lon": -77.02203916666667, "bike_id": "f4be3461fb8228bf1a9683dd1c4cb0b6", "rental_uris": {"android": "https://dc.lft.to/lastmile_qr_scan", "ios": "https://dc.lft.to/lastmile_qr_scan"}, "name": "f4be3461fb8228bf1a9683dd1c4cb0b6", "is_reserved": 0}, {"is_disabled": 0, "fusion_lon": 0.0, "fusion_lat": 0.0, "lat": 38.91017983333333, "type": "electric_scooter", "lon": -77.03856833333333, "bike_id": "87a22d01f724060fa33415c2edee9efc", "rental_uris": {"android": "https://dc.lft.to/lastmile_qr_scan", "ios": "https://dc.lft.to/lastmile_qr_scan"}, "name": "87a22d01f724060fa33415c2edee9efc", "is_reserved": 0}, {"is_disabled": 0, "fusion_lon": 0.0, "fusion_lat": 0.0, "lat": 38.93646183333333, "type": "electric_bike", "lon": -76.95458033333334, "bike_id": "9256e33c8a5e81cee996d0671d0008c3", "rental_uris": {"android": "https://dc.lft.to/lastmile_qr_scan", "ios": "https://dc.lft.to/lastmile_qr_scan"}, "name": "9256e33c8a5e81cee996d0671d0008c3", "is_reserved": 0}, {"is_disabled": 0, "fusion_lon": 0.0, "fusion_lat": 0.0, "lat": 38.91479116666667, "type": "electric_scooter", "lon": -77.038356, "bike_id": "0a538e80ed56391798feff9469cdc701", "rental_uris": {"android": "https://dc.lft.to/lastmile_qr_scan", "ios": "https://dc.lft.to/lastmile_qr_scan"}, "name": "0a538e80ed56391798feff9469cdc701", "is_reserved": 0}, {"is_disabled": 0, "fusion_lon": 0.0, "fusion_lat": 0.0, "lat": 38.930772833333336, "type": "electric_scooter", "lon": -77.03126116666667, "bike_id": "210f51c2e730d9890a24372fe8d64404", "rental_uris": {"android": "https://dc.lft.to/lastmile_qr_scan", "ios": "https://dc.lft.to/lastmile_qr_scan"}, "name": "210f51c2e730d9890a24372fe8d64404", "is_reserved": 0}, {"is_disabled": 0, "fusion_lon": 0.0, "fusion_lat": 0.0, "lat": 38.873965166666665, "type": "electric_scooter", "lon": -77.0020395, "bike_id": "e08f04741114529aa3f2583136bc33af", "rental_uris": {"android": "https://dc.lft.to/lastmile_qr_scan", "ios": "https://dc.lft.to/lastmile_qr_scan"}, "name": "e08f04741114529aa3f2583136bc33af", "is_reserved": 0}, {"is_disabled": 0, "fusion_lon": 0.0, "fusion_lat": 0.0, "lat": 38.91866816666667, "type": "electric_scooter", "lon": -77.0448085, "bike_id": "a06799fdd96ab04710b569a355f01428", "rental_uris": {"android": "https://dc.lft.to/lastmile_qr_scan", "ios": "https://dc.lft.to/lastmile_qr_scan"}, "name": "a06799fdd96ab04710b569a355f01428", "is_reserved": 0}, {"is_disabled": 0, "fusion_lon": 0.0, "fusion_lat": 0.0, "lat": 38.892253833333335, "type": "electric_scooter", "lon": -77.03184866666666, "bike_id": "a2e320d3335a75ed3b33124715b1df2f", "rental_uris": {"android": "https://dc.lft.to/lastmile_qr_scan", "ios": "https://dc.lft.to/lastmile_qr_scan"}, "name": "a2e320d3335a75ed3b33124715b1df2f", "is_reserved": 0}, {"is_disabled": 0, "fusion_lon": 0.0, "fusion_lat": 0.0, "lat": 38.90977866666667, "type": "electric_scooter", "lon": -77.03257216666667, "bike_id": "f86302992f56447b3babe37779c44b7a", "rental_uris": {"android": "https://dc.lft.to/lastmile_qr_scan", "ios": "https://dc.lft.to/lastmile_qr_scan"}, "name": "f86302992f56447b3babe37779c44b7a", "is_reserved": 0}, {"is_disabled": 0, "fusion_lon": 0.0, "fusion_lat": 0.0, "lat": 38.9007335, "type": "electric_scooter", "lon": -77.04873966666666, "bike_id": "5241248c5b668e5a11cb75c87a44c6a9", "rental_uris": {"android": "https://dc.lft.to/lastmile_qr_scan", "ios": "https://dc.lft.to/lastmile_qr_scan"}, "name": "5241248c5b668e5a11cb75c87a44c6a9", "is_reserved": 0}, {"is_disabled": 0, "fusion_lon": 0.0, "fusion_lat": 0.0, "lat": 38.93917916666667, "type": "electric_bike", "lon": -77.03281716666666, "bike_id": "2210d608c9bfd7caa807cacd11fba81a", "rental_uris": {"android": "https://dc.lft.to/lastmile_qr_scan", "ios": "https://dc.lft.to/lastmile_qr_scan"}, "name": "2210d608c9bfd7caa807cacd11fba81a", "is_reserved": 0}, {"is_disabled": 0, "fusion_lon": 0.0, "fusion_lat": 0.0, "lat": 38.90439816666667, "type": "electric_scooter", "lon": -77.03466566666667, "bike_id": "cd49491a73d3b8f0c2cfc249fe1abd75", "rental_uris": {"android": "https://dc.lft.to/lastmile_qr_scan", "ios": "https://dc.lft.to/lastmile_qr_scan"}, "name": "cd49491a73d3b8f0c2cfc249fe1abd75", "is_reserved": 0}, {"is_disabled": 0, "fusion_lon": 0.0, "fusion_lat": 0.0, "lat": 38.9457705, "type": "electric_bike", "lon": -76.9877685, "bike_id": "c0e13a20b035a1c498183fdc210c4400", "rental_uris": {"android": "https://dc.lft.to/lastmile_qr_scan", "ios": "https://dc.lft.to/lastmile_qr_scan"}, "name": "c0e13a20b035a1c498183fdc210c4400", "is_reserved": 0}, {"is_disabled": 0, "fusion_lon": 0.0, "fusion_lat": 0.0, "lat": 38.904822833333334, "type": "electric_scooter", "lon": -77.03555283333333, "bike_id": "89e9a707e0d79422acf102f61b407b80", "rental_uris": {"android": "https://dc.lft.to/lastmile_qr_scan", "ios": "https://dc.lft.to/lastmile_qr_scan"}, "name": "89e9a707e0d79422acf102f61b407b80", "is_reserved": 0}, {"is_disabled": 0, "fusion_lon": 0.0, "fusion_lat": 0.0, "lat": 38.95096383333333, "type": "electric_bike", "lon": -76.96557983333334, "bike_id": "01103af6d76590b94a0d7a8c795b7431", "rental_uris": {"android": "https://dc.lft.to/lastmile_qr_scan", "ios": "https://dc.lft.to/lastmile_qr_scan"}, "name": "01103af6d76590b94a0d7a8c795b7431", "is_reserved": 0}, {"is_disabled": 0, "fusion_lon": 0.0, "fusion_lat": 0.0, "lat": 38.907330333333334, "type": "electric_scooter", "lon": -77.023745, "bike_id": "a67803d184bdbdb9796e09038b7234cd", "rental_uris": {"android": "https://dc.lft.to/lastmile_qr_scan", "ios": "https://dc.lft.to/lastmile_qr_scan"}, "name": "a67803d184bdbdb9796e09038b7234cd", "is_reserved": 0}, {"is_disabled": 0, "fusion_lon": 0.0, "fusion_lat": 0.0, "lat": 38.89825166666667, "type": "electric_scooter", "lon": -77.02955516666667, "bike_id": "55563633373e67b20896bc2e55ee5df9", "rental_uris": {"android": "https://dc.lft.to/lastmile_qr_scan", "ios": "https://dc.lft.to/lastmile_qr_scan"}, "name": "55563633373e67b20896bc2e55ee5df9", "is_reserved": 0}, {"is_disabled": 0, "fusion_lon": 0.0, "fusion_lat": 0.0, "lat": 38.9221265, "type": "electric_bike", "lon": -77.03666, "bike_id": "dcbad1624f97c5f39352f2e40fa3fbed", "rental_uris": {"android": "https://dc.lft.to/lastmile_qr_scan", "ios": "https://dc.lft.to/lastmile_qr_scan"}, "name": "dcbad1624f97c5f39352f2e40fa3fbed", "is_reserved": 0}, {"is_disabled": 0, "fusion_lon": 0.0, "fusion_lat": 0.0, "lat": 38.908044, "type": "electric_scooter", "lon": -77.04084916666666, "bike_id": "4f33acac8383cf007652ededba2dbfb3", "rental_uris": {"android": "https://dc.lft.to/lastmile_qr_scan", "ios": "https://dc.lft.to/lastmile_qr_scan"}, "name": "4f33acac8383cf007652ededba2dbfb3", "is_reserved": 0}, {"is_disabled": 0, "fusion_lon": 0.0, "fusion_lat": 0.0, "lat": 38.91272466666667, "type": "electric_scooter", "lon": -77.0222915, "bike_id": "d8290acd54561bdc56a9d6adc4c962a4", "rental_uris": {"android": "https://dc.lft.to/lastmile_qr_scan", "ios": "https://dc.lft.to/lastmile_qr_scan"}, "name": "d8290acd54561bdc56a9d6adc4c962a4", "is_reserved": 0}, {"is_disabled": 0, "fusion_lon": 0.0, "fusion_lat": 0.0, "lat": 38.90961983333333, "type": "electric_scooter", "lon": -77.0394795, "bike_id": "c46e53d2579e13e85144fe3fdf22f143", "rental_uris": {"android": "https://dc.lft.to/lastmile_qr_scan", "ios": "https://dc.lft.to/lastmile_qr_scan"}, "name": "c46e53d2579e13e85144fe3fdf22f143", "is_reserved": 0}, {"is_disabled": 0, "fusion_lon": 0.0, "fusion_lat": 0.0, "lat": 38.917047333333336, "type": "electric_bike", "lon": -77.09565966666666, "bike_id": "73271db37b7abb871657b624d6d95957", "rental_uris": {"android": "https://dc.lft.to/lastmile_qr_scan", "ios": "https://dc.lft.to/lastmile_qr_scan"}, "name": "73271db37b7abb871657b624d6d95957", "is_reserved": 0}, {"is_disabled": 0, "fusion_lon": 0.0, "fusion_lat": 0.0, "lat": 38.94893666666667, "type": "electric_bike", "lon": -76.96365383333334, "bike_id": "e059066dd417587a305f91c41f2f3ed8", "rental_uris": {"android": "https://dc.lft.to/lastmile_qr_scan", "ios": "https://dc.lft.to/lastmile_qr_scan"}, "name": "e059066dd417587a305f91c41f2f3ed8", "is_reserved": 0}, {"is_disabled": 0, "fusion_lon": 0.0, "fusion_lat": 0.0, "lat": 38.927726166666666, "type": "electric_scooter", "lon": -77.02783266666667, "bike_id": "718b9215f90c541863225c7fa9938d91", "rental_uris": {"android": "https://dc.lft.to/lastmile_qr_scan", "ios": "https://dc.lft.to/lastmile_qr_scan"}, "name": "718b9215f90c541863225c7fa9938d91", "is_reserved": 0}, {"is_disabled": 0, "fusion_lon": 0.0, "fusion_lat": 0.0, "lat": 38.928135, "type": "electric_scooter", "lon": -77.02346166666666, "bike_id": "9b2e18aebf83435923e81a976ca05ce1", "rental_uris": {"android": "https://dc.lft.to/lastmile_qr_scan", "ios": "https://dc.lft.to/lastmile_qr_scan"}, "name": "9b2e18aebf83435923e81a976ca05ce1", "is_reserved": 0}, {"is_disabled": 0, "fusion_lon": 0.0, "fusion_lat": 0.0, "lat": 38.93415, "type": "electric_scooter", "lon": -77.01968616666667, "bike_id": "a96a2640e79f85852a0b3ef17a01220c", "rental_uris": {"android": "https://dc.lft.to/lastmile_qr_scan", "ios": "https://dc.lft.to/lastmile_qr_scan"}, "name": "a96a2640e79f85852a0b3ef17a01220c", "is_reserved": 0}, {"is_disabled": 0, "fusion_lon": 0.0, "fusion_lat": 0.0, "lat": 38.924899333333336, "type": "electric_scooter", "lon": -77.03933566666667, "bike_id": "e26475ca2a1f26ef71714fc3ec520aac", "rental_uris": {"android": "https://dc.lft.to/lastmile_qr_scan", "ios": "https://dc.lft.to/lastmile_qr_scan"}, "name": "e26475ca2a1f26ef71714fc3ec520aac", "is_reserved": 0}, {"is_disabled": 0, "fusion_lon": 0.0, "fusion_lat": 0.0, "lat": 38.865055, "type": "electric_scooter", "lon": -76.99001116666666, "bike_id": "cba4663b1d974b61e556d8f113ec4b6b", "rental_uris": {"android": "https://dc.lft.to/lastmile_qr_scan", "ios": "https://dc.lft.to/lastmile_qr_scan"}, "name": "cba4663b1d974b61e556d8f113ec4b6b", "is_reserved": 0}, {"is_disabled": 0, "fusion_lon": 0.0, "fusion_lat": 0.0, "lat": 39.05263983333333, "type": "electric_bike", "lon": -77.0438535, "bike_id": "34bc216df28a8aacd42cf47821731dbd", "rental_uris": {"android": "https://dc.lft.to/lastmile_qr_scan", "ios": "https://dc.lft.to/lastmile_qr_scan"}, "name": "34bc216df28a8aacd42cf47821731dbd", "is_reserved": 0}, {"is_disabled": 0, "fusion_lon": 0.0, "fusion_lat": 0.0, "lat": 38.899842666666665, "type": "electric_scooter", "lon": -77.016279, "bike_id": "2c1cc2976cdfe00069eee9c1e928babc", "rental_uris": {"android": "https://dc.lft.to/lastmile_qr_scan", "ios": "https://dc.lft.to/lastmile_qr_scan"}, "name": "2c1cc2976cdfe00069eee9c1e928babc", "is_reserved": 0}, {"is_disabled": 0, "fusion_lon": 0.0, "fusion_lat": 0.0, "lat": 38.9337195, "type": "electric_scooter", "lon": -77.05751383333333, "bike_id": "b78bf9bf7900822ae2b791894507f1ca", "rental_uris": {"android": "https://dc.lft.to/lastmile_qr_scan", "ios": "https://dc.lft.to/lastmile_qr_scan"}, "name": "b78bf9bf7900822ae2b791894507f1ca", "is_reserved": 0}, {"is_disabled": 0, "fusion_lon": 0.0, "fusion_lat": 0.0, "lat": 38.87883, "type": "electric_scooter", "lon": -77.0195, "bike_id": "038d7eae4b0bb8a8992dbe4b64f3bd14", "rental_uris": {"android": "https://dc.lft.to/lastmile_qr_scan", "ios": "https://dc.lft.to/lastmile_qr_scan"}, "name": "038d7eae4b0bb8a8992dbe4b64f3bd14", "is_reserved": 0}, {"is_disabled": 0, "fusion_lon": 0.0, "fusion_lat": 0.0, "lat": 38.8973685, "type": "electric_scooter", "lon": -77.04678533333333, "bike_id": "f52da2c4887e3b176705289ee92405f5", "rental_uris": {"android": "https://dc.lft.to/lastmile_qr_scan", "ios": "https://dc.lft.to/lastmile_qr_scan"}, "name": "f52da2c4887e3b176705289ee92405f5", "is_reserved": 0}, {"is_disabled": 0, "fusion_lon": 0.0, "fusion_lat": 0.0, "lat": 38.872948, "type": "electric_scooter", "lon": -77.009939, "bike_id": "2d2e9d6a07224d72e52e7dfaf2e530a1", "rental_uris": {"android": "https://dc.lft.to/lastmile_qr_scan", "ios": "https://dc.lft.to/lastmile_qr_scan"}, "name": "2d2e9d6a07224d72e52e7dfaf2e530a1", "is_reserved": 0}, {"is_disabled": 0, "fusion_lon": 0.0, "fusion_lat": 0.0, "lat": 38.9055505, "type": "electric_scooter", "lon": -77.00579266666666, "bike_id": "512b0b50add6455bbe27e77054c7c560", "rental_uris": {"android": "https://dc.lft.to/lastmile_qr_scan", "ios": "https://dc.lft.to/lastmile_qr_scan"}, "name": "512b0b50add6455bbe27e77054c7c560", "is_reserved": 0}, {"is_disabled": 0, "fusion_lon": 0.0, "fusion_lat": 0.0, "lat": 38.9156925, "type": "electric_scooter", "lon": -77.04167516666666, "bike_id": "df6396baa53d5ab1a2fa3890b36eba0f", "rental_uris": {"android": "https://dc.lft.to/lastmile_qr_scan", "ios": "https://dc.lft.to/lastmile_qr_scan"}, "name": "df6396baa53d5ab1a2fa3890b36eba0f", "is_reserved": 0}, {"is_disabled": 0, "fusion_lon": 0.0, "fusion_lat": 0.0, "lat": 38.92413166666667, "type": "electric_scooter", "lon": -77.02004866666667, "bike_id": "5ec7c5ddcc4dd8ea6bb9954616cb8bb9", "rental_uris": {"android": "https://dc.lft.to/lastmile_qr_scan", "ios": "https://dc.lft.to/lastmile_qr_scan"}, "name": "5ec7c5ddcc4dd8ea6bb9954616cb8bb9", "is_reserved": 0}, {"is_disabled": 0, "fusion_lon": 0.0, "fusion_lat": 0.0, "lat": 38.897838166666666, "type": "electric_scooter", "lon": -77.0500425, "bike_id": "026a8499f616e3ba49e6354f73eb7626", "rental_uris": {"android": "https://dc.lft.to/lastmile_qr_scan", "ios": "https://dc.lft.to/lastmile_qr_scan"}, "name": "026a8499f616e3ba49e6354f73eb7626", "is_reserved": 0}, {"is_disabled": 0, "fusion_lon": 0.0, "fusion_lat": 0.0, "lat": 38.900465833333335, "type": "electric_scooter", "lon": -77.033535, "bike_id": "fa797d3289d354fa6add522acb80dcc1", "rental_uris": {"android": "https://dc.lft.to/lastmile_qr_scan", "ios": "https://dc.lft.to/lastmile_qr_scan"}, "name": "fa797d3289d354fa6add522acb80dcc1", "is_reserved": 0}, {"is_disabled": 0, "fusion_lon": 0.0, "fusion_lat": 0.0, "lat": 38.916941, "type": "electric_scooter", "lon": -77.03220783333333, "bike_id": "cad3c4ab7fa8322d993b5f3871d12006", "rental_uris": {"android": "https://dc.lft.to/lastmile_qr_scan", "ios": "https://dc.lft.to/lastmile_qr_scan"}, "name": "cad3c4ab7fa8322d993b5f3871d12006", "is_reserved": 0}, {"is_disabled": 0, "fusion_lon": 0.0, "fusion_lat": 0.0, "lat": 38.896839166666666, "type": "electric_scooter", "lon": -76.935365, "bike_id": "04f320b5a862f31c3ffe8510c74bec14", "rental_uris": {"android": "https://dc.lft.to/lastmile_qr_scan", "ios": "https://dc.lft.to/lastmile_qr_scan"}, "name": "04f320b5a862f31c3ffe8510c74bec14", "is_reserved": 0}, {"is_disabled": 0, "fusion_lon": 0.0, "fusion_lat": 0.0, "lat": 38.874129, "type": "electric_bike", "lon": -77.08572216666667, "bike_id": "3fcf1a52873a972acc6fd2446254200c", "rental_uris": {"android": "https://dc.lft.to/lastmile_qr_scan", "ios": "https://dc.lft.to/lastmile_qr_scan"}, "name": "3fcf1a52873a972acc6fd2446254200c", "is_reserved": 0}, {"is_disabled": 0, "fusion_lon": 0.0, "fusion_lat": 0.0, "lat": 38.931457, "type": "electric_scooter", "lon": -77.04244266666667, "bike_id": "53e594ef390f2cc298fcfa279d58cfbd", "rental_uris": {"android": "https://dc.lft.to/lastmile_qr_scan", "ios": "https://dc.lft.to/lastmile_qr_scan"}, "name": "53e594ef390f2cc298fcfa279d58cfbd", "is_reserved": 0}, {"is_disabled": 0, "fusion_lon": 0.0, "fusion_lat": 0.0, "lat": 38.88506833333334, "type": "electric_scooter", "lon": -77.02501233333334, "bike_id": "cb1995544a40b2778df2a39e5c7e344e", "rental_uris": {"android": "https://dc.lft.to/lastmile_qr_scan", "ios": "https://dc.lft.to/lastmile_qr_scan"}, "name": "cb1995544a40b2778df2a39e5c7e344e", "is_reserved": 0}, {"is_disabled": 0, "fusion_lon": 0.0, "fusion_lat": 0.0, "lat": 38.9404815, "type": "electric_scooter", "lon": -77.02512183333333, "bike_id": "e1bb111c73848a66bf4824845e8ec9d9", "rental_uris": {"android": "https://dc.lft.to/lastmile_qr_scan", "ios": "https://dc.lft.to/lastmile_qr_scan"}, "name": "e1bb111c73848a66bf4824845e8ec9d9", "is_reserved": 0}, {"is_disabled": 0, "fusion_lon": 0.0, "fusion_lat": 0.0, "lat": 38.908460166666664, "type": "electric_scooter", "lon": -77.02343716666667, "bike_id": "372609a6ef01e3e88a8e148313ba5ae9", "rental_uris": {"android": "https://dc.lft.to/lastmile_qr_scan", "ios": "https://dc.lft.to/lastmile_qr_scan"}, "name": "372609a6ef01e3e88a8e148313ba5ae9", "is_reserved": 0}, {"is_disabled": 0, "fusion_lon": 0.0, "fusion_lat": 0.0, "lat": 38.91704583333333, "type": "electric_scooter", "lon": -77.029917, "bike_id": "4123bc146dbc62d7dd155e0c8efa6e3b", "rental_uris": {"android": "https://dc.lft.to/lastmile_qr_scan", "ios": "https://dc.lft.to/lastmile_qr_scan"}, "name": "4123bc146dbc62d7dd155e0c8efa6e3b", "is_reserved": 0}, {"is_disabled": 0, "fusion_lon": 0.0, "fusion_lat": 0.0, "lat": 38.90034966666666, "type": "electric_scooter", "lon": -76.998247, "bike_id": "d73b2cb35dabf81748fd01a6350cf7a6", "rental_uris": {"android": "https://dc.lft.to/lastmile_qr_scan", "ios": "https://dc.lft.to/lastmile_qr_scan"}, "name": "d73b2cb35dabf81748fd01a6350cf7a6", "is_reserved": 0}, {"is_disabled": 0, "fusion_lon": 0.0, "fusion_lat": 0.0, "lat": 38.908546333333334, "type": "electric_scooter", "lon": -76.99800366666666, "bike_id": "86f47f5405fe7ca20661f405a45491a2", "rental_uris": {"android": "https://dc.lft.to/lastmile_qr_scan", "ios": "https://dc.lft.to/lastmile_qr_scan"}, "name": "86f47f5405fe7ca20661f405a45491a2", "is_reserved": 0}, {"is_disabled": 0, "fusion_lon": 0.0, "fusion_lat": 0.0, "lat": 38.9163035, "type": "electric_scooter", "lon": -77.03311683333334, "bike_id": "967b0647e5fb7c212207fad893bd1e70", "rental_uris": {"android": "https://dc.lft.to/lastmile_qr_scan", "ios": "https://dc.lft.to/lastmile_qr_scan"}, "name": "967b0647e5fb7c212207fad893bd1e70", "is_reserved": 0}, {"is_disabled": 0, "fusion_lon": 0.0, "fusion_lat": 0.0, "lat": 38.93236316666667, "type": "electric_scooter", "lon": -76.999336, "bike_id": "b7409d52dbe7afcb2e4fd1d1f1fe6d4f", "rental_uris": {"android": "https://dc.lft.to/lastmile_qr_scan", "ios": "https://dc.lft.to/lastmile_qr_scan"}, "name": "b7409d52dbe7afcb2e4fd1d1f1fe6d4f", "is_reserved": 0}, {"is_disabled": 0, "fusion_lon": 0.0, "fusion_lat": 0.0, "lat": 38.912661666666665, "type": "electric_scooter", "lon": -77.03671216666666, "bike_id": "4b81421467737e684a27dddcbe812132", "rental_uris": {"android": "https://dc.lft.to/lastmile_qr_scan", "ios": "https://dc.lft.to/lastmile_qr_scan"}, "name": "4b81421467737e684a27dddcbe812132", "is_reserved": 0}, {"is_disabled": 0, "fusion_lon": 0.0, "fusion_lat": 0.0, "lat": 38.92076466666666, "type": "electric_scooter", "lon": -77.0006395, "bike_id": "4ffa019b6a8a62e8420de257ee152e3e", "rental_uris": {"android": "https://dc.lft.to/lastmile_qr_scan", "ios": "https://dc.lft.to/lastmile_qr_scan"}, "name": "4ffa019b6a8a62e8420de257ee152e3e", "is_reserved": 0}, {"is_disabled": 0, "fusion_lon": 0.0, "fusion_lat": 0.0, "lat": 38.90956166666667, "type": "electric_scooter", "lon": -77.02381383333334, "bike_id": "3c9f491ec028b196c84eda7b3f3f3b9e", "rental_uris": {"android": "https://dc.lft.to/lastmile_qr_scan", "ios": "https://dc.lft.to/lastmile_qr_scan"}, "name": "3c9f491ec028b196c84eda7b3f3f3b9e", "is_reserved": 0}, {"is_disabled": 0, "fusion_lon": 0.0, "fusion_lat": 0.0, "lat": 38.89473516666666, "type": "electric_scooter", "lon": -77.026492, "bike_id": "106f42bc52d84dd3e9e10fe7ba3af08f", "rental_uris": {"android": "https://dc.lft.to/lastmile_qr_scan", "ios": "https://dc.lft.to/lastmile_qr_scan"}, "name": "106f42bc52d84dd3e9e10fe7ba3af08f", "is_reserved": 0}, {"is_disabled": 0, "fusion_lon": 0.0, "fusion_lat": 0.0, "lat": 38.92594233333333, "type": "electric_bike", "lon": -76.889045, "bike_id": "33ba02f1d518d98ea323036905a36499", "rental_uris": {"android": "https://dc.lft.to/lastmile_qr_scan", "ios": "https://dc.lft.to/lastmile_qr_scan"}, "name": "33ba02f1d518d98ea323036905a36499", "is_reserved": 0}, {"is_disabled": 0, "fusion_lon": 0.0, "fusion_lat": 0.0, "lat": 38.89631883333333, "type": "electric_scooter", "lon": -77.00890633333333, "bike_id": "38a25a6145d3e57c839db3533e9fc929", "rental_uris": {"android": "https://dc.lft.to/lastmile_qr_scan", "ios": "https://dc.lft.to/lastmile_qr_scan"}, "name": "38a25a6145d3e57c839db3533e9fc929", "is_reserved": 0}, {"is_disabled": 0, "fusion_lon": 0.0, "fusion_lat": 0.0, "lat": 38.90555283333333, "type": "electric_scooter", "lon": -77.04655533333333, "bike_id": "b55d2b34f4d1d56d2e56b83fe632b6aa", "rental_uris": {"android": "https://dc.lft.to/lastmile_qr_scan", "ios": "https://dc.lft.to/lastmile_qr_scan"}, "name": "b55d2b34f4d1d56d2e56b83fe632b6aa", "is_reserved": 0}, {"is_disabled": 0, "fusion_lon": 0.0, "fusion_lat": 0.0, "lat": 38.976767333333335, "type": "electric_bike", "lon": -76.971721, "bike_id": "9eec50e6fbc8f120488309cebbe85735", "rental_uris": {"android": "https://dc.lft.to/lastmile_qr_scan", "ios": "https://dc.lft.to/lastmile_qr_scan"}, "name": "9eec50e6fbc8f120488309cebbe85735", "is_reserved": 0}, {"is_disabled": 0, "fusion_lon": 0.0, "fusion_lat": 0.0, "lat": 38.95416266666667, "type": "electric_scooter", "lon": -77.02842516666666, "bike_id": "bcb3460939e3f08e68640a89828d5fc3", "rental_uris": {"android": "https://dc.lft.to/lastmile_qr_scan", "ios": "https://dc.lft.to/lastmile_qr_scan"}, "name": "bcb3460939e3f08e68640a89828d5fc3", "is_reserved": 0}, {"is_disabled": 0, "fusion_lon": 0.0, "fusion_lat": 0.0, "lat": 38.91867366666666, "type": "electric_scooter", "lon": -77.04484116666667, "bike_id": "8a8b5d6d4d412d38759a18587e338b61", "rental_uris": {"android": "https://dc.lft.to/lastmile_qr_scan", "ios": "https://dc.lft.to/lastmile_qr_scan"}, "name": "8a8b5d6d4d412d38759a18587e338b61", "is_reserved": 0}, {"is_disabled": 0, "fusion_lon": 0.0, "fusion_lat": 0.0, "lat": 38.89239966666667, "type": "electric_bike", "lon": -76.95225716666667, "bike_id": "9e5e9b51d8c2961c81023cd036d38b4d", "rental_uris": {"android": "https://dc.lft.to/lastmile_qr_scan", "ios": "https://dc.lft.to/lastmile_qr_scan"}, "name": "9e5e9b51d8c2961c81023cd036d38b4d", "is_reserved": 0}, {"is_disabled": 0, "fusion_lon": 0.0, "fusion_lat": 0.0, "lat": 38.91709133333333, "type": "electric_scooter", "lon": -77.01076766666667, "bike_id": "403b05fc1f2a8bfd4dc4741c4a1e4e94", "rental_uris": {"android": "https://dc.lft.to/lastmile_qr_scan", "ios": "https://dc.lft.to/lastmile_qr_scan"}, "name": "403b05fc1f2a8bfd4dc4741c4a1e4e94", "is_reserved": 0}, {"is_disabled": 0, "fusion_lon": 0.0, "fusion_lat": 0.0, "lat": 38.914191833333334, "type": "electric_scooter", "lon": -77.03227133333333, "bike_id": "358d708a9f3ceaf46db0ff8eb19cb485", "rental_uris": {"android": "https://dc.lft.to/lastmile_qr_scan", "ios": "https://dc.lft.to/lastmile_qr_scan"}, "name": "358d708a9f3ceaf46db0ff8eb19cb485", "is_reserved": 0}, {"is_disabled": 0, "fusion_lon": 0.0, "fusion_lat": 0.0, "lat": 38.901258, "type": "electric_scooter", "lon": -77.01196433333334, "bike_id": "d7f3ccc4c21efb144f3c5071357d18c7", "rental_uris": {"android": "https://dc.lft.to/lastmile_qr_scan", "ios": "https://dc.lft.to/lastmile_qr_scan"}, "name": "d7f3ccc4c21efb144f3c5071357d18c7", "is_reserved": 0},