{"data": {"bikes": [{"is_disabled": 0, "lon": -77.04335133333333, "lat": 38.9003855, "name": "30c9e1863197166a620e2d8d452dc534", "fusion_lon": 0.0, "fusion_lat": 0.0, "is_reserved": 0, "type": "electric_scooter", "bike_id": "30c9e1863197166a620e2d8d452dc534", "rental_uris": {"android": "https://dc.lft.to/lastmile_qr_scan", "ios": "https://dc.lft.to/lastmile_qr_scan"}}, {"is_disabled": 0, "lon": -77.03317, "lat": 38.915643, "name": "321337561867f75bf09ca17b49586c44", "fusion_lon": 0.0, "fusion_lat": 0.0, "is_reserved": 0, "type": "electric_scooter", "bike_id": "321337561867f75bf09ca17b49586c44", "rental_uris": {"android": "https://dc.lft.to/lastmile_qr_scan", "ios": "https://dc.lft.to/lastmile_qr_scan"}}, {"is_disabled": 0, "lon": -77.02399216666667, "lat": 38.8972765, "name": "009cc98c8cef7b3b5f8e0eba9349896f", "fusion_lon": 0.0, "fusion_lat": 0.0, "is_reserved": 0, "type": "electric_scooter", "bike_id": "009cc98c8cef7b3b5f8e0eba9349896f", "rental_uris": {"android": "https://dc.lft.to/lastmile_qr_scan", "ios": "https://dc.lft.to/lastmile_qr_scan"}}, {"is_disabled": 0, "lon": -77.01992983333334, "lat": 38.911811666666665, "name": "fb27b9f0bcfbc2ec5ecc1b75798854e6", "fusion_lon": 0.0, "fusion_lat": 0.0, "is_reserved": 0, "type": "electric_scooter", "bike_id": "fb27b9f0bcfbc2ec5ecc1b75798854e6", "rental_uris": {"android": "https://dc.lft.to/lastmile_qr_scan", "ios": "https://dc.lft.to/lastmile_qr_scan"}}, {"is_disabled": 0, "lon": -77.03903966666667, "lat": 38.914203666666666, "name": "5aaab9f201b95592c0851ce4c52b6fef", "fusion_lon": 0.0, "fusion_lat": 0.0, "is_reserved": 0, "type": "electric_scooter", "bike_id": "5aaab9f201b95592c0851ce4c52b6fef", "rental_uris": {"android": "https://dc.lft.to/lastmile_qr_scan", "ios": "https://dc.lft.to/lastmile_qr_scan"}}, {"is_disabled": 0, "lon": -77.07641116666667, "lat": 38.9087025, "name": "9361a1182fec3efccc2ff00e1e31b14f", "fusion_lon": 0.0, "fusion_lat": 0.0, "is_reserved": 0, "type": "electric_scooter", "bike_id": "9361a1182fec3efccc2ff00e1e31b14f", "rental_uris": {"android": "https://dc.lft.to/lastmile_qr_scan", "ios": "https://dc.lft.to/lastmile_qr_scan"}}, {"is_disabled": 0, "lon": -77.05174383333333, "lat": 38.902387833333336, "name": "fec2b6d251148ae71350e8ec279db334", "fusion_lon": 0.0, "fusion_lat": 0.0, "is_reserved": 0, "type": "electric_scooter", "bike_id": "fec2b6d251148ae71350e8ec279db334", "rental_uris": {"android": "https://dc.lft.to/lastmile_qr_scan", "ios": "https://dc.lft.to/lastmile_qr_scan"}}, {"is_disabled": 0, "lon": -77.021107, "lat": 38.894682, "name": "fdaf33ec54c4d527c3b6a6efd8769063", "fusion_lon": 0.0, "fusion_lat": 0.0, "is_reserved": 0, "type": "electric_scooter", "bike_id": "fdaf33ec54c4d527c3b6a6efd8769063", "rental_uris": {"android": "https://dc.lft.to/lastmile_qr_scan", "ios": "https://dc.lft.to/lastmile_qr_scan"}}, {"is_disabled": 0, "lon": -77.02769633333334, "lat": 38.93066316666667, "name": "93c481cd67e1debd12c8baf76e755db1", "fusion_lon": 0.0, "fusion_lat": 0.0, "is_reserved": 0, "type": "electric_scooter", "bike_id": "93c481cd67e1debd12c8baf76e755db1", "rental_uris": {"android": "https://dc.lft.to/lastmile_qr_scan", "ios": "https://dc.lft.to/lastmile_qr_scan"}}, {"is_disabled": 0, "lon": -76.94664133333333, "lat": 38.89868833333333, "name": "ba15371db0f11fa8fb05cb2d979ba5ec", "fusion_lon": 0.0, "fusion_lat": 0.0, "is_reserved": 0, "type": "electric_scooter", "bike_id": "ba15371db0f11fa8fb05cb2d979ba5ec", "rental_uris": {"android": "https://dc.lft.to/lastmile_qr_scan", "ios": "https://dc.lft.to/lastmile_qr_scan"}}, {"is_disabled": 0, "lon": -77.02658733333334, "lat": 38.923803166666666, "name": "391263adc99e53c34fd1d3a1beb8c50d", "fusion_lon": 0.0, "fusion_lat": 0.0, "is_reserved": 0, "type": "electric_scooter", "bike_id": "391263adc99e53c34fd1d3a1beb8c50d", "rental_uris": {"android": "https://dc.lft.to/lastmile_qr_scan", "ios": "https://dc.lft.to/lastmile_qr_scan"}}, {"is_disabled": 0, "lon": -77.03095483333334, "lat": 38.930946, "name": "f49f8ba759572dc9c3bb8f8b2f27d127", "fusion_lon": 0.0, "fusion_lat": 0.0, "is_reserved": 0, "type": "electric_scooter", "bike_id": "f49f8ba759572dc9c3bb8f8b2f27d127", "rental_uris": {"android": "https://dc.lft.to/lastmile_qr_scan", "ios": "https://dc.lft.to/lastmile_qr_scan"}}, {"is_disabled": 0, "lon": -77.01774266666666, "lat": 38.921051, "name": "23d521ab83a14bc23bdc09c28703fb3f", "fusion_lon": 0.0, "fusion_lat": 0.0, "is_reserved": 0, "type": "electric_scooter", "bike_id": "23d521ab83a14bc23bdc09c28703fb3f", "rental_uris": {"android": "https://dc.lft.to/lastmile_qr_scan", "ios": "https://dc.lft.to/lastmile_qr_scan"}}, {"is_disabled": 0, "lon": -77.04420766666667, "lat": 38.8961705, "name": "060e18f6433b0b3c75db3ec35b4be07d", "fusion_lon": 0.0, "fusion_lat": 0.0, "is_reserved": 0, "type": "electric_scooter", "bike_id": "060e18f6433b0b3c75db3ec35b4be07d", "rental_uris": {"android": "https://dc.lft.to/lastmile_qr_scan", "ios": "https://dc.lft.to/lastmile_qr_scan"}}, {"is_disabled": 0, "lon": -76.95058433333334, "lat": 39.08508783333333, "name": "fc14853f96711e519c041ba62b6cbd23", "fusion_lon": 0.0, "fusion_lat": 0.0, "is_reserved": 0, "type": "electric_bike", "bike_id": "fc14853f96711e519c041ba62b6cbd23", "rental_uris": {"android": "https://dc.lft.to/lastmile_qr_scan", "ios": "https://dc.lft.to/lastmile_qr_scan"}}, {"is_disabled": 0, "lon": -77.01880766666666, "lat": 38.917287333333334, "name": "1a5f688df81da49cc3c8bd12a4285c37", "fusion_lon": 0.0, "fusion_lat": 0.0, "is_reserved": 0, "type": "electric_scooter", "bike_id": "1a5f688df81da49cc3c8bd12a4285c37", "rental_uris": {"android": "https://dc.lft.to/lastmile_qr_scan", "ios": "https://dc.lft.to/lastmile_qr_scan"}}, {"is_disabled": 0, "lon": -77.0351805, "lat": 38.93594733333333, "name": "221a670c55adc04fc218a6dc8c790e71", "fusion_lon": 0.0, "fusion_lat": 0.0, "is_reserved": 0, "type": "electric_scooter", "bike_id": "221a670c55adc04fc218a6dc8c790e71", "rental_uris": {"android": "https://dc.lft.to/lastmile_qr_scan", "ios": "https://dc.lft.to/lastmile_qr_scan"}}, {"is_disabled": 0, "lon": -77.0364575, "lat": 38.91271166666667, "name": "47529b9d1fa914e899a580f41e5c2af1", "fusion_lon": 0.0, "fusion_lat": 0.0, "is_reserved": 0, "type": "electric_scooter", "bike_id": "47529b9d1fa914e899a580f41e5c2af1", "rental_uris": {"android": "https://dc.lft.to/lastmile_qr_scan", "ios": "https://dc.lft.to/lastmile_qr_scan"}}, {"is_disabled": 0, "lon": -77.01555966666666, "lat": 38.883221166666665, "name": "1b81d5ea06d3c7421f21e44e4cea0715", "fusion_lon": 0.0, "fusion_lat": 0.0, "is_reserved": 0, "type": "electric_scooter", "bike_id": "1b81d5ea06d3c7421f21e44e4cea0715", "rental_uris": {"android": "https://dc.lft.to/lastmile_qr_scan", "ios": "https://dc.lft.to/lastmile_qr_scan"}}, {"is_disabled": 0, "lon": -77.013145, "lat": 38.89737, "name": "2d603d89e1b04ddcd4026ffc1b01ed7b", "fusion_lon": 0.0, "fusion_lat": 0.0, "is_reserved": 0, "type": "electric_scooter", "bike_id": "2d603d89e1b04ddcd4026ffc1b01ed7b", "rental_uris": {"android": "https://dc.lft.to/lastmile_qr_scan", "ios": "https://dc.lft.to/lastmile_qr_scan"}}, {"is_disabled": 0, "lon": -77.01836833333333, "lat": 38.92140716666667, "name": "ec078e9822356f8501f491bb9a78e759", "fusion_lon": 0.0, "fusion_lat": 0.0, "is_reserved": 0, "type": "electric_scooter", "bike_id": "ec078e9822356f8501f491bb9a78e759", "rental_uris": {"android": "https://dc.lft.to/lastmile_qr_scan", "ios": "https://dc.lft.to/lastmile_qr_scan"}}, {"is_disabled": 0, "lon": -76.986138, "lat": 38.90730333333333, "name": "a1c9d461edfc3fff4fbd3f6863fe4856", "fusion_lon": 0.0, "fusion_lat": 0.0, "is_reserved": 0, "type": "electric_scooter", "bike_id": "a1c9d461edfc3fff4fbd3f6863fe4856", "rental_uris": {"android": "https://dc.lft.to/lastmile_qr_scan", "ios": "https://dc.lft.to/lastmile_qr_scan"}}, {"is_disabled": 0, "lon": -77.0108355, "lat": 38.894938333333336, "name": "9f0d98b1c0cab1c31e080bbdc2060fdb", "fusion_lon": 0.0, "fusion_lat": 0.0, "is_reserved": 0, "type": "electric_scooter", "bike_id": "9f0d98b1c0cab1c31e080bbdc2060fdb", "rental_uris": {"android": "https://dc.lft.to/lastmile_qr_scan", "ios": "https://dc.lft.to/lastmile_qr_scan"}}, {"is_disabled": 0, "lon": -77.00327533333333, "lat": 38.895050833333336, "name": "db5506306f3dc4ca8abe0e6556ca7965", "fusion_lon": 0.0, "fusion_lat": 0.0, "is_reserved": 0, "type": "electric_scooter", "bike_id": "db5506306f3dc4ca8abe0e6556ca7965", "rental_uris": {"android": "https://dc.lft.to/lastmile_qr_scan", "ios": "https://dc.lft.to/lastmile_qr_scan"}}, {"is_disabled": 0, "lon": -77.03345466666667, "lat": 38.93517133333334, "name": "8464daec3151aa87945a637c0ab8cb7e", "fusion_lon": 0.0, "fusion_lat": 0.0, "is_reserved": 0, "type": "electric_scooter", "bike_id": "8464daec3151aa87945a637c0ab8cb7e", "rental_uris": {"android": "https://dc.lft.to/lastmile_qr_scan", "ios": "https://dc.lft.to/lastmile_qr_scan"}}, {"is_disabled": 0, "lon": -77.0347855, "lat": 38.924779666666666, "name": "dde34fed5acecf5f1f159796150bb6cb", "fusion_lon": 0.0, "fusion_lat": 0.0, "is_reserved": 0, "type": "electric_scooter", "bike_id": "dde34fed5acecf5f1f159796150bb6cb", "rental_uris": {"android": "https://dc.lft.to/lastmile_qr_scan", "ios": "https://dc.lft.to/lastmile_qr_scan"}}, {"is_disabled": 0, "lon": -77.02073883333334, "lat": 38.930255333333335, "name": "585805d11cfcc4197e7a2ff2fedf9b2d", "fusion_lon": 0.0, "fusion_lat": 0.0, "is_reserved": 0, "type": "electric_scooter", "bike_id": "585805d11cfcc4197e7a2ff2fedf9b2d", "rental_uris": {"android": "https://dc.lft.to/lastmile_qr_scan", "ios": "https://dc.lft.to/lastmile_qr_scan"}}, {"is_disabled": 0, "lon": -77.01384533333334, "lat": 38.876039666666664, "name": "f7571d2edd9004021dd3da74e522cf11", "fusion_lon": 0.0, "fusion_lat": 0.0, "is_reserved": 0, "type": "electric_scooter", "bike_id": "f7571d2edd9004021dd3da74e522cf11", "rental_uris": {"android": "https://dc.lft.to/lastmile_qr_scan", "ios": "https://dc.lft.to/lastmile_qr_scan"}}, {"is_disabled": 0, "lon": -77.020928, "lat": 38.92152266666667, "name": "f83dcd22456bed426efd77f0ec30e15d", "fusion_lon": 0.0, "fusion_lat": 0.0, "is_reserved": 0, "type": "electric_scooter", "bike_id": "f83dcd22456bed426efd77f0ec30e15d", "rental_uris": {"android": "https://dc.lft.to/lastmile_qr_scan", "ios": "https://dc.lft.to/lastmile_qr_scan"}}, {"is_disabled": 0, "lon": -77.04228583333334, "lat": 38.911122166666665, "name": "417ff14362c1352b974fbf650a1e4d71", "fusion_lon": 0.0, "fusion_lat": 0.0, "is_reserved": 0, "type": "electric_scooter", "bike_id": "417ff14362c1352b974fbf650a1e4d71", "rental_uris": {"android": "https://dc.lft.to/lastmile_qr_scan", "ios": "https://dc.lft.to/lastmile_qr_scan"}}, {"is_disabled": 0, "lon": -77.002818, "lat": 38.83836866666667, "name": "e88cf3edc5903efdfdb8d73943deed68", "fusion_lon": 0.0, "fusion_lat": 0.0, "is_reserved": 0, "type": "electric_bike", "bike_id": "e88cf3edc5903efdfdb8d73943deed68", "rental_uris": {"android": "https://dc.lft.to/lastmile_qr_scan", "ios": "https://dc.lft.to/lastmile_qr_scan"}}, {"is_disabled": 0, "lon": -77.0372465, "lat": 38.920289333333336, "name": "87e59c2eab2844329134faee5319fff3", "fusion_lon": 0.0, "fusion_lat": 0.0, "is_reserved": 0, "type": "electric_scooter", "bike_id": "87e59c2eab2844329134faee5319fff3", "rental_uris": {"android": "https://dc.lft.to/lastmile_qr_scan", "ios": "https://dc.lft.to/lastmile_qr_scan"}}, {"is_disabled": 0, "lon": -76.98696533333333, "lat": 38.900140666666665, "name": "865365213d20583448937615c619ab4e", "fusion_lon": 0.0, "fusion_lat": 0.0, "is_reserved": 0, "type": "electric_scooter", "bike_id": "865365213d20583448937615c619ab4e", "rental_uris": {"android": "https://dc.lft.to/lastmile_qr_scan", "ios": "https://dc.lft.to/lastmile_qr_scan"}}, {"is_disabled": 0, "lon": -77.00043233333334, "lat": 38.88124, "name": "edf7c6dab4816cf26761edadaa774ecb", "fusion_lon": 0.0, "fusion_lat": 0.0, "is_reserved": 0, "type": "electric_scooter", "bike_id": "edf7c6dab4816cf26761edadaa774ecb", "rental_uris": {"android": "https://dc.lft.to/lastmile_qr_scan", "ios": "https://dc.lft.to/lastmile_qr_scan"}}, {"is_disabled": 0, "lon": -77.03471316666666, "lat": 38.9215045, "name": "5e73949bdf640cd97aab9ca415383146", "fusion_lon": 0.0, "fusion_lat": 0.0, "is_reserved": 0, "type": "electric_scooter", "bike_id": "5e73949bdf640cd97aab9ca415383146", "rental_uris": {"android": "https://dc.lft.to/lastmile_qr_scan", "ios": "https://dc.lft.to/lastmile_qr_scan"}}, {"is_disabled": 0, "lon": -77.021864, "lat": 38.91054533333333, "name": "eccec083fc08b991b8ee983bdae867c8", "fusion_lon": 0.0, "fusion_lat": 0.0, "is_reserved": 0, "type": "electric_scooter", "bike_id": "eccec083fc08b991b8ee983bdae867c8", "rental_uris": {"android": "https://dc.lft.to/lastmile_qr_scan", "ios": "https://dc.lft.to/lastmile_qr_scan"}}, {"is_disabled": 0, "lon": -77.02839516666667, "lat": 38.8993745, "name": "ac8f3699faa183fbe5ced3c31d1bdf2e", "fusion_lon": 0.0, "fusion_lat": 0.0, "is_reserved": 0, "type": "electric_scooter", "bike_id": "ac8f3699faa183fbe5ced3c31d1bdf2e", "rental_uris": {"android": "https://dc.lft.to/lastmile_qr_scan", "ios": "https://dc.lft.to/lastmile_qr_scan"}}, {"is_disabled": 0, "lon": -77.00377833333333, "lat": 38.8360795, "name": "cdf5b85659eb4f467a712e5eaa87097b", "fusion_lon": 0.0, "fusion_lat": 0.0, "is_reserved": 0, "type": "electric_bike", "bike_id": "cdf5b85659eb4f467a712e5eaa87097b", "rental_uris": {"android": "https://dc.lft.to/lastmile_qr_scan", "ios": "https://dc.lft.to/lastmile_qr_scan"}}, {"is_disabled": 0, "lon": -77.0500095, "lat": 38.90143166666667, "name": "1dfbf2c5f6b0bfb60255ed02d5402d8b", "fusion_lon": 0.0, "fusion_lat": 0.0, "is_reserved": 0, "type": "electric_scooter", "bike_id": "1dfbf2c5f6b0bfb60255ed02d5402d8b", "rental_uris": {"android": "https://dc.lft.to/lastmile_qr_scan", "ios": "https://dc.lft.to/lastmile_qr_scan"}}, {"is_disabled": 0, "lon": -77.11007, "lat": 38.87709433333333, "name": "d69108835bcda968475abe14fd4e42a1", "fusion_lon": 0.0, "fusion_lat": 0.0, "is_reserved": 0, "type": "electric_scooter", "bike_id": "d69108835bcda968475abe14fd4e42a1", "rental_uris": {"android": "https://dc.lft.to/lastmile_qr_scan", "ios": "https://dc.lft.to/lastmile_qr_scan"}}, {"is_disabled": 0, "lon": -76.963168, "lat": 38.938967, "name": "9ba77ded91819e735c20c2aef3d1c2f1", "fusion_lon": 0.0, "fusion_lat": 0.0, "is_reserved": 0, "type": "electric_bike", "bike_id": "9ba77ded91819e735c20c2aef3d1c2f1", "rental_uris": {"android": "https://dc.lft.to/lastmile_qr_scan", "ios": "https://dc.lft.to/lastmile_qr_scan"}}, {"is_disabled": 0, "lon": -77.01854183333333, "lat": 38.9492125, "name": "f4a93828c07abc0612bfd2bbb5a82ab9", "fusion_lon": 0.0, "fusion_lat": 0.0, "is_reserved": 0, "type": "electric_scooter", "bike_id": "f4a93828c07abc0612bfd2bbb5a82ab9", "rental_uris": {"android": "https://dc.lft.to/lastmile_qr_scan", "ios": "https://dc.lft.to/lastmile_qr_scan"}}, {"is_disabled": 0, "lon": -77.02817716666667, "lat": 38.90466166666667, "name": "93e4af4ad10fc12b8e2bb416a917a4bb", "fusion_lon": 0.0, "fusion_lat": 0.0, "is_reserved": 0, "type": "electric_scooter", "bike_id": "93e4af4ad10fc12b8e2bb416a917a4bb", "rental_uris": {"android": "https://dc.lft.to/lastmile_qr_scan", "ios": "https://dc.lft.to/lastmile_qr_scan"}}, {"is_disabled": 0, "lon": -77.01546083333334, "lat": 38.92792166666667, "name": "ee9e72577de9f33ee59416aefd575749", "fusion_lon": 0.0, "fusion_lat": 0.0, "is_reserved": 0, "type": "electric_scooter", "bike_id": "ee9e72577de9f33ee59416aefd575749", "rental_uris": {"android": "https://dc.lft.to/lastmile_qr_scan", "ios": "https://dc.lft.to/lastmile_qr_scan"}}, {"is_disabled": 0, "lon": -77.02899683333334, "lat": 38.9172395, "name": "f6b1f4b6a1155bf191eb1ad08b7d3adf", "fusion_lon": 0.0, "fusion_lat": 0.0, "is_reserved": 0, "type": "electric_scooter", "bike_id": "f6b1f4b6a1155bf191eb1ad08b7d3adf", "rental_uris": {"android": "https://dc.lft.to/lastmile_qr_scan", "ios": "https://dc.lft.to/lastmile_qr_scan"}}, {"is_disabled": 0, "lon": -77.09951916666667, "lat": 38.857893, "name": "3d7557d37239f23f007a14f28f186325", "fusion_lon": 0.0, "fusion_lat": 0.0, "is_reserved": 0, "type": "electric_bike", "bike_id": "3d7557d37239f23f007a14f28f186325", "rental_uris": {"android": "https://dc.lft.to/lastmile_qr_scan", "ios": "https://dc.lft.to/lastmile_qr_scan"}}, {"is_disabled": 0, "lon": -77.020254, "lat": 38.92468483333333, "name": "e04aafff571709d1ea1912ca6c2332c2", "fusion_lon": 0.0, "fusion_lat": 0.0, "is_reserved": 0, "type": "electric_scooter", "bike_id": "e04aafff571709d1ea1912ca6c2332c2", "rental_uris": {"android": "https://dc.lft.to/lastmile_qr_scan", "ios": "https://dc.lft.to/lastmile_qr_scan"}}, {"is_disabled": 0, "lon": -77.0227565, "lat": 38.926876, "name": "4a16c66e18ecd986337e009604b1ab7d", "fusion_lon": 0.0, "fusion_lat": 0.0, "is_reserved": 0, "type": "electric_scooter", "bike_id": "4a16c66e18ecd986337e009604b1ab7d", "rental_uris": {"android": "https://dc.lft.to/lastmile_qr_scan", "ios": "https://dc.lft.to/lastmile_qr_scan"}}, {"is_disabled": 0, "lon": -77.03421933333334, "lat": 38.9025995, "name": "5dc6dae051947f41d115669d07719128", "fusion_lon": 0.0, "fusion_lat": 0.0, "is_reserved": 0, "type": "electric_scooter", "bike_id": "5dc6dae051947f41d115669d07719128", "rental_uris": {"android": "https://dc.lft.to/lastmile_qr_scan", "ios": "https://dc.lft.to/lastmile_qr_scan"}}, {"is_disabled": 0, "lon": -77.03377383333333, "lat": 38.9003065, "name": "8a077641d12d01d5d3f7c98cb26ae950", "fusion_lon": 0.0, "fusion_lat": 0.0, "is_reserved": 0, "type": "electric_scooter", "bike_id": "8a077641d12d01d5d3f7c98cb26ae950", "rental_uris": {"android": "https://dc.lft.to/lastmile_qr_scan", "ios": "https://dc.lft.to/lastmile_qr_scan"}}, {"is_disabled": 0, "lon": -77.035644, "lat": 38.92474716666667, "name": "31181adc022f311bff9a14c41b029169", "fusion_lon": 0.0, "fusion_lat": 0.0, "is_reserved": 0, "type": "electric_scooter", "bike_id": "31181adc022f311bff9a14c41b029169", "rental_uris": {"android": "https://dc.lft.to/lastmile_qr_scan", "ios": "https://dc.lft.to/lastmile_qr_scan"}}, {"is_disabled": 0, "lon": -77.03903833333334, "lat": 38.9065915, "name": "605c777e7af78c5339c5f6d9434e5dd4", "fusion_lon": 0.0, "fusion_lat": 0.0, "is_reserved": 0, "type": "electric_scooter", "bike_id": "605c777e7af78c5339c5f6d9434e5dd4", "rental_uris": {"android": "https://dc.lft.to/lastmile_qr_scan", "ios": "https://dc.lft.to/lastmile_qr_scan"}}, {"is_disabled": 0, "lon": -76.98698233333333, "lat": 38.888386833333335, "name": "55718ad342db5a5df553e76da5156f44", "fusion_lon": 0.0, "fusion_lat": 0.0, "is_reserved": 0, "type": "electric_scooter", "bike_id": "55718ad342db5a5df553e76da5156f44", "rental_uris": {"android": "https://dc.lft.to/lastmile_qr_scan", "ios": "https://dc.lft.to/lastmile_qr_scan"}}, {"is_disabled": 0, "lon": -76.9609005, "lat": 38.9187185, "name": "9654cad1abf4eab5461d703c6251d80a", "fusion_lon": 0.0, "fusion_lat": 0.0, "is_reserved": 0, "type": "electric_bike", "bike_id": "9654cad1abf4eab5461d703c6251d80a", "rental_uris": {"android": "https://dc.lft.to/lastmile_qr_scan", "ios": "https://dc.lft.to/lastmile_qr_scan"}}, {"is_disabled": 0, "lon": -77.077492, "lat": 38.8419425, "name": "35b067ffce8ab7077145ed000d2c5e08", "fusion_lon": 0.0, "fusion_lat": 0.0, "is_reserved": 0, "type": "electric_bike", "bike_id": "35b067ffce8ab7077145ed000d2c5e08", "rental_uris": {"android": "https://dc.lft.to/lastmile_qr_scan", "ios": "https://dc.lft.to/lastmile_qr_scan"}}, {"is_disabled": 0, "lon": -77.04680866666666, "lat": 38.903959666666665, "name": "010d277ccbf58da02195fa992ce7f0d0", "fusion_lon": 0.0, "fusion_lat": 0.0, "is_reserved": 0, "type": "electric_scooter", "bike_id": "010d277ccbf58da02195fa992ce7f0d0", "rental_uris": {"android": "https://dc.lft.to/lastmile_qr_scan", "ios": "https://dc.lft.to/lastmile_qr_scan"}}, {"is_disabled": 0, "lon": -77.0344, "lat": 38.917990833333334, "name": "c4bd6ac300d83f2d2302499445d35647", "fusion_lon": 0.0, "fusion_lat": 0.0, "is_reserved": 0, "type": "electric_scooter", "bike_id": "c4bd6ac300d83f2d2302499445d35647", "rental_uris": {"android": "https://dc.lft.to/lastmile_qr_scan", "ios": "https://dc.lft.to/lastmile_qr_scan"}}, {"is_disabled": 0, "lon": -76.9651815, "lat": 38.876301, "name": "0648c7c87eb099242a4c58643c915d50", "fusion_lon": 0.0, "fusion_lat": 0.0, "is_reserved": 0, "type": "electric_scooter", "bike_id": "0648c7c87eb099242a4c58643c915d50", "rental_uris": {"android": "https://dc.lft.to/lastmile_qr_scan", "ios": "https://dc.lft.to/lastmile_qr_scan"}}, {"is_disabled": 0, "lon": -77.04190683333333, "lat": 38.920566666666666, "name": "c6e9de30b8fa15ca8877131c6ccd61c6", "fusion_lon": 0.0, "fusion_lat": 0.0, "is_reserved": 0, "type": "electric_scooter", "bike_id": "c6e9de30b8fa15ca8877131c6ccd61c6", "rental_uris": {"android": "https://dc.lft.to/lastmile_qr_scan", "ios": "https://dc.lft.to/lastmile_qr_scan"}}, {"is_disabled": 0, "lon": -77.0345645, "lat": 38.9025915, "name": "767d7ea5c93d67a71312396140a577ee", "fusion_lon": 0.0, "fusion_lat": 0.0, "is_reserved": 0, "type": "electric_scooter", "bike_id": "767d7ea5c93d67a71312396140a577ee", "rental_uris": {"android": "https://dc.lft.to/lastmile_qr_scan", "ios": "https://dc.lft.to/lastmile_qr_scan"}}, {"is_disabled": 0, "lon": -77.01803266666667, "lat": 38.91968983333334, "name": "2590fd651df3005a850f870287d45af8", "fusion_lon": 0.0, "fusion_lat": 0.0, "is_reserved": 0, "type": "electric_scooter", "bike_id": "2590fd651df3005a850f870287d45af8", "rental_uris": {"android": "https://dc.lft.to/lastmile_qr_scan", "ios": "https://dc.lft.to/lastmile_qr_scan"}}, {"is_disabled": 0, "lon": -77.01720066666667, "lat": 38.9044935, "name": "c4bb8a032c4e050d0396d5e17d37a114", "fusion_lon": 0.0, "fusion_lat": 0.0, "is_reserved": 0, "type": "electric_scooter", "bike_id": "c4bb8a032c4e050d0396d5e17d37a114", "rental_uris": {"android": "https://dc.lft.to/lastmile_qr_scan", "ios": "https://dc.lft.to/lastmile_qr_scan"}}, {"is_disabled": 0, "lon": -77.025578, "lat": 38.95394066666667, "name": "baf732bf6737d8203815994a58cd0a7d", "fusion_lon": 0.0, "fusion_lat": 0.0, "is_reserved": 0, "type": "electric_scooter", "bike_id": "baf732bf6737d8203815994a58cd0a7d", "rental_uris": {"android": "https://dc.lft.to/lastmile_qr_scan", "ios": "https://dc.lft.to/lastmile_qr_scan"}}, {"is_disabled": 0, "lon": -76.97308016666666, "lat": 38.9175815, "name": "0e8bbfcea43ae6788db30e15cc5e7f67", "fusion_lon": 0.0, "fusion_lat": 0.0, "is_reserved": 0, "type": "electric_bike", "bike_id": "0e8bbfcea43ae6788db30e15cc5e7f67", "rental_uris": {"android": "https://dc.lft.to/lastmile_qr_scan", "ios": "https://dc.lft.to/lastmile_qr_scan"}}, {"is_disabled": 0, "lon": -76.92942633333334, "lat": 38.903477333333335, "name": "4e8843dd9d251a242e7e4058d408e242", "fusion_lon": 0.0, "fusion_lat": 0.0, "is_reserved": 0, "type": "electric_scooter", "bike_id": "4e8843dd9d251a242e7e4058d408e242", "rental_uris": {"android": "https://dc.lft.to/lastmile_qr_scan", "ios": "https://dc.lft.to/lastmile_qr_scan"}}, {"is_disabled": 0, "lon": -77.017634, "lat": 38.921137, "name": "4e4ce8cc342d60c536f77e6cf92c3b4e", "fusion_lon": 0.0, "fusion_lat": 0.0, "is_reserved": 0, "type": "electric_scooter", "bike_id": "4e4ce8cc342d60c536f77e6cf92c3b4e", "rental_uris": {"android": "https://dc.lft.to/lastmile_qr_scan", "ios": "https://dc.lft.to/lastmile_qr_scan"}}, {"is_disabled": 0, "lon": -77.033121, "lat": 38.919069, "name": "cb1493ae6b7e5c105fe2fd61e338035b", "fusion_lon": 0.0, "fusion_lat": 0.0, "is_reserved": 0, "type": "electric_scooter", "bike_id": "cb1493ae6b7e5c105fe2fd61e338035b", "rental_uris": {"android": "https://dc.lft.to/lastmile_qr_scan", "ios": "https://dc.lft.to/lastmile_qr_scan"}}, {"is_disabled": 0, "lon": -77.01780816666667, "lat": 38.9197365, "name": "a410f4666c2ae80ece2682819df6ac68", "fusion_lon": 0.0, "fusion_lat": 0.0, "is_reserved": 0, "type": "electric_scooter", "bike_id": "a410f4666c2ae80ece2682819df6ac68", "rental_uris": {"android": "https://dc.lft.to/lastmile_qr_scan", "ios": "https://dc.lft.to/lastmile_qr_scan"}}, {"is_disabled": 0, "lon": -77.07347983333334, "lat": 38.91101366666667, "name": "807945d86ac9e7bffbaef87e3df7a333", "fusion_lon": 0.0, "fusion_lat": 0.0, "is_reserved": 0, "type": "electric_bike", "bike_id": "807945d86ac9e7bffbaef87e3df7a333", "rental_uris": {"android": "https://dc.lft.to/lastmile_qr_scan", "ios": "https://dc.lft.to/lastmile_qr_scan"}}, {"is_disabled": 0, "lon": -77.0434805, "lat": 38.907151166666665, "name": "c2571ebc51897d34370d356a536e1f76", "fusion_lon": 0.0, "fusion_lat": 0.0, "is_reserved": 0, "type": "electric_scooter", "bike_id": "c2571ebc51897d34370d356a536e1f76", "rental_uris": {"android": "https://dc.lft.to/lastmile_qr_scan", "ios": "https://dc.lft.to/lastmile_qr_scan"}}, {"is_disabled": 0, "lon": -77.02995483333333, "lat": 38.901367, "name": "358a63aa88dd3187d6865700ad89cf8d", "fusion_lon": 0.0, "fusion_lat": 0.0, "is_reserved": 0, "type": "electric_scooter", "bike_id": "358a63aa88dd3187d6865700ad89cf8d", "rental_uris": {"android": "https://dc.lft.to/lastmile_qr_scan", "ios": "https://dc.lft.to/lastmile_qr_scan"}}, {"is_disabled": 0, "lon": -77.02198133333333, "lat": 38.89493066666667, "name": "038aed4b7cbe555bc3e296a0a5f98e35", "fusion_lon": 0.0, "fusion_lat": 0.0, "is_reserved": 0, "type": "electric_scooter", "bike_id": "038aed4b7cbe555bc3e296a0a5f98e35", "rental_uris": {"android": "https://dc.lft.to/lastmile_qr_scan", "ios": "https://dc.lft.to/lastmile_qr_scan"}}, {"is_disabled": 0, "lon": -76.99595316666667, "lat": 38.88430366666667, "name": "138563d3c5ef9117f9ff15326cc130d0", "fusion_lon": 0.0, "fusion_lat": 0.0, "is_reserved": 0, "type": "electric_scooter", "bike_id": "138563d3c5ef9117f9ff15326cc130d0", "rental_uris": {"android": "https://dc.lft.to/lastmile_qr_scan", "ios": "https://dc.lft.to/lastmile_qr_scan"}}, {"is_disabled": 0, "lon": -76.95448116666667, "lat": 38.88390316666667, "name": "28add1d86c6d0b18122be3be7056330e", "fusion_lon": 0.0, "fusion_lat": 0.0, "is_reserved": 0, "type": "electric_scooter", "bike_id": "28add1d86c6d0b18122be3be7056330e", "rental_uris": {"android": "https://dc.lft.to/lastmile_qr_scan", "ios": "https://dc.lft.to/lastmile_qr_scan"}}, {"is_disabled": 0, "lon": -77.04241083333334, "lat": 38.90735733333333, "name": "b41736c8ce816a3f0bf6b0e8a5b5c4f8", "fusion_lon": 0.0, "fusion_lat": 0.0, "is_reserved": 0, "type": "electric_scooter", "bike_id": "b41736c8ce816a3f0bf6b0e8a5b5c4f8", "rental_uris": {"android": "https://dc.lft.to/lastmile_qr_scan", "ios": "https://dc.lft.to/lastmile_qr_scan"}}, {"is_disabled": 0, "lon": -77.021989, "lat": 38.905470666666666, "name": "3e276e2ccd7d42d213af8be8555e3a64", "fusion_lon": 0.0, "fusion_lat": 0.0, "is_reserved": 0, "type": "electric_scooter", "bike_id": "3e276e2ccd7d42d213af8be8555e3a64", "rental_uris": {"android": "https://dc.lft.to/lastmile_qr_scan", "ios": "https://dc.lft.to/lastmile_qr_scan"}}, {"is_disabled": 0, "lon": -77.009607, "lat": 38.917019, "name": "0c6187663f0b527ff6fdceeb7f16b897", "fusion_lon": 0.0, "fusion_lat": 0.0, "is_reserved": 0, "type": "electric_scooter", "bike_id": "0c6187663f0b527ff6fdceeb7f16b897", "rental_uris": {"android": "https://dc.lft.to/lastmile_qr_scan", "ios": "https://dc.lft.to/lastmile_qr_scan"}}, {"is_disabled": 0, "lon": -76.9870475, "lat": 38.859644833333334, "name": "b16364dd51a58044e4e1c805525d86da", "fusion_lon": 0.0, "fusion_lat": 0.0, "is_reserved": 0, "type": "electric_scooter", "bike_id": "b16364dd51a58044e4e1c805525d86da", "rental_uris": {"android": "https://dc.lft.to/lastmile_qr_scan", "ios": "https://dc.lft.to/lastmile_qr_scan"}}, {"is_disabled": 0, "lon": -77.05807166666666, "lat": 38.904982333333336, "name": "cd208d1c25259dfe45ab8afa1b2e745c", "fusion_lon": 0.0, "fusion_lat": 0.0, "is_reserved": 0, "type": "electric_scooter", "bike_id": "cd208d1c25259dfe45ab8afa1b2e745c", "rental_uris": {"android": "https://dc.lft.to/lastmile_qr_scan", "ios": "https://dc.lft.to/lastmile_qr_scan"}}, {"is_disabled": 0, "lon": -77.04000433333333, "lat": 38.8993705, "name": "c8bf935c66f24303edc1c6a745a6b9fb", "fusion_lon": 0.0, "fusion_lat": 0.0, "is_reserved": 0, "type": "electric_scooter", "bike_id": "c8bf935c66f24303edc1c6a745a6b9fb", "rental_uris": {"android": "https://dc.lft.to/lastmile_qr_scan", "ios": "https://dc.lft.to/lastmile_qr_scan"}}, {"is_disabled": 0, "lon": -77.02397933333333, "lat": 38.89625516666667, "name": "eef7481fddd21dec8825b26e1d6ea5ee", "fusion_lon": 0.0, "fusion_lat": 0.0, "is_reserved": 0, "type": "electric_scooter", "bike_id": "eef7481fddd21dec8825b26e1d6ea5ee", "rental_uris": {"android": "https://dc.lft.to/lastmile_qr_scan", "ios": "https://dc.lft.to/lastmile_qr_scan"}}, {"is_disabled": 0, "lon": -77.03848716666667, "lat": 38.9131965, "name": "ba555d4c12ce005781a46f03aeba6d2d", "fusion_lon": 0.0, "fusion_lat": 0.0, "is_reserved": 0, "type": "electric_scooter", "bike_id": "ba555d4c12ce005781a46f03aeba6d2d", "rental_uris": {"android": "https://dc.lft.to/lastmile_qr_scan", "ios": "https://dc.lft.to/lastmile_qr_scan"}}, {"is_disabled": 0, "lon": -76.9734725, "lat": 38.85004633333333, "name": "2e7186e7108fd1d4a05313e70e24045c", "fusion_lon": 0.0, "fusion_lat": 0.0, "is_reserved": 0, "type": "electric_scooter", "bike_id": "2e7186e7108fd1d4a05313e70e24045c", "rental_uris": {"android": "https://dc.lft.to/lastmile_qr_scan", "ios": "https://dc.lft.to/lastmile_qr_scan"}}, {"is_disabled": 0, "lon": -77.04621833333333, "lat": 38.902876166666665, "name": "614932ca95f53a738bea9e2fac2a1087", "fusion_lon": 0.0, "fusion_lat": 0.0, "is_reserved": 0, "type": "electric_scooter", "bike_id": "614932ca95f53a738bea9e2fac2a1087", "rental_uris": {"android": "https://dc.lft.to/lastmile_qr_scan", "ios": "https://dc.lft.to/lastmile_qr_scan"}}, {"is_disabled": 0, "lon": -77.01468016666666, "lat": 38.926753, "name": "b194fdd4c06d1b1b4d2322ce4401bb70", "fusion_lon": 0.0, "fusion_lat": 0.0, "is_reserved": 0, "type": "electric_scooter", "bike_id": "b194fdd4c06d1b1b4d2322ce4401bb70", "rental_uris": {"android": "https://dc.lft.to/lastmile_qr_scan", "ios": "https://dc.lft.to/lastmile_qr_scan"}}, {"is_disabled": 0, "lon": -77.03180583333334, "lat": 38.918177666666665, "name": "417d1285b01821339032a4da7e13c587", "fusion_lon": 0.0, "fusion_lat": 0.0, "is_reserved": 0, "type": "electric_scooter", "bike_id": "417d1285b01821339032a4da7e13c587", "rental_uris": {"android": "https://dc.lft.to/lastmile_qr_scan", "ios": "https://dc.lft.to/lastmile_qr_scan"}}, {"is_disabled": 0, "lon": -77.038368, "lat": 38.915647166666666, "name": "ec520dd7eede9cbed24b9ba07a14be4a", "fusion_lon": 0.0, "fusion_lat": 0.0, "is_reserved": 0, "type": "electric_scooter", "bike_id": "ec520dd7eede9cbed24b9ba07a14be4a", "rental_uris": {"android": "https://dc.lft.to/lastmile_qr_scan", "ios": "https://dc.lft.to/lastmile_qr_scan"}}, {"is_disabled": 0, "lon": -77.02469016666667, "lat": 38.901738, "name": "bede3111caf5b32580c36cec71a9cf89", "fusion_lon": 0.0, "fusion_lat": 0.0, "is_reserved": 0, "type": "electric_scooter", "bike_id": "bede3111caf5b32580c36cec71a9cf89", "rental_uris": {"android": "https://dc.lft.to/lastmile_qr_scan", "ios": "https://dc.lft.to/lastmile_qr_scan"}}, {"is_disabled": 0, "lon": -77.03258933333333, "lat": 38.93974133333333, "name": "8336bc3b3fb8ec48bc070b5ea347cf27", "fusion_lon": 0.0, "fusion_lat": 0.0, "is_reserved": 0, "type": "electric_scooter", "bike_id": "8336bc3b3fb8ec48bc070b5ea347cf27", "rental_uris": {"android": "https://dc.lft.to/lastmile_qr_scan", "ios": "https://dc.lft.to/lastmile_qr_scan"}}, {"is_disabled": 0, "lon": -77.036172, "lat": 38.93678516666667, "name": "705e6dbe5af11700bb089f3eed0cc0fd", "fusion_lon": 0.0, "fusion_lat": 0.0, "is_reserved": 0, "type": "electric_scooter", "bike_id": "705e6dbe5af11700bb089f3eed0cc0fd", "rental_uris": {"android": "https://dc.lft.to/lastmile_qr_scan", "ios": "https://dc.lft.to/lastmile_qr_scan"}}, {"is_disabled": 0, "lon": -77.01950183333334, "lat": 38.92261466666667, "name": "5448a8fc021275b6ead21ec431ae64ef", "fusion_lon": 0.0, "fusion_lat": 0.0, "is_reserved": 0, "type": "electric_scooter", "bike_id": "5448a8fc021275b6ead21ec431ae64ef", "rental_uris": {"android": "https://dc.lft.to/lastmile_qr_scan", "ios": "https://dc.lft.to/lastmile_qr_scan"}}, {"is_disabled": 0, "lon": -77.019473, "lat": 38.924148833333334, "name": "d002f2d86639101992f36cc0d2ca8b13", "fusion_lon": 0.0, "fusion_lat": 0.0, "is_reserved": 0, "type": "electric_scooter", "bike_id": "d002f2d86639101992f36cc0d2ca8b13", "rental_uris": {"android": "https://dc.lft.to/lastmile_qr_scan", "ios": "https://dc.lft.to/lastmile_qr_scan"}}, {"is_disabled": 0, "lon": -77.01885133333333, "lat": 38.89750733333333, "name": "bc17b1dec6c3f0e462dcee25fe3cf8e4", "fusion_lon": 0.0, "fusion_lat": 0.0, "is_reserved": 0, "type": "electric_scooter", "bike_id": "bc17b1dec6c3f0e462dcee25fe3cf8e4", "rental_uris": {"android": "https://dc.lft.to/lastmile_qr_scan", "ios": "https://dc.lft.to/lastmile_qr_scan"}}, {"is_disabled": 0, "lon": -77.030827, "lat": 38.9238225, "name": "22024805d22d8c9c5c67b8fa042f2b71", "fusion_lon": 0.0, "fusion_lat": 0.0, "is_reserved": 0, "type": "electric_scooter", "bike_id": "22024805d22d8c9c5c67b8fa042f2b71", "rental_uris": {"android": "https://dc.lft.to/lastmile_qr_scan", "ios": "https://dc.lft.to/lastmile_qr_scan"}}, {"is_disabled": 0, "lon": -77.04339666666667, "lat": 38.910941333333334, "name": "6a8c1a2a8775ba19e0f38006e47d7e30", "fusion_lon": 0.0, "fusion_lat": 0.0, "is_reserved": 0, "type": "electric_scooter", "bike_id": "6a8c1a2a8775ba19e0f38006e47d7e30", "rental_uris": {"android": "https://dc.lft.to/lastmile_qr_scan", "ios": "https://dc.lft.to/lastmile_qr_scan"}}, {"is_disabled": 0, "lon": -77.02708516666667, "lat": 38.9165365, "name": "a4021e893e399bd543a31aef90664d69", "fusion_lon": 0.0, "fusion_lat": 0.0, "is_reserved": 0, "type": "electric_scooter", "bike_id": "a4021e893e399bd543a31aef90664d69", "rental_uris": {"android": "https://dc.lft.to/lastmile_qr_scan", "ios": "https://dc.lft.to/lastmile_qr_scan"}}, {"is_disabled": 0, "lon": -77.03266416666666, "lat": 38.9297505, "name": "4cc97e45fc36085759cec77e0c3d0f10", "fusion_lon": 0.0, "fusion_lat": 0.0, "is_reserved": 0, "type": "electric_scooter", "bike_id": "4cc97e45fc36085759cec77e0c3d0f10", "rental_uris": {"android": "https://dc.lft.to/lastmile_qr_scan", "ios": "https://dc.lft.to/lastmile_qr_scan"}}, {"is_disabled": 0, "lon": -77.03273433333334, "lat": 38.93155183333333, "name": "4bdc18a79b687d0e469e022f487e4fc6", "fusion_lon": 0.0, "fusion_lat": 0.0, "is_reserved": 0, "type": "electric_scooter", "bike_id": "4bdc18a79b687d0e469e022f487e4fc6", "rental_uris": {"android": "https://dc.lft.to/lastmile_qr_scan", "ios": "https://dc.lft.to/lastmile_qr_scan"}}, {"is_disabled": 0, "lon": -77.0194305, "lat": 38.923311, "name": "1d5366573b1d2282f888f8cebeeb3f24", "fusion_lon": 0.0, "fusion_lat": 0.0, "is_reserved": 0, "type": "electric_scooter", "bike_id": "1d5366573b1d2282f888f8cebeeb3f24", "rental_uris": {"android": "https://dc.lft.to/lastmile_qr_scan", "ios": "https://dc.lft.to/lastmile_qr_scan"}}, {"is_disabled": 0, "lon": -77.01690966666666, "lat": 38.92042766666667, "name": "ea49e08c98af2a5c9921dff2c0c9bc99", "fusion_lon": 0.0, "fusion_lat": 0.0, "is_reserved": 0, "type": "electric_scooter", "bike_id": "ea49e08c98af2a5c9921dff2c0c9bc99", "rental_uris": {"android": "https://dc.lft.to/lastmile_qr_scan", "ios": "https://dc.lft.to/lastmile_qr_scan"}}, {"is_disabled": 0, "lon": -77.02959166666666, "lat": 38.916873, "name": "c762201daf1aa6007a770f6b1d47a94c", "fusion_lon": 0.0, "fusion_lat": 0.0, "is_reserved": 0, "type": "electric_scooter", "bike_id": "c762201daf1aa6007a770f6b1d47a94c", "rental_uris": {"android": "https://dc.lft.to/lastmile_qr_scan", "ios": "https://dc.lft.to/lastmile_qr_scan"}}, {"is_disabled": 0, "lon": -77.02803316666666, "lat": 38.910669, "name": "ac365bf80719068ef61a9d1393df1ba5", "fusion_lon": 0.0, "fusion_lat": 0.0, "is_reserved": 0, "type": "electric_scooter", "bike_id": "ac365bf80719068ef61a9d1393df1ba5", "rental_uris": {"android": "https://dc.lft.to/lastmile_qr_scan", "ios": "https://dc.lft.to/lastmile_qr_scan"}}, {"is_disabled": 0, "lon": -77.01911666666666, "lat": 38.92370566666666, "name": "a7260e16797bbbc67df8c16fd2ee5511", "fusion_lon": 0.0, "fusion_lat": 0.0, "is_reserved": 0, "type": "electric_scooter", "bike_id": "a7260e16797bbbc67df8c16fd2ee5511", "rental_uris": {"android": "https://dc.lft.to/lastmile_qr_scan", "ios": "https://dc.lft.to/lastmile_qr_scan"}}, {"is_disabled": 0, "lon": -77.04899683333333, "lat": 38.90527183333333, "name": "44112f80c3026daf1a87d3edb582cf53", "fusion_lon": 0.0, "fusion_lat": 0.0, "is_reserved": 0, "type": "electric_scooter", "bike_id": "44112f80c3026daf1a87d3edb582cf53", "rental_uris": {"android": "https://dc.lft.to/lastmile_qr_scan", "ios": "https://dc.lft.to/lastmile_qr_scan"}}, {"is_disabled": 0, "lon": -77.036597, "lat": 38.917999, "name": "02f2c595823aface2ce663a8ffd99623", "fusion_lon": 0.0, "fusion_lat": 0.0, "is_reserved": 0, "type": "electric_scooter", "bike_id": "02f2c595823aface2ce663a8ffd99623", "rental_uris": {"android": "https://dc.lft.to/lastmile_qr_scan", "ios": "https://dc.lft.to/lastmile_qr_scan"}}, {"is_disabled": 0, "lon": -77.0965475, "lat": 38.952217166666664, "name": "e2993774c94155a755d7401037d43e06", "fusion_lon": 0.0, "fusion_lat": 0.0, "is_reserved": 0, "type": "electric_bike", "bike_id": "e2993774c94155a755d7401037d43e06", "rental_uris": {"android": "https://dc.lft.to/lastmile_qr_scan", "ios": "https://dc.lft.to/lastmile_qr_scan"}}, {"is_disabled": 0, "lon": -77.03308383333334, "lat": 38.911155, "name": "49818d6e60d700a61ba197d69b1a4c0e", "fusion_lon": 0.0, "fusion_lat": 0.0, "is_reserved": 0, "type": "electric_scooter", "bike_id": "49818d6e60d700a61ba197d69b1a4c0e", "rental_uris": {"android": "https://dc.lft.to/lastmile_qr_scan", "ios": "https://dc.lft.to/lastmile_qr_scan"}}, {"is_disabled": 0, "lon": -77.02806366666667, "lat": 38.915729166666665, "name": "45c3855ecb7d10c5c9b30a4a6d77a16a", "fusion_lon": 0.0, "fusion_lat": 0.0, "is_reserved": 0, "type": "electric_scooter", "bike_id": "45c3855ecb7d10c5c9b30a4a6d77a16a", "rental_uris": {"android": "https://dc.lft.to/lastmile_qr_scan", "ios": "https://dc.lft.to/lastmile_qr_scan"}}, {"is_disabled": 0, "lon": -77.03423316666667, "lat": 38.91928733333334, "name": "dfc849e4ebabf78f71b807e5e6295276", "fusion_lon": 0.0, "fusion_lat": 0.0, "is_reserved": 0, "type": "electric_scooter", "bike_id": "dfc849e4ebabf78f71b807e5e6295276", "rental_uris": {"android": "https://dc.lft.to/lastmile_qr_scan", "ios": "https://dc.lft.to/lastmile_qr_scan"}}, {"is_disabled": 0, "lon": -77.02808416666667, "lat": 38.930850666666664, "name": "9bbee917045016a553c1e949d2112728", "fusion_lon": 0.0, "fusion_lat": 0.0, "is_reserved": 0, "type": "electric_scooter", "bike_id": "9bbee917045016a553c1e949d2112728", "rental_uris": {"android": "https://dc.lft.to/lastmile_qr_scan", "ios": "https://dc.lft.to/lastmile_qr_scan"}}, {"is_disabled": 0, "lon": -77.0195, "lat": 38.92332866666667, "name": "1b3402d14cebf5d031473b651b7826c9", "fusion_lon": 0.0, "fusion_lat": 0.0, "is_reserved": 0, "type": "electric_scooter", "bike_id": "1b3402d14cebf5d031473b651b7826c9", "rental_uris": {"android": "https://dc.lft.to/lastmile_qr_scan", "ios": "https://dc.lft.to/lastmile_qr_scan"}}, {"is_disabled": 0, "lon": -76.99692816666666, "lat": 38.838660833333336, "name": "ba662b833fd087077396ec4d1737e4a5", "fusion_lon": 0.0, "fusion_lat": 0.0, "is_reserved": 0, "type": "electric_bike", "bike_id": "ba662b833fd087077396ec4d1737e4a5", "rental_uris": {"android": "https://dc.lft.to/lastmile_qr_scan", "ios": "https://dc.lft.to/lastmile_qr_scan"}}, {"is_disabled": 0, "lon": -77.02882916666667, "lat": 38.91349916666667, "name": "994c81db697cc0ca185fe7a2a0507864", "fusion_lon": 0.0, "fusion_lat": 0.0, "is_reserved": 0, "type": "electric_scooter", "bike_id": "994c81db697cc0ca185fe7a2a0507864", "rental_uris": {"android": "https://dc.lft.to/lastmile_qr_scan", "ios": "https://dc.lft.to/lastmile_qr_scan"}}, {"is_disabled": 0, "lon": -76.99276466666667, "lat": 38.97257233333333, "name": "e65e4403087fa23a332c68e4b69bea95", "fusion_lon": 0.0, "fusion_lat": 0.0, "is_reserved": 0, "type": "electric_bike", "bike_id": "e65e4403087fa23a332c68e4b69bea95", "rental_uris": {"android": "https://dc.lft.to/lastmile_qr_scan", "ios": "https://dc.lft.to/lastmile_qr_scan"}}, {"is_disabled": 0, "lon": -77.034494, "lat": 38.905657833333336, "name": "ebf98c7828fad1005ee3687b111a893a", "fusion_lon": 0.0, "fusion_lat": 0.0, "is_reserved": 0, "type": "electric_scooter", "bike_id": "ebf98c7828fad1005ee3687b111a893a", "rental_uris": {"android": "https://dc.lft.to/lastmile_qr_scan", "ios": "https://dc.lft.to/lastmile_qr_scan"}}, {"is_disabled": 0, "lon": -77.034672, "lat": 38.9072915, "name": "0a49887ba68057642c78514541feacf0", "fusion_lon": 0.0, "fusion_lat": 0.0, "is_reserved": 0, "type": "electric_scooter", "bike_id": "0a49887ba68057642c78514541feacf0", "rental_uris": {"android": "https://dc.lft.to/lastmile_qr_scan", "ios": "https://dc.lft.to/lastmile_qr_scan"}}, {"is_disabled": 0, "lon": -77.00571116666667, "lat": 38.880335, "name": "3e01484d8122c24fa8a83aa2f5e84871", "fusion_lon": 0.0, "fusion_lat": 0.0, "is_reserved": 0, "type": "electric_scooter", "bike_id": "3e01484d8122c24fa8a83aa2f5e84871", "rental_uris": {"android": "https://dc.lft.to/lastmile_qr_scan", "ios": "https://dc.lft.to/lastmile_qr_scan"}}, {"is_disabled": 0, "lon": -77.02403966666667, "lat": 38.92099133333333, "name": "2921bd09a75a23a59330dd4d416e858f", "fusion_lon": 0.0, "fusion_lat": 0.0, "is_reserved": 0, "type": "electric_scooter", "bike_id": "2921bd09a75a23a59330dd4d416e858f", "rental_uris": {"android": "https://dc.lft.to/lastmile_qr_scan", "ios": "https://dc.lft.to/lastmile_qr_scan"}}, {"is_disabled": 0, "lon": -77.040313, "lat": 38.911864333333334, "name": "7bf0aa62d0dea193020f7f38ee128cf3", "fusion_lon": 0.0, "fusion_lat": 0.0, "is_reserved": 0, "type": "electric_scooter", "bike_id": "7bf0aa62d0dea193020f7f38ee128cf3", "rental_uris": {"android": "https://dc.lft.to/lastmile_qr_scan", "ios": "https://dc.lft.to/lastmile_qr_scan"}}, {"is_disabled": 0, "lon": -77.03337416666666, "lat": 38.92876716666667, "name": "b671a654a5082a4069636f90192df98f", "fusion_lon": 0.0, "fusion_lat": 0.0, "is_reserved": 0, "type": "electric_scooter", "bike_id": "b671a654a5082a4069636f90192df98f", "rental_uris": {"android": "https://dc.lft.to/lastmile_qr_scan", "ios": "https://dc.lft.to/lastmile_qr_scan"}}, {"is_disabled": 0, "lon": -77.04318183333334, "lat": 38.90926666666667, "name": "72b59008aa08b38a798eb8a1671c0f60", "fusion_lon": 0.0, "fusion_lat": 0.0, "is_reserved": 0, "type": "electric_scooter", "bike_id": "72b59008aa08b38a798eb8a1671c0f60", "rental_uris": {"android": "https://dc.lft.to/lastmile_qr_scan", "ios": "https://dc.lft.to/lastmile_qr_scan"}}, {"is_disabled": 0, "lon": -77.01982483333333, "lat": 38.887192166666665, "name": "d4b97197989489c2b26db7ac6a493516", "fusion_lon": 0.0, "fusion_lat": 0.0, "is_reserved": 0, "type": "electric_scooter", "bike_id": "d4b97197989489c2b26db7ac6a493516", "rental_uris": {"android": "https://dc.lft.to/lastmile_qr_scan", "ios": "https://dc.lft.to/lastmile_qr_scan"}}, {"is_disabled": 0, "lon": -77.03193633333333, "lat": 38.90206533333333, "name": "712fce75f225e49db659282cda590deb", "fusion_lon": 0.0, "fusion_lat": 0.0, "is_reserved": 0, "type": "electric_scooter", "bike_id": "712fce75f225e49db659282cda590deb", "rental_uris": {"android": "https://dc.lft.to/lastmile_qr_scan", "ios": "https://dc.lft.to/lastmile_qr_scan"}}, {"is_disabled": 0, "lon": -77.02369683333333, "lat": 38.89222616666667, "name": "7dd70286d4a0b812b31a9ec9744926fc", "fusion_lon": 0.0, "fusion_lat": 0.0, "is_reserved": 0, "type": "electric_scooter", "bike_id": "7dd70286d4a0b812b31a9ec9744926fc", "rental_uris": {"android": "https://dc.lft.to/lastmile_qr_scan", "ios": "https://dc.lft.to/lastmile_qr_scan"}}, {"is_disabled": 0, "lon": -77.012001, "lat": 38.95071333333333, "name": "5f0bbcb7c7591cd57aa2cae29d92fd95", "fusion_lon": 0.0, "fusion_lat": 0.0, "is_reserved": 0, "type": "electric_bike", "bike_id": "5f0bbcb7c7591cd57aa2cae29d92fd95", "rental_uris": {"android": "https://dc.lft.to/lastmile_qr_scan", "ios": "https://dc.lft.to/lastmile_qr_scan"}}, {"is_disabled": 0, "lon": -76.95561383333333, "lat": 38.985032, "name": "0e64b43d0c83bcb9a9b414f9975b3374", "fusion_lon": 0.0, "fusion_lat": 0.0, "is_reserved": 0, "type": "electric_bike", "bike_id": "0e64b43d0c83bcb9a9b414f9975b3374", "rental_uris": {"android": "https://dc.lft.to/lastmile_qr_scan", "ios": "https://dc.lft.to/lastmile_qr_scan"}}, {"is_disabled": 0, "lon": -77.02478666666667, "lat": 38.919412, "name": "9aecafeb75099414cedb43b5b744cba1", "fusion_lon": 0.0, "fusion_lat": 0.0, "is_reserved": 0, "type": "electric_scooter", "bike_id": "9aecafeb75099414cedb43b5b744cba1", "rental_uris": {"android": "https://dc.lft.to/lastmile_qr_scan", "ios": "https://dc.lft.to/lastmile_qr_scan"}}, {"is_disabled": 0, "lon": -77.0445865, "lat": 38.924696833333336, "name": "750d17475ba0060319eb1bbe7c71c95f", "fusion_lon": 0.0, "fusion_lat": 0.0, "is_reserved": 0, "type": "electric_scooter", "bike_id": "750d17475ba0060319eb1bbe7c71c95f", "rental_uris": {"android": "https://dc.lft.to/lastmile_qr_scan", "ios": "https://dc.lft.to/lastmile_qr_scan"}}, {"is_disabled": 0, "lon": -77.0254405, "lat": 38.92065916666667, "name": "9a2ae3e969648f47ffd24c37ebf6d3dd", "fusion_lon": 0.0, "fusion_lat": 0.0, "is_reserved": 0, "type": "electric_scooter", "bike_id": "9a2ae3e969648f47ffd24c37ebf6d3dd", "rental_uris": {"android": "https://dc.lft.to/lastmile_qr_scan", "ios": "https://dc.lft.to/lastmile_qr_scan"}}, {"is_disabled": 0, "lon": -77.01085633333334, "lat": 38.8954705, "name": "fba0c02ee813403d4ffb2fda437972e0", "fusion_lon": 0.0, "fusion_lat": 0.0, "is_reserved": 0, "type": "electric_scooter", "bike_id": "fba0c02ee813403d4ffb2fda437972e0", "rental_uris": {"android": "https://dc.lft.to/lastmile_qr_scan", "ios": "https://dc.lft.to/lastmile_qr_scan"}}, {"is_disabled": 0, "lon": -77.03452666666666, "lat": 38.9051765, "name": "5325b96abd9fb6adac9e34d425a4c7f0", "fusion_lon": 0.0, "fusion_lat": 0.0, "is_reserved": 0, "type": "electric_scooter", "bike_id": "5325b96abd9fb6adac9e34d425a4c7f0", "rental_uris": {"android": "https://dc.lft.to/lastmile_qr_scan", "ios": "https://dc.lft.to/lastmile_qr_scan"}}, {"is_disabled": 0, "lon": -77.02547333333334, "lat": 38.9163415, "name": "6c3945ab766097dff689b97016533e99", "fusion_lon": 0.0, "fusion_lat": 0.0, "is_reserved": 0, "type": "electric_scooter", "bike_id": "6c3945ab766097dff689b97016533e99", "rental_uris": {"android": "https://dc.lft.to/lastmile_qr_scan", "ios": "https://dc.lft.to/lastmile_qr_scan"}}, {"is_disabled": 0, "lon": -77.06294933333334, "lat": 38.903964333333334, "name": "98130dd717ed7deac6e3c3cc733ac3a8", "fusion_lon": 0.0, "fusion_lat": 0.0, "is_reserved": 0, "type": "electric_scooter", "bike_id": "98130dd717ed7deac6e3c3cc733ac3a8", "rental_uris": {"android": "https://dc.lft.to/lastmile_qr_scan", "ios": "https://dc.lft.to/lastmile_qr_scan"}}, {"is_disabled": 0, "lon": -77.015387, "lat": 38.891662833333335, "name": "b0eed1cc7340e28f089aaa1f77c8376c", "fusion_lon": 0.0, "fusion_lat": 0.0, "is_reserved": 0, "type": "electric_scooter", "bike_id": "b0eed1cc7340e28f089aaa1f77c8376c", "rental_uris": {"android": "https://dc.lft.to/lastmile_qr_scan", "ios": "https://dc.lft.to/lastmile_qr_scan"}}, {"is_disabled": 0, "lon": -77.02103366666667, "lat": 38.92361116666667, "name": "ddecc757599705cb8a2cc5be36ac732a", "fusion_lon": 0.0, "fusion_lat": 0.0, "is_reserved": 0, "type": "electric_scooter", "bike_id": "ddecc757599705cb8a2cc5be36ac732a", "rental_uris": {"android": "https://dc.lft.to/lastmile_qr_scan", "ios": "https://dc.lft.to/lastmile_qr_scan"}}, {"is_disabled": 0, "lon": -77.028299, "lat": 38.9175305, "name": "7371de33e599859ed87c39b204d1de83", "fusion_lon": 0.0, "fusion_lat": 0.0, "is_reserved": 0, "type": "electric_scooter", "bike_id": "7371de33e599859ed87c39b204d1de83", "rental_uris": {"android": "https://dc.lft.to/lastmile_qr_scan", "ios": "https://dc.lft.to/lastmile_qr_scan"}}, {"is_disabled": 0, "lon": -77.04520133333334, "lat": 38.896066833333336, "name": "ea1790d6b4fc01313883fa34b4b6fda3", "fusion_lon": 0.0, "fusion_lat": 0.0, "is_reserved": 0, "type": "electric_scooter", "bike_id": "ea1790d6b4fc01313883fa34b4b6fda3", "rental_uris": {"android": "https://dc.lft.to/lastmile_qr_scan", "ios": "https://dc.lft.to/lastmile_qr_scan"}}, {"is_disabled": 0, "lon": -77.043417, "lat": 38.903956, "name": "91bde12d50ef8062d92a555f8b09ade2", "fusion_lon": 0.0, "fusion_lat": 0.0, "is_reserved": 0, "type": "electric_scooter", "bike_id": "91bde12d50ef8062d92a555f8b09ade2", "rental_uris": {"android": "https://dc.lft.to/lastmile_qr_scan", "ios": "https://dc.lft.to/lastmile_qr_scan"}}, {"is_disabled": 0, "lon": -77.02478, "lat": 38.93881316666667, "name": "87db03186f598b7490edc2b0fda580fb", "fusion_lon": 0.0, "fusion_lat": 0.0, "is_reserved": 0, "type": "electric_scooter", "bike_id": "87db03186f598b7490edc2b0fda580fb", "rental_uris": {"android": "https://dc.lft.to/lastmile_qr_scan", "ios": "https://dc.lft.to/lastmile_qr_scan"}}, {"is_disabled": 0, "lon": -77.03180933333333, "lat": 38.92066766666667, "name": "ff875606dd4da0f4cc3644c627c0348c", "fusion_lon": 0.0, "fusion_lat": 0.0, "is_reserved": 0, "type": "electric_scooter", "bike_id": "ff875606dd4da0f4cc3644c627c0348c", "rental_uris": {"android": "https://dc.lft.to/lastmile_qr_scan", "ios": "https://dc.lft.to/lastmile_qr_scan"}}, {"is_disabled": 0, "lon": -77.029107, "lat": 38.952988833333336, "name": "0904c2d531b04ea034d6a1d7467c1d2f", "fusion_lon": 0.0, "fusion_lat": 0.0, "is_reserved": 0, "type": "electric_scooter", "bike_id": "0904c2d531b04ea034d6a1d7467c1d2f", "rental_uris": {"android": "https://dc.lft.to/lastmile_qr_scan", "ios": "https://dc.lft.to/lastmile_qr_scan"}}, {"is_disabled": 0, "lon": -77.03636033333333, "lat": 38.903853833333336, "name": "9500abbcf9d66bd5dc62a9ee90aece86", "fusion_lon": 0.0, "fusion_lat": 0.0, "is_reserved": 0, "type": "electric_scooter", "bike_id": "9500abbcf9d66bd5dc62a9ee90aece86", "rental_uris": {"android": "https://dc.lft.to/lastmile_qr_scan", "ios": "https://dc.lft.to/lastmile_qr_scan"}}, {"is_disabled": 0, "lon": -77.0131935, "lat": 38.892290833333334, "name": "7ab5eed75b4b0a549650fbed400265b2", "fusion_lon": 0.0, "fusion_lat": 0.0, "is_reserved": 0, "type": "electric_scooter", "bike_id": "7ab5eed75b4b0a549650fbed400265b2", "rental_uris": {"android": "https://dc.lft.to/lastmile_qr_scan", "ios": "https://dc.lft.to/lastmile_qr_scan"}}, {"is_disabled": 0, "lon": -77.03173416666667, "lat": 38.91113466666667, "name": "d35f15934d7ba22d12c56e2865623bd1", "fusion_lon": 0.0, "fusion_lat": 0.0, "is_reserved": 0, "type": "electric_scooter", "bike_id": "d35f15934d7ba22d12c56e2865623bd1", "rental_uris": {"android": "https://dc.lft.to/lastmile_qr_scan", "ios": "https://dc.lft.to/lastmile_qr_scan"}}, {"is_disabled": 0, "lon": -76.98367433333334, "lat": 38.89266683333334, "name": "fe64b3306ff4abb5d7b56d649094d3d9", "fusion_lon": 0.0, "fusion_lat": 0.0, "is_reserved": 0, "type": "electric_scooter", "bike_id": "fe64b3306ff4abb5d7b56d649094d3d9", "rental_uris": {"android": "https://dc.lft.to/lastmile_qr_scan", "ios": "https://dc.lft.to/lastmile_qr_scan"}}, {"is_disabled": 0, "lon": -77.01446483333334, "lat": 38.87671866666667, "name": "f67010168ec64073e2b390413a729431", "fusion_lon": 0.0, "fusion_lat": 0.0, "is_reserved": 0, "type": "electric_bike", "bike_id": "f67010168ec64073e2b390413a729431", "rental_uris": {"android": "https://dc.lft.to/lastmile_qr_scan", "ios": "https://dc.lft.to/lastmile_qr_scan"}}, {"is_disabled": 0, "lon": -76.9294945, "lat": 38.88440216666667, "name": "cd676792cf25c4acc3424082403134f3", "fusion_lon": 0.0, "fusion_lat": 0.0, "is_reserved": 0, "type": "electric_scooter", "bike_id": "cd676792cf25c4acc3424082403134f3", "rental_uris": {"android": "https://dc.lft.to/lastmile_qr_scan", "ios": "https://dc.lft.to/lastmile_qr_scan"}}, {"is_disabled": 0, "lon": -76.9856965, "lat": 38.8962205, "name": "eee339a92fcac1bbcbbbac447021d25a", "fusion_lon": 0.0, "fusion_lat": 0.0, "is_reserved": 0, "type": "electric_scooter", "bike_id": "eee339a92fcac1bbcbbbac447021d25a", "rental_uris": {"android": "https://dc.lft.to/lastmile_qr_scan", "ios": "https://dc.lft.to/lastmile_qr_scan"}}, {"is_disabled": 0, "lon": -77.00195033333334, "lat": 38.90027416666667, "name": "bf2a8725bac1dc515211611875508d73", "fusion_lon": 0.0, "fusion_lat": 0.0, "is_reserved": 0, "type": "electric_scooter", "bike_id": "bf2a8725bac1dc515211611875508d73", "rental_uris": {"android": "https://dc.lft.to/lastmile_qr_scan", "ios": "https://dc.lft.to/lastmile_qr_scan"}}, {"is_disabled": 0, "lon": -76.99754816666666, "lat": 38.88505416666667, "name": "e3b58f7268900c429c3bd8ba90420a54", "fusion_lon": 0.0, "fusion_lat": 0.0, "is_reserved": 0, "type": "electric_scooter", "bike_id": "e3b58f7268900c429c3bd8ba90420a54", "rental_uris": {"android": "https://dc.lft.to/lastmile_qr_scan", "ios": "https://dc.lft.to/lastmile_qr_scan"}}, {"is_disabled": 0, "lon": -77.04467566666666, "lat": 38.90312766666667, "name": "69401455d66b6df0517c2ac5c5f2dcb1", "fusion_lon": 0.0, "fusion_lat": 0.0, "is_reserved": 0, "type": "electric_scooter", "bike_id": "69401455d66b6df0517c2ac5c5f2dcb1", "rental_uris": {"android": "https://dc.lft.to/lastmile_qr_scan", "ios": "https://dc.lft.to/lastmile_qr_scan"}}, {"is_disabled": 0, "lon": -77.02717266666667, "lat": 38.8967525, "name": "7f602e501ba9bf953aa05149c0d7e90a", "fusion_lon": 0.0, "fusion_lat": 0.0, "is_reserved": 0, "type": "electric_scooter", "bike_id": "7f602e501ba9bf953aa05149c0d7e90a", "rental_uris": {"android": "https://dc.lft.to/lastmile_qr_scan", "ios": "https://dc.lft.to/lastmile_qr_scan"}}, {"is_disabled": 0, "lon": -77.02604266666667, "lat": 38.982652333333334, "name": "5e8d84fae21bbd7c86aa7de919d9e2d7", "fusion_lon": 0.0, "fusion_lat": 0.0, "is_reserved": 0, "type": "electric_scooter", "bike_id": "5e8d84fae21bbd7c86aa7de919d9e2d7", "rental_uris": {"android": "https://dc.lft.to/lastmile_qr_scan", "ios": "https://dc.lft.to/lastmile_qr_scan"}}, {"is_disabled": 0, "lon": -77.0092875, "lat": 38.91658783333333, "name": "5a2341990f60300fc049f55256ba9318", "fusion_lon": 0.0, "fusion_lat": 0.0, "is_reserved": 0, "type": "electric_scooter", "bike_id": "5a2341990f60300fc049f55256ba9318", "rental_uris": {"android": "https://dc.lft.to/lastmile_qr_scan", "ios": "https://dc.lft.to/lastmile_qr_scan"}}, {"is_disabled": 0, "lon": -77.038471, "lat": 38.91670833333333, "name": "6ab0def345f12655bfeef0d0018eafb5", "fusion_lon": 0.0, "fusion_lat": 0.0, "is_reserved": 0, "type": "electric_scooter", "bike_id": "6ab0def345f12655bfeef0d0018eafb5", "rental_uris": {"android": "https://dc.lft.to/lastmile_qr_scan", "ios": "https://dc.lft.to/lastmile_qr_scan"}}, {"is_disabled": 0, "lon": -77.03857416666666, "lat": 38.917247, "name": "ca86ae633ba88ca15f7fa77b98589954", "fusion_lon": 0.0, "fusion_lat": 0.0, "is_reserved": 0, "type": "electric_scooter", "bike_id": "ca86ae633ba88ca15f7fa77b98589954", "rental_uris": {"android": "https://dc.lft.to/lastmile_qr_scan", "ios": "https://dc.lft.to/lastmile_qr_scan"}}, {"is_disabled": 0, "lon": -77.0072575, "lat": 38.87651666666667, "name": "2983d01b88c05015db6dac06c46b2ce8", "fusion_lon": 0.0, "fusion_lat": 0.0, "is_reserved": 0, "type": "electric_scooter", "bike_id": "2983d01b88c05015db6dac06c46b2ce8", "rental_uris": {"android": "https://dc.lft.to/lastmile_qr_scan", "ios": "https://dc.lft.to/lastmile_qr_scan"}}, {"is_disabled": 0, "lon": -77.02549116666667, "lat": 38.970049333333336, "name": "4606530aa18eb866faaaaf52d1682ce0", "fusion_lon": 0.0, "fusion_lat": 0.0, "is_reserved": 0, "type": "electric_scooter", "bike_id": "4606530aa18eb866faaaaf52d1682ce0", "rental_uris": {"android": "https://dc.lft.to/lastmile_qr_scan", "ios": "https://dc.lft.to/lastmile_qr_scan"}}, {"is_disabled": 0, "lon": -77.04562433333334, "lat": 38.90380916666667, "name": "5b12e4461677155c105eec3cda74deeb", "fusion_lon": 0.0, "fusion_lat": 0.0, "is_reserved": 0, "type": "electric_scooter", "bike_id": "5b12e4461677155c105eec3cda74deeb", "rental_uris": {"android": "https://dc.lft.to/lastmile_qr_scan", "ios": "https://dc.lft.to/lastmile_qr_scan"}}, {"is_disabled": 0, "lon": -77.0398455, "lat": 38.89539466666667, "name": "9ca1dc387a79ba4df1365c692bd6fd79", "fusion_lon": 0.0, "fusion_lat": 0.0, "is_reserved": 0, "type": "electric_scooter", "bike_id": "9ca1dc387a79ba4df1365c692bd6fd79", "rental_uris": {"android": "https://dc.lft.to/lastmile_qr_scan", "ios": "https://dc.lft.to/lastmile_qr_scan"}}, {"is_disabled": 0, "lon": -76.96149433333333, "lat": 38.856195, "name": "ec43975fffb580fde455f68630fa50f7", "fusion_lon": 0.0, "fusion_lat": 0.0, "is_reserved": 0, "type": "electric_bike", "bike_id": "ec43975fffb580fde455f68630fa50f7", "rental_uris": {"android": "https://dc.lft.to/lastmile_qr_scan", "ios": "https://dc.lft.to/lastmile_qr_scan"}}, {"is_disabled": 0, "lon": -77.028796, "lat": 38.89718583333333, "name": "caf5223f6e07d974a47f1f070a6e5855", "fusion_lon": 0.0, "fusion_lat": 0.0, "is_reserved": 0, "type": "electric_scooter", "bike_id": "caf5223f6e07d974a47f1f070a6e5855", "rental_uris": {"android": "https://dc.lft.to/lastmile_qr_scan", "ios": "https://dc.lft.to/lastmile_qr_scan"}}, {"is_disabled": 0, "lon": -77.02405933333333, "lat": 38.916802, "name": "b01b8500501b98eb14fbd681d8fb6222", "fusion_lon": 0.0, "fusion_lat": 0.0, "is_reserved": 0, "type": "electric_scooter", "bike_id": "b01b8500501b98eb14fbd681d8fb6222", "rental_uris": {"android": "https://dc.lft.to/lastmile_qr_scan", "ios": "https://dc.lft.to/lastmile_qr_scan"}}, {"is_disabled": 0, "lon": -77.0122525, "lat": 38.897712, "name": "eb3a7026ddfb96dd3bccc1e29453525c", "fusion_lon": 0.0, "fusion_lat": 0.0, "is_reserved": 0, "type": "electric_scooter", "bike_id": "eb3a7026ddfb96dd3bccc1e29453525c", "rental_uris": {"android": "https://dc.lft.to/lastmile_qr_scan", "ios": "https://dc.lft.to/lastmile_qr_scan"}}, {"is_disabled": 0, "lon": -77.040247, "lat": 38.8988875, "name": "b30f3ae28eb352e7fc945f5c7121abdb", "fusion_lon": 0.0, "fusion_lat": 0.0, "is_reserved": 0, "type": "electric_scooter", "bike_id": "b30f3ae28eb352e7fc945f5c7121abdb", "rental_uris": {"android": "https://dc.lft.to/lastmile_qr_scan", "ios": "https://dc.lft.to/lastmile_qr_scan"}}, {"is_disabled": 0, "lon": -77.07294816666666, "lat": 38.922786333333335, "name": "41faf30a5ee635fb55c42273e57f5056", "fusion_lon": 0.0, "fusion_lat": 0.0, "is_reserved": 0, "type": "electric_scooter", "bike_id": "41faf30a5ee635fb55c42273e57f5056", "rental_uris": {"android": "https://dc.lft.to/lastmile_qr_scan", "ios": "https://dc.lft.to/lastmile_qr_scan"}}, {"is_disabled": 0, "lon": -77.04666216666666, "lat": 38.9039775, "name": "19da063bf28e219a1a43b211cf5467fe", "fusion_lon": 0.0, "fusion_lat": 0.0, "is_reserved": 0, "type": "electric_scooter", "bike_id": "19da063bf28e219a1a43b211cf5467fe", "rental_uris": {"android": "https://dc.lft.to/lastmile_qr_scan", "ios": "https://dc.lft.to/lastmile_qr_scan"}}, {"is_disabled": 0, "lon": -77.00767816666666, "lat": 38.90044533333333, "name": "6563d2d14cc03f5e8eda8d1afc8e00e5", "fusion_lon": 0.0, "fusion_lat": 0.0, "is_reserved": 0, "type": "electric_scooter", "bike_id": "6563d2d14cc03f5e8eda8d1afc8e00e5", "rental_uris": {"android": "https://dc.lft.to/lastmile_qr_scan", "ios": "https://dc.lft.to/lastmile_qr_scan"}}, {"is_disabled": 0, "lon": -77.02819916666667, "lat": 38.902644, "name": "50f083ce9b939cb8b96970107c5215fa", "fusion_lon": 0.0, "fusion_lat": 0.0, "is_reserved": 0, "type": "electric_scooter", "bike_id": "50f083ce9b939cb8b96970107c5215fa", "rental_uris": {"android": "https://dc.lft.to/lastmile_qr_scan", "ios": "https://dc.lft.to/lastmile_qr_scan"}}, {"is_disabled": 0, "lon": -76.98886383333334, "lat": 38.93478983333333, "name": "c7c3d89716eea11339ff2ae7c16c1dcb", "fusion_lon": 0.0, "fusion_lat": 0.0, "is_reserved": 0, "type": "electric_scooter", "bike_id": "c7c3d89716eea11339ff2ae7c16c1dcb", "rental_uris": {"android": "https://dc.lft.to/lastmile_qr_scan", "ios": "https://dc.lft.to/lastmile_qr_scan"}}, {"is_disabled": 0, "lon": -77.01252433333333, "lat": 38.89723983333333, "name": "3d84d1fb9762c590561710afc9c3c46d", "fusion_lon": 0.0, "fusion_lat": 0.0, "is_reserved": 0, "type": "electric_scooter", "bike_id": "3d84d1fb9762c590561710afc9c3c46d", "rental_uris": {"android": "https://dc.lft.to/lastmile_qr_scan", "ios": "https://dc.lft.to/lastmile_qr_scan"}}, {"is_disabled": 0, "lon": -77.02696983333334, "lat": 38.94063766666667, "name": "e3facd6b3c3f473f658adddd73b0ba73", "fusion_lon": 0.0, "fusion_lat": 0.0, "is_reserved": 0, "type": "electric_scooter", "bike_id": "e3facd6b3c3f473f658adddd73b0ba73", "rental_uris": {"android": "https://dc.lft.to/lastmile_qr_scan", "ios": "https://dc.lft.to/lastmile_qr_scan"}}, {"is_disabled": 0, "lon": -77.07269966666667, "lat": 38.90906433333333, "name": "45f0ab681205d091f957972521ffefc6", "fusion_lon": 0.0, "fusion_lat": 0.0, "is_reserved": 0, "type": "electric_scooter", "bike_id": "45f0ab681205d091f957972521ffefc6", "rental_uris": {"android": "https://dc.lft.to/lastmile_qr_scan", "ios": "https://dc.lft.to/lastmile_qr_scan"}}, {"is_disabled": 0, "lon": -77.0386695, "lat": 38.917064, "name": "29e250250e72c6c04fdf960a059ac60a", "fusion_lon": 0.0, "fusion_lat": 0.0, "is_reserved": 0, "type": "electric_scooter", "bike_id": "29e250250e72c6c04fdf960a059ac60a", "rental_uris": {"android": "https://dc.lft.to/lastmile_qr_scan", "ios": "https://dc.lft.to/lastmile_qr_scan"}}, {"is_disabled": 0, "lon": -77.0546185, "lat": 38.86480133333333, "name": "b0ba404504b558d61f1c3cc342bd39f8", "fusion_lon": 0.0, "fusion_lat": 0.0, "is_reserved": 0, "type": "electric_bike", "bike_id": "b0ba404504b558d61f1c3cc342bd39f8", "rental_uris": {"android": "https://dc.lft.to/lastmile_qr_scan", "ios": "https://dc.lft.to/lastmile_qr_scan"}}, {"is_disabled": 0, "lon": -76.97888033333334, "lat": 38.885413166666666, "name": "0a4fa830c121672dc7ccdb4ac1fd5489", "fusion_lon": 0.0, "fusion_lat": 0.0, "is_reserved": 0, "type": "electric_scooter", "bike_id": "0a4fa830c121672dc7ccdb4ac1fd5489", "rental_uris": {"android": "https://dc.lft.to/lastmile_qr_scan", "ios": "https://dc.lft.to/lastmile_qr_scan"}}, {"is_disabled": 0, "lon": -77.015781, "lat": 38.87652033333333, "name": "11272de9655ddcaa22d91dbec09067ec", "fusion_lon": 0.0, "fusion_lat": 0.0, "is_reserved": 0, "type": "electric_scooter", "bike_id": "11272de9655ddcaa22d91dbec09067ec", "rental_uris": {"android": "https://dc.lft.to/lastmile_qr_scan", "ios": "https://dc.lft.to/lastmile_qr_scan"}}, {"is_disabled": 0, "lon": -77.02173916666666, "lat": 38.892312, "name": "9fa38807c48eb3eb1bf3e9c391d8ef32", "fusion_lon": 0.0, "fusion_lat": 0.0, "is_reserved": 0, "type": "electric_scooter", "bike_id": "9fa38807c48eb3eb1bf3e9c391d8ef32", "rental_uris": {"android": "https://dc.lft.to/lastmile_qr_scan", "ios": "https://dc.lft.to/lastmile_qr_scan"}}, {"is_disabled": 0, "lon": -77.01745333333334, "lat": 38.9111655, "name": "131a70d68eaf5e4a4a6b5887fb3037b0", "fusion_lon": 0.0, "fusion_lat": 0.0, "is_reserved": 0, "type": "electric_scooter", "bike_id": "131a70d68eaf5e4a4a6b5887fb3037b0", "rental_uris": {"android": "https://dc.lft.to/lastmile_qr_scan", "ios": "https://dc.lft.to/lastmile_qr_scan"}}, {"is_disabled": 0, "lon": -77.0266415, "lat": 38.92218166666667, "name": "9e9845033e31400bbb0f2e5f73f4ba84", "fusion_lon": 0.0, "fusion_lat": 0.0, "is_reserved": 0, "type": "electric_scooter", "bike_id": "9e9845033e31400bbb0f2e5f73f4ba84", "rental_uris": {"android": "https://dc.lft.to/lastmile_qr_scan", "ios": "https://dc.lft.to/lastmile_qr_scan"}}, {"is_disabled": 0, "lon": -77.0447845, "lat": 38.911717833333334, "name": "8904b3771c72c66cd7c2251906f0fde1", "fusion_lon": 0.0, "fusion_lat": 0.0, "is_reserved": 0, "type": "electric_scooter", "bike_id": "8904b3771c72c66cd7c2251906f0fde1", "rental_uris": {"android": "https://dc.lft.to/lastmile_qr_scan", "ios": "https://dc.lft.to/lastmile_qr_scan"}}, {"is_disabled": 0, "lon": -76.99074616666667, "lat": 38.85563233333333, "name": "f017d8d30c4c98c8a9efce6a4f9cd496", "fusion_lon": 0.0, "fusion_lat": 0.0, "is_reserved": 0, "type": "electric_scooter", "bike_id": "f017d8d30c4c98c8a9efce6a4f9cd496", "rental_uris": {"android": "https://dc.lft.to/lastmile_qr_scan", "ios": "https://dc.lft.to/lastmile_qr_scan"}}, {"is_disabled": 0, "lon": -77.02689933333333, "lat": 38.9127555, "name": "114bd53e86d4ae8213b623f1999b8ffe", "fusion_lon": 0.0, "fusion_lat": 0.0, "is_reserved": 0, "type": "electric_scooter", "bike_id": "114bd53e86d4ae8213b623f1999b8ffe", "rental_uris": {"android": "https://dc.lft.to/lastmile_qr_scan", "ios": "https://dc.lft.to/lastmile_qr_scan"}}, {"is_disabled": 0, "lon": -77.01794716666667, "lat": 38.919749833333334, "name": "6f8ef226ed48c2e289dd112474d8cbea", "fusion_lon": 0.0, "fusion_lat": 0.0, "is_reserved": 0, "type": "electric_scooter", "bike_id": "6f8ef226ed48c2e289dd112474d8cbea", "rental_uris": {"android": "https://dc.lft.to/lastmile_qr_scan", "ios": "https://dc.lft.to/lastmile_qr_scan"}}, {"is_disabled": 0, "lon": -77.01099183333334, "lat": 38.8954765, "name": "3ef868e56a238f472dbb19d53224af2e", "fusion_lon": 0.0, "fusion_lat": 0.0, "is_reserved": 0, "type": "electric_scooter", "bike_id": "3ef868e56a238f472dbb19d53224af2e", "rental_uris": {"android": "https://dc.lft.to/lastmile_qr_scan", "ios": "https://dc.lft.to/lastmile_qr_scan"}}, {"is_disabled": 0, "lon": -77.02070933333333, "lat": 38.9644415, "name": "c355f4c7ffc7f147f67b821fc4bb81eb", "fusion_lon": 0.0, "fusion_lat": 0.0, "is_reserved": 0, "type": "electric_bike", "bike_id": "c355f4c7ffc7f147f67b821fc4bb81eb", "rental_uris": {"android": "https://dc.lft.to/lastmile_qr_scan", "ios": "https://dc.lft.to/lastmile_qr_scan"}}, {"is_disabled": 0, "lon": -77.00337716666667, "lat": 38.89186633333333, "name": "ed7d49b836c752ca1b9b3b761a27b57f", "fusion_lon": 0.0, "fusion_lat": 0.0, "is_reserved": 0, "type": "electric_scooter", "bike_id": "ed7d49b836c752ca1b9b3b761a27b57f", "rental_uris": {"android": "https://dc.lft.to/lastmile_qr_scan", "ios": "https://dc.lft.to/lastmile_qr_scan"}}, {"is_disabled": 0, "lon": -77.03721466666667, "lat": 38.9161135, "name": "d048a9a2c0c880dee37013b2d6a6846d", "fusion_lon": 0.0, "fusion_lat": 0.0, "is_reserved": 0, "type": "electric_scooter", "bike_id": "d048a9a2c0c880dee37013b2d6a6846d", "rental_uris": {"android": "https://dc.lft.to/lastmile_qr_scan", "ios": "https://dc.lft.to/lastmile_qr_scan"}}, {"is_disabled": 0, "lon": -77.01916966666667, "lat": 38.902733166666664, "name": "f0ee849f42d0271b10d3fe2320521c49", "fusion_lon": 0.0, "fusion_lat": 0.0, "is_reserved": 0, "type": "electric_scooter", "bike_id": "f0ee849f42d0271b10d3fe2320521c49", "rental_uris": {"android": "https://dc.lft.to/lastmile_qr_scan", "ios": "https://dc.lft.to/lastmile_qr_scan"}}, {"is_disabled": 0, "lon": -77.0627195, "lat": 38.90312983333333, "name": "8562f8adf1c98cd0a81d73518720d830", "fusion_lon": 0.0, "fusion_lat": 0.0, "is_reserved": 0, "type": "electric_scooter", "bike_id": "8562f8adf1c98cd0a81d73518720d830", "rental_uris": {"android": "https://dc.lft.to/lastmile_qr_scan", "ios": "https://dc.lft.to/lastmile_qr_scan"}}, {"is_disabled": 0, "lon": -77.02987516666667, "lat": 38.897529166666665, "name": "8f70ac12501ec6d58067da16c7bdd8ce", "fusion_lon": 0.0, "fusion_lat": 0.0, "is_reserved": 0, "type": "electric_scooter", "bike_id": "8f70ac12501ec6d58067da16c7bdd8ce", "rental_uris": {"android": "https://dc.lft.to/lastmile_qr_scan", "ios": "https://dc.lft.to/lastmile_qr_scan"}}, {"is_disabled": 0, "lon": -77.03294983333333, "lat": 38.928417, "name": "f5912a1c29a5ac379b15330da43c2d90", "fusion_lon": 0.0, "fusion_lat": 0.0, "is_reserved": 0, "type": "electric_scooter", "bike_id": "f5912a1c29a5ac379b15330da43c2d90", "rental_uris": {"android": "https://dc.lft.to/lastmile_qr_scan", "ios": "https://dc.lft.to/lastmile_qr_scan"}}, {"is_disabled": 0, "lon": -77.03705983333333, "lat": 38.92636133333333, "name": "04cd4ff242fe6dcb5c23d08bea81d18c", "fusion_lon": 0.0, "fusion_lat": 0.0, "is_reserved": 0, "type": "electric_scooter", "bike_id": "04cd4ff242fe6dcb5c23d08bea81d18c", "rental_uris": {"android": "https://dc.lft.to/lastmile_qr_scan", "ios": "https://dc.lft.to/lastmile_qr_scan"}}, {"is_disabled": 0, "lon": -76.94182633333334, "lat": 38.89758666666667, "name": "3eb99fdf53534ff69c1293ecaa69408f", "fusion_lon": 0.0, "fusion_lat": 0.0, "is_reserved": 0, "type": "electric_scooter", "bike_id": "3eb99fdf53534ff69c1293ecaa69408f", "rental_uris": {"android": "https://dc.lft.to/lastmile_qr_scan", "ios": "https://dc.lft.to/lastmile_qr_scan"}}, {"is_disabled": 0, "lon": -76.99604533333333, "lat": 38.885581, "name": "191ba87fa8e6b6abc6384ab2c0c2368c", "fusion_lon": 0.0, "fusion_lat": 0.0, "is_reserved": 0, "type": "electric_scooter", "bike_id": "191ba87fa8e6b6abc6384ab2c0c2368c", "rental_uris": {"android": "https://dc.lft.to/lastmile_qr_scan", "ios": "https://dc.lft.to/lastmile_qr_scan"}}, {"is_disabled": 0, "lon": -77.0337025, "lat": 38.901448, "name": "6a148f1b470cacdafe507a9a9ba567f7", "fusion_lon": 0.0, "fusion_lat": 0.0, "is_reserved": 0, "type": "electric_scooter", "bike_id": "6a148f1b470cacdafe507a9a9ba567f7", "rental_uris": {"android": "https://dc.lft.to/lastmile_qr_scan", "ios": "https://dc.lft.to/lastmile_qr_scan"}}, {"is_disabled": 0, "lon": -77.005413, "lat": 38.880524, "name": "7b4932def6f2b91c29b927c057819003", "fusion_lon": 0.0, "fusion_lat": 0.0, "is_reserved": 0, "type": "electric_scooter", "bike_id": "7b4932def6f2b91c29b927c057819003", "rental_uris": {"android": "https://dc.lft.to/lastmile_qr_scan", "ios": "https://dc.lft.to/lastmile_qr_scan"}}, {"is_disabled": 0, "lon": -77.00348566666666, "lat": 38.8766355, "name": "7468a6166121c7eeb6784724f430a0de", "fusion_lon": 0.0, "fusion_lat": 0.0, "is_reserved": 0, "type": "electric_scooter", "bike_id": "7468a6166121c7eeb6784724f430a0de", "rental_uris": {"android": "https://dc.lft.to/lastmile_qr_scan", "ios": "https://dc.lft.to/lastmile_qr_scan"}}, {"is_disabled": 0, "lon": -77.02970933333333, "lat": 38.907267833333336, "name": "8f19d895242b9cbc503183a66b8df9b5", "fusion_lon": 0.0, "fusion_lat": 0.0, "is_reserved": 0, "type": "electric_scooter", "bike_id": "8f19d895242b9cbc503183a66b8df9b5", "rental_uris": {"android": "https://dc.lft.to/lastmile_qr_scan", "ios": "https://dc.lft.to/lastmile_qr_scan"}}, {"is_disabled": 0, "lon": -76.92500483333333, "lat": 38.8860455, "name": "c2f792edc85fccc21cdf02f44dbf8588", "fusion_lon": 0.0, "fusion_lat": 0.0, "is_reserved": 0, "type": "electric_scooter", "bike_id": "c2f792edc85fccc21cdf02f44dbf8588", "rental_uris": {"android": "https://dc.lft.to/lastmile_qr_scan", "ios": "https://dc.lft.to/lastmile_qr_scan"}}, {"is_disabled": 0, "lon": -77.064188, "lat": 38.91459116666667, "name": "4fb145dea4f26c6f689fec0bdae21128", "fusion_lon": 0.0, "fusion_lat": 0.0, "is_reserved": 0, "type": "electric_scooter", "bike_id": "4fb145dea4f26c6f689fec0bdae21128", "rental_uris": {"android": "https://dc.lft.to/lastmile_qr_scan", "ios": "https://dc.lft.to/lastmile_qr_scan"}}, {"is_disabled": 0, "lon": -77.02376633333333, "lat": 38.896275, "name": "e4bf5fa871869a15113439afe2dba807", "fusion_lon": 0.0, "fusion_lat": 0.0, "is_reserved": 0, "type": "electric_scooter", "bike_id": "e4bf5fa871869a15113439afe2dba807", "rental_uris": {"android": "https://dc.lft.to/lastmile_qr_scan", "ios": "https://dc.lft.to/lastmile_qr_scan"}}, {"is_disabled": 0, "lon": -77.018287, "lat": 38.909582, "name": "ec09d4d6f783a6e9698903c397a80dc5", "fusion_lon": 0.0, "fusion_lat": 0.0, "is_reserved": 0, "type": "electric_scooter", "bike_id": "ec09d4d6f783a6e9698903c397a80dc5", "rental_uris": {"android": "https://dc.lft.to/lastmile_qr_scan", "ios": "https://dc.lft.to/lastmile_qr_scan"}}, {"is_disabled": 0, "lon": -77.022939, "lat": 38.89497716666666, "name": "cfc1aa6f2c45c73599d8573e22aa39a0", "fusion_lon": 0.0, "fusion_lat": 0.0, "is_reserved": 0, "type": "electric_scooter", "bike_id": "cfc1aa6f2c45c73599d8573e22aa39a0", "rental_uris": {"android": "https://dc.lft.to/lastmile_qr_scan", "ios": "https://dc.lft.to/lastmile_qr_scan"}}, {"is_disabled": 0, "lon": -76.99164366666666, "lat": 38.900330833333335, "name": "947ab526053db1b8026f7ad47a176a92", "fusion_lon": 0.0, "fusion_lat": 0.0, "is_reserved": 0, "type": "electric_scooter", "bike_id": "947ab526053db1b8026f7ad47a176a92", "rental_uris": {"android": "https://dc.lft.to/lastmile_qr_scan", "ios": "https://dc.lft.to/lastmile_qr_scan"}}, {"is_disabled": 0, "lon": -77.06452566666667, "lat": 38.948931, "name": "3813491758502f63e0eff7e4b3316de9", "fusion_lon": 0.0, "fusion_lat": 0.0, "is_reserved": 0, "type": "electric_scooter", "bike_id": "3813491758502f63e0eff7e4b3316de9", "rental_uris": {"android": "https://dc.lft.to/lastmile_qr_scan", "ios": "https://dc.lft.to/lastmile_qr_scan"}}, {"is_disabled": 0, "lon": -77.021662, "lat": 38.900046833333334, "name": "96eceb0cf0674915a96b70d37a77b1b3", "fusion_lon": 0.0, "fusion_lat": 0.0, "is_reserved": 0, "type": "electric_scooter", "bike_id": "96eceb0cf0674915a96b70d37a77b1b3", "rental_uris": {"android": "https://dc.lft.to/lastmile_qr_scan", "ios": "https://dc.lft.to/lastmile_qr_scan"}}, {"is_disabled": 0, "lon": -77.0299595, "lat": 38.883131166666665, "name": "37c64deda5ef54b183b11a3dca8b0e0f", "fusion_lon": 0.0, "fusion_lat": 0.0, "is_reserved": 0, "type": "electric_scooter", "bike_id": "37c64deda5ef54b183b11a3dca8b0e0f", "rental_uris": {"android": "https://dc.lft.to/lastmile_qr_scan", "ios": "https://dc.lft.to/lastmile_qr_scan"}}, {"is_disabled": 0, "lon": -77.04143466666666, "lat": 38.906433666666665, "name": "e4ba064a329b114f258400e206a98f66", "fusion_lon": 0.0, "fusion_lat": 0.0, "is_reserved": 0, "type": "electric_scooter", "bike_id": "e4ba064a329b114f258400e206a98f66", "rental_uris": {"android": "https://dc.lft.to/lastmile_qr_scan", "ios": "https://dc.lft.to/lastmile_qr_scan"}}, {"is_disabled": 0, "lon": -77.0228095, "lat": 38.89835733333334, "name": "b784c617d21db49ad94085db560a76c8", "fusion_lon": 0.0, "fusion_lat": 0.0, "is_reserved": 0, "type": "electric_scooter", "bike_id": "b784c617d21db49ad94085db560a76c8", "rental_uris": {"android": "https://dc.lft.to/lastmile_qr_scan", "ios": "https://dc.lft.to/lastmile_qr_scan"}}, {"is_disabled": 0, "lon": -77.0187185, "lat": 38.9141625, "name": "2be9d7b64fed2c8683b90267fb09f380", "fusion_lon": 0.0, "fusion_lat": 0.0, "is_reserved": 0, "type": "electric_scooter", "bike_id": "2be9d7b64fed2c8683b90267fb09f380", "rental_uris": {"android": "https://dc.lft.to/lastmile_qr_scan", "ios": "https://dc.lft.to/lastmile_qr_scan"}}, {"is_disabled": 0, "lon": -77.02107783333334, "lat": 38.9217565, "name": "f543823c079e7bcc3774d347a4b843a5", "fusion_lon": 0.0, "fusion_lat": 0.0, "is_reserved": 0, "type": "electric_scooter", "bike_id": "f543823c079e7bcc3774d347a4b843a5", "rental_uris": {"android": "https://dc.lft.to/lastmile_qr_scan", "ios": "https://dc.lft.to/lastmile_qr_scan"}}, {"is_disabled": 0, "lon": -77.042294, "lat": 38.921731666666666, "name": "f6c72a57a31f92cb00c0b1114da3ed38", "fusion_lon": 0.0, "fusion_lat": 0.0, "is_reserved": 0, "type": "electric_scooter", "bike_id": "f6c72a57a31f92cb00c0b1114da3ed38", "rental_uris": {"android": "https://dc.lft.to/lastmile_qr_scan", "ios": "https://dc.lft.to/lastmile_qr_scan"}}, {"is_disabled": 0, "lon": -77.02815616666666, "lat": 38.8964705, "name": "dd0f62beabddc605d8090bab1f363018", "fusion_lon": 0.0, "fusion_lat": 0.0, "is_reserved": 0, "type": "electric_scooter", "bike_id": "dd0f62beabddc605d8090bab1f363018", "rental_uris": {"android": "https://dc.lft.to/lastmile_qr_scan", "ios": "https://dc.lft.to/lastmile_qr_scan"}}, {"is_disabled": 0, "lon": -77.04030566666667, "lat": 38.918074, "name": "f3b9705c1cc79cb6ede82be89f5147ac", "fusion_lon": 0.0, "fusion_lat": 0.0, "is_reserved": 0, "type": "electric_scooter", "bike_id": "f3b9705c1cc79cb6ede82be89f5147ac", "rental_uris": {"android": "https://dc.lft.to/lastmile_qr_scan", "ios": "https://dc.lft.to/lastmile_qr_scan"}}, {"is_disabled": 0, "lon": -77.025261, "lat": 38.92088783333333, "name": "73ac06577b4c8167d87daf92c225eef5", "fusion_lon": 0.0, "fusion_lat": 0.0, "is_reserved": 0, "type": "electric_scooter", "bike_id": "73ac06577b4c8167d87daf92c225eef5", "rental_uris": {"android": "https://dc.lft.to/lastmile_qr_scan", "ios": "https://dc.lft.to/lastmile_qr_scan"}}, {"is_disabled": 0, "lon": -77.00332666666667, "lat": 38.893571333333334, "name": "9703608d5c084af2dc7ccb3a7ef2099b", "fusion_lon": 0.0, "fusion_lat": 0.0, "is_reserved": 0, "type": "electric_scooter", "bike_id": "9703608d5c084af2dc7ccb3a7ef2099b", "rental_uris": {"android": "https://dc.lft.to/lastmile_qr_scan", "ios": "https://dc.lft.to/lastmile_qr_scan"}}, {"is_disabled": 0, "lon": -77.020239, "lat": 38.92446316666667, "name": "1111f17aa4fb64379ac618186f0c687d", "fusion_lon": 0.0, "fusion_lat": 0.0, "is_reserved": 0, "type": "electric_scooter", "bike_id": "1111f17aa4fb64379ac618186f0c687d", "rental_uris": {"android": "https://dc.lft.to/lastmile_qr_scan", "ios": "https://dc.lft.to/lastmile_qr_scan"}}, {"is_disabled": 0, "lon": -77.04475383333333, "lat": 38.89745816666667, "name": "965522ea6fac62363be598ce669e0d4a", "fusion_lon": 0.0, "fusion_lat": 0.0, "is_reserved": 0, "type": "electric_scooter", "bike_id": "965522ea6fac62363be598ce669e0d4a", "rental_uris": {"android": "https://dc.lft.to/lastmile_qr_scan", "ios": "https://dc.lft.to/lastmile_qr_scan"}}, {"is_disabled": 0, "lon": -77.04056966666667, "lat": 38.918426, "name": "0ac58df8a483b13bac544ad143d4dc05", "fusion_lon": 0.0, "fusion_lat": 0.0, "is_reserved": 0, "type": "electric_scooter", "bike_id": "0ac58df8a483b13bac544ad143d4dc05", "rental_uris": {"android": "https://dc.lft.to/lastmile_qr_scan", "ios": "https://dc.lft.to/lastmile_qr_scan"}}, {"is_disabled": 0, "lon": -77.0256635, "lat": 38.887478333333334, "name": "7ad8b02877719ec3cc970ce8a4ad5440", "fusion_lon": 0.0, "fusion_lat": 0.0, "is_reserved": 0, "type": "electric_scooter", "bike_id": "7ad8b02877719ec3cc970ce8a4ad5440", "rental_uris": {"android": "https://dc.lft.to/lastmile_qr_scan", "ios": "https://dc.lft.to/lastmile_qr_scan"}}, {"is_disabled": 0, "lon": -77.02973783333333, "lat": 38.901522, "name": "4abf1c6830edfa8cf2cf8c2281f49773", "fusion_lon": 0.0, "fusion_lat": 0.0, "is_reserved": 0, "type": "electric_scooter", "bike_id": "4abf1c6830edfa8cf2cf8c2281f49773", "rental_uris": {"android": "https://dc.lft.to/lastmile_qr_scan", "ios": "https://dc.lft.to/lastmile_qr_scan"}}, {"is_disabled": 0, "lon": -77.0227515, "lat": 38.92691283333333, "name": "fe5a2f50057fff72f3cb7c93f233b7fb", "fusion_lon": 0.0, "fusion_lat": 0.0, "is_reserved": 0, "type": "electric_scooter", "bike_id": "fe5a2f50057fff72f3cb7c93f233b7fb", "rental_uris": {"android": "https://dc.lft.to/lastmile_qr_scan", "ios": "https://dc.lft.to/lastmile_qr_scan"}}, {"is_disabled": 0, "lon": -77.01333533333333, "lat": 38.8812275, "name": "33d35ac19843af5540a1fbca835855ae", "fusion_lon": 0.0, "fusion_lat": 0.0, "is_reserved": 0, "type": "electric_scooter", "bike_id": "33d35ac19843af5540a1fbca835855ae", "rental_uris": {"android": "https://dc.lft.to/lastmile_qr_scan", "ios": "https://dc.lft.to/lastmile_qr_scan"}}, {"is_disabled": 0, "lon": -77.039757, "lat": 38.8989375, "name": "c047b98913eb67b5d41c7ea3ce3dd9a8", "fusion_lon": 0.0, "fusion_lat": 0.0, "is_reserved": 0, "type": "electric_scooter", "bike_id": "c047b98913eb67b5d41c7ea3ce3dd9a8", "rental_uris": {"android": "https://dc.lft.to/lastmile_qr_scan", "ios": "https://dc.lft.to/lastmile_qr_scan"}}, {"is_disabled": 0, "lon": -77.02566333333333, "lat": 38.94201016666667, "name": "f68f59a0c80283b2f457b098f6a81fe4", "fusion_lon": 0.0, "fusion_lat": 0.0, "is_reserved": 0, "type": "electric_scooter", "bike_id": "f68f59a0c80283b2f457b098f6a81fe4", "rental_uris": {"android": "https://dc.lft.to/lastmile_qr_scan", "ios": "https://dc.lft.to/lastmile_qr_scan"}}, {"is_disabled": 0, "lon": -77.03258216666667, "lat": 38.93304533333333, "name": "cbed1edf3bde54dd3f0455043509a9c5", "fusion_lon": 0.0, "fusion_lat": 0.0, "is_reserved": 0, "type": "electric_scooter", "bike_id": "cbed1edf3bde54dd3f0455043509a9c5", "rental_uris": {"android": "https://dc.lft.to/lastmile_qr_scan", "ios": "https://dc.lft.to/lastmile_qr_scan"}}, {"is_disabled": 0, "lon": -77.02550533333333, "lat": 38.9056155, "name": "a60e593c2b2dfcf953546c55445da962", "fusion_lon": 0.0, "fusion_lat": 0.0, "is_reserved": 0, "type": "electric_scooter", "bike_id": "a60e593c2b2dfcf953546c55445da962", "rental_uris": {"android": "https://dc.lft.to/lastmile_qr_scan", "ios": "https://dc.lft.to/lastmile_qr_scan"}}, {"is_disabled": 0, "lon": -77.03196466666667, "lat": 38.915653666666664, "name": "604c2c42f90fdcf99e263c7b69d674d3", "fusion_lon": 0.0, "fusion_lat": 0.0, "is_reserved": 0, "type": "electric_scooter", "bike_id": "604c2c42f90fdcf99e263c7b69d674d3", "rental_uris": {"android": "https://dc.lft.to/lastmile_qr_scan", "ios": "https://dc.lft.to/lastmile_qr_scan"}}, {"is_disabled": 0, "lon": -77.03203783333333, "lat": 38.919222, "name": "b14d45d7cc9561098881b7e92f4990ff", "fusion_lon": 0.0, "fusion_lat": 0.0, "is_reserved": 0, "type": "electric_scooter", "bike_id": "b14d45d7cc9561098881b7e92f4990ff", "rental_uris": {"android": "https://dc.lft.to/lastmile_qr_scan", "ios": "https://dc.lft.to/lastmile_qr_scan"}}, {"is_disabled": 0, "lon": -77.0969945, "lat": 38.886930166666666, "name": "288dd95b5f2d3af2a7a618085794a06c", "fusion_lon": 0.0, "fusion_lat": 0.0, "is_reserved": 0, "type": "electric_bike", "bike_id": "288dd95b5f2d3af2a7a618085794a06c", "rental_uris": {"android": "https://dc.lft.to/lastmile_qr_scan", "ios": "https://dc.lft.to/lastmile_qr_scan"}}, {"is_disabled": 0, "lon": -77.0363325, "lat": 38.92702283333333, "name": "237d5609780554ca6afb1689acf35282", "fusion_lon": 0.0, "fusion_lat": 0.0, "is_reserved": 0, "type": "electric_scooter", "bike_id": "237d5609780554ca6afb1689acf35282", "rental_uris": {"android": "https://dc.lft.to/lastmile_qr_scan", "ios": "https://dc.lft.to/lastmile_qr_scan"}}, {"is_disabled": 0, "lon": -77.02171683333333, "lat": 38.92000766666666, "name": "dbebb8ff2adfde9a19078b50dfc68f7e", "fusion_lon": 0.0, "fusion_lat": 0.0, "is_reserved": 0, "type": "electric_scooter", "bike_id": "dbebb8ff2adfde9a19078b50dfc68f7e", "rental_uris": {"android": "https://dc.lft.to/lastmile_qr_scan", "ios": "https://dc.lft.to/lastmile_qr_scan"}}, {"is_disabled": 0, "lon": -77.019468, "lat": 38.9241855, "name": "7de9f8b942a1457e850c5f4eace2572d", "fusion_lon": 0.0, "fusion_lat": 0.0, "is_reserved": 0, "type": "electric_scooter", "bike_id": "7de9f8b942a1457e850c5f4eace2572d", "rental_uris": {"android": "https://dc.lft.to/lastmile_qr_scan", "ios": "https://dc.lft.to/lastmile_qr_scan"}}, {"is_disabled": 0, "lon": -77.05513616666667, "lat": 38.928399166666665, "name": "4791b422c6726b096b1b5877ecd64bfd", "fusion_lon": 0.0, "fusion_lat": 0.0, "is_reserved": 0, "type": "electric_scooter", "bike_id": "4791b422c6726b096b1b5877ecd64bfd", "rental_uris": {"android": "https://dc.lft.to/lastmile_qr_scan", "ios": "https://dc.lft.to/lastmile_qr_scan"}}, {"is_disabled": 0, "lon": -77.0256855, "lat": 38.912630666666665, "name": "2073476f7ad74d6754e5572397ad7f4d", "fusion_lon": 0.0, "fusion_lat": 0.0, "is_reserved": 0, "type": "electric_scooter", "bike_id": "2073476f7ad74d6754e5572397ad7f4d", "rental_uris": {"android": "https://dc.lft.to/lastmile_qr_scan", "ios": "https://dc.lft.to/lastmile_qr_scan"}}, {"is_disabled": 0, "lon": -77.0299895, "lat": 38.90265983333333, "name": "63365db6c121a03760f55fbdb70ddc3c", "fusion_lon": 0.0, "fusion_lat": 0.0, "is_reserved": 0, "type": "electric_scooter", "bike_id": "63365db6c121a03760f55fbdb70ddc3c", "rental_uris": {"android": "https://dc.lft.to/lastmile_qr_scan", "ios": "https://dc.lft.to/lastmile_qr_scan"}}, {"is_disabled": 0, "lon": -77.00426066666667, "lat": 38.9295385, "name": "a69a2cef1c217c822c027a39e144ac45", "fusion_lon": 0.0, "fusion_lat": 0.0, "is_reserved": 0, "type": "electric_scooter", "bike_id": "a69a2cef1c217c822c027a39e144ac45", "rental_uris": {"android": "https://dc.lft.to/lastmile_qr_scan", "ios": "https://dc.lft.to/lastmile_qr_scan"}}, {"is_disabled": 0, "lon": -77.038092, "lat": 38.931025, "name": "954d4948ba2f8134b18f2367f116e86d", "fusion_lon": 0.0, "fusion_lat": 0.0, "is_reserved": 0, "type": "electric_scooter", "bike_id": "954d4948ba2f8134b18f2367f116e86d", "rental_uris": {"android": "https://dc.lft.to/lastmile_qr_scan", "ios": "https://dc.lft.to/lastmile_qr_scan"}}, {"is_disabled": 0, "lon": -77.03292833333333, "lat": 38.91415633333333, "name": "9b08ababcfe1acec2f4a989af6f1b729", "fusion_lon": 0.0, "fusion_lat": 0.0, "is_reserved": 0, "type": "electric_scooter", "bike_id": "9b08ababcfe1acec2f4a989af6f1b729", "rental_uris": {"android": "https://dc.lft.to/lastmile_qr_scan", "ios": "https://dc.lft.to/lastmile_qr_scan"}}, {"is_disabled": 0, "lon": -76.96711566666667, "lat": 38.8597535, "name": "6c7b46bdb5aac85ef946e5a2eeb7b1f9", "fusion_lon": 0.0, "fusion_lat": 0.0, "is_reserved": 0, "type": "electric_scooter", "bike_id": "6c7b46bdb5aac85ef946e5a2eeb7b1f9", "rental_uris": {"android": "https://dc.lft.to/lastmile_qr_scan", "ios": "https://dc.lft.to/lastmile_qr_scan"}}, {"is_disabled": 0, "lon": -77.02530016666667, "lat": 38.920737, "name": "947add1dfe03001684ae967228e677aa", "fusion_lon": 0.0, "fusion_lat": 0.0, "is_reserved": 0, "type": "electric_scooter", "bike_id": "947add1dfe03001684ae967228e677aa", "rental_uris": {"android": "https://dc.lft.to/lastmile_qr_scan", "ios": "https://dc.lft.to/lastmile_qr_scan"}}, {"is_disabled": 0, "lon": -77.10994533333333, "lat": 38.87712966666667, "name": "837557e6f1dd6fd991dc2e6684e455e8", "fusion_lon": 0.0, "fusion_lat": 0.0, "is_reserved": 0, "type": "electric_scooter", "bike_id": "837557e6f1dd6fd991dc2e6684e455e8", "rental_uris": {"android": "https://dc.lft.to/lastmile_qr_scan", "ios": "https://dc.lft.to/lastmile_qr_scan"}}, {"is_disabled": 0, "lon": -77.03091633333334, "lat": 38.895491, "name": "25e54f9d64f3f2a35cc359419e5d890d", "fusion_lon": 0.0, "fusion_lat": 0.0, "is_reserved": 0, "type": "electric_scooter", "bike_id": "25e54f9d64f3f2a35cc359419e5d890d", "rental_uris": {"android": "https://dc.lft.to/lastmile_qr_scan", "ios": "https://dc.lft.to/lastmile_qr_scan"}}, {"is_disabled": 0, "lon": -77.0319705, "lat": 38.897227, "name": "dd8d24e95023c180ea64c88228e14bd9", "fusion_lon": 0.0, "fusion_lat": 0.0, "is_reserved": 0, "type": "electric_scooter", "bike_id": "dd8d24e95023c180ea64c88228e14bd9", "rental_uris": {"android": "https://dc.lft.to/lastmile_qr_scan", "ios": "https://dc.lft.to/lastmile_qr_scan"}}, {"is_disabled": 0, "lon": -77.034438, "lat": 38.90808283333333, "name": "5e5135e893da7a77185abe37fcfdb4ee", "fusion_lon": 0.0, "fusion_lat": 0.0, "is_reserved": 0, "type": "electric_scooter", "bike_id": "5e5135e893da7a77185abe37fcfdb4ee", "rental_uris": {"android": "https://dc.lft.to/lastmile_qr_scan", "ios": "https://dc.lft.to/lastmile_qr_scan"}}, {"is_disabled": 0, "lon": -77.03442966666667, "lat": 38.909783, "name": "34eefa9beb74cc1d68af0a257465ed82", "fusion_lon": 0.0, "fusion_lat": 0.0, "is_reserved": 0, "type": "electric_scooter", "bike_id": "34eefa9beb74cc1d68af0a257465ed82", "rental_uris": {"android": "https://dc.lft.to/lastmile_qr_scan", "ios": "https://dc.lft.to/lastmile_qr_scan"}}, {"is_disabled": 0, "lon": -76.99762166666666, "lat": 38.9004855, "name": "82767cf9e4a5559d5de9208216d20f48", "fusion_lon": 0.0, "fusion_lat": 0.0, "is_reserved": 0, "type": "electric_scooter", "bike_id": "82767cf9e4a5559d5de9208216d20f48", "rental_uris": {"android": "https://dc.lft.to/lastmile_qr_scan", "ios": "https://dc.lft.to/lastmile_qr_scan"}}, {"is_disabled": 0, "lon": -77.12838183333334, "lat": 38.800555333333335, "name": "af6eb3f1580633ab524448264bc09c0f", "fusion_lon": 0.0, "fusion_lat": 0.0, "is_reserved": 0, "type": "electric_bike", "bike_id": "af6eb3f1580633ab524448264bc09c0f", "rental_uris": {"android": "https://dc.lft.to/lastmile_qr_scan", "ios": "https://dc.lft.to/lastmile_qr_scan"}}, {"is_disabled": 0, "lon": -77.01087883333334, "lat": 38.91626616666667, "name": "260736e9238bc2737f66b11dac822068", "fusion_lon": 0.0, "fusion_lat": 0.0, "is_reserved": 0, "type": "electric_scooter", "bike_id": "260736e9238bc2737f66b11dac822068", "rental_uris": {"android": "https://dc.lft.to/lastmile_qr_scan", "ios": "https://dc.lft.to/lastmile_qr_scan"}}, {"is_disabled": 0, "lon": -77.0444355, "lat": 38.922284166666664, "name": "11a0ec016d33fe7763a0248fd517a101", "fusion_lon": 0.0, "fusion_lat": 0.0, "is_reserved": 0, "type": "electric_scooter", "bike_id": "11a0ec016d33fe7763a0248fd517a101", "rental_uris": {"android": "https://dc.lft.to/lastmile_qr_scan", "ios": "https://dc.lft.to/lastmile_qr_scan"}}, {"is_disabled": 0, "lon": -77.0070905, "lat": 38.8849455, "name": "9ac0b3fa7a3607429e63922bc39be9ac", "fusion_lon": 0.0, "fusion_lat": 0.0, "is_reserved": 0, "type": "electric_scooter", "bike_id": "9ac0b3fa7a3607429e63922bc39be9ac", "rental_uris": {"android": "https://dc.lft.to/lastmile_qr_scan", "ios": "https://dc.lft.to/lastmile_qr_scan"}}, {"is_disabled": 0, "lon": -77.02274583333333, "lat": 38.898413833333336, "name": "e0414913e2c8dc46026f57f74c539a4d", "fusion_lon": 0.0, "fusion_lat": 0.0, "is_reserved": 0, "type": "electric_scooter", "bike_id": "e0414913e2c8dc46026f57f74c539a4d", "rental_uris": {"android": "https://dc.lft.to/lastmile_qr_scan", "ios": "https://dc.lft.to/lastmile_qr_scan"}}, {"is_disabled": 0, "lon": -77.043012, "lat": 38.931844, "name": "9bd7f02b4a32b194dcbc9107cf58050d", "fusion_lon": 0.0, "fusion_lat": 0.0, "is_reserved": 0, "type": "electric_scooter", "bike_id": "9bd7f02b4a32b194dcbc9107cf58050d", "rental_uris": {"android": "https://dc.lft.to/lastmile_qr_scan", "ios": "https://dc.lft.to/lastmile_qr_scan"}}, {"is_disabled": 0, "lon": -77.00371066666666, "lat": 38.8973115, "name": "b5f267a0b051e696ce120aac9f8197a9", "fusion_lon": 0.0, "fusion_lat": 0.0, "is_reserved": 0, "type": "electric_scooter", "bike_id": "b5f267a0b051e696ce120aac9f8197a9", "rental_uris": {"android": "https://dc.lft.to/lastmile_qr_scan", "ios": "https://dc.lft.to/lastmile_qr_scan"}}, {"is_disabled": 0, "lon": -77.01987816666667, "lat": 38.876070666666664, "name": "6e96bc4d90e181eef95fd4085448983e", "fusion_lon": 0.0, "fusion_lat": 0.0, "is_reserved": 0, "type": "electric_scooter", "bike_id": "6e96bc4d90e181eef95fd4085448983e", "rental_uris": {"android": "https://dc.lft.to/lastmile_qr_scan", "ios": "https://dc.lft.to/lastmile_qr_scan"}}, {"is_disabled": 0, "lon": -77.00164966666667, "lat": 38.91911916666667, "name": "718764e7ac4337f6833a6dcc81fe0164", "fusion_lon": 0.0, "fusion_lat": 0.0, "is_reserved": 0, "type": "electric_scooter", "bike_id": "718764e7ac4337f6833a6dcc81fe0164", "rental_uris": {"android": "https://dc.lft.to/lastmile_qr_scan", "ios": "https://dc.lft.to/lastmile_qr_scan"}}, {"is_disabled": 0, "lon": -77.02969466666667, "lat": 38.90731483333333, "name": "37e96e5a92aace27ccdab3cd84b1d928", "fusion_lon": 0.0, "fusion_lat": 0.0, "is_reserved": 0, "type": "electric_scooter", "bike_id": "37e96e5a92aace27ccdab3cd84b1d928", "rental_uris": {"android": "https://dc.lft.to/lastmile_qr_scan", "ios": "https://dc.lft.to/lastmile_qr_scan"}}, {"is_disabled": 0, "lon": -77.00676733333333, "lat": 38.90011166666667, "name": "c2d0ee77dac2fcd652fb44843278d118", "fusion_lon": 0.0, "fusion_lat": 0.0, "is_reserved": 0, "type": "electric_scooter", "bike_id": "c2d0ee77dac2fcd652fb44843278d118", "rental_uris": {"android": "https://dc.lft.to/lastmile_qr_scan", "ios": "https://dc.lft.to/lastmile_qr_scan"}}, {"is_disabled": 0, "lon": -77.10212016666667, "lat": 38.91998383333333, "name": "7a8e193a0c68b465686f3fbc4a64006b", "fusion_lon": 0.0, "fusion_lat": 0.0, "is_reserved": 0, "type": "electric_bike", "bike_id": "7a8e193a0c68b465686f3fbc4a64006b", "rental_uris": {"android": "https://dc.lft.to/lastmile_qr_scan", "ios": "https://dc.lft.to/lastmile_qr_scan"}}, {"is_disabled": 0, "lon": -77.0341255, "lat": 38.93090883333333, "name": "cc6ce38b2cfd17b703fc1c24946aaf2c", "fusion_lon": 0.0, "fusion_lat": 0.0, "is_reserved": 0, "type": "electric_scooter", "bike_id": "cc6ce38b2cfd17b703fc1c24946aaf2c", "rental_uris": {"android": "https://dc.lft.to/lastmile_qr_scan", "ios": "https://dc.lft.to/lastmile_qr_scan"}}, {"is_disabled": 0, "lon": -77.04542483333333, "lat": 38.9073755, "name": "bb92873bdbeeda274cda2064a1641201", "fusion_lon": 0.0, "fusion_lat": 0.0, "is_reserved": 0, "type": "electric_scooter", "bike_id": "bb92873bdbeeda274cda2064a1641201", "rental_uris": {"android": "https://dc.lft.to/lastmile_qr_scan", "ios": "https://dc.lft.to/lastmile_qr_scan"}}, {"is_disabled": 0, "lon": -77.0021325, "lat": 38.900225166666665, "name": "b1bd61d54b68817821e90fce1ab70e02", "fusion_lon": 0.0, "fusion_lat": 0.0, "is_reserved": 0, "type": "electric_scooter", "bike_id": "b1bd61d54b68817821e90fce1ab70e02", "rental_uris": {"android": "https://dc.lft.to/lastmile_qr_scan", "ios": "https://dc.lft.to/lastmile_qr_scan"}}, {"is_disabled": 0, "lon": -76.98688916666667, "lat": 38.94471566666667, "name": "464f966e4c924cfb5e4d65dab5bc9c73", "fusion_lon": 0.0, "fusion_lat": 0.0, "is_reserved": 0, "type": "electric_bike", "bike_id": "464f966e4c924cfb5e4d65dab5bc9c73", "rental_uris": {"android": "https://dc.lft.to/lastmile_qr_scan", "ios": "https://dc.lft.to/lastmile_qr_scan"}}, {"is_disabled": 0, "lon": -77.0201215, "lat": 38.92409, "name": "c85b833c13d00e37a606dc8f8a67564c", "fusion_lon": 0.0, "fusion_lat": 0.0, "is_reserved": 0, "type": "electric_scooter", "bike_id": "c85b833c13d00e37a606dc8f8a67564c", "rental_uris": {"android": "https://dc.lft.to/lastmile_qr_scan", "ios": "https://dc.lft.to/lastmile_qr_scan"}}, {"is_disabled": 0, "lon": -77.086194, "lat": 38.931294333333334, "name": "5ab5fb50e19cbe85b76753c6df9026c2", "fusion_lon": 0.0, "fusion_lat": 0.0, "is_reserved": 0, "type": "electric_bike", "bike_id": "5ab5fb50e19cbe85b76753c6df9026c2", "rental_uris": {"android": "https://dc.lft.to/lastmile_qr_scan", "ios": "https://dc.lft.to/lastmile_qr_scan"}}, {"is_disabled": 0, "lon": -76.96265783333334, "lat": 38.96786433333333, "name": "8cf2e2a6b1e03d1a1600371571dd0146", "fusion_lon": 0.0, "fusion_lat": 0.0, "is_reserved": 0, "type": "electric_bike", "bike_id": "8cf2e2a6b1e03d1a1600371571dd0146", "rental_uris": {"android": "https://dc.lft.to/lastmile_qr_scan", "ios": "https://dc.lft.to/lastmile_qr_scan"}}, {"is_disabled": 0, "lon": -77.03625566666666, "lat": 38.97297783333333, "name": "104f8f1329228cd66fc079a71d0e2259", "fusion_lon": 0.0, "fusion_lat": 0.0, "is_reserved": 0, "type": "electric_bike", "bike_id": "104f8f1329228cd66fc079a71d0e2259", "rental_uris": {"android": "https://dc.lft.to/lastmile_qr_scan", "ios": "https://dc.lft.to/lastmile_qr_scan"}}, {"is_disabled": 0, "lon": -76.96917266666667, "lat": 38.8461945, "name": "33faaef6510b02de18d4bbfc2fe2aa05", "fusion_lon": 0.0, "fusion_lat": 0.0, "is_reserved": 0, "type": "electric_bike", "bike_id": "33faaef6510b02de18d4bbfc2fe2aa05", "rental_uris": {"android": "https://dc.lft.to/lastmile_qr_scan", "ios": "https://dc.lft.to/lastmile_qr_scan"}}, {"is_disabled": 0, "lon": -77.01869, "lat": 38.8765765, "name": "01af937e84f71f098b9c73c32d2ef3b5", "fusion_lon": 0.0, "fusion_lat": 0.0, "is_reserved": 0, "type": "electric_scooter", "bike_id": "01af937e84f71f098b9c73c32d2ef3b5", "rental_uris": {"android": "https://dc.lft.to/lastmile_qr_scan", "ios": "https://dc.lft.to/lastmile_qr_scan"}}, {"is_disabled": 0, "lon": -77.02819016666666, "lat": 38.90466083333333, "name": "2016f0a6adb1c6b2d064167107067aa0", "fusion_lon": 0.0, "fusion_lat": 0.0, "is_reserved": 0, "type": "electric_scooter", "bike_id": "2016f0a6adb1c6b2d064167107067aa0", "rental_uris": {"android": "https://dc.lft.to/lastmile_qr_scan", "ios": "https://dc.lft.to/lastmile_qr_scan"}}, {"is_disabled": 0, "lon": -77.08405966666666, "lat": 38.913028833333335, "name": "57feb8732789cde7f7c42956c369f75e", "fusion_lon": 0.0, "fusion_lat": 0.0, "is_reserved": 0, "type": "electric_bike", "bike_id": "57feb8732789cde7f7c42956c369f75e", "rental_uris": {"android": "https://dc.lft.to/lastmile_qr_scan", "ios": "https://dc.lft.to/lastmile_qr_scan"}}, {"is_disabled": 0, "lon": -77.032618, "lat": 38.934026, "name": "79d868c870618f56080786156902f6ae", "fusion_lon": 0.0, "fusion_lat": 0.0, "is_reserved": 0, "type": "electric_scooter", "bike_id": "79d868c870618f56080786156902f6ae", "rental_uris": {"android": "https://dc.lft.to/lastmile_qr_scan", "ios": "https://dc.lft.to/lastmile_qr_scan"}}, {"is_disabled": 0, "lon": -76.96096683333333, "lat": 38.91864133333333, "name": "13fa20a3f1127cdc8451e78019d918f3", "fusion_lon": 0.0, "fusion_lat": 0.0, "is_reserved": 0, "type": "electric_bike", "bike_id": "13fa20a3f1127cdc8451e78019d918f3", "rental_uris": {"android": "https://dc.lft.to/lastmile_qr_scan", "ios": "https://dc.lft.to/lastmile_qr_scan"}}, {"is_disabled": 0, "lon": -77.02206316666667, "lat": 38.964927, "name": "018d3ee87e50b4641fe8b019ad9ed42b", "fusion_lon": 0.0, "fusion_lat": 0.0, "is_reserved": 0, "type": "electric_bike", "bike_id": "018d3ee87e50b4641fe8b019ad9ed42b", "rental_uris": {"android": "https://dc.lft.to/lastmile_qr_scan", "ios": "https://dc.lft.to/lastmile_qr_scan"}}, {"is_disabled": 0, "lon": -77.011908, "lat": 38.89797316666667, "name": "42d2e7c34683b5078c47415c0bfa7af5", "fusion_lon": 0.0, "fusion_lat": 0.0, "is_reserved": 0, "type": "electric_scooter", "bike_id": "42d2e7c34683b5078c47415c0bfa7af5", "rental_uris": {"android": "https://dc.lft.to/lastmile_qr_scan", "ios": "https://dc.lft.to/lastmile_qr_scan"}}, {"is_disabled": 0, "lon": -77.03217433333333, "lat": 38.917846, "name": "ce6c245a375be8e642628d88b7a976ee", "fusion_lon": 0.0, "fusion_lat": 0.0, "is_reserved": 0, "type": "electric_scooter", "bike_id": "ce6c245a375be8e642628d88b7a976ee", "rental_uris": {"android": "https://dc.lft.to/lastmile_qr_scan", "ios": "https://dc.lft.to/lastmile_qr_scan"}}, {"is_disabled": 0, "lon": -77.02580766666667, "lat": 38.925252, "name": "a26f3fca8eab4a96d1a59c66e7abfacf", "fusion_lon": 0.0, "fusion_lat": 0.0, "is_reserved": 0, "type": "electric_scooter", "bike_id": "a26f3fca8eab4a96d1a59c66e7abfacf", "rental_uris": {"android": "https://dc.lft.to/lastmile_qr_scan", "ios": "https://dc.lft.to/lastmile_qr_scan"}}, {"is_disabled": 0, "lon": -77.02095783333333, "lat": 38.9215705, "name": "78ad84dd64d020addb828942fe2e2c85", "fusion_lon": 0.0, "fusion_lat": 0.0, "is_reserved": 0, "type": "electric_scooter", "bike_id": "78ad84dd64d020addb828942fe2e2c85", "rental_uris": {"android": "https://dc.lft.to/lastmile_qr_scan", "ios": "https://dc.lft.to/lastmile_qr_scan"}}, {"is_disabled": 0, "lon": -77.0186515, "lat": 38.9515275, "name": "db8cdae811207c0a7572376e37daebd9", "fusion_lon": 0.0, "fusion_lat": 0.0, "is_reserved": 0, "type": "electric_scooter", "bike_id": "db8cdae811207c0a7572376e37daebd9", "rental_uris": {"android": "https://dc.lft.to/lastmile_qr_scan", "ios": "https://dc.lft.to/lastmile_qr_scan"}}, {"is_disabled": 0, "lon": -77.03898183333334, "lat": 38.9013315, "name": "371c428c6ba6e30b9ac0daafdb21771a", "fusion_lon": 0.0, "fusion_lat": 0.0, "is_reserved": 0, "type": "electric_scooter", "bike_id": "371c428c6ba6e30b9ac0daafdb21771a", "rental_uris": {"android": "https://dc.lft.to/lastmile_qr_scan", "ios": "https://dc.lft.to/lastmile_qr_scan"}}, {"is_disabled": 0, "lon": -77.00054466666667, "lat": 38.900248500000004, "name": "9d52a480af46c7613f727dceed8ad36e", "fusion_lon": 0.0, "fusion_lat": 0.0, "is_reserved": 0, "type": "electric_scooter", "bike_id": "9d52a480af46c7613f727dceed8ad36e", "rental_uris": {"android": "https://dc.lft.to/lastmile_qr_scan", "ios": "https://dc.lft.to/lastmile_qr_scan"}}, {"is_disabled": 0, "lon": -77.059975, "lat": 38.9022125, "name": "922c58249ef3549a11d6b33e6ae0a1d0", "fusion_lon": 0.0, "fusion_lat": 0.0, "is_reserved": 0, "type": "electric_scooter", "bike_id": "922c58249ef3549a11d6b33e6ae0a1d0", "rental_uris": {"android": "https://dc.lft.to/lastmile_qr_scan", "ios": "https://dc.lft.to/lastmile_qr_scan"}},