{"data": {"bikes": [{"is_disabled": 0, "fusion_lon": 0.0, "fusion_lat": 0.0, "lat": 38.942735666666664, "type": "electric_scooter", "lon": -77.0325995, "bike_id": "863c68ad133bfbe21be8c936fe0b7e6c", "rental_uris": {"android": "https://dc.lft.to/lastmile_qr_scan", "ios": "https://dc.lft.to/lastmile_qr_scan"}, "name": "863c68ad133bfbe21be8c936fe0b7e6c", "is_reserved": 0}, {"is_disabled": 0, "fusion_lon": 0.0, "fusion_lat": 0.0, "lat": 38.9299765, "type": "electric_scooter", "lon": -77.03214166666666, "bike_id": "f243fff8901139b740abfd851d2033ef", "rental_uris": {"android": "https://dc.lft.to/lastmile_qr_scan", "ios": "https://dc.lft.to/lastmile_qr_scan"}, "name": "f243fff8901139b740abfd851d2033ef", "is_reserved": 0}, {"is_disabled": 0, "fusion_lon": 0.0, "fusion_lat": 0.0, "lat": 38.84291783333333, "type": "electric_scooter", "lon": -76.99946916666667, "bike_id": "fbfaac953a88ea1c630419b33fedb3b7", "rental_uris": {"android": "https://dc.lft.to/lastmile_qr_scan", "ios": "https://dc.lft.to/lastmile_qr_scan"}, "name": "fbfaac953a88ea1c630419b33fedb3b7", "is_reserved": 0}, {"is_disabled": 0, "fusion_lon": 0.0, "fusion_lat": 0.0, "lat": 38.913378333333334, "type": "electric_scooter", "lon": -77.03168716666667, "bike_id": "74eb74c65cbb0ac939b298113c9e7626", "rental_uris": {"android": "https://dc.lft.to/lastmile_qr_scan", "ios": "https://dc.lft.to/lastmile_qr_scan"}, "name": "74eb74c65cbb0ac939b298113c9e7626", "is_reserved": 0}, {"is_disabled": 0, "fusion_lon": 0.0, "fusion_lat": 0.0, "lat": 38.920326, "type": "electric_scooter", "lon": -77.03121283333333, "bike_id": "99ae5f0c1ad31257c655d25b5b7bb200", "rental_uris": {"android": "https://dc.lft.to/lastmile_qr_scan", "ios": "https://dc.lft.to/lastmile_qr_scan"}, "name": "99ae5f0c1ad31257c655d25b5b7bb200", "is_reserved": 0}, {"is_disabled": 0, "fusion_lon": 0.0, "fusion_lat": 0.0, "lat": 38.887422, "type": "electric_scooter", "lon": -77.0161025, "bike_id": "04b9739137341c2f201568ad253020ff", "rental_uris": {"android": "https://dc.lft.to/lastmile_qr_scan", "ios": "https://dc.lft.to/lastmile_qr_scan"}, "name": "04b9739137341c2f201568ad253020ff", "is_reserved": 0}, {"is_disabled": 0, "fusion_lon": 0.0, "fusion_lat": 0.0, "lat": 38.94046516666667, "type": "electric_scooter", "lon": -77.02495, "bike_id": "29839a0d702e47e2f9aac224b42551b2", "rental_uris": {"android": "https://dc.lft.to/lastmile_qr_scan", "ios": "https://dc.lft.to/lastmile_qr_scan"}, "name": "29839a0d702e47e2f9aac224b42551b2", "is_reserved": 0}, {"is_disabled": 0, "fusion_lon": 0.0, "fusion_lat": 0.0, "lat": 38.89908916666667, "type": "electric_scooter", "lon": -76.933933, "bike_id": "ed2682c6e3dfa1c283811edf70f76487", "rental_uris": {"android": "https://dc.lft.to/lastmile_qr_scan", "ios": "https://dc.lft.to/lastmile_qr_scan"}, "name": "ed2682c6e3dfa1c283811edf70f76487", "is_reserved": 0}, {"is_disabled": 0, "fusion_lon": 0.0, "fusion_lat": 0.0, "lat": 38.96450166666666, "type": "electric_bike", "lon": -76.977226, "bike_id": "36d3df253fa2824ccc9adb38762538e1", "rental_uris": {"android": "https://dc.lft.to/lastmile_qr_scan", "ios": "https://dc.lft.to/lastmile_qr_scan"}, "name": "36d3df253fa2824ccc9adb38762538e1", "is_reserved": 0}, {"is_disabled": 0, "fusion_lon": 0.0, "fusion_lat": 0.0, "lat": 39.030037, "type": "electric_bike", "lon": -77.1065545, "bike_id": "41c808b5ef7dbb9c33f75025644b783b", "rental_uris": {"android": "https://dc.lft.to/lastmile_qr_scan", "ios": "https://dc.lft.to/lastmile_qr_scan"}, "name": "41c808b5ef7dbb9c33f75025644b783b", "is_reserved": 0}, {"is_disabled": 0, "fusion_lon": 0.0, "fusion_lat": 0.0, "lat": 38.91184783333333, "type": "electric_scooter", "lon": -77.01093116666667, "bike_id": "ed52ec79825c6098f696e306bfd98946", "rental_uris": {"android": "https://dc.lft.to/lastmile_qr_scan", "ios": "https://dc.lft.to/lastmile_qr_scan"}, "name": "ed52ec79825c6098f696e306bfd98946", "is_reserved": 0}, {"is_disabled": 0, "fusion_lon": 0.0, "fusion_lat": 0.0, "lat": 38.85850083333333, "type": "electric_bike", "lon": -77.0975225, "bike_id": "5e4e0d20bfc808adeb125d490e33d6d5", "rental_uris": {"android": "https://dc.lft.to/lastmile_qr_scan", "ios": "https://dc.lft.to/lastmile_qr_scan"}, "name": "5e4e0d20bfc808adeb125d490e33d6d5", "is_reserved": 0}, {"is_disabled": 0, "fusion_lon": 0.0, "fusion_lat": 0.0, "lat": 38.968057333333334, "type": "electric_scooter", "lon": -77.021266, "bike_id": "6d77447ce9443fa925e11785d104190d", "rental_uris": {"android": "https://dc.lft.to/lastmile_qr_scan", "ios": "https://dc.lft.to/lastmile_qr_scan"}, "name": "6d77447ce9443fa925e11785d104190d", "is_reserved": 0}, {"is_disabled": 0, "fusion_lon": 0.0, "fusion_lat": 0.0, "lat": 38.88021083333334, "type": "electric_scooter", "lon": -76.98236383333334, "bike_id": "2fa461a12870ccde4f4a3dfa66b23cc7", "rental_uris": {"android": "https://dc.lft.to/lastmile_qr_scan", "ios": "https://dc.lft.to/lastmile_qr_scan"}, "name": "2fa461a12870ccde4f4a3dfa66b23cc7", "is_reserved": 0}, {"is_disabled": 0, "fusion_lon": 0.0, "fusion_lat": 0.0, "lat": 38.97165533333333, "type": "electric_bike", "lon": -76.98020266666667, "bike_id": "cde03d4601ba4f466ac4b3a76fdb68a0", "rental_uris": {"android": "https://dc.lft.to/lastmile_qr_scan", "ios": "https://dc.lft.to/lastmile_qr_scan"}, "name": "cde03d4601ba4f466ac4b3a76fdb68a0", "is_reserved": 0}, {"is_disabled": 0, "fusion_lon": 0.0, "fusion_lat": 0.0, "lat": 38.883188, "type": "electric_scooter", "lon": -77.01656833333334, "bike_id": "b8100ee8f3a804fa0e7d781222379cc7", "rental_uris": {"android": "https://dc.lft.to/lastmile_qr_scan", "ios": "https://dc.lft.to/lastmile_qr_scan"}, "name": "b8100ee8f3a804fa0e7d781222379cc7", "is_reserved": 0}, {"is_disabled": 0, "fusion_lon": 0.0, "fusion_lat": 0.0, "lat": 38.9408345, "type": "electric_scooter", "lon": -77.0381695, "bike_id": "6a6cfc925c579b30adff223c36bfe2af", "rental_uris": {"android": "https://dc.lft.to/lastmile_qr_scan", "ios": "https://dc.lft.to/lastmile_qr_scan"}, "name": "6a6cfc925c579b30adff223c36bfe2af", "is_reserved": 0}, {"is_disabled": 0, "fusion_lon": 0.0, "fusion_lat": 0.0, "lat": 38.918018000000004, "type": "electric_scooter", "lon": -77.03377933333333, "bike_id": "a9214dad3d97e65738e748faaa2d17be", "rental_uris": {"android": "https://dc.lft.to/lastmile_qr_scan", "ios": "https://dc.lft.to/lastmile_qr_scan"}, "name": "a9214dad3d97e65738e748faaa2d17be", "is_reserved": 0}, {"is_disabled": 0, "fusion_lon": 0.0, "fusion_lat": 0.0, "lat": 38.90107916666667, "type": "electric_scooter", "lon": -77.01754383333333, "bike_id": "d2535bfd2b78eac4d4f3274bad09683e", "rental_uris": {"android": "https://dc.lft.to/lastmile_qr_scan", "ios": "https://dc.lft.to/lastmile_qr_scan"}, "name": "d2535bfd2b78eac4d4f3274bad09683e", "is_reserved": 0}, {"is_disabled": 0, "fusion_lon": 0.0, "fusion_lat": 0.0, "lat": 38.893527, "type": "electric_scooter", "lon": -76.98468816666667, "bike_id": "8eda16b0c2ffc0a55dbe219454d14d61", "rental_uris": {"android": "https://dc.lft.to/lastmile_qr_scan", "ios": "https://dc.lft.to/lastmile_qr_scan"}, "name": "8eda16b0c2ffc0a55dbe219454d14d61", "is_reserved": 0}, {"is_disabled": 0, "fusion_lon": 0.0, "fusion_lat": 0.0, "lat": 38.90132583333333, "type": "electric_scooter", "lon": -77.03983516666666, "bike_id": "5cee16923870e20eb87246a13de0d168", "rental_uris": {"android": "https://dc.lft.to/lastmile_qr_scan", "ios": "https://dc.lft.to/lastmile_qr_scan"}, "name": "5cee16923870e20eb87246a13de0d168", "is_reserved": 0}, {"is_disabled": 0, "fusion_lon": 0.0, "fusion_lat": 0.0, "lat": 38.892494666666664, "type": "electric_scooter", "lon": -77.0334665, "bike_id": "e37625fbf9cefff7bf441eecacf2ab13", "rental_uris": {"android": "https://dc.lft.to/lastmile_qr_scan", "ios": "https://dc.lft.to/lastmile_qr_scan"}, "name": "e37625fbf9cefff7bf441eecacf2ab13", "is_reserved": 0}, {"is_disabled": 0, "fusion_lon": 0.0, "fusion_lat": 0.0, "lat": 38.970511, "type": "electric_bike", "lon": -77.030874, "bike_id": "ac42a497087cc8ce3c4a227b5527c470", "rental_uris": {"android": "https://dc.lft.to/lastmile_qr_scan", "ios": "https://dc.lft.to/lastmile_qr_scan"}, "name": "ac42a497087cc8ce3c4a227b5527c470", "is_reserved": 0}, {"is_disabled": 0, "fusion_lon": 0.0, "fusion_lat": 0.0, "lat": 38.90245083333333, "type": "electric_bike", "lon": -76.97016733333334, "bike_id": "d07520f36eaba476813bf2ccd0b7ae2f", "rental_uris": {"android": "https://dc.lft.to/lastmile_qr_scan", "ios": "https://dc.lft.to/lastmile_qr_scan"}, "name": "d07520f36eaba476813bf2ccd0b7ae2f", "is_reserved": 0}, {"is_disabled": 0, "fusion_lon": 0.0, "fusion_lat": 0.0, "lat": 38.884858333333334, "type": "electric_scooter", "lon": -77.022053, "bike_id": "c7ef0873102544431e65e26e5e3c9c79", "rental_uris": {"android": "https://dc.lft.to/lastmile_qr_scan", "ios": "https://dc.lft.to/lastmile_qr_scan"}, "name": "c7ef0873102544431e65e26e5e3c9c79", "is_reserved": 0}, {"is_disabled": 0, "fusion_lon": 0.0, "fusion_lat": 0.0, "lat": 38.89195, "type": "electric_scooter", "lon": -77.00297566666667, "bike_id": "77c1d32d0bb6fb0893d203b12b1f9319", "rental_uris": {"android": "https://dc.lft.to/lastmile_qr_scan", "ios": "https://dc.lft.to/lastmile_qr_scan"}, "name": "77c1d32d0bb6fb0893d203b12b1f9319", "is_reserved": 0}, {"is_disabled": 0, "fusion_lon": 0.0, "fusion_lat": 0.0, "lat": 38.900812333333334, "type": "electric_scooter", "lon": -77.034416, "bike_id": "c76f7d302e0c813f044f776bcb374fae", "rental_uris": {"android": "https://dc.lft.to/lastmile_qr_scan", "ios": "https://dc.lft.to/lastmile_qr_scan"}, "name": "c76f7d302e0c813f044f776bcb374fae", "is_reserved": 0}, {"is_disabled": 0, "fusion_lon": 0.0, "fusion_lat": 0.0, "lat": 38.8484725, "type": "electric_bike", "lon": -77.08051, "bike_id": "b07a408449526d568b1c5d2077720a59", "rental_uris": {"android": "https://dc.lft.to/lastmile_qr_scan", "ios": "https://dc.lft.to/lastmile_qr_scan"}, "name": "b07a408449526d568b1c5d2077720a59", "is_reserved": 0}, {"is_disabled": 0, "fusion_lon": 0.0, "fusion_lat": 0.0, "lat": 38.895180333333336, "type": "electric_scooter", "lon": -77.02803, "bike_id": "1bf295c829eac6a537fc3c8d8d30f239", "rental_uris": {"android": "https://dc.lft.to/lastmile_qr_scan", "ios": "https://dc.lft.to/lastmile_qr_scan"}, "name": "1bf295c829eac6a537fc3c8d8d30f239", "is_reserved": 0}, {"is_disabled": 0, "fusion_lon": 0.0, "fusion_lat": 0.0, "lat": 38.922697666666664, "type": "electric_scooter", "lon": -77.04202033333334, "bike_id": "2304c5d3f096a56e69c5bbad2c8464d3", "rental_uris": {"android": "https://dc.lft.to/lastmile_qr_scan", "ios": "https://dc.lft.to/lastmile_qr_scan"}, "name": "2304c5d3f096a56e69c5bbad2c8464d3", "is_reserved": 0}, {"is_disabled": 0, "fusion_lon": 0.0, "fusion_lat": 0.0, "lat": 38.930518166666666, "type": "electric_scooter", "lon": -77.02649016666666, "bike_id": "4ca23d6e5c27908a762049b2b837a79c", "rental_uris": {"android": "https://dc.lft.to/lastmile_qr_scan", "ios": "https://dc.lft.to/lastmile_qr_scan"}, "name": "4ca23d6e5c27908a762049b2b837a79c", "is_reserved": 0}, {"is_disabled": 0, "fusion_lon": 0.0, "fusion_lat": 0.0, "lat": 38.904281833333336, "type": "electric_bike", "lon": -77.02776566666667, "bike_id": "a58073c30afd6e328049083a055d5693", "rental_uris": {"android": "https://dc.lft.to/lastmile_qr_scan", "ios": "https://dc.lft.to/lastmile_qr_scan"}, "name": "a58073c30afd6e328049083a055d5693", "is_reserved": 0}, {"is_disabled": 0, "fusion_lon": 0.0, "fusion_lat": 0.0, "lat": 38.914731833333335, "type": "electric_scooter", "lon": -77.02803, "bike_id": "abbf8c4ceef3e923959f9aba651da0e9", "rental_uris": {"android": "https://dc.lft.to/lastmile_qr_scan", "ios": "https://dc.lft.to/lastmile_qr_scan"}, "name": "abbf8c4ceef3e923959f9aba651da0e9", "is_reserved": 0}, {"is_disabled": 0, "fusion_lon": 0.0, "fusion_lat": 0.0, "lat": 38.9070455, "type": "electric_scooter", "lon": -77.02689833333334, "bike_id": "78054a32b748a202d8da4cf878da7cb4", "rental_uris": {"android": "https://dc.lft.to/lastmile_qr_scan", "ios": "https://dc.lft.to/lastmile_qr_scan"}, "name": "78054a32b748a202d8da4cf878da7cb4", "is_reserved": 0}, {"is_disabled": 0, "fusion_lon": 0.0, "fusion_lat": 0.0, "lat": 38.92998883333333, "type": "electric_scooter", "lon": -77.02183416666666, "bike_id": "beb6b896341e4b02fb26b57f61cdb887", "rental_uris": {"android": "https://dc.lft.to/lastmile_qr_scan", "ios": "https://dc.lft.to/lastmile_qr_scan"}, "name": "beb6b896341e4b02fb26b57f61cdb887", "is_reserved": 0}, {"is_disabled": 0, "fusion_lon": 0.0, "fusion_lat": 0.0, "lat": 38.933899833333335, "type": "electric_scooter", "lon": -77.027252, "bike_id": "0b72ddfd58cfac5eabeaf8b4f8d9b494", "rental_uris": {"android": "https://dc.lft.to/lastmile_qr_scan", "ios": "https://dc.lft.to/lastmile_qr_scan"}, "name": "0b72ddfd58cfac5eabeaf8b4f8d9b494", "is_reserved": 0}, {"is_disabled": 0, "fusion_lon": 0.0, "fusion_lat": 0.0, "lat": 38.91766233333333, "type": "electric_scooter", "lon": -77.02341183333333, "bike_id": "0e3958fdd77c1605237f13934ee1e782", "rental_uris": {"android": "https://dc.lft.to/lastmile_qr_scan", "ios": "https://dc.lft.to/lastmile_qr_scan"}, "name": "0e3958fdd77c1605237f13934ee1e782", "is_reserved": 0}, {"is_disabled": 0, "fusion_lon": 0.0, "fusion_lat": 0.0, "lat": 38.87632266666667, "type": "electric_scooter", "lon": -76.96531216666666, "bike_id": "ef3526bf65596627c40ea8d05d5b00b7", "rental_uris": {"android": "https://dc.lft.to/lastmile_qr_scan", "ios": "https://dc.lft.to/lastmile_qr_scan"}, "name": "ef3526bf65596627c40ea8d05d5b00b7", "is_reserved": 0}, {"is_disabled": 0, "fusion_lon": 0.0, "fusion_lat": 0.0, "lat": 38.9621985, "type": "electric_scooter", "lon": -77.02802116666666, "bike_id": "691c8de9fd267f3eeb93bc6c0d597335", "rental_uris": {"android": "https://dc.lft.to/lastmile_qr_scan", "ios": "https://dc.lft.to/lastmile_qr_scan"}, "name": "691c8de9fd267f3eeb93bc6c0d597335", "is_reserved": 0}, {"is_disabled": 0, "fusion_lon": 0.0, "fusion_lat": 0.0, "lat": 38.860436166666666, "type": "electric_scooter", "lon": -76.9837455, "bike_id": "39e7ea217b03a3af77dffd8d8e44d4b7", "rental_uris": {"android": "https://dc.lft.to/lastmile_qr_scan", "ios": "https://dc.lft.to/lastmile_qr_scan"}, "name": "39e7ea217b03a3af77dffd8d8e44d4b7", "is_reserved": 0}, {"is_disabled": 0, "fusion_lon": 0.0, "fusion_lat": 0.0, "lat": 38.894743, "type": "electric_scooter", "lon": -76.99526233333333, "bike_id": "58119a15b444f5856e79a28fda293bea", "rental_uris": {"android": "https://dc.lft.to/lastmile_qr_scan", "ios": "https://dc.lft.to/lastmile_qr_scan"}, "name": "58119a15b444f5856e79a28fda293bea", "is_reserved": 0}, {"is_disabled": 0, "fusion_lon": 0.0, "fusion_lat": 0.0, "lat": 38.92676516666667, "type": "electric_scooter", "lon": -77.027067, "bike_id": "266a0d988ffa3a46dce44f7ac84ed079", "rental_uris": {"android": "https://dc.lft.to/lastmile_qr_scan", "ios": "https://dc.lft.to/lastmile_qr_scan"}, "name": "266a0d988ffa3a46dce44f7ac84ed079", "is_reserved": 0}, {"is_disabled": 0, "fusion_lon": 0.0, "fusion_lat": 0.0, "lat": 38.961242666666664, "type": "electric_scooter", "lon": -77.028144, "bike_id": "6db66eb1b354d2a6873484ffaa71aeb4", "rental_uris": {"android": "https://dc.lft.to/lastmile_qr_scan", "ios": "https://dc.lft.to/lastmile_qr_scan"}, "name": "6db66eb1b354d2a6873484ffaa71aeb4", "is_reserved": 0}, {"is_disabled": 0, "fusion_lon": 0.0, "fusion_lat": 0.0, "lat": 38.921104, "type": "electric_scooter", "lon": -77.01761733333333, "bike_id": "4f44db9c1dd9b0c51127511933b26d00", "rental_uris": {"android": "https://dc.lft.to/lastmile_qr_scan", "ios": "https://dc.lft.to/lastmile_qr_scan"}, "name": "4f44db9c1dd9b0c51127511933b26d00", "is_reserved": 0}, {"is_disabled": 0, "fusion_lon": 0.0, "fusion_lat": 0.0, "lat": 38.892974833333334, "type": "electric_scooter", "lon": -77.02134066666666, "bike_id": "32d384b0fd526e24ad2a81b8a48512fc", "rental_uris": {"android": "https://dc.lft.to/lastmile_qr_scan", "ios": "https://dc.lft.to/lastmile_qr_scan"}, "name": "32d384b0fd526e24ad2a81b8a48512fc", "is_reserved": 0}, {"is_disabled": 0, "fusion_lon": 0.0, "fusion_lat": 0.0, "lat": 38.949834833333334, "type": "electric_scooter", "lon": -77.0270395, "bike_id": "48f91f313bc5838ffe9b794367c074c5", "rental_uris": {"android": "https://dc.lft.to/lastmile_qr_scan", "ios": "https://dc.lft.to/lastmile_qr_scan"}, "name": "48f91f313bc5838ffe9b794367c074c5", "is_reserved": 0}, {"is_disabled": 0, "fusion_lon": 0.0, "fusion_lat": 0.0, "lat": 38.865140833333335, "type": "electric_scooter", "lon": -76.9732855, "bike_id": "b5f12d7ea7d4d7440584441d5d46dcc1", "rental_uris": {"android": "https://dc.lft.to/lastmile_qr_scan", "ios": "https://dc.lft.to/lastmile_qr_scan"}, "name": "b5f12d7ea7d4d7440584441d5d46dcc1", "is_reserved": 0}, {"is_disabled": 0, "fusion_lon": 0.0, "fusion_lat": 0.0, "lat": 38.858108333333334, "type": "electric_scooter", "lon": -76.98964816666667, "bike_id": "7f0599bee36f697f23b94dede8b4523f", "rental_uris": {"android": "https://dc.lft.to/lastmile_qr_scan", "ios": "https://dc.lft.to/lastmile_qr_scan"}, "name": "7f0599bee36f697f23b94dede8b4523f", "is_reserved": 0}, {"is_disabled": 0, "fusion_lon": 0.0, "fusion_lat": 0.0, "lat": 38.9029895, "type": "electric_scooter", "lon": -77.02372616666666, "bike_id": "029e9e6f9924ebe4b26151657182f6ae", "rental_uris": {"android": "https://dc.lft.to/lastmile_qr_scan", "ios": "https://dc.lft.to/lastmile_qr_scan"}, "name": "029e9e6f9924ebe4b26151657182f6ae", "is_reserved": 0}, {"is_disabled": 0, "fusion_lon": 0.0, "fusion_lat": 0.0, "lat": 38.907708, "type": "electric_scooter", "lon": -77.0353745, "bike_id": "dcfa671bdfcb1a0602d002135f07141e", "rental_uris": {"android": "https://dc.lft.to/lastmile_qr_scan", "ios": "https://dc.lft.to/lastmile_qr_scan"}, "name": "dcfa671bdfcb1a0602d002135f07141e", "is_reserved": 0}, {"is_disabled": 0, "fusion_lon": 0.0, "fusion_lat": 0.0, "lat": 38.904696, "type": "electric_scooter", "lon": -76.99207916666667, "bike_id": "151b43ba6d22409cd9b909cd59c6daa9", "rental_uris": {"android": "https://dc.lft.to/lastmile_qr_scan", "ios": "https://dc.lft.to/lastmile_qr_scan"}, "name": "151b43ba6d22409cd9b909cd59c6daa9", "is_reserved": 0}, {"is_disabled": 0, "fusion_lon": 0.0, "fusion_lat": 0.0, "lat": 38.90683333333333, "type": "electric_scooter", "lon": -76.984845, "bike_id": "1a194acbe3ff2d2457fa57bbccb6ff5d", "rental_uris": {"android": "https://dc.lft.to/lastmile_qr_scan", "ios": "https://dc.lft.to/lastmile_qr_scan"}, "name": "1a194acbe3ff2d2457fa57bbccb6ff5d", "is_reserved": 0}, {"is_disabled": 0, "fusion_lon": 0.0, "fusion_lat": 0.0, "lat": 38.930435833333334, "type": "electric_scooter", "lon": -76.99631583333333, "bike_id": "3078b3fd68305b91705b063ba1cd2d90", "rental_uris": {"android": "https://dc.lft.to/lastmile_qr_scan", "ios": "https://dc.lft.to/lastmile_qr_scan"}, "name": "3078b3fd68305b91705b063ba1cd2d90", "is_reserved": 0}, {"is_disabled": 0, "fusion_lon": 0.0, "fusion_lat": 0.0, "lat": 38.922298, "type": "electric_scooter", "lon": -77.02335183333334, "bike_id": "a442177c6f56e8e172faccf4db6bdfbc", "rental_uris": {"android": "https://dc.lft.to/lastmile_qr_scan", "ios": "https://dc.lft.to/lastmile_qr_scan"}, "name": "a442177c6f56e8e172faccf4db6bdfbc", "is_reserved": 0}, {"is_disabled": 0, "fusion_lon": 0.0, "fusion_lat": 0.0, "lat": 38.92262, "type": "electric_scooter", "lon": -77.07132366666667, "bike_id": "9436bb4939a91ccbcf1ad45b8be1ee42", "rental_uris": {"android": "https://dc.lft.to/lastmile_qr_scan", "ios": "https://dc.lft.to/lastmile_qr_scan"}, "name": "9436bb4939a91ccbcf1ad45b8be1ee42", "is_reserved": 0}, {"is_disabled": 0, "fusion_lon": 0.0, "fusion_lat": 0.0, "lat": 38.914248, "type": "electric_scooter", "lon": -77.02812466666667, "bike_id": "e9dc30dd561a978920fa2c33ccf50ba7", "rental_uris": {"android": "https://dc.lft.to/lastmile_qr_scan", "ios": "https://dc.lft.to/lastmile_qr_scan"}, "name": "e9dc30dd561a978920fa2c33ccf50ba7", "is_reserved": 0}, {"is_disabled": 0, "fusion_lon": 0.0, "fusion_lat": 0.0, "lat": 38.911139666666664, "type": "electric_scooter", "lon": -77.03257016666667, "bike_id": "bed3561d685f63d9314835493badc3e9", "rental_uris": {"android": "https://dc.lft.to/lastmile_qr_scan", "ios": "https://dc.lft.to/lastmile_qr_scan"}, "name": "bed3561d685f63d9314835493badc3e9", "is_reserved": 0}, {"is_disabled": 0, "fusion_lon": 0.0, "fusion_lat": 0.0, "lat": 38.91684433333333, "type": "electric_scooter", "lon": -77.02461383333333, "bike_id": "3cdce60f44784cb6d11618a226865c7e", "rental_uris": {"android": "https://dc.lft.to/lastmile_qr_scan", "ios": "https://dc.lft.to/lastmile_qr_scan"}, "name": "3cdce60f44784cb6d11618a226865c7e", "is_reserved": 0}, {"is_disabled": 0, "fusion_lon": 0.0, "fusion_lat": 0.0, "lat": 38.918862833333336, "type": "electric_scooter", "lon": -77.0442135, "bike_id": "ec6b2879a700d464f33af23ff9e56b32", "rental_uris": {"android": "https://dc.lft.to/lastmile_qr_scan", "ios": "https://dc.lft.to/lastmile_qr_scan"}, "name": "ec6b2879a700d464f33af23ff9e56b32", "is_reserved": 0}, {"is_disabled": 0, "fusion_lon": 0.0, "fusion_lat": 0.0, "lat": 38.919291, "type": "electric_scooter", "lon": -77.03371883333334, "bike_id": "3a75af71de8d08068e7d7be6802540fe", "rental_uris": {"android": "https://dc.lft.to/lastmile_qr_scan", "ios": "https://dc.lft.to/lastmile_qr_scan"}, "name": "3a75af71de8d08068e7d7be6802540fe", "is_reserved": 0}, {"is_disabled": 0, "fusion_lon": 0.0, "fusion_lat": 0.0, "lat": 38.903620833333335, "type": "electric_scooter", "lon": -77.02603966666666, "bike_id": "504898478aeeb803fd52b3e36837aab8", "rental_uris": {"android": "https://dc.lft.to/lastmile_qr_scan", "ios": "https://dc.lft.to/lastmile_qr_scan"}, "name": "504898478aeeb803fd52b3e36837aab8", "is_reserved": 0}, {"is_disabled": 0, "fusion_lon": 0.0, "fusion_lat": 0.0, "lat": 38.89615883333333, "type": "electric_scooter", "lon": -76.99635866666667, "bike_id": "c150844f4efd59662dd51dd658866ffa", "rental_uris": {"android": "https://dc.lft.to/lastmile_qr_scan", "ios": "https://dc.lft.to/lastmile_qr_scan"}, "name": "c150844f4efd59662dd51dd658866ffa", "is_reserved": 0}, {"is_disabled": 0, "fusion_lon": 0.0, "fusion_lat": 0.0, "lat": 38.94784883333333, "type": "electric_scooter", "lon": -77.09275116666667, "bike_id": "0394f93b631e9b4b09fec916162f5497", "rental_uris": {"android": "https://dc.lft.to/lastmile_qr_scan", "ios": "https://dc.lft.to/lastmile_qr_scan"}, "name": "0394f93b631e9b4b09fec916162f5497", "is_reserved": 0}, {"is_disabled": 0, "fusion_lon": 0.0, "fusion_lat": 0.0, "lat": 38.90549716666666, "type": "electric_scooter", "lon": -77.0467265, "bike_id": "10406ad26afa3f60aa3c7f3e5f70712c", "rental_uris": {"android": "https://dc.lft.to/lastmile_qr_scan", "ios": "https://dc.lft.to/lastmile_qr_scan"}, "name": "10406ad26afa3f60aa3c7f3e5f70712c", "is_reserved": 0}, {"is_disabled": 0, "fusion_lon": 0.0, "fusion_lat": 0.0, "lat": 38.91870983333333, "type": "electric_bike", "lon": -76.96122183333334, "bike_id": "87e2a338666d0aa974f8d68aa2d9a8f6", "rental_uris": {"android": "https://dc.lft.to/lastmile_qr_scan", "ios": "https://dc.lft.to/lastmile_qr_scan"}, "name": "87e2a338666d0aa974f8d68aa2d9a8f6", "is_reserved": 0}, {"is_disabled": 0, "fusion_lon": 0.0, "fusion_lat": 0.0, "lat": 38.86579833333333, "type": "electric_scooter", "lon": -76.9903635, "bike_id": "464cb509b8d716ae22b9322680f46331", "rental_uris": {"android": "https://dc.lft.to/lastmile_qr_scan", "ios": "https://dc.lft.to/lastmile_qr_scan"}, "name": "464cb509b8d716ae22b9322680f46331", "is_reserved": 0}, {"is_disabled": 0, "fusion_lon": 0.0, "fusion_lat": 0.0, "lat": 38.901766, "type": "electric_scooter", "lon": -76.9282855, "bike_id": "a90ce8135739132a330338a2cd57540b", "rental_uris": {"android": "https://dc.lft.to/lastmile_qr_scan", "ios": "https://dc.lft.to/lastmile_qr_scan"}, "name": "a90ce8135739132a330338a2cd57540b", "is_reserved": 0}, {"is_disabled": 0, "fusion_lon": 0.0, "fusion_lat": 0.0, "lat": 38.92048916666667, "type": "electric_scooter", "lon": -77.01788016666667, "bike_id": "4f0f6e773f669f98b1e05a958f1b681b", "rental_uris": {"android": "https://dc.lft.to/lastmile_qr_scan", "ios": "https://dc.lft.to/lastmile_qr_scan"}, "name": "4f0f6e773f669f98b1e05a958f1b681b", "is_reserved": 0}, {"is_disabled": 0, "fusion_lon": 0.0, "fusion_lat": 0.0, "lat": 38.919377833333336, "type": "electric_scooter", "lon": -76.98069116666667, "bike_id": "0036919d0da696289547e84a3e5f68fe", "rental_uris": {"android": "https://dc.lft.to/lastmile_qr_scan", "ios": "https://dc.lft.to/lastmile_qr_scan"}, "name": "0036919d0da696289547e84a3e5f68fe", "is_reserved": 0}, {"is_disabled": 0, "fusion_lon": 0.0, "fusion_lat": 0.0, "lat": 38.92480583333333, "type": "electric_scooter", "lon": -77.03480683333333, "bike_id": "a7aa2efd8ed7cbf44f58e5ad60008c3b", "rental_uris": {"android": "https://dc.lft.to/lastmile_qr_scan", "ios": "https://dc.lft.to/lastmile_qr_scan"}, "name": "a7aa2efd8ed7cbf44f58e5ad60008c3b", "is_reserved": 0}, {"is_disabled": 0, "fusion_lon": 0.0, "fusion_lat": 0.0, "lat": 38.921110166666665, "type": "electric_scooter", "lon": -77.01760233333333, "bike_id": "7b9f527526f24c0f7c96568b0d8c3f64", "rental_uris": {"android": "https://dc.lft.to/lastmile_qr_scan", "ios": "https://dc.lft.to/lastmile_qr_scan"}, "name": "7b9f527526f24c0f7c96568b0d8c3f64", "is_reserved": 0}, {"is_disabled": 0, "fusion_lon": 0.0, "fusion_lat": 0.0, "lat": 38.89737366666667, "type": "electric_scooter", "lon": -77.0097825, "bike_id": "8ef2e1406ca9eacd5070c9e43389afcd", "rental_uris": {"android": "https://dc.lft.to/lastmile_qr_scan", "ios": "https://dc.lft.to/lastmile_qr_scan"}, "name": "8ef2e1406ca9eacd5070c9e43389afcd", "is_reserved": 0}, {"is_disabled": 0, "fusion_lon": 0.0, "fusion_lat": 0.0, "lat": 38.93002716666667, "type": "electric_scooter", "lon": -77.02091516666667, "bike_id": "90ae44dd55518e467dd091827ef44106", "rental_uris": {"android": "https://dc.lft.to/lastmile_qr_scan", "ios": "https://dc.lft.to/lastmile_qr_scan"}, "name": "90ae44dd55518e467dd091827ef44106", "is_reserved": 0}, {"is_disabled": 0, "fusion_lon": 0.0, "fusion_lat": 0.0, "lat": 38.908499166666665, "type": "electric_scooter", "lon": -77.02056333333333, "bike_id": "c46ee8335732281fbe7517f8e5b851bd", "rental_uris": {"android": "https://dc.lft.to/lastmile_qr_scan", "ios": "https://dc.lft.to/lastmile_qr_scan"}, "name": "c46ee8335732281fbe7517f8e5b851bd", "is_reserved": 0}, {"is_disabled": 0, "fusion_lon": 0.0, "fusion_lat": 0.0, "lat": 38.855076, "type": "electric_bike", "lon": -76.95837016666667, "bike_id": "14dc74a1cb478253e7fdd3475ab0d633", "rental_uris": {"android": "https://dc.lft.to/lastmile_qr_scan", "ios": "https://dc.lft.to/lastmile_qr_scan"}, "name": "14dc74a1cb478253e7fdd3475ab0d633", "is_reserved": 0}, {"is_disabled": 0, "fusion_lon": 0.0, "fusion_lat": 0.0, "lat": 38.9140255, "type": "electric_scooter", "lon": -77.0121945, "bike_id": "5f9147d1c62b4384480afc71c2d6cb33", "rental_uris": {"android": "https://dc.lft.to/lastmile_qr_scan", "ios": "https://dc.lft.to/lastmile_qr_scan"}, "name": "5f9147d1c62b4384480afc71c2d6cb33", "is_reserved": 0}, {"is_disabled": 0, "fusion_lon": 0.0, "fusion_lat": 0.0, "lat": 38.897427, "type": "electric_scooter", "lon": -77.047997, "bike_id": "0915aa9911e74de63c4c025f723ec3a0", "rental_uris": {"android": "https://dc.lft.to/lastmile_qr_scan", "ios": "https://dc.lft.to/lastmile_qr_scan"}, "name": "0915aa9911e74de63c4c025f723ec3a0", "is_reserved": 0}, {"is_disabled": 0, "fusion_lon": 0.0, "fusion_lat": 0.0, "lat": 38.92755583333334, "type": "electric_scooter", "lon": -77.005969, "bike_id": "dfcf222dc5d58ecf774dc47f423568f5", "rental_uris": {"android": "https://dc.lft.to/lastmile_qr_scan", "ios": "https://dc.lft.to/lastmile_qr_scan"}, "name": "dfcf222dc5d58ecf774dc47f423568f5", "is_reserved": 0}, {"is_disabled": 0, "fusion_lon": 0.0, "fusion_lat": 0.0, "lat": 38.903953666666666, "type": "electric_scooter", "lon": -76.99008866666667, "bike_id": "01c227686a46723a3277c888caa156db", "rental_uris": {"android": "https://dc.lft.to/lastmile_qr_scan", "ios": "https://dc.lft.to/lastmile_qr_scan"}, "name": "01c227686a46723a3277c888caa156db", "is_reserved": 0}, {"is_disabled": 0, "fusion_lon": 0.0, "fusion_lat": 0.0, "lat": 38.92972233333333, "type": "electric_scooter", "lon": -77.00700483333334, "bike_id": "4adad6b63b60e264ff28b9a7925b7827", "rental_uris": {"android": "https://dc.lft.to/lastmile_qr_scan", "ios": "https://dc.lft.to/lastmile_qr_scan"}, "name": "4adad6b63b60e264ff28b9a7925b7827", "is_reserved": 0}, {"is_disabled": 0, "fusion_lon": 0.0, "fusion_lat": 0.0, "lat": 38.923299166666666, "type": "electric_scooter", "lon": -77.0417395, "bike_id": "3720dc858a7e363295ed9857ab815446", "rental_uris": {"android": "https://dc.lft.to/lastmile_qr_scan", "ios": "https://dc.lft.to/lastmile_qr_scan"}, "name": "3720dc858a7e363295ed9857ab815446", "is_reserved": 0}, {"is_disabled": 0, "fusion_lon": 0.0, "fusion_lat": 0.0, "lat": 38.90578983333333, "type": "electric_scooter", "lon": -77.055898, "bike_id": "6ab6a133fda5b3bd9f73e946bbccad7a", "rental_uris": {"android": "https://dc.lft.to/lastmile_qr_scan", "ios": "https://dc.lft.to/lastmile_qr_scan"}, "name": "6ab6a133fda5b3bd9f73e946bbccad7a", "is_reserved": 0}, {"is_disabled": 0, "fusion_lon": 0.0, "fusion_lat": 0.0, "lat": 38.90416883333333, "type": "electric_scooter", "lon": -77.02438283333333, "bike_id": "48cecaa2dae1ebb04f2ecc9e73a4e6f3", "rental_uris": {"android": "https://dc.lft.to/lastmile_qr_scan", "ios": "https://dc.lft.to/lastmile_qr_scan"}, "name": "48cecaa2dae1ebb04f2ecc9e73a4e6f3", "is_reserved": 0}, {"is_disabled": 0, "fusion_lon": 0.0, "fusion_lat": 0.0, "lat": 38.852858166666664, "type": "electric_bike", "lon": -76.981547, "bike_id": "274caee51cc4ccb423396a4244cfaa9b", "rental_uris": {"android": "https://dc.lft.to/lastmile_qr_scan", "ios": "https://dc.lft.to/lastmile_qr_scan"}, "name": "274caee51cc4ccb423396a4244cfaa9b", "is_reserved": 0}, {"is_disabled": 0, "fusion_lon": 0.0, "fusion_lat": 0.0, "lat": 38.9047475, "type": "electric_bike", "lon": -76.92945566666667, "bike_id": "4393a5a847411110180d82baff84706b", "rental_uris": {"android": "https://dc.lft.to/lastmile_qr_scan", "ios": "https://dc.lft.to/lastmile_qr_scan"}, "name": "4393a5a847411110180d82baff84706b", "is_reserved": 0}, {"is_disabled": 0, "fusion_lon": 0.0, "fusion_lat": 0.0, "lat": 38.92123333333333, "type": "electric_scooter", "lon": -77.04435083333334, "bike_id": "1afe7c934888ccdd7cf2c50d9d0fcca9", "rental_uris": {"android": "https://dc.lft.to/lastmile_qr_scan", "ios": "https://dc.lft.to/lastmile_qr_scan"}, "name": "1afe7c934888ccdd7cf2c50d9d0fcca9", "is_reserved": 0}, {"is_disabled": 0, "fusion_lon": 0.0, "fusion_lat": 0.0, "lat": 38.92065566666667, "type": "electric_scooter", "lon": -77.042104, "bike_id": "ceab5a751795025393c5502f3f55d64f", "rental_uris": {"android": "https://dc.lft.to/lastmile_qr_scan", "ios": "https://dc.lft.to/lastmile_qr_scan"}, "name": "ceab5a751795025393c5502f3f55d64f", "is_reserved": 0}, {"is_disabled": 0, "fusion_lon": 0.0, "fusion_lat": 0.0, "lat": 38.9001915, "type": "electric_scooter", "lon": -77.03359, "bike_id": "302a2bbadb7e366002e0db9ba845db49", "rental_uris": {"android": "https://dc.lft.to/lastmile_qr_scan", "ios": "https://dc.lft.to/lastmile_qr_scan"}, "name": "302a2bbadb7e366002e0db9ba845db49", "is_reserved": 0}, {"is_disabled": 0, "fusion_lon": 0.0, "fusion_lat": 0.0, "lat": 38.85783216666667, "type": "electric_bike", "lon": -76.98757283333333, "bike_id": "67b1bd34aa6297f043a034ae0198c26e", "rental_uris": {"android": "https://dc.lft.to/lastmile_qr_scan", "ios": "https://dc.lft.to/lastmile_qr_scan"}, "name": "67b1bd34aa6297f043a034ae0198c26e", "is_reserved": 0}, {"is_disabled": 0, "fusion_lon": 0.0, "fusion_lat": 0.0, "lat": 38.91427616666667, "type": "electric_scooter", "lon": -77.03997, "bike_id": "f750ba6e064028b995e7e1a9006226cd", "rental_uris": {"android": "https://dc.lft.to/lastmile_qr_scan", "ios": "https://dc.lft.to/lastmile_qr_scan"}, "name": "f750ba6e064028b995e7e1a9006226cd", "is_reserved": 0}, {"is_disabled": 0, "fusion_lon": 0.0, "fusion_lat": 0.0, "lat": 38.943241666666665, "type": "electric_bike", "lon": -77.0148025, "bike_id": "be66508a3d64dd096447b3d22c225e86", "rental_uris": {"android": "https://dc.lft.to/lastmile_qr_scan", "ios": "https://dc.lft.to/lastmile_qr_scan"}, "name": "be66508a3d64dd096447b3d22c225e86", "is_reserved": 0}, {"is_disabled": 0, "fusion_lon": 0.0, "fusion_lat": 0.0, "lat": 38.917797166666666, "type": "electric_scooter", "lon": -77.0415065, "bike_id": "c0051eb8affbd1bd2274bde9e8b3ce4c", "rental_uris": {"android": "https://dc.lft.to/lastmile_qr_scan", "ios": "https://dc.lft.to/lastmile_qr_scan"}, "name": "c0051eb8affbd1bd2274bde9e8b3ce4c", "is_reserved": 0}, {"is_disabled": 0, "fusion_lon": 0.0, "fusion_lat": 0.0, "lat": 38.889806666666665, "type": "electric_scooter", "lon": -77.002443, "bike_id": "497bee7d08a6e98e16f18d711b323f64", "rental_uris": {"android": "https://dc.lft.to/lastmile_qr_scan", "ios": "https://dc.lft.to/lastmile_qr_scan"}, "name": "497bee7d08a6e98e16f18d711b323f64", "is_reserved": 0}, {"is_disabled": 0, "fusion_lon": 0.0, "fusion_lat": 0.0, "lat": 38.91419766666667, "type": "electric_scooter", "lon": -77.04283366666667, "bike_id": "818f9f5a9f280cf2c99137e901942fac", "rental_uris": {"android": "https://dc.lft.to/lastmile_qr_scan", "ios": "https://dc.lft.to/lastmile_qr_scan"}, "name": "818f9f5a9f280cf2c99137e901942fac", "is_reserved": 0}, {"is_disabled": 0, "fusion_lon": 0.0, "fusion_lat": 0.0, "lat": 38.91447683333333, "type": "electric_scooter", "lon": -77.03217883333333, "bike_id": "662916cf5bdc7e700318cd7f2c06cbf0", "rental_uris": {"android": "https://dc.lft.to/lastmile_qr_scan", "ios": "https://dc.lft.to/lastmile_qr_scan"}, "name": "662916cf5bdc7e700318cd7f2c06cbf0", "is_reserved": 0}, {"is_disabled": 0, "fusion_lon": 0.0, "fusion_lat": 0.0, "lat": 38.906432333333335, "type": "electric_scooter", "lon": -76.98565233333333, "bike_id": "6d47a8d71d65ffa4f555ccfc5aa15d71", "rental_uris": {"android": "https://dc.lft.to/lastmile_qr_scan", "ios": "https://dc.lft.to/lastmile_qr_scan"}, "name": "6d47a8d71d65ffa4f555ccfc5aa15d71", "is_reserved": 0}, {"is_disabled": 0, "fusion_lon": 0.0, "fusion_lat": 0.0, "lat": 38.901414, "type": "electric_scooter", "lon": -76.98962166666666, "bike_id": "b09c80d9129ba5f62187315b76ac6870", "rental_uris": {"android": "https://dc.lft.to/lastmile_qr_scan", "ios": "https://dc.lft.to/lastmile_qr_scan"}, "name": "b09c80d9129ba5f62187315b76ac6870", "is_reserved": 0}, {"is_disabled": 0, "fusion_lon": 0.0, "fusion_lat": 0.0, "lat": 38.90593716666667, "type": "electric_scooter", "lon": -77.07066166666667, "bike_id": "4cd3ed156637a64333f447ea1ca9f106", "rental_uris": {"android": "https://dc.lft.to/lastmile_qr_scan", "ios": "https://dc.lft.to/lastmile_qr_scan"}, "name": "4cd3ed156637a64333f447ea1ca9f106", "is_reserved": 0}, {"is_disabled": 0, "fusion_lon": 0.0, "fusion_lat": 0.0, "lat": 38.917169666666666, "type": "electric_scooter", "lon": -77.098078, "bike_id": "f4168130a41de8f86759052b0ee71369", "rental_uris": {"android": "https://dc.lft.to/lastmile_qr_scan", "ios": "https://dc.lft.to/lastmile_qr_scan"}, "name": "f4168130a41de8f86759052b0ee71369", "is_reserved": 0}, {"is_disabled": 0, "fusion_lon": 0.0, "fusion_lat": 0.0, "lat": 39.026881833333334, "type": "electric_bike", "lon": -77.12595783333333, "bike_id": "396fc6964747dad1fa169ab2e2774abb", "rental_uris": {"android": "https://dc.lft.to/lastmile_qr_scan", "ios": "https://dc.lft.to/lastmile_qr_scan"}, "name": "396fc6964747dad1fa169ab2e2774abb", "is_reserved": 0}, {"is_disabled": 0, "fusion_lon": 0.0, "fusion_lat": 0.0, "lat": 38.858052666666666, "type": "electric_scooter", "lon": -76.986532, "bike_id": "c603171bbf0570449a8c052e6c3b2bb8", "rental_uris": {"android": "https://dc.lft.to/lastmile_qr_scan", "ios": "https://dc.lft.to/lastmile_qr_scan"}, "name": "c603171bbf0570449a8c052e6c3b2bb8", "is_reserved": 0}, {"is_disabled": 0, "fusion_lon": 0.0, "fusion_lat": 0.0, "lat": 38.836051833333336, "type": "electric_scooter", "lon": -77.00361133333334, "bike_id": "088c849205cc33e015727395648f0ca7", "rental_uris": {"android": "https://dc.lft.to/lastmile_qr_scan", "ios": "https://dc.lft.to/lastmile_qr_scan"}, "name": "088c849205cc33e015727395648f0ca7", "is_reserved": 0}, {"is_disabled": 0, "fusion_lon": 0.0, "fusion_lat": 0.0, "lat": 38.915819, "type": "electric_scooter", "lon": -76.98111266666666, "bike_id": "1461a78e43975cf9ef11acfa5afd386a", "rental_uris": {"android": "https://dc.lft.to/lastmile_qr_scan", "ios": "https://dc.lft.to/lastmile_qr_scan"}, "name": "1461a78e43975cf9ef11acfa5afd386a", "is_reserved": 0}, {"is_disabled": 0, "fusion_lon": 0.0, "fusion_lat": 0.0, "lat": 38.91901566666667, "type": "electric_scooter", "lon": -77.02278866666667, "bike_id": "500d7e63d26f4ba4de5725eef29d6429", "rental_uris": {"android": "https://dc.lft.to/lastmile_qr_scan", "ios": "https://dc.lft.to/lastmile_qr_scan"}, "name": "500d7e63d26f4ba4de5725eef29d6429", "is_reserved": 0}, {"is_disabled": 0, "fusion_lon": 0.0, "fusion_lat": 0.0, "lat": 38.84607966666667, "type": "electric_bike", "lon": -76.96881083333334, "bike_id": "0157a2e1d642885b2a65aa4571b02544", "rental_uris": {"android": "https://dc.lft.to/lastmile_qr_scan", "ios": "https://dc.lft.to/lastmile_qr_scan"}, "name": "0157a2e1d642885b2a65aa4571b02544", "is_reserved": 0}, {"is_disabled": 0, "fusion_lon": 0.0, "fusion_lat": 0.0, "lat": 38.96764733333333, "type": "electric_bike", "lon": -77.0916, "bike_id": "86ef784c28d77b50de9d5c46841b5b69", "rental_uris": {"android": "https://dc.lft.to/lastmile_qr_scan", "ios": "https://dc.lft.to/lastmile_qr_scan"}, "name": "86ef784c28d77b50de9d5c46841b5b69", "is_reserved": 0}, {"is_disabled": 0, "fusion_lon": 0.0, "fusion_lat": 0.0, "lat": 38.92819316666667, "type": "electric_scooter", "lon": -77.01410433333334, "bike_id": "13d175489717e5fb53a0958d48428ba2", "rental_uris": {"android": "https://dc.lft.to/lastmile_qr_scan", "ios": "https://dc.lft.to/lastmile_qr_scan"}, "name": "13d175489717e5fb53a0958d48428ba2", "is_reserved": 0}, {"is_disabled": 0, "fusion_lon": 0.0, "fusion_lat": 0.0, "lat": 38.92372483333333, "type": "electric_scooter", "lon": -77.04090216666667, "bike_id": "71f25a8db5ca0eb4665754be987154bc", "rental_uris": {"android": "https://dc.lft.to/lastmile_qr_scan", "ios": "https://dc.lft.to/lastmile_qr_scan"}, "name": "71f25a8db5ca0eb4665754be987154bc", "is_reserved": 0}, {"is_disabled": 0, "fusion_lon": 0.0, "fusion_lat": 0.0, "lat": 38.84198933333333, "type": "electric_bike", "lon": -77.10681816666667, "bike_id": "70e70354092c0469bd194243f39b1d40", "rental_uris": {"android": "https://dc.lft.to/lastmile_qr_scan", "ios": "https://dc.lft.to/lastmile_qr_scan"}, "name": "70e70354092c0469bd194243f39b1d40", "is_reserved": 0}, {"is_disabled": 0, "fusion_lon": 0.0, "fusion_lat": 0.0, "lat": 38.924820833333335, "type": "electric_scooter", "lon": -77.03492233333333, "bike_id": "d1eaabda75b71f93e5222f81c7f7cc76", "rental_uris": {"android": "https://dc.lft.to/lastmile_qr_scan", "ios": "https://dc.lft.to/lastmile_qr_scan"}, "name": "d1eaabda75b71f93e5222f81c7f7cc76", "is_reserved": 0}, {"is_disabled": 0, "fusion_lon": 0.0, "fusion_lat": 0.0, "lat": 38.863214, "type": "electric_scooter", "lon": -76.990522, "bike_id": "2e41446368e412eef0729511bc9e24de", "rental_uris": {"android": "https://dc.lft.to/lastmile_qr_scan", "ios": "https://dc.lft.to/lastmile_qr_scan"}, "name": "2e41446368e412eef0729511bc9e24de", "is_reserved": 0}, {"is_disabled": 0, "fusion_lon": 0.0, "fusion_lat": 0.0, "lat": 38.998826, "type": "electric_bike", "lon": -77.0287895, "bike_id": "3641b78bba8d72df33b37b3180fb8555", "rental_uris": {"android": "https://dc.lft.to/lastmile_qr_scan", "ios": "https://dc.lft.to/lastmile_qr_scan"}, "name": "3641b78bba8d72df33b37b3180fb8555", "is_reserved": 0}, {"is_disabled": 0, "fusion_lon": 0.0, "fusion_lat": 0.0, "lat": 38.893723333333334, "type": "electric_scooter", "lon": -77.02265583333333, "bike_id": "a9fef3ca33f48e7ac81f9bce1acdeb53", "rental_uris": {"android": "https://dc.lft.to/lastmile_qr_scan", "ios": "https://dc.lft.to/lastmile_qr_scan"}, "name": "a9fef3ca33f48e7ac81f9bce1acdeb53", "is_reserved": 0}, {"is_disabled": 0, "fusion_lon": 0.0, "fusion_lat": 0.0, "lat": 38.877640166666666, "type": "electric_bike", "lon": -76.97992483333333, "bike_id": "195eaf020a56766c9eb3ef17451ac2df", "rental_uris": {"android": "https://dc.lft.to/lastmile_qr_scan", "ios": "https://dc.lft.to/lastmile_qr_scan"}, "name": "195eaf020a56766c9eb3ef17451ac2df", "is_reserved": 0}, {"is_disabled": 0, "fusion_lon": 0.0, "fusion_lat": 0.0, "lat": 38.9028325, "type": "electric_scooter", "lon": -77.04892083333333, "bike_id": "207875ae40a844e6d8f827fa17a8b4f8", "rental_uris": {"android": "https://dc.lft.to/lastmile_qr_scan", "ios": "https://dc.lft.to/lastmile_qr_scan"}, "name": "207875ae40a844e6d8f827fa17a8b4f8", "is_reserved": 0}, {"is_disabled": 0, "fusion_lon": 0.0, "fusion_lat": 0.0, "lat": 38.853237666666665, "type": "electric_bike", "lon": -77.053313, "bike_id": "0c3ccb3cd390a1fea4d8887391771094", "rental_uris": {"android": "https://dc.lft.to/lastmile_qr_scan", "ios": "https://dc.lft.to/lastmile_qr_scan"}, "name": "0c3ccb3cd390a1fea4d8887391771094", "is_reserved": 0}, {"is_disabled": 0, "fusion_lon": 0.0, "fusion_lat": 0.0, "lat": 38.921069833333334, "type": "electric_scooter", "lon": -77.01767183333334, "bike_id": "35e23f0514a0605027626b8e2a827a94", "rental_uris": {"android": "https://dc.lft.to/lastmile_qr_scan", "ios": "https://dc.lft.to/lastmile_qr_scan"}, "name": "35e23f0514a0605027626b8e2a827a94", "is_reserved": 0}, {"is_disabled": 0, "fusion_lon": 0.0, "fusion_lat": 0.0, "lat": 38.9396125, "type": "electric_bike", "lon": -77.360909, "bike_id": "27427ac78157a819b68dac67db9b2e87", "rental_uris": {"android": "https://dc.lft.to/lastmile_qr_scan", "ios": "https://dc.lft.to/lastmile_qr_scan"}, "name": "27427ac78157a819b68dac67db9b2e87", "is_reserved": 0}, {"is_disabled": 0, "fusion_lon": 0.0, "fusion_lat": 0.0, "lat": 38.892182166666665, "type": "electric_scooter", "lon": -77.022212, "bike_id": "71a64c3ec934d1f0a1c991d35352d3d4", "rental_uris": {"android": "https://dc.lft.to/lastmile_qr_scan", "ios": "https://dc.lft.to/lastmile_qr_scan"}, "name": "71a64c3ec934d1f0a1c991d35352d3d4", "is_reserved": 0}, {"is_disabled": 0, "fusion_lon": 0.0, "fusion_lat": 0.0, "lat": 38.925779166666665, "type": "electric_scooter", "lon": -77.08052233333333, "bike_id": "df400028995444f68cd91360b06a6b28", "rental_uris": {"android": "https://dc.lft.to/lastmile_qr_scan", "ios": "https://dc.lft.to/lastmile_qr_scan"}, "name": "df400028995444f68cd91360b06a6b28", "is_reserved": 0}, {"is_disabled": 0, "fusion_lon": 0.0, "fusion_lat": 0.0, "lat": 38.92290583333333, "type": "electric_scooter", "lon": -77.04465966666666, "bike_id": "17104dd6b31d29bfd18d43507d4fe82d", "rental_uris": {"android": "https://dc.lft.to/lastmile_qr_scan", "ios": "https://dc.lft.to/lastmile_qr_scan"}, "name": "17104dd6b31d29bfd18d43507d4fe82d", "is_reserved": 0}, {"is_disabled": 0, "fusion_lon": 0.0, "fusion_lat": 0.0, "lat": 38.92468383333333, "type": "electric_scooter", "lon": -77.07866283333334, "bike_id": "9164e3799925ff2126037b4032f5eeb2", "rental_uris": {"android": "https://dc.lft.to/lastmile_qr_scan", "ios": "https://dc.lft.to/lastmile_qr_scan"}, "name": "9164e3799925ff2126037b4032f5eeb2", "is_reserved": 0}, {"is_disabled": 0, "fusion_lon": 0.0, "fusion_lat": 0.0, "lat": 38.94080183333333, "type": "electric_scooter", "lon": -77.028731, "bike_id": "a13424c6a2e59e9d0f21fda59d871e72", "rental_uris": {"android": "https://dc.lft.to/lastmile_qr_scan", "ios": "https://dc.lft.to/lastmile_qr_scan"}, "name": "a13424c6a2e59e9d0f21fda59d871e72", "is_reserved": 0}, {"is_disabled": 0, "fusion_lon": 0.0, "fusion_lat": 0.0, "lat": 38.9011965, "type": "electric_scooter", "lon": -77.0174775, "bike_id": "4f2a40b33f5ad99e5294e2c7a8b49634", "rental_uris": {"android": "https://dc.lft.to/lastmile_qr_scan", "ios": "https://dc.lft.to/lastmile_qr_scan"}, "name": "4f2a40b33f5ad99e5294e2c7a8b49634", "is_reserved": 0}, {"is_disabled": 0, "fusion_lon": 0.0, "fusion_lat": 0.0, "lat": 38.905789666666664, "type": "electric_scooter", "lon": -77.05592583333333, "bike_id": "18c14d3d44d1b0f5be4f03e78d942270", "rental_uris": {"android": "https://dc.lft.to/lastmile_qr_scan", "ios": "https://dc.lft.to/lastmile_qr_scan"}, "name": "18c14d3d44d1b0f5be4f03e78d942270", "is_reserved": 0}, {"is_disabled": 0, "fusion_lon": 0.0, "fusion_lat": 0.0, "lat": 38.895228333333336, "type": "electric_scooter", "lon": -77.04845, "bike_id": "479d448c6621a120230e748b054ffbe3", "rental_uris": {"android": "https://dc.lft.to/lastmile_qr_scan", "ios": "https://dc.lft.to/lastmile_qr_scan"}, "name": "479d448c6621a120230e748b054ffbe3", "is_reserved": 0}, {"is_disabled": 0, "fusion_lon": 0.0, "fusion_lat": 0.0, "lat": 38.865192, "type": "electric_scooter", "lon": -76.98970016666667, "bike_id": "5a393bedc295021f3dd312fb7e0c4a3a", "rental_uris": {"android": "https://dc.lft.to/lastmile_qr_scan", "ios": "https://dc.lft.to/lastmile_qr_scan"}, "name": "5a393bedc295021f3dd312fb7e0c4a3a", "is_reserved": 0}, {"is_disabled": 0, "fusion_lon": 0.0, "fusion_lat": 0.0, "lat": 38.846233166666664, "type": "electric_scooter", "lon": -76.9962915, "bike_id": "0a01e004146071c74ee7f530a1075fd5", "rental_uris": {"android": "https://dc.lft.to/lastmile_qr_scan", "ios": "https://dc.lft.to/lastmile_qr_scan"}, "name": "0a01e004146071c74ee7f530a1075fd5", "is_reserved": 0}, {"is_disabled": 0, "fusion_lon": 0.0, "fusion_lat": 0.0, "lat": 38.89903066666667, "type": "electric_scooter", "lon": -77.0395965, "bike_id": "af62cab50b358960bc28a0274d893910", "rental_uris": {"android": "https://dc.lft.to/lastmile_qr_scan", "ios": "https://dc.lft.to/lastmile_qr_scan"}, "name": "af62cab50b358960bc28a0274d893910", "is_reserved": 0}, {"is_disabled": 0, "fusion_lon": 0.0, "fusion_lat": 0.0, "lat": 38.96012833333333, "type": "electric_scooter", "lon": -77.03315816666667, "bike_id": "b91c96f10ceac4a45c3e276001e1fa88", "rental_uris": {"android": "https://dc.lft.to/lastmile_qr_scan", "ios": "https://dc.lft.to/lastmile_qr_scan"}, "name": "b91c96f10ceac4a45c3e276001e1fa88", "is_reserved": 0}, {"is_disabled": 0, "fusion_lon": 0.0, "fusion_lat": 0.0, "lat": 38.918023833333336, "type": "electric_scooter", "lon": -77.03124233333334, "bike_id": "4aa1e7c70093c732e0383e9c898baabf", "rental_uris": {"android": "https://dc.lft.to/lastmile_qr_scan", "ios": "https://dc.lft.to/lastmile_qr_scan"}, "name": "4aa1e7c70093c732e0383e9c898baabf", "is_reserved": 0}, {"is_disabled": 0, "fusion_lon": 0.0, "fusion_lat": 0.0, "lat": 38.927629333333336, "type": "electric_scooter", "lon": -77.02783466666666, "bike_id": "7e768627f2a23f0dd5e1a1a768ca7795", "rental_uris": {"android": "https://dc.lft.to/lastmile_qr_scan", "ios": "https://dc.lft.to/lastmile_qr_scan"}, "name": "7e768627f2a23f0dd5e1a1a768ca7795", "is_reserved": 0}, {"is_disabled": 0, "fusion_lon": 0.0, "fusion_lat": 0.0, "lat": 38.9033275, "type": "electric_scooter", "lon": -76.980132, "bike_id": "e9238bbb1cdc726a23a8956368660464", "rental_uris": {"android": "https://dc.lft.to/lastmile_qr_scan", "ios": "https://dc.lft.to/lastmile_qr_scan"}, "name": "e9238bbb1cdc726a23a8956368660464", "is_reserved": 0}, {"is_disabled": 0, "fusion_lon": 0.0, "fusion_lat": 0.0, "lat": 38.90044733333333, "type": "electric_scooter", "lon": -76.922715, "bike_id": "82f4ec82df87cafd327d04b32859ac5f", "rental_uris": {"android": "https://dc.lft.to/lastmile_qr_scan", "ios": "https://dc.lft.to/lastmile_qr_scan"}, "name": "82f4ec82df87cafd327d04b32859ac5f", "is_reserved": 0}, {"is_disabled": 0, "fusion_lon": 0.0, "fusion_lat": 0.0, "lat": 38.90165116666667, "type": "electric_scooter", "lon": -77.02927183333334, "bike_id": "c26e667a4bcdea6c4f105527bdfdd2e8", "rental_uris": {"android": "https://dc.lft.to/lastmile_qr_scan", "ios": "https://dc.lft.to/lastmile_qr_scan"}, "name": "c26e667a4bcdea6c4f105527bdfdd2e8", "is_reserved": 0}, {"is_disabled": 0, "fusion_lon": 0.0, "fusion_lat": 0.0, "lat": 38.93482483333333, "type": "electric_scooter", "lon": -77.07252483333333, "bike_id": "48a3212ec2974172fb044274cf6fa636", "rental_uris": {"android": "https://dc.lft.to/lastmile_qr_scan", "ios": "https://dc.lft.to/lastmile_qr_scan"}, "name": "48a3212ec2974172fb044274cf6fa636", "is_reserved": 0}, {"is_disabled": 0, "fusion_lon": 0.0, "fusion_lat": 0.0, "lat": 38.896666333333336, "type": "electric_scooter", "lon": -76.99790233333333, "bike_id": "5a10b97cc32c71fbd4240106cbbd5472", "rental_uris": {"android": "https://dc.lft.to/lastmile_qr_scan", "ios": "https://dc.lft.to/lastmile_qr_scan"}, "name": "5a10b97cc32c71fbd4240106cbbd5472", "is_reserved": 0}, {"is_disabled": 0, "fusion_lon": 0.0, "fusion_lat": 0.0, "lat": 38.9367445, "type": "electric_scooter", "lon": -77.02452, "bike_id": "195c06be7a68ead218470e6d3b05d6ff", "rental_uris": {"android": "https://dc.lft.to/lastmile_qr_scan", "ios": "https://dc.lft.to/lastmile_qr_scan"}, "name": "195c06be7a68ead218470e6d3b05d6ff", "is_reserved": 0}, {"is_disabled": 0, "fusion_lon": 0.0, "fusion_lat": 0.0, "lat": 38.893729, "type": "electric_scooter", "lon": -76.94999183333333, "bike_id": "d8cf5171de9fed3553ece6fcc54da8c7", "rental_uris": {"android": "https://dc.lft.to/lastmile_qr_scan", "ios": "https://dc.lft.to/lastmile_qr_scan"}, "name": "d8cf5171de9fed3553ece6fcc54da8c7", "is_reserved": 0}, {"is_disabled": 0, "fusion_lon": 0.0, "fusion_lat": 0.0, "lat": 38.92710983333333, "type": "electric_scooter", "lon": -77.0233205, "bike_id": "2d5854d219a904f45f8b2dd88bcc1e27", "rental_uris": {"android": "https://dc.lft.to/lastmile_qr_scan", "ios": "https://dc.lft.to/lastmile_qr_scan"}, "name": "2d5854d219a904f45f8b2dd88bcc1e27", "is_reserved": 0}, {"is_disabled": 0, "fusion_lon": 0.0, "fusion_lat": 0.0, "lat": 38.927264, "type": "electric_scooter", "lon": -77.02243, "bike_id": "ea1a4d5efa8ecd059b274f0d66faee41", "rental_uris": {"android": "https://dc.lft.to/lastmile_qr_scan", "ios": "https://dc.lft.to/lastmile_qr_scan"}, "name": "ea1a4d5efa8ecd059b274f0d66faee41", "is_reserved": 0}, {"is_disabled": 0, "fusion_lon": 0.0, "fusion_lat": 0.0, "lat": 38.8612265, "type": "electric_scooter", "lon": -76.98534433333333, "bike_id": "9de8ac799df486f54e96db395f0b9610", "rental_uris": {"android": "https://dc.lft.to/lastmile_qr_scan", "ios": "https://dc.lft.to/lastmile_qr_scan"}, "name": "9de8ac799df486f54e96db395f0b9610", "is_reserved": 0}, {"is_disabled": 0, "fusion_lon": 0.0, "fusion_lat": 0.0, "lat": 38.9362545, "type": "electric_scooter", "lon": -77.05902133333333, "bike_id": "db02ff1bd17c9f0031f4b647a0fc25b1", "rental_uris": {"android": "https://dc.lft.to/lastmile_qr_scan", "ios": "https://dc.lft.to/lastmile_qr_scan"}, "name": "db02ff1bd17c9f0031f4b647a0fc25b1", "is_reserved": 0}, {"is_disabled": 0, "fusion_lon": 0.0, "fusion_lat": 0.0, "lat": 38.890412166666664, "type": "electric_scooter", "lon": -76.95246083333333, "bike_id": "e01a03e53ee318dd762059c247cbda6d", "rental_uris": {"android": "https://dc.lft.to/lastmile_qr_scan", "ios": "https://dc.lft.to/lastmile_qr_scan"}, "name": "e01a03e53ee318dd762059c247cbda6d", "is_reserved": 0}, {"is_disabled": 0, "fusion_lon": 0.0, "fusion_lat": 0.0, "lat": 38.89976, "type": "electric_bike", "lon": -77.01630516666667, "bike_id": "56006b3116dc814b1197e806e601d7a6", "rental_uris": {"android": "https://dc.lft.to/lastmile_qr_scan", "ios": "https://dc.lft.to/lastmile_qr_scan"}, "name": "56006b3116dc814b1197e806e601d7a6", "is_reserved": 0}, {"is_disabled": 0, "fusion_lon": 0.0, "fusion_lat": 0.0, "lat": 38.9056885, "type": "electric_scooter", "lon": -77.04424866666666, "bike_id": "bba0ebaea9af6dca2cf74b272b788ca4", "rental_uris": {"android": "https://dc.lft.to/lastmile_qr_scan", "ios": "https://dc.lft.to/lastmile_qr_scan"}, "name": "bba0ebaea9af6dca2cf74b272b788ca4", "is_reserved": 0}, {"is_disabled": 0, "fusion_lon": 0.0, "fusion_lat": 0.0, "lat": 38.931774, "type": "electric_scooter", "lon": -77.023483, "bike_id": "a51b6b2f96dab101b8759202cacfffe6", "rental_uris": {"android": "https://dc.lft.to/lastmile_qr_scan", "ios": "https://dc.lft.to/lastmile_qr_scan"}, "name": "a51b6b2f96dab101b8759202cacfffe6", "is_reserved": 0}, {"is_disabled": 0, "fusion_lon": 0.0, "fusion_lat": 0.0, "lat": 38.92765766666667, "type": "electric_scooter", "lon": -77.01413533333333, "bike_id": "8b6533442a0b0191a82afecec9a41073", "rental_uris": {"android": "https://dc.lft.to/lastmile_qr_scan", "ios": "https://dc.lft.to/lastmile_qr_scan"}, "name": "8b6533442a0b0191a82afecec9a41073", "is_reserved": 0}, {"is_disabled": 0, "fusion_lon": 0.0, "fusion_lat": 0.0, "lat": 38.9492325, "type": "electric_scooter", "lon": -77.0194675, "bike_id": "03ff8d154f1ab81cf82374b9d047303d", "rental_uris": {"android": "https://dc.lft.to/lastmile_qr_scan", "ios": "https://dc.lft.to/lastmile_qr_scan"}, "name": "03ff8d154f1ab81cf82374b9d047303d", "is_reserved": 0}, {"is_disabled": 0, "fusion_lon": 0.0, "fusion_lat": 0.0, "lat": 38.92021833333333, "type": "electric_scooter", "lon": -77.03883716666667, "bike_id": "bc539656d335d33a806467cce16be47b", "rental_uris": {"android": "https://dc.lft.to/lastmile_qr_scan", "ios": "https://dc.lft.to/lastmile_qr_scan"}, "name": "bc539656d335d33a806467cce16be47b", "is_reserved": 0}, {"is_disabled": 0, "fusion_lon": 0.0, "fusion_lat": 0.0, "lat": 38.908984333333336, "type": "electric_scooter", "lon": -76.99860333333334, "bike_id": "f850319792d69d429450b305db9fb094", "rental_uris": {"android": "https://dc.lft.to/lastmile_qr_scan", "ios": "https://dc.lft.to/lastmile_qr_scan"}, "name": "f850319792d69d429450b305db9fb094", "is_reserved": 0}, {"is_disabled": 0, "fusion_lon": 0.0, "fusion_lat": 0.0, "lat": 38.906845833333335, "type": "electric_scooter", "lon": -77.041391, "bike_id": "b6eab147e6c977393073425ea2359ac2", "rental_uris": {"android": "https://dc.lft.to/lastmile_qr_scan", "ios": "https://dc.lft.to/lastmile_qr_scan"}, "name": "b6eab147e6c977393073425ea2359ac2", "is_reserved": 0}, {"is_disabled": 0, "fusion_lon": 0.0, "fusion_lat": 0.0, "lat": 38.988265, "type": "electric_bike", "lon": -76.98758633333334, "bike_id": "c90c186c4b319d1bdcd54ea4d1923e19", "rental_uris": {"android": "https://dc.lft.to/lastmile_qr_scan", "ios": "https://dc.lft.to/lastmile_qr_scan"}, "name": "c90c186c4b319d1bdcd54ea4d1923e19", "is_reserved": 0}, {"is_disabled": 0, "fusion_lon": 0.0, "fusion_lat": 0.0, "lat": 38.907015666666666, "type": "electric_scooter", "lon": -77.026948, "bike_id": "e57cfe2fcf32a99bd290f7239051017c", "rental_uris": {"android": "https://dc.lft.to/lastmile_qr_scan", "ios": "https://dc.lft.to/lastmile_qr_scan"}, "name": "e57cfe2fcf32a99bd290f7239051017c", "is_reserved": 0}, {"is_disabled": 0, "fusion_lon": 0.0, "fusion_lat": 0.0, "lat": 38.92041716666667, "type": "electric_scooter", "lon": -77.02591483333333, "bike_id": "a927a37c4537eb47cb9ffd9ba236a88b", "rental_uris": {"android": "https://dc.lft.to/lastmile_qr_scan", "ios": "https://dc.lft.to/lastmile_qr_scan"}, "name": "a927a37c4537eb47cb9ffd9ba236a88b", "is_reserved": 0}, {"is_disabled": 0, "fusion_lon": 0.0, "fusion_lat": 0.0, "lat": 38.8851025, "type": "electric_scooter", "lon": -76.99852966666667, "bike_id": "0ca6fc753877c2d91b53e96a40608471", "rental_uris": {"android": "https://dc.lft.to/lastmile_qr_scan", "ios": "https://dc.lft.to/lastmile_qr_scan"}, "name": "0ca6fc753877c2d91b53e96a40608471", "is_reserved": 0}, {"is_disabled": 0, "fusion_lon": 0.0, "fusion_lat": 0.0, "lat": 38.879275166666666, "type": "electric_scooter", "lon": -77.013445, "bike_id": "835fa34120cf788c7e023b44d345a69b", "rental_uris": {"android": "https://dc.lft.to/lastmile_qr_scan", "ios": "https://dc.lft.to/lastmile_qr_scan"}, "name": "835fa34120cf788c7e023b44d345a69b", "is_reserved": 0}, {"is_disabled": 0, "fusion_lon": 0.0, "fusion_lat": 0.0, "lat": 38.958776, "type": "electric_bike", "lon": -76.9248955, "bike_id": "225e3f510085da7bdd4417a5b77edf5a", "rental_uris": {"android": "https://dc.lft.to/lastmile_qr_scan", "ios": "https://dc.lft.to/lastmile_qr_scan"}, "name": "225e3f510085da7bdd4417a5b77edf5a", "is_reserved": 0}, {"is_disabled": 0, "fusion_lon": 0.0, "fusion_lat": 0.0, "lat": 38.90701466666667, "type": "electric_scooter", "lon": -77.06310616666667, "bike_id": "b6150b4ec837f5342e3925923b7112b2", "rental_uris": {"android": "https://dc.lft.to/lastmile_qr_scan", "ios": "https://dc.lft.to/lastmile_qr_scan"}, "name": "b6150b4ec837f5342e3925923b7112b2", "is_reserved": 0}, {"is_disabled": 0, "fusion_lon": 0.0, "fusion_lat": 0.0, "lat": 38.8587295, "type": "electric_scooter", "lon": -76.9902415, "bike_id": "56c7bb94ef7d5b0b748f323267f7c832", "rental_uris": {"android": "https://dc.lft.to/lastmile_qr_scan", "ios": "https://dc.lft.to/lastmile_qr_scan"}, "name": "56c7bb94ef7d5b0b748f323267f7c832", "is_reserved": 0}, {"is_disabled": 0, "fusion_lon": 0.0, "fusion_lat": 0.0, "lat": 38.897526166666665, "type": "electric_scooter", "lon": -77.02498016666667, "bike_id": "86ef283228d51c832c8273d31519e9c1", "rental_uris": {"android": "https://dc.lft.to/lastmile_qr_scan", "ios": "https://dc.lft.to/lastmile_qr_scan"}, "name": "86ef283228d51c832c8273d31519e9c1", "is_reserved": 0}, {"is_disabled": 0, "fusion_lon": 0.0, "fusion_lat": 0.0, "lat": 38.92025233333333, "type": "electric_scooter", "lon": -77.044326, "bike_id": "23881d1a3b8f9087af838a9d0cd121ba", "rental_uris": {"android": "https://dc.lft.to/lastmile_qr_scan", "ios": "https://dc.lft.to/lastmile_qr_scan"}, "name": "23881d1a3b8f9087af838a9d0cd121ba", "is_reserved": 0}, {"is_disabled": 0, "fusion_lon": 0.0, "fusion_lat": 0.0, "lat": 38.93099933333333, "type": "electric_scooter", "lon": -77.0381375, "bike_id": "975cf0312a58fb4574513953d992d9ca", "rental_uris": {"android": "https://dc.lft.to/lastmile_qr_scan", "ios": "https://dc.lft.to/lastmile_qr_scan"}, "name": "975cf0312a58fb4574513953d992d9ca", "is_reserved": 0}, {"is_disabled": 0, "fusion_lon": 0.0, "fusion_lat": 0.0, "lat": 38.90532233333333, "type": "electric_scooter", "lon": -77.05699933333334, "bike_id": "d85aee0fa8ce886e32a028215b15d49d", "rental_uris": {"android": "https://dc.lft.to/lastmile_qr_scan", "ios": "https://dc.lft.to/lastmile_qr_scan"}, "name": "d85aee0fa8ce886e32a028215b15d49d", "is_reserved": 0}, {"is_disabled": 0, "fusion_lon": 0.0, "fusion_lat": 0.0, "lat": 38.89372383333333, "type": "electric_scooter", "lon": -76.97820366666667, "bike_id": "6ea75dd6f520adec729a680fb82e53ad", "rental_uris": {"android": "https://dc.lft.to/lastmile_qr_scan", "ios": "https://dc.lft.to/lastmile_qr_scan"}, "name": "6ea75dd6f520adec729a680fb82e53ad", "is_reserved": 0}, {"is_disabled": 0, "fusion_lon": 0.0, "fusion_lat": 0.0, "lat": 38.893089333333336, "type": "electric_scooter", "lon": -77.0220415, "bike_id": "322f929b2fd8176e44e68e879f0f7ec1", "rental_uris": {"android": "https://dc.lft.to/lastmile_qr_scan", "ios": "https://dc.lft.to/lastmile_qr_scan"}, "name": "322f929b2fd8176e44e68e879f0f7ec1", "is_reserved": 0}, {"is_disabled": 0, "fusion_lon": 0.0, "fusion_lat": 0.0, "lat": 38.8852985, "type": "electric_scooter", "lon": -76.99802133333333, "bike_id": "e087f12a14d9923088b1cf3bbd8e7e99", "rental_uris": {"android": "https://dc.lft.to/lastmile_qr_scan", "ios": "https://dc.lft.to/lastmile_qr_scan"}, "name": "e087f12a14d9923088b1cf3bbd8e7e99", "is_reserved": 0}, {"is_disabled": 0, "fusion_lon": 0.0, "fusion_lat": 0.0, "lat": 38.96022083333333, "type": "electric_bike", "lon": -76.92713816666667, "bike_id": "1b4c2ec873f0badb719bcb832af5da75", "rental_uris": {"android": "https://dc.lft.to/lastmile_qr_scan", "ios": "https://dc.lft.to/lastmile_qr_scan"}, "name": "1b4c2ec873f0badb719bcb832af5da75", "is_reserved": 0}, {"is_disabled": 0, "fusion_lon": 0.0, "fusion_lat": 0.0, "lat": 38.8973105, "type": "electric_scooter", "lon": -77.02505483333333, "bike_id": "5fa22c0690e88bf893b7ca54ae69c33b", "rental_uris": {"android": "https://dc.lft.to/lastmile_qr_scan", "ios": "https://dc.lft.to/lastmile_qr_scan"}, "name": "5fa22c0690e88bf893b7ca54ae69c33b", "is_reserved": 0}, {"is_disabled": 0, "fusion_lon": 0.0, "fusion_lat": 0.0, "lat": 38.937825333333336, "type": "electric_scooter", "lon": -77.0188475, "bike_id": "36abdd15709022b1865803c533ff217f", "rental_uris": {"android": "https://dc.lft.to/lastmile_qr_scan", "ios": "https://dc.lft.to/lastmile_qr_scan"}, "name": "36abdd15709022b1865803c533ff217f", "is_reserved": 0}, {"is_disabled": 0, "fusion_lon": 0.0, "fusion_lat": 0.0, "lat": 38.92214116666667, "type": "electric_scooter", "lon": -77.0329335, "bike_id": "467d36fb7c638a9671ef2329bb9a87cb", "rental_uris": {"android": "https://dc.lft.to/lastmile_qr_scan", "ios": "https://dc.lft.to/lastmile_qr_scan"}, "name": "467d36fb7c638a9671ef2329bb9a87cb", "is_reserved": 0}, {"is_disabled": 0, "fusion_lon": 0.0, "fusion_lat": 0.0, "lat": 38.961104666666664, "type": "electric_scooter", "lon": -77.08519166666666, "bike_id": "8615dbbc47f9b3194888d4f703599979", "rental_uris": {"android": "https://dc.lft.to/lastmile_qr_scan", "ios": "https://dc.lft.to/lastmile_qr_scan"}, "name": "8615dbbc47f9b3194888d4f703599979", "is_reserved": 0}, {"is_disabled": 0, "fusion_lon": 0.0, "fusion_lat": 0.0, "lat": 38.89565016666667, "type": "electric_bike", "lon": -77.127425, "bike_id": "0e9144e6595d267ac85482622cc99d8a", "rental_uris": {"android": "https://dc.lft.to/lastmile_qr_scan", "ios": "https://dc.lft.to/lastmile_qr_scan"}, "name": "0e9144e6595d267ac85482622cc99d8a", "is_reserved": 0}, {"is_disabled": 0, "fusion_lon": 0.0, "fusion_lat": 0.0, "lat": 38.908359833333336, "type": "electric_scooter", "lon": -76.99699416666667, "bike_id": "b4a1f7e20d7e12df270557e3bcbc82f9", "rental_uris": {"android": "https://dc.lft.to/lastmile_qr_scan", "ios": "https://dc.lft.to/lastmile_qr_scan"}, "name": "b4a1f7e20d7e12df270557e3bcbc82f9", "is_reserved": 0}, {"is_disabled": 0, "fusion_lon": 0.0, "fusion_lat": 0.0, "lat": 38.91619516666667, "type": "electric_scooter", "lon": -77.0485975, "bike_id": "a6868981bec4c7b5952aa8ca7702ffcd", "rental_uris": {"android": "https://dc.lft.to/lastmile_qr_scan", "ios": "https://dc.lft.to/lastmile_qr_scan"}, "name": "a6868981bec4c7b5952aa8ca7702ffcd", "is_reserved": 0}, {"is_disabled": 0, "fusion_lon": 0.0, "fusion_lat": 0.0, "lat": 38.88746233333333, "type": "electric_scooter", "lon": -77.0153965, "bike_id": "ba562553bce23e9482e4c705c59fab42", "rental_uris": {"android": "https://dc.lft.to/lastmile_qr_scan", "ios": "https://dc.lft.to/lastmile_qr_scan"}, "name": "ba562553bce23e9482e4c705c59fab42", "is_reserved": 0}, {"is_disabled": 0, "fusion_lon": 0.0, "fusion_lat": 0.0, "lat": 38.894890833333335, "type": "electric_bike", "lon": -76.995199, "bike_id": "1044ad5d82926d8289619a34a2d940a0", "rental_uris": {"android": "https://dc.lft.to/lastmile_qr_scan", "ios": "https://dc.lft.to/lastmile_qr_scan"}, "name": "1044ad5d82926d8289619a34a2d940a0", "is_reserved": 0}, {"is_disabled": 0, "fusion_lon": 0.0, "fusion_lat": 0.0, "lat": 38.90757933333333, "type": "electric_scooter", "lon": -77.03466116666667, "bike_id": "b7adff0717e2d07dfc09b0e25eac7f73", "rental_uris": {"android": "https://dc.lft.to/lastmile_qr_scan", "ios": "https://dc.lft.to/lastmile_qr_scan"}, "name": "b7adff0717e2d07dfc09b0e25eac7f73", "is_reserved": 0}, {"is_disabled": 0, "fusion_lon": 0.0, "fusion_lat": 0.0, "lat": 38.922584666666665, "type": "electric_scooter", "lon": -77.04129066666667, "bike_id": "f779ee3d822627d4ff5f4771f62820c0", "rental_uris": {"android": "https://dc.lft.to/lastmile_qr_scan", "ios": "https://dc.lft.to/lastmile_qr_scan"}, "name": "f779ee3d822627d4ff5f4771f62820c0", "is_reserved": 0}, {"is_disabled": 0, "fusion_lon": 0.0, "fusion_lat": 0.0, "lat": 38.839316333333336, "type": "electric_bike", "lon": -77.07901016666666, "bike_id": "3de9feeb42b3c09e1f59e100eeaa9e7b", "rental_uris": {"android": "https://dc.lft.to/lastmile_qr_scan", "ios": "https://dc.lft.to/lastmile_qr_scan"}, "name": "3de9feeb42b3c09e1f59e100eeaa9e7b", "is_reserved": 0}, {"is_disabled": 0, "fusion_lon": 0.0, "fusion_lat": 0.0, "lat": 38.89713166666667, "type": "electric_scooter", "lon": -77.0100105, "bike_id": "d7d1c97b9555bbdd7f22536e3ea6538a", "rental_uris": {"android": "https://dc.lft.to/lastmile_qr_scan", "ios": "https://dc.lft.to/lastmile_qr_scan"}, "name": "d7d1c97b9555bbdd7f22536e3ea6538a", "is_reserved": 0}, {"is_disabled": 0, "fusion_lon": 0.0, "fusion_lat": 0.0, "lat": 38.934680166666666, "type": "electric_scooter", "lon": -77.06874833333333, "bike_id": "1e43b95575f5a3e36c9633afcdb41829", "rental_uris": {"android": "https://dc.lft.to/lastmile_qr_scan", "ios": "https://dc.lft.to/lastmile_qr_scan"}, "name": "1e43b95575f5a3e36c9633afcdb41829", "is_reserved": 0}, {"is_disabled": 0, "fusion_lon": 0.0, "fusion_lat": 0.0, "lat": 38.914061333333336, "type": "electric_scooter", "lon": -77.03172716666667, "bike_id": "25c612f99e4327df07e1134ccc29d83b", "rental_uris": {"android": "https://dc.lft.to/lastmile_qr_scan", "ios": "https://dc.lft.to/lastmile_qr_scan"}, "name": "25c612f99e4327df07e1134ccc29d83b", "is_reserved": 0}, {"is_disabled": 0, "fusion_lon": 0.0, "fusion_lat": 0.0, "lat": 38.89428483333333, "type": "electric_scooter", "lon": -77.01096566666666, "bike_id": "148525cc09859f711fad9564f1f466aa", "rental_uris": {"android": "https://dc.lft.to/lastmile_qr_scan", "ios": "https://dc.lft.to/lastmile_qr_scan"}, "name": "148525cc09859f711fad9564f1f466aa", "is_reserved": 0}, {"is_disabled": 0, "fusion_lon": 0.0, "fusion_lat": 0.0, "lat": 38.97261866666667, "type": "electric_bike", "lon": -76.99167966666667, "bike_id": "5f20839dd65ad61369b2f0d6e95764bd", "rental_uris": {"android": "https://dc.lft.to/lastmile_qr_scan", "ios": "https://dc.lft.to/lastmile_qr_scan"}, "name": "5f20839dd65ad61369b2f0d6e95764bd", "is_reserved": 0}, {"is_disabled": 0, "fusion_lon": 0.0, "fusion_lat": 0.0, "lat": 38.91735966666667, "type": "electric_scooter", "lon": -77.036408, "bike_id": "4309e6130969206950d98786731d5a7a", "rental_uris": {"android": "https://dc.lft.to/lastmile_qr_scan", "ios": "https://dc.lft.to/lastmile_qr_scan"}, "name": "4309e6130969206950d98786731d5a7a", "is_reserved": 0}, {"is_disabled": 0, "fusion_lon": 0.0, "fusion_lat": 0.0, "lat": 38.91920366666667, "type": "electric_scooter", "lon": -77.0339295, "bike_id": "3ef39569d1758b6c054ddd51aea28e85", "rental_uris": {"android": "https://dc.lft.to/lastmile_qr_scan", "ios": "https://dc.lft.to/lastmile_qr_scan"}, "name": "3ef39569d1758b6c054ddd51aea28e85", "is_reserved": 0}, {"is_disabled": 0, "fusion_lon": 0.0, "fusion_lat": 0.0, "lat": 38.90562933333333, "type": "electric_bike", "lon": -77.01802583333334, "bike_id": "7a51b566fbcf3385e353ef3c546d0705", "rental_uris": {"android": "https://dc.lft.to/lastmile_qr_scan", "ios": "https://dc.lft.to/lastmile_qr_scan"}, "name": "7a51b566fbcf3385e353ef3c546d0705", "is_reserved": 0}, {"is_disabled": 0, "fusion_lon": 0.0, "fusion_lat": 0.0, "lat": 38.89843233333333, "type": "electric_scooter", "lon": -77.00745983333333, "bike_id": "2f16dc73aa129a058473b456bf524278", "rental_uris": {"android": "https://dc.lft.to/lastmile_qr_scan", "ios": "https://dc.lft.to/lastmile_qr_scan"}, "name": "2f16dc73aa129a058473b456bf524278", "is_reserved": 0}, {"is_disabled": 0, "fusion_lon": 0.0, "fusion_lat": 0.0, "lat": 38.904086166666666, "type": "electric_scooter", "lon": -77.03414316666667, "bike_id": "85e10f8677ec002c9e99a419ad8c9516", "rental_uris": {"android": "https://dc.lft.to/lastmile_qr_scan", "ios": "https://dc.lft.to/lastmile_qr_scan"}, "name": "85e10f8677ec002c9e99a419ad8c9516", "is_reserved": 0}, {"is_disabled": 0, "fusion_lon": 0.0, "fusion_lat": 0.0, "lat": 38.863586833333336, "type": "electric_scooter", "lon": -76.99068916666667, "bike_id": "d653a6832f4aa4bad510c9a7167b0e02", "rental_uris": {"android": "https://dc.lft.to/lastmile_qr_scan", "ios": "https://dc.lft.to/lastmile_qr_scan"}, "name": "d653a6832f4aa4bad510c9a7167b0e02", "is_reserved": 0}, {"is_disabled": 0, "fusion_lon": 0.0, "fusion_lat": 0.0, "lat": 38.848923, "type": "electric_scooter", "lon": -77.0051965, "bike_id": "09974f5addc18b7c156bfa5b1706c9fe", "rental_uris": {"android": "https://dc.lft.to/lastmile_qr_scan", "ios": "https://dc.lft.to/lastmile_qr_scan"}, "name": "09974f5addc18b7c156bfa5b1706c9fe", "is_reserved": 0}, {"is_disabled": 0, "fusion_lon": 0.0, "fusion_lat": 0.0, "lat": 38.90583983333333, "type": "electric_scooter", "lon": -77.05115566666667, "bike_id": "22d1958f8d7e575afde60ecc95f6f0e4", "rental_uris": {"android": "https://dc.lft.to/lastmile_qr_scan", "ios": "https://dc.lft.to/lastmile_qr_scan"}, "name": "22d1958f8d7e575afde60ecc95f6f0e4", "is_reserved": 0}, {"is_disabled": 0, "fusion_lon": 0.0, "fusion_lat": 0.0, "lat": 38.87778616666667, "type": "electric_scooter", "lon": -77.01436083333333, "bike_id": "e3e804c0682ace68a0a1c172662363ac", "rental_uris": {"android": "https://dc.lft.to/lastmile_qr_scan", "ios": "https://dc.lft.to/lastmile_qr_scan"}, "name": "e3e804c0682ace68a0a1c172662363ac", "is_reserved": 0}, {"is_disabled": 0, "fusion_lon": 0.0, "fusion_lat": 0.0, "lat": 38.9311345, "type": "electric_scooter", "lon": -77.03810833333333, "bike_id": "7c257b88764b04e32e16b8885d16d5c6", "rental_uris": {"android": "https://dc.lft.to/lastmile_qr_scan", "ios": "https://dc.lft.to/lastmile_qr_scan"}, "name": "7c257b88764b04e32e16b8885d16d5c6", "is_reserved": 0}, {"is_disabled": 0, "fusion_lon": 0.0, "fusion_lat": 0.0, "lat": 38.924457, "type": "electric_bike", "lon": -76.9683245, "bike_id": "b8fedac6f59a0fa3736e24473df03480", "rental_uris": {"android": "https://dc.lft.to/lastmile_qr_scan", "ios": "https://dc.lft.to/lastmile_qr_scan"}, "name": "b8fedac6f59a0fa3736e24473df03480", "is_reserved": 0}, {"is_disabled": 0, "fusion_lon": 0.0, "fusion_lat": 0.0, "lat": 39.105642333333336, "type": "electric_bike", "lon": -77.15266266666667, "bike_id": "1444815b611d0899b3c757e4a715f9fa", "rental_uris": {"android": "https://dc.lft.to/lastmile_qr_scan", "ios": "https://dc.lft.to/lastmile_qr_scan"}, "name": "1444815b611d0899b3c757e4a715f9fa", "is_reserved": 0}, {"is_disabled": 0, "fusion_lon": 0.0, "fusion_lat": 0.0, "lat": 38.92898066666667, "type": "electric_scooter", "lon": -76.98460083333333, "bike_id": "0e55cb7af02e94f28a8ccce091f6ed20", "rental_uris": {"android": "https://dc.lft.to/lastmile_qr_scan", "ios": "https://dc.lft.to/lastmile_qr_scan"}, "name": "0e55cb7af02e94f28a8ccce091f6ed20", "is_reserved": 0}, {"is_disabled": 0, "fusion_lon": 0.0, "fusion_lat": 0.0, "lat": 38.936311333333336, "type": "electric_scooter", "lon": -77.03660566666667, "bike_id": "2dd49cbd2cb348660caae5c6e055f8b6", "rental_uris": {"android": "https://dc.lft.to/lastmile_qr_scan", "ios": "https://dc.lft.to/lastmile_qr_scan"}, "name": "2dd49cbd2cb348660caae5c6e055f8b6", "is_reserved": 0}, {"is_disabled": 0, "fusion_lon": 0.0, "fusion_lat": 0.0, "lat": 38.9029615, "type": "electric_scooter", "lon": -77.042484, "bike_id": "4e5e1a7722e2dea901afb62b8043782b", "rental_uris": {"android": "https://dc.lft.to/lastmile_qr_scan", "ios": "https://dc.lft.to/lastmile_qr_scan"}, "name": "4e5e1a7722e2dea901afb62b8043782b", "is_reserved": 0}, {"is_disabled": 0, "fusion_lon": 0.0, "fusion_lat": 0.0, "lat": 38.92849433333333, "type": "electric_bike", "lon": -77.02070533333334, "bike_id": "1b474ec5fbc3563ce1d3cd03bbd20663", "rental_uris": {"android": "https://dc.lft.to/lastmile_qr_scan", "ios": "https://dc.lft.to/lastmile_qr_scan"}, "name": "1b474ec5fbc3563ce1d3cd03bbd20663", "is_reserved": 0}, {"is_disabled": 0, "fusion_lon": 0.0, "fusion_lat": 0.0, "lat": 38.89370016666667, "type": "electric_scooter", "lon": -76.94995333333334, "bike_id": "315902409f88e74b04f2fe08d748322e", "rental_uris": {"android": "https://dc.lft.to/lastmile_qr_scan", "ios": "https://dc.lft.to/lastmile_qr_scan"}, "name": "315902409f88e74b04f2fe08d748322e", "is_reserved": 0}, {"is_disabled": 0, "fusion_lon": 0.0, "fusion_lat": 0.0, "lat": 38.9218965, "type": "electric_scooter", "lon": -76.99750766666666, "bike_id": "9f02cc52af3479c6d68c6844e2abc731", "rental_uris": {"android": "https://dc.lft.to/lastmile_qr_scan", "ios": "https://dc.lft.to/lastmile_qr_scan"}, "name": "9f02cc52af3479c6d68c6844e2abc731", "is_reserved": 0}, {"is_disabled": 0, "fusion_lon": 0.0, "fusion_lat": 0.0, "lat": 38.929105166666666, "type": "electric_scooter", "lon": -77.02349333333333, "bike_id": "e96b7afa8a4034929a45a9fb3674683e", "rental_uris": {"android": "https://dc.lft.to/lastmile_qr_scan", "ios": "https://dc.lft.to/lastmile_qr_scan"}, "name": "e96b7afa8a4034929a45a9fb3674683e", "is_reserved": 0}, {"is_disabled": 0, "fusion_lon": 0.0, "fusion_lat": 0.0, "lat": 38.91478516666667, "type": "electric_scooter", "lon": -77.04404666666667, "bike_id": "901bdf5fc331efb967ad2db1ded14670", "rental_uris": {"android": "https://dc.lft.to/lastmile_qr_scan", "ios": "https://dc.lft.to/lastmile_qr_scan"}, "name": "901bdf5fc331efb967ad2db1ded14670", "is_reserved": 0}, {"is_disabled": 0, "fusion_lon": 0.0, "fusion_lat": 0.0, "lat": 38.91183266666667, "type": "electric_scooter", "lon": -77.03921816666667, "bike_id": "d72acc507f7131b00d98983f3f8cc1e8", "rental_uris": {"android": "https://dc.lft.to/lastmile_qr_scan", "ios": "https://dc.lft.to/lastmile_qr_scan"}, "name": "d72acc507f7131b00d98983f3f8cc1e8", "is_reserved": 0}, {"is_disabled": 0, "fusion_lon": 0.0, "fusion_lat": 0.0, "lat": 38.9169635, "type": "electric_scooter", "lon": -77.02521033333333, "bike_id": "a5ee46e0ee8be352a24990e499799838", "rental_uris": {"android": "https://dc.lft.to/lastmile_qr_scan", "ios": "https://dc.lft.to/lastmile_qr_scan"}, "name": "a5ee46e0ee8be352a24990e499799838", "is_reserved": 0}, {"is_disabled": 0, "fusion_lon": 0.0, "fusion_lat": 0.0, "lat": 38.98667566666666, "type": "electric_scooter", "lon": -77.02642516666667, "bike_id": "2c623f4e6b0b06039e4aac0a08abcf98", "rental_uris": {"android": "https://dc.lft.to/lastmile_qr_scan", "ios": "https://dc.lft.to/lastmile_qr_scan"}, "name": "2c623f4e6b0b06039e4aac0a08abcf98", "is_reserved": 0}, {"is_disabled": 0, "fusion_lon": 0.0, "fusion_lat": 0.0, "lat": 38.9024095, "type": "electric_scooter", "lon": -77.03433066666666, "bike_id": "d8390ce713a4ea7cc9c0052755dc7d51", "rental_uris": {"android": "https://dc.lft.to/lastmile_qr_scan", "ios": "https://dc.lft.to/lastmile_qr_scan"}, "name": "d8390ce713a4ea7cc9c0052755dc7d51", "is_reserved": 0}, {"is_disabled": 0, "fusion_lon": 0.0, "fusion_lat": 0.0, "lat": 38.912868333333336, "type": "electric_scooter", "lon": -76.98685983333333, "bike_id": "0872a4e64f04b050f9bc47ec8eaf7e02", "rental_uris": {"android": "https://dc.lft.to/lastmile_qr_scan", "ios": "https://dc.lft.to/lastmile_qr_scan"}, "name": "0872a4e64f04b050f9bc47ec8eaf7e02", "is_reserved": 0}, {"is_disabled": 0, "fusion_lon": 0.0, "fusion_lat": 0.0, "lat": 38.916929833333334, "type": "electric_scooter", "lon": -77.0218805, "bike_id": "789e4fc532488eb68d9658cb45f9d083", "rental_uris": {"android": "https://dc.lft.to/lastmile_qr_scan", "ios": "https://dc.lft.to/lastmile_qr_scan"}, "name": "789e4fc532488eb68d9658cb45f9d083", "is_reserved": 0}, {"is_disabled": 0, "fusion_lon": 0.0, "fusion_lat": 0.0, "lat": 38.96932783333333, "type": "electric_bike", "lon": -77.026195, "bike_id": "5e8c4d2e094744cf5b99c59d4fa6430f", "rental_uris": {"android": "https://dc.lft.to/lastmile_qr_scan", "ios": "https://dc.lft.to/lastmile_qr_scan"}, "name": "5e8c4d2e094744cf5b99c59d4fa6430f", "is_reserved": 0}, {"is_disabled": 0, "fusion_lon": 0.0, "fusion_lat": 0.0, "lat": 38.897539333333334, "type": "electric_scooter", "lon": -77.03059316666666, "bike_id": "5ab5deaaf03d39252818d70aa4228706", "rental_uris": {"android": "https://dc.lft.to/lastmile_qr_scan", "ios": "https://dc.lft.to/lastmile_qr_scan"}, "name": "5ab5deaaf03d39252818d70aa4228706", "is_reserved": 0}, {"is_disabled": 0, "fusion_lon": 0.0, "fusion_lat": 0.0, "lat": 38.89976716666666, "type": "electric_scooter", "lon": -77.02000183333334, "bike_id": "067ed00167988fd56880fd87fcb30983", "rental_uris": {"android": "https://dc.lft.to/lastmile_qr_scan", "ios": "https://dc.lft.to/lastmile_qr_scan"}, "name": "067ed00167988fd56880fd87fcb30983", "is_reserved": 0}, {"is_disabled": 0, "fusion_lon": 0.0, "fusion_lat": 0.0, "lat": 38.8970915, "type": "electric_scooter", "lon": -77.02442466666666, "bike_id": "3f3d2e510419ca296a35c9803d01ccdc", "rental_uris": {"android": "https://dc.lft.to/lastmile_qr_scan", "ios": "https://dc.lft.to/lastmile_qr_scan"}, "name": "3f3d2e510419ca296a35c9803d01ccdc", "is_reserved": 0}, {"is_disabled": 0, "fusion_lon": 0.0, "fusion_lat": 0.0, "lat": 38.836080333333335, "type": "electric_bike", "lon": -77.00384133333333, "bike_id": "97cf1cdbfe44d3628c09d80df579ffb9", "rental_uris": {"android": "https://dc.lft.to/lastmile_qr_scan", "ios": "https://dc.lft.to/lastmile_qr_scan"}, "name": "97cf1cdbfe44d3628c09d80df579ffb9", "is_reserved": 0}, {"is_disabled": 0, "fusion_lon": 0.0, "fusion_lat": 0.0, "lat": 38.8990925, "type": "electric_scooter", "lon": -76.93388066666667, "bike_id": "67e0802fca93b46738046fb85eacccd5", "rental_uris": {"android": "https://dc.lft.to/lastmile_qr_scan", "ios": "https://dc.lft.to/lastmile_qr_scan"}, "name": "67e0802fca93b46738046fb85eacccd5", "is_reserved": 0}, {"is_disabled": 0, "fusion_lon": 0.0, "fusion_lat": 0.0, "lat": 38.92416, "type": "electric_scooter", "lon": -77.05620983333333, "bike_id": "14af24c52784f014288e520954321a49", "rental_uris": {"android": "https://dc.lft.to/lastmile_qr_scan", "ios": "https://dc.lft.to/lastmile_qr_scan"}, "name": "14af24c52784f014288e520954321a49", "is_reserved": 0}, {"is_disabled": 0, "fusion_lon": 0.0, "fusion_lat": 0.0, "lat": 38.918508, "type": "electric_scooter", "lon": -77.029629, "bike_id": "3722d77de893a732751f37d1d2204e24", "rental_uris": {"android": "https://dc.lft.to/lastmile_qr_scan", "ios": "https://dc.lft.to/lastmile_qr_scan"}, "name": "3722d77de893a732751f37d1d2204e24", "is_reserved": 0}, {"is_disabled": 0, "fusion_lon": 0.0, "fusion_lat": 0.0, "lat": 38.8920665, "type": "electric_scooter", "lon": -76.98807716666667, "bike_id": "dffcf76b9cb7b8ba65d73e113eb9d46e", "rental_uris": {"android": "https://dc.lft.to/lastmile_qr_scan", "ios": "https://dc.lft.to/lastmile_qr_scan"}, "name": "dffcf76b9cb7b8ba65d73e113eb9d46e", "is_reserved": 0}, {"is_disabled": 0, "fusion_lon": 0.0, "fusion_lat": 0.0, "lat": 38.92314116666667, "type": "electric_scooter", "lon": -77.04520216666667, "bike_id": "194ce5408bd24077130504db5936f1a3", "rental_uris": {"android": "https://dc.lft.to/lastmile_qr_scan", "ios": "https://dc.lft.to/lastmile_qr_scan"}, "name": "194ce5408bd24077130504db5936f1a3", "is_reserved": 0}, {"is_disabled": 0, "fusion_lon": 0.0, "fusion_lat": 0.0, "lat": 38.897338833333336, "type": "electric_scooter", "lon": -77.02587783333334, "bike_id": "2bfa5df062c30a03672783c192947d6d", "rental_uris": {"android": "https://dc.lft.to/lastmile_qr_scan", "ios": "https://dc.lft.to/lastmile_qr_scan"}, "name": "2bfa5df062c30a03672783c192947d6d", "is_reserved": 0}, {"is_disabled": 0, "fusion_lon": 0.0, "fusion_lat": 0.0, "lat": 38.859169333333334, "type": "electric_scooter", "lon": -76.98780466666666, "bike_id": "b01f7f6ee569cc06dc60568908d66a8b", "rental_uris": {"android": "https://dc.lft.to/lastmile_qr_scan", "ios": "https://dc.lft.to/lastmile_qr_scan"}, "name": "b01f7f6ee569cc06dc60568908d66a8b", "is_reserved": 0}, {"is_disabled": 0, "fusion_lon": 0.0, "fusion_lat": 0.0, "lat": 38.926058166666664, "type": "electric_scooter", "lon": -77.02156266666667, "bike_id": "4596e4ac6ebd3f79c846d972d7374c4f", "rental_uris": {"android": "https://dc.lft.to/lastmile_qr_scan", "ios": "https://dc.lft.to/lastmile_qr_scan"}, "name": "4596e4ac6ebd3f79c846d972d7374c4f", "is_reserved": 0}, {"is_disabled": 0, "fusion_lon": 0.0, "fusion_lat": 0.0, "lat": 38.91043066666667, "type": "electric_scooter", "lon": -77.03828333333334, "bike_id": "db36267d0ffdd3287506c8957c667491", "rental_uris": {"android": "https://dc.lft.to/lastmile_qr_scan", "ios": "https://dc.lft.to/lastmile_qr_scan"}, "name": "db36267d0ffdd3287506c8957c667491", "is_reserved": 0}, {"is_disabled": 0, "fusion_lon": 0.0, "fusion_lat": 0.0, "lat": 38.92254633333334, "type": "electric_scooter", "lon": -77.0298365, "bike_id": "2e55b5594f98d11ba21cbc4025987fc8", "rental_uris": {"android": "https://dc.lft.to/lastmile_qr_scan", "ios": "https://dc.lft.to/lastmile_qr_scan"}, "name": "2e55b5594f98d11ba21cbc4025987fc8", "is_reserved": 0}, {"is_disabled": 0, "fusion_lon": 0.0, "fusion_lat": 0.0, "lat": 38.90271333333333, "type": "electric_scooter", "lon": -77.01681783333333, "bike_id": "834361a3d82bb2f7bc5cfecc5ccf5939", "rental_uris": {"android": "https://dc.lft.to/lastmile_qr_scan", "ios": "https://dc.lft.to/lastmile_qr_scan"}, "name": "834361a3d82bb2f7bc5cfecc5ccf5939", "is_reserved": 0}, {"is_disabled": 0, "fusion_lon": 0.0, "fusion_lat": 0.0, "lat": 38.928104166666664, "type": "electric_scooter", "lon": -77.01419733333333, "bike_id": "da24dfb6f003ca186b6cbefe33ccce49", "rental_uris": {"android": "https://dc.lft.to/lastmile_qr_scan", "ios": "https://dc.lft.to/lastmile_qr_scan"}, "name": "da24dfb6f003ca186b6cbefe33ccce49", "is_reserved": 0}, {"is_disabled": 0, "fusion_lon": 0.0, "fusion_lat": 0.0, "lat": 38.92979583333333, "type": "electric_scooter", "lon": -77.0347025, "bike_id": "8d8cbee1e1cc587e4d864b3815923ea9", "rental_uris": {"android": "https://dc.lft.to/lastmile_qr_scan", "ios": "https://dc.lft.to/lastmile_qr_scan"}, "name": "8d8cbee1e1cc587e4d864b3815923ea9", "is_reserved": 0}, {"is_disabled": 0, "fusion_lon": 0.0, "fusion_lat": 0.0, "lat": 38.8845635, "type": "electric_scooter", "lon": -77.01786783333333, "bike_id": "adc00d9fe4b46dbcf31166036d47a983", "rental_uris": {"android": "https://dc.lft.to/lastmile_qr_scan", "ios": "https://dc.lft.to/lastmile_qr_scan"}, "name": "adc00d9fe4b46dbcf31166036d47a983", "is_reserved": 0}, {"is_disabled": 0, "fusion_lon": 0.0, "fusion_lat": 0.0, "lat": 38.91906516666667, "type": "electric_scooter", "lon": -77.02756566666666, "bike_id": "a0460fc697fec69525ee1eace3b8c8cd", "rental_uris": {"android": "https://dc.lft.to/lastmile_qr_scan", "ios": "https://dc.lft.to/lastmile_qr_scan"}, "name": "a0460fc697fec69525ee1eace3b8c8cd", "is_reserved": 0}, {"is_disabled": 0, "fusion_lon": 0.0, "fusion_lat": 0.0, "lat": 38.905624, "type": "electric_scooter", "lon": -77.04179666666667, "bike_id": "faaa622bb250a248d64b5bbcf926c275", "rental_uris": {"android": "https://dc.lft.to/lastmile_qr_scan", "ios": "https://dc.lft.to/lastmile_qr_scan"}, "name": "faaa622bb250a248d64b5bbcf926c275", "is_reserved": 0}, {"is_disabled": 0, "fusion_lon": 0.0, "fusion_lat": 0.0, "lat": 38.91802583333333, "type": "electric_scooter", "lon": -77.03556516666667, "bike_id": "7fe1055016851902692d079bbd556324", "rental_uris": {"android": "https://dc.lft.to/lastmile_qr_scan", "ios": "https://dc.lft.to/lastmile_qr_scan"}, "name": "7fe1055016851902692d079bbd556324", "is_reserved": 0}, {"is_disabled": 0, "fusion_lon": 0.0, "fusion_lat": 0.0, "lat": 38.92794383333333, "type": "electric_scooter", "lon": -77.022961, "bike_id": "1459dafad52e56dc135de12feb0d6f3e", "rental_uris": {"android": "https://dc.lft.to/lastmile_qr_scan", "ios": "https://dc.lft.to/lastmile_qr_scan"}, "name": "1459dafad52e56dc135de12feb0d6f3e", "is_reserved": 0}, {"is_disabled": 0, "fusion_lon": 0.0, "fusion_lat": 0.0, "lat": 38.927397666666664, "type": "electric_bike", "lon": -76.99364166666666, "bike_id": "c855b4b26dc1e8a72f379404ab1d61a6", "rental_uris": {"android": "https://dc.lft.to/lastmile_qr_scan", "ios": "https://dc.lft.to/lastmile_qr_scan"}, "name": "c855b4b26dc1e8a72f379404ab1d61a6", "is_reserved": 0}, {"is_disabled": 0, "fusion_lon": 0.0, "fusion_lat": 0.0, "lat": 38.9048645, "type": "electric_scooter", "lon": -77.02957516666666, "bike_id": "cf9c07121ab5293050e4bf024ff36172", "rental_uris": {"android": "https://dc.lft.to/lastmile_qr_scan", "ios": "https://dc.lft.to/lastmile_qr_scan"}, "name": "cf9c07121ab5293050e4bf024ff36172", "is_reserved": 0}, {"is_disabled": 0, "fusion_lon": 0.0, "fusion_lat": 0.0, "lat": 38.9171055, "type": "electric_scooter", "lon": -77.02872833333333, "bike_id": "5cdb00cc2de539d771d14770652de31c", "rental_uris": {"android": "https://dc.lft.to/lastmile_qr_scan", "ios": "https://dc.lft.to/lastmile_qr_scan"}, "name": "5cdb00cc2de539d771d14770652de31c", "is_reserved": 0}, {"is_disabled": 0, "fusion_lon": 0.0, "fusion_lat": 0.0, "lat": 38.95635466666667, "type": "electric_scooter", "lon": -77.029802, "bike_id": "be8b45ec10e16d070b66b289f299d3ab", "rental_uris": {"android": "https://dc.lft.to/lastmile_qr_scan", "ios": "https://dc.lft.to/lastmile_qr_scan"}, "name": "be8b45ec10e16d070b66b289f299d3ab", "is_reserved": 0}, {"is_disabled": 0, "fusion_lon": 0.0, "fusion_lat": 0.0, "lat": 38.850662166666666, "type": "electric_bike", "lon": -76.97329, "bike_id": "61d6715cb84209bd4e6dc7f53ebb28e9", "rental_uris": {"android": "https://dc.lft.to/lastmile_qr_scan", "ios": "https://dc.lft.to/lastmile_qr_scan"}, "name": "61d6715cb84209bd4e6dc7f53ebb28e9", "is_reserved": 0}, {"is_disabled": 0, "fusion_lon": 0.0, "fusion_lat": 0.0, "lat": 38.881607833333334, "type": "electric_scooter", "lon": -77.00909416666667, "bike_id": "626f631482cb3f8c76063b08b1b29e65", "rental_uris": {"android": "https://dc.lft.to/lastmile_qr_scan", "ios": "https://dc.lft.to/lastmile_qr_scan"}, "name": "626f631482cb3f8c76063b08b1b29e65", "is_reserved": 0}, {"is_disabled": 0, "fusion_lon": 0.0, "fusion_lat": 0.0, "lat": 38.85974983333333, "type": "electric_scooter", "lon": -76.98415483333333, "bike_id": "faee2c06b127971167418956bd226adc", "rental_uris": {"android": "https://dc.lft.to/lastmile_qr_scan", "ios": "https://dc.lft.to/lastmile_qr_scan"}, "name": "faee2c06b127971167418956bd226adc", "is_reserved": 0}, {"is_disabled": 0, "fusion_lon": 0.0, "fusion_lat": 0.0, "lat": 38.90240433333334, "type": "electric_scooter", "lon": -77.03439166666666, "bike_id": "3e8986d319beb57c3738ac7d260254ea", "rental_uris": {"android": "https://dc.lft.to/lastmile_qr_scan", "ios": "https://dc.lft.to/lastmile_qr_scan"}, "name": "3e8986d319beb57c3738ac7d260254ea", "is_reserved": 0}, {"is_disabled": 0, "fusion_lon": 0.0, "fusion_lat": 0.0, "lat": 38.89733483333333, "type": "electric_scooter", "lon": -77.05475583333333, "bike_id": "e335c47d6ebb2f5e9d63b2e15eca9ce1", "rental_uris": {"android": "https://dc.lft.to/lastmile_qr_scan", "ios": "https://dc.lft.to/lastmile_qr_scan"}, "name": "e335c47d6ebb2f5e9d63b2e15eca9ce1", "is_reserved": 0}, {"is_disabled": 0, "fusion_lon": 0.0, "fusion_lat": 0.0, "lat": 38.919466, "type": "electric_scooter", "lon": -77.02499366666666, "bike_id": "4d6ecb5ce3099196c58a4b597cab54da", "rental_uris": {"android": "https://dc.lft.to/lastmile_qr_scan", "ios": "https://dc.lft.to/lastmile_qr_scan"}, "name": "4d6ecb5ce3099196c58a4b597cab54da", "is_reserved": 0}, {"is_disabled": 0, "fusion_lon": 0.0, "fusion_lat": 0.0, "lat": 38.92307133333333, "type": "electric_scooter", "lon": -77.031071, "bike_id": "5263c3de996beaaaa8973c3720675714", "rental_uris": {"android": "https://dc.lft.to/lastmile_qr_scan", "ios": "https://dc.lft.to/lastmile_qr_scan"}, "name": "5263c3de996beaaaa8973c3720675714", "is_reserved": 0}, {"is_disabled": 0, "fusion_lon": 0.0, "fusion_lat": 0.0, "lat": 38.96560483333333, "type": "electric_bike", "lon": -77.02300366666667, "bike_id": "4722209fdbe163160bfbdd62444b924e", "rental_uris": {"android": "https://dc.lft.to/lastmile_qr_scan", "ios": "https://dc.lft.to/lastmile_qr_scan"}, "name": "4722209fdbe163160bfbdd62444b924e", "is_reserved": 0}, {"is_disabled": 0, "fusion_lon": 0.0, "fusion_lat": 0.0, "lat": 38.902426, "type": "electric_scooter", "lon": -77.02420266666667, "bike_id": "848897bdee3bc28e44550fedac070004", "rental_uris": {"android": "https://dc.lft.to/lastmile_qr_scan", "ios": "https://dc.lft.to/lastmile_qr_scan"}, "name": "848897bdee3bc28e44550fedac070004", "is_reserved": 0}, {"is_disabled": 0, "fusion_lon": 0.0, "fusion_lat": 0.0, "lat": 38.907143166666664, "type": "electric_scooter", "lon": -77.02717066666666, "bike_id": "fcbb3b2d4db62b31409ce1c148e64340", "rental_uris": {"android": "https://dc.lft.to/lastmile_qr_scan", "ios": "https://dc.lft.to/lastmile_qr_scan"}, "name": "fcbb3b2d4db62b31409ce1c148e64340", "is_reserved": 0}, {"is_disabled": 0, "fusion_lon": 0.0, "fusion_lat": 0.0, "lat": 38.92093833333333, "type": "electric_bike", "lon": -77.0222445, "bike_id": "b9897e17ba0b7bed96eccc8f33fea703", "rental_uris": {"android": "https://dc.lft.to/lastmile_qr_scan", "ios": "https://dc.lft.to/lastmile_qr_scan"}, "name": "b9897e17ba0b7bed96eccc8f33fea703", "is_reserved": 0}, {"is_disabled": 0, "fusion_lon": 0.0, "fusion_lat": 0.0, "lat": 38.934591166666664, "type": "electric_scooter", "lon": -77.02747966666666, "bike_id": "9648b006349d2c8bca63c96869badb08", "rental_uris": {"android": "https://dc.lft.to/lastmile_qr_scan", "ios": "https://dc.lft.to/lastmile_qr_scan"}, "name": "9648b006349d2c8bca63c96869badb08", "is_reserved": 0}, {"is_disabled": 0, "fusion_lon": 0.0, "fusion_lat": 0.0, "lat": 38.90368983333333, "type": "electric_scooter", "lon": -77.028874, "bike_id": "ed24696ab5553c92741f2a41764f7ed0", "rental_uris": {"android": "https://dc.lft.to/lastmile_qr_scan", "ios": "https://dc.lft.to/lastmile_qr_scan"}, "name": "ed24696ab5553c92741f2a41764f7ed0", "is_reserved": 0}, {"is_disabled": 0, "fusion_lon": 0.0, "fusion_lat": 0.0, "lat": 39.003791666666665, "type": "electric_bike", "lon": -77.01287083333334, "bike_id": "59ffb71d564677e94e42019823cb5230", "rental_uris": {"android": "https://dc.lft.to/lastmile_qr_scan", "ios": "https://dc.lft.to/lastmile_qr_scan"}, "name": "59ffb71d564677e94e42019823cb5230", "is_reserved": 0}, {"is_disabled": 0, "fusion_lon": 0.0, "fusion_lat": 0.0, "lat": 38.949741333333336, "type": "electric_scooter", "lon": -77.09439616666667, "bike_id": "4d26c205f8ff74f938dbd01808fe787a", "rental_uris": {"android": "https://dc.lft.to/lastmile_qr_scan", "ios": "https://dc.lft.to/lastmile_qr_scan"}, "name": "4d26c205f8ff74f938dbd01808fe787a", "is_reserved": 0}, {"is_disabled": 0, "fusion_lon": 0.0, "fusion_lat": 0.0, "lat": 38.878252833333335, "type": "electric_scooter", "lon": -76.96316, "bike_id": "2539751557260994de7cc976bfad19b7", "rental_uris": {"android": "https://dc.lft.to/lastmile_qr_scan", "ios": "https://dc.lft.to/lastmile_qr_scan"}, "name": "2539751557260994de7cc976bfad19b7", "is_reserved": 0}, {"is_disabled": 0, "fusion_lon": 0.0, "fusion_lat": 0.0, "lat": 38.945356333333336, "type": "electric_bike", "lon": -77.34451533333333, "bike_id": "78e18e932a05f4e490373c8043b3567b", "rental_uris": {"android": "https://dc.lft.to/lastmile_qr_scan", "ios": "https://dc.lft.to/lastmile_qr_scan"}, "name": "78e18e932a05f4e490373c8043b3567b", "is_reserved": 0}, {"is_disabled": 0, "fusion_lon": 0.0, "fusion_lat": 0.0, "lat": 38.876627166666665, "type": "electric_scooter", "lon": -76.93193933333333, "bike_id": "fd12e3259b64b4db24b81c06fdbe427b", "rental_uris": {"android": "https://dc.lft.to/lastmile_qr_scan", "ios": "https://dc.lft.to/lastmile_qr_scan"}, "name": "fd12e3259b64b4db24b81c06fdbe427b", "is_reserved": 0}, {"is_disabled": 0, "fusion_lon": 0.0, "fusion_lat": 0.0, "lat": 38.91271783333333, "type": "electric_scooter", "lon": -77.03368483333334, "bike_id": "2c18e8a51b2b63797a068b51951623ac", "rental_uris": {"android": "https://dc.lft.to/lastmile_qr_scan", "ios": "https://dc.lft.to/lastmile_qr_scan"}, "name": "2c18e8a51b2b63797a068b51951623ac", "is_reserved": 0}, {"is_disabled": 0, "fusion_lon": 0.0, "fusion_lat": 0.0, "lat": 38.9026405, "type": "electric_scooter", "lon": -77.00327833333333, "bike_id": "8fbaf7604de9dd308fa72239a81f0d70", "rental_uris": {"android": "https://dc.lft.to/lastmile_qr_scan", "ios": "https://dc.lft.to/lastmile_qr_scan"}, "name": "8fbaf7604de9dd308fa72239a81f0d70", "is_reserved": 0}, {"is_disabled": 0, "fusion_lon": 0.0, "fusion_lat": 0.0, "lat": 38.87636333333333, "type": "electric_scooter", "lon": -76.99764966666666, "bike_id": "2b286533afacaaf19d80b8b631f7ed10", "rental_uris": {"android": "https://dc.lft.to/lastmile_qr_scan", "ios": "https://dc.lft.to/lastmile_qr_scan"}, "name": "2b286533afacaaf19d80b8b631f7ed10", "is_reserved": 0}, {"is_disabled": 0, "fusion_lon": 0.0, "fusion_lat": 0.0, "lat": 38.94834916666667, "type": "electric_bike", "lon": -76.97259283333334, "bike_id": "cd9da844304b1812dd8730377c645779", "rental_uris": {"android": "https://dc.lft.to/lastmile_qr_scan", "ios": "https://dc.lft.to/lastmile_qr_scan"}, "name": "cd9da844304b1812dd8730377c645779", "is_reserved": 0}, {"is_disabled": 0, "fusion_lon": 0.0, "fusion_lat": 0.0, "lat": 38.917340833333334, "type": "electric_scooter", "lon": -76.99178616666667, "bike_id": "4bf42578f2d3c7c58c4df95628fd8a9e", "rental_uris": {"android": "https://dc.lft.to/lastmile_qr_scan", "ios": "https://dc.lft.to/lastmile_qr_scan"}, "name": "4bf42578f2d3c7c58c4df95628fd8a9e", "is_reserved": 0}, {"is_disabled": 0, "fusion_lon": 0.0, "fusion_lat": 0.0, "lat": 38.8875515, "type": "electric_scooter", "lon": -77.00227633333333, "bike_id": "55db2dfd41288d6daabfa439403f350c", "rental_uris": {"android": "https://dc.lft.to/lastmile_qr_scan", "ios": "https://dc.lft.to/lastmile_qr_scan"}, "name": "55db2dfd41288d6daabfa439403f350c", "is_reserved": 0}, {"is_disabled": 0, "fusion_lon": 0.0, "fusion_lat": 0.0, "lat": 38.9704745, "type": "electric_bike", "lon": -76.96077216666667, "bike_id": "89094b70f5e2edf35f614ba6c0fa7156", "rental_uris": {"android": "https://dc.lft.to/lastmile_qr_scan", "ios": "https://dc.lft.to/lastmile_qr_scan"}, "name": "89094b70f5e2edf35f614ba6c0fa7156", "is_reserved": 0}, {"is_disabled": 0, "fusion_lon": 0.0, "fusion_lat": 0.0, "lat": 38.899912, "type": "electric_scooter", "lon": -76.99166316666667, "bike_id": "c6ea543e0283c98ee98fea146edb4253", "rental_uris": {"android": "https://dc.lft.to/lastmile_qr_scan", "ios": "https://dc.lft.to/lastmile_qr_scan"}, "name": "c6ea543e0283c98ee98fea146edb4253", "is_reserved": 0}, {"is_disabled": 0, "fusion_lon": 0.0, "fusion_lat": 0.0, "lat": 38.9017325, "type": "electric_scooter", "lon": -77.0390745, "bike_id": "f42708e3eecebff0227c5236f4940d63", "rental_uris": {"android": "https://dc.lft.to/lastmile_qr_scan", "ios": "https://dc.lft.to/lastmile_qr_scan"}, "name": "f42708e3eecebff0227c5236f4940d63", "is_reserved": 0}, {"is_disabled": 0, "fusion_lon": 0.0, "fusion_lat": 0.0, "lat": 38.9017345, "type": "electric_scooter", "lon": -76.99385216666667, "bike_id": "fce93a4a2ce8ae24259406030cfb33cc", "rental_uris": {"android": "https://dc.lft.to/lastmile_qr_scan", "ios": "https://dc.lft.to/lastmile_qr_scan"}, "name": "fce93a4a2ce8ae24259406030cfb33cc", "is_reserved": 0}, {"is_disabled": 0, "fusion_lon": 0.0, "fusion_lat": 0.0, "lat": 38.926178, "type": "electric_scooter", "lon": -76.98202566666667, "bike_id": "78c55abe183ae62989e6cb29e501c457", "rental_uris": {"android": "https://dc.lft.to/lastmile_qr_scan", "ios": "https://dc.lft.to/lastmile_qr_scan"}, "name": "78c55abe183ae62989e6cb29e501c457", "is_reserved": 0}, {"is_disabled": 0, "fusion_lon": 0.0, "fusion_lat": 0.0, "lat": 38.872095333333334, "type": "electric_bike", "lon": -76.95482666666666, "bike_id": "e74a6584544c0621b3b1b4136f6a4077", "rental_uris": {"android": "https://dc.lft.to/lastmile_qr_scan", "ios": "https://dc.lft.to/lastmile_qr_scan"}, "name": "e74a6584544c0621b3b1b4136f6a4077", "is_reserved": 0}, {"is_disabled": 0, "fusion_lon": 0.0, "fusion_lat": 0.0, "lat": 38.916571, "type": "electric_scooter", "lon": -77.02809783333333, "bike_id": "80f1e6a2e7dfe30268ee0c4fb4a985e9", "rental_uris": {"android": "https://dc.lft.to/lastmile_qr_scan", "ios": "https://dc.lft.to/lastmile_qr_scan"}, "name": "80f1e6a2e7dfe30268ee0c4fb4a985e9", "is_reserved": 0}, {"is_disabled": 0, "fusion_lon": 0.0, "fusion_lat": 0.0, "lat": 38.90708733333334, "type": "electric_scooter", "lon": -77.027109, "bike_id": "c99b09dc77871508e7d1e8bdb2b2d6a2", "rental_uris": {"android": "https://dc.lft.to/lastmile_qr_scan", "ios": "https://dc.lft.to/lastmile_qr_scan"}, "name": "c99b09dc77871508e7d1e8bdb2b2d6a2", "is_reserved": 0}, {"is_disabled": 0, "fusion_lon": 0.0, "fusion_lat": 0.0, "lat": 38.84510266666667, "type": "electric_bike", "lon": -76.97211683333333, "bike_id": "6448c51444f0578684a23b8fa7560bf3", "rental_uris": {"android": "https://dc.lft.to/lastmile_qr_scan", "ios": "https://dc.lft.to/lastmile_qr_scan"}, "name": "6448c51444f0578684a23b8fa7560bf3", "is_reserved": 0}, {"is_disabled": 0, "fusion_lon": 0.0, "fusion_lat": 0.0, "lat": 38.93630666666667, "type": "electric_scooter", "lon": -77.02459666666667, "bike_id": "d6405657a0857f008d7490bad4d2b591", "rental_uris": {"android": "https://dc.lft.to/lastmile_qr_scan", "ios": "https://dc.lft.to/lastmile_qr_scan"}, "name": "d6405657a0857f008d7490bad4d2b591", "is_reserved": 0}, {"is_disabled": 0, "fusion_lon": 0.0, "fusion_lat": 0.0, "lat": 38.863473, "type": "electric_bike", "lon": -76.98701116666666, "bike_id": "acc06da51b460266414c55c73e711ba5", "rental_uris": {"android": "https://dc.lft.to/lastmile_qr_scan", "ios": "https://dc.lft.to/lastmile_qr_scan"}, "name": "acc06da51b460266414c55c73e711ba5", "is_reserved": 0}, {"is_disabled": 0, "fusion_lon": 0.0, "fusion_lat": 0.0, "lat": 38.89518416666667, "type": "electric_bike", "lon": -76.94948016666666, "bike_id": "5c510318bfbeae0ca68f742d80e96910", "rental_uris": {"android": "https://dc.lft.to/lastmile_qr_scan", "ios": "https://dc.lft.to/lastmile_qr_scan"}, "name": "5c510318bfbeae0ca68f742d80e96910", "is_reserved": 0}, {"is_disabled": 0, "fusion_lon": 0.0, "fusion_lat": 0.0, "lat": 38.905173, "type": "electric_scooter", "lon": -77.0068315, "bike_id": "4985a3c072bdc8d05b54914b106c8646", "rental_uris": {"android": "https://dc.lft.to/lastmile_qr_scan", "ios": "https://dc.lft.to/lastmile_qr_scan"}, "name": "4985a3c072bdc8d05b54914b106c8646", "is_reserved": 0}, {"is_disabled": 0, "fusion_lon": 0.0, "fusion_lat": 0.0, "lat": 38.936387333333336, "type": "electric_scooter", "lon": -77.0208575, "bike_id": "19e7c34b4c8cbe1af0815dfda48fd660", "rental_uris": {"android": "https://dc.lft.to/lastmile_qr_scan", "ios": "https://dc.lft.to/lastmile_qr_scan"}, "name": "19e7c34b4c8cbe1af0815dfda48fd660", "is_reserved": 0}, {"is_disabled": 0, "fusion_lon": 0.0, "fusion_lat": 0.0, "lat": 38.911029, "type": "electric_scooter", "lon": -77.038167, "bike_id": "890c0c610fa0f2b50dbf4b5719d6487e", "rental_uris": {"android": "https://dc.lft.to/lastmile_qr_scan", "ios": "https://dc.lft.to/lastmile_qr_scan"}, "name": "890c0c610fa0f2b50dbf4b5719d6487e", "is_reserved": 0}, {"is_disabled": 0, "fusion_lon": 0.0, "fusion_lat": 0.0, "lat": 38.932291166666666, "type": "electric_scooter", "lon": -77.02029216666666, "bike_id": "9c83c751f3f7780ae34d7baa0621043c", "rental_uris": {"android": "https://dc.lft.to/lastmile_qr_scan", "ios": "https://dc.lft.to/lastmile_qr_scan"}, "name": "9c83c751f3f7780ae34d7baa0621043c", "is_reserved": 0}, {"is_disabled": 0, "fusion_lon": 0.0, "fusion_lat": 0.0, "lat": 38.89461283333333, "type": "electric_bike", "lon": -76.9562575, "bike_id": "3f5e3da7c17bc0775f471dea86bcdf91", "rental_uris": {"android": "https://dc.lft.to/lastmile_qr_scan", "ios": "https://dc.lft.to/lastmile_qr_scan"}, "name": "3f5e3da7c17bc0775f471dea86bcdf91", "is_reserved": 0}, {"is_disabled": 0, "fusion_lon": 0.0, "fusion_lat": 0.0, "lat": 38.886125166666666, "type": "electric_scooter", "lon": -77.03097583333333, "bike_id": "66f1a055a8ba9b2be296dd8a48585369", "rental_uris": {"android": "https://dc.lft.to/lastmile_qr_scan", "ios": "https://dc.lft.to/lastmile_qr_scan"}, "name": "66f1a055a8ba9b2be296dd8a48585369", "is_reserved": 0}, {"is_disabled": 0, "fusion_lon": 0.0, "fusion_lat": 0.0, "lat": 38.9005985, "type": "electric_scooter", "lon": -76.93475166666667, "bike_id": "47c04315b5f169c78e6677af8407977e", "rental_uris": {"android": "https://dc.lft.to/lastmile_qr_scan", "ios": "https://dc.lft.to/lastmile_qr_scan"}, "name": "47c04315b5f169c78e6677af8407977e", "is_reserved": 0}, {"is_disabled": 0, "fusion_lon": 0.0, "fusion_lat": 0.0, "lat": 38.90063516666667, "type": "electric_scooter", "lon": -77.0533885, "bike_id": "1ace622a919b6e822aaaea5266576a76", "rental_uris": {"android": "https://dc.lft.to/lastmile_qr_scan", "ios": "https://dc.lft.to/lastmile_qr_scan"}, "name": "1ace622a919b6e822aaaea5266576a76", "is_reserved": 0},