{"data": {"bikes": [{"fusion_lat": 0.0, "name": "1cb79f47d037779db21b654a24daff0d", "is_disabled": 0, "rental_uris": {"android": "https://dc.lft.to/lastmile_qr_scan", "ios": "https://dc.lft.to/lastmile_qr_scan"}, "fusion_lon": 0.0, "lat": 38.899568333333335, "bike_id": "1cb79f47d037779db21b654a24daff0d", "type": "electric_scooter", "is_reserved": 0, "lon": -77.04175933333333}, {"fusion_lat": 0.0, "name": "253bbcb3a5e43c506dc3e1d761e0b63d", "is_disabled": 0, "rental_uris": {"android": "https://dc.lft.to/lastmile_qr_scan", "ios": "https://dc.lft.to/lastmile_qr_scan"}, "fusion_lon": 0.0, "lat": 38.916986333333334, "bike_id": "253bbcb3a5e43c506dc3e1d761e0b63d", "type": "electric_scooter", "is_reserved": 0, "lon": -77.03108166666667}, {"fusion_lat": 0.0, "name": "39b78e5c93e2655c0d522acef8b52d11", "is_disabled": 0, "rental_uris": {"android": "https://dc.lft.to/lastmile_qr_scan", "ios": "https://dc.lft.to/lastmile_qr_scan"}, "fusion_lon": 0.0, "lat": 38.905429, "bike_id": "39b78e5c93e2655c0d522acef8b52d11", "type": "electric_scooter", "is_reserved": 0, "lon": -77.04949266666667}, {"fusion_lat": 0.0, "name": "dbe0cb8d2391b3e09353b672890519b6", "is_disabled": 0, "rental_uris": {"android": "https://dc.lft.to/lastmile_qr_scan", "ios": "https://dc.lft.to/lastmile_qr_scan"}, "fusion_lon": 0.0, "lat": 38.871375666666665, "bike_id": "dbe0cb8d2391b3e09353b672890519b6", "type": "electric_bike", "is_reserved": 0, "lon": -77.10026183333333}, {"fusion_lat": 0.0, "name": "2a6f75dae9e40d3ae597bcc5663de60b", "is_disabled": 0, "rental_uris": {"android": "https://dc.lft.to/lastmile_qr_scan", "ios": "https://dc.lft.to/lastmile_qr_scan"}, "fusion_lon": 0.0, "lat": 38.882558, "bike_id": "2a6f75dae9e40d3ae597bcc5663de60b", "type": "electric_scooter", "is_reserved": 0, "lon": -76.99485316666667}, {"fusion_lat": 0.0, "name": "689df5d793c31fbf22118b68759667dc", "is_disabled": 0, "rental_uris": {"android": "https://dc.lft.to/lastmile_qr_scan", "ios": "https://dc.lft.to/lastmile_qr_scan"}, "fusion_lon": 0.0, "lat": 38.912606333333336, "bike_id": "689df5d793c31fbf22118b68759667dc", "type": "electric_scooter", "is_reserved": 0, "lon": -77.04736183333333}, {"fusion_lat": 0.0, "name": "7d30ddae83f26b47b186994ae85a5300", "is_disabled": 0, "rental_uris": {"android": "https://dc.lft.to/lastmile_qr_scan", "ios": "https://dc.lft.to/lastmile_qr_scan"}, "fusion_lon": 0.0, "lat": 38.87757966666667, "bike_id": "7d30ddae83f26b47b186994ae85a5300", "type": "electric_scooter", "is_reserved": 0, "lon": -77.00719733333334}, {"fusion_lat": 0.0, "name": "9016b0dbaef83d95b95e995cb85c5556", "is_disabled": 0, "rental_uris": {"android": "https://dc.lft.to/lastmile_qr_scan", "ios": "https://dc.lft.to/lastmile_qr_scan"}, "fusion_lon": 0.0, "lat": 38.9111155, "bike_id": "9016b0dbaef83d95b95e995cb85c5556", "type": "electric_scooter", "is_reserved": 0, "lon": -77.033629}, {"fusion_lat": 0.0, "name": "72a383ff197248cedad2fe4c6298ebbe", "is_disabled": 0, "rental_uris": {"android": "https://dc.lft.to/lastmile_qr_scan", "ios": "https://dc.lft.to/lastmile_qr_scan"}, "fusion_lon": 0.0, "lat": 38.865563333333334, "bike_id": "72a383ff197248cedad2fe4c6298ebbe", "type": "electric_scooter", "is_reserved": 0, "lon": -76.98355983333333}, {"fusion_lat": 0.0, "name": "bf859d5949ad4cd408aa1738fa5f5417", "is_disabled": 0, "rental_uris": {"android": "https://dc.lft.to/lastmile_qr_scan", "ios": "https://dc.lft.to/lastmile_qr_scan"}, "fusion_lon": 0.0, "lat": 38.915641, "bike_id": "bf859d5949ad4cd408aa1738fa5f5417", "type": "electric_scooter", "is_reserved": 0, "lon": -77.03168716666667}, {"fusion_lat": 0.0, "name": "13c1704a923aec844b2383e88eb2ae79", "is_disabled": 0, "rental_uris": {"android": "https://dc.lft.to/lastmile_qr_scan", "ios": "https://dc.lft.to/lastmile_qr_scan"}, "fusion_lon": 0.0, "lat": 38.84279083333333, "bike_id": "13c1704a923aec844b2383e88eb2ae79", "type": "electric_bike", "is_reserved": 0, "lon": -76.98841233333333}, {"fusion_lat": 0.0, "name": "e8202df815165fe72750410311d0b70a", "is_disabled": 0, "rental_uris": {"android": "https://dc.lft.to/lastmile_qr_scan", "ios": "https://dc.lft.to/lastmile_qr_scan"}, "fusion_lon": 0.0, "lat": 38.897235, "bike_id": "e8202df815165fe72750410311d0b70a", "type": "electric_scooter", "is_reserved": 0, "lon": -77.039697}, {"fusion_lat": 0.0, "name": "a54c0c7bbfa48740847e36f1c5402816", "is_disabled": 0, "rental_uris": {"android": "https://dc.lft.to/lastmile_qr_scan", "ios": "https://dc.lft.to/lastmile_qr_scan"}, "fusion_lon": 0.0, "lat": 38.9175175, "bike_id": "a54c0c7bbfa48740847e36f1c5402816", "type": "electric_scooter", "is_reserved": 0, "lon": -77.04150383333334}, {"fusion_lat": 0.0, "name": "82507d642715b0d931fe588d52db7c32", "is_disabled": 0, "rental_uris": {"android": "https://dc.lft.to/lastmile_qr_scan", "ios": "https://dc.lft.to/lastmile_qr_scan"}, "fusion_lon": 0.0, "lat": 38.92119233333333, "bike_id": "82507d642715b0d931fe588d52db7c32", "type": "electric_scooter", "is_reserved": 0, "lon": -77.012102}, {"fusion_lat": 0.0, "name": "1010810b8e00f468edb03bd9f69b81d9", "is_disabled": 0, "rental_uris": {"android": "https://dc.lft.to/lastmile_qr_scan", "ios": "https://dc.lft.to/lastmile_qr_scan"}, "fusion_lon": 0.0, "lat": 38.934584, "bike_id": "1010810b8e00f468edb03bd9f69b81d9", "type": "electric_scooter", "is_reserved": 0, "lon": -77.05782866666667}, {"fusion_lat": 0.0, "name": "27eb971ae67fcfdf0effb91eb39d3e80", "is_disabled": 0, "rental_uris": {"android": "https://dc.lft.to/lastmile_qr_scan", "ios": "https://dc.lft.to/lastmile_qr_scan"}, "fusion_lon": 0.0, "lat": 38.910939166666665, "bike_id": "27eb971ae67fcfdf0effb91eb39d3e80", "type": "electric_scooter", "is_reserved": 0, "lon": -77.04399683333334}, {"fusion_lat": 0.0, "name": "48551fe9a59fdad08703782581a1247d", "is_disabled": 0, "rental_uris": {"android": "https://dc.lft.to/lastmile_qr_scan", "ios": "https://dc.lft.to/lastmile_qr_scan"}, "fusion_lon": 0.0, "lat": 38.921028, "bike_id": "48551fe9a59fdad08703782581a1247d", "type": "electric_scooter", "is_reserved": 0, "lon": -77.04685466666666}, {"fusion_lat": 0.0, "name": "2efbf66b091efff7d4b10b444b0ecd1e", "is_disabled": 0, "rental_uris": {"android": "https://dc.lft.to/lastmile_qr_scan", "ios": "https://dc.lft.to/lastmile_qr_scan"}, "fusion_lon": 0.0, "lat": 38.9038765, "bike_id": "2efbf66b091efff7d4b10b444b0ecd1e", "type": "electric_scooter", "is_reserved": 0, "lon": -77.03012283333334}, {"fusion_lat": 0.0, "name": "603beda35e170594c7dda188a709136b", "is_disabled": 0, "rental_uris": {"android": "https://dc.lft.to/lastmile_qr_scan", "ios": "https://dc.lft.to/lastmile_qr_scan"}, "fusion_lon": 0.0, "lat": 38.9100945, "bike_id": "603beda35e170594c7dda188a709136b", "type": "electric_scooter", "is_reserved": 0, "lon": -77.03186083333334}, {"fusion_lat": 0.0, "name": "2044bd998eed0d400377e57d4668b413", "is_disabled": 0, "rental_uris": {"android": "https://dc.lft.to/lastmile_qr_scan", "ios": "https://dc.lft.to/lastmile_qr_scan"}, "fusion_lon": 0.0, "lat": 38.9123905, "bike_id": "2044bd998eed0d400377e57d4668b413", "type": "electric_scooter", "is_reserved": 0, "lon": -77.04871516666667}, {"fusion_lat": 0.0, "name": "d4d1c7f50ffc702e63c756a7c43b4aac", "is_disabled": 0, "rental_uris": {"android": "https://dc.lft.to/lastmile_qr_scan", "ios": "https://dc.lft.to/lastmile_qr_scan"}, "fusion_lon": 0.0, "lat": 38.91822066666667, "bike_id": "d4d1c7f50ffc702e63c756a7c43b4aac", "type": "electric_scooter", "is_reserved": 0, "lon": -77.03273466666667}, {"fusion_lat": 0.0, "name": "60586806e3e3b0a171061fe5be824a8b", "is_disabled": 0, "rental_uris": {"android": "https://dc.lft.to/lastmile_qr_scan", "ios": "https://dc.lft.to/lastmile_qr_scan"}, "fusion_lon": 0.0, "lat": 38.917323333333336, "bike_id": "60586806e3e3b0a171061fe5be824a8b", "type": "electric_scooter", "is_reserved": 0, "lon": -77.04172916666667}, {"fusion_lat": 0.0, "name": "87f72716e3f3767cd2a1d5083eae53c0", "is_disabled": 0, "rental_uris": {"android": "https://dc.lft.to/lastmile_qr_scan", "ios": "https://dc.lft.to/lastmile_qr_scan"}, "fusion_lon": 0.0, "lat": 38.9237555, "bike_id": "87f72716e3f3767cd2a1d5083eae53c0", "type": "electric_scooter", "is_reserved": 0, "lon": -77.04100616666666}, {"fusion_lat": 0.0, "name": "9c54631eb5f1a4c9510ab6a2b70b277c", "is_disabled": 0, "rental_uris": {"android": "https://dc.lft.to/lastmile_qr_scan", "ios": "https://dc.lft.to/lastmile_qr_scan"}, "fusion_lon": 0.0, "lat": 38.919590666666664, "bike_id": "9c54631eb5f1a4c9510ab6a2b70b277c", "type": "electric_scooter", "is_reserved": 0, "lon": -77.01670066666667}, {"fusion_lat": 0.0, "name": "ef100da92e7f529d8ab1608bdaec3bff", "is_disabled": 0, "rental_uris": {"android": "https://dc.lft.to/lastmile_qr_scan", "ios": "https://dc.lft.to/lastmile_qr_scan"}, "fusion_lon": 0.0, "lat": 38.90908116666667, "bike_id": "ef100da92e7f529d8ab1608bdaec3bff", "type": "electric_scooter", "is_reserved": 0, "lon": -77.04413316666667}, {"fusion_lat": 0.0, "name": "10375ab2447398706d35d0a6279a935c", "is_disabled": 0, "rental_uris": {"android": "https://dc.lft.to/lastmile_qr_scan", "ios": "https://dc.lft.to/lastmile_qr_scan"}, "fusion_lon": 0.0, "lat": 38.905296666666665, "bike_id": "10375ab2447398706d35d0a6279a935c", "type": "electric_scooter", "is_reserved": 0, "lon": -77.06041533333334}, {"fusion_lat": 0.0, "name": "ff2d83af66a276d3df2bec64a82c461c", "is_disabled": 0, "rental_uris": {"android": "https://dc.lft.to/lastmile_qr_scan", "ios": "https://dc.lft.to/lastmile_qr_scan"}, "fusion_lon": 0.0, "lat": 38.920599833333334, "bike_id": "ff2d83af66a276d3df2bec64a82c461c", "type": "electric_scooter", "is_reserved": 0, "lon": -76.99533333333333}, {"fusion_lat": 0.0, "name": "550d11a2c59f805a7fd1d959335d5527", "is_disabled": 0, "rental_uris": {"android": "https://dc.lft.to/lastmile_qr_scan", "ios": "https://dc.lft.to/lastmile_qr_scan"}, "fusion_lon": 0.0, "lat": 38.88816833333333, "bike_id": "550d11a2c59f805a7fd1d959335d5527", "type": "electric_scooter", "is_reserved": 0, "lon": -76.98355766666667}, {"fusion_lat": 0.0, "name": "bd71280e762c2644f8745590b2bf2590", "is_disabled": 0, "rental_uris": {"android": "https://dc.lft.to/lastmile_qr_scan", "ios": "https://dc.lft.to/lastmile_qr_scan"}, "fusion_lon": 0.0, "lat": 38.91658316666667, "bike_id": "bd71280e762c2644f8745590b2bf2590", "type": "electric_scooter", "is_reserved": 0, "lon": -77.02267183333333}, {"fusion_lat": 0.0, "name": "dde11a490a3bb5e2cf26c495027c4909", "is_disabled": 0, "rental_uris": {"android": "https://dc.lft.to/lastmile_qr_scan", "ios": "https://dc.lft.to/lastmile_qr_scan"}, "fusion_lon": 0.0, "lat": 38.8663555, "bike_id": "dde11a490a3bb5e2cf26c495027c4909", "type": "electric_scooter", "is_reserved": 0, "lon": -76.9830655}, {"fusion_lat": 0.0, "name": "4076d03cf6ae2dadc40b30d3a98fb2b3", "is_disabled": 0, "rental_uris": {"android": "https://dc.lft.to/lastmile_qr_scan", "ios": "https://dc.lft.to/lastmile_qr_scan"}, "fusion_lon": 0.0, "lat": 38.856496666666665, "bike_id": "4076d03cf6ae2dadc40b30d3a98fb2b3", "type": "electric_bike", "is_reserved": 0, "lon": -77.085283}, {"fusion_lat": 0.0, "name": "2923a374fb5b7a349e94143f09aacd1b", "is_disabled": 0, "rental_uris": {"android": "https://dc.lft.to/lastmile_qr_scan", "ios": "https://dc.lft.to/lastmile_qr_scan"}, "fusion_lon": 0.0, "lat": 38.911297833333336, "bike_id": "2923a374fb5b7a349e94143f09aacd1b", "type": "electric_bike", "is_reserved": 0, "lon": -77.0657465}, {"fusion_lat": 0.0, "name": "853d798eba3f7de3d612ad57c715613b", "is_disabled": 0, "rental_uris": {"android": "https://dc.lft.to/lastmile_qr_scan", "ios": "https://dc.lft.to/lastmile_qr_scan"}, "fusion_lon": 0.0, "lat": 38.89359566666667, "bike_id": "853d798eba3f7de3d612ad57c715613b", "type": "electric_scooter", "is_reserved": 0, "lon": -77.02800966666666}, {"fusion_lat": 0.0, "name": "539e81580acc464ad6b7468f9d6ec1de", "is_disabled": 0, "rental_uris": {"android": "https://dc.lft.to/lastmile_qr_scan", "ios": "https://dc.lft.to/lastmile_qr_scan"}, "fusion_lon": 0.0, "lat": 38.928597333333336, "bike_id": "539e81580acc464ad6b7468f9d6ec1de", "type": "electric_scooter", "is_reserved": 0, "lon": -77.0139885}, {"fusion_lat": 0.0, "name": "77b75e2ba7ee14cafe9a657b16f9a183", "is_disabled": 0, "rental_uris": {"android": "https://dc.lft.to/lastmile_qr_scan", "ios": "https://dc.lft.to/lastmile_qr_scan"}, "fusion_lon": 0.0, "lat": 38.9290915, "bike_id": "77b75e2ba7ee14cafe9a657b16f9a183", "type": "electric_scooter", "is_reserved": 0, "lon": -77.01960583333333}, {"fusion_lat": 0.0, "name": "3466030f620353cb315c45e400074706", "is_disabled": 0, "rental_uris": {"android": "https://dc.lft.to/lastmile_qr_scan", "ios": "https://dc.lft.to/lastmile_qr_scan"}, "fusion_lon": 0.0, "lat": 38.918076, "bike_id": "3466030f620353cb315c45e400074706", "type": "electric_scooter", "is_reserved": 0, "lon": -77.03339566666666}, {"fusion_lat": 0.0, "name": "ce04330b75f18dd23870cb18cd9c1b39", "is_disabled": 0, "rental_uris": {"android": "https://dc.lft.to/lastmile_qr_scan", "ios": "https://dc.lft.to/lastmile_qr_scan"}, "fusion_lon": 0.0, "lat": 38.89907483333333, "bike_id": "ce04330b75f18dd23870cb18cd9c1b39", "type": "electric_scooter", "is_reserved": 0, "lon": -77.04115133333333}, {"fusion_lat": 0.0, "name": "f3409eb3971ddb672e58539464ff59a7", "is_disabled": 0, "rental_uris": {"android": "https://dc.lft.to/lastmile_qr_scan", "ios": "https://dc.lft.to/lastmile_qr_scan"}, "fusion_lon": 0.0, "lat": 38.91484466666667, "bike_id": "f3409eb3971ddb672e58539464ff59a7", "type": "electric_scooter", "is_reserved": 0, "lon": -77.04554366666666}, {"fusion_lat": 0.0, "name": "541fcb034ac7704c96477be18a25fd3b", "is_disabled": 0, "rental_uris": {"android": "https://dc.lft.to/lastmile_qr_scan", "ios": "https://dc.lft.to/lastmile_qr_scan"}, "fusion_lon": 0.0, "lat": 38.87634516666667, "bike_id": "541fcb034ac7704c96477be18a25fd3b", "type": "electric_scooter", "is_reserved": 0, "lon": -77.00948783333334}, {"fusion_lat": 0.0, "name": "9acfbc6ff878acb6168349c250dbf06f", "is_disabled": 0, "rental_uris": {"android": "https://dc.lft.to/lastmile_qr_scan", "ios": "https://dc.lft.to/lastmile_qr_scan"}, "fusion_lon": 0.0, "lat": 38.896167, "bike_id": "9acfbc6ff878acb6168349c250dbf06f", "type": "electric_scooter", "is_reserved": 0, "lon": -77.02793616666666}, {"fusion_lat": 0.0, "name": "e74bcecfdcba5c689b6cc779f0af2277", "is_disabled": 0, "rental_uris": {"android": "https://dc.lft.to/lastmile_qr_scan", "ios": "https://dc.lft.to/lastmile_qr_scan"}, "fusion_lon": 0.0, "lat": 38.92613383333333, "bike_id": "e74bcecfdcba5c689b6cc779f0af2277", "type": "electric_scooter", "is_reserved": 0, "lon": -77.0221475}, {"fusion_lat": 0.0, "name": "cc2a31bfc60ff805ced12888d29bcb71", "is_disabled": 0, "rental_uris": {"android": "https://dc.lft.to/lastmile_qr_scan", "ios": "https://dc.lft.to/lastmile_qr_scan"}, "fusion_lon": 0.0, "lat": 38.931044166666666, "bike_id": "cc2a31bfc60ff805ced12888d29bcb71", "type": "electric_scooter", "is_reserved": 0, "lon": -77.02666583333334}, {"fusion_lat": 0.0, "name": "f21342f9595f89d51140c8dc06742f1b", "is_disabled": 0, "rental_uris": {"android": "https://dc.lft.to/lastmile_qr_scan", "ios": "https://dc.lft.to/lastmile_qr_scan"}, "fusion_lon": 0.0, "lat": 38.919254, "bike_id": "f21342f9595f89d51140c8dc06742f1b", "type": "electric_scooter", "is_reserved": 0, "lon": -77.034278}, {"fusion_lat": 0.0, "name": "ec14f94b6c43c53c0f5a6ee8e6169ff2", "is_disabled": 0, "rental_uris": {"android": "https://dc.lft.to/lastmile_qr_scan", "ios": "https://dc.lft.to/lastmile_qr_scan"}, "fusion_lon": 0.0, "lat": 38.920371333333335, "bike_id": "ec14f94b6c43c53c0f5a6ee8e6169ff2", "type": "electric_scooter", "is_reserved": 0, "lon": -77.02584916666666}, {"fusion_lat": 0.0, "name": "0cf25fc7afcbd9e2f87456caefd43058", "is_disabled": 0, "rental_uris": {"android": "https://dc.lft.to/lastmile_qr_scan", "ios": "https://dc.lft.to/lastmile_qr_scan"}, "fusion_lon": 0.0, "lat": 38.93441133333334, "bike_id": "0cf25fc7afcbd9e2f87456caefd43058", "type": "electric_scooter", "is_reserved": 0, "lon": -77.034493}, {"fusion_lat": 0.0, "name": "020575985530592ce68d0daebeaeb0d1", "is_disabled": 0, "rental_uris": {"android": "https://dc.lft.to/lastmile_qr_scan", "ios": "https://dc.lft.to/lastmile_qr_scan"}, "fusion_lon": 0.0, "lat": 38.91637, "bike_id": "020575985530592ce68d0daebeaeb0d1", "type": "electric_scooter", "is_reserved": 0, "lon": -77.02699016666666}, {"fusion_lat": 0.0, "name": "d4b503172d33f2b543288f99e2ca8f30", "is_disabled": 0, "rental_uris": {"android": "https://dc.lft.to/lastmile_qr_scan", "ios": "https://dc.lft.to/lastmile_qr_scan"}, "fusion_lon": 0.0, "lat": 38.916782833333336, "bike_id": "d4b503172d33f2b543288f99e2ca8f30", "type": "electric_scooter", "is_reserved": 0, "lon": -77.031996}, {"fusion_lat": 0.0, "name": "222ab5379bd001481893620cd3d1e7df", "is_disabled": 0, "rental_uris": {"android": "https://dc.lft.to/lastmile_qr_scan", "ios": "https://dc.lft.to/lastmile_qr_scan"}, "fusion_lon": 0.0, "lat": 38.9318345, "bike_id": "222ab5379bd001481893620cd3d1e7df", "type": "electric_scooter", "is_reserved": 0, "lon": -77.04304483333334}, {"fusion_lat": 0.0, "name": "856ade32ed37074791acfe85c8e276da", "is_disabled": 0, "rental_uris": {"android": "https://dc.lft.to/lastmile_qr_scan", "ios": "https://dc.lft.to/lastmile_qr_scan"}, "fusion_lon": 0.0, "lat": 38.884270666666666, "bike_id": "856ade32ed37074791acfe85c8e276da", "type": "electric_scooter", "is_reserved": 0, "lon": -77.03043116666667}, {"fusion_lat": 0.0, "name": "8fa2aa7d8dc6bb846375dffeead4c7ca", "is_disabled": 0, "rental_uris": {"android": "https://dc.lft.to/lastmile_qr_scan", "ios": "https://dc.lft.to/lastmile_qr_scan"}, "fusion_lon": 0.0, "lat": 38.9267015, "bike_id": "8fa2aa7d8dc6bb846375dffeead4c7ca", "type": "electric_scooter", "is_reserved": 0, "lon": -77.02277466666666}, {"fusion_lat": 0.0, "name": "bc8bbe9f429a62e8c11fa218c1b65e18", "is_disabled": 0, "rental_uris": {"android": "https://dc.lft.to/lastmile_qr_scan", "ios": "https://dc.lft.to/lastmile_qr_scan"}, "fusion_lon": 0.0, "lat": 38.912690166666664, "bike_id": "bc8bbe9f429a62e8c11fa218c1b65e18", "type": "electric_scooter", "is_reserved": 0, "lon": -77.03869066666667}, {"fusion_lat": 0.0, "name": "21298257de9bff61339bb9c09df38428", "is_disabled": 0, "rental_uris": {"android": "https://dc.lft.to/lastmile_qr_scan", "ios": "https://dc.lft.to/lastmile_qr_scan"}, "fusion_lon": 0.0, "lat": 38.92824316666667, "bike_id": "21298257de9bff61339bb9c09df38428", "type": "electric_scooter", "is_reserved": 0, "lon": -77.05440233333333}, {"fusion_lat": 0.0, "name": "dba70cba1a6d82c18088c0d4dfa62bc4", "is_disabled": 0, "rental_uris": {"android": "https://dc.lft.to/lastmile_qr_scan", "ios": "https://dc.lft.to/lastmile_qr_scan"}, "fusion_lon": 0.0, "lat": 38.921943166666665, "bike_id": "dba70cba1a6d82c18088c0d4dfa62bc4", "type": "electric_scooter", "is_reserved": 0, "lon": -76.99757783333334}, {"fusion_lat": 0.0, "name": "a9c1673a2ce90917dbf88a0efd28922d", "is_disabled": 0, "rental_uris": {"android": "https://dc.lft.to/lastmile_qr_scan", "ios": "https://dc.lft.to/lastmile_qr_scan"}, "fusion_lon": 0.0, "lat": 38.899558166666665, "bike_id": "a9c1673a2ce90917dbf88a0efd28922d", "type": "electric_scooter", "is_reserved": 0, "lon": -77.01619633333334}, {"fusion_lat": 0.0, "name": "bae2502bd09d6e7c3fc80ab4a6eed44b", "is_disabled": 0, "rental_uris": {"android": "https://dc.lft.to/lastmile_qr_scan", "ios": "https://dc.lft.to/lastmile_qr_scan"}, "fusion_lon": 0.0, "lat": 38.91989383333333, "bike_id": "bae2502bd09d6e7c3fc80ab4a6eed44b", "type": "electric_scooter", "is_reserved": 0, "lon": -76.97305416666667}, {"fusion_lat": 0.0, "name": "763d1bc97f1fdf8b5ca19492331277e3", "is_disabled": 0, "rental_uris": {"android": "https://dc.lft.to/lastmile_qr_scan", "ios": "https://dc.lft.to/lastmile_qr_scan"}, "fusion_lon": 0.0, "lat": 38.897994833333335, "bike_id": "763d1bc97f1fdf8b5ca19492331277e3", "type": "electric_scooter", "is_reserved": 0, "lon": -76.9903125}, {"fusion_lat": 0.0, "name": "41da2369c1e88166373d96dedba11954", "is_disabled": 0, "rental_uris": {"android": "https://dc.lft.to/lastmile_qr_scan", "ios": "https://dc.lft.to/lastmile_qr_scan"}, "fusion_lon": 0.0, "lat": 38.881751666666666, "bike_id": "41da2369c1e88166373d96dedba11954", "type": "electric_scooter", "is_reserved": 0, "lon": -76.95902766666667}, {"fusion_lat": 0.0, "name": "202b5fd92b58766bebc95b4ddcfd7141", "is_disabled": 0, "rental_uris": {"android": "https://dc.lft.to/lastmile_qr_scan", "ios": "https://dc.lft.to/lastmile_qr_scan"}, "fusion_lon": 0.0, "lat": 38.8976145, "bike_id": "202b5fd92b58766bebc95b4ddcfd7141", "type": "electric_scooter", "is_reserved": 0, "lon": -77.03046066666667}, {"fusion_lat": 0.0, "name": "28df889137107cd6087c5dd055816694", "is_disabled": 0, "rental_uris": {"android": "https://dc.lft.to/lastmile_qr_scan", "ios": "https://dc.lft.to/lastmile_qr_scan"}, "fusion_lon": 0.0, "lat": 38.9169465, "bike_id": "28df889137107cd6087c5dd055816694", "type": "electric_scooter", "is_reserved": 0, "lon": -77.011619}, {"fusion_lat": 0.0, "name": "84bb1ac40fec32845988c3b6a510b154", "is_disabled": 0, "rental_uris": {"android": "https://dc.lft.to/lastmile_qr_scan", "ios": "https://dc.lft.to/lastmile_qr_scan"}, "fusion_lon": 0.0, "lat": 38.91665316666667, "bike_id": "84bb1ac40fec32845988c3b6a510b154", "type": "electric_scooter", "is_reserved": 0, "lon": -77.02804033333334}, {"fusion_lat": 0.0, "name": "d407b72598a36ab83b7ab402ac68fd8c", "is_disabled": 0, "rental_uris": {"android": "https://dc.lft.to/lastmile_qr_scan", "ios": "https://dc.lft.to/lastmile_qr_scan"}, "fusion_lon": 0.0, "lat": 38.8458645, "bike_id": "d407b72598a36ab83b7ab402ac68fd8c", "type": "electric_bike", "is_reserved": 0, "lon": -76.98167866666667}, {"fusion_lat": 0.0, "name": "2255f7ea6852b7d4263775f10998202c", "is_disabled": 0, "rental_uris": {"android": "https://dc.lft.to/lastmile_qr_scan", "ios": "https://dc.lft.to/lastmile_qr_scan"}, "fusion_lon": 0.0, "lat": 38.91165083333333, "bike_id": "2255f7ea6852b7d4263775f10998202c", "type": "electric_scooter", "is_reserved": 0, "lon": -77.02805383333333}, {"fusion_lat": 0.0, "name": "bec170cc888c71b59866bd0b387f9b7f", "is_disabled": 0, "rental_uris": {"android": "https://dc.lft.to/lastmile_qr_scan", "ios": "https://dc.lft.to/lastmile_qr_scan"}, "fusion_lon": 0.0, "lat": 38.96068566666667, "bike_id": "bec170cc888c71b59866bd0b387f9b7f", "type": "electric_scooter", "is_reserved": 0, "lon": -77.02766366666667}, {"fusion_lat": 0.0, "name": "30b3be9bb9cd152a3d276d32a43dff52", "is_disabled": 0, "rental_uris": {"android": "https://dc.lft.to/lastmile_qr_scan", "ios": "https://dc.lft.to/lastmile_qr_scan"}, "fusion_lon": 0.0, "lat": 38.904095, "bike_id": "30b3be9bb9cd152a3d276d32a43dff52", "type": "electric_scooter", "is_reserved": 0, "lon": -76.97329416666666}, {"fusion_lat": 0.0, "name": "337e45582bde6e750988342942d2f615", "is_disabled": 0, "rental_uris": {"android": "https://dc.lft.to/lastmile_qr_scan", "ios": "https://dc.lft.to/lastmile_qr_scan"}, "fusion_lon": 0.0, "lat": 38.918246833333335, "bike_id": "337e45582bde6e750988342942d2f615", "type": "electric_scooter", "is_reserved": 0, "lon": -77.04179916666666}, {"fusion_lat": 0.0, "name": "b70a1abbde43515f6137b1a4a569c249", "is_disabled": 0, "rental_uris": {"android": "https://dc.lft.to/lastmile_qr_scan", "ios": "https://dc.lft.to/lastmile_qr_scan"}, "fusion_lon": 0.0, "lat": 38.89627766666667, "bike_id": "b70a1abbde43515f6137b1a4a569c249", "type": "electric_scooter", "is_reserved": 0, "lon": -77.02181583333333}, {"fusion_lat": 0.0, "name": "801b3b4f415733fa79f44538c2c06d39", "is_disabled": 0, "rental_uris": {"android": "https://dc.lft.to/lastmile_qr_scan", "ios": "https://dc.lft.to/lastmile_qr_scan"}, "fusion_lon": 0.0, "lat": 38.894009, "bike_id": "801b3b4f415733fa79f44538c2c06d39", "type": "electric_scooter", "is_reserved": 0, "lon": -76.991591}, {"fusion_lat": 0.0, "name": "a542f6cbdbb43da099dc187c5619efb9", "is_disabled": 0, "rental_uris": {"android": "https://dc.lft.to/lastmile_qr_scan", "ios": "https://dc.lft.to/lastmile_qr_scan"}, "fusion_lon": 0.0, "lat": 38.874032666666665, "bike_id": "a542f6cbdbb43da099dc187c5619efb9", "type": "electric_scooter", "is_reserved": 0, "lon": -77.00025266666667}, {"fusion_lat": 0.0, "name": "3a7838c316c749ba2be72ba0139bb9d7", "is_disabled": 0, "rental_uris": {"android": "https://dc.lft.to/lastmile_qr_scan", "ios": "https://dc.lft.to/lastmile_qr_scan"}, "fusion_lon": 0.0, "lat": 38.9348625, "bike_id": "3a7838c316c749ba2be72ba0139bb9d7", "type": "electric_scooter", "is_reserved": 0, "lon": -77.04537316666666}, {"fusion_lat": 0.0, "name": "c49fe64d6b8a60cfc8eb5ca1feaafa6e", "is_disabled": 0, "rental_uris": {"android": "https://dc.lft.to/lastmile_qr_scan", "ios": "https://dc.lft.to/lastmile_qr_scan"}, "fusion_lon": 0.0, "lat": 38.95871566666667, "bike_id": "c49fe64d6b8a60cfc8eb5ca1feaafa6e", "type": "electric_bike", "is_reserved": 0, "lon": -77.00134716666666}, {"fusion_lat": 0.0, "name": "2774efadbb68d200e790e326049ec00d", "is_disabled": 0, "rental_uris": {"android": "https://dc.lft.to/lastmile_qr_scan", "ios": "https://dc.lft.to/lastmile_qr_scan"}, "fusion_lon": 0.0, "lat": 38.92332583333334, "bike_id": "2774efadbb68d200e790e326049ec00d", "type": "electric_scooter", "is_reserved": 0, "lon": -77.02052033333334}, {"fusion_lat": 0.0, "name": "ea0990605ef515fa6aab9f13ac5867b0", "is_disabled": 0, "rental_uris": {"android": "https://dc.lft.to/lastmile_qr_scan", "ios": "https://dc.lft.to/lastmile_qr_scan"}, "fusion_lon": 0.0, "lat": 39.084541333333334, "bike_id": "ea0990605ef515fa6aab9f13ac5867b0", "type": "electric_bike", "is_reserved": 0, "lon": -76.95198533333334}, {"fusion_lat": 0.0, "name": "eacd54d55e9bbd828dd1d2e97dfd011e", "is_disabled": 0, "rental_uris": {"android": "https://dc.lft.to/lastmile_qr_scan", "ios": "https://dc.lft.to/lastmile_qr_scan"}, "fusion_lon": 0.0, "lat": 38.919222, "bike_id": "eacd54d55e9bbd828dd1d2e97dfd011e", "type": "electric_scooter", "is_reserved": 0, "lon": -77.0219625}, {"fusion_lat": 0.0, "name": "8ca290587755976a83a674b14b85e2cb", "is_disabled": 0, "rental_uris": {"android": "https://dc.lft.to/lastmile_qr_scan", "ios": "https://dc.lft.to/lastmile_qr_scan"}, "fusion_lon": 0.0, "lat": 38.900219, "bike_id": "8ca290587755976a83a674b14b85e2cb", "type": "electric_scooter", "is_reserved": 0, "lon": -76.98796766666666}, {"fusion_lat": 0.0, "name": "987ffab13f5c0c78a08df20b4d14f6c5", "is_disabled": 0, "rental_uris": {"android": "https://dc.lft.to/lastmile_qr_scan", "ios": "https://dc.lft.to/lastmile_qr_scan"}, "fusion_lon": 0.0, "lat": 38.915230666666666, "bike_id": "987ffab13f5c0c78a08df20b4d14f6c5", "type": "electric_scooter", "is_reserved": 0, "lon": -77.0726945}, {"fusion_lat": 0.0, "name": "d055e4e6a20ee1a3258e2ad26cc6973a", "is_disabled": 0, "rental_uris": {"android": "https://dc.lft.to/lastmile_qr_scan", "ios": "https://dc.lft.to/lastmile_qr_scan"}, "fusion_lon": 0.0, "lat": 38.93604233333333, "bike_id": "d055e4e6a20ee1a3258e2ad26cc6973a", "type": "electric_scooter", "is_reserved": 0, "lon": -77.05862316666666}, {"fusion_lat": 0.0, "name": "f8ae5c7a1430be1d9e0ed6235ed7b839", "is_disabled": 0, "rental_uris": {"android": "https://dc.lft.to/lastmile_qr_scan", "ios": "https://dc.lft.to/lastmile_qr_scan"}, "fusion_lon": 0.0, "lat": 38.89356166666666, "bike_id": "f8ae5c7a1430be1d9e0ed6235ed7b839", "type": "electric_bike", "is_reserved": 0, "lon": -77.18740166666667}, {"fusion_lat": 0.0, "name": "04eaf48e7fec1f0da35eefcf2027ff09", "is_disabled": 0, "rental_uris": {"android": "https://dc.lft.to/lastmile_qr_scan", "ios": "https://dc.lft.to/lastmile_qr_scan"}, "fusion_lon": 0.0, "lat": 38.89875516666667, "bike_id": "04eaf48e7fec1f0da35eefcf2027ff09", "type": "electric_scooter", "is_reserved": 0, "lon": -76.931831}, {"fusion_lat": 0.0, "name": "acbf967a3f9cccdb0f9cfd22dbbaf03b", "is_disabled": 0, "rental_uris": {"android": "https://dc.lft.to/lastmile_qr_scan", "ios": "https://dc.lft.to/lastmile_qr_scan"}, "fusion_lon": 0.0, "lat": 38.902677833333335, "bike_id": "acbf967a3f9cccdb0f9cfd22dbbaf03b", "type": "electric_scooter", "is_reserved": 0, "lon": -77.0170245}, {"fusion_lat": 0.0, "name": "80223d03606713c5fd9c83afcf19e739", "is_disabled": 0, "rental_uris": {"android": "https://dc.lft.to/lastmile_qr_scan", "ios": "https://dc.lft.to/lastmile_qr_scan"}, "fusion_lon": 0.0, "lat": 38.928246333333334, "bike_id": "80223d03606713c5fd9c83afcf19e739", "type": "electric_scooter", "is_reserved": 0, "lon": -77.05447816666667}, {"fusion_lat": 0.0, "name": "3585c80fcb38b1d0c3fb949245560eae", "is_disabled": 0, "rental_uris": {"android": "https://dc.lft.to/lastmile_qr_scan", "ios": "https://dc.lft.to/lastmile_qr_scan"}, "fusion_lon": 0.0, "lat": 38.831458166666664, "bike_id": "3585c80fcb38b1d0c3fb949245560eae", "type": "electric_scooter", "is_reserved": 0, "lon": -77.00844816666667}, {"fusion_lat": 0.0, "name": "fa5221a754995e05e76150f3c9475b7c", "is_disabled": 0, "rental_uris": {"android": "https://dc.lft.to/lastmile_qr_scan", "ios": "https://dc.lft.to/lastmile_qr_scan"}, "fusion_lon": 0.0, "lat": 38.8803785, "bike_id": "fa5221a754995e05e76150f3c9475b7c", "type": "electric_scooter", "is_reserved": 0, "lon": -77.019815}, {"fusion_lat": 0.0, "name": "dd62f88f61ec43e850e48af0788844ad", "is_disabled": 0, "rental_uris": {"android": "https://dc.lft.to/lastmile_qr_scan", "ios": "https://dc.lft.to/lastmile_qr_scan"}, "fusion_lon": 0.0, "lat": 38.9201555, "bike_id": "dd62f88f61ec43e850e48af0788844ad", "type": "electric_scooter", "is_reserved": 0, "lon": -77.07119483333334}, {"fusion_lat": 0.0, "name": "0592552850d92823a68cf02070ade6c1", "is_disabled": 0, "rental_uris": {"android": "https://dc.lft.to/lastmile_qr_scan", "ios": "https://dc.lft.to/lastmile_qr_scan"}, "fusion_lon": 0.0, "lat": 38.96992633333333, "bike_id": "0592552850d92823a68cf02070ade6c1", "type": "electric_scooter", "is_reserved": 0, "lon": -77.0116015}, {"fusion_lat": 0.0, "name": "ea62cb04bb751e045fa5dc691c0d707f", "is_disabled": 0, "rental_uris": {"android": "https://dc.lft.to/lastmile_qr_scan", "ios": "https://dc.lft.to/lastmile_qr_scan"}, "fusion_lon": 0.0, "lat": 38.90974333333333, "bike_id": "ea62cb04bb751e045fa5dc691c0d707f", "type": "electric_scooter", "is_reserved": 0, "lon": -77.032652}, {"fusion_lat": 0.0, "name": "10ba29793da1babb5a1e2f3a2e15bfed", "is_disabled": 0, "rental_uris": {"android": "https://dc.lft.to/lastmile_qr_scan", "ios": "https://dc.lft.to/lastmile_qr_scan"}, "fusion_lon": 0.0, "lat": 38.85651983333333, "bike_id": "10ba29793da1babb5a1e2f3a2e15bfed", "type": "electric_scooter", "is_reserved": 0, "lon": -76.9967575}, {"fusion_lat": 0.0, "name": "7b0a7bccc1940cb8afff19ee61b7c193", "is_disabled": 0, "rental_uris": {"android": "https://dc.lft.to/lastmile_qr_scan", "ios": "https://dc.lft.to/lastmile_qr_scan"}, "fusion_lon": 0.0, "lat": 38.92646366666666, "bike_id": "7b0a7bccc1940cb8afff19ee61b7c193", "type": "electric_scooter", "is_reserved": 0, "lon": -77.03324466666666}, {"fusion_lat": 0.0, "name": "ee0ad3020f2f1033dcb314107d4936dd", "is_disabled": 0, "rental_uris": {"android": "https://dc.lft.to/lastmile_qr_scan", "ios": "https://dc.lft.to/lastmile_qr_scan"}, "fusion_lon": 0.0, "lat": 38.8911795, "bike_id": "ee0ad3020f2f1033dcb314107d4936dd", "type": "electric_scooter", "is_reserved": 0, "lon": -76.93850433333333}, {"fusion_lat": 0.0, "name": "56baaebd309a6b31cab2d43f9e29a124", "is_disabled": 0, "rental_uris": {"android": "https://dc.lft.to/lastmile_qr_scan", "ios": "https://dc.lft.to/lastmile_qr_scan"}, "fusion_lon": 0.0, "lat": 38.956349833333334, "bike_id": "56baaebd309a6b31cab2d43f9e29a124", "type": "electric_scooter", "is_reserved": 0, "lon": -76.99532366666666}, {"fusion_lat": 0.0, "name": "44add6f3549265cb6deb505aec2201d9", "is_disabled": 0, "rental_uris": {"android": "https://dc.lft.to/lastmile_qr_scan", "ios": "https://dc.lft.to/lastmile_qr_scan"}, "fusion_lon": 0.0, "lat": 38.8974115, "bike_id": "44add6f3549265cb6deb505aec2201d9", "type": "electric_scooter", "is_reserved": 0, "lon": -77.003735}, {"fusion_lat": 0.0, "name": "2e25ecbd0f1dd11a00ffa611159fe3f8", "is_disabled": 0, "rental_uris": {"android": "https://dc.lft.to/lastmile_qr_scan", "ios": "https://dc.lft.to/lastmile_qr_scan"}, "fusion_lon": 0.0, "lat": 38.916586333333335, "bike_id": "2e25ecbd0f1dd11a00ffa611159fe3f8", "type": "electric_scooter", "is_reserved": 0, "lon": -77.03196866666667}, {"fusion_lat": 0.0, "name": "0fc6a3651b9138c5d4b84a7e2c6c03d7", "is_disabled": 0, "rental_uris": {"android": "https://dc.lft.to/lastmile_qr_scan", "ios": "https://dc.lft.to/lastmile_qr_scan"}, "fusion_lon": 0.0, "lat": 38.91125183333333, "bike_id": "0fc6a3651b9138c5d4b84a7e2c6c03d7", "type": "electric_scooter", "is_reserved": 0, "lon": -77.020926}, {"fusion_lat": 0.0, "name": "452ffd99c4b2cd514d7d17d5d2a5f56e", "is_disabled": 0, "rental_uris": {"android": "https://dc.lft.to/lastmile_qr_scan", "ios": "https://dc.lft.to/lastmile_qr_scan"}, "fusion_lon": 0.0, "lat": 38.92453316666667, "bike_id": "452ffd99c4b2cd514d7d17d5d2a5f56e", "type": "electric_scooter", "is_reserved": 0, "lon": -77.033223}, {"fusion_lat": 0.0, "name": "a0c5e3587edb32a321323acfe8cd9d9c", "is_disabled": 0, "rental_uris": {"android": "https://dc.lft.to/lastmile_qr_scan", "ios": "https://dc.lft.to/lastmile_qr_scan"}, "fusion_lon": 0.0, "lat": 38.9100555, "bike_id": "a0c5e3587edb32a321323acfe8cd9d9c", "type": "electric_scooter", "is_reserved": 0, "lon": -77.02887283333334}, {"fusion_lat": 0.0, "name": "45f8b20c370e3d26eda6411077ecb07e", "is_disabled": 0, "rental_uris": {"android": "https://dc.lft.to/lastmile_qr_scan", "ios": "https://dc.lft.to/lastmile_qr_scan"}, "fusion_lon": 0.0, "lat": 38.918209166666664, "bike_id": "45f8b20c370e3d26eda6411077ecb07e", "type": "electric_scooter", "is_reserved": 0, "lon": -77.0120855}, {"fusion_lat": 0.0, "name": "60e4bbc112a7e36d8b8a23c3673b46cb", "is_disabled": 0, "rental_uris": {"android": "https://dc.lft.to/lastmile_qr_scan", "ios": "https://dc.lft.to/lastmile_qr_scan"}, "fusion_lon": 0.0, "lat": 38.89740783333333, "bike_id": "60e4bbc112a7e36d8b8a23c3673b46cb", "type": "electric_scooter", "is_reserved": 0, "lon": -77.02471466666667}, {"fusion_lat": 0.0, "name": "d253be5858f9aeca51c3dac1f4cd107b", "is_disabled": 0, "rental_uris": {"android": "https://dc.lft.to/lastmile_qr_scan", "ios": "https://dc.lft.to/lastmile_qr_scan"}, "fusion_lon": 0.0, "lat": 38.918588666666665, "bike_id": "d253be5858f9aeca51c3dac1f4cd107b", "type": "electric_scooter", "is_reserved": 0, "lon": -77.04072466666666}, {"fusion_lat": 0.0, "name": "e065d977c64f4356c3de866d305a1de6", "is_disabled": 0, "rental_uris": {"android": "https://dc.lft.to/lastmile_qr_scan", "ios": "https://dc.lft.to/lastmile_qr_scan"}, "fusion_lon": 0.0, "lat": 38.90698283333333, "bike_id": "e065d977c64f4356c3de866d305a1de6", "type": "electric_scooter", "is_reserved": 0, "lon": -77.027146}, {"fusion_lat": 0.0, "name": "b2ff0e1fceb20c6ba7f6f3d4eec9e448", "is_disabled": 0, "rental_uris": {"android": "https://dc.lft.to/lastmile_qr_scan", "ios": "https://dc.lft.to/lastmile_qr_scan"}, "fusion_lon": 0.0, "lat": 38.89733616666667, "bike_id": "b2ff0e1fceb20c6ba7f6f3d4eec9e448", "type": "electric_bike", "is_reserved": 0, "lon": -76.92046916666666}, {"fusion_lat": 0.0, "name": "6ad421df2608ccfa41186edb651ab1ad", "is_disabled": 0, "rental_uris": {"android": "https://dc.lft.to/lastmile_qr_scan", "ios": "https://dc.lft.to/lastmile_qr_scan"}, "fusion_lon": 0.0, "lat": 38.95226233333333, "bike_id": "6ad421df2608ccfa41186edb651ab1ad", "type": "electric_scooter", "is_reserved": 0, "lon": -77.00064166666667}, {"fusion_lat": 0.0, "name": "771ffe62563833ae58c6350b60ab1006", "is_disabled": 0, "rental_uris": {"android": "https://dc.lft.to/lastmile_qr_scan", "ios": "https://dc.lft.to/lastmile_qr_scan"}, "fusion_lon": 0.0, "lat": 38.906825166666664, "bike_id": "771ffe62563833ae58c6350b60ab1006", "type": "electric_bike", "is_reserved": 0, "lon": -76.94494066666667}, {"fusion_lat": 0.0, "name": "67d16d0c883a18b643365b3f3b59cc85", "is_disabled": 0, "rental_uris": {"android": "https://dc.lft.to/lastmile_qr_scan", "ios": "https://dc.lft.to/lastmile_qr_scan"}, "fusion_lon": 0.0, "lat": 38.98463066666667, "bike_id": "67d16d0c883a18b643365b3f3b59cc85", "type": "electric_bike", "is_reserved": 0, "lon": -76.97054066666666}, {"fusion_lat": 0.0, "name": "ea6b9f3952a43c8486565a4ad4d357a6", "is_disabled": 0, "rental_uris": {"android": "https://dc.lft.to/lastmile_qr_scan", "ios": "https://dc.lft.to/lastmile_qr_scan"}, "fusion_lon": 0.0, "lat": 38.901504, "bike_id": "ea6b9f3952a43c8486565a4ad4d357a6", "type": "electric_scooter", "is_reserved": 0, "lon": -76.93069283333334}, {"fusion_lat": 0.0, "name": "8df3fee2a80457bddbe5b6c714b2b2aa", "is_disabled": 0, "rental_uris": {"android": "https://dc.lft.to/lastmile_qr_scan", "ios": "https://dc.lft.to/lastmile_qr_scan"}, "fusion_lon": 0.0, "lat": 38.8877345, "bike_id": "8df3fee2a80457bddbe5b6c714b2b2aa", "type": "electric_scooter", "is_reserved": 0, "lon": -76.9774825}, {"fusion_lat": 0.0, "name": "730ed7d3e1b372b7fa62f7f489a9d62a", "is_disabled": 0, "rental_uris": {"android": "https://dc.lft.to/lastmile_qr_scan", "ios": "https://dc.lft.to/lastmile_qr_scan"}, "fusion_lon": 0.0, "lat": 38.91053633333333, "bike_id": "730ed7d3e1b372b7fa62f7f489a9d62a", "type": "electric_scooter", "is_reserved": 0, "lon": -76.98517966666667}, {"fusion_lat": 0.0, "name": "945d074c1608372ec4f170253645b9a1", "is_disabled": 0, "rental_uris": {"android": "https://dc.lft.to/lastmile_qr_scan", "ios": "https://dc.lft.to/lastmile_qr_scan"}, "fusion_lon": 0.0, "lat": 38.90419216666667, "bike_id": "945d074c1608372ec4f170253645b9a1", "type": "electric_scooter", "is_reserved": 0, "lon": -77.04343216666666}, {"fusion_lat": 0.0, "name": "55d7a33a15b05bb566bba48a2dc702a7", "is_disabled": 0, "rental_uris": {"android": "https://dc.lft.to/lastmile_qr_scan", "ios": "https://dc.lft.to/lastmile_qr_scan"}, "fusion_lon": 0.0, "lat": 38.8983695, "bike_id": "55d7a33a15b05bb566bba48a2dc702a7", "type": "electric_scooter", "is_reserved": 0, "lon": -77.00748233333333}, {"fusion_lat": 0.0, "name": "ab680897e736ea39107e3e142fd30afa", "is_disabled": 0, "rental_uris": {"android": "https://dc.lft.to/lastmile_qr_scan", "ios": "https://dc.lft.to/lastmile_qr_scan"}, "fusion_lon": 0.0, "lat": 38.898677166666666, "bike_id": "ab680897e736ea39107e3e142fd30afa", "type": "electric_scooter", "is_reserved": 0, "lon": -77.0216775}, {"fusion_lat": 0.0, "name": "560094b1a8ede47c54612b5fd0009ff8", "is_disabled": 0, "rental_uris": {"android": "https://dc.lft.to/lastmile_qr_scan", "ios": "https://dc.lft.to/lastmile_qr_scan"}, "fusion_lon": 0.0, "lat": 38.95795783333333, "bike_id": "560094b1a8ede47c54612b5fd0009ff8", "type": "electric_bike", "is_reserved": 0, "lon": -76.9996765}, {"fusion_lat": 0.0, "name": "3a745ae43bd51153999aba047a17aa7c", "is_disabled": 0, "rental_uris": {"android": "https://dc.lft.to/lastmile_qr_scan", "ios": "https://dc.lft.to/lastmile_qr_scan"}, "fusion_lon": 0.0, "lat": 38.91287533333333, "bike_id": "3a745ae43bd51153999aba047a17aa7c", "type": "electric_scooter", "is_reserved": 0, "lon": -77.0474385}, {"fusion_lat": 0.0, "name": "c955a36a2bba0a86085034638f34e12f", "is_disabled": 0, "rental_uris": {"android": "https://dc.lft.to/lastmile_qr_scan", "ios": "https://dc.lft.to/lastmile_qr_scan"}, "fusion_lon": 0.0, "lat": 38.896149, "bike_id": "c955a36a2bba0a86085034638f34e12f", "type": "electric_scooter", "is_reserved": 0, "lon": -77.04480616666666}, {"fusion_lat": 0.0, "name": "61d227df81e6797ac1c8b612e4d23649", "is_disabled": 0, "rental_uris": {"android": "https://dc.lft.to/lastmile_qr_scan", "ios": "https://dc.lft.to/lastmile_qr_scan"}, "fusion_lon": 0.0, "lat": 38.92971883333333, "bike_id": "61d227df81e6797ac1c8b612e4d23649", "type": "electric_scooter", "is_reserved": 0, "lon": -77.028176}, {"fusion_lat": 0.0, "name": "d350563d60d1dc2dcdce9d5594047549", "is_disabled": 0, "rental_uris": {"android": "https://dc.lft.to/lastmile_qr_scan", "ios": "https://dc.lft.to/lastmile_qr_scan"}, "fusion_lon": 0.0, "lat": 38.993921, "bike_id": "d350563d60d1dc2dcdce9d5594047549", "type": "electric_bike", "is_reserved": 0, "lon": -77.03105183333334}, {"fusion_lat": 0.0, "name": "d20ca5f96c6fc75fc215ae370a0081ed", "is_disabled": 0, "rental_uris": {"android": "https://dc.lft.to/lastmile_qr_scan", "ios": "https://dc.lft.to/lastmile_qr_scan"}, "fusion_lon": 0.0, "lat": 38.90410716666667, "bike_id": "d20ca5f96c6fc75fc215ae370a0081ed", "type": "electric_scooter", "is_reserved": 0, "lon": -76.9732655}, {"fusion_lat": 0.0, "name": "a847a193e0a84b82946055df5ac7b1c2", "is_disabled": 0, "rental_uris": {"android": "https://dc.lft.to/lastmile_qr_scan", "ios": "https://dc.lft.to/lastmile_qr_scan"}, "fusion_lon": 0.0, "lat": 38.928879333333335, "bike_id": "a847a193e0a84b82946055df5ac7b1c2", "type": "electric_scooter", "is_reserved": 0, "lon": -77.03310616666667}, {"fusion_lat": 0.0, "name": "ff0ff3e8c4d6430bdce8610984ef7b51", "is_disabled": 0, "rental_uris": {"android": "https://dc.lft.to/lastmile_qr_scan", "ios": "https://dc.lft.to/lastmile_qr_scan"}, "fusion_lon": 0.0, "lat": 38.94596933333333, "bike_id": "ff0ff3e8c4d6430bdce8610984ef7b51", "type": "electric_scooter", "is_reserved": 0, "lon": -77.02979216666667}, {"fusion_lat": 0.0, "name": "6c3b6f21564b269c96d2138503a91656", "is_disabled": 0, "rental_uris": {"android": "https://dc.lft.to/lastmile_qr_scan", "ios": "https://dc.lft.to/lastmile_qr_scan"}, "fusion_lon": 0.0, "lat": 38.857802166666666, "bike_id": "6c3b6f21564b269c96d2138503a91656", "type": "electric_scooter", "is_reserved": 0, "lon": -76.97299516666666}, {"fusion_lat": 0.0, "name": "10952501207db864f36de36b3b20cb92", "is_disabled": 0, "rental_uris": {"android": "https://dc.lft.to/lastmile_qr_scan", "ios": "https://dc.lft.to/lastmile_qr_scan"}, "fusion_lon": 0.0, "lat": 38.845071833333336, "bike_id": "10952501207db864f36de36b3b20cb92", "type": "electric_bike", "is_reserved": 0, "lon": -76.99354083333333}, {"fusion_lat": 0.0, "name": "f3b7aa8ddbf3e73cde5096c38067d90a", "is_disabled": 0, "rental_uris": {"android": "https://dc.lft.to/lastmile_qr_scan", "ios": "https://dc.lft.to/lastmile_qr_scan"}, "fusion_lon": 0.0, "lat": 38.903879333333336, "bike_id": "f3b7aa8ddbf3e73cde5096c38067d90a", "type": "electric_scooter", "is_reserved": 0, "lon": -77.0614245}, {"fusion_lat": 0.0, "name": "267468a11e5d39a68b8184159c0ee8f1", "is_disabled": 0, "rental_uris": {"android": "https://dc.lft.to/lastmile_qr_scan", "ios": "https://dc.lft.to/lastmile_qr_scan"}, "fusion_lon": 0.0, "lat": 38.91181133333333, "bike_id": "267468a11e5d39a68b8184159c0ee8f1", "type": "electric_scooter", "is_reserved": 0, "lon": -77.03956833333334}, {"fusion_lat": 0.0, "name": "5ba335c7dd337d3a6484ec09c725ac80", "is_disabled": 0, "rental_uris": {"android": "https://dc.lft.to/lastmile_qr_scan", "ios": "https://dc.lft.to/lastmile_qr_scan"}, "fusion_lon": 0.0, "lat": 38.88681783333333, "bike_id": "5ba335c7dd337d3a6484ec09c725ac80", "type": "electric_bike", "is_reserved": 0, "lon": -77.16241433333333}, {"fusion_lat": 0.0, "name": "41e0e06fbe4a63607540e29dee4fd582", "is_disabled": 0, "rental_uris": {"android": "https://dc.lft.to/lastmile_qr_scan", "ios": "https://dc.lft.to/lastmile_qr_scan"}, "fusion_lon": 0.0, "lat": 38.925332166666664, "bike_id": "41e0e06fbe4a63607540e29dee4fd582", "type": "electric_scooter", "is_reserved": 0, "lon": -77.05565333333334}, {"fusion_lat": 0.0, "name": "f1c88a6e0d18b37e23b9172bb5de79ab", "is_disabled": 0, "rental_uris": {"android": "https://dc.lft.to/lastmile_qr_scan", "ios": "https://dc.lft.to/lastmile_qr_scan"}, "fusion_lon": 0.0, "lat": 38.90399033333333, "bike_id": "f1c88a6e0d18b37e23b9172bb5de79ab", "type": "electric_scooter", "is_reserved": 0, "lon": -76.98464266666667}, {"fusion_lat": 0.0, "name": "e6f8e456ea2c302a0bf5bafbacb05824", "is_disabled": 0, "rental_uris": {"android": "https://dc.lft.to/lastmile_qr_scan", "ios": "https://dc.lft.to/lastmile_qr_scan"}, "fusion_lon": 0.0, "lat": 38.8845785, "bike_id": "e6f8e456ea2c302a0bf5bafbacb05824", "type": "electric_scooter", "is_reserved": 0, "lon": -76.926214}, {"fusion_lat": 0.0, "name": "d18197cb07b317f4d5a31cf96d8f0e16", "is_disabled": 0, "rental_uris": {"android": "https://dc.lft.to/lastmile_qr_scan", "ios": "https://dc.lft.to/lastmile_qr_scan"}, "fusion_lon": 0.0, "lat": 38.92081533333333, "bike_id": "d18197cb07b317f4d5a31cf96d8f0e16", "type": "electric_scooter", "is_reserved": 0, "lon": -77.02506183333334}, {"fusion_lat": 0.0, "name": "19a47fb2fa021f11c942952885338b98", "is_disabled": 0, "rental_uris": {"android": "https://dc.lft.to/lastmile_qr_scan", "ios": "https://dc.lft.to/lastmile_qr_scan"}, "fusion_lon": 0.0, "lat": 38.961279166666664, "bike_id": "19a47fb2fa021f11c942952885338b98", "type": "electric_bike", "is_reserved": 0, "lon": -77.03276966666667}, {"fusion_lat": 0.0, "name": "a42d7a440e4f560f93b376b63408759f", "is_disabled": 0, "rental_uris": {"android": "https://dc.lft.to/lastmile_qr_scan", "ios": "https://dc.lft.to/lastmile_qr_scan"}, "fusion_lon": 0.0, "lat": 38.91708766666667, "bike_id": "a42d7a440e4f560f93b376b63408759f", "type": "electric_scooter", "is_reserved": 0, "lon": -77.0347365}, {"fusion_lat": 0.0, "name": "94b670f9af04ad722d13f82d34bc59f3", "is_disabled": 0, "rental_uris": {"android": "https://dc.lft.to/lastmile_qr_scan", "ios": "https://dc.lft.to/lastmile_qr_scan"}, "fusion_lon": 0.0, "lat": 38.89891883333333, "bike_id": "94b670f9af04ad722d13f82d34bc59f3", "type": "electric_scooter", "is_reserved": 0, "lon": -77.0329145}, {"fusion_lat": 0.0, "name": "1ede247ad433c1d62b4d1699129bd744", "is_disabled": 0, "rental_uris": {"android": "https://dc.lft.to/lastmile_qr_scan", "ios": "https://dc.lft.to/lastmile_qr_scan"}, "fusion_lon": 0.0, "lat": 38.9163975, "bike_id": "1ede247ad433c1d62b4d1699129bd744", "type": "electric_scooter", "is_reserved": 0, "lon": -77.04788633333334}, {"fusion_lat": 0.0, "name": "a8b3e646aedf1ebd87928209ecd9ec76", "is_disabled": 0, "rental_uris": {"android": "https://dc.lft.to/lastmile_qr_scan", "ios": "https://dc.lft.to/lastmile_qr_scan"}, "fusion_lon": 0.0, "lat": 38.8787105, "bike_id": "a8b3e646aedf1ebd87928209ecd9ec76", "type": "electric_scooter", "is_reserved": 0, "lon": -76.98232483333334}, {"fusion_lat": 0.0, "name": "a8e872ec4354040ef71e7f6c4a548857", "is_disabled": 0, "rental_uris": {"android": "https://dc.lft.to/lastmile_qr_scan", "ios": "https://dc.lft.to/lastmile_qr_scan"}, "fusion_lon": 0.0, "lat": 38.93975316666667, "bike_id": "a8e872ec4354040ef71e7f6c4a548857", "type": "electric_scooter", "is_reserved": 0, "lon": -77.03560583333334}, {"fusion_lat": 0.0, "name": "9c914f9a54c41440d989cdc2a8eecdd2", "is_disabled": 0, "rental_uris": {"android": "https://dc.lft.to/lastmile_qr_scan", "ios": "https://dc.lft.to/lastmile_qr_scan"}, "fusion_lon": 0.0, "lat": 38.88471416666667, "bike_id": "9c914f9a54c41440d989cdc2a8eecdd2", "type": "electric_scooter", "is_reserved": 0, "lon": -76.94983416666666}, {"fusion_lat": 0.0, "name": "1d0383cb48f221789db46b735905b45e", "is_disabled": 0, "rental_uris": {"android": "https://dc.lft.to/lastmile_qr_scan", "ios": "https://dc.lft.to/lastmile_qr_scan"}, "fusion_lon": 0.0, "lat": 38.907785833333335, "bike_id": "1d0383cb48f221789db46b735905b45e", "type": "electric_scooter", "is_reserved": 0, "lon": -77.04001216666667}, {"fusion_lat": 0.0, "name": "f16aa736385f95981fe9e0043c7dac11", "is_disabled": 0, "rental_uris": {"android": "https://dc.lft.to/lastmile_qr_scan", "ios": "https://dc.lft.to/lastmile_qr_scan"}, "fusion_lon": 0.0, "lat": 38.928873, "bike_id": "f16aa736385f95981fe9e0043c7dac11", "type": "electric_scooter", "is_reserved": 0, "lon": -77.03235633333334}, {"fusion_lat": 0.0, "name": "ad6dd37770358222ec5375957b33d201", "is_disabled": 0, "rental_uris": {"android": "https://dc.lft.to/lastmile_qr_scan", "ios": "https://dc.lft.to/lastmile_qr_scan"}, "fusion_lon": 0.0, "lat": 38.91737966666667, "bike_id": "ad6dd37770358222ec5375957b33d201", "type": "electric_scooter", "is_reserved": 0, "lon": -77.03211433333334}, {"fusion_lat": 0.0, "name": "0c9587c7ec9ee5858105243245e7f12c", "is_disabled": 0, "rental_uris": {"android": "https://dc.lft.to/lastmile_qr_scan", "ios": "https://dc.lft.to/lastmile_qr_scan"}, "fusion_lon": 0.0, "lat": 38.9226895, "bike_id": "0c9587c7ec9ee5858105243245e7f12c", "type": "electric_scooter", "is_reserved": 0, "lon": -77.029649}, {"fusion_lat": 0.0, "name": "fa738b7821ddb56d258623151e49f266", "is_disabled": 0, "rental_uris": {"android": "https://dc.lft.to/lastmile_qr_scan", "ios": "https://dc.lft.to/lastmile_qr_scan"}, "fusion_lon": 0.0, "lat": 38.918213333333334, "bike_id": "fa738b7821ddb56d258623151e49f266", "type": "electric_scooter", "is_reserved": 0, "lon": -77.01213116666666}, {"fusion_lat": 0.0, "name": "259cbbbfab00a3f6e45c30cf525d3dc2", "is_disabled": 0, "rental_uris": {"android": "https://dc.lft.to/lastmile_qr_scan", "ios": "https://dc.lft.to/lastmile_qr_scan"}, "fusion_lon": 0.0, "lat": 38.9000295, "bike_id": "259cbbbfab00a3f6e45c30cf525d3dc2", "type": "electric_scooter", "is_reserved": 0, "lon": -77.0064905}, {"fusion_lat": 0.0, "name": "8f48db5cdb6104534f676606e27954ea", "is_disabled": 0, "rental_uris": {"android": "https://dc.lft.to/lastmile_qr_scan", "ios": "https://dc.lft.to/lastmile_qr_scan"}, "fusion_lon": 0.0, "lat": 38.885302, "bike_id": "8f48db5cdb6104534f676606e27954ea", "type": "electric_scooter", "is_reserved": 0, "lon": -77.01511683333334}, {"fusion_lat": 0.0, "name": "25b29c810525f32fe59c90643181b72e", "is_disabled": 0, "rental_uris": {"android": "https://dc.lft.to/lastmile_qr_scan", "ios": "https://dc.lft.to/lastmile_qr_scan"}, "fusion_lon": 0.0, "lat": 38.92408783333333, "bike_id": "25b29c810525f32fe59c90643181b72e", "type": "electric_scooter", "is_reserved": 0, "lon": -77.0429785}, {"fusion_lat": 0.0, "name": "5c9f6b081800ccb01f65fc13124914b0", "is_disabled": 0, "rental_uris": {"android": "https://dc.lft.to/lastmile_qr_scan", "ios": "https://dc.lft.to/lastmile_qr_scan"}, "fusion_lon": 0.0, "lat": 38.90424866666667, "bike_id": "5c9f6b081800ccb01f65fc13124914b0", "type": "electric_scooter", "is_reserved": 0, "lon": -76.94976033333333}, {"fusion_lat": 0.0, "name": "66ab703bf5cea2c62b014b66fcd9cba6", "is_disabled": 0, "rental_uris": {"android": "https://dc.lft.to/lastmile_qr_scan", "ios": "https://dc.lft.to/lastmile_qr_scan"}, "fusion_lon": 0.0, "lat": 38.911774666666666, "bike_id": "66ab703bf5cea2c62b014b66fcd9cba6", "type": "electric_scooter", "is_reserved": 0, "lon": -77.0609565}, {"fusion_lat": 0.0, "name": "e33703e82a961349a8160182e599518b", "is_disabled": 0, "rental_uris": {"android": "https://dc.lft.to/lastmile_qr_scan", "ios": "https://dc.lft.to/lastmile_qr_scan"}, "fusion_lon": 0.0, "lat": 38.921594166666665, "bike_id": "e33703e82a961349a8160182e599518b", "type": "electric_scooter", "is_reserved": 0, "lon": -77.033805}, {"fusion_lat": 0.0, "name": "402f63f4c3d36106a461831ecd973ab1", "is_disabled": 0, "rental_uris": {"android": "https://dc.lft.to/lastmile_qr_scan", "ios": "https://dc.lft.to/lastmile_qr_scan"}, "fusion_lon": 0.0, "lat": 38.93459033333333, "bike_id": "402f63f4c3d36106a461831ecd973ab1", "type": "electric_scooter", "is_reserved": 0, "lon": -77.07259283333333}, {"fusion_lat": 0.0, "name": "5a05215e6374f4825956b74c9e0cebb3", "is_disabled": 0, "rental_uris": {"android": "https://dc.lft.to/lastmile_qr_scan", "ios": "https://dc.lft.to/lastmile_qr_scan"}, "fusion_lon": 0.0, "lat": 38.897296833333336, "bike_id": "5a05215e6374f4825956b74c9e0cebb3", "type": "electric_scooter", "is_reserved": 0, "lon": -77.01289866666667}, {"fusion_lat": 0.0, "name": "2c7b19da372020aee5bfb485d721f9db", "is_disabled": 0, "rental_uris": {"android": "https://dc.lft.to/lastmile_qr_scan", "ios": "https://dc.lft.to/lastmile_qr_scan"}, "fusion_lon": 0.0, "lat": 38.91330933333333, "bike_id": "2c7b19da372020aee5bfb485d721f9db", "type": "electric_scooter", "is_reserved": 0, "lon": -77.03168633333334}, {"fusion_lat": 0.0, "name": "cbd0135c55d1549e89fa37d9e44681f8", "is_disabled": 0, "rental_uris": {"android": "https://dc.lft.to/lastmile_qr_scan", "ios": "https://dc.lft.to/lastmile_qr_scan"}, "fusion_lon": 0.0, "lat": 38.97257166666667, "bike_id": "cbd0135c55d1549e89fa37d9e44681f8", "type": "electric_bike", "is_reserved": 0, "lon": -76.992765}, {"fusion_lat": 0.0, "name": "af75723914f4db0f66ba8a4cd5716ae0", "is_disabled": 0, "rental_uris": {"android": "https://dc.lft.to/lastmile_qr_scan", "ios": "https://dc.lft.to/lastmile_qr_scan"}, "fusion_lon": 0.0, "lat": 38.883159166666665, "bike_id": "af75723914f4db0f66ba8a4cd5716ae0", "type": "electric_scooter", "is_reserved": 0, "lon": -77.01387266666667}, {"fusion_lat": 0.0, "name": "0385370047b2bb7496ebe934932f443c", "is_disabled": 0, "rental_uris": {"android": "https://dc.lft.to/lastmile_qr_scan", "ios": "https://dc.lft.to/lastmile_qr_scan"}, "fusion_lon": 0.0, "lat": 38.92452016666667, "bike_id": "0385370047b2bb7496ebe934932f443c", "type": "electric_scooter", "is_reserved": 0, "lon": -77.00878716666666}, {"fusion_lat": 0.0, "name": "8967e8aaee23b6016dbc031fdcb47d39", "is_disabled": 0, "rental_uris": {"android": "https://dc.lft.to/lastmile_qr_scan", "ios": "https://dc.lft.to/lastmile_qr_scan"}, "fusion_lon": 0.0, "lat": 39.034355, "bike_id": "8967e8aaee23b6016dbc031fdcb47d39", "type": "electric_bike", "is_reserved": 0, "lon": -77.04309383333333}, {"fusion_lat": 0.0, "name": "4b8855aea4b6fe5e2fc3b0fc8a018dd0", "is_disabled": 0, "rental_uris": {"android": "https://dc.lft.to/lastmile_qr_scan", "ios": "https://dc.lft.to/lastmile_qr_scan"}, "fusion_lon": 0.0, "lat": 38.894791833333336, "bike_id": "4b8855aea4b6fe5e2fc3b0fc8a018dd0", "type": "electric_scooter", "is_reserved": 0, "lon": -77.02700066666667}, {"fusion_lat": 0.0, "name": "e400a6998276685c3aa22e3d28445574", "is_disabled": 0, "rental_uris": {"android": "https://dc.lft.to/lastmile_qr_scan", "ios": "https://dc.lft.to/lastmile_qr_scan"}, "fusion_lon": 0.0, "lat": 38.8770195, "bike_id": "e400a6998276685c3aa22e3d28445574", "type": "electric_scooter", "is_reserved": 0, "lon": -77.01661966666667}, {"fusion_lat": 0.0, "name": "3a85debfcb78546d2c6fcc9075226021", "is_disabled": 0, "rental_uris": {"android": "https://dc.lft.to/lastmile_qr_scan", "ios": "https://dc.lft.to/lastmile_qr_scan"}, "fusion_lon": 0.0, "lat": 38.90699, "bike_id": "3a85debfcb78546d2c6fcc9075226021", "type": "electric_scooter", "is_reserved": 0, "lon": -77.06537016666667}, {"fusion_lat": 0.0, "name": "8658506b2911b3a68592e4c27c11565b", "is_disabled": 0, "rental_uris": {"android": "https://dc.lft.to/lastmile_qr_scan", "ios": "https://dc.lft.to/lastmile_qr_scan"}, "fusion_lon": 0.0, "lat": 38.896659, "bike_id": "8658506b2911b3a68592e4c27c11565b", "type": "electric_scooter", "is_reserved": 0, "lon": -77.051057}, {"fusion_lat": 0.0, "name": "5d0445a83bc98f85cf33a96b1af2bdc0", "is_disabled": 0, "rental_uris": {"android": "https://dc.lft.to/lastmile_qr_scan", "ios": "https://dc.lft.to/lastmile_qr_scan"}, "fusion_lon": 0.0, "lat": 38.92319416666667, "bike_id": "5d0445a83bc98f85cf33a96b1af2bdc0", "type": "electric_scooter", "is_reserved": 0, "lon": -77.02963483333333}, {"fusion_lat": 0.0, "name": "bfe7ab065fda8358ba5d9d3172a37038", "is_disabled": 0, "rental_uris": {"android": "https://dc.lft.to/lastmile_qr_scan", "ios": "https://dc.lft.to/lastmile_qr_scan"}, "fusion_lon": 0.0, "lat": 38.904014333333336, "bike_id": "bfe7ab065fda8358ba5d9d3172a37038", "type": "electric_scooter", "is_reserved": 0, "lon": -77.0428175}, {"fusion_lat": 0.0, "name": "1d4571c81bf6b08f1f26bf0faebfe958", "is_disabled": 0, "rental_uris": {"android": "https://dc.lft.to/lastmile_qr_scan", "ios": "https://dc.lft.to/lastmile_qr_scan"}, "fusion_lon": 0.0, "lat": 38.887404, "bike_id": "1d4571c81bf6b08f1f26bf0faebfe958", "type": "electric_scooter", "is_reserved": 0, "lon": -77.01532516666667}, {"fusion_lat": 0.0, "name": "68eb8c1a5794841cd5801f2afc69c8fc", "is_disabled": 0, "rental_uris": {"android": "https://dc.lft.to/lastmile_qr_scan", "ios": "https://dc.lft.to/lastmile_qr_scan"}, "fusion_lon": 0.0, "lat": 38.992314, "bike_id": "68eb8c1a5794841cd5801f2afc69c8fc", "type": "electric_bike", "is_reserved": 0, "lon": -76.9440705}, {"fusion_lat": 0.0, "name": "11696d4fd0d4a2a0ce89c3262a9ddaf2", "is_disabled": 0, "rental_uris": {"android": "https://dc.lft.to/lastmile_qr_scan", "ios": "https://dc.lft.to/lastmile_qr_scan"}, "fusion_lon": 0.0, "lat": 38.9222575, "bike_id": "11696d4fd0d4a2a0ce89c3262a9ddaf2", "type": "electric_scooter", "is_reserved": 0, "lon": -77.04647316666667}, {"fusion_lat": 0.0, "name": "1e23bbd4a127e37e461bfb4166758515", "is_disabled": 0, "rental_uris": {"android": "https://dc.lft.to/lastmile_qr_scan", "ios": "https://dc.lft.to/lastmile_qr_scan"}, "fusion_lon": 0.0, "lat": 38.96479566666667, "bike_id": "1e23bbd4a127e37e461bfb4166758515", "type": "electric_scooter", "is_reserved": 0, "lon": -77.01195216666666}, {"fusion_lat": 0.0, "name": "de42fa0d85b906abc2fa826f48d21515", "is_disabled": 0, "rental_uris": {"android": "https://dc.lft.to/lastmile_qr_scan", "ios": "https://dc.lft.to/lastmile_qr_scan"}, "fusion_lon": 0.0, "lat": 38.899412, "bike_id": "de42fa0d85b906abc2fa826f48d21515", "type": "electric_scooter", "is_reserved": 0, "lon": -77.02141233333333}, {"fusion_lat": 0.0, "name": "3e6322d9a3dbb04bb6492639e200b83c", "is_disabled": 0, "rental_uris": {"android": "https://dc.lft.to/lastmile_qr_scan", "ios": "https://dc.lft.to/lastmile_qr_scan"}, "fusion_lon": 0.0, "lat": 38.921337666666666, "bike_id": "3e6322d9a3dbb04bb6492639e200b83c", "type": "electric_scooter", "is_reserved": 0, "lon": -77.04434733333333}, {"fusion_lat": 0.0, "name": "441a52d26c94ef559a55324c850c9aef", "is_disabled": 0, "rental_uris": {"android": "https://dc.lft.to/lastmile_qr_scan", "ios": "https://dc.lft.to/lastmile_qr_scan"}, "fusion_lon": 0.0, "lat": 38.89349816666667, "bike_id": "441a52d26c94ef559a55324c850c9aef", "type": "electric_scooter", "is_reserved": 0, "lon": -76.95024116666667}, {"fusion_lat": 0.0, "name": "17272cd74b45d93f1446e7f456bef15d", "is_disabled": 0, "rental_uris": {"android": "https://dc.lft.to/lastmile_qr_scan", "ios": "https://dc.lft.to/lastmile_qr_scan"}, "fusion_lon": 0.0, "lat": 38.91554816666667, "bike_id": "17272cd74b45d93f1446e7f456bef15d", "type": "electric_scooter", "is_reserved": 0, "lon": -77.03211266666666}, {"fusion_lat": 0.0, "name": "4e4cdc335ca2f25374a93378ee8a70ab", "is_disabled": 0, "rental_uris": {"android": "https://dc.lft.to/lastmile_qr_scan", "ios": "https://dc.lft.to/lastmile_qr_scan"}, "fusion_lon": 0.0, "lat": 38.855039, "bike_id": "4e4cdc335ca2f25374a93378ee8a70ab", "type": "electric_bike", "is_reserved": 0, "lon": -77.12046566666666}, {"fusion_lat": 0.0, "name": "448c281b83217aa5f4d2cd21b1c3eb49", "is_disabled": 0, "rental_uris": {"android": "https://dc.lft.to/lastmile_qr_scan", "ios": "https://dc.lft.to/lastmile_qr_scan"}, "fusion_lon": 0.0, "lat": 38.951812333333336, "bike_id": "448c281b83217aa5f4d2cd21b1c3eb49", "type": "electric_scooter", "is_reserved": 0, "lon": -77.02723716666667}, {"fusion_lat": 0.0, "name": "431f3cd98dae03e96b9cf5c3f686c707", "is_disabled": 0, "rental_uris": {"android": "https://dc.lft.to/lastmile_qr_scan", "ios": "https://dc.lft.to/lastmile_qr_scan"}, "fusion_lon": 0.0, "lat": 38.905632, "bike_id": "431f3cd98dae03e96b9cf5c3f686c707", "type": "electric_scooter", "is_reserved": 0, "lon": -77.01313566666667}, {"fusion_lat": 0.0, "name": "4a74972812490617144ca6c90fff5db1", "is_disabled": 0, "rental_uris": {"android": "https://dc.lft.to/lastmile_qr_scan", "ios": "https://dc.lft.to/lastmile_qr_scan"}, "fusion_lon": 0.0, "lat": 38.89643316666667, "bike_id": "4a74972812490617144ca6c90fff5db1", "type": "electric_scooter", "is_reserved": 0, "lon": -77.046575}, {"fusion_lat": 0.0, "name": "f8250cfeff8cd8a286047a06835328fd", "is_disabled": 0, "rental_uris": {"android": "https://dc.lft.to/lastmile_qr_scan", "ios": "https://dc.lft.to/lastmile_qr_scan"}, "fusion_lon": 0.0, "lat": 38.903041333333334, "bike_id": "f8250cfeff8cd8a286047a06835328fd", "type": "electric_scooter", "is_reserved": 0, "lon": -77.06521733333334}, {"fusion_lat": 0.0, "name": "7426add45c902493bfcc79e302b724cf", "is_disabled": 0, "rental_uris": {"android": "https://dc.lft.to/lastmile_qr_scan", "ios": "https://dc.lft.to/lastmile_qr_scan"}, "fusion_lon": 0.0, "lat": 38.9180245, "bike_id": "7426add45c902493bfcc79e302b724cf", "type": "electric_scooter", "is_reserved": 0, "lon": -77.0344135}, {"fusion_lat": 0.0, "name": "c1d02f8f9fbc64a4c0273d0204086e54", "is_disabled": 0, "rental_uris": {"android": "https://dc.lft.to/lastmile_qr_scan", "ios": "https://dc.lft.to/lastmile_qr_scan"}, "fusion_lon": 0.0, "lat": 38.930653666666664, "bike_id": "c1d02f8f9fbc64a4c0273d0204086e54", "type": "electric_scooter", "is_reserved": 0, "lon": -77.029793}, {"fusion_lat": 0.0, "name": "06e33c193c10218fc2f1afb3e3dcbc08", "is_disabled": 0, "rental_uris": {"android": "https://dc.lft.to/lastmile_qr_scan", "ios": "https://dc.lft.to/lastmile_qr_scan"}, "fusion_lon": 0.0, "lat": 38.892126166666664, "bike_id": "06e33c193c10218fc2f1afb3e3dcbc08", "type": "electric_scooter", "is_reserved": 0, "lon": -77.032155}, {"fusion_lat": 0.0, "name": "21e3377ff70ed2dd331c97619ee210e2", "is_disabled": 0, "rental_uris": {"android": "https://dc.lft.to/lastmile_qr_scan", "ios": "https://dc.lft.to/lastmile_qr_scan"}, "fusion_lon": 0.0, "lat": 38.934284166666664, "bike_id": "21e3377ff70ed2dd331c97619ee210e2", "type": "electric_scooter", "is_reserved": 0, "lon": -77.04424083333333}, {"fusion_lat": 0.0, "name": "ed2ccacc542a5fd5ddf94884cf76539e", "is_disabled": 0, "rental_uris": {"android": "https://dc.lft.to/lastmile_qr_scan", "ios": "https://dc.lft.to/lastmile_qr_scan"}, "fusion_lon": 0.0, "lat": 38.93178116666667, "bike_id": "ed2ccacc542a5fd5ddf94884cf76539e", "type": "electric_scooter", "is_reserved": 0, "lon": -77.0431075}, {"fusion_lat": 0.0, "name": "9c959783fd87313418c4e0aa5e8c3603", "is_disabled": 0, "rental_uris": {"android": "https://dc.lft.to/lastmile_qr_scan", "ios": "https://dc.lft.to/lastmile_qr_scan"}, "fusion_lon": 0.0, "lat": 38.90492483333333, "bike_id": "9c959783fd87313418c4e0aa5e8c3603", "type": "electric_scooter", "is_reserved": 0, "lon": -77.03600666666667}, {"fusion_lat": 0.0, "name": "dc95095436b3c4a8b587aa3aecbc82c3", "is_disabled": 0, "rental_uris": {"android": "https://dc.lft.to/lastmile_qr_scan", "ios": "https://dc.lft.to/lastmile_qr_scan"}, "fusion_lon": 0.0, "lat": 38.898651, "bike_id": "dc95095436b3c4a8b587aa3aecbc82c3", "type": "electric_scooter", "is_reserved": 0, "lon": -76.946385}, {"fusion_lat": 0.0, "name": "420906e5ecfe7a95dabc8768ade4c764", "is_disabled": 0, "rental_uris": {"android": "https://dc.lft.to/lastmile_qr_scan", "ios": "https://dc.lft.to/lastmile_qr_scan"}, "fusion_lon": 0.0, "lat": 38.915699000000004, "bike_id": "420906e5ecfe7a95dabc8768ade4c764", "type": "electric_scooter", "is_reserved": 0, "lon": -77.0316635}, {"fusion_lat": 0.0, "name": "04c8c25de5684cc7f56b3309277a0627", "is_disabled": 0, "rental_uris": {"android": "https://dc.lft.to/lastmile_qr_scan", "ios": "https://dc.lft.to/lastmile_qr_scan"}, "fusion_lon": 0.0, "lat": 38.924417, "bike_id": "04c8c25de5684cc7f56b3309277a0627", "type": "electric_scooter", "is_reserved": 0, "lon": -77.04029916666667}, {"fusion_lat": 0.0, "name": "9aee66943c3c342e6d184a4c67eb5088", "is_disabled": 0, "rental_uris": {"android": "https://dc.lft.to/lastmile_qr_scan", "ios": "https://dc.lft.to/lastmile_qr_scan"}, "fusion_lon": 0.0, "lat": 38.92687866666667, "bike_id": "9aee66943c3c342e6d184a4c67eb5088", "type": "electric_scooter", "is_reserved": 0, "lon": -77.02286316666667}, {"fusion_lat": 0.0, "name": "d6a826323c2099a1a3bda899fcc4f556", "is_disabled": 0, "rental_uris": {"android": "https://dc.lft.to/lastmile_qr_scan", "ios": "https://dc.lft.to/lastmile_qr_scan"}, "fusion_lon": 0.0, "lat": 38.88735883333333, "bike_id": "d6a826323c2099a1a3bda899fcc4f556", "type": "electric_scooter", "is_reserved": 0, "lon": -77.02581316666667}, {"fusion_lat": 0.0, "name": "5e5d787144adf2e0a9b9e7d635898ace", "is_disabled": 0, "rental_uris": {"android": "https://dc.lft.to/lastmile_qr_scan", "ios": "https://dc.lft.to/lastmile_qr_scan"}, "fusion_lon": 0.0, "lat": 38.915475666666666, "bike_id": "5e5d787144adf2e0a9b9e7d635898ace", "type": "electric_scooter", "is_reserved": 0, "lon": -77.00554533333333}, {"fusion_lat": 0.0, "name": "534845de0b494b3cbdf10bb0261b2631", "is_disabled": 0, "rental_uris": {"android": "https://dc.lft.to/lastmile_qr_scan", "ios": "https://dc.lft.to/lastmile_qr_scan"}, "fusion_lon": 0.0, "lat": 38.89723733333334, "bike_id": "534845de0b494b3cbdf10bb0261b2631", "type": "electric_scooter", "is_reserved": 0, "lon": -77.0334405}, {"fusion_lat": 0.0, "name": "164247da954f113388fb2d9a867f2e3f", "is_disabled": 0, "rental_uris": {"android": "https://dc.lft.to/lastmile_qr_scan", "ios": "https://dc.lft.to/lastmile_qr_scan"}, "fusion_lon": 0.0, "lat": 38.89227116666667, "bike_id": "164247da954f113388fb2d9a867f2e3f", "type": "electric_scooter", "is_reserved": 0, "lon": -77.02110933333333}, {"fusion_lat": 0.0, "name": "cbeec8ad84cd8ed17303d91bbd335208", "is_disabled": 0, "rental_uris": {"android": "https://dc.lft.to/lastmile_qr_scan", "ios": "https://dc.lft.to/lastmile_qr_scan"}, "fusion_lon": 0.0, "lat": 38.903132, "bike_id": "cbeec8ad84cd8ed17303d91bbd335208", "type": "electric_scooter", "is_reserved": 0, "lon": -77.0445955}, {"fusion_lat": 0.0, "name": "ff757f8dbdaea6eb8200309945ca7def", "is_disabled": 0, "rental_uris": {"android": "https://dc.lft.to/lastmile_qr_scan", "ios": "https://dc.lft.to/lastmile_qr_scan"}, "fusion_lon": 0.0, "lat": 38.928954, "bike_id": "ff757f8dbdaea6eb8200309945ca7def", "type": "electric_bike", "is_reserved": 0, "lon": -77.23179516666667}, {"fusion_lat": 0.0, "name": "35c05c4e7d856bfabe6bb3130867c07c", "is_disabled": 0, "rental_uris": {"android": "https://dc.lft.to/lastmile_qr_scan", "ios": "https://dc.lft.to/lastmile_qr_scan"}, "fusion_lon": 0.0, "lat": 38.89921483333333, "bike_id": "35c05c4e7d856bfabe6bb3130867c07c", "type": "electric_scooter", "is_reserved": 0, "lon": -76.98536233333333}, {"fusion_lat": 0.0, "name": "5aa1648dd20c45da1d23686a03e79c96", "is_disabled": 0, "rental_uris": {"android": "https://dc.lft.to/lastmile_qr_scan", "ios": "https://dc.lft.to/lastmile_qr_scan"}, "fusion_lon": 0.0, "lat": 38.90441883333333, "bike_id": "5aa1648dd20c45da1d23686a03e79c96", "type": "electric_scooter", "is_reserved": 0, "lon": -77.0406315}, {"fusion_lat": 0.0, "name": "0eeb970d11629cb6683d1355f99f6f1d", "is_disabled": 0, "rental_uris": {"android": "https://dc.lft.to/lastmile_qr_scan", "ios": "https://dc.lft.to/lastmile_qr_scan"}, "fusion_lon": 0.0, "lat": 38.9444015, "bike_id": "0eeb970d11629cb6683d1355f99f6f1d", "type": "electric_scooter", "is_reserved": 0, "lon": -77.0635425}, {"fusion_lat": 0.0, "name": "4762f2aa671792950a5e90bc02f43f32", "is_disabled": 0, "rental_uris": {"android": "https://dc.lft.to/lastmile_qr_scan", "ios": "https://dc.lft.to/lastmile_qr_scan"}, "fusion_lon": 0.0, "lat": 38.89856983333333, "bike_id": "4762f2aa671792950a5e90bc02f43f32", "type": "electric_scooter", "is_reserved": 0, "lon": -77.02872183333334}, {"fusion_lat": 0.0, "name": "7965fa61ba1202f3ec35bb02511ed6bd", "is_disabled": 0, "rental_uris": {"android": "https://dc.lft.to/lastmile_qr_scan", "ios": "https://dc.lft.to/lastmile_qr_scan"}, "fusion_lon": 0.0, "lat": 38.85577633333333, "bike_id": "7965fa61ba1202f3ec35bb02511ed6bd", "type": "electric_scooter", "is_reserved": 0, "lon": -76.96647816666666}, {"fusion_lat": 0.0, "name": "cbd34cb7810f07228e85550e61daf315", "is_disabled": 0, "rental_uris": {"android": "https://dc.lft.to/lastmile_qr_scan", "ios": "https://dc.lft.to/lastmile_qr_scan"}, "fusion_lon": 0.0, "lat": 38.9082775, "bike_id": "cbd34cb7810f07228e85550e61daf315", "type": "electric_scooter", "is_reserved": 0, "lon": -77.0446625}, {"fusion_lat": 0.0, "name": "a613127d6ccb669973342220acc04d3d", "is_disabled": 0, "rental_uris": {"android": "https://dc.lft.to/lastmile_qr_scan", "ios": "https://dc.lft.to/lastmile_qr_scan"}, "fusion_lon": 0.0, "lat": 38.897338166666664, "bike_id": "a613127d6ccb669973342220acc04d3d", "type": "electric_scooter", "is_reserved": 0, "lon": -77.05523466666666}, {"fusion_lat": 0.0, "name": "03c78dfdb4c092d17119e07ef6e37728", "is_disabled": 0, "rental_uris": {"android": "https://dc.lft.to/lastmile_qr_scan", "ios": "https://dc.lft.to/lastmile_qr_scan"}, "fusion_lon": 0.0, "lat": 38.906653, "bike_id": "03c78dfdb4c092d17119e07ef6e37728", "type": "electric_scooter", "is_reserved": 0, "lon": -77.02490316666666}, {"fusion_lat": 0.0, "name": "0e91195a843b82dc6e41c7298cb9278d", "is_disabled": 0, "rental_uris": {"android": "https://dc.lft.to/lastmile_qr_scan", "ios": "https://dc.lft.to/lastmile_qr_scan"}, "fusion_lon": 0.0, "lat": 38.9000305, "bike_id": "0e91195a843b82dc6e41c7298cb9278d", "type": "electric_scooter", "is_reserved": 0, "lon": -77.04504666666666}, {"fusion_lat": 0.0, "name": "cb685a51b9e2e76a07ddf69f4cf1ad28", "is_disabled": 0, "rental_uris": {"android": "https://dc.lft.to/lastmile_qr_scan", "ios": "https://dc.lft.to/lastmile_qr_scan"}, "fusion_lon": 0.0, "lat": 38.9250525, "bike_id": "cb685a51b9e2e76a07ddf69f4cf1ad28", "type": "electric_bike", "is_reserved": 0, "lon": -77.057634}, {"fusion_lat": 0.0, "name": "ef085cc1c2cb0ba833e55d1d183f0abd", "is_disabled": 0, "rental_uris": {"android": "https://dc.lft.to/lastmile_qr_scan", "ios": "https://dc.lft.to/lastmile_qr_scan"}, "fusion_lon": 0.0, "lat": 38.871798, "bike_id": "ef085cc1c2cb0ba833e55d1d183f0abd", "type": "electric_scooter", "is_reserved": 0, "lon": -77.006089}, {"fusion_lat": 0.0, "name": "5db3ce10d49937930c8bb9f31b1dcd19", "is_disabled": 0, "rental_uris": {"android": "https://dc.lft.to/lastmile_qr_scan", "ios": "https://dc.lft.to/lastmile_qr_scan"}, "fusion_lon": 0.0, "lat": 38.887501, "bike_id": "5db3ce10d49937930c8bb9f31b1dcd19", "type": "electric_scooter", "is_reserved": 0, "lon": -76.9983715}, {"fusion_lat": 0.0, "name": "4f1cbf951f1cd597c487fbf265df068a", "is_disabled": 0, "rental_uris": {"android": "https://dc.lft.to/lastmile_qr_scan", "ios": "https://dc.lft.to/lastmile_qr_scan"}, "fusion_lon": 0.0, "lat": 38.915069333333335, "bike_id": "4f1cbf951f1cd597c487fbf265df068a", "type": "electric_scooter", "is_reserved": 0, "lon": -77.00058}, {"fusion_lat": 0.0, "name": "6919586aa94e27340d4c325006202180", "is_disabled": 0, "rental_uris": {"android": "https://dc.lft.to/lastmile_qr_scan", "ios": "https://dc.lft.to/lastmile_qr_scan"}, "fusion_lon": 0.0, "lat": 38.884351, "bike_id": "6919586aa94e27340d4c325006202180", "type": "electric_scooter", "is_reserved": 0, "lon": -76.9959195}, {"fusion_lat": 0.0, "name": "bb4f25eecf5ec7d83eaddb547203a886", "is_disabled": 0, "rental_uris": {"android": "https://dc.lft.to/lastmile_qr_scan", "ios": "https://dc.lft.to/lastmile_qr_scan"}, "fusion_lon": 0.0, "lat": 38.91920416666667, "bike_id": "bb4f25eecf5ec7d83eaddb547203a886", "type": "electric_scooter", "is_reserved": 0, "lon": -77.0446515}, {"fusion_lat": 0.0, "name": "f8710cad4ab858ea7b99957cce005e4a", "is_disabled": 0, "rental_uris": {"android": "https://dc.lft.to/lastmile_qr_scan", "ios": "https://dc.lft.to/lastmile_qr_scan"}, "fusion_lon": 0.0, "lat": 38.90977083333333, "bike_id": "f8710cad4ab858ea7b99957cce005e4a", "type": "electric_scooter", "is_reserved": 0, "lon": -77.03718016666667}, {"fusion_lat": 0.0, "name": "103119fb91e2136336905fdbb61d8d3e", "is_disabled": 0, "rental_uris": {"android": "https://dc.lft.to/lastmile_qr_scan", "ios": "https://dc.lft.to/lastmile_qr_scan"}, "fusion_lon": 0.0, "lat": 38.9098645, "bike_id": "103119fb91e2136336905fdbb61d8d3e", "type": "electric_scooter", "is_reserved": 0, "lon": -77.04411416666666}, {"fusion_lat": 0.0, "name": "f21eec742815395c57d5475fad874304", "is_disabled": 0, "rental_uris": {"android": "https://dc.lft.to/lastmile_qr_scan", "ios": "https://dc.lft.to/lastmile_qr_scan"}, "fusion_lon": 0.0, "lat": 38.937026333333336, "bike_id": "f21eec742815395c57d5475fad874304", "type": "electric_scooter", "is_reserved": 0, "lon": -77.03283016666667}, {"fusion_lat": 0.0, "name": "5fc2fbeaecb57c018db291e24d764a83", "is_disabled": 0, "rental_uris": {"android": "https://dc.lft.to/lastmile_qr_scan", "ios": "https://dc.lft.to/lastmile_qr_scan"}, "fusion_lon": 0.0, "lat": 38.896974166666666, "bike_id": "5fc2fbeaecb57c018db291e24d764a83", "type": "electric_scooter", "is_reserved": 0, "lon": -77.00758566666667}, {"fusion_lat": 0.0, "name": "191cafcbd5fc9abf990c77507256c142", "is_disabled": 0, "rental_uris": {"android": "https://dc.lft.to/lastmile_qr_scan", "ios": "https://dc.lft.to/lastmile_qr_scan"}, "fusion_lon": 0.0, "lat": 38.91958483333333, "bike_id": "191cafcbd5fc9abf990c77507256c142", "type": "electric_scooter", "is_reserved": 0, "lon": -77.01783233333333}, {"fusion_lat": 0.0, "name": "6660db43bcb5787853481d3c6a2befda", "is_disabled": 0, "rental_uris": {"android": "https://dc.lft.to/lastmile_qr_scan", "ios": "https://dc.lft.to/lastmile_qr_scan"}, "fusion_lon": 0.0, "lat": 38.92443633333333, "bike_id": "6660db43bcb5787853481d3c6a2befda", "type": "electric_scooter", "is_reserved": 0, "lon": -77.04028066666666}, {"fusion_lat": 0.0, "name": "3d9ce969025189d78e5365e3efc67b8e", "is_disabled": 0, "rental_uris": {"android": "https://dc.lft.to/lastmile_qr_scan", "ios": "https://dc.lft.to/lastmile_qr_scan"}, "fusion_lon": 0.0, "lat": 38.9199215, "bike_id": "3d9ce969025189d78e5365e3efc67b8e", "type": "electric_scooter", "is_reserved": 0, "lon": -77.017757}, {"fusion_lat": 0.0, "name": "6ea796abd8b0ea929dadd278299ac816", "is_disabled": 0, "rental_uris": {"android": "https://dc.lft.to/lastmile_qr_scan", "ios": "https://dc.lft.to/lastmile_qr_scan"}, "fusion_lon": 0.0, "lat": 38.92327016666667, "bike_id": "6ea796abd8b0ea929dadd278299ac816", "type": "electric_scooter", "is_reserved": 0, "lon": -77.02051916666667}, {"fusion_lat": 0.0, "name": "82c6757355c2afc023e9fdbd735c1db4", "is_disabled": 0, "rental_uris": {"android": "https://dc.lft.to/lastmile_qr_scan", "ios": "https://dc.lft.to/lastmile_qr_scan"}, "fusion_lon": 0.0, "lat": 38.9135505, "bike_id": "82c6757355c2afc023e9fdbd735c1db4", "type": "electric_scooter", "is_reserved": 0, "lon": -77.04347966666667}, {"fusion_lat": 0.0, "name": "c75c0302028996261929bc5d6782c5ba", "is_disabled": 0, "rental_uris": {"android": "https://dc.lft.to/lastmile_qr_scan", "ios": "https://dc.lft.to/lastmile_qr_scan"}, "fusion_lon": 0.0, "lat": 38.923663, "bike_id": "c75c0302028996261929bc5d6782c5ba", "type": "electric_scooter", "is_reserved": 0, "lon": -77.01955633333333}, {"fusion_lat": 0.0, "name": "3ec35e3e887a13cbd723dbce9782630c", "is_disabled": 0, "rental_uris": {"android": "https://dc.lft.to/lastmile_qr_scan", "ios": "https://dc.lft.to/lastmile_qr_scan"}, "fusion_lon": 0.0, "lat": 38.889509333333336, "bike_id": "3ec35e3e887a13cbd723dbce9782630c", "type": "electric_scooter", "is_reserved": 0, "lon": -76.9916525}, {"fusion_lat": 0.0, "name": "ad9fe647211b8ef70732b4e210b9880e", "is_disabled": 0, "rental_uris": {"android": "https://dc.lft.to/lastmile_qr_scan", "ios": "https://dc.lft.to/lastmile_qr_scan"}, "fusion_lon": 0.0, "lat": 38.92876616666667, "bike_id": "ad9fe647211b8ef70732b4e210b9880e", "type": "electric_scooter", "is_reserved": 0, "lon": -77.05446716666667}, {"fusion_lat": 0.0, "name": "776eee6383e3bc3cbb5b5f30e62ba630", "is_disabled": 0, "rental_uris": {"android": "https://dc.lft.to/lastmile_qr_scan", "ios": "https://dc.lft.to/lastmile_qr_scan"}, "fusion_lon": 0.0, "lat": 38.90848666666667, "bike_id": "776eee6383e3bc3cbb5b5f30e62ba630", "type": "electric_scooter", "is_reserved": 0, "lon": -77.038489}, {"fusion_lat": 0.0, "name": "63cf175ff06d809e642d0a99f280383d", "is_disabled": 0, "rental_uris": {"android": "https://dc.lft.to/lastmile_qr_scan", "ios": "https://dc.lft.to/lastmile_qr_scan"}, "fusion_lon": 0.0, "lat": 38.9088395, "bike_id": "63cf175ff06d809e642d0a99f280383d", "type": "electric_scooter", "is_reserved": 0, "lon": -77.023061}, {"fusion_lat": 0.0, "name": "406aa241d5cfec0182a83bd58d6250de", "is_disabled": 0, "rental_uris": {"android": "https://dc.lft.to/lastmile_qr_scan", "ios": "https://dc.lft.to/lastmile_qr_scan"}, "fusion_lon": 0.0, "lat": 38.926059333333335, "bike_id": "406aa241d5cfec0182a83bd58d6250de", "type": "electric_scooter", "is_reserved": 0, "lon": -77.02158533333333}, {"fusion_lat": 0.0, "name": "b37c965c80ad4f5eb634d38eb7190ed3", "is_disabled": 0, "rental_uris": {"android": "https://dc.lft.to/lastmile_qr_scan", "ios": "https://dc.lft.to/lastmile_qr_scan"}, "fusion_lon": 0.0, "lat": 38.89833616666667, "bike_id": "b37c965c80ad4f5eb634d38eb7190ed3", "type": "electric_scooter", "is_reserved": 0, "lon": -76.9462955}, {"fusion_lat": 0.0, "name": "7599ab3308f6b0529dd7fcccb3094a05", "is_disabled": 0, "rental_uris": {"android": "https://dc.lft.to/lastmile_qr_scan", "ios": "https://dc.lft.to/lastmile_qr_scan"}, "fusion_lon": 0.0, "lat": 38.8775525, "bike_id": "7599ab3308f6b0529dd7fcccb3094a05", "type": "electric_scooter", "is_reserved": 0, "lon": -77.01441216666667}, {"fusion_lat": 0.0, "name": "30606b96fb374ada390687639aae8249", "is_disabled": 0, "rental_uris": {"android": "https://dc.lft.to/lastmile_qr_scan", "ios": "https://dc.lft.to/lastmile_qr_scan"}, "fusion_lon": 0.0, "lat": 38.88706416666667, "bike_id": "30606b96fb374ada390687639aae8249", "type": "electric_scooter", "is_reserved": 0, "lon": -77.002511}, {"fusion_lat": 0.0, "name": "2fc6833c77ba84fa73684a71ca21e6c1", "is_disabled": 0, "rental_uris": {"android": "https://dc.lft.to/lastmile_qr_scan", "ios": "https://dc.lft.to/lastmile_qr_scan"}, "fusion_lon": 0.0, "lat": 38.9039685, "bike_id": "2fc6833c77ba84fa73684a71ca21e6c1", "type": "electric_scooter", "is_reserved": 0, "lon": -77.052454}, {"fusion_lat": 0.0, "name": "03aaf573c8fc1df15970fe7d61f8457f", "is_disabled": 0, "rental_uris": {"android": "https://dc.lft.to/lastmile_qr_scan", "ios": "https://dc.lft.to/lastmile_qr_scan"}, "fusion_lon": 0.0, "lat": 38.900317, "bike_id": "03aaf573c8fc1df15970fe7d61f8457f", "type": "electric_scooter", "is_reserved": 0, "lon": -77.04694283333333}, {"fusion_lat": 0.0, "name": "3f085c3fa01e6d0c11588326a925ea06", "is_disabled": 0, "rental_uris": {"android": "https://dc.lft.to/lastmile_qr_scan", "ios": "https://dc.lft.to/lastmile_qr_scan"}, "fusion_lon": 0.0, "lat": 38.879569333333336, "bike_id": "3f085c3fa01e6d0c11588326a925ea06", "type": "electric_scooter", "is_reserved": 0, "lon": -76.99009183333334}, {"fusion_lat": 0.0, "name": "a12fc04582ebfb7a3135fe90a91c93c4", "is_disabled": 0, "rental_uris": {"android": "https://dc.lft.to/lastmile_qr_scan", "ios": "https://dc.lft.to/lastmile_qr_scan"}, "fusion_lon": 0.0, "lat": 38.9164135, "bike_id": "a12fc04582ebfb7a3135fe90a91c93c4", "type": "electric_scooter", "is_reserved": 0, "lon": -77.031531}, {"fusion_lat": 0.0, "name": "81a544e6b0d1723cef81e4cacc3163cf", "is_disabled": 0, "rental_uris": {"android": "https://dc.lft.to/lastmile_qr_scan", "ios": "https://dc.lft.to/lastmile_qr_scan"}, "fusion_lon": 0.0, "lat": 38.8833525, "bike_id": "81a544e6b0d1723cef81e4cacc3163cf", "type": "electric_scooter", "is_reserved": 0, "lon": -77.017721}, {"fusion_lat": 0.0, "name": "dd1ae192b3d5d48ff892ede0321f3d12", "is_disabled": 0, "rental_uris": {"android": "https://dc.lft.to/lastmile_qr_scan", "ios": "https://dc.lft.to/lastmile_qr_scan"}, "fusion_lon": 0.0, "lat": 38.910617333333334, "bike_id": "dd1ae192b3d5d48ff892ede0321f3d12", "type": "electric_scooter", "is_reserved": 0, "lon": -77.04405566666667}, {"fusion_lat": 0.0, "name": "c6c993cfa1988a1741797787b4332f04", "is_disabled": 0, "rental_uris": {"android": "https://dc.lft.to/lastmile_qr_scan", "ios": "https://dc.lft.to/lastmile_qr_scan"}, "fusion_lon": 0.0, "lat": 38.92180283333333, "bike_id": "c6c993cfa1988a1741797787b4332f04", "type": "electric_scooter", "is_reserved": 0, "lon": -77.0382205}, {"fusion_lat": 0.0, "name": "2a560c46b254505256e0b5ffc61c4b0c", "is_disabled": 0, "rental_uris": {"android": "https://dc.lft.to/lastmile_qr_scan", "ios": "https://dc.lft.to/lastmile_qr_scan"}, "fusion_lon": 0.0, "lat": 38.914853, "bike_id": "2a560c46b254505256e0b5ffc61c4b0c", "type": "electric_scooter", "is_reserved": 0, "lon": -77.04554516666667}, {"fusion_lat": 0.0, "name": "e1cfe2c01178d2983c9b0698c8c89f50", "is_disabled": 0, "rental_uris": {"android": "https://dc.lft.to/lastmile_qr_scan", "ios": "https://dc.lft.to/lastmile_qr_scan"}, "fusion_lon": 0.0, "lat": 38.9035125, "bike_id": "e1cfe2c01178d2983c9b0698c8c89f50", "type": "electric_scooter", "is_reserved": 0, "lon": -76.9996055}, {"fusion_lat": 0.0, "name": "c27f2fbc1d60557a6f4b08b5ce387fc6", "is_disabled": 0, "rental_uris": {"android": "https://dc.lft.to/lastmile_qr_scan", "ios": "https://dc.lft.to/lastmile_qr_scan"}, "fusion_lon": 0.0, "lat": 38.8217215, "bike_id": "c27f2fbc1d60557a6f4b08b5ce387fc6", "type": "electric_bike", "is_reserved": 0, "lon": -76.9950975}, {"fusion_lat": 0.0, "name": "c21311e1ff8b4b960ef115007823a58b", "is_disabled": 0, "rental_uris": {"android": "https://dc.lft.to/lastmile_qr_scan", "ios": "https://dc.lft.to/lastmile_qr_scan"}, "fusion_lon": 0.0, "lat": 38.804510666666665, "bike_id": "c21311e1ff8b4b960ef115007823a58b", "type": "electric_bike", "is_reserved": 0, "lon": -77.05389483333333}, {"fusion_lat": 0.0, "name": "d3ca6e4948b0f3a9e4198e0c7566d8d0", "is_disabled": 0, "rental_uris": {"android": "https://dc.lft.to/lastmile_qr_scan", "ios": "https://dc.lft.to/lastmile_qr_scan"}, "fusion_lon": 0.0, "lat": 38.9156225, "bike_id": "d3ca6e4948b0f3a9e4198e0c7566d8d0", "type": "electric_scooter", "is_reserved": 0, "lon": -77.0322475}, {"fusion_lat": 0.0, "name": "73344fb2031b38c33343ab75fdb3b469", "is_disabled": 0, "rental_uris": {"android": "https://dc.lft.to/lastmile_qr_scan", "ios": "https://dc.lft.to/lastmile_qr_scan"}, "fusion_lon": 0.0, "lat": 38.91057033333333, "bike_id": "73344fb2031b38c33343ab75fdb3b469", "type": "electric_scooter", "is_reserved": 0, "lon": -77.04092116666666}, {"fusion_lat": 0.0, "name": "e43bd1e20a912013bdd961a6e4d86705", "is_disabled": 0, "rental_uris": {"android": "https://dc.lft.to/lastmile_qr_scan", "ios": "https://dc.lft.to/lastmile_qr_scan"}, "fusion_lon": 0.0, "lat": 38.885982, "bike_id": "e43bd1e20a912013bdd961a6e4d86705", "type": "electric_scooter", "is_reserved": 0, "lon": -77.01722433333333}, {"fusion_lat": 0.0, "name": "fdcea2b82bcbef355adb6cd928de62c6", "is_disabled": 0, "rental_uris": {"android": "https://dc.lft.to/lastmile_qr_scan", "ios": "https://dc.lft.to/lastmile_qr_scan"}, "fusion_lon": 0.0, "lat": 38.950581166666666, "bike_id": "fdcea2b82bcbef355adb6cd928de62c6", "type": "electric_scooter", "is_reserved": 0, "lon": -77.08026883333334}, {"fusion_lat": 0.0, "name": "00f3ce67c027c0ad2872a0d26395d77d", "is_disabled": 0, "rental_uris": {"android": "https://dc.lft.to/lastmile_qr_scan", "ios": "https://dc.lft.to/lastmile_qr_scan"}, "fusion_lon": 0.0, "lat": 38.933986166666664, "bike_id": "00f3ce67c027c0ad2872a0d26395d77d", "type": "electric_scooter", "is_reserved": 0, "lon": -77.0574635}, {"fusion_lat": 0.0, "name": "4f668f5ba84771166d2d74bf3514fb25", "is_disabled": 0, "rental_uris": {"android": "https://dc.lft.to/lastmile_qr_scan", "ios": "https://dc.lft.to/lastmile_qr_scan"}, "fusion_lon": 0.0, "lat": 38.92448366666667, "bike_id": "4f668f5ba84771166d2d74bf3514fb25", "type": "electric_scooter", "is_reserved": 0, "lon": -77.04207483333333}, {"fusion_lat": 0.0, "name": "60c108125673508a9b7de204747f535f", "is_disabled": 0, "rental_uris": {"android": "https://dc.lft.to/lastmile_qr_scan", "ios": "https://dc.lft.to/lastmile_qr_scan"}, "fusion_lon": 0.0, "lat": 38.8980185, "bike_id": "60c108125673508a9b7de204747f535f", "type": "electric_scooter", "is_reserved": 0, "lon": -77.02824716666667}, {"fusion_lat": 0.0, "name": "ed224564a14ec27e7d8bbf28a80b52b4", "is_disabled": 0, "rental_uris": {"android": "https://dc.lft.to/lastmile_qr_scan", "ios": "https://dc.lft.to/lastmile_qr_scan"}, "fusion_lon": 0.0, "lat": 38.896764166666664, "bike_id": "ed224564a14ec27e7d8bbf28a80b52b4", "type": "electric_scooter", "is_reserved": 0, "lon": -77.00517466666666}, {"fusion_lat": 0.0, "name": "d152ac363baac05eb7e1327f30fe7ed8", "is_disabled": 0, "rental_uris": {"android": "https://dc.lft.to/lastmile_qr_scan", "ios": "https://dc.lft.to/lastmile_qr_scan"}, "fusion_lon": 0.0, "lat": 38.90831133333333, "bike_id": "d152ac363baac05eb7e1327f30fe7ed8", "type": "electric_scooter", "is_reserved": 0, "lon": -76.98424833333334}, {"fusion_lat": 0.0, "name": "31d529744612543d2b6b60a98fd7dcb6", "is_disabled": 0, "rental_uris": {"android": "https://dc.lft.to/lastmile_qr_scan", "ios": "https://dc.lft.to/lastmile_qr_scan"}, "fusion_lon": 0.0, "lat": 38.91418016666667, "bike_id": "31d529744612543d2b6b60a98fd7dcb6", "type": "electric_scooter", "is_reserved": 0, "lon": -77.04578566666666}, {"fusion_lat": 0.0, "name": "32fd431ad4f0670800453803a5ebec9b", "is_disabled": 0, "rental_uris": {"android": "https://dc.lft.to/lastmile_qr_scan", "ios": "https://dc.lft.to/lastmile_qr_scan"}, "fusion_lon": 0.0, "lat": 38.824630666666664, "bike_id": "32fd431ad4f0670800453803a5ebec9b", "type": "electric_bike", "is_reserved": 0, "lon": -77.00793833333333}, {"fusion_lat": 0.0, "name": "813e67900a26da55cdc8de951e4ad25c", "is_disabled": 0, "rental_uris": {"android": "https://dc.lft.to/lastmile_qr_scan", "ios": "https://dc.lft.to/lastmile_qr_scan"}, "fusion_lon": 0.0, "lat": 38.865151166666664, "bike_id": "813e67900a26da55cdc8de951e4ad25c", "type": "electric_bike", "is_reserved": 0, "lon": -77.129363}, {"fusion_lat": 0.0, "name": "636d6a1a47eae44ac44eeb42c992cce2", "is_disabled": 0, "rental_uris": {"android": "https://dc.lft.to/lastmile_qr_scan", "ios": "https://dc.lft.to/lastmile_qr_scan"}, "fusion_lon": 0.0, "lat": 38.91184766666667, "bike_id": "636d6a1a47eae44ac44eeb42c992cce2", "type": "electric_scooter", "is_reserved": 0, "lon": -77.042432}, {"fusion_lat": 0.0, "name": "a9214d8a38c5cf22e75644e537d141c1", "is_disabled": 0, "rental_uris": {"android": "https://dc.lft.to/lastmile_qr_scan", "ios": "https://dc.lft.to/lastmile_qr_scan"}, "fusion_lon": 0.0, "lat": 38.9087475, "bike_id": "a9214d8a38c5cf22e75644e537d141c1", "type": "electric_scooter", "is_reserved": 0, "lon": -77.08596916666667}, {"fusion_lat": 0.0, "name": "2b62e035da9dfbf596e7f51ac86e35f2", "is_disabled": 0, "rental_uris": {"android": "https://dc.lft.to/lastmile_qr_scan", "ios": "https://dc.lft.to/lastmile_qr_scan"}, "fusion_lon": 0.0, "lat": 38.87673766666666, "bike_id": "2b62e035da9dfbf596e7f51ac86e35f2", "type": "electric_scooter", "is_reserved": 0, "lon": -77.00759066666667}, {"fusion_lat": 0.0, "name": "919e5724153c31641ec0e4499db4ed7e", "is_disabled": 0, "rental_uris": {"android": "https://dc.lft.to/lastmile_qr_scan", "ios": "https://dc.lft.to/lastmile_qr_scan"}, "fusion_lon": 0.0, "lat": 38.9231135, "bike_id": "919e5724153c31641ec0e4499db4ed7e", "type": "electric_scooter", "is_reserved": 0, "lon": -77.04109616666666}, {"fusion_lat": 0.0, "name": "e1902ac3dadb597efcfc969d846400c6", "is_disabled": 0, "rental_uris": {"android": "https://dc.lft.to/lastmile_qr_scan", "ios": "https://dc.lft.to/lastmile_qr_scan"}, "fusion_lon": 0.0, "lat": 38.9208425, "bike_id": "e1902ac3dadb597efcfc969d846400c6", "type": "electric_scooter", "is_reserved": 0, "lon": -77.0319335}, {"fusion_lat": 0.0, "name": "02ed650a84e70f9384fe69e1d3ffaffe", "is_disabled": 0, "rental_uris": {"android": "https://dc.lft.to/lastmile_qr_scan", "ios": "https://dc.lft.to/lastmile_qr_scan"}, "fusion_lon": 0.0, "lat": 38.90411533333334, "bike_id": "02ed650a84e70f9384fe69e1d3ffaffe", "type": "electric_scooter", "is_reserved": 0, "lon": -77.00132333333333}, {"fusion_lat": 0.0, "name": "61bb620a5db73a0a4e37d4ed39a74801", "is_disabled": 0, "rental_uris": {"android": "https://dc.lft.to/lastmile_qr_scan", "ios": "https://dc.lft.to/lastmile_qr_scan"}, "fusion_lon": 0.0, "lat": 38.892319, "bike_id": "61bb620a5db73a0a4e37d4ed39a74801", "type": "electric_scooter", "is_reserved": 0, "lon": -77.04999983333333}, {"fusion_lat": 0.0, "name": "bc36508693f27995cc65d294d15ed42d", "is_disabled": 0, "rental_uris": {"android": "https://dc.lft.to/lastmile_qr_scan", "ios": "https://dc.lft.to/lastmile_qr_scan"}, "fusion_lon": 0.0, "lat": 38.8936175, "bike_id": "bc36508693f27995cc65d294d15ed42d", "type": "electric_scooter", "is_reserved": 0, "lon": -76.925914}, {"fusion_lat": 0.0, "name": "ba9ea5bb28e46485d886b292302b828a", "is_disabled": 0, "rental_uris": {"android": "https://dc.lft.to/lastmile_qr_scan", "ios": "https://dc.lft.to/lastmile_qr_scan"}, "fusion_lon": 0.0, "lat": 38.8877315, "bike_id": "ba9ea5bb28e46485d886b292302b828a", "type": "electric_scooter", "is_reserved": 0, "lon": -76.97756283333334}, {"fusion_lat": 0.0, "name": "5bc902e7af59175958f8a8404a41babc", "is_disabled": 0, "rental_uris": {"android": "https://dc.lft.to/lastmile_qr_scan", "ios": "https://dc.lft.to/lastmile_qr_scan"}, "fusion_lon": 0.0, "lat": 38.912978333333335, "bike_id": "5bc902e7af59175958f8a8404a41babc", "type": "electric_scooter", "is_reserved": 0, "lon": -76.9846815}, {"fusion_lat": 0.0, "name": "9def10f40dd78f18ca1203abe04cd893", "is_disabled": 0, "rental_uris": {"android": "https://dc.lft.to/lastmile_qr_scan", "ios": "https://dc.lft.to/lastmile_qr_scan"}, "fusion_lon": 0.0, "lat": 38.9616965, "bike_id": "9def10f40dd78f18ca1203abe04cd893", "type": "electric_scooter", "is_reserved": 0, "lon": -77.073425}, {"fusion_lat": 0.0, "name": "69c53403ae55c9aad81a042f362d0802", "is_disabled": 0, "rental_uris": {"android": "https://dc.lft.to/lastmile_qr_scan", "ios": "https://dc.lft.to/lastmile_qr_scan"}, "fusion_lon": 0.0, "lat": 38.912616166666666, "bike_id": "69c53403ae55c9aad81a042f362d0802", "type": "electric_scooter", "is_reserved": 0, "lon": -77.04849666666667}, {"fusion_lat": 0.0, "name": "7a578064d20d3489fd53f6d0498058b3", "is_disabled": 0, "rental_uris": {"android": "https://dc.lft.to/lastmile_qr_scan", "ios": "https://dc.lft.to/lastmile_qr_scan"}, "fusion_lon": 0.0, "lat": 38.90015983333333, "bike_id": "7a578064d20d3489fd53f6d0498058b3", "type": "electric_scooter", "is_reserved": 0, "lon": -77.00684116666666}, {"fusion_lat": 0.0, "name": "a0f09bd3df70c1c8df461e99e4d85e1e", "is_disabled": 0, "rental_uris": {"android": "https://dc.lft.to/lastmile_qr_scan", "ios": "https://dc.lft.to/lastmile_qr_scan"}, "fusion_lon": 0.0, "lat": 38.90949833333333, "bike_id": "a0f09bd3df70c1c8df461e99e4d85e1e", "type": "electric_scooter", "is_reserved": 0, "lon": -76.98539083333333}, {"fusion_lat": 0.0, "name": "6da5fee796194327c2805a6e62e61c9a", "is_disabled": 0, "rental_uris": {"android": "https://dc.lft.to/lastmile_qr_scan", "ios": "https://dc.lft.to/lastmile_qr_scan"}, "fusion_lon": 0.0, "lat": 38.91698133333333, "bike_id": "6da5fee796194327c2805a6e62e61c9a", "type": "electric_scooter", "is_reserved": 0, "lon": -77.04217583333333}, {"fusion_lat": 0.0, "name": "c06d12ce185c8f33ef09b18da781655e", "is_disabled": 0, "rental_uris": {"android": "https://dc.lft.to/lastmile_qr_scan", "ios": "https://dc.lft.to/lastmile_qr_scan"}, "fusion_lon": 0.0, "lat": 38.91306266666667, "bike_id": "c06d12ce185c8f33ef09b18da781655e", "type": "electric_scooter", "is_reserved": 0, "lon": -77.03181916666666}, {"fusion_lat": 0.0, "name": "e4bda1b30f032a443ed31ae5e58d23c7", "is_disabled": 0, "rental_uris": {"android": "https://dc.lft.to/lastmile_qr_scan", "ios": "https://dc.lft.to/lastmile_qr_scan"}, "fusion_lon": 0.0, "lat": 38.90896383333333, "bike_id": "e4bda1b30f032a443ed31ae5e58d23c7", "type": "electric_scooter", "is_reserved": 0, "lon": -77.032103}, {"fusion_lat": 0.0, "name": "f6a417477d8095ff520e0a5d03d4def3", "is_disabled": 0, "rental_uris": {"android": "https://dc.lft.to/lastmile_qr_scan", "ios": "https://dc.lft.to/lastmile_qr_scan"}, "fusion_lon": 0.0, "lat": 38.877119666666665, "bike_id": "f6a417477d8095ff520e0a5d03d4def3", "type": "electric_scooter", "is_reserved": 0, "lon": -77.00444966666667}, {"fusion_lat": 0.0, "name": "ccb70d2ed9e17f61394dce31e14dceb2", "is_disabled": 0, "rental_uris": {"android": "https://dc.lft.to/lastmile_qr_scan", "ios": "https://dc.lft.to/lastmile_qr_scan"}, "fusion_lon": 0.0, "lat": 38.922554, "bike_id": "ccb70d2ed9e17f61394dce31e14dceb2", "type": "electric_scooter", "is_reserved": 0, "lon": -77.00912866666667}, {"fusion_lat": 0.0, "name": "9a8f04853639f8386a3214778bec2602", "is_disabled": 0, "rental_uris": {"android": "https://dc.lft.to/lastmile_qr_scan", "ios": "https://dc.lft.to/lastmile_qr_scan"}, "fusion_lon": 0.0, "lat": 38.83162033333333, "bike_id": "9a8f04853639f8386a3214778bec2602", "type": "electric_bike", "is_reserved": 0, "lon": -76.99536}, {"fusion_lat": 0.0, "name": "95039b774bad1a46cf0c9e311167548a", "is_disabled": 0, "rental_uris": {"android": "https://dc.lft.to/lastmile_qr_scan", "ios": "https://dc.lft.to/lastmile_qr_scan"}, "fusion_lon": 0.0, "lat": 38.91447566666667, "bike_id": "95039b774bad1a46cf0c9e311167548a", "type": "electric_scooter", "is_reserved": 0, "lon": -76.9882125}, {"fusion_lat": 0.0, "name": "fcd7e7ce2813d4e44c8760c7c1e89818", "is_disabled": 0, "rental_uris": {"android": "https://dc.lft.to/lastmile_qr_scan", "ios": "https://dc.lft.to/lastmile_qr_scan"}, "fusion_lon": 0.0, "lat": 38.8922185, "bike_id": "fcd7e7ce2813d4e44c8760c7c1e89818", "type": "electric_scooter", "is_reserved": 0, "lon": -77.02015183333333}, {"fusion_lat": 0.0, "name": "7300ea7a85229aebdd4ebfbe339f3d1f", "is_disabled": 0, "rental_uris": {"android": "https://dc.lft.to/lastmile_qr_scan", "ios": "https://dc.lft.to/lastmile_qr_scan"}, "fusion_lon": 0.0, "lat": 38.924723666666665, "bike_id": "7300ea7a85229aebdd4ebfbe339f3d1f", "type": "electric_scooter", "is_reserved": 0, "lon": -77.022109}, {"fusion_lat": 0.0, "name": "444a407028a58ab24d598cf404b7dc81", "is_disabled": 0, "rental_uris": {"android": "https://dc.lft.to/lastmile_qr_scan", "ios": "https://dc.lft.to/lastmile_qr_scan"}, "fusion_lon": 0.0, "lat": 38.938623, "bike_id": "444a407028a58ab24d598cf404b7dc81", "type": "electric_scooter", "is_reserved": 0, "lon": -77.02551683333333}, {"fusion_lat": 0.0, "name": "8606a873d4bb8a3fe17aed2ef88d77dd", "is_disabled": 0, "rental_uris": {"android": "https://dc.lft.to/lastmile_qr_scan", "ios": "https://dc.lft.to/lastmile_qr_scan"}, "fusion_lon": 0.0, "lat": 38.899763, "bike_id": "8606a873d4bb8a3fe17aed2ef88d77dd", "type": "electric_scooter", "is_reserved": 0, "lon": -77.01181283333334}, {"fusion_lat": 0.0, "name": "78939f2f7f2d86a6a73c56eeecf4ffd6", "is_disabled": 0, "rental_uris": {"android": "https://dc.lft.to/lastmile_qr_scan", "ios": "https://dc.lft.to/lastmile_qr_scan"}, "fusion_lon": 0.0, "lat": 38.90567766666667, "bike_id": "78939f2f7f2d86a6a73c56eeecf4ffd6", "type": "electric_scooter", "is_reserved": 0, "lon": -77.04334566666667}, {"fusion_lat": 0.0, "name": "c1c7bb8aa6bfb3b64ff77bdaf1242a9d", "is_disabled": 0, "rental_uris": {"android": "https://dc.lft.to/lastmile_qr_scan", "ios": "https://dc.lft.to/lastmile_qr_scan"}, "fusion_lon": 0.0, "lat": 38.900357666666665, "bike_id": "c1c7bb8aa6bfb3b64ff77bdaf1242a9d", "type": "electric_bike", "is_reserved": 0, "lon": -76.97228716666666}, {"fusion_lat": 0.0, "name": "7414c66d33885658e23058ca8bcc9d4f", "is_disabled": 0, "rental_uris": {"android": "https://dc.lft.to/lastmile_qr_scan", "ios": "https://dc.lft.to/lastmile_qr_scan"}, "fusion_lon": 0.0, "lat": 38.91537866666667, "bike_id": "7414c66d33885658e23058ca8bcc9d4f", "type": "electric_scooter", "is_reserved": 0, "lon": -77.0461955}, {"fusion_lat": 0.0, "name": "9dd3bddff39c1949ee3fffb4997efe83", "is_disabled": 0, "rental_uris": {"android": "https://dc.lft.to/lastmile_qr_scan", "ios": "https://dc.lft.to/lastmile_qr_scan"}, "fusion_lon": 0.0, "lat": 38.921018, "bike_id": "9dd3bddff39c1949ee3fffb4997efe83", "type": "electric_scooter", "is_reserved": 0, "lon": -77.07474933333333}, {"fusion_lat": 0.0, "name": "4fbe87eba4de0bc7ab062c3f2ffe8dad", "is_disabled": 0, "rental_uris": {"android": "https://dc.lft.to/lastmile_qr_scan", "ios": "https://dc.lft.to/lastmile_qr_scan"}, "fusion_lon": 0.0, "lat": 38.900203, "bike_id": "4fbe87eba4de0bc7ab062c3f2ffe8dad", "type": "electric_scooter", "is_reserved": 0, "lon": -77.002018}, {"fusion_lat": 0.0, "name": "6de88b0d417293a4c637b4acab7c7a1d", "is_disabled": 0, "rental_uris": {"android": "https://dc.lft.to/lastmile_qr_scan", "ios": "https://dc.lft.to/lastmile_qr_scan"}, "fusion_lon": 0.0, "lat": 38.9762815, "bike_id": "6de88b0d417293a4c637b4acab7c7a1d", "type": "electric_scooter", "is_reserved": 0, "lon": -77.01566}, {"fusion_lat": 0.0, "name": "52549dec8007fb038ecb2db3f41bc00a", "is_disabled": 0, "rental_uris": {"android": "https://dc.lft.to/lastmile_qr_scan", "ios": "https://dc.lft.to/lastmile_qr_scan"}, "fusion_lon": 0.0, "lat": 38.93273083333333, "bike_id": "52549dec8007fb038ecb2db3f41bc00a", "type": "electric_scooter", "is_reserved": 0, "lon": -77.04529666666667}, {"fusion_lat": 0.0, "name": "db499c194955227d5eb6d2561ee48b57", "is_disabled": 0, "rental_uris": {"android": "https://dc.lft.to/lastmile_qr_scan", "ios": "https://dc.lft.to/lastmile_qr_scan"}, "fusion_lon": 0.0, "lat": 38.92383866666667, "bike_id": "db499c194955227d5eb6d2561ee48b57", "type": "electric_scooter", "is_reserved": 0, "lon": -77.05154816666666}, {"fusion_lat": 0.0, "name": "a74341300a48597323f36691c6d1b964", "is_disabled": 0, "rental_uris": {"android": "https://dc.lft.to/lastmile_qr_scan", "ios": "https://dc.lft.to/lastmile_qr_scan"}, "fusion_lon": 0.0, "lat": 38.8997325, "bike_id": "a74341300a48597323f36691c6d1b964", "type": "electric_scooter", "is_reserved": 0, "lon": -77.041015}, {"fusion_lat": 0.0, "name": "21fb981846a4cfcfc7ee79efc55a3ce0", "is_disabled": 0, "rental_uris": {"android": "https://dc.lft.to/lastmile_qr_scan", "ios": "https://dc.lft.to/lastmile_qr_scan"}, "fusion_lon": 0.0, "lat": 38.907304833333335, "bike_id": "21fb981846a4cfcfc7ee79efc55a3ce0", "type": "electric_scooter", "is_reserved": 0, "lon": -77.03285966666667}, {"fusion_lat": 0.0, "name": "0ff5440fa11ede22ea90a7102bbbecfb", "is_disabled": 0, "rental_uris": {"android": "https://dc.lft.to/lastmile_qr_scan", "ios": "https://dc.lft.to/lastmile_qr_scan"}, "fusion_lon": 0.0, "lat": 38.93530833333333, "bike_id": "0ff5440fa11ede22ea90a7102bbbecfb", "type": "electric_scooter", "is_reserved": 0, "lon": -77.0284115}, {"fusion_lat": 0.0, "name": "a4f6a1c108b16012b75d753dcb361c3c", "is_disabled": 0, "rental_uris": {"android": "https://dc.lft.to/lastmile_qr_scan", "ios": "https://dc.lft.to/lastmile_qr_scan"}, "fusion_lon": 0.0, "lat": 38.913020833333334, "bike_id": "a4f6a1c108b16012b75d753dcb361c3c", "type": "electric_scooter", "is_reserved": 0, "lon": -77.03177933333333}, {"fusion_lat": 0.0, "name": "c2dc6c767034a2160d853bf0ef1d11d8", "is_disabled": 0, "rental_uris": {"android": "https://dc.lft.to/lastmile_qr_scan", "ios": "https://dc.lft.to/lastmile_qr_scan"}, "fusion_lon": 0.0, "lat": 38.897195333333336, "bike_id": "c2dc6c767034a2160d853bf0ef1d11d8", "type": "electric_scooter", "is_reserved": 0, "lon": -77.00799}, {"fusion_lat": 0.0, "name": "4ea1162b8e60798285dd5ee8861fac85", "is_disabled": 0, "rental_uris": {"android": "https://dc.lft.to/lastmile_qr_scan", "ios": "https://dc.lft.to/lastmile_qr_scan"}, "fusion_lon": 0.0, "lat": 38.86645083333333, "bike_id": "4ea1162b8e60798285dd5ee8861fac85", "type": "electric_scooter", "is_reserved": 0, "lon": -76.98501933333333}, {"fusion_lat": 0.0, "name": "1ac098f1e4a13e9235d0a67bb7c288ea", "is_disabled": 0, "rental_uris": {"android": "https://dc.lft.to/lastmile_qr_scan", "ios": "https://dc.lft.to/lastmile_qr_scan"}, "fusion_lon": 0.0, "lat": 38.88181316666667, "bike_id": "1ac098f1e4a13e9235d0a67bb7c288ea", "type": "electric_scooter", "is_reserved": 0, "lon": -77.0281245}, {"fusion_lat": 0.0, "name": "6d8e0554ee25790d803456f591766b55", "is_disabled": 0, "rental_uris": {"android": "https://dc.lft.to/lastmile_qr_scan", "ios": "https://dc.lft.to/lastmile_qr_scan"}, "fusion_lon": 0.0, "lat": 38.88441983333333, "bike_id": "6d8e0554ee25790d803456f591766b55", "type": "electric_scooter", "is_reserved": 0, "lon": -77.02499883333333}, {"fusion_lat": 0.0, "name": "f70b8dc9edbabf45ef74889628752196", "is_disabled": 0, "rental_uris": {"android": "https://dc.lft.to/lastmile_qr_scan", "ios": "https://dc.lft.to/lastmile_qr_scan"},