{"data": {"bikes": [{"name": "153e243d0376d8266e8fda645d2e97ea", "fusion_lat": 0.0, "type": "electric_scooter", "lat": 38.90420366666667, "is_reserved": 0, "is_disabled": 0, "fusion_lon": 0.0, "bike_id": "153e243d0376d8266e8fda645d2e97ea", "lon": -77.0342265, "rental_uris": {"ios": "https://dc.lft.to/lastmile_qr_scan", "android": "https://dc.lft.to/lastmile_qr_scan"}}, {"name": "e10510495109c59cfbffcf7756f31a2e", "fusion_lat": 0.0, "type": "electric_scooter", "lat": 38.902361166666665, "is_reserved": 0, "is_disabled": 0, "fusion_lon": 0.0, "bike_id": "e10510495109c59cfbffcf7756f31a2e", "lon": -77.02698116666667, "rental_uris": {"ios": "https://dc.lft.to/lastmile_qr_scan", "android": "https://dc.lft.to/lastmile_qr_scan"}}, {"name": "a7d3a1d28f231371df92c3ff0c9b36e0", "fusion_lat": 0.0, "type": "electric_scooter", "lat": 38.92317083333333, "is_reserved": 0, "is_disabled": 0, "fusion_lon": 0.0, "bike_id": "a7d3a1d28f231371df92c3ff0c9b36e0", "lon": -77.039732, "rental_uris": {"ios": "https://dc.lft.to/lastmile_qr_scan", "android": "https://dc.lft.to/lastmile_qr_scan"}}, {"name": "8b7e7a43356a11a435d5d97815fda88b", "fusion_lat": 0.0, "type": "electric_scooter", "lat": 38.91214433333333, "is_reserved": 0, "is_disabled": 0, "fusion_lon": 0.0, "bike_id": "8b7e7a43356a11a435d5d97815fda88b", "lon": -77.03642333333333, "rental_uris": {"ios": "https://dc.lft.to/lastmile_qr_scan", "android": "https://dc.lft.to/lastmile_qr_scan"}}, {"name": "b56ed22af8e56c834fcff7d33b84caf1", "fusion_lat": 0.0, "type": "electric_scooter", "lat": 38.906340666666665, "is_reserved": 0, "is_disabled": 0, "fusion_lon": 0.0, "bike_id": "b56ed22af8e56c834fcff7d33b84caf1", "lon": -77.02971933333333, "rental_uris": {"ios": "https://dc.lft.to/lastmile_qr_scan", "android": "https://dc.lft.to/lastmile_qr_scan"}}, {"name": "af6735b36af7c8ca0b03afc5343ecb26", "fusion_lat": 0.0, "type": "electric_scooter", "lat": 38.92463133333333, "is_reserved": 0, "is_disabled": 0, "fusion_lon": 0.0, "bike_id": "af6735b36af7c8ca0b03afc5343ecb26", "lon": -77.03640616666667, "rental_uris": {"ios": "https://dc.lft.to/lastmile_qr_scan", "android": "https://dc.lft.to/lastmile_qr_scan"}}, {"name": "c01293c177daf59390cbd2ad3322966d", "fusion_lat": 0.0, "type": "electric_scooter", "lat": 38.92813966666667, "is_reserved": 0, "is_disabled": 0, "fusion_lon": 0.0, "bike_id": "c01293c177daf59390cbd2ad3322966d", "lon": -77.036327, "rental_uris": {"ios": "https://dc.lft.to/lastmile_qr_scan", "android": "https://dc.lft.to/lastmile_qr_scan"}}, {"name": "24407fbca25690a5acd3023c13c0d512", "fusion_lat": 0.0, "type": "electric_scooter", "lat": 38.878676, "is_reserved": 0, "is_disabled": 0, "fusion_lon": 0.0, "bike_id": "24407fbca25690a5acd3023c13c0d512", "lon": -76.96525366666667, "rental_uris": {"ios": "https://dc.lft.to/lastmile_qr_scan", "android": "https://dc.lft.to/lastmile_qr_scan"}}, {"name": "36551623c8fcc6e368d392151553b630", "fusion_lat": 0.0, "type": "electric_scooter", "lat": 38.89517216666667, "is_reserved": 0, "is_disabled": 0, "fusion_lon": 0.0, "bike_id": "36551623c8fcc6e368d392151553b630", "lon": -76.99210333333333, "rental_uris": {"ios": "https://dc.lft.to/lastmile_qr_scan", "android": "https://dc.lft.to/lastmile_qr_scan"}}, {"name": "d1326fb64d651fdf6d35bec59c8c8d1a", "fusion_lat": 0.0, "type": "electric_scooter", "lat": 38.90329916666666, "is_reserved": 0, "is_disabled": 0, "fusion_lon": 0.0, "bike_id": "d1326fb64d651fdf6d35bec59c8c8d1a", "lon": -77.0544, "rental_uris": {"ios": "https://dc.lft.to/lastmile_qr_scan", "android": "https://dc.lft.to/lastmile_qr_scan"}}, {"name": "9b56d64a8d9ef5b483f54118a1acecfa", "fusion_lat": 0.0, "type": "electric_scooter", "lat": 38.900754166666665, "is_reserved": 0, "is_disabled": 0, "fusion_lon": 0.0, "bike_id": "9b56d64a8d9ef5b483f54118a1acecfa", "lon": -77.049939, "rental_uris": {"ios": "https://dc.lft.to/lastmile_qr_scan", "android": "https://dc.lft.to/lastmile_qr_scan"}}, {"name": "5205a9573b575fb90a24f3c6862b5631", "fusion_lat": 0.0, "type": "electric_scooter", "lat": 38.92101566666667, "is_reserved": 0, "is_disabled": 0, "fusion_lon": 0.0, "bike_id": "5205a9573b575fb90a24f3c6862b5631", "lon": -77.04690316666667, "rental_uris": {"ios": "https://dc.lft.to/lastmile_qr_scan", "android": "https://dc.lft.to/lastmile_qr_scan"}}, {"name": "c3c83d9c5d4facb74f5c8474b042f38f", "fusion_lat": 0.0, "type": "electric_bike", "lat": 38.839384333333335, "is_reserved": 0, "is_disabled": 0, "fusion_lon": 0.0, "bike_id": "c3c83d9c5d4facb74f5c8474b042f38f", "lon": -77.07899866666666, "rental_uris": {"ios": "https://dc.lft.to/lastmile_qr_scan", "android": "https://dc.lft.to/lastmile_qr_scan"}}, {"name": "453c7c07aab1c052a683ce4bb9ab104e", "fusion_lat": 0.0, "type": "electric_scooter", "lat": 38.92152383333333, "is_reserved": 0, "is_disabled": 0, "fusion_lon": 0.0, "bike_id": "453c7c07aab1c052a683ce4bb9ab104e", "lon": -77.03467833333333, "rental_uris": {"ios": "https://dc.lft.to/lastmile_qr_scan", "android": "https://dc.lft.to/lastmile_qr_scan"}}, {"name": "cfdbbe5fb3f09d8359c9f5391655f8a5", "fusion_lat": 0.0, "type": "electric_scooter", "lat": 38.892462333333334, "is_reserved": 0, "is_disabled": 0, "fusion_lon": 0.0, "bike_id": "cfdbbe5fb3f09d8359c9f5391655f8a5", "lon": -77.03383316666667, "rental_uris": {"ios": "https://dc.lft.to/lastmile_qr_scan", "android": "https://dc.lft.to/lastmile_qr_scan"}}, {"name": "ded6f35b90b9cf8426c19118ba3b9d55", "fusion_lat": 0.0, "type": "electric_scooter", "lat": 38.91807, "is_reserved": 0, "is_disabled": 0, "fusion_lon": 0.0, "bike_id": "ded6f35b90b9cf8426c19118ba3b9d55", "lon": -77.0462665, "rental_uris": {"ios": "https://dc.lft.to/lastmile_qr_scan", "android": "https://dc.lft.to/lastmile_qr_scan"}}, {"name": "4da0befddb4f6d3547d3cba4bff76c77", "fusion_lat": 0.0, "type": "electric_scooter", "lat": 38.905448666666665, "is_reserved": 0, "is_disabled": 0, "fusion_lon": 0.0, "bike_id": "4da0befddb4f6d3547d3cba4bff76c77", "lon": -77.04555366666666, "rental_uris": {"ios": "https://dc.lft.to/lastmile_qr_scan", "android": "https://dc.lft.to/lastmile_qr_scan"}}, {"name": "231173fb594fcd1d3399703f0a95dd88", "fusion_lat": 0.0, "type": "electric_scooter", "lat": 38.921839166666665, "is_reserved": 0, "is_disabled": 0, "fusion_lon": 0.0, "bike_id": "231173fb594fcd1d3399703f0a95dd88", "lon": -77.04273416666666, "rental_uris": {"ios": "https://dc.lft.to/lastmile_qr_scan", "android": "https://dc.lft.to/lastmile_qr_scan"}}, {"name": "ce5b5326e34e00f570fa42c0b0f99b82", "fusion_lat": 0.0, "type": "electric_scooter", "lat": 38.90738566666667, "is_reserved": 0, "is_disabled": 0, "fusion_lon": 0.0, "bike_id": "ce5b5326e34e00f570fa42c0b0f99b82", "lon": -77.02695416666667, "rental_uris": {"ios": "https://dc.lft.to/lastmile_qr_scan", "android": "https://dc.lft.to/lastmile_qr_scan"}}, {"name": "48f9983011c3a42c413754132f15fdec", "fusion_lat": 0.0, "type": "electric_scooter", "lat": 38.91813666666667, "is_reserved": 0, "is_disabled": 0, "fusion_lon": 0.0, "bike_id": "48f9983011c3a42c413754132f15fdec", "lon": -77.025028, "rental_uris": {"ios": "https://dc.lft.to/lastmile_qr_scan", "android": "https://dc.lft.to/lastmile_qr_scan"}}, {"name": "a7e991609b01c4f17ba7bf0e9281e686", "fusion_lat": 0.0, "type": "electric_scooter", "lat": 38.910227166666665, "is_reserved": 0, "is_disabled": 0, "fusion_lon": 0.0, "bike_id": "a7e991609b01c4f17ba7bf0e9281e686", "lon": -77.048657, "rental_uris": {"ios": "https://dc.lft.to/lastmile_qr_scan", "android": "https://dc.lft.to/lastmile_qr_scan"}}, {"name": "af2fcdcc08fd07406c01dee3a50b56a1", "fusion_lat": 0.0, "type": "electric_scooter", "lat": 38.931927333333334, "is_reserved": 0, "is_disabled": 0, "fusion_lon": 0.0, "bike_id": "af2fcdcc08fd07406c01dee3a50b56a1", "lon": -77.03446916666667, "rental_uris": {"ios": "https://dc.lft.to/lastmile_qr_scan", "android": "https://dc.lft.to/lastmile_qr_scan"}}, {"name": "7bdf46d4cbf61ccf3d722151ee8e9366", "fusion_lat": 0.0, "type": "electric_scooter", "lat": 38.8976825, "is_reserved": 0, "is_disabled": 0, "fusion_lon": 0.0, "bike_id": "7bdf46d4cbf61ccf3d722151ee8e9366", "lon": -77.03161183333333, "rental_uris": {"ios": "https://dc.lft.to/lastmile_qr_scan", "android": "https://dc.lft.to/lastmile_qr_scan"}}, {"name": "251df2f16bb48121741c47f840801506", "fusion_lat": 0.0, "type": "electric_scooter", "lat": 38.91935633333333, "is_reserved": 0, "is_disabled": 0, "fusion_lon": 0.0, "bike_id": "251df2f16bb48121741c47f840801506", "lon": -77.0238635, "rental_uris": {"ios": "https://dc.lft.to/lastmile_qr_scan", "android": "https://dc.lft.to/lastmile_qr_scan"}}, {"name": "d33e79551c76cec780ad8cccfce6ea44", "fusion_lat": 0.0, "type": "electric_scooter", "lat": 38.905642666666665, "is_reserved": 0, "is_disabled": 0, "fusion_lon": 0.0, "bike_id": "d33e79551c76cec780ad8cccfce6ea44", "lon": -77.03218316666667, "rental_uris": {"ios": "https://dc.lft.to/lastmile_qr_scan", "android": "https://dc.lft.to/lastmile_qr_scan"}}, {"name": "802dad09f1cf1a34775fa3e7047ecae8", "fusion_lat": 0.0, "type": "electric_scooter", "lat": 38.933158666666664, "is_reserved": 0, "is_disabled": 0, "fusion_lon": 0.0, "bike_id": "802dad09f1cf1a34775fa3e7047ecae8", "lon": -77.03444983333333, "rental_uris": {"ios": "https://dc.lft.to/lastmile_qr_scan", "android": "https://dc.lft.to/lastmile_qr_scan"}}, {"name": "b4c3add72c6fae2a775504dfefe350dc", "fusion_lat": 0.0, "type": "electric_scooter", "lat": 38.949584333333334, "is_reserved": 0, "is_disabled": 0, "fusion_lon": 0.0, "bike_id": "b4c3add72c6fae2a775504dfefe350dc", "lon": -77.0272405, "rental_uris": {"ios": "https://dc.lft.to/lastmile_qr_scan", "android": "https://dc.lft.to/lastmile_qr_scan"}}, {"name": "b2fc52d364d07dd63415fc2b02853746", "fusion_lat": 0.0, "type": "electric_scooter", "lat": 38.90306483333333, "is_reserved": 0, "is_disabled": 0, "fusion_lon": 0.0, "bike_id": "b2fc52d364d07dd63415fc2b02853746", "lon": -77.03644, "rental_uris": {"ios": "https://dc.lft.to/lastmile_qr_scan", "android": "https://dc.lft.to/lastmile_qr_scan"}}, {"name": "a84254f36cf918bc0cdf0ca5cf1ebfaa", "fusion_lat": 0.0, "type": "electric_scooter", "lat": 38.9011255, "is_reserved": 0, "is_disabled": 0, "fusion_lon": 0.0, "bike_id": "a84254f36cf918bc0cdf0ca5cf1ebfaa", "lon": -77.04973533333333, "rental_uris": {"ios": "https://dc.lft.to/lastmile_qr_scan", "android": "https://dc.lft.to/lastmile_qr_scan"}}, {"name": "0e35b00b4b556f03b8cdcb6922396022", "fusion_lat": 0.0, "type": "electric_scooter", "lat": 38.898861833333335, "is_reserved": 0, "is_disabled": 0, "fusion_lon": 0.0, "bike_id": "0e35b00b4b556f03b8cdcb6922396022", "lon": -76.98569216666667, "rental_uris": {"ios": "https://dc.lft.to/lastmile_qr_scan", "android": "https://dc.lft.to/lastmile_qr_scan"}}, {"name": "6669f3761b125b7e5303cab826d13b35", "fusion_lat": 0.0, "type": "electric_scooter", "lat": 38.92633466666667, "is_reserved": 0, "is_disabled": 0, "fusion_lon": 0.0, "bike_id": "6669f3761b125b7e5303cab826d13b35", "lon": -77.03466233333333, "rental_uris": {"ios": "https://dc.lft.to/lastmile_qr_scan", "android": "https://dc.lft.to/lastmile_qr_scan"}}, {"name": "84ff34240587183062caf0a66429f960", "fusion_lat": 0.0, "type": "electric_scooter", "lat": 38.91009716666667, "is_reserved": 0, "is_disabled": 0, "fusion_lon": 0.0, "bike_id": "84ff34240587183062caf0a66429f960", "lon": -77.0442385, "rental_uris": {"ios": "https://dc.lft.to/lastmile_qr_scan", "android": "https://dc.lft.to/lastmile_qr_scan"}}, {"name": "7b4ef21e8fe43c37daf4765a17c6a595", "fusion_lat": 0.0, "type": "electric_scooter", "lat": 38.92970533333333, "is_reserved": 0, "is_disabled": 0, "fusion_lon": 0.0, "bike_id": "7b4ef21e8fe43c37daf4765a17c6a595", "lon": -77.00534833333333, "rental_uris": {"ios": "https://dc.lft.to/lastmile_qr_scan", "android": "https://dc.lft.to/lastmile_qr_scan"}}, {"name": "6f2fa8e23b57379ecd4b7c5e546ab04e", "fusion_lat": 0.0, "type": "electric_bike", "lat": 38.9177115, "is_reserved": 0, "is_disabled": 0, "fusion_lon": 0.0, "bike_id": "6f2fa8e23b57379ecd4b7c5e546ab04e", "lon": -77.03171266666666, "rental_uris": {"ios": "https://dc.lft.to/lastmile_qr_scan", "android": "https://dc.lft.to/lastmile_qr_scan"}}, {"name": "5c6ecb8d05803f0a48baf91ff409a40f", "fusion_lat": 0.0, "type": "electric_scooter", "lat": 38.896052166666664, "is_reserved": 0, "is_disabled": 0, "fusion_lon": 0.0, "bike_id": "5c6ecb8d05803f0a48baf91ff409a40f", "lon": -77.01114033333333, "rental_uris": {"ios": "https://dc.lft.to/lastmile_qr_scan", "android": "https://dc.lft.to/lastmile_qr_scan"}}, {"name": "1185ad18a2c98bb4536a63d20916813a", "fusion_lat": 0.0, "type": "electric_scooter", "lat": 38.91811233333333, "is_reserved": 0, "is_disabled": 0, "fusion_lon": 0.0, "bike_id": "1185ad18a2c98bb4536a63d20916813a", "lon": -77.03441033333333, "rental_uris": {"ios": "https://dc.lft.to/lastmile_qr_scan", "android": "https://dc.lft.to/lastmile_qr_scan"}}, {"name": "33eb4fe98a0bc386698995acde8f76dc", "fusion_lat": 0.0, "type": "electric_scooter", "lat": 38.898982, "is_reserved": 0, "is_disabled": 0, "fusion_lon": 0.0, "bike_id": "33eb4fe98a0bc386698995acde8f76dc", "lon": -76.93301216666667, "rental_uris": {"ios": "https://dc.lft.to/lastmile_qr_scan", "android": "https://dc.lft.to/lastmile_qr_scan"}}, {"name": "2a1bcf171102eb1c5ffa85853572734b", "fusion_lat": 0.0, "type": "electric_scooter", "lat": 38.922334, "is_reserved": 0, "is_disabled": 0, "fusion_lon": 0.0, "bike_id": "2a1bcf171102eb1c5ffa85853572734b", "lon": -77.02236816666667, "rental_uris": {"ios": "https://dc.lft.to/lastmile_qr_scan", "android": "https://dc.lft.to/lastmile_qr_scan"}}, {"name": "72b3da03d78c9814fc495f3dde224bc1", "fusion_lat": 0.0, "type": "electric_scooter", "lat": 38.923041166666664, "is_reserved": 0, "is_disabled": 0, "fusion_lon": 0.0, "bike_id": "72b3da03d78c9814fc495f3dde224bc1", "lon": -77.02985233333334, "rental_uris": {"ios": "https://dc.lft.to/lastmile_qr_scan", "android": "https://dc.lft.to/lastmile_qr_scan"}}, {"name": "050314f60e49beeb56c94013dce7a794", "fusion_lat": 0.0, "type": "electric_scooter", "lat": 38.903220166666664, "is_reserved": 0, "is_disabled": 0, "fusion_lon": 0.0, "bike_id": "050314f60e49beeb56c94013dce7a794", "lon": -77.05172666666667, "rental_uris": {"ios": "https://dc.lft.to/lastmile_qr_scan", "android": "https://dc.lft.to/lastmile_qr_scan"}}, {"name": "f1000e483465a80aeff938531ccc7df9", "fusion_lat": 0.0, "type": "electric_bike", "lat": 38.918632333333335, "is_reserved": 0, "is_disabled": 0, "fusion_lon": 0.0, "bike_id": "f1000e483465a80aeff938531ccc7df9", "lon": -76.96092233333333, "rental_uris": {"ios": "https://dc.lft.to/lastmile_qr_scan", "android": "https://dc.lft.to/lastmile_qr_scan"}}, {"name": "1955244ff4e445c374633310f4fdfcde", "fusion_lat": 0.0, "type": "electric_scooter", "lat": 38.884297333333336, "is_reserved": 0, "is_disabled": 0, "fusion_lon": 0.0, "bike_id": "1955244ff4e445c374633310f4fdfcde", "lon": -77.03046483333334, "rental_uris": {"ios": "https://dc.lft.to/lastmile_qr_scan", "android": "https://dc.lft.to/lastmile_qr_scan"}}, {"name": "e76a2f012dd9e50993f5dbab89255445", "fusion_lat": 0.0, "type": "electric_scooter", "lat": 38.93252016666667, "is_reserved": 0, "is_disabled": 0, "fusion_lon": 0.0, "bike_id": "e76a2f012dd9e50993f5dbab89255445", "lon": -77.02379066666667, "rental_uris": {"ios": "https://dc.lft.to/lastmile_qr_scan", "android": "https://dc.lft.to/lastmile_qr_scan"}}, {"name": "7fabfd8e2115a1f14693dd9c03e88088", "fusion_lat": 0.0, "type": "electric_scooter", "lat": 38.907598166666666, "is_reserved": 0, "is_disabled": 0, "fusion_lon": 0.0, "bike_id": "7fabfd8e2115a1f14693dd9c03e88088", "lon": -77.027959, "rental_uris": {"ios": "https://dc.lft.to/lastmile_qr_scan", "android": "https://dc.lft.to/lastmile_qr_scan"}}, {"name": "842af03896b0c8dcd4f43f048cfc2b81", "fusion_lat": 0.0, "type": "electric_scooter", "lat": 38.902925333333336, "is_reserved": 0, "is_disabled": 0, "fusion_lon": 0.0, "bike_id": "842af03896b0c8dcd4f43f048cfc2b81", "lon": -77.04007783333333, "rental_uris": {"ios": "https://dc.lft.to/lastmile_qr_scan", "android": "https://dc.lft.to/lastmile_qr_scan"}}, {"name": "abb2e74bf7209d138ea4b8a760c7637f", "fusion_lat": 0.0, "type": "electric_scooter", "lat": 38.91722133333333, "is_reserved": 0, "is_disabled": 0, "fusion_lon": 0.0, "bike_id": "abb2e74bf7209d138ea4b8a760c7637f", "lon": -77.03836466666667, "rental_uris": {"ios": "https://dc.lft.to/lastmile_qr_scan", "android": "https://dc.lft.to/lastmile_qr_scan"}}, {"name": "4e135c701dd4aaebf30160b7034b48ff", "fusion_lat": 0.0, "type": "electric_scooter", "lat": 38.89736516666667, "is_reserved": 0, "is_disabled": 0, "fusion_lon": 0.0, "bike_id": "4e135c701dd4aaebf30160b7034b48ff", "lon": -77.04650866666667, "rental_uris": {"ios": "https://dc.lft.to/lastmile_qr_scan", "android": "https://dc.lft.to/lastmile_qr_scan"}}, {"name": "cd4ba618cc0bce6796b7511e20c95ddd", "fusion_lat": 0.0, "type": "electric_scooter", "lat": 38.89916733333333, "is_reserved": 0, "is_disabled": 0, "fusion_lon": 0.0, "bike_id": "cd4ba618cc0bce6796b7511e20c95ddd", "lon": -76.93381716666667, "rental_uris": {"ios": "https://dc.lft.to/lastmile_qr_scan", "android": "https://dc.lft.to/lastmile_qr_scan"}}, {"name": "47828c4ed771ef35eccc875486c2d063", "fusion_lat": 0.0, "type": "electric_scooter", "lat": 38.923321, "is_reserved": 0, "is_disabled": 0, "fusion_lon": 0.0, "bike_id": "47828c4ed771ef35eccc875486c2d063", "lon": -77.0353085, "rental_uris": {"ios": "https://dc.lft.to/lastmile_qr_scan", "android": "https://dc.lft.to/lastmile_qr_scan"}}, {"name": "a395758337ebdec3d3d534e5da5eda44", "fusion_lat": 0.0, "type": "electric_bike", "lat": 38.824477333333334, "is_reserved": 0, "is_disabled": 0, "fusion_lon": 0.0, "bike_id": "a395758337ebdec3d3d534e5da5eda44", "lon": -77.0704515, "rental_uris": {"ios": "https://dc.lft.to/lastmile_qr_scan", "android": "https://dc.lft.to/lastmile_qr_scan"}}, {"name": "d9e2268e6ad6b765669a1ef62ac8963c", "fusion_lat": 0.0, "type": "electric_bike", "lat": 38.88129983333333, "is_reserved": 0, "is_disabled": 0, "fusion_lon": 0.0, "bike_id": "d9e2268e6ad6b765669a1ef62ac8963c", "lon": -77.016438, "rental_uris": {"ios": "https://dc.lft.to/lastmile_qr_scan", "android": "https://dc.lft.to/lastmile_qr_scan"}}, {"name": "9a56fcb4103b900e88dd91dd335494b8", "fusion_lat": 0.0, "type": "electric_scooter", "lat": 38.901458833333336, "is_reserved": 0, "is_disabled": 0, "fusion_lon": 0.0, "bike_id": "9a56fcb4103b900e88dd91dd335494b8", "lon": -77.0219195, "rental_uris": {"ios": "https://dc.lft.to/lastmile_qr_scan", "android": "https://dc.lft.to/lastmile_qr_scan"}}, {"name": "d5459a213bd6f012a6daee9f65868db3", "fusion_lat": 0.0, "type": "electric_scooter", "lat": 38.92435033333334, "is_reserved": 0, "is_disabled": 0, "fusion_lon": 0.0, "bike_id": "d5459a213bd6f012a6daee9f65868db3", "lon": -77.04221383333334, "rental_uris": {"ios": "https://dc.lft.to/lastmile_qr_scan", "android": "https://dc.lft.to/lastmile_qr_scan"}}, {"name": "1827b6ee1427cbeff2f018889449d513", "fusion_lat": 0.0, "type": "electric_scooter", "lat": 38.885152, "is_reserved": 0, "is_disabled": 0, "fusion_lon": 0.0, "bike_id": "1827b6ee1427cbeff2f018889449d513", "lon": -77.02107716666667, "rental_uris": {"ios": "https://dc.lft.to/lastmile_qr_scan", "android": "https://dc.lft.to/lastmile_qr_scan"}}, {"name": "733b78debf86479cb0412942ef55ee66", "fusion_lat": 0.0, "type": "electric_scooter", "lat": 38.907621, "is_reserved": 0, "is_disabled": 0, "fusion_lon": 0.0, "bike_id": "733b78debf86479cb0412942ef55ee66", "lon": -77.03576083333333, "rental_uris": {"ios": "https://dc.lft.to/lastmile_qr_scan", "android": "https://dc.lft.to/lastmile_qr_scan"}}, {"name": "60936a71bfd68d27227c85281ef23674", "fusion_lat": 0.0, "type": "electric_scooter", "lat": 38.866602, "is_reserved": 0, "is_disabled": 0, "fusion_lon": 0.0, "bike_id": "60936a71bfd68d27227c85281ef23674", "lon": -76.98883583333334, "rental_uris": {"ios": "https://dc.lft.to/lastmile_qr_scan", "android": "https://dc.lft.to/lastmile_qr_scan"}}, {"name": "37543c4677135f801bf6457dcbd3650d", "fusion_lat": 0.0, "type": "electric_scooter", "lat": 38.92440883333333, "is_reserved": 0, "is_disabled": 0, "fusion_lon": 0.0, "bike_id": "37543c4677135f801bf6457dcbd3650d", "lon": -77.04255466666666, "rental_uris": {"ios": "https://dc.lft.to/lastmile_qr_scan", "android": "https://dc.lft.to/lastmile_qr_scan"}}, {"name": "a15f5c48161c8ffe3746281476f2b7a4", "fusion_lat": 0.0, "type": "electric_scooter", "lat": 38.919899666666666, "is_reserved": 0, "is_disabled": 0, "fusion_lon": 0.0, "bike_id": "a15f5c48161c8ffe3746281476f2b7a4", "lon": -77.03203316666666, "rental_uris": {"ios": "https://dc.lft.to/lastmile_qr_scan", "android": "https://dc.lft.to/lastmile_qr_scan"}}, {"name": "493ff42e375af297bc2b95a539f5a89b", "fusion_lat": 0.0, "type": "electric_scooter", "lat": 38.9003665, "is_reserved": 0, "is_disabled": 0, "fusion_lon": 0.0, "bike_id": "493ff42e375af297bc2b95a539f5a89b", "lon": -77.00629683333334, "rental_uris": {"ios": "https://dc.lft.to/lastmile_qr_scan", "android": "https://dc.lft.to/lastmile_qr_scan"}}, {"name": "b02e653cef6d58f7a71176ebe933ad57", "fusion_lat": 0.0, "type": "electric_scooter", "lat": 38.918337, "is_reserved": 0, "is_disabled": 0, "fusion_lon": 0.0, "bike_id": "b02e653cef6d58f7a71176ebe933ad57", "lon": -77.03644616666666, "rental_uris": {"ios": "https://dc.lft.to/lastmile_qr_scan", "android": "https://dc.lft.to/lastmile_qr_scan"}}, {"name": "7b8dd8d05b3727afd2750d3444c9294f", "fusion_lat": 0.0, "type": "electric_scooter", "lat": 38.90795, "is_reserved": 0, "is_disabled": 0, "fusion_lon": 0.0, "bike_id": "7b8dd8d05b3727afd2750d3444c9294f", "lon": -76.9969975, "rental_uris": {"ios": "https://dc.lft.to/lastmile_qr_scan", "android": "https://dc.lft.to/lastmile_qr_scan"}}, {"name": "58ce5ecf46e05b0e6663e513312ea8a5", "fusion_lat": 0.0, "type": "electric_scooter", "lat": 38.90966216666666, "is_reserved": 0, "is_disabled": 0, "fusion_lon": 0.0, "bike_id": "58ce5ecf46e05b0e6663e513312ea8a5", "lon": -77.031783, "rental_uris": {"ios": "https://dc.lft.to/lastmile_qr_scan", "android": "https://dc.lft.to/lastmile_qr_scan"}}, {"name": "5ade5b6356b69b8a03bb0e0aad2b4d1b", "fusion_lat": 0.0, "type": "electric_scooter", "lat": 38.925169833333335, "is_reserved": 0, "is_disabled": 0, "fusion_lon": 0.0, "bike_id": "5ade5b6356b69b8a03bb0e0aad2b4d1b", "lon": -77.0021575, "rental_uris": {"ios": "https://dc.lft.to/lastmile_qr_scan", "android": "https://dc.lft.to/lastmile_qr_scan"}}, {"name": "0835ffd4a2d1aed2faf0c280e8a13891", "fusion_lat": 0.0, "type": "electric_bike", "lat": 38.94969416666667, "is_reserved": 0, "is_disabled": 0, "fusion_lon": 0.0, "bike_id": "0835ffd4a2d1aed2faf0c280e8a13891", "lon": -76.972884, "rental_uris": {"ios": "https://dc.lft.to/lastmile_qr_scan", "android": "https://dc.lft.to/lastmile_qr_scan"}}, {"name": "dbc92a6a0552c183dad69049011d4e9e", "fusion_lat": 0.0, "type": "electric_scooter", "lat": 38.91263, "is_reserved": 0, "is_disabled": 0, "fusion_lon": 0.0, "bike_id": "dbc92a6a0552c183dad69049011d4e9e", "lon": -77.0403375, "rental_uris": {"ios": "https://dc.lft.to/lastmile_qr_scan", "android": "https://dc.lft.to/lastmile_qr_scan"}}, {"name": "c7af66f1ab2db16c3783ce986571315a", "fusion_lat": 0.0, "type": "electric_bike", "lat": 38.87552816666667, "is_reserved": 0, "is_disabled": 0, "fusion_lon": 0.0, "bike_id": "c7af66f1ab2db16c3783ce986571315a", "lon": -76.96753183333334, "rental_uris": {"ios": "https://dc.lft.to/lastmile_qr_scan", "android": "https://dc.lft.to/lastmile_qr_scan"}}, {"name": "1cff7ac26f0e3ae7dd2550f7bdd527c7", "fusion_lat": 0.0, "type": "electric_scooter", "lat": 38.90737383333333, "is_reserved": 0, "is_disabled": 0, "fusion_lon": 0.0, "bike_id": "1cff7ac26f0e3ae7dd2550f7bdd527c7", "lon": -77.04669733333333, "rental_uris": {"ios": "https://dc.lft.to/lastmile_qr_scan", "android": "https://dc.lft.to/lastmile_qr_scan"}}, {"name": "0429e24ceea98addb6f0503b178f6253", "fusion_lat": 0.0, "type": "electric_scooter", "lat": 38.89681, "is_reserved": 0, "is_disabled": 0, "fusion_lon": 0.0, "bike_id": "0429e24ceea98addb6f0503b178f6253", "lon": -76.99622216666667, "rental_uris": {"ios": "https://dc.lft.to/lastmile_qr_scan", "android": "https://dc.lft.to/lastmile_qr_scan"}}, {"name": "8b1b2682fa95f0c82fa4ec5fe7638ea7", "fusion_lat": 0.0, "type": "electric_bike", "lat": 38.88616, "is_reserved": 0, "is_disabled": 0, "fusion_lon": 0.0, "bike_id": "8b1b2682fa95f0c82fa4ec5fe7638ea7", "lon": -77.107587, "rental_uris": {"ios": "https://dc.lft.to/lastmile_qr_scan", "android": "https://dc.lft.to/lastmile_qr_scan"}}, {"name": "8e836cd9a45256e0e41ea6234659d12c", "fusion_lat": 0.0, "type": "electric_scooter", "lat": 38.887528333333336, "is_reserved": 0, "is_disabled": 0, "fusion_lon": 0.0, "bike_id": "8e836cd9a45256e0e41ea6234659d12c", "lon": -76.97981383333334, "rental_uris": {"ios": "https://dc.lft.to/lastmile_qr_scan", "android": "https://dc.lft.to/lastmile_qr_scan"}}, {"name": "92a97accb80e05878b063a54193019eb", "fusion_lat": 0.0, "type": "electric_scooter", "lat": 38.9247725, "is_reserved": 0, "is_disabled": 0, "fusion_lon": 0.0, "bike_id": "92a97accb80e05878b063a54193019eb", "lon": -77.03134283333333, "rental_uris": {"ios": "https://dc.lft.to/lastmile_qr_scan", "android": "https://dc.lft.to/lastmile_qr_scan"}}, {"name": "4a4e005082b9b7e5abd71856272233c5", "fusion_lat": 0.0, "type": "electric_bike", "lat": 38.92211066666667, "is_reserved": 0, "is_disabled": 0, "fusion_lon": 0.0, "bike_id": "4a4e005082b9b7e5abd71856272233c5", "lon": -76.98798116666667, "rental_uris": {"ios": "https://dc.lft.to/lastmile_qr_scan", "android": "https://dc.lft.to/lastmile_qr_scan"}}, {"name": "cc0fde79b2b160d53d97ad2cfe7cdff9", "fusion_lat": 0.0, "type": "electric_scooter", "lat": 38.86265233333334, "is_reserved": 0, "is_disabled": 0, "fusion_lon": 0.0, "bike_id": "cc0fde79b2b160d53d97ad2cfe7cdff9", "lon": -76.98715366666667, "rental_uris": {"ios": "https://dc.lft.to/lastmile_qr_scan", "android": "https://dc.lft.to/lastmile_qr_scan"}}, {"name": "870a508b7a8bd87976cef58f0be72d0a", "fusion_lat": 0.0, "type": "electric_scooter", "lat": 38.90311366666667, "is_reserved": 0, "is_disabled": 0, "fusion_lon": 0.0, "bike_id": "870a508b7a8bd87976cef58f0be72d0a", "lon": -77.04989116666667, "rental_uris": {"ios": "https://dc.lft.to/lastmile_qr_scan", "android": "https://dc.lft.to/lastmile_qr_scan"}}, {"name": "bdd854cac53d2f14a92606b9ded85bf9", "fusion_lat": 0.0, "type": "electric_scooter", "lat": 38.9339215, "is_reserved": 0, "is_disabled": 0, "fusion_lon": 0.0, "bike_id": "bdd854cac53d2f14a92606b9ded85bf9", "lon": -77.0738715, "rental_uris": {"ios": "https://dc.lft.to/lastmile_qr_scan", "android": "https://dc.lft.to/lastmile_qr_scan"}}, {"name": "42dff57a51a7c11047ab66ee44261b6d", "fusion_lat": 0.0, "type": "electric_scooter", "lat": 38.894898, "is_reserved": 0, "is_disabled": 0, "fusion_lon": 0.0, "bike_id": "42dff57a51a7c11047ab66ee44261b6d", "lon": -77.01010166666667, "rental_uris": {"ios": "https://dc.lft.to/lastmile_qr_scan", "android": "https://dc.lft.to/lastmile_qr_scan"}}, {"name": "a4319ee21516cfbb1425f3e3d294cff2", "fusion_lat": 0.0, "type": "electric_scooter", "lat": 38.90284, "is_reserved": 0, "is_disabled": 0, "fusion_lon": 0.0, "bike_id": "a4319ee21516cfbb1425f3e3d294cff2", "lon": -77.03837316666667, "rental_uris": {"ios": "https://dc.lft.to/lastmile_qr_scan", "android": "https://dc.lft.to/lastmile_qr_scan"}}, {"name": "0bd9ac31e5b3d034a7afb15adf1f71cf", "fusion_lat": 0.0, "type": "electric_scooter", "lat": 38.902698666666666, "is_reserved": 0, "is_disabled": 0, "fusion_lon": 0.0, "bike_id": "0bd9ac31e5b3d034a7afb15adf1f71cf", "lon": -77.03843733333333, "rental_uris": {"ios": "https://dc.lft.to/lastmile_qr_scan", "android": "https://dc.lft.to/lastmile_qr_scan"}}, {"name": "8aaa31b3a3c435d604c9a6172f5c8f9b", "fusion_lat": 0.0, "type": "electric_scooter", "lat": 38.8839925, "is_reserved": 0, "is_disabled": 0, "fusion_lon": 0.0, "bike_id": "8aaa31b3a3c435d604c9a6172f5c8f9b", "lon": -76.93042316666667, "rental_uris": {"ios": "https://dc.lft.to/lastmile_qr_scan", "android": "https://dc.lft.to/lastmile_qr_scan"}}, {"name": "4ecd349ce89e672f854dfc495385ac73", "fusion_lat": 0.0, "type": "electric_scooter", "lat": 38.93886883333333, "is_reserved": 0, "is_disabled": 0, "fusion_lon": 0.0, "bike_id": "4ecd349ce89e672f854dfc495385ac73", "lon": -77.02463366666667, "rental_uris": {"ios": "https://dc.lft.to/lastmile_qr_scan", "android": "https://dc.lft.to/lastmile_qr_scan"}}, {"name": "ace7ab6d756f7126de0c27cb1abf1ef2", "fusion_lat": 0.0, "type": "electric_scooter", "lat": 38.921732666666664, "is_reserved": 0, "is_disabled": 0, "fusion_lon": 0.0, "bike_id": "ace7ab6d756f7126de0c27cb1abf1ef2", "lon": -77.03325583333333, "rental_uris": {"ios": "https://dc.lft.to/lastmile_qr_scan", "android": "https://dc.lft.to/lastmile_qr_scan"}}, {"name": "9944e66242bacdee83b402f9e0b4db86", "fusion_lat": 0.0, "type": "electric_bike", "lat": 38.9654235, "is_reserved": 0, "is_disabled": 0, "fusion_lon": 0.0, "bike_id": "9944e66242bacdee83b402f9e0b4db86", "lon": -77.03519116666666, "rental_uris": {"ios": "https://dc.lft.to/lastmile_qr_scan", "android": "https://dc.lft.to/lastmile_qr_scan"}}, {"name": "e3c23004d2a34dc06e9215e4ba67fdfe", "fusion_lat": 0.0, "type": "electric_bike", "lat": 38.8636385, "is_reserved": 0, "is_disabled": 0, "fusion_lon": 0.0, "bike_id": "e3c23004d2a34dc06e9215e4ba67fdfe", "lon": -76.97007733333334, "rental_uris": {"ios": "https://dc.lft.to/lastmile_qr_scan", "android": "https://dc.lft.to/lastmile_qr_scan"}}, {"name": "41ddad1c7843a655707bf3be9e1abdfc", "fusion_lat": 0.0, "type": "electric_scooter", "lat": 38.915476, "is_reserved": 0, "is_disabled": 0, "fusion_lon": 0.0, "bike_id": "41ddad1c7843a655707bf3be9e1abdfc", "lon": -77.03854383333334, "rental_uris": {"ios": "https://dc.lft.to/lastmile_qr_scan", "android": "https://dc.lft.to/lastmile_qr_scan"}}, {"name": "9a786e4cdd2b52f03839de45f4ed9f99", "fusion_lat": 0.0, "type": "electric_scooter", "lat": 38.9420405, "is_reserved": 0, "is_disabled": 0, "fusion_lon": 0.0, "bike_id": "9a786e4cdd2b52f03839de45f4ed9f99", "lon": -77.02510616666666, "rental_uris": {"ios": "https://dc.lft.to/lastmile_qr_scan", "android": "https://dc.lft.to/lastmile_qr_scan"}}, {"name": "27e009a82bfa11399022f554f95e01a5", "fusion_lat": 0.0, "type": "electric_bike", "lat": 38.819377, "is_reserved": 0, "is_disabled": 0, "fusion_lon": 0.0, "bike_id": "27e009a82bfa11399022f554f95e01a5", "lon": -77.00204633333334, "rental_uris": {"ios": "https://dc.lft.to/lastmile_qr_scan", "android": "https://dc.lft.to/lastmile_qr_scan"}}, {"name": "55cfb67012d5aba6a1079e035db4888e", "fusion_lat": 0.0, "type": "electric_scooter", "lat": 38.935564666666664, "is_reserved": 0, "is_disabled": 0, "fusion_lon": 0.0, "bike_id": "55cfb67012d5aba6a1079e035db4888e", "lon": -77.08200883333333, "rental_uris": {"ios": "https://dc.lft.to/lastmile_qr_scan", "android": "https://dc.lft.to/lastmile_qr_scan"}}, {"name": "9e3b83067f34afc8f607794064e44a4b", "fusion_lat": 0.0, "type": "electric_scooter", "lat": 38.90733616666667, "is_reserved": 0, "is_disabled": 0, "fusion_lon": 0.0, "bike_id": "9e3b83067f34afc8f607794064e44a4b", "lon": -77.02976683333333, "rental_uris": {"ios": "https://dc.lft.to/lastmile_qr_scan", "android": "https://dc.lft.to/lastmile_qr_scan"}}, {"name": "773e05c9fa2ff5fc766ee72603e252a8", "fusion_lat": 0.0, "type": "electric_scooter", "lat": 38.905703333333335, "is_reserved": 0, "is_disabled": 0, "fusion_lon": 0.0, "bike_id": "773e05c9fa2ff5fc766ee72603e252a8", "lon": -77.04498216666667, "rental_uris": {"ios": "https://dc.lft.to/lastmile_qr_scan", "android": "https://dc.lft.to/lastmile_qr_scan"}}, {"name": "42428b701bf1a9d615d1eb2f5386b3d8", "fusion_lat": 0.0, "type": "electric_scooter", "lat": 38.89501766666667, "is_reserved": 0, "is_disabled": 0, "fusion_lon": 0.0, "bike_id": "42428b701bf1a9d615d1eb2f5386b3d8", "lon": -77.02025116666667, "rental_uris": {"ios": "https://dc.lft.to/lastmile_qr_scan", "android": "https://dc.lft.to/lastmile_qr_scan"}}, {"name": "f6a85db8db5cea77aba67c48d3f54b48", "fusion_lat": 0.0, "type": "electric_scooter", "lat": 38.918021833333334, "is_reserved": 0, "is_disabled": 0, "fusion_lon": 0.0, "bike_id": "f6a85db8db5cea77aba67c48d3f54b48", "lon": -77.03208666666667, "rental_uris": {"ios": "https://dc.lft.to/lastmile_qr_scan", "android": "https://dc.lft.to/lastmile_qr_scan"}}, {"name": "857a523203be1bd7869eff4945deef33", "fusion_lat": 0.0, "type": "electric_scooter", "lat": 38.884183166666666, "is_reserved": 0, "is_disabled": 0, "fusion_lon": 0.0, "bike_id": "857a523203be1bd7869eff4945deef33", "lon": -76.97601716666667, "rental_uris": {"ios": "https://dc.lft.to/lastmile_qr_scan", "android": "https://dc.lft.to/lastmile_qr_scan"}}, {"name": "1c9d1248b4e9c81b93c99e8e71532b09", "fusion_lat": 0.0, "type": "electric_scooter", "lat": 38.9176265, "is_reserved": 0, "is_disabled": 0, "fusion_lon": 0.0, "bike_id": "1c9d1248b4e9c81b93c99e8e71532b09", "lon": -77.01499583333333, "rental_uris": {"ios": "https://dc.lft.to/lastmile_qr_scan", "android": "https://dc.lft.to/lastmile_qr_scan"}}, {"name": "b6abe2f233fb388b399d70a7f10977da", "fusion_lat": 0.0, "type": "electric_bike", "lat": 38.9172645, "is_reserved": 0, "is_disabled": 0, "fusion_lon": 0.0, "bike_id": "b6abe2f233fb388b399d70a7f10977da", "lon": -76.98873266666666, "rental_uris": {"ios": "https://dc.lft.to/lastmile_qr_scan", "android": "https://dc.lft.to/lastmile_qr_scan"}}, {"name": "118a316132fa943f016ceed7f908a6a6", "fusion_lat": 0.0, "type": "electric_scooter", "lat": 38.9032135, "is_reserved": 0, "is_disabled": 0, "fusion_lon": 0.0, "bike_id": "118a316132fa943f016ceed7f908a6a6", "lon": -77.05325566666667, "rental_uris": {"ios": "https://dc.lft.to/lastmile_qr_scan", "android": "https://dc.lft.to/lastmile_qr_scan"}}, {"name": "ba2cde42a1441795b78a51151809b1fc", "fusion_lat": 0.0, "type": "electric_bike", "lat": 38.955447, "is_reserved": 0, "is_disabled": 0, "fusion_lon": 0.0, "bike_id": "ba2cde42a1441795b78a51151809b1fc", "lon": -76.93530633333333, "rental_uris": {"ios": "https://dc.lft.to/lastmile_qr_scan", "android": "https://dc.lft.to/lastmile_qr_scan"}}, {"name": "84bbe657fcd88dd10848066e72fb8071", "fusion_lat": 0.0, "type": "electric_scooter", "lat": 38.9111115, "is_reserved": 0, "is_disabled": 0, "fusion_lon": 0.0, "bike_id": "84bbe657fcd88dd10848066e72fb8071", "lon": -77.0492225, "rental_uris": {"ios": "https://dc.lft.to/lastmile_qr_scan", "android": "https://dc.lft.to/lastmile_qr_scan"}}, {"name": "10b19e3a846a1370fd46c2956beadb77", "fusion_lat": 0.0, "type": "electric_scooter", "lat": 38.91917383333333, "is_reserved": 0, "is_disabled": 0, "fusion_lon": 0.0, "bike_id": "10b19e3a846a1370fd46c2956beadb77", "lon": -77.034296, "rental_uris": {"ios": "https://dc.lft.to/lastmile_qr_scan", "android": "https://dc.lft.to/lastmile_qr_scan"}}, {"name": "db90d876ccffdeb81b285f8e6607a7c6", "fusion_lat": 0.0, "type": "electric_scooter", "lat": 38.9045705, "is_reserved": 0, "is_disabled": 0, "fusion_lon": 0.0, "bike_id": "db90d876ccffdeb81b285f8e6607a7c6", "lon": -77.0383545, "rental_uris": {"ios": "https://dc.lft.to/lastmile_qr_scan", "android": "https://dc.lft.to/lastmile_qr_scan"}}, {"name": "8c3fc841bca5848ea70ef9592d70b06e", "fusion_lat": 0.0, "type": "electric_scooter", "lat": 38.9218135, "is_reserved": 0, "is_disabled": 0, "fusion_lon": 0.0, "bike_id": "8c3fc841bca5848ea70ef9592d70b06e", "lon": -77.042418, "rental_uris": {"ios": "https://dc.lft.to/lastmile_qr_scan", "android": "https://dc.lft.to/lastmile_qr_scan"}}, {"name": "1488e7b4767fc9edaf5d17d6529dce86", "fusion_lat": 0.0, "type": "electric_scooter", "lat": 38.916038, "is_reserved": 0, "is_disabled": 0, "fusion_lon": 0.0, "bike_id": "1488e7b4767fc9edaf5d17d6529dce86", "lon": -77.0415685, "rental_uris": {"ios": "https://dc.lft.to/lastmile_qr_scan", "android": "https://dc.lft.to/lastmile_qr_scan"}}, {"name": "355a49297fa2e5abec0d4098f4999e79", "fusion_lat": 0.0, "type": "electric_scooter", "lat": 38.90150916666666, "is_reserved": 0, "is_disabled": 0, "fusion_lon": 0.0, "bike_id": "355a49297fa2e5abec0d4098f4999e79", "lon": -77.05913883333334, "rental_uris": {"ios": "https://dc.lft.to/lastmile_qr_scan", "android": "https://dc.lft.to/lastmile_qr_scan"}}, {"name": "c8d5f08c45a71b35e4986d27f7aaf325", "fusion_lat": 0.0, "type": "electric_scooter", "lat": 38.90865333333333, "is_reserved": 0, "is_disabled": 0, "fusion_lon": 0.0, "bike_id": "c8d5f08c45a71b35e4986d27f7aaf325", "lon": -76.9995655, "rental_uris": {"ios": "https://dc.lft.to/lastmile_qr_scan", "android": "https://dc.lft.to/lastmile_qr_scan"}}, {"name": "0e05d7149df6617677061314bb9bd977", "fusion_lat": 0.0, "type": "electric_bike", "lat": 38.815214, "is_reserved": 0, "is_disabled": 0, "fusion_lon": 0.0, "bike_id": "0e05d7149df6617677061314bb9bd977", "lon": -77.126481, "rental_uris": {"ios": "https://dc.lft.to/lastmile_qr_scan", "android": "https://dc.lft.to/lastmile_qr_scan"}}, {"name": "ad9defd65acc7117c2179609f7a72342", "fusion_lat": 0.0, "type": "electric_scooter", "lat": 38.896038833333336, "is_reserved": 0, "is_disabled": 0, "fusion_lon": 0.0, "bike_id": "ad9defd65acc7117c2179609f7a72342", "lon": -77.04692833333333, "rental_uris": {"ios": "https://dc.lft.to/lastmile_qr_scan", "android": "https://dc.lft.to/lastmile_qr_scan"}}, {"name": "cce1f0bd12cc1dad5733071bf020ae47", "fusion_lat": 0.0, "type": "electric_scooter", "lat": 38.9336575, "is_reserved": 0, "is_disabled": 0, "fusion_lon": 0.0, "bike_id": "cce1f0bd12cc1dad5733071bf020ae47", "lon": -77.0371925, "rental_uris": {"ios": "https://dc.lft.to/lastmile_qr_scan", "android": "https://dc.lft.to/lastmile_qr_scan"}}, {"name": "0ca4f87e0b79c216c8c395de73c49551", "fusion_lat": 0.0, "type": "electric_scooter", "lat": 38.912332666666664, "is_reserved": 0, "is_disabled": 0, "fusion_lon": 0.0, "bike_id": "0ca4f87e0b79c216c8c395de73c49551", "lon": -77.03841133333333, "rental_uris": {"ios": "https://dc.lft.to/lastmile_qr_scan", "android": "https://dc.lft.to/lastmile_qr_scan"}}, {"name": "44ce68c8c4d29ce126091f80205655c6", "fusion_lat": 0.0, "type": "electric_scooter", "lat": 38.9170875, "is_reserved": 0, "is_disabled": 0, "fusion_lon": 0.0, "bike_id": "44ce68c8c4d29ce126091f80205655c6", "lon": -77.02899983333333, "rental_uris": {"ios": "https://dc.lft.to/lastmile_qr_scan", "android": "https://dc.lft.to/lastmile_qr_scan"}}, {"name": "ff35b091823b13ebfecc2eb4004cc226", "fusion_lat": 0.0, "type": "electric_scooter", "lat": 38.90530533333333, "is_reserved": 0, "is_disabled": 0, "fusion_lon": 0.0, "bike_id": "ff35b091823b13ebfecc2eb4004cc226", "lon": -77.04748733333334, "rental_uris": {"ios": "https://dc.lft.to/lastmile_qr_scan", "android": "https://dc.lft.to/lastmile_qr_scan"}}, {"name": "b123fe7352978065c425f3854db1fea9", "fusion_lat": 0.0, "type": "electric_scooter", "lat": 38.90672383333333, "is_reserved": 0, "is_disabled": 0, "fusion_lon": 0.0, "bike_id": "b123fe7352978065c425f3854db1fea9", "lon": -76.97810416666667, "rental_uris": {"ios": "https://dc.lft.to/lastmile_qr_scan", "android": "https://dc.lft.to/lastmile_qr_scan"}}, {"name": "c477c9a44fb40b54cfdb04aae8393dcb", "fusion_lat": 0.0, "type": "electric_bike", "lat": 38.891880666666665, "is_reserved": 0, "is_disabled": 0, "fusion_lon": 0.0, "bike_id": "c477c9a44fb40b54cfdb04aae8393dcb", "lon": -77.122616, "rental_uris": {"ios": "https://dc.lft.to/lastmile_qr_scan", "android": "https://dc.lft.to/lastmile_qr_scan"}}, {"name": "299005fd154206cc4c9c18de155db433", "fusion_lat": 0.0, "type": "electric_bike", "lat": 38.83194533333333, "is_reserved": 0, "is_disabled": 0, "fusion_lon": 0.0, "bike_id": "299005fd154206cc4c9c18de155db433", "lon": -77.07684466666667, "rental_uris": {"ios": "https://dc.lft.to/lastmile_qr_scan", "android": "https://dc.lft.to/lastmile_qr_scan"}}, {"name": "77cf2b6c50f70c832c30891e89e1633f", "fusion_lat": 0.0, "type": "electric_scooter", "lat": 38.90541983333333, "is_reserved": 0, "is_disabled": 0, "fusion_lon": 0.0, "bike_id": "77cf2b6c50f70c832c30891e89e1633f", "lon": -77.05052416666666, "rental_uris": {"ios": "https://dc.lft.to/lastmile_qr_scan", "android": "https://dc.lft.to/lastmile_qr_scan"}}, {"name": "22fbe535bb9b854c83203b9d8144f4be", "fusion_lat": 0.0, "type": "electric_scooter", "lat": 38.94292216666667, "is_reserved": 0, "is_disabled": 0, "fusion_lon": 0.0, "bike_id": "22fbe535bb9b854c83203b9d8144f4be", "lon": -77.02171283333334, "rental_uris": {"ios": "https://dc.lft.to/lastmile_qr_scan", "android": "https://dc.lft.to/lastmile_qr_scan"}}, {"name": "2a7703906b85a27469fab7abe0d2ebc2", "fusion_lat": 0.0, "type": "electric_scooter", "lat": 38.918715, "is_reserved": 0, "is_disabled": 0, "fusion_lon": 0.0, "bike_id": "2a7703906b85a27469fab7abe0d2ebc2", "lon": -77.02306966666667, "rental_uris": {"ios": "https://dc.lft.to/lastmile_qr_scan", "android": "https://dc.lft.to/lastmile_qr_scan"}}, {"name": "c0b71a098424ee27c066f1f809a7bc8b", "fusion_lat": 0.0, "type": "electric_scooter", "lat": 38.888981, "is_reserved": 0, "is_disabled": 0, "fusion_lon": 0.0, "bike_id": "c0b71a098424ee27c066f1f809a7bc8b", "lon": -77.03283166666667, "rental_uris": {"ios": "https://dc.lft.to/lastmile_qr_scan", "android": "https://dc.lft.to/lastmile_qr_scan"}}, {"name": "43087179826c910a7b0322d9d3770d89", "fusion_lat": 0.0, "type": "electric_scooter", "lat": 38.90980116666667, "is_reserved": 0, "is_disabled": 0, "fusion_lon": 0.0, "bike_id": "43087179826c910a7b0322d9d3770d89", "lon": -77.06715083333333, "rental_uris": {"ios": "https://dc.lft.to/lastmile_qr_scan", "android": "https://dc.lft.to/lastmile_qr_scan"}}, {"name": "5306e7edaba3932a56ab098eed9f4baa", "fusion_lat": 0.0, "type": "electric_scooter", "lat": 38.91121716666667, "is_reserved": 0, "is_disabled": 0, "fusion_lon": 0.0, "bike_id": "5306e7edaba3932a56ab098eed9f4baa", "lon": -77.0382255, "rental_uris": {"ios": "https://dc.lft.to/lastmile_qr_scan", "android": "https://dc.lft.to/lastmile_qr_scan"}}, {"name": "43d2693037bc9be8ad1dd0532b40f79e", "fusion_lat": 0.0, "type": "electric_scooter", "lat": 38.87417766666667, "is_reserved": 0, "is_disabled": 0, "fusion_lon": 0.0, "bike_id": "43d2693037bc9be8ad1dd0532b40f79e", "lon": -76.96088483333334, "rental_uris": {"ios": "https://dc.lft.to/lastmile_qr_scan", "android": "https://dc.lft.to/lastmile_qr_scan"}}, {"name": "5877f17a6954bcb282c83a9647f9bf8a", "fusion_lat": 0.0, "type": "electric_scooter", "lat": 38.89669683333334, "is_reserved": 0, "is_disabled": 0, "fusion_lon": 0.0, "bike_id": "5877f17a6954bcb282c83a9647f9bf8a", "lon": -76.948515, "rental_uris": {"ios": "https://dc.lft.to/lastmile_qr_scan", "android": "https://dc.lft.to/lastmile_qr_scan"}}, {"name": "7340bc95c81e46f12d0f7118a90d0eeb", "fusion_lat": 0.0, "type": "electric_scooter", "lat": 38.91823266666667, "is_reserved": 0, "is_disabled": 0, "fusion_lon": 0.0, "bike_id": "7340bc95c81e46f12d0f7118a90d0eeb", "lon": -77.02289683333333, "rental_uris": {"ios": "https://dc.lft.to/lastmile_qr_scan", "android": "https://dc.lft.to/lastmile_qr_scan"}}, {"name": "ad2ab3059c677bd9bfed10fce378591b", "fusion_lat": 0.0, "type": "electric_scooter", "lat": 38.90317783333333, "is_reserved": 0, "is_disabled": 0, "fusion_lon": 0.0, "bike_id": "ad2ab3059c677bd9bfed10fce378591b", "lon": -76.99161316666667, "rental_uris": {"ios": "https://dc.lft.to/lastmile_qr_scan", "android": "https://dc.lft.to/lastmile_qr_scan"}}, {"name": "a9ddab4338044324edf466793902a146", "fusion_lat": 0.0, "type": "electric_bike", "lat": 38.95686083333333, "is_reserved": 0, "is_disabled": 0, "fusion_lon": 0.0, "bike_id": "a9ddab4338044324edf466793902a146", "lon": -77.02223316666667, "rental_uris": {"ios": "https://dc.lft.to/lastmile_qr_scan", "android": "https://dc.lft.to/lastmile_qr_scan"}}, {"name": "3394c000084fa27b77ba40cccac856d4", "fusion_lat": 0.0, "type": "electric_scooter", "lat": 38.9051875, "is_reserved": 0, "is_disabled": 0, "fusion_lon": 0.0, "bike_id": "3394c000084fa27b77ba40cccac856d4", "lon": -77.06626066666666, "rental_uris": {"ios": "https://dc.lft.to/lastmile_qr_scan", "android": "https://dc.lft.to/lastmile_qr_scan"}}, {"name": "b608c2307c434d704a1e510404a2289b", "fusion_lat": 0.0, "type": "electric_bike", "lat": 38.942729166666666, "is_reserved": 0, "is_disabled": 0, "fusion_lon": 0.0, "bike_id": "b608c2307c434d704a1e510404a2289b", "lon": -76.9807205, "rental_uris": {"ios": "https://dc.lft.to/lastmile_qr_scan", "android": "https://dc.lft.to/lastmile_qr_scan"}}, {"name": "6bb0fad7471abb8f4b9e598a5d7e730b", "fusion_lat": 0.0, "type": "electric_scooter", "lat": 38.8962245, "is_reserved": 0, "is_disabled": 0, "fusion_lon": 0.0, "bike_id": "6bb0fad7471abb8f4b9e598a5d7e730b", "lon": -77.01032866666667, "rental_uris": {"ios": "https://dc.lft.to/lastmile_qr_scan", "android": "https://dc.lft.to/lastmile_qr_scan"}}, {"name": "b8ec237b9398c3b814855a92a216175b", "fusion_lat": 0.0, "type": "electric_bike", "lat": 38.874771333333335, "is_reserved": 0, "is_disabled": 0, "fusion_lon": 0.0, "bike_id": "b8ec237b9398c3b814855a92a216175b", "lon": -76.9652785, "rental_uris": {"ios": "https://dc.lft.to/lastmile_qr_scan", "android": "https://dc.lft.to/lastmile_qr_scan"}}, {"name": "d7234f47019eb3d228583b5cb3bba238", "fusion_lat": 0.0, "type": "electric_scooter", "lat": 38.912599, "is_reserved": 0, "is_disabled": 0, "fusion_lon": 0.0, "bike_id": "d7234f47019eb3d228583b5cb3bba238", "lon": -77.03443766666666, "rental_uris": {"ios": "https://dc.lft.to/lastmile_qr_scan", "android": "https://dc.lft.to/lastmile_qr_scan"}}, {"name": "493743a13c79d9e48caef8ef71acfe92", "fusion_lat": 0.0, "type": "electric_scooter", "lat": 38.900293, "is_reserved": 0, "is_disabled": 0, "fusion_lon": 0.0, "bike_id": "493743a13c79d9e48caef8ef71acfe92", "lon": -77.01109016666666, "rental_uris": {"ios": "https://dc.lft.to/lastmile_qr_scan", "android": "https://dc.lft.to/lastmile_qr_scan"}}, {"name": "eb4634ccf50049df608c34bfd8d90a10", "fusion_lat": 0.0, "type": "electric_scooter", "lat": 38.90034266666667, "is_reserved": 0, "is_disabled": 0, "fusion_lon": 0.0, "bike_id": "eb4634ccf50049df608c34bfd8d90a10", "lon": -76.98838716666667, "rental_uris": {"ios": "https://dc.lft.to/lastmile_qr_scan", "android": "https://dc.lft.to/lastmile_qr_scan"}}, {"name": "6b716e5774ee61a4f1aa01a7b24950a5", "fusion_lat": 0.0, "type": "electric_scooter", "lat": 38.93250283333333, "is_reserved": 0, "is_disabled": 0, "fusion_lon": 0.0, "bike_id": "6b716e5774ee61a4f1aa01a7b24950a5", "lon": -77.04009033333334, "rental_uris": {"ios": "https://dc.lft.to/lastmile_qr_scan", "android": "https://dc.lft.to/lastmile_qr_scan"}}, {"name": "25c02bed42fa71d409b8c54f747437a7", "fusion_lat": 0.0, "type": "electric_scooter", "lat": 38.911162166666664, "is_reserved": 0, "is_disabled": 0, "fusion_lon": 0.0, "bike_id": "25c02bed42fa71d409b8c54f747437a7", "lon": -77.03296933333333, "rental_uris": {"ios": "https://dc.lft.to/lastmile_qr_scan", "android": "https://dc.lft.to/lastmile_qr_scan"}}, {"name": "a2163ce38b0bbac7fe1af9cdcdb7c69e", "fusion_lat": 0.0, "type": "electric_scooter", "lat": 38.916601, "is_reserved": 0, "is_disabled": 0, "fusion_lon": 0.0, "bike_id": "a2163ce38b0bbac7fe1af9cdcdb7c69e", "lon": -77.02569133333333, "rental_uris": {"ios": "https://dc.lft.to/lastmile_qr_scan", "android": "https://dc.lft.to/lastmile_qr_scan"}}, {"name": "579880dc467ba9f93e8638f6990f997f", "fusion_lat": 0.0, "type": "electric_scooter", "lat": 38.917313, "is_reserved": 0, "is_disabled": 0, "fusion_lon": 0.0, "bike_id": "579880dc467ba9f93e8638f6990f997f", "lon": -77.03837633333333, "rental_uris": {"ios": "https://dc.lft.to/lastmile_qr_scan", "android": "https://dc.lft.to/lastmile_qr_scan"}}, {"name": "d7e471f8a44b4cac7e3c7048522d1adb", "fusion_lat": 0.0, "type": "electric_scooter", "lat": 38.90012383333333, "is_reserved": 0, "is_disabled": 0, "fusion_lon": 0.0, "bike_id": "d7e471f8a44b4cac7e3c7048522d1adb", "lon": -77.03316466666666, "rental_uris": {"ios": "https://dc.lft.to/lastmile_qr_scan", "android": "https://dc.lft.to/lastmile_qr_scan"}}, {"name": "dafa38572dbfbed390430b7b9174f70a", "fusion_lat": 0.0, "type": "electric_scooter", "lat": 38.916921333333335, "is_reserved": 0, "is_disabled": 0, "fusion_lon": 0.0, "bike_id": "dafa38572dbfbed390430b7b9174f70a", "lon": -77.02437133333333, "rental_uris": {"ios": "https://dc.lft.to/lastmile_qr_scan", "android": "https://dc.lft.to/lastmile_qr_scan"}}, {"name": "f0d21956c3fcff1f61935e1a293611f4", "fusion_lat": 0.0, "type": "electric_scooter", "lat": 38.9061225, "is_reserved": 0, "is_disabled": 0, "fusion_lon": 0.0, "bike_id": "f0d21956c3fcff1f61935e1a293611f4", "lon": -77.0468155, "rental_uris": {"ios": "https://dc.lft.to/lastmile_qr_scan", "android": "https://dc.lft.to/lastmile_qr_scan"}}, {"name": "50520c234a2a21bc9100848faa38cdf1", "fusion_lat": 0.0, "type": "electric_scooter", "lat": 38.866606833333336, "is_reserved": 0, "is_disabled": 0, "fusion_lon": 0.0, "bike_id": "50520c234a2a21bc9100848faa38cdf1", "lon": -76.988807, "rental_uris": {"ios": "https://dc.lft.to/lastmile_qr_scan", "android": "https://dc.lft.to/lastmile_qr_scan"}}, {"name": "e643fc7f9c018863ca28c000ac7f5609", "fusion_lat": 0.0, "type": "electric_scooter", "lat": 38.9248385, "is_reserved": 0, "is_disabled": 0, "fusion_lon": 0.0, "bike_id": "e643fc7f9c018863ca28c000ac7f5609", "lon": -77.02896633333333, "rental_uris": {"ios": "https://dc.lft.to/lastmile_qr_scan", "android": "https://dc.lft.to/lastmile_qr_scan"}}, {"name": "2a9ee6d07d55d8caa8a2949798793a6c", "fusion_lat": 0.0, "type": "electric_scooter", "lat": 38.88603283333333, "is_reserved": 0, "is_disabled": 0, "fusion_lon": 0.0, "bike_id": "2a9ee6d07d55d8caa8a2949798793a6c", "lon": -77.019754, "rental_uris": {"ios": "https://dc.lft.to/lastmile_qr_scan", "android": "https://dc.lft.to/lastmile_qr_scan"}}, {"name": "21b4be0f00914f750b7ba7d514b545ad", "fusion_lat": 0.0, "type": "electric_scooter", "lat": 38.911328166666664, "is_reserved": 0, "is_disabled": 0, "fusion_lon": 0.0, "bike_id": "21b4be0f00914f750b7ba7d514b545ad", "lon": -77.02179916666667, "rental_uris": {"ios": "https://dc.lft.to/lastmile_qr_scan", "android": "https://dc.lft.to/lastmile_qr_scan"}}, {"name": "7ebe58895a38bc2543388fcef8b19fea", "fusion_lat": 0.0, "type": "electric_scooter", "lat": 38.920691, "is_reserved": 0, "is_disabled": 0, "fusion_lon": 0.0, "bike_id": "7ebe58895a38bc2543388fcef8b19fea", "lon": -77.04246466666666, "rental_uris": {"ios": "https://dc.lft.to/lastmile_qr_scan", "android": "https://dc.lft.to/lastmile_qr_scan"}}, {"name": "dcfe1cfc1875d95fc9d2c8609a93435d", "fusion_lat": 0.0, "type": "electric_scooter", "lat": 38.910103, "is_reserved": 0, "is_disabled": 0, "fusion_lon": 0.0, "bike_id": "dcfe1cfc1875d95fc9d2c8609a93435d", "lon": -76.99387883333333, "rental_uris": {"ios": "https://dc.lft.to/lastmile_qr_scan", "android": "https://dc.lft.to/lastmile_qr_scan"}}, {"name": "d1fc6e4045cb6156b1e13f40ec5c2fb5", "fusion_lat": 0.0, "type": "electric_scooter", "lat": 38.911055166666664, "is_reserved": 0, "is_disabled": 0, "fusion_lon": 0.0, "bike_id": "d1fc6e4045cb6156b1e13f40ec5c2fb5", "lon": -77.01057216666666, "rental_uris": {"ios": "https://dc.lft.to/lastmile_qr_scan", "android": "https://dc.lft.to/lastmile_qr_scan"}}, {"name": "967ad3109b6098ee23c37a2fbd737c97", "fusion_lat": 0.0, "type": "electric_scooter", "lat": 38.90262766666667, "is_reserved": 0, "is_disabled": 0, "fusion_lon": 0.0, "bike_id": "967ad3109b6098ee23c37a2fbd737c97", "lon": -77.01548433333333, "rental_uris": {"ios": "https://dc.lft.to/lastmile_qr_scan", "android": "https://dc.lft.to/lastmile_qr_scan"}}, {"name": "fef0a9d3060987d1d4d3ea5e0a1ba7fa", "fusion_lat": 0.0, "type": "electric_scooter", "lat": 38.923163833333334, "is_reserved": 0, "is_disabled": 0, "fusion_lon": 0.0, "bike_id": "fef0a9d3060987d1d4d3ea5e0a1ba7fa", "lon": -77.039634, "rental_uris": {"ios": "https://dc.lft.to/lastmile_qr_scan", "android": "https://dc.lft.to/lastmile_qr_scan"}}, {"name": "313479b7d91fbe848ebe07939f4c9212", "fusion_lat": 0.0, "type": "electric_scooter", "lat": 38.895609, "is_reserved": 0, "is_disabled": 0, "fusion_lon": 0.0, "bike_id": "313479b7d91fbe848ebe07939f4c9212", "lon": -77.01115133333333, "rental_uris": {"ios": "https://dc.lft.to/lastmile_qr_scan", "android": "https://dc.lft.to/lastmile_qr_scan"}}, {"name": "3a8c559ca8ebf2698c8dfb075bd36dc6", "fusion_lat": 0.0, "type": "electric_scooter", "lat": 38.90538683333333, "is_reserved": 0, "is_disabled": 0, "fusion_lon": 0.0, "bike_id": "3a8c559ca8ebf2698c8dfb075bd36dc6", "lon": -77.06269016666667, "rental_uris": {"ios": "https://dc.lft.to/lastmile_qr_scan", "android": "https://dc.lft.to/lastmile_qr_scan"}}, {"name": "8855a60fb4546102566791fbb8c55b2e", "fusion_lat": 0.0, "type": "electric_scooter", "lat": 38.939423, "is_reserved": 0, "is_disabled": 0, "fusion_lon": 0.0, "bike_id": "8855a60fb4546102566791fbb8c55b2e", "lon": -77.03620416666666, "rental_uris": {"ios": "https://dc.lft.to/lastmile_qr_scan", "android": "https://dc.lft.to/lastmile_qr_scan"}}, {"name": "6439690f8ff6bf5fddf3d935c825d002", "fusion_lat": 0.0, "type": "electric_scooter", "lat": 38.905142166666664, "is_reserved": 0, "is_disabled": 0, "fusion_lon": 0.0, "bike_id": "6439690f8ff6bf5fddf3d935c825d002", "lon": -77.06936083333333, "rental_uris": {"ios": "https://dc.lft.to/lastmile_qr_scan", "android": "https://dc.lft.to/lastmile_qr_scan"}}, {"name": "354e64631be4be43264cd2dc788547c7", "fusion_lat": 0.0, "type": "electric_scooter", "lat": 38.950868, "is_reserved": 0, "is_disabled": 0, "fusion_lon": 0.0, "bike_id": "354e64631be4be43264cd2dc788547c7", "lon": -77.02840366666666, "rental_uris": {"ios": "https://dc.lft.to/lastmile_qr_scan", "android": "https://dc.lft.to/lastmile_qr_scan"}}, {"name": "7320ef9056877372689ff79ecd3d34f9", "fusion_lat": 0.0, "type": "electric_scooter", "lat": 38.938725166666664, "is_reserved": 0, "is_disabled": 0, "fusion_lon": 0.0, "bike_id": "7320ef9056877372689ff79ecd3d34f9", "lon": -77.03217, "rental_uris": {"ios": "https://dc.lft.to/lastmile_qr_scan", "android": "https://dc.lft.to/lastmile_qr_scan"}}, {"name": "f92b91afc765de83e7c2cfdaad216533", "fusion_lat": 0.0, "type": "electric_scooter", "lat": 38.90739583333333, "is_reserved": 0, "is_disabled": 0, "fusion_lon": 0.0, "bike_id": "f92b91afc765de83e7c2cfdaad216533", "lon": -77.04667716666667, "rental_uris": {"ios": "https://dc.lft.to/lastmile_qr_scan", "android": "https://dc.lft.to/lastmile_qr_scan"}}, {"name": "d21099533656ae422e84672d37f62f59", "fusion_lat": 0.0, "type": "electric_scooter", "lat": 38.89234733333333, "is_reserved": 0, "is_disabled": 0, "fusion_lon": 0.0, "bike_id": "d21099533656ae422e84672d37f62f59", "lon": -77.03185416666666, "rental_uris": {"ios": "https://dc.lft.to/lastmile_qr_scan", "android": "https://dc.lft.to/lastmile_qr_scan"}}, {"name": "1184c19212a6eef366ecb1378653947e", "fusion_lat": 0.0, "type": "electric_scooter", "lat": 38.91191333333333, "is_reserved": 0, "is_disabled": 0, "fusion_lon": 0.0, "bike_id": "1184c19212a6eef366ecb1378653947e", "lon": -77.00725166666666, "rental_uris": {"ios": "https://dc.lft.to/lastmile_qr_scan", "android": "https://dc.lft.to/lastmile_qr_scan"}}, {"name": "38e8a4c2f7b80236b934b05aadcffa19", "fusion_lat": 0.0, "type": "electric_scooter", "lat": 38.925478, "is_reserved": 0, "is_disabled": 0, "fusion_lon": 0.0, "bike_id": "38e8a4c2f7b80236b934b05aadcffa19", "lon": -77.03265866666666, "rental_uris": {"ios": "https://dc.lft.to/lastmile_qr_scan", "android": "https://dc.lft.to/lastmile_qr_scan"}}, {"name": "68693b54bc4a3c0edbbfcf1f9c9fa093", "fusion_lat": 0.0, "type": "electric_bike", "lat": 38.85852633333333, "is_reserved": 0, "is_disabled": 0, "fusion_lon": 0.0, "bike_id": "68693b54bc4a3c0edbbfcf1f9c9fa093", "lon": -77.0974845, "rental_uris": {"ios": "https://dc.lft.to/lastmile_qr_scan", "android": "https://dc.lft.to/lastmile_qr_scan"}}, {"name": "43ced875fc72c2b689c2f8bb14aa05fb", "fusion_lat": 0.0, "type": "electric_scooter", "lat": 38.90268283333333, "is_reserved": 0, "is_disabled": 0, "fusion_lon": 0.0, "bike_id": "43ced875fc72c2b689c2f8bb14aa05fb", "lon": -77.00578966666667, "rental_uris": {"ios": "https://dc.lft.to/lastmile_qr_scan", "android": "https://dc.lft.to/lastmile_qr_scan"}}, {"name": "5a943da1353f1ed0eb3604bc2249736a", "fusion_lat": 0.0, "type": "electric_scooter", "lat": 38.90152033333333, "is_reserved": 0, "is_disabled": 0, "fusion_lon": 0.0, "bike_id": "5a943da1353f1ed0eb3604bc2249736a", "lon": -77.021819, "rental_uris": {"ios": "https://dc.lft.to/lastmile_qr_scan", "android": "https://dc.lft.to/lastmile_qr_scan"}}, {"name": "5b7ad2affbdcf79cc3b21d3f88d09a46", "fusion_lat": 0.0, "type": "electric_scooter", "lat": 38.92098983333333, "is_reserved": 0, "is_disabled": 0, "fusion_lon": 0.0, "bike_id": "5b7ad2affbdcf79cc3b21d3f88d09a46", "lon": -77.03162633333334, "rental_uris": {"ios": "https://dc.lft.to/lastmile_qr_scan", "android": "https://dc.lft.to/lastmile_qr_scan"}}, {"name": "510dbb527161455931acc0dd5262a05e", "fusion_lat": 0.0, "type": "electric_scooter", "lat": 38.8923805, "is_reserved": 0, "is_disabled": 0, "fusion_lon": 0.0, "bike_id": "510dbb527161455931acc0dd5262a05e", "lon": -77.031846, "rental_uris": {"ios": "https://dc.lft.to/lastmile_qr_scan", "android": "https://dc.lft.to/lastmile_qr_scan"}}, {"name": "17594b87cb6f821813af11612d527dbc", "fusion_lat": 0.0, "type": "electric_scooter", "lat": 38.93122916666667, "is_reserved": 0, "is_disabled": 0, "fusion_lon": 0.0, "bike_id": "17594b87cb6f821813af11612d527dbc", "lon": -77.03605016666667, "rental_uris": {"ios": "https://dc.lft.to/lastmile_qr_scan", "android": "https://dc.lft.to/lastmile_qr_scan"}}, {"name": "e5970b31bce1629f599d503760d69f19", "fusion_lat": 0.0, "type": "electric_scooter", "lat": 38.912575, "is_reserved": 0, "is_disabled": 0, "fusion_lon": 0.0, "bike_id": "e5970b31bce1629f599d503760d69f19", "lon": -77.03866183333334, "rental_uris": {"ios": "https://dc.lft.to/lastmile_qr_scan", "android": "https://dc.lft.to/lastmile_qr_scan"}}, {"name": "11d3afc14b985f1855786bf0162ad7f4", "fusion_lat": 0.0, "type": "electric_scooter", "lat": 38.92598866666667, "is_reserved": 0, "is_disabled": 0, "fusion_lon": 0.0, "bike_id": "11d3afc14b985f1855786bf0162ad7f4", "lon": -77.02603666666667, "rental_uris": {"ios": "https://dc.lft.to/lastmile_qr_scan", "android": "https://dc.lft.to/lastmile_qr_scan"}}, {"name": "b0e7fc7b06ca3913cb1e19e68d691f51", "fusion_lat": 0.0, "type": "electric_scooter", "lat": 38.9073205, "is_reserved": 0, "is_disabled": 0, "fusion_lon": 0.0, "bike_id": "b0e7fc7b06ca3913cb1e19e68d691f51", "lon": -77.04501033333334, "rental_uris": {"ios": "https://dc.lft.to/lastmile_qr_scan", "android": "https://dc.lft.to/lastmile_qr_scan"}}, {"name": "0b54cdcb27f1f4193aaf26ef6f27f2ad", "fusion_lat": 0.0, "type": "electric_scooter", "lat": 38.90005983333333, "is_reserved": 0, "is_disabled": 0, "fusion_lon": 0.0, "bike_id": "0b54cdcb27f1f4193aaf26ef6f27f2ad", "lon": -77.02614933333334, "rental_uris": {"ios": "https://dc.lft.to/lastmile_qr_scan", "android": "https://dc.lft.to/lastmile_qr_scan"}}, {"name": "e67a43a110fa4f5aefada43646b5bea8", "fusion_lat": 0.0, "type": "electric_scooter", "lat": 38.90999383333333, "is_reserved": 0, "is_disabled": 0, "fusion_lon": 0.0, "bike_id": "e67a43a110fa4f5aefada43646b5bea8", "lon": -77.01511166666667, "rental_uris": {"ios": "https://dc.lft.to/lastmile_qr_scan", "android": "https://dc.lft.to/lastmile_qr_scan"}}, {"name": "f3d4b2d2b19be3d8c958e5de8a307268", "fusion_lat": 0.0, "type": "electric_scooter", "lat": 38.866621, "is_reserved": 0, "is_disabled": 0, "fusion_lon": 0.0, "bike_id": "f3d4b2d2b19be3d8c958e5de8a307268", "lon": -76.9888325, "rental_uris": {"ios": "https://dc.lft.to/lastmile_qr_scan", "android": "https://dc.lft.to/lastmile_qr_scan"}}, {"name": "c11d5a7adf80609c969f597c32cb5c0d", "fusion_lat": 0.0, "type": "electric_scooter", "lat": 38.922110333333336, "is_reserved": 0, "is_disabled": 0, "fusion_lon": 0.0, "bike_id": "c11d5a7adf80609c969f597c32cb5c0d", "lon": -76.98748366666666, "rental_uris": {"ios": "https://dc.lft.to/lastmile_qr_scan", "android": "https://dc.lft.to/lastmile_qr_scan"}}, {"name": "2261d6302316048f64104a547614c6a6", "fusion_lat": 0.0, "type": "electric_scooter", "lat": 38.959051333333335, "is_reserved": 0, "is_disabled": 0, "fusion_lon": 0.0, "bike_id": "2261d6302316048f64104a547614c6a6", "lon": -77.08075083333334, "rental_uris": {"ios": "https://dc.lft.to/lastmile_qr_scan", "android": "https://dc.lft.to/lastmile_qr_scan"}}, {"name": "4d23650277075f44726f1fabcb76efa3", "fusion_lat": 0.0, "type": "electric_scooter", "lat": 38.93204816666667, "is_reserved": 0, "is_disabled": 0, "fusion_lon": 0.0, "bike_id": "4d23650277075f44726f1fabcb76efa3", "lon": -77.03660333333333, "rental_uris": {"ios": "https://dc.lft.to/lastmile_qr_scan", "android": "https://dc.lft.to/lastmile_qr_scan"}}, {"name": "7333e32834a6f2175365bfdab10dca3f", "fusion_lat": 0.0, "type": "electric_scooter", "lat": 38.9248175, "is_reserved": 0, "is_disabled": 0, "fusion_lon": 0.0, "bike_id": "7333e32834a6f2175365bfdab10dca3f", "lon": -77.05217233333333, "rental_uris": {"ios": "https://dc.lft.to/lastmile_qr_scan", "android": "https://dc.lft.to/lastmile_qr_scan"}}, {"name": "f83702d89761c1dc8832f29199a5fa00", "fusion_lat": 0.0, "type": "electric_scooter", "lat": 38.9127575, "is_reserved": 0, "is_disabled": 0, "fusion_lon": 0.0, "bike_id": "f83702d89761c1dc8832f29199a5fa00", "lon": -77.0320155, "rental_uris": {"ios": "https://dc.lft.to/lastmile_qr_scan", "android": "https://dc.lft.to/lastmile_qr_scan"}}, {"name": "5e8ee4440b78bf7e4ad5a6b67d58971b", "fusion_lat": 0.0, "type": "electric_bike", "lat": 39.00380783333333, "is_reserved": 0, "is_disabled": 0, "fusion_lon": 0.0, "bike_id": "5e8ee4440b78bf7e4ad5a6b67d58971b", "lon": -77.012839, "rental_uris": {"ios": "https://dc.lft.to/lastmile_qr_scan", "android": "https://dc.lft.to/lastmile_qr_scan"}}, {"name": "9eb00c2487914417a5e669a6fbd92767", "fusion_lat": 0.0, "type": "electric_bike", "lat": 38.807913666666664, "is_reserved": 0, "is_disabled": 0, "fusion_lon": 0.0, "bike_id": "9eb00c2487914417a5e669a6fbd92767", "lon": -77.12962833333333, "rental_uris": {"ios": "https://dc.lft.to/lastmile_qr_scan", "android": "https://dc.lft.to/lastmile_qr_scan"}}, {"name": "7c7815f8f45ffded6f7c75363cd7795d", "fusion_lat": 0.0, "type": "electric_scooter", "lat": 38.857893, "is_reserved": 0, "is_disabled": 0, "fusion_lon": 0.0, "bike_id": "7c7815f8f45ffded6f7c75363cd7795d", "lon": -76.99089383333333, "rental_uris": {"ios": "https://dc.lft.to/lastmile_qr_scan", "android": "https://dc.lft.to/lastmile_qr_scan"}}, {"name": "9314347f4dc9d9bb52fcd4b3f41aa3fb", "fusion_lat": 0.0, "type": "electric_scooter", "lat": 38.956485666666666, "is_reserved": 0, "is_disabled": 0, "fusion_lon": 0.0, "bike_id": "9314347f4dc9d9bb52fcd4b3f41aa3fb", "lon": -77.032869, "rental_uris": {"ios": "https://dc.lft.to/lastmile_qr_scan", "android": "https://dc.lft.to/lastmile_qr_scan"}}, {"name": "be71884f05ad1e910feb20536c7cd09f", "fusion_lat": 0.0, "type": "electric_scooter", "lat": 38.901877999999996, "is_reserved": 0, "is_disabled": 0, "fusion_lon": 0.0, "bike_id": "be71884f05ad1e910feb20536c7cd09f", "lon": -77.02506633333333, "rental_uris": {"ios": "https://dc.lft.to/lastmile_qr_scan", "android": "https://dc.lft.to/lastmile_qr_scan"}}, {"name": "c14eae04604a6c1b54441563effbfe8c", "fusion_lat": 0.0, "type": "electric_scooter", "lat": 38.89530766666667, "is_reserved": 0, "is_disabled": 0, "fusion_lon": 0.0, "bike_id": "c14eae04604a6c1b54441563effbfe8c", "lon": -77.032085, "rental_uris": {"ios": "https://dc.lft.to/lastmile_qr_scan", "android": "https://dc.lft.to/lastmile_qr_scan"}}, {"name": "83c997fee2b0c5dfd1b3b8b5196a0525", "fusion_lat": 0.0, "type": "electric_bike", "lat": 38.96492666666666, "is_reserved": 0, "is_disabled": 0, "fusion_lon": 0.0, "bike_id": "83c997fee2b0c5dfd1b3b8b5196a0525", "lon": -77.06497816666666, "rental_uris": {"ios": "https://dc.lft.to/lastmile_qr_scan", "android": "https://dc.lft.to/lastmile_qr_scan"}}, {"name": "0438901ddc8094abae111bbbdd3cfdba", "fusion_lat": 0.0, "type": "electric_scooter", "lat": 38.9097555, "is_reserved": 0, "is_disabled": 0, "fusion_lon": 0.0, "bike_id": "0438901ddc8094abae111bbbdd3cfdba", "lon": -77.041362, "rental_uris": {"ios": "https://dc.lft.to/lastmile_qr_scan", "android": "https://dc.lft.to/lastmile_qr_scan"}}, {"name": "be385e7aadc08d20be173ac4a0887078", "fusion_lat": 0.0, "type": "electric_scooter", "lat": 38.92567283333333, "is_reserved": 0, "is_disabled": 0, "fusion_lon": 0.0, "bike_id": "be385e7aadc08d20be173ac4a0887078", "lon": -77.0284235, "rental_uris": {"ios": "https://dc.lft.to/lastmile_qr_scan", "android": "https://dc.lft.to/lastmile_qr_scan"}}, {"name": "293a226c61897f3f4cd51db999c200ec", "fusion_lat": 0.0, "type": "electric_scooter", "lat": 38.911259333333334, "is_reserved": 0, "is_disabled": 0, "fusion_lon": 0.0, "bike_id": "293a226c61897f3f4cd51db999c200ec", "lon": -77.03184633333333, "rental_uris": {"ios": "https://dc.lft.to/lastmile_qr_scan", "android": "https://dc.lft.to/lastmile_qr_scan"}}, {"name": "1deeb140bdb8c06c7529746c199efb56", "fusion_lat": 0.0, "type": "electric_scooter", "lat": 38.912397666666664, "is_reserved": 0, "is_disabled": 0, "fusion_lon": 0.0, "bike_id": "1deeb140bdb8c06c7529746c199efb56", "lon": -77.009204, "rental_uris": {"ios": "https://dc.lft.to/lastmile_qr_scan", "android": "https://dc.lft.to/lastmile_qr_scan"}}, {"name": "6c48de221ba966d0adbcddc2d7e8c90b", "fusion_lat": 0.0, "type": "electric_scooter", "lat": 38.91803733333333, "is_reserved": 0, "is_disabled": 0, "fusion_lon": 0.0, "bike_id": "6c48de221ba966d0adbcddc2d7e8c90b", "lon": -77.01455083333333, "rental_uris": {"ios": "https://dc.lft.to/lastmile_qr_scan", "android": "https://dc.lft.to/lastmile_qr_scan"}}, {"name": "ad1a28fd5ec8bf31b866f7060c625ab5", "fusion_lat": 0.0, "type": "electric_scooter", "lat": 38.920661833333334, "is_reserved": 0, "is_disabled": 0, "fusion_lon": 0.0, "bike_id": "ad1a28fd5ec8bf31b866f7060c625ab5", "lon": -77.02960216666666, "rental_uris": {"ios": "https://dc.lft.to/lastmile_qr_scan", "android": "https://dc.lft.to/lastmile_qr_scan"}}, {"name": "24be9e112770cf6acba6106cdde134df", "fusion_lat": 0.0, "type": "electric_scooter", "lat": 38.912896833333335, "is_reserved": 0, "is_disabled": 0, "fusion_lon": 0.0, "bike_id": "24be9e112770cf6acba6106cdde134df", "lon": -77.0238215, "rental_uris": {"ios": "https://dc.lft.to/lastmile_qr_scan", "android": "https://dc.lft.to/lastmile_qr_scan"}}, {"name": "49020a18a0d6246273a91c7e398492d1", "fusion_lat": 0.0, "type": "electric_scooter", "lat": 38.900278, "is_reserved": 0, "is_disabled": 0, "fusion_lon": 0.0, "bike_id": "49020a18a0d6246273a91c7e398492d1", "lon": -76.993449, "rental_uris": {"ios": "https://dc.lft.to/lastmile_qr_scan", "android": "https://dc.lft.to/lastmile_qr_scan"}}, {"name": "835a0fbe48e0f8a3ed8d23e965b4931c", "fusion_lat": 0.0, "type": "electric_scooter", "lat": 38.90133383333333, "is_reserved": 0, "is_disabled": 0, "fusion_lon": 0.0, "bike_id": "835a0fbe48e0f8a3ed8d23e965b4931c", "lon": -77.04496766666666, "rental_uris": {"ios": "https://dc.lft.to/lastmile_qr_scan", "android": "https://dc.lft.to/lastmile_qr_scan"}}, {"name": "17ccb5e84cbcc5375339d5540b6c0580", "fusion_lat": 0.0, "type": "electric_scooter", "lat": 38.9115285, "is_reserved": 0, "is_disabled": 0, "fusion_lon": 0.0, "bike_id": "17ccb5e84cbcc5375339d5540b6c0580", "lon": -77.0442735, "rental_uris": {"ios": "https://dc.lft.to/lastmile_qr_scan", "android": "https://dc.lft.to/lastmile_qr_scan"}}, {"name": "a32ce9c2b04b7a3c34fe95f9dc5d8335", "fusion_lat": 0.0, "type": "electric_scooter", "lat": 38.900287, "is_reserved": 0, "is_disabled": 0, "fusion_lon": 0.0, "bike_id": "a32ce9c2b04b7a3c34fe95f9dc5d8335", "lon": -76.98847866666667, "rental_uris": {"ios": "https://dc.lft.to/lastmile_qr_scan", "android": "https://dc.lft.to/lastmile_qr_scan"}}, {"name": "7936b2c9e9f3cc2b71732622bcb3a75b", "fusion_lat": 0.0, "type": "electric_scooter", "lat": 38.90571216666667, "is_reserved": 0, "is_disabled": 0, "fusion_lon": 0.0, "bike_id": "7936b2c9e9f3cc2b71732622bcb3a75b", "lon": -77.0345205, "rental_uris": {"ios": "https://dc.lft.to/lastmile_qr_scan", "android": "https://dc.lft.to/lastmile_qr_scan"}}, {"name": "820e4e81c4dbbefd786052bd7a4b01bf", "fusion_lat": 0.0, "type": "electric_scooter", "lat": 38.89977283333333, "is_reserved": 0, "is_disabled": 0, "fusion_lon": 0.0, "bike_id": "820e4e81c4dbbefd786052bd7a4b01bf", "lon": -77.02946683333333, "rental_uris": {"ios": "https://dc.lft.to/lastmile_qr_scan", "android": "https://dc.lft.to/lastmile_qr_scan"}}, {"name": "71d36c817966907c604fda76ef891672", "fusion_lat": 0.0, "type": "electric_scooter", "lat": 38.9156595, "is_reserved": 0, "is_disabled": 0, "fusion_lon": 0.0, "bike_id": "71d36c817966907c604fda76ef891672", "lon": -77.02237033333333, "rental_uris": {"ios": "https://dc.lft.to/lastmile_qr_scan", "android": "https://dc.lft.to/lastmile_qr_scan"}}, {"name": "b046a657e76fb2cfbbab48af57db7a6a", "fusion_lat": 0.0, "type": "electric_scooter", "lat": 38.9001915, "is_reserved": 0, "is_disabled": 0, "fusion_lon": 0.0, "bike_id": "b046a657e76fb2cfbbab48af57db7a6a", "lon": -77.00213483333333, "rental_uris": {"ios": "https://dc.lft.to/lastmile_qr_scan", "android": "https://dc.lft.to/lastmile_qr_scan"}}, {"name": "c24af72acb368251cbe3cc2c813d7449", "fusion_lat": 0.0, "type": "electric_scooter", "lat": 38.87005883333333, "is_reserved": 0, "is_disabled": 0, "fusion_lon": 0.0, "bike_id": "c24af72acb368251cbe3cc2c813d7449", "lon": -77.01223866666666, "rental_uris": {"ios": "https://dc.lft.to/lastmile_qr_scan", "android": "https://dc.lft.to/lastmile_qr_scan"}}, {"name": "a4d332dabc6275e433b92f1de2781099", "fusion_lat": 0.0, "type": "electric_scooter", "lat": 38.93281133333333, "is_reserved": 0, "is_disabled": 0, "fusion_lon": 0.0, "bike_id": "a4d332dabc6275e433b92f1de2781099", "lon": -77.03499616666667, "rental_uris": {"ios": "https://dc.lft.to/lastmile_qr_scan", "android": "https://dc.lft.to/lastmile_qr_scan"}}, {"name": "044da42568520d44d5658a27ab5f7fb7", "fusion_lat": 0.0, "type": "electric_scooter", "lat": 38.914181, "is_reserved": 0, "is_disabled": 0, "fusion_lon": 0.0, "bike_id": "044da42568520d44d5658a27ab5f7fb7", "lon": -77.0415625, "rental_uris": {"ios": "https://dc.lft.to/lastmile_qr_scan", "android": "https://dc.lft.to/lastmile_qr_scan"}}, {"name": "89f9ac8ef9137418cd59cb88c9ef3384", "fusion_lat": 0.0, "type": "electric_scooter", "lat": 38.89091333333333, "is_reserved": 0, "is_disabled": 0, "fusion_lon": 0.0, "bike_id": "89f9ac8ef9137418cd59cb88c9ef3384", "lon": -76.99784716666667, "rental_uris": {"ios": "https://dc.lft.to/lastmile_qr_scan", "android": "https://dc.lft.to/lastmile_qr_scan"}}, {"name": "1f1eb6a73f85b82c8215dac116f61271", "fusion_lat": 0.0, "type": "electric_scooter", "lat": 38.9104125, "is_reserved": 0, "is_disabled": 0, "fusion_lon": 0.0, "bike_id": "1f1eb6a73f85b82c8215dac116f61271", "lon": -77.02816466666667, "rental_uris": {"ios": "https://dc.lft.to/lastmile_qr_scan", "android": "https://dc.lft.to/lastmile_qr_scan"}}, {"name": "bf28d07da311d8e6344c724cbe44f687", "fusion_lat": 0.0, "type": "electric_scooter", "lat": 38.9006135, "is_reserved": 0, "is_disabled": 0, "fusion_lon": 0.0, "bike_id": "bf28d07da311d8e6344c724cbe44f687", "lon": -77.04506633333334, "rental_uris": {"ios": "https://dc.lft.to/lastmile_qr_scan", "android": "https://dc.lft.to/lastmile_qr_scan"}}, {"name": "5a95042fe1fc17c92102094d163598d9", "fusion_lat": 0.0, "type": "electric_bike", "lat": 38.96547733333333, "is_reserved": 0, "is_disabled": 0, "fusion_lon": 0.0, "bike_id": "5a95042fe1fc17c92102094d163598d9", "lon": -77.03514366666667, "rental_uris": {"ios": "https://dc.lft.to/lastmile_qr_scan", "android": "https://dc.lft.to/lastmile_qr_scan"}}, {"name": "231b1352b24bc1fe1ca71e38578dbcde", "fusion_lat": 0.0, "type": "electric_scooter", "lat": 38.865246166666665, "is_reserved": 0, "is_disabled": 0, "fusion_lon": 0.0, "bike_id": "231b1352b24bc1fe1ca71e38578dbcde", "lon": -76.9855685, "rental_uris": {"ios": "https://dc.lft.to/lastmile_qr_scan", "android": "https://dc.lft.to/lastmile_qr_scan"}}, {"name": "7534ce45c5f21e95c420a4eb29046033", "fusion_lat": 0.0, "type": "electric_scooter", "lat": 38.924404333333335, "is_reserved": 0, "is_disabled": 0, "fusion_lon": 0.0, "bike_id": "7534ce45c5f21e95c420a4eb29046033", "lon": -77.041365, "rental_uris": {"ios": "https://dc.lft.to/lastmile_qr_scan", "android": "https://dc.lft.to/lastmile_qr_scan"}}, {"name": "21f7a31843347553e22902d4a2678d69", "fusion_lat": 0.0, "type": "electric_bike", "lat": 38.82048366666667, "is_reserved": 0, "is_disabled": 0, "fusion_lon": 0.0, "bike_id": "21f7a31843347553e22902d4a2678d69", "lon": -77.05314683333333, "rental_uris": {"ios": "https://dc.lft.to/lastmile_qr_scan", "android": "https://dc.lft.to/lastmile_qr_scan"}}, {"name": "04477b1a7b94b986fc47b2bbdab25de8", "fusion_lat": 0.0, "type": "electric_scooter", "lat": 38.93072883333333, "is_reserved": 0, "is_disabled": 0, "fusion_lon": 0.0, "bike_id": "04477b1a7b94b986fc47b2bbdab25de8", "lon": -77.0339715, "rental_uris": {"ios": "https://dc.lft.to/lastmile_qr_scan", "android": "https://dc.lft.to/lastmile_qr_scan"}}, {"name": "9a750a75ecde1ff73df281e0267c22bb", "fusion_lat": 0.0, "type": "electric_scooter", "lat": 38.9248555, "is_reserved": 0, "is_disabled": 0, "fusion_lon": 0.0, "bike_id": "9a750a75ecde1ff73df281e0267c22bb", "lon": -77.027115, "rental_uris": {"ios": "https://dc.lft.to/lastmile_qr_scan", "android": "https://dc.lft.to/lastmile_qr_scan"}}, {"name": "fc241f6a1bab6f7ae5bd073a7dc445b1", "fusion_lat": 0.0, "type": "electric_scooter", "lat": 38.892288666666666, "is_reserved": 0, "is_disabled": 0, "fusion_lon": 0.0, "bike_id": "fc241f6a1bab6f7ae5bd073a7dc445b1", "lon": -77.03198233333333, "rental_uris": {"ios": "https://dc.lft.to/lastmile_qr_scan", "android": "https://dc.lft.to/lastmile_qr_scan"}}, {"name": "31bd5b59f53f309b3ee2a91d2561906d", "fusion_lat": 0.0, "type": "electric_scooter", "lat": 38.89725716666667, "is_reserved": 0, "is_disabled": 0, "fusion_lon": 0.0, "bike_id": "31bd5b59f53f309b3ee2a91d2561906d", "lon": -77.04337366666667, "rental_uris": {"ios": "https://dc.lft.to/lastmile_qr_scan", "android": "https://dc.lft.to/lastmile_qr_scan"}}, {"name": "858bc4b579296806315b0ce2b57499cb", "fusion_lat": 0.0, "type": "electric_scooter", "lat": 38.907284, "is_reserved": 0, "is_disabled": 0, "fusion_lon": 0.0, "bike_id": "858bc4b579296806315b0ce2b57499cb", "lon": -77.03357533333333, "rental_uris": {"ios": "https://dc.lft.to/lastmile_qr_scan", "android": "https://dc.lft.to/lastmile_qr_scan"}}, {"name": "d25507068f0c24f59cf5b2ca0afc934f", "fusion_lat": 0.0, "type": "electric_scooter", "lat": 38.93016716666666, "is_reserved": 0, "is_disabled": 0, "fusion_lon": 0.0, "bike_id": "d25507068f0c24f59cf5b2ca0afc934f", "lon": -77.0231845, "rental_uris": {"ios": "https://dc.lft.to/lastmile_qr_scan", "android": "https://dc.lft.to/lastmile_qr_scan"}}, {"name": "2191cf11d3b7b7603932c5c40b0d28b3", "fusion_lat": 0.0, "type": "electric_bike", "lat": 38.843406333333334, "is_reserved": 0, "is_disabled": 0, "fusion_lon": 0.0, "bike_id": "2191cf11d3b7b7603932c5c40b0d28b3", "lon": -77.06343783333334, "rental_uris": {"ios": "https://dc.lft.to/lastmile_qr_scan", "android": "https://dc.lft.to/lastmile_qr_scan"}}, {"name": "0e8eebe406cc72b79d2fcdc03e73041e", "fusion_lat": 0.0, "type": "electric_scooter", "lat": 38.9098665, "is_reserved": 0, "is_disabled": 0, "fusion_lon": 0.0, "bike_id": "0e8eebe406cc72b79d2fcdc03e73041e", "lon": -77.04873483333333, "rental_uris": {"ios": "https://dc.lft.to/lastmile_qr_scan", "android": "https://dc.lft.to/lastmile_qr_scan"}}, {"name": "2c11d63a97c12b1c5f3ac19c3c62f317", "fusion_lat": 0.0, "type": "electric_scooter", "lat": 38.9159355, "is_reserved": 0, "is_disabled": 0, "fusion_lon": 0.0, "bike_id": "2c11d63a97c12b1c5f3ac19c3c62f317", "lon": -77.04357683333333, "rental_uris": {"ios": "https://dc.lft.to/lastmile_qr_scan", "android": "https://dc.lft.to/lastmile_qr_scan"}}, {"name": "a0525748cc78db24c2ee6fa133cbf250", "fusion_lat": 0.0, "type": "electric_scooter", "lat": 38.901049, "is_reserved": 0, "is_disabled": 0, "fusion_lon": 0.0, "bike_id": "a0525748cc78db24c2ee6fa133cbf250", "lon": -77.024762, "rental_uris": {"ios": "https://dc.lft.to/lastmile_qr_scan", "android": "https://dc.lft.to/lastmile_qr_scan"}}, {"name": "c2a96c96e8f0221848882b555c46e35d", "fusion_lat": 0.0, "type": "electric_scooter", "lat": 38.9174455, "is_reserved": 0, "is_disabled": 0, "fusion_lon": 0.0, "bike_id": "c2a96c96e8f0221848882b555c46e35d", "lon": -77.02286716666667, "rental_uris": {"ios": "https://dc.lft.to/lastmile_qr_scan", "android": "https://dc.lft.to/lastmile_qr_scan"}}, {"name": "22a2241d757ec4e2d78a95fdfc81aeb2", "fusion_lat": 0.0, "type": "electric_bike", "lat": 38.82873933333333, "is_reserved": 0, "is_disabled": 0, "fusion_lon": 0.0, "bike_id": "22a2241d757ec4e2d78a95fdfc81aeb2", "lon": -77.11220433333334, "rental_uris": {"ios": "https://dc.lft.to/lastmile_qr_scan", "android": "https://dc.lft.to/lastmile_qr_scan"}}, {"name": "bd615eedded13486339b4274011a93b0", "fusion_lat": 0.0, "type": "electric_scooter", "lat": 38.8997375, "is_reserved": 0, "is_disabled": 0, "fusion_lon": 0.0, "bike_id": "bd615eedded13486339b4274011a93b0", "lon": -77.05702066666667, "rental_uris": {"ios": "https://dc.lft.to/lastmile_qr_scan", "android": "https://dc.lft.to/lastmile_qr_scan"}}, {"name": "e7e25f0866b0f261edfc694c72050706", "fusion_lat": 0.0, "type": "electric_scooter", "lat": 38.914154333333336, "is_reserved": 0, "is_disabled": 0, "fusion_lon": 0.0, "bike_id": "e7e25f0866b0f261edfc694c72050706", "lon": -77.03995316666666, "rental_uris": {"ios": "https://dc.lft.to/lastmile_qr_scan", "android": "https://dc.lft.to/lastmile_qr_scan"}}, {"name": "408eaa880a0e66d275a13667c45c6079", "fusion_lat": 0.0, "type": "electric_scooter", "lat": 38.94281633333333, "is_reserved": 0, "is_disabled": 0, "fusion_lon": 0.0, "bike_id": "408eaa880a0e66d275a13667c45c6079", "lon": -77.02503233333333, "rental_uris": {"ios": "https://dc.lft.to/lastmile_qr_scan", "android": "https://dc.lft.to/lastmile_qr_scan"}}, {"name": "197a892e43f44a76616b5efe34b1d745", "fusion_lat": 0.0, "type": "electric_scooter", "lat": 38.904846166666665, "is_reserved": 0, "is_disabled": 0, "fusion_lon": 0.0, "bike_id": "197a892e43f44a76616b5efe34b1d745", "lon": -77.04646166666667, "rental_uris": {"ios": "https://dc.lft.to/lastmile_qr_scan", "android": "https://dc.lft.to/lastmile_qr_scan"}}, {"name": "35d75208cbbef3fc5fcb84a315b6e014", "fusion_lat": 0.0, "type": "electric_scooter", "lat": 38.9062885, "is_reserved": 0, "is_disabled": 0, "fusion_lon": 0.0, "bike_id": "35d75208cbbef3fc5fcb84a315b6e014", "lon": -77.03858683333333, "rental_uris": {"ios": "https://dc.lft.to/lastmile_qr_scan", "android": "https://dc.lft.to/lastmile_qr_scan"}}, {"name": "ca364344880b16ca6d5557540fe86d7a", "fusion_lat": 0.0, "type": "electric_scooter", "lat": 38.9015735, "is_reserved": 0, "is_disabled": 0, "fusion_lon": 0.0, "bike_id": "ca364344880b16ca6d5557540fe86d7a", "lon": -77.02168016666667, "rental_uris": {"ios": "https://dc.lft.to/lastmile_qr_scan", "android": "https://dc.lft.to/lastmile_qr_scan"}}, {"name": "66a6a1b7b7a6b0435aeb52b473910cb2", "fusion_lat": 0.0, "type": "electric_scooter", "lat": 38.936007333333336, "is_reserved": 0, "is_disabled": 0, "fusion_lon": 0.0, "bike_id": "66a6a1b7b7a6b0435aeb52b473910cb2", "lon": -77.05857166666667, "rental_uris": {"ios": "https://dc.lft.to/lastmile_qr_scan", "android": "https://dc.lft.to/lastmile_qr_scan"}}, {"name": "2d4e53d5df9de432a80d20f77cba536b", "fusion_lat": 0.0, "type": "electric_bike", "lat": 38.990915, "is_reserved": 0, "is_disabled": 0, "fusion_lon": 0.0, "bike_id": "2d4e53d5df9de432a80d20f77cba536b", "lon": -76.874974, "rental_uris": {"ios": "https://dc.lft.to/lastmile_qr_scan", "android": "https://dc.lft.to/lastmile_qr_scan"}}, {"name": "9fd4b295d43e6af2ed8d771c68c86bd3", "fusion_lat": 0.0, "type": "electric_scooter", "lat": 38.92451966666667, "is_reserved": 0, "is_disabled": 0, "fusion_lon": 0.0, "bike_id": "9fd4b295d43e6af2ed8d771c68c86bd3", "lon": -77.03362216666666, "rental_uris": {"ios": "https://dc.lft.to/lastmile_qr_scan", "android": "https://dc.lft.to/lastmile_qr_scan"}}, {"name": "bf2d0297dc1eb6946dc7475934a34a3d", "fusion_lat": 0.0, "type": "electric_scooter", "lat": 38.884115, "is_reserved": 0, "is_disabled": 0, "fusion_lon": 0.0, "bike_id": "bf2d0297dc1eb6946dc7475934a34a3d", "lon": -77.01531383333334, "rental_uris": {"ios": "https://dc.lft.to/lastmile_qr_scan", "android": "https://dc.lft.to/lastmile_qr_scan"}}, {"name": "8e71c61a01a66832d40858cf50035b61", "fusion_lat": 0.0, "type": "electric_scooter", "lat": 38.922540166666664, "is_reserved": 0, "is_disabled": 0, "fusion_lon": 0.0, "bike_id": "8e71c61a01a66832d40858cf50035b61", "lon": -77.04490916666667, "rental_uris": {"ios": "https://dc.lft.to/lastmile_qr_scan", "android": "https://dc.lft.to/lastmile_qr_scan"}}, {"name": "29f337c431cc6bf1a9bcdd1823525f7d", "fusion_lat": 0.0, "type": "electric_scooter", "lat": 38.90028983333333, "is_reserved": 0, "is_disabled": 0, "fusion_lon": 0.0, "bike_id": "29f337c431cc6bf1a9bcdd1823525f7d", "lon": -76.98847083333334, "rental_uris": {"ios": "https://dc.lft.to/lastmile_qr_scan", "android": "https://dc.lft.to/lastmile_qr_scan"}}, {"name": "a50d0cdd1c1e4fb8384f0fdbb9b2f4ea", "fusion_lat": 0.0, "type": "electric_scooter", "lat": 38.87078666666667, "is_reserved": 0, "is_disabled": 0, "fusion_lon": 0.0, "bike_id": "a50d0cdd1c1e4fb8384f0fdbb9b2f4ea", "lon": -76.968582, "rental_uris": {"ios": "https://dc.lft.to/lastmile_qr_scan", "android": "https://dc.lft.to/lastmile_qr_scan"}}, {"name": "62b8b3ac67370fd2e955fed57b382f22", "fusion_lat": 0.0, "type": "electric_scooter", "lat": 38.884345333333336, "is_reserved": 0, "is_disabled": 0, "fusion_lon": 0.0, "bike_id": "62b8b3ac67370fd2e955fed57b382f22", "lon": -76.995924, "rental_uris": {"ios": "https://dc.lft.to/lastmile_qr_scan", "android": "https://dc.lft.to/lastmile_qr_scan"}}, {"name": "9756b6b8f201fcd78c18143fda331e8c", "fusion_lat": 0.0, "type": "electric_scooter", "lat": 38.900404, "is_reserved": 0, "is_disabled": 0, "fusion_lon": 0.0, "bike_id": "9756b6b8f201fcd78c18143fda331e8c", "lon": -76.99829283333334, "rental_uris": {"ios": "https://dc.lft.to/lastmile_qr_scan", "android": "https://dc.lft.to/lastmile_qr_scan"}}, {"name": "c3788d5195f82db4b70a800a2a2f746d", "fusion_lat": 0.0, "type": "electric_scooter", "lat": 38.90650316666667, "is_reserved": 0, "is_disabled": 0, "fusion_lon": 0.0, "bike_id": "c3788d5195f82db4b70a800a2a2f746d", "lon": -77.0141205, "rental_uris": {"ios": "https://dc.lft.to/lastmile_qr_scan", "android": "https://dc.lft.to/lastmile_qr_scan"}}, {"name": "07de1417a7986748fdea71d1b67cbb7f", "fusion_lat": 0.0, "type": "electric_bike", "lat": 39.03046833333333, "is_reserved": 0, "is_disabled": 0, "fusion_lon": 0.0, "bike_id": "07de1417a7986748fdea71d1b67cbb7f", "lon": -77.09485333333333, "rental_uris": {"ios": "https://dc.lft.to/lastmile_qr_scan", "android": "https://dc.lft.to/lastmile_qr_scan"}}, {"name": "14f0fd7ac2c7bc992391914d52a794ba", "fusion_lat": 0.0, "type": "electric_scooter", "lat": 38.896043166666665, "is_reserved": 0, "is_disabled": 0, "fusion_lon": 0.0, "bike_id": "14f0fd7ac2c7bc992391914d52a794ba", "lon": -77.041333, "rental_uris": {"ios": "https://dc.lft.to/lastmile_qr_scan", "android": "https://dc.lft.to/lastmile_qr_scan"}}, {"name": "cb47a32723464da8310324544cdbfa42", "fusion_lat": 0.0, "type": "electric_scooter", "lat": 38.927749166666665, "is_reserved": 0, "is_disabled": 0, "fusion_lon": 0.0, "bike_id": "cb47a32723464da8310324544cdbfa42", "lon": -77.02654016666666, "rental_uris": {"ios": "https://dc.lft.to/lastmile_qr_scan", "android": "https://dc.lft.to/lastmile_qr_scan"}}, {"name": "6af02fb777711dc57e56c817b0d5b815", "fusion_lat": 0.0, "type": "electric_scooter", "lat": 38.920128, "is_reserved": 0, "is_disabled": 0, "fusion_lon": 0.0, "bike_id": "6af02fb777711dc57e56c817b0d5b815", "lon": -77.0397445, "rental_uris": {"ios": "https://dc.lft.to/lastmile_qr_scan", "android": "https://dc.lft.to/lastmile_qr_scan"}}, {"name": "3012c7230241279c26d0edb931c57e45", "fusion_lat": 0.0, "type": "electric_scooter", "lat": 38.8722725, "is_reserved": 0, "is_disabled": 0, "fusion_lon": 0.0, "bike_id": "3012c7230241279c26d0edb931c57e45", "lon": -77.01173116666666, "rental_uris": {"ios": "https://dc.lft.to/lastmile_qr_scan", "android": "https://dc.lft.to/lastmile_qr_scan"}}, {"name": "42facd73440cf3df5211f1aadd703842", "fusion_lat": 0.0, "type": "electric_scooter", "lat": 38.9264255, "is_reserved": 0, "is_disabled": 0, "fusion_lon": 0.0, "bike_id": "42facd73440cf3df5211f1aadd703842", "lon": -77.03698766666666, "rental_uris": {"ios": "https://dc.lft.to/lastmile_qr_scan", "android": "https://dc.lft.to/lastmile_qr_scan"}}, {"name": "03b3e5729f0abb374cb9754c00e481d6", "fusion_lat": 0.0, "type": "electric_scooter", "lat": 38.9025975, "is_reserved": 0, "is_disabled": 0, "fusion_lon": 0.0, "bike_id": "03b3e5729f0abb374cb9754c00e481d6", "lon": -76.99607033333334, "rental_uris": {"ios": "https://dc.lft.to/lastmile_qr_scan", "android": "https://dc.lft.to/lastmile_qr_scan"}}, {"name": "dfc19f17ba101c3e76ab66bd2fc6caa1", "fusion_lat": 0.0, "type": "electric_scooter", "lat": 38.937617, "is_reserved": 0, "is_disabled": 0, "fusion_lon": 0.0, "bike_id": "dfc19f17ba101c3e76ab66bd2fc6caa1", "lon": -77.03283533333334, "rental_uris": {"ios": "https://dc.lft.to/lastmile_qr_scan", "android": "https://dc.lft.to/lastmile_qr_scan"}}, {"name": "a5f1d7c7e2f89fb97a48e1427f019468", "fusion_lat": 0.0, "type": "electric_scooter", "lat": 38.91192483333333, "is_reserved": 0, "is_disabled": 0, "fusion_lon": 0.0, "bike_id": "a5f1d7c7e2f89fb97a48e1427f019468", "lon": -77.0446005, "rental_uris": {"ios": "https://dc.lft.to/lastmile_qr_scan", "android": "https://dc.lft.to/lastmile_qr_scan"}}, {"name": "dc66b0858b9af34bf655f0ffa906e5bb", "fusion_lat": 0.0, "type": "electric_scooter", "lat": 38.88916583333334, "is_reserved": 0, "is_disabled": 0, "fusion_lon": 0.0, "bike_id": "dc66b0858b9af34bf655f0ffa906e5bb", "lon": -76.9537435, "rental_uris": {"ios": "https://dc.lft.to/lastmile_qr_scan", "android": "https://dc.lft.to/lastmile_qr_scan"}}, {"name": "c1c214944163770b3b0d91a05f3241df", "fusion_lat": 0.0, "type": "electric_scooter", "lat": 38.928897666666664, "is_reserved": 0, "is_disabled": 0, "fusion_lon": 0.0, "bike_id": "c1c214944163770b3b0d91a05f3241df", "lon": -77.02309016666666, "rental_uris": {"ios": "https://dc.lft.to/lastmile_qr_scan", "android": "https://dc.lft.to/lastmile_qr_scan"}}, {"name": "d402112295d7fcfacb602ecceded039c", "fusion_lat": 0.0, "type": "electric_scooter", "lat": 38.90566066666667, "is_reserved": 0, "is_disabled": 0, "fusion_lon": 0.0, "bike_id": "d402112295d7fcfacb602ecceded039c", "lon": -77.0275915, "rental_uris": {"ios": "https://dc.lft.to/lastmile_qr_scan", "android": "https://dc.lft.to/lastmile_qr_scan"}}, {"name": "e32dfc0ee9f478828b12e5102e132844", "fusion_lat": 0.0, "type": "electric_scooter", "lat": 38.891945, "is_reserved": 0, "is_disabled": 0, "fusion_lon": 0.0, "bike_id": "e32dfc0ee9f478828b12e5102e132844", "lon": -77.002372, "rental_uris": {"ios": "https://dc.lft.to/lastmile_qr_scan", "android": "https://dc.lft.to/lastmile_qr_scan"}}, {"name": "b3bdc85e4c4df1fc7616d85606c4423d", "fusion_lat": 0.0, "type": "electric_scooter", "lat": 38.90373733333333, "is_reserved": 0, "is_disabled": 0, "fusion_lon": 0.0, "bike_id": "b3bdc85e4c4df1fc7616d85606c4423d", "lon": -77.0450995, "rental_uris": {"ios": "https://dc.lft.to/lastmile_qr_scan", "android": "https://dc.lft.to/lastmile_qr_scan"}}, {"name": "d520ce6d5d4dd00a6900fb1b569bb0f9", "fusion_lat": 0.0, "type": "electric_scooter", "lat": 38.93470083333333, "is_reserved": 0, "is_disabled": 0, "fusion_lon": 0.0, "bike_id": "d520ce6d5d4dd00a6900fb1b569bb0f9", "lon": -77.02844666666667, "rental_uris": {"ios": "https://dc.lft.to/lastmile_qr_scan", "android": "https://dc.lft.to/lastmile_qr_scan"}}, {"name": "63c92d60feb30a1a193a1f0445f1a24e", "fusion_lat": 0.0, "type": "electric_scooter", "lat": 38.91270166666666, "is_reserved": 0, "is_disabled": 0, "fusion_lon": 0.0, "bike_id": "63c92d60feb30a1a193a1f0445f1a24e", "lon": -77.045019, "rental_uris": {"ios": "https://dc.lft.to/lastmile_qr_scan", "android": "https://dc.lft.to/lastmile_qr_scan"}}, {"name": "85662866022ba186dad703484d7268b9", "fusion_lat": 0.0, "type": "electric_scooter", "lat": 38.899788666666666, "is_reserved": 0, "is_disabled": 0, "fusion_lon": 0.0, "bike_id": "85662866022ba186dad703484d7268b9", "lon": -77.05560983333334, "rental_uris": {"ios": "https://dc.lft.to/lastmile_qr_scan", "android": "https://dc.lft.to/lastmile_qr_scan"}}, {"name": "8332bd246cb212fbf7909b91acc947e5", "fusion_lat": 0.0, "type": "electric_scooter", "lat": 38.91201016666667, "is_reserved": 0, "is_disabled": 0, "fusion_lon": 0.0, "bike_id": "8332bd246cb212fbf7909b91acc947e5", "lon": -77.04534583333333, "rental_uris": {"ios": "https://dc.lft.to/lastmile_qr_scan", "android": "https://dc.lft.to/lastmile_qr_scan"}}, {"name": "04cead6c74ab1f66f08aea4db49313b3", "fusion_lat": 0.0, "type": "electric_bike", "lat": 38.970864666666664, "is_reserved": 0, "is_disabled": 0, "fusion_lon": 0.0, "bike_id": "04cead6c74ab1f66f08aea4db49313b3", "lon": -77.06963983333333, "rental_uris": {"ios": "https://dc.lft.to/lastmile_qr_scan", "android": "https://dc.lft.to/lastmile_qr_scan"}}, {"name": "cfb97e1b2fb6901c7cb06f1db1c816e2", "fusion_lat": 0.0, "type": "electric_scooter", "lat": 38.93540816666667, "is_reserved": 0, "is_disabled": 0, "fusion_lon": 0.0, "bike_id": "cfb97e1b2fb6901c7cb06f1db1c816e2", "lon": -77.034109, "rental_uris": {"ios": "https://dc.lft.to/lastmile_qr_scan", "android": "https://dc.lft.to/lastmile_qr_scan"}}, {"name": "ef92f2a7055ab6d273d58be96d50088a", "fusion_lat": 0.0, "type": "electric_scooter", "lat": 38.89523033333333, "is_reserved": 0, "is_disabled": 0, "fusion_lon": 0.0, "bike_id": "ef92f2a7055ab6d273d58be96d50088a", "lon": -77.01075533333334, "rental_uris": {"ios": "https://dc.lft.to/lastmile_qr_scan", "android": "https://dc.lft.to/lastmile_qr_scan"}}, {"name": "21d106a3033467ec305ead6bc7145bcf", "fusion_lat": 0.0, "type": "electric_scooter", "lat": 38.905745333333336, "is_reserved": 0, "is_disabled": 0, "fusion_lon": 0.0, "bike_id": "21d106a3033467ec305ead6bc7145bcf", "lon": -77.0056915, "rental_uris": {"ios": "https://dc.lft.to/lastmile_qr_scan", "android": "https://dc.lft.to/lastmile_qr_scan"}}, {"name": "6a642f1a1dca93cfe786d7fcfcc20214", "fusion_lat": 0.0, "type": "electric_bike", "lat": 38.91001683333333, "is_reserved": 0, "is_disabled": 0, "fusion_lon": 0.0, "bike_id": "6a642f1a1dca93cfe786d7fcfcc20214", "lon": -77.06168416666667, "rental_uris": {"ios": "https://dc.lft.to/lastmile_qr_scan", "android": "https://dc.lft.to/lastmile_qr_scan"}}, {"name": "fbafa5c8e80d8960e75e89cc51f5e3e4", "fusion_lat": 0.0, "type": "electric_scooter", "lat": 38.926244833333335, "is_reserved": 0, "is_disabled": 0, "fusion_lon": 0.0, "bike_id": "fbafa5c8e80d8960e75e89cc51f5e3e4", "lon": -77.037867, "rental_uris": {"ios": "https://dc.lft.to/lastmile_qr_scan", "android": "https://dc.lft.to/lastmile_qr_scan"}}, {"name": "d1c4fecf68f967d84cb002e9cf6eed8f", "fusion_lat": 0.0, "type": "electric_scooter", "lat": 38.90760483333333, "is_reserved": 0, "is_disabled": 0, "fusion_lon": 0.0, "bike_id": "d1c4fecf68f967d84cb002e9cf6eed8f", "lon": -77.05973716666666, "rental_uris": {"ios": "https://dc.lft.to/lastmile_qr_scan", "android": "https://dc.lft.to/lastmile_qr_scan"}}, {"name": "531f0817f18b413ef597c11003d0c60f", "fusion_lat": 0.0, "type": "electric_scooter", "lat": 38.923451166666666, "is_reserved": 0, "is_disabled": 0, "fusion_lon": 0.0, "bike_id": "531f0817f18b413ef597c11003d0c60f", "lon": -77.03398, "rental_uris": {"ios": "https://dc.lft.to/lastmile_qr_scan", "android": "https://dc.lft.to/lastmile_qr_scan"}}, {"name": "8d072946fc39bd83ce713d54ca7124da", "fusion_lat": 0.0, "type": "electric_scooter", "lat": 38.926995, "is_reserved": 0, "is_disabled": 0, "fusion_lon": 0.0, "bike_id": "8d072946fc39bd83ce713d54ca7124da", "lon": -77.0242885, "rental_uris": {"ios": "https://dc.lft.to/lastmile_qr_scan", "android": "https://dc.lft.to/lastmile_qr_scan"}}, {"name": "2606da737b7368a6a6e2d7e82282b338", "fusion_lat": 0.0, "type": "electric_scooter", "lat": 38.91332883333333, "is_reserved": 0, "is_disabled": 0, "fusion_lon": 0.0, "bike_id": "2606da737b7368a6a6e2d7e82282b338", "lon": -77.04862666666666, "rental_uris": {"ios": "https://dc.lft.to/lastmile_qr_scan", "android": "https://dc.lft.to/lastmile_qr_scan"}}, {"name": "410f8127462988892b773a34cea1df5c", "fusion_lat": 0.0, "type": "electric_scooter", "lat": 38.90733066666667, "is_reserved": 0, "is_disabled": 0, "fusion_lon": 0.0, "bike_id": "410f8127462988892b773a34cea1df5c", "lon": -77.0489305, "rental_uris": {"ios": "https://dc.lft.to/lastmile_qr_scan", "android": "https://dc.lft.to/lastmile_qr_scan"}}, {"name": "2a2ac53927b91b6bd044b2c3e2b495e9", "fusion_lat": 0.0, "type": "electric_scooter", "lat": 38.9366025, "is_reserved": 0, "is_disabled": 0, "fusion_lon": 0.0, "bike_id": "2a2ac53927b91b6bd044b2c3e2b495e9", "lon": -77.05499933333333, "rental_uris": {"ios": "https://dc.lft.to/lastmile_qr_scan", "android": "https://dc.lft.to/lastmile_qr_scan"}}, {"name": "e12a38e0b0688d61c3bb488ead83e969", "fusion_lat": 0.0, "type": "electric_bike", "lat": 38.936336833333336, "is_reserved": 0, "is_disabled": 0, "fusion_lon": 0.0, "bike_id": "e12a38e0b0688d61c3bb488ead83e969", "lon": -77.0366075, "rental_uris": {"ios": "https://dc.lft.to/lastmile_qr_scan", "android": "https://dc.lft.to/lastmile_qr_scan"}}, {"name": "274e651f5189633b5e0aa262ff2404cb", "fusion_lat": 0.0, "type": "electric_scooter", "lat": 38.917176, "is_reserved": 0, "is_disabled": 0, "fusion_lon": 0.0, "bike_id": "274e651f5189633b5e0aa262ff2404cb", "lon": -77.04087516666667, "rental_uris": {"ios": "https://dc.lft.to/lastmile_qr_scan", "android": "https://dc.lft.to/lastmile_qr_scan"}}, {"name": "c5fc2cdbedc30e4a02d3e5c8d57bed8d", "fusion_lat": 0.0, "type": "electric_scooter", "lat": 38.933915666666664, "is_reserved": 0, "is_disabled": 0, "fusion_lon": 0.0, "bike_id": "c5fc2cdbedc30e4a02d3e5c8d57bed8d", "lon": -77.03580966666667, "rental_uris": {"ios": "https://dc.lft.to/lastmile_qr_scan", "android": "https://dc.lft.to/lastmile_qr_scan"}}, {"name": "9ffe05e1b7067383c7eb9d98935de5e5", "fusion_lat": 0.0, "type": "electric_bike", "lat": 38.89219883333333, "is_reserved": 0, "is_disabled": 0, "fusion_lon": 0.0, "bike_id": "9ffe05e1b7067383c7eb9d98935de5e5", "lon": -77.10777316666666, "rental_uris": {"ios": "https://dc.lft.to/lastmile_qr_scan", "android": "https://dc.lft.to/lastmile_qr_scan"}}, {"name": "a28eb7a04a5589e5de0ee55ee10702b9", "fusion_lat": 0.0, "type": "electric_scooter", "lat": 38.91178883333333, "is_reserved": 0, "is_disabled": 0, "fusion_lon": 0.0, "bike_id": "a28eb7a04a5589e5de0ee55ee10702b9", "lon": -77.03862983333333, "rental_uris": {"ios": "https://dc.lft.to/lastmile_qr_scan", "android": "https://dc.lft.to/lastmile_qr_scan"}}, {"name": "6fe3c2dc4b248c8424b3cc15cdb06044", "fusion_lat": 0.0, "type": "electric_scooter", "lat": 38.911008333333335, "is_reserved": 0, "is_disabled": 0, "fusion_lon": 0.0, "bike_id": "6fe3c2dc4b248c8424b3cc15cdb06044", "lon": -77.07351216666666, "rental_uris": {"ios": "https://dc.lft.to/lastmile_qr_scan", "android": "https://dc.lft.to/lastmile_qr_scan"}}, {"name": "b312400d43525b77827faa34500e3d9d", "fusion_lat": 0.0, "type": "electric_scooter", "lat": 38.88315016666667, "is_reserved": 0, "is_disabled": 0, "fusion_lon": 0.0, "bike_id": "b312400d43525b77827faa34500e3d9d", "lon": -77.02356266666666, "rental_uris": {"ios": "https://dc.lft.to/lastmile_qr_scan", "android": "https://dc.lft.to/lastmile_qr_scan"}}, {"name": "5092c721c53b0a21a6efc333bcc23c44", "fusion_lat": 0.0, "type": "electric_scooter", "lat": 38.87919216666667, "is_reserved": 0, "is_disabled": 0, "fusion_lon": 0.0, "bike_id": "5092c721c53b0a21a6efc333bcc23c44", "lon": -76.995069, "rental_uris": {"ios": "https://dc.lft.to/lastmile_qr_scan", "android": "https://dc.lft.to/lastmile_qr_scan"}}, {"name": "b7ab3ae1eaef7ea5eae8ab4963d8e975", "fusion_lat": 0.0, "type": "electric_scooter", "lat": 38.952876333333336, "is_reserved": 0, "is_disabled": 0, "fusion_lon": 0.0, "bike_id": "b7ab3ae1eaef7ea5eae8ab4963d8e975", "lon": -77.00360666666667, "rental_uris": {"ios": "https://dc.lft.to/lastmile_qr_scan", "android": "https://dc.lft.to/lastmile_qr_scan"}}, {"name": "953b039ee13943632ac88d530f54dd15", "fusion_lat": 0.0, "type": "electric_scooter", "lat": 38.90579616666667, "is_reserved": 0, "is_disabled": 0, "fusion_lon": 0.0, "bike_id": "953b039ee13943632ac88d530f54dd15", "lon": -77.02605066666666, "rental_uris": {"ios": "https://dc.lft.to/lastmile_qr_scan", "android": "https://dc.lft.to/lastmile_qr_scan"}}, {"name": "42dc64512e3961185edc268a5bb7ee96", "fusion_lat": 0.0, "type": "electric_scooter", "lat": 38.90379383333333, "is_reserved": 0, "is_disabled": 0, "fusion_lon": 0.0, "bike_id": "42dc64512e3961185edc268a5bb7ee96", "lon": -77.04506766666667, "rental_uris": {"ios": "https://dc.lft.to/lastmile_qr_scan", "android": "https://dc.lft.to/lastmile_qr_scan"}}, {"name": "861dd5f898b58f439954c647d5d3b445", "fusion_lat": 0.0, "type": "electric_scooter", "lat": 38.94290483333333, "is_reserved": 0, "is_disabled": 0, "fusion_lon": 0.0, "bike_id": "861dd5f898b58f439954c647d5d3b445", "lon": -77.02172383333334, "rental_uris": {"ios": "https://dc.lft.to/lastmile_qr_scan", "android": "https://dc.lft.to/lastmile_qr_scan"}}, {"name": "9e7527b9eb258d6c5de61a68f02111da", "fusion_lat": 0.0, "type": "electric_scooter", "lat": 38.91288983333333, "is_reserved": 0, "is_disabled": 0, "fusion_lon": 0.0, "bike_id": "9e7527b9eb258d6c5de61a68f02111da", "lon": -77.06159733333334, "rental_uris": {"ios": "https://dc.lft.to/lastmile_qr_scan", "android": "https://dc.lft.to/lastmile_qr_scan"}}, {"name": "9fc390c97d6caa144566e32e0a560b82", "fusion_lat": 0.0, "type": "electric_scooter", "lat": 38.912626833333334, "is_reserved": 0, "is_disabled": 0, "fusion_lon": 0.0, "bike_id": "9fc390c97d6caa144566e32e0a560b82", "lon": -77.03828866666667, "rental_uris": {"ios": "https://dc.lft.to/lastmile_qr_scan", "android": "https://dc.lft.to/lastmile_qr_scan"}}, {"name": "954e2f3f54b2d2609e82e302602fdef2", "fusion_lat": 0.0, "type": "electric_scooter", "lat": 38.91257, "is_reserved": 0, "is_disabled": 0, "fusion_lon": 0.0, "bike_id": "954e2f3f54b2d2609e82e302602fdef2", "lon": -77.03158633333334, "rental_uris": {"ios": "https://dc.lft.to/lastmile_qr_scan", "android": "https://dc.lft.to/lastmile_qr_scan"}}, {"name": "e825bd1e06b07bcd5c95a30c27c7ca42", "fusion_lat": 0.0, "type": "electric_scooter", "lat": 38.93002283333333, "is_reserved": 0, "is_disabled": 0, "fusion_lon": 0.0, "bike_id": "e825bd1e06b07bcd5c95a30c27c7ca42", "lon": -77.05521333333333, "rental_uris": {"ios": "https://dc.lft.to/lastmile_qr_scan", "android": "https://dc.lft.to/lastmile_qr_scan"}}, {"name": "990121676978150cdec88c0152330d1a", "fusion_lat": 0.0, "type": "electric_bike", "lat": 38.9359615, "is_reserved": 0, "is_disabled": 0, "fusion_lon": 0.0, "bike_id": "990121676978150cdec88c0152330d1a", "lon": -77.02119916666666, "rental_uris": {"ios": "https://dc.lft.to/lastmile_qr_scan", "android": "https://dc.lft.to/lastmile_qr_scan"}}, {"name": "016c50743d2743abd3e8f644e186765b", "fusion_lat": 0.0, "type": "electric_scooter", "lat": 38.93386, "is_reserved": 0, "is_disabled": 0, "fusion_lon": 0.0, "bike_id": "016c50743d2743abd3e8f644e186765b", "lon": -77.05767766666666, "rental_uris": {"ios": "https://dc.lft.to/lastmile_qr_scan", "android": "https://dc.lft.to/lastmile_qr_scan"}}, {"name": "36a6087b5d50b5d5df6475c8b9760061", "fusion_lat": 0.0, "type": "electric_scooter", "lat": 38.90859116666667, "is_reserved": 0, "is_disabled": 0, "fusion_lon": 0.0, "bike_id": "36a6087b5d50b5d5df6475c8b9760061", "lon": -77.020444, "rental_uris": {"ios": "https://dc.lft.to/lastmile_qr_scan", "android": "https://dc.lft.to/lastmile_qr_scan"}},