{"data": {"bikes": [{"is_disabled": 0, "is_reserved": 0, "fusion_lat": 0.0, "lat": 38.919602, "fusion_lon": 0.0, "rental_uris": {"ios": "https://dc.lft.to/lastmile_qr_scan", "android": "https://dc.lft.to/lastmile_qr_scan"}, "lon": -77.07871116666666, "bike_id": "ac0ff05f634ac07284eeb4876f041adb", "type": "electric_scooter", "name": "ac0ff05f634ac07284eeb4876f041adb"}, {"is_disabled": 0, "is_reserved": 0, "fusion_lat": 0.0, "lat": 38.9084665, "fusion_lon": 0.0, "rental_uris": {"ios": "https://dc.lft.to/lastmile_qr_scan", "android": "https://dc.lft.to/lastmile_qr_scan"}, "lon": -77.0581375, "bike_id": "cb85fa5703dedc200a85e2c231419fee", "type": "electric_scooter", "name": "cb85fa5703dedc200a85e2c231419fee"}, {"is_disabled": 0, "is_reserved": 0, "fusion_lat": 0.0, "lat": 38.902446, "fusion_lon": 0.0, "rental_uris": {"ios": "https://dc.lft.to/lastmile_qr_scan", "android": "https://dc.lft.to/lastmile_qr_scan"}, "lon": -77.06259966666667, "bike_id": "90e6e77387b6a48115580b1a4985841b", "type": "electric_scooter", "name": "90e6e77387b6a48115580b1a4985841b"}, {"is_disabled": 0, "is_reserved": 0, "fusion_lat": 0.0, "lat": 38.97344016666667, "fusion_lon": 0.0, "rental_uris": {"ios": "https://dc.lft.to/lastmile_qr_scan", "android": "https://dc.lft.to/lastmile_qr_scan"}, "lon": -77.01789416666666, "bike_id": "f59fcc13bb1b2e798d0aa2208777c034", "type": "electric_bike", "name": "f59fcc13bb1b2e798d0aa2208777c034"}, {"is_disabled": 0, "is_reserved": 0, "fusion_lat": 0.0, "lat": 38.92108616666667, "fusion_lon": 0.0, "rental_uris": {"ios": "https://dc.lft.to/lastmile_qr_scan", "android": "https://dc.lft.to/lastmile_qr_scan"}, "lon": -77.0320175, "bike_id": "c99f883160420e07917852d43cd269a8", "type": "electric_scooter", "name": "c99f883160420e07917852d43cd269a8"}, {"is_disabled": 0, "is_reserved": 0, "fusion_lat": 0.0, "lat": 38.92431833333333, "fusion_lon": 0.0, "rental_uris": {"ios": "https://dc.lft.to/lastmile_qr_scan", "android": "https://dc.lft.to/lastmile_qr_scan"}, "lon": -77.0424615, "bike_id": "2c211d4a7a939f95fead35192701b754", "type": "electric_scooter", "name": "2c211d4a7a939f95fead35192701b754"}, {"is_disabled": 0, "is_reserved": 0, "fusion_lat": 0.0, "lat": 38.848594, "fusion_lon": 0.0, "rental_uris": {"ios": "https://dc.lft.to/lastmile_qr_scan", "android": "https://dc.lft.to/lastmile_qr_scan"}, "lon": -77.0682675, "bike_id": "61004ba38d4de974850e77972d1cd99f", "type": "electric_bike", "name": "61004ba38d4de974850e77972d1cd99f"}, {"is_disabled": 0, "is_reserved": 0, "fusion_lat": 0.0, "lat": 38.878799, "fusion_lon": 0.0, "rental_uris": {"ios": "https://dc.lft.to/lastmile_qr_scan", "android": "https://dc.lft.to/lastmile_qr_scan"}, "lon": -77.02309966666667, "bike_id": "855ba458eff56413bc98db9760757375", "type": "electric_scooter", "name": "855ba458eff56413bc98db9760757375"}, {"is_disabled": 0, "is_reserved": 0, "fusion_lat": 0.0, "lat": 38.87913783333333, "fusion_lon": 0.0, "rental_uris": {"ios": "https://dc.lft.to/lastmile_qr_scan", "android": "https://dc.lft.to/lastmile_qr_scan"}, "lon": -77.00771, "bike_id": "907752dac7c50557c84915efeacdf963", "type": "electric_scooter", "name": "907752dac7c50557c84915efeacdf963"}, {"is_disabled": 0, "is_reserved": 0, "fusion_lat": 0.0, "lat": 38.90975483333333, "fusion_lon": 0.0, "rental_uris": {"ios": "https://dc.lft.to/lastmile_qr_scan", "android": "https://dc.lft.to/lastmile_qr_scan"}, "lon": -77.03406483333333, "bike_id": "e81502b7b11ba055753b3863ed6774ac", "type": "electric_scooter", "name": "e81502b7b11ba055753b3863ed6774ac"}, {"is_disabled": 0, "is_reserved": 0, "fusion_lat": 0.0, "lat": 38.89747033333333, "fusion_lon": 0.0, "rental_uris": {"ios": "https://dc.lft.to/lastmile_qr_scan", "android": "https://dc.lft.to/lastmile_qr_scan"}, "lon": -77.04629566666667, "bike_id": "f4ddc3824c14fdf1c533d7c65518d2ef", "type": "electric_scooter", "name": "f4ddc3824c14fdf1c533d7c65518d2ef"}, {"is_disabled": 0, "is_reserved": 0, "fusion_lat": 0.0, "lat": 38.8786365, "fusion_lon": 0.0, "rental_uris": {"ios": "https://dc.lft.to/lastmile_qr_scan", "android": "https://dc.lft.to/lastmile_qr_scan"}, "lon": -77.00769, "bike_id": "864fdc6c2be482a8601cf670002f87b9", "type": "electric_scooter", "name": "864fdc6c2be482a8601cf670002f87b9"}, {"is_disabled": 0, "is_reserved": 0, "fusion_lat": 0.0, "lat": 38.89406233333333, "fusion_lon": 0.0, "rental_uris": {"ios": "https://dc.lft.to/lastmile_qr_scan", "android": "https://dc.lft.to/lastmile_qr_scan"}, "lon": -77.0217255, "bike_id": "56e7ec1c87779390c2aff0d4bf613e6e", "type": "electric_scooter", "name": "56e7ec1c87779390c2aff0d4bf613e6e"}, {"is_disabled": 0, "is_reserved": 0, "fusion_lat": 0.0, "lat": 38.9114315, "fusion_lon": 0.0, "rental_uris": {"ios": "https://dc.lft.to/lastmile_qr_scan", "android": "https://dc.lft.to/lastmile_qr_scan"}, "lon": -76.99748783333334, "bike_id": "41a64b2f11c0263464e4f4a9823114cc", "type": "electric_scooter", "name": "41a64b2f11c0263464e4f4a9823114cc"}, {"is_disabled": 0, "is_reserved": 0, "fusion_lat": 0.0, "lat": 38.905060666666664, "fusion_lon": 0.0, "rental_uris": {"ios": "https://dc.lft.to/lastmile_qr_scan", "android": "https://dc.lft.to/lastmile_qr_scan"}, "lon": -77.0611215, "bike_id": "b939d4a4140fc9d5bc7083c7d8e94381", "type": "electric_scooter", "name": "b939d4a4140fc9d5bc7083c7d8e94381"}, {"is_disabled": 0, "is_reserved": 0, "fusion_lat": 0.0, "lat": 38.96781683333333, "fusion_lon": 0.0, "rental_uris": {"ios": "https://dc.lft.to/lastmile_qr_scan", "android": "https://dc.lft.to/lastmile_qr_scan"}, "lon": -76.9964415, "bike_id": "9376240d7f7e85238bd39afedf5a4fb6", "type": "electric_bike", "name": "9376240d7f7e85238bd39afedf5a4fb6"}, {"is_disabled": 0, "is_reserved": 0, "fusion_lat": 0.0, "lat": 38.91072833333333, "fusion_lon": 0.0, "rental_uris": {"ios": "https://dc.lft.to/lastmile_qr_scan", "android": "https://dc.lft.to/lastmile_qr_scan"}, "lon": -77.02191983333333, "bike_id": "30939daa413168087df90fd308d9bcaf", "type": "electric_scooter", "name": "30939daa413168087df90fd308d9bcaf"}, {"is_disabled": 0, "is_reserved": 0, "fusion_lat": 0.0, "lat": 38.964476166666664, "fusion_lon": 0.0, "rental_uris": {"ios": "https://dc.lft.to/lastmile_qr_scan", "android": "https://dc.lft.to/lastmile_qr_scan"}, "lon": -77.0742455, "bike_id": "6a1a2dd6afd919fbaefc1c49991f8d2f", "type": "electric_scooter", "name": "6a1a2dd6afd919fbaefc1c49991f8d2f"}, {"is_disabled": 0, "is_reserved": 0, "fusion_lat": 0.0, "lat": 38.890633, "fusion_lon": 0.0, "rental_uris": {"ios": "https://dc.lft.to/lastmile_qr_scan", "android": "https://dc.lft.to/lastmile_qr_scan"}, "lon": -77.0470685, "bike_id": "868c9192a8f43174dcccda7271df7e7b", "type": "electric_scooter", "name": "868c9192a8f43174dcccda7271df7e7b"}, {"is_disabled": 0, "is_reserved": 0, "fusion_lat": 0.0, "lat": 38.892278833333336, "fusion_lon": 0.0, "rental_uris": {"ios": "https://dc.lft.to/lastmile_qr_scan", "android": "https://dc.lft.to/lastmile_qr_scan"}, "lon": -77.03320366666667, "bike_id": "306bde0bcc6973f022a19b6ca1f73124", "type": "electric_bike", "name": "306bde0bcc6973f022a19b6ca1f73124"}, {"is_disabled": 0, "is_reserved": 0, "fusion_lat": 0.0, "lat": 38.857175833333336, "fusion_lon": 0.0, "rental_uris": {"ios": "https://dc.lft.to/lastmile_qr_scan", "android": "https://dc.lft.to/lastmile_qr_scan"}, "lon": -76.98099766666667, "bike_id": "911269c994db46f225624dcd09a5bb36", "type": "electric_scooter", "name": "911269c994db46f225624dcd09a5bb36"}, {"is_disabled": 0, "is_reserved": 0, "fusion_lat": 0.0, "lat": 38.89872316666667, "fusion_lon": 0.0, "rental_uris": {"ios": "https://dc.lft.to/lastmile_qr_scan", "android": "https://dc.lft.to/lastmile_qr_scan"}, "lon": -76.93139266666667, "bike_id": "17201ac90076f8f4b311c2495b10a673", "type": "electric_scooter", "name": "17201ac90076f8f4b311c2495b10a673"}, {"is_disabled": 0, "is_reserved": 0, "fusion_lat": 0.0, "lat": 38.8961385, "fusion_lon": 0.0, "rental_uris": {"ios": "https://dc.lft.to/lastmile_qr_scan", "android": "https://dc.lft.to/lastmile_qr_scan"}, "lon": -77.00336216666666, "bike_id": "1c5782f07e6dfece2e81182cd72567d9", "type": "electric_scooter", "name": "1c5782f07e6dfece2e81182cd72567d9"}, {"is_disabled": 0, "is_reserved": 0, "fusion_lat": 0.0, "lat": 38.83409533333333, "fusion_lon": 0.0, "rental_uris": {"ios": "https://dc.lft.to/lastmile_qr_scan", "android": "https://dc.lft.to/lastmile_qr_scan"}, "lon": -77.05001416666667, "bike_id": "0f55f8c042d3fea96c1560778a777a82", "type": "electric_bike", "name": "0f55f8c042d3fea96c1560778a777a82"}, {"is_disabled": 0, "is_reserved": 0, "fusion_lat": 0.0, "lat": 38.881935666666664, "fusion_lon": 0.0, "rental_uris": {"ios": "https://dc.lft.to/lastmile_qr_scan", "android": "https://dc.lft.to/lastmile_qr_scan"}, "lon": -76.9890265, "bike_id": "6ccbbcf44f75aee5c876365d4edc473b", "type": "electric_scooter", "name": "6ccbbcf44f75aee5c876365d4edc473b"}, {"is_disabled": 0, "is_reserved": 0, "fusion_lat": 0.0, "lat": 38.94924966666667, "fusion_lon": 0.0, "rental_uris": {"ios": "https://dc.lft.to/lastmile_qr_scan", "android": "https://dc.lft.to/lastmile_qr_scan"}, "lon": -77.023185, "bike_id": "137b5e6c6c37576f1b9a03247671d5df", "type": "electric_scooter", "name": "137b5e6c6c37576f1b9a03247671d5df"}, {"is_disabled": 0, "is_reserved": 0, "fusion_lat": 0.0, "lat": 38.930658, "fusion_lon": 0.0, "rental_uris": {"ios": "https://dc.lft.to/lastmile_qr_scan", "android": "https://dc.lft.to/lastmile_qr_scan"}, "lon": -77.023386, "bike_id": "378ade5262046bc1220346b2f4486483", "type": "electric_scooter", "name": "378ade5262046bc1220346b2f4486483"}, {"is_disabled": 0, "is_reserved": 0, "fusion_lat": 0.0, "lat": 38.92094566666667, "fusion_lon": 0.0, "rental_uris": {"ios": "https://dc.lft.to/lastmile_qr_scan", "android": "https://dc.lft.to/lastmile_qr_scan"}, "lon": -77.01767483333333, "bike_id": "ab28329068902d9d2c829db042763c29", "type": "electric_scooter", "name": "ab28329068902d9d2c829db042763c29"}, {"is_disabled": 0, "is_reserved": 0, "fusion_lat": 0.0, "lat": 38.871047833333336, "fusion_lon": 0.0, "rental_uris": {"ios": "https://dc.lft.to/lastmile_qr_scan", "android": "https://dc.lft.to/lastmile_qr_scan"}, "lon": -77.012095, "bike_id": "3c8261fa4eb80e40219110843dc08d3d", "type": "electric_scooter", "name": "3c8261fa4eb80e40219110843dc08d3d"}, {"is_disabled": 0, "is_reserved": 0, "fusion_lat": 0.0, "lat": 38.884775833333336, "fusion_lon": 0.0, "rental_uris": {"ios": "https://dc.lft.to/lastmile_qr_scan", "android": "https://dc.lft.to/lastmile_qr_scan"}, "lon": -77.02365166666667, "bike_id": "ff52d2db2dcf13cb5a84d03525a26200", "type": "electric_scooter", "name": "ff52d2db2dcf13cb5a84d03525a26200"}, {"is_disabled": 0, "is_reserved": 0, "fusion_lat": 0.0, "lat": 38.94854683333333, "fusion_lon": 0.0, "rental_uris": {"ios": "https://dc.lft.to/lastmile_qr_scan", "android": "https://dc.lft.to/lastmile_qr_scan"}, "lon": -77.02110616666667, "bike_id": "a800f9437f755915211e322b0ce2ba01", "type": "electric_scooter", "name": "a800f9437f755915211e322b0ce2ba01"}, {"is_disabled": 0, "is_reserved": 0, "fusion_lat": 0.0, "lat": 38.915579, "fusion_lon": 0.0, "rental_uris": {"ios": "https://dc.lft.to/lastmile_qr_scan", "android": "https://dc.lft.to/lastmile_qr_scan"}, "lon": -77.02329983333334, "bike_id": "139aaabb8396e9582663411cf1f9cb58", "type": "electric_scooter", "name": "139aaabb8396e9582663411cf1f9cb58"}, {"is_disabled": 0, "is_reserved": 0, "fusion_lat": 0.0, "lat": 38.9039155, "fusion_lon": 0.0, "rental_uris": {"ios": "https://dc.lft.to/lastmile_qr_scan", "android": "https://dc.lft.to/lastmile_qr_scan"}, "lon": -77.01849016666667, "bike_id": "5b092d6317ef824277980492631f6254", "type": "electric_scooter", "name": "5b092d6317ef824277980492631f6254"}, {"is_disabled": 0, "is_reserved": 0, "fusion_lat": 0.0, "lat": 38.93063466666667, "fusion_lon": 0.0, "rental_uris": {"ios": "https://dc.lft.to/lastmile_qr_scan", "android": "https://dc.lft.to/lastmile_qr_scan"}, "lon": -77.03183783333333, "bike_id": "3a960bd317629b380639a113a5bd4e68", "type": "electric_scooter", "name": "3a960bd317629b380639a113a5bd4e68"}, {"is_disabled": 0, "is_reserved": 0, "fusion_lat": 0.0, "lat": 38.804848166666666, "fusion_lon": 0.0, "rental_uris": {"ios": "https://dc.lft.to/lastmile_qr_scan", "android": "https://dc.lft.to/lastmile_qr_scan"}, "lon": -76.99104233333334, "bike_id": "2a5732b48836a022fd9b8735ab7da294", "type": "electric_bike", "name": "2a5732b48836a022fd9b8735ab7da294"}, {"is_disabled": 0, "is_reserved": 0, "fusion_lat": 0.0, "lat": 38.932144, "fusion_lon": 0.0, "rental_uris": {"ios": "https://dc.lft.to/lastmile_qr_scan", "android": "https://dc.lft.to/lastmile_qr_scan"}, "lon": -77.02281983333333, "bike_id": "11e3bcd1a2b44fa8513eb630ac3ca2b2", "type": "electric_scooter", "name": "11e3bcd1a2b44fa8513eb630ac3ca2b2"}, {"is_disabled": 0, "is_reserved": 0, "fusion_lat": 0.0, "lat": 38.902360333333334, "fusion_lon": 0.0, "rental_uris": {"ios": "https://dc.lft.to/lastmile_qr_scan", "android": "https://dc.lft.to/lastmile_qr_scan"}, "lon": -77.060658, "bike_id": "52ee5cb0f618b7259cf00b0b6559b516", "type": "electric_scooter", "name": "52ee5cb0f618b7259cf00b0b6559b516"}, {"is_disabled": 0, "is_reserved": 0, "fusion_lat": 0.0, "lat": 39.00098766666667, "fusion_lon": 0.0, "rental_uris": {"ios": "https://dc.lft.to/lastmile_qr_scan", "android": "https://dc.lft.to/lastmile_qr_scan"}, "lon": -76.90983766666666, "bike_id": "e94c85f8c454526d4c257788890d2daa", "type": "electric_bike", "name": "e94c85f8c454526d4c257788890d2daa"}, {"is_disabled": 0, "is_reserved": 0, "fusion_lat": 0.0, "lat": 38.922685666666666, "fusion_lon": 0.0, "rental_uris": {"ios": "https://dc.lft.to/lastmile_qr_scan", "android": "https://dc.lft.to/lastmile_qr_scan"}, "lon": -77.03636433333334, "bike_id": "aba5369efb1f4d6f854a10d138be5492", "type": "electric_scooter", "name": "aba5369efb1f4d6f854a10d138be5492"}, {"is_disabled": 0, "is_reserved": 0, "fusion_lat": 0.0, "lat": 38.920106, "fusion_lon": 0.0, "rental_uris": {"ios": "https://dc.lft.to/lastmile_qr_scan", "android": "https://dc.lft.to/lastmile_qr_scan"}, "lon": -77.03154066666667, "bike_id": "10214e3da073d3ce712145f97c706ca8", "type": "electric_scooter", "name": "10214e3da073d3ce712145f97c706ca8"}, {"is_disabled": 0, "is_reserved": 0, "fusion_lat": 0.0, "lat": 38.829270333333334, "fusion_lon": 0.0, "rental_uris": {"ios": "https://dc.lft.to/lastmile_qr_scan", "android": "https://dc.lft.to/lastmile_qr_scan"}, "lon": -77.06875766666667, "bike_id": "67432d781e044e8a66c806648bdf6207", "type": "electric_bike", "name": "67432d781e044e8a66c806648bdf6207"}, {"is_disabled": 0, "is_reserved": 0, "fusion_lat": 0.0, "lat": 38.8991485, "fusion_lon": 0.0, "rental_uris": {"ios": "https://dc.lft.to/lastmile_qr_scan", "android": "https://dc.lft.to/lastmile_qr_scan"}, "lon": -76.93387483333333, "bike_id": "56a92aec2b5fac4b94739a745ee5cafb", "type": "electric_scooter", "name": "56a92aec2b5fac4b94739a745ee5cafb"}, {"is_disabled": 0, "is_reserved": 0, "fusion_lat": 0.0, "lat": 38.899254666666664, "fusion_lon": 0.0, "rental_uris": {"ios": "https://dc.lft.to/lastmile_qr_scan", "android": "https://dc.lft.to/lastmile_qr_scan"}, "lon": -77.03979133333333, "bike_id": "c7306e012bdd3306b5b973e7c05dbcce", "type": "electric_scooter", "name": "c7306e012bdd3306b5b973e7c05dbcce"}, {"is_disabled": 0, "is_reserved": 0, "fusion_lat": 0.0, "lat": 38.912660333333335, "fusion_lon": 0.0, "rental_uris": {"ios": "https://dc.lft.to/lastmile_qr_scan", "android": "https://dc.lft.to/lastmile_qr_scan"}, "lon": -77.0160475, "bike_id": "70fa12924ba3d3ea844661be626d1d30", "type": "electric_scooter", "name": "70fa12924ba3d3ea844661be626d1d30"}, {"is_disabled": 0, "is_reserved": 0, "fusion_lat": 0.0, "lat": 38.88037083333333, "fusion_lon": 0.0, "rental_uris": {"ios": "https://dc.lft.to/lastmile_qr_scan", "android": "https://dc.lft.to/lastmile_qr_scan"}, "lon": -76.9272275, "bike_id": "5580f092ab6c660f1e5139ca66938bbf", "type": "electric_scooter", "name": "5580f092ab6c660f1e5139ca66938bbf"}, {"is_disabled": 0, "is_reserved": 0, "fusion_lat": 0.0, "lat": 38.902896, "fusion_lon": 0.0, "rental_uris": {"ios": "https://dc.lft.to/lastmile_qr_scan", "android": "https://dc.lft.to/lastmile_qr_scan"}, "lon": -77.02419566666667, "bike_id": "02b87789a1ae5cd8ebefa27981fa7ec2", "type": "electric_scooter", "name": "02b87789a1ae5cd8ebefa27981fa7ec2"}, {"is_disabled": 0, "is_reserved": 0, "fusion_lat": 0.0, "lat": 38.916726833333335, "fusion_lon": 0.0, "rental_uris": {"ios": "https://dc.lft.to/lastmile_qr_scan", "android": "https://dc.lft.to/lastmile_qr_scan"}, "lon": -77.03180933333333, "bike_id": "078b5dfb8ab2a683d44f8075117adab7", "type": "electric_scooter", "name": "078b5dfb8ab2a683d44f8075117adab7"}, {"is_disabled": 0, "is_reserved": 0, "fusion_lat": 0.0, "lat": 38.922586, "fusion_lon": 0.0, "rental_uris": {"ios": "https://dc.lft.to/lastmile_qr_scan", "android": "https://dc.lft.to/lastmile_qr_scan"}, "lon": -77.07274416666667, "bike_id": "8cc9fa148632f006ebbc01d6832fc045", "type": "electric_scooter", "name": "8cc9fa148632f006ebbc01d6832fc045"}, {"is_disabled": 0, "is_reserved": 0, "fusion_lat": 0.0, "lat": 38.927608, "fusion_lon": 0.0, "rental_uris": {"ios": "https://dc.lft.to/lastmile_qr_scan", "android": "https://dc.lft.to/lastmile_qr_scan"}, "lon": -77.02947466666667, "bike_id": "24d997003ca20d35c7b37343c6bc0168", "type": "electric_scooter", "name": "24d997003ca20d35c7b37343c6bc0168"}, {"is_disabled": 0, "is_reserved": 0, "fusion_lat": 0.0, "lat": 38.8974695, "fusion_lon": 0.0, "rental_uris": {"ios": "https://dc.lft.to/lastmile_qr_scan", "android": "https://dc.lft.to/lastmile_qr_scan"}, "lon": -77.0216385, "bike_id": "8c85ecdfe1eb965e31aebeffb4986b2b", "type": "electric_scooter", "name": "8c85ecdfe1eb965e31aebeffb4986b2b"}, {"is_disabled": 0, "is_reserved": 0, "fusion_lat": 0.0, "lat": 38.89612183333333, "fusion_lon": 0.0, "rental_uris": {"ios": "https://dc.lft.to/lastmile_qr_scan", "android": "https://dc.lft.to/lastmile_qr_scan"}, "lon": -77.003354, "bike_id": "725186882154cce1ae84bd05a2f4415b", "type": "electric_scooter", "name": "725186882154cce1ae84bd05a2f4415b"}, {"is_disabled": 0, "is_reserved": 0, "fusion_lat": 0.0, "lat": 38.92869683333333, "fusion_lon": 0.0, "rental_uris": {"ios": "https://dc.lft.to/lastmile_qr_scan", "android": "https://dc.lft.to/lastmile_qr_scan"}, "lon": -77.05653316666667, "bike_id": "858e834d7fc3e7fd92557dc0b008727b", "type": "electric_scooter", "name": "858e834d7fc3e7fd92557dc0b008727b"}, {"is_disabled": 0, "is_reserved": 0, "fusion_lat": 0.0, "lat": 38.91279883333333, "fusion_lon": 0.0, "rental_uris": {"ios": "https://dc.lft.to/lastmile_qr_scan", "android": "https://dc.lft.to/lastmile_qr_scan"}, "lon": -77.04663816666667, "bike_id": "f08c95b5c19677663b5198317994788f", "type": "electric_scooter", "name": "f08c95b5c19677663b5198317994788f"}, {"is_disabled": 0, "is_reserved": 0, "fusion_lat": 0.0, "lat": 38.95071383333333, "fusion_lon": 0.0, "rental_uris": {"ios": "https://dc.lft.to/lastmile_qr_scan", "android": "https://dc.lft.to/lastmile_qr_scan"}, "lon": -76.99598483333334, "bike_id": "018559276ad83fd6118f1e335c7711c1", "type": "electric_bike", "name": "018559276ad83fd6118f1e335c7711c1"}, {"is_disabled": 0, "is_reserved": 0, "fusion_lat": 0.0, "lat": 38.908948333333335, "fusion_lon": 0.0, "rental_uris": {"ios": "https://dc.lft.to/lastmile_qr_scan", "android": "https://dc.lft.to/lastmile_qr_scan"}, "lon": -77.04672666666667, "bike_id": "b435f343e7376c1f1cd9475972ee15c5", "type": "electric_scooter", "name": "b435f343e7376c1f1cd9475972ee15c5"}, {"is_disabled": 0, "is_reserved": 0, "fusion_lat": 0.0, "lat": 38.9985315, "fusion_lon": 0.0, "rental_uris": {"ios": "https://dc.lft.to/lastmile_qr_scan", "android": "https://dc.lft.to/lastmile_qr_scan"}, "lon": -77.0024875, "bike_id": "acac8f0ce456c4f1afa99332c491a35d", "type": "electric_bike", "name": "acac8f0ce456c4f1afa99332c491a35d"}, {"is_disabled": 0, "is_reserved": 0, "fusion_lat": 0.0, "lat": 38.875704666666664, "fusion_lon": 0.0, "rental_uris": {"ios": "https://dc.lft.to/lastmile_qr_scan", "android": "https://dc.lft.to/lastmile_qr_scan"}, "lon": -77.04704616666666, "bike_id": "168d576f36a6cae3fb75e53c544af6ce", "type": "electric_bike", "name": "168d576f36a6cae3fb75e53c544af6ce"}, {"is_disabled": 0, "is_reserved": 0, "fusion_lat": 0.0, "lat": 38.892269, "fusion_lon": 0.0, "rental_uris": {"ios": "https://dc.lft.to/lastmile_qr_scan", "android": "https://dc.lft.to/lastmile_qr_scan"}, "lon": -77.04332333333333, "bike_id": "11de05202d74dd489ec1c09d04799b3a", "type": "electric_scooter", "name": "11de05202d74dd489ec1c09d04799b3a"}, {"is_disabled": 0, "is_reserved": 0, "fusion_lat": 0.0, "lat": 38.9075995, "fusion_lon": 0.0, "rental_uris": {"ios": "https://dc.lft.to/lastmile_qr_scan", "android": "https://dc.lft.to/lastmile_qr_scan"}, "lon": -77.00036283333333, "bike_id": "ac711b4392b5926fc385aa91e4f93406", "type": "electric_scooter", "name": "ac711b4392b5926fc385aa91e4f93406"}, {"is_disabled": 0, "is_reserved": 0, "fusion_lat": 0.0, "lat": 38.894737, "fusion_lon": 0.0, "rental_uris": {"ios": "https://dc.lft.to/lastmile_qr_scan", "android": "https://dc.lft.to/lastmile_qr_scan"}, "lon": -77.0025975, "bike_id": "d9ed5504f047c534cee35cf70d1ed1f4", "type": "electric_scooter", "name": "d9ed5504f047c534cee35cf70d1ed1f4"}, {"is_disabled": 0, "is_reserved": 0, "fusion_lat": 0.0, "lat": 38.92481633333333, "fusion_lon": 0.0, "rental_uris": {"ios": "https://dc.lft.to/lastmile_qr_scan", "android": "https://dc.lft.to/lastmile_qr_scan"}, "lon": -77.02833683333333, "bike_id": "fcedb2c03184bf0a6a126522f46aee15", "type": "electric_scooter", "name": "fcedb2c03184bf0a6a126522f46aee15"}, {"is_disabled": 0, "is_reserved": 0, "fusion_lat": 0.0, "lat": 38.930648, "fusion_lon": 0.0, "rental_uris": {"ios": "https://dc.lft.to/lastmile_qr_scan", "android": "https://dc.lft.to/lastmile_qr_scan"}, "lon": -77.0421655, "bike_id": "ac7db756efa6e0310e829689fcf43671", "type": "electric_scooter", "name": "ac7db756efa6e0310e829689fcf43671"}, {"is_disabled": 0, "is_reserved": 0, "fusion_lat": 0.0, "lat": 38.91923516666667, "fusion_lon": 0.0, "rental_uris": {"ios": "https://dc.lft.to/lastmile_qr_scan", "android": "https://dc.lft.to/lastmile_qr_scan"}, "lon": -77.009729, "bike_id": "dee18fff9a6f41ac4b0573576bb665ab", "type": "electric_scooter", "name": "dee18fff9a6f41ac4b0573576bb665ab"}, {"is_disabled": 0, "is_reserved": 0, "fusion_lat": 0.0, "lat": 38.89744816666666, "fusion_lon": 0.0, "rental_uris": {"ios": "https://dc.lft.to/lastmile_qr_scan", "android": "https://dc.lft.to/lastmile_qr_scan"}, "lon": -77.04811783333334, "bike_id": "c07357f65a4f7fa22f7b14595eec6673", "type": "electric_scooter", "name": "c07357f65a4f7fa22f7b14595eec6673"}, {"is_disabled": 0, "is_reserved": 0, "fusion_lat": 0.0, "lat": 38.93245366666667, "fusion_lon": 0.0, "rental_uris": {"ios": "https://dc.lft.to/lastmile_qr_scan", "android": "https://dc.lft.to/lastmile_qr_scan"}, "lon": -77.03410666666667, "bike_id": "7281b133571b821cd3e1f176855ab465", "type": "electric_scooter", "name": "7281b133571b821cd3e1f176855ab465"}, {"is_disabled": 0, "is_reserved": 0, "fusion_lat": 0.0, "lat": 38.951100333333336, "fusion_lon": 0.0, "rental_uris": {"ios": "https://dc.lft.to/lastmile_qr_scan", "android": "https://dc.lft.to/lastmile_qr_scan"}, "lon": -77.01910383333333, "bike_id": "d493602c7789b0fac910144c86d34547", "type": "electric_scooter", "name": "d493602c7789b0fac910144c86d34547"}, {"is_disabled": 0, "is_reserved": 0, "fusion_lat": 0.0, "lat": 38.90542283333333, "fusion_lon": 0.0, "rental_uris": {"ios": "https://dc.lft.to/lastmile_qr_scan", "android": "https://dc.lft.to/lastmile_qr_scan"}, "lon": -77.05698066666666, "bike_id": "fe8606d4fc72e4b6d5553646f01fcabc", "type": "electric_scooter", "name": "fe8606d4fc72e4b6d5553646f01fcabc"}, {"is_disabled": 0, "is_reserved": 0, "fusion_lat": 0.0, "lat": 38.91341883333333, "fusion_lon": 0.0, "rental_uris": {"ios": "https://dc.lft.to/lastmile_qr_scan", "android": "https://dc.lft.to/lastmile_qr_scan"}, "lon": -77.04407383333333, "bike_id": "d2dcabe11ebe151f07f11454043dff52", "type": "electric_scooter", "name": "d2dcabe11ebe151f07f11454043dff52"}, {"is_disabled": 0, "is_reserved": 0, "fusion_lat": 0.0, "lat": 38.923817166666666, "fusion_lon": 0.0, "rental_uris": {"ios": "https://dc.lft.to/lastmile_qr_scan", "android": "https://dc.lft.to/lastmile_qr_scan"}, "lon": -77.02028516666667, "bike_id": "53c03d2c0e9071f4a8dd16be210dbac1", "type": "electric_scooter", "name": "53c03d2c0e9071f4a8dd16be210dbac1"}, {"is_disabled": 0, "is_reserved": 0, "fusion_lat": 0.0, "lat": 38.9086005, "fusion_lon": 0.0, "rental_uris": {"ios": "https://dc.lft.to/lastmile_qr_scan", "android": "https://dc.lft.to/lastmile_qr_scan"}, "lon": -77.06400383333333, "bike_id": "342ef34f748e12e7233a8c5755b75065", "type": "electric_scooter", "name": "342ef34f748e12e7233a8c5755b75065"}, {"is_disabled": 0, "is_reserved": 0, "fusion_lat": 0.0, "lat": 38.94037816666667, "fusion_lon": 0.0, "rental_uris": {"ios": "https://dc.lft.to/lastmile_qr_scan", "android": "https://dc.lft.to/lastmile_qr_scan"}, "lon": -77.025241, "bike_id": "decdcf869dfd7e5f33a5eb419fd2b049", "type": "electric_scooter", "name": "decdcf869dfd7e5f33a5eb419fd2b049"}, {"is_disabled": 0, "is_reserved": 0, "fusion_lat": 0.0, "lat": 38.9297275, "fusion_lon": 0.0, "rental_uris": {"ios": "https://dc.lft.to/lastmile_qr_scan", "android": "https://dc.lft.to/lastmile_qr_scan"}, "lon": -77.0308245, "bike_id": "bb7a5f548f586925097368e862802928", "type": "electric_scooter", "name": "bb7a5f548f586925097368e862802928"}, {"is_disabled": 0, "is_reserved": 0, "fusion_lat": 0.0, "lat": 38.8995815, "fusion_lon": 0.0, "rental_uris": {"ios": "https://dc.lft.to/lastmile_qr_scan", "android": "https://dc.lft.to/lastmile_qr_scan"}, "lon": -77.050536, "bike_id": "78506a6c70de15a58fb090fe4bf20561", "type": "electric_scooter", "name": "78506a6c70de15a58fb090fe4bf20561"}, {"is_disabled": 0, "is_reserved": 0, "fusion_lat": 0.0, "lat": 38.9026725, "fusion_lon": 0.0, "rental_uris": {"ios": "https://dc.lft.to/lastmile_qr_scan", "android": "https://dc.lft.to/lastmile_qr_scan"}, "lon": -77.0021415, "bike_id": "88f942671e239e922bb25a7f8c5a0579", "type": "electric_scooter", "name": "88f942671e239e922bb25a7f8c5a0579"}, {"is_disabled": 0, "is_reserved": 0, "fusion_lat": 0.0, "lat": 38.897446333333335, "fusion_lon": 0.0, "rental_uris": {"ios": "https://dc.lft.to/lastmile_qr_scan", "android": "https://dc.lft.to/lastmile_qr_scan"}, "lon": -77.02596583333333, "bike_id": "293f4d789c9a933790a7c312fca9910a", "type": "electric_scooter", "name": "293f4d789c9a933790a7c312fca9910a"}, {"is_disabled": 0, "is_reserved": 0, "fusion_lat": 0.0, "lat": 38.87605883333333, "fusion_lon": 0.0, "rental_uris": {"ios": "https://dc.lft.to/lastmile_qr_scan", "android": "https://dc.lft.to/lastmile_qr_scan"}, "lon": -77.00835333333333, "bike_id": "a1385c69c6f64940e975e2765e1d4f19", "type": "electric_scooter", "name": "a1385c69c6f64940e975e2765e1d4f19"}, {"is_disabled": 0, "is_reserved": 0, "fusion_lat": 0.0, "lat": 38.91272, "fusion_lon": 0.0, "rental_uris": {"ios": "https://dc.lft.to/lastmile_qr_scan", "android": "https://dc.lft.to/lastmile_qr_scan"}, "lon": -77.04169583333334, "bike_id": "1ef1025277fdca23de4dfb4a746b7012", "type": "electric_scooter", "name": "1ef1025277fdca23de4dfb4a746b7012"}, {"is_disabled": 0, "is_reserved": 0, "fusion_lat": 0.0, "lat": 38.93883966666667, "fusion_lon": 0.0, "rental_uris": {"ios": "https://dc.lft.to/lastmile_qr_scan", "android": "https://dc.lft.to/lastmile_qr_scan"}, "lon": -77.03282883333334, "bike_id": "72416da89f61471631cfc951ffb3d2bf", "type": "electric_scooter", "name": "72416da89f61471631cfc951ffb3d2bf"}, {"is_disabled": 0, "is_reserved": 0, "fusion_lat": 0.0, "lat": 38.95152433333333, "fusion_lon": 0.0, "rental_uris": {"ios": "https://dc.lft.to/lastmile_qr_scan", "android": "https://dc.lft.to/lastmile_qr_scan"}, "lon": -77.01862833333334, "bike_id": "b070c7b18bb086e1b48e87313f52dea2", "type": "electric_scooter", "name": "b070c7b18bb086e1b48e87313f52dea2"}, {"is_disabled": 0, "is_reserved": 0, "fusion_lat": 0.0, "lat": 38.93349083333333, "fusion_lon": 0.0, "rental_uris": {"ios": "https://dc.lft.to/lastmile_qr_scan", "android": "https://dc.lft.to/lastmile_qr_scan"}, "lon": -77.06041383333333, "bike_id": "3f5318fea8f6648207263d81377e9be7", "type": "electric_scooter", "name": "3f5318fea8f6648207263d81377e9be7"}, {"is_disabled": 0, "is_reserved": 0, "fusion_lat": 0.0, "lat": 38.917202833333334, "fusion_lon": 0.0, "rental_uris": {"ios": "https://dc.lft.to/lastmile_qr_scan", "android": "https://dc.lft.to/lastmile_qr_scan"}, "lon": -77.026018, "bike_id": "4f488e7bdebdbac7a0cb0ca334a4710a", "type": "electric_scooter", "name": "4f488e7bdebdbac7a0cb0ca334a4710a"}, {"is_disabled": 0, "is_reserved": 0, "fusion_lat": 0.0, "lat": 38.8276865, "fusion_lon": 0.0, "rental_uris": {"ios": "https://dc.lft.to/lastmile_qr_scan", "android": "https://dc.lft.to/lastmile_qr_scan"}, "lon": -77.06009716666667, "bike_id": "8a4e3b6cf411c2cabf331a3cef14b121", "type": "electric_bike", "name": "8a4e3b6cf411c2cabf331a3cef14b121"}, {"is_disabled": 0, "is_reserved": 0, "fusion_lat": 0.0, "lat": 38.95636566666667, "fusion_lon": 0.0, "rental_uris": {"ios": "https://dc.lft.to/lastmile_qr_scan", "android": "https://dc.lft.to/lastmile_qr_scan"}, "lon": -77.02207466666667, "bike_id": "d7e24e23313cbc77681e4f6af6ed07ec", "type": "electric_scooter", "name": "d7e24e23313cbc77681e4f6af6ed07ec"}, {"is_disabled": 0, "is_reserved": 0, "fusion_lat": 0.0, "lat": 38.92362266666667, "fusion_lon": 0.0, "rental_uris": {"ios": "https://dc.lft.to/lastmile_qr_scan", "android": "https://dc.lft.to/lastmile_qr_scan"}, "lon": -77.05244316666666, "bike_id": "a3ec5e9afcf5977dbf87dbd6537ec29c", "type": "electric_scooter", "name": "a3ec5e9afcf5977dbf87dbd6537ec29c"}, {"is_disabled": 0, "is_reserved": 0, "fusion_lat": 0.0, "lat": 38.917187, "fusion_lon": 0.0, "rental_uris": {"ios": "https://dc.lft.to/lastmile_qr_scan", "android": "https://dc.lft.to/lastmile_qr_scan"}, "lon": -77.0386205, "bike_id": "ed6edc0f9ae577757ea0d91368cb56ae", "type": "electric_scooter", "name": "ed6edc0f9ae577757ea0d91368cb56ae"}, {"is_disabled": 0, "is_reserved": 0, "fusion_lat": 0.0, "lat": 38.91819983333333, "fusion_lon": 0.0, "rental_uris": {"ios": "https://dc.lft.to/lastmile_qr_scan", "android": "https://dc.lft.to/lastmile_qr_scan"}, "lon": -77.01213433333334, "bike_id": "78618a83199312caf0807090a04040ed", "type": "electric_scooter", "name": "78618a83199312caf0807090a04040ed"}, {"is_disabled": 0, "is_reserved": 0, "fusion_lat": 0.0, "lat": 38.900185, "fusion_lon": 0.0, "rental_uris": {"ios": "https://dc.lft.to/lastmile_qr_scan", "android": "https://dc.lft.to/lastmile_qr_scan"}, "lon": -77.04856383333333, "bike_id": "3473e79d137bda3abed45d605cb46229", "type": "electric_scooter", "name": "3473e79d137bda3abed45d605cb46229"}, {"is_disabled": 0, "is_reserved": 0, "fusion_lat": 0.0, "lat": 38.89974683333333, "fusion_lon": 0.0, "rental_uris": {"ios": "https://dc.lft.to/lastmile_qr_scan", "android": "https://dc.lft.to/lastmile_qr_scan"}, "lon": -77.016067, "bike_id": "447f79845fc3752dd4f3a52625054a7a", "type": "electric_scooter", "name": "447f79845fc3752dd4f3a52625054a7a"}, {"is_disabled": 0, "is_reserved": 0, "fusion_lat": 0.0, "lat": 38.80525433333333, "fusion_lon": 0.0, "rental_uris": {"ios": "https://dc.lft.to/lastmile_qr_scan", "android": "https://dc.lft.to/lastmile_qr_scan"}, "lon": -77.04336566666667, "bike_id": "ad623031515dedc3755c0d832fb756cd", "type": "electric_bike", "name": "ad623031515dedc3755c0d832fb756cd"}, {"is_disabled": 0, "is_reserved": 0, "fusion_lat": 0.0, "lat": 38.895029666666666, "fusion_lon": 0.0, "rental_uris": {"ios": "https://dc.lft.to/lastmile_qr_scan", "android": "https://dc.lft.to/lastmile_qr_scan"}, "lon": -77.0228225, "bike_id": "3eacb88c02f77315482781d7bfddfab8", "type": "electric_scooter", "name": "3eacb88c02f77315482781d7bfddfab8"}, {"is_disabled": 0, "is_reserved": 0, "fusion_lat": 0.0, "lat": 38.915588, "fusion_lon": 0.0, "rental_uris": {"ios": "https://dc.lft.to/lastmile_qr_scan", "android": "https://dc.lft.to/lastmile_qr_scan"}, "lon": -77.03811083333333, "bike_id": "1229afdacd9da7fac2e9e3f73d59cb3a", "type": "electric_scooter", "name": "1229afdacd9da7fac2e9e3f73d59cb3a"}, {"is_disabled": 0, "is_reserved": 0, "fusion_lat": 0.0, "lat": 38.86496416666667, "fusion_lon": 0.0, "rental_uris": {"ios": "https://dc.lft.to/lastmile_qr_scan", "android": "https://dc.lft.to/lastmile_qr_scan"}, "lon": -76.9698245, "bike_id": "da0886fe12da2192aa27d233136dfb8a", "type": "electric_bike", "name": "da0886fe12da2192aa27d233136dfb8a"}, {"is_disabled": 0, "is_reserved": 0, "fusion_lat": 0.0, "lat": 38.897413666666665, "fusion_lon": 0.0, "rental_uris": {"ios": "https://dc.lft.to/lastmile_qr_scan", "android": "https://dc.lft.to/lastmile_qr_scan"}, "lon": -77.01760666666667, "bike_id": "2a4208d6380763fb40bc626813be75c2", "type": "electric_scooter", "name": "2a4208d6380763fb40bc626813be75c2"}, {"is_disabled": 0, "is_reserved": 0, "fusion_lat": 0.0, "lat": 38.87897783333333, "fusion_lon": 0.0, "rental_uris": {"ios": "https://dc.lft.to/lastmile_qr_scan", "android": "https://dc.lft.to/lastmile_qr_scan"}, "lon": -76.93529166666667, "bike_id": "aaed41e22d6390697f7878d3a42404b8", "type": "electric_scooter", "name": "aaed41e22d6390697f7878d3a42404b8"}, {"is_disabled": 0, "is_reserved": 0, "fusion_lat": 0.0, "lat": 38.9147105, "fusion_lon": 0.0, "rental_uris": {"ios": "https://dc.lft.to/lastmile_qr_scan", "android": "https://dc.lft.to/lastmile_qr_scan"}, "lon": -77.03183633333333, "bike_id": "34f451f181916d4193e2516b2905f9e4", "type": "electric_scooter", "name": "34f451f181916d4193e2516b2905f9e4"}, {"is_disabled": 0, "is_reserved": 0, "fusion_lat": 0.0, "lat": 38.922253166666664, "fusion_lon": 0.0, "rental_uris": {"ios": "https://dc.lft.to/lastmile_qr_scan", "android": "https://dc.lft.to/lastmile_qr_scan"}, "lon": -77.0390275, "bike_id": "c5b110f9d23cb382b9580c3433c6592e", "type": "electric_scooter", "name": "c5b110f9d23cb382b9580c3433c6592e"}, {"is_disabled": 0, "is_reserved": 0, "fusion_lat": 0.0, "lat": 38.9193895, "fusion_lon": 0.0, "rental_uris": {"ios": "https://dc.lft.to/lastmile_qr_scan", "android": "https://dc.lft.to/lastmile_qr_scan"}, "lon": -77.03427633333334, "bike_id": "49c535614793f8ac9a92c18794d919c8", "type": "electric_bike", "name": "49c535614793f8ac9a92c18794d919c8"}, {"is_disabled": 0, "is_reserved": 0, "fusion_lat": 0.0, "lat": 38.846532, "fusion_lon": 0.0, "rental_uris": {"ios": "https://dc.lft.to/lastmile_qr_scan", "android": "https://dc.lft.to/lastmile_qr_scan"}, "lon": -77.003659, "bike_id": "1a30a4199219f1778785b9966a08302b", "type": "electric_scooter", "name": "1a30a4199219f1778785b9966a08302b"}, {"is_disabled": 0, "is_reserved": 0, "fusion_lat": 0.0, "lat": 38.917790833333335, "fusion_lon": 0.0, "rental_uris": {"ios": "https://dc.lft.to/lastmile_qr_scan", "android": "https://dc.lft.to/lastmile_qr_scan"}, "lon": -77.0269725, "bike_id": "95e773bca268c9d804415940147c45a2", "type": "electric_scooter", "name": "95e773bca268c9d804415940147c45a2"}, {"is_disabled": 0, "is_reserved": 0, "fusion_lat": 0.0, "lat": 38.910541333333335, "fusion_lon": 0.0, "rental_uris": {"ios": "https://dc.lft.to/lastmile_qr_scan", "android": "https://dc.lft.to/lastmile_qr_scan"}, "lon": -77.021865, "bike_id": "eeb9207fa7553c00194bed08f22e09c2", "type": "electric_scooter", "name": "eeb9207fa7553c00194bed08f22e09c2"}, {"is_disabled": 0, "is_reserved": 0, "fusion_lat": 0.0, "lat": 38.900355833333336, "fusion_lon": 0.0, "rental_uris": {"ios": "https://dc.lft.to/lastmile_qr_scan", "android": "https://dc.lft.to/lastmile_qr_scan"}, "lon": -77.017645, "bike_id": "53cf09db597674d3198769cf2c84e300", "type": "electric_scooter", "name": "53cf09db597674d3198769cf2c84e300"}, {"is_disabled": 0, "is_reserved": 0, "fusion_lat": 0.0, "lat": 38.846210666666664, "fusion_lon": 0.0, "rental_uris": {"ios": "https://dc.lft.to/lastmile_qr_scan", "android": "https://dc.lft.to/lastmile_qr_scan"}, "lon": -76.97838133333333, "bike_id": "46adf8f877941c67d2dbc8f6c2ecf74e", "type": "electric_bike", "name": "46adf8f877941c67d2dbc8f6c2ecf74e"}, {"is_disabled": 0, "is_reserved": 0, "fusion_lat": 0.0, "lat": 38.898817666666666, "fusion_lon": 0.0, "rental_uris": {"ios": "https://dc.lft.to/lastmile_qr_scan", "android": "https://dc.lft.to/lastmile_qr_scan"}, "lon": -77.01981016666667, "bike_id": "9511cc8fb2275e2792d4a36c8c7a1361", "type": "electric_scooter", "name": "9511cc8fb2275e2792d4a36c8c7a1361"}, {"is_disabled": 0, "is_reserved": 0, "fusion_lat": 0.0, "lat": 38.91934033333333, "fusion_lon": 0.0, "rental_uris": {"ios": "https://dc.lft.to/lastmile_qr_scan", "android": "https://dc.lft.to/lastmile_qr_scan"}, "lon": -77.04494466666667, "bike_id": "81961620c85f206194ff708db1f05b98", "type": "electric_scooter", "name": "81961620c85f206194ff708db1f05b98"}, {"is_disabled": 0, "is_reserved": 0, "fusion_lat": 0.0, "lat": 38.91954716666667, "fusion_lon": 0.0, "rental_uris": {"ios": "https://dc.lft.to/lastmile_qr_scan", "android": "https://dc.lft.to/lastmile_qr_scan"}, "lon": -77.01884116666666, "bike_id": "bbbff6a4277867e6dcb11edfb744ac0e", "type": "electric_scooter", "name": "bbbff6a4277867e6dcb11edfb744ac0e"}, {"is_disabled": 0, "is_reserved": 0, "fusion_lat": 0.0, "lat": 38.88716433333333, "fusion_lon": 0.0, "rental_uris": {"ios": "https://dc.lft.to/lastmile_qr_scan", "android": "https://dc.lft.to/lastmile_qr_scan"}, "lon": -76.98338383333333, "bike_id": "46aa542811bc6d2f737220b18e71b1a4", "type": "electric_scooter", "name": "46aa542811bc6d2f737220b18e71b1a4"}, {"is_disabled": 0, "is_reserved": 0, "fusion_lat": 0.0, "lat": 38.880261833333336, "fusion_lon": 0.0, "rental_uris": {"ios": "https://dc.lft.to/lastmile_qr_scan", "android": "https://dc.lft.to/lastmile_qr_scan"}, "lon": -76.9432265, "bike_id": "ffe64ca9403840b046432f3f580e5a68", "type": "electric_scooter", "name": "ffe64ca9403840b046432f3f580e5a68"}, {"is_disabled": 0, "is_reserved": 0, "fusion_lat": 0.0, "lat": 38.941758, "fusion_lon": 0.0, "rental_uris": {"ios": "https://dc.lft.to/lastmile_qr_scan", "android": "https://dc.lft.to/lastmile_qr_scan"}, "lon": -77.0253695, "bike_id": "5594dbe591bb9cdaa998a9ef94ccd234", "type": "electric_scooter", "name": "5594dbe591bb9cdaa998a9ef94ccd234"}, {"is_disabled": 0, "is_reserved": 0, "fusion_lat": 0.0, "lat": 38.9088375, "fusion_lon": 0.0, "rental_uris": {"ios": "https://dc.lft.to/lastmile_qr_scan", "android": "https://dc.lft.to/lastmile_qr_scan"}, "lon": -77.074359, "bike_id": "69a45e057030233d2baa306f5c3986a5", "type": "electric_scooter", "name": "69a45e057030233d2baa306f5c3986a5"}, {"is_disabled": 0, "is_reserved": 0, "fusion_lat": 0.0, "lat": 38.91655133333333, "fusion_lon": 0.0, "rental_uris": {"ios": "https://dc.lft.to/lastmile_qr_scan", "android": "https://dc.lft.to/lastmile_qr_scan"}, "lon": -77.02399583333333, "bike_id": "e35fed0e4d220a90150d2ca8eb1d37fc", "type": "electric_scooter", "name": "e35fed0e4d220a90150d2ca8eb1d37fc"}, {"is_disabled": 0, "is_reserved": 0, "fusion_lat": 0.0, "lat": 38.90650933333333, "fusion_lon": 0.0, "rental_uris": {"ios": "https://dc.lft.to/lastmile_qr_scan", "android": "https://dc.lft.to/lastmile_qr_scan"}, "lon": -76.97942766666667, "bike_id": "e6d2d3e0672aeb501e5463e762da55e9", "type": "electric_scooter", "name": "e6d2d3e0672aeb501e5463e762da55e9"}, {"is_disabled": 0, "is_reserved": 0, "fusion_lat": 0.0, "lat": 38.914151333333336, "fusion_lon": 0.0, "rental_uris": {"ios": "https://dc.lft.to/lastmile_qr_scan", "android": "https://dc.lft.to/lastmile_qr_scan"}, "lon": -77.021141, "bike_id": "8aec5eb7f8cb706c653ca77ea9e06f16", "type": "electric_scooter", "name": "8aec5eb7f8cb706c653ca77ea9e06f16"}, {"is_disabled": 0, "is_reserved": 0, "fusion_lat": 0.0, "lat": 38.921269333333335, "fusion_lon": 0.0, "rental_uris": {"ios": "https://dc.lft.to/lastmile_qr_scan", "android": "https://dc.lft.to/lastmile_qr_scan"}, "lon": -77.03666033333333, "bike_id": "c2e7d84bbb82e5f891bbf53824ef38ce", "type": "electric_scooter", "name": "c2e7d84bbb82e5f891bbf53824ef38ce"}, {"is_disabled": 0, "is_reserved": 0, "fusion_lat": 0.0, "lat": 38.91227416666667, "fusion_lon": 0.0, "rental_uris": {"ios": "https://dc.lft.to/lastmile_qr_scan", "android": "https://dc.lft.to/lastmile_qr_scan"}, "lon": -77.064016, "bike_id": "5bff569922864b98ed53ccd21dcc6737", "type": "electric_scooter", "name": "5bff569922864b98ed53ccd21dcc6737"}, {"is_disabled": 0, "is_reserved": 0, "fusion_lat": 0.0, "lat": 38.88014533333333, "fusion_lon": 0.0, "rental_uris": {"ios": "https://dc.lft.to/lastmile_qr_scan", "android": "https://dc.lft.to/lastmile_qr_scan"}, "lon": -76.99740033333333, "bike_id": "4261279a9fb4f92005f2a0eae3ef6e54", "type": "electric_scooter", "name": "4261279a9fb4f92005f2a0eae3ef6e54"}, {"is_disabled": 0, "is_reserved": 0, "fusion_lat": 0.0, "lat": 38.855158, "fusion_lon": 0.0, "rental_uris": {"ios": "https://dc.lft.to/lastmile_qr_scan", "android": "https://dc.lft.to/lastmile_qr_scan"}, "lon": -77.10159116666667, "bike_id": "85cb4779fbf287a06b1df79c80af0154", "type": "electric_bike", "name": "85cb4779fbf287a06b1df79c80af0154"}, {"is_disabled": 0, "is_reserved": 0, "fusion_lat": 0.0, "lat": 38.922554166666664, "fusion_lon": 0.0, "rental_uris": {"ios": "https://dc.lft.to/lastmile_qr_scan", "android": "https://dc.lft.to/lastmile_qr_scan"}, "lon": -77.03203133333334, "bike_id": "13affac149025701f88aa91fa02d47fd", "type": "electric_scooter", "name": "13affac149025701f88aa91fa02d47fd"}, {"is_disabled": 0, "is_reserved": 0, "fusion_lat": 0.0, "lat": 38.918239666666665, "fusion_lon": 0.0, "rental_uris": {"ios": "https://dc.lft.to/lastmile_qr_scan", "android": "https://dc.lft.to/lastmile_qr_scan"}, "lon": -77.012082, "bike_id": "48efc74789b8eb9941a8a080571f2d67", "type": "electric_scooter", "name": "48efc74789b8eb9941a8a080571f2d67"}, {"is_disabled": 0, "is_reserved": 0, "fusion_lat": 0.0, "lat": 38.863723666666665, "fusion_lon": 0.0, "rental_uris": {"ios": "https://dc.lft.to/lastmile_qr_scan", "android": "https://dc.lft.to/lastmile_qr_scan"}, "lon": -77.01370933333334, "bike_id": "bc1165db52a5f25aa6595bd79c19b619", "type": "electric_scooter", "name": "bc1165db52a5f25aa6595bd79c19b619"}, {"is_disabled": 0, "is_reserved": 0, "fusion_lat": 0.0, "lat": 38.8923105, "fusion_lon": 0.0, "rental_uris": {"ios": "https://dc.lft.to/lastmile_qr_scan", "android": "https://dc.lft.to/lastmile_qr_scan"}, "lon": -77.04652316666666, "bike_id": "9d0c90d63e76655d1a3c60ae07e649fa", "type": "electric_scooter", "name": "9d0c90d63e76655d1a3c60ae07e649fa"}, {"is_disabled": 0, "is_reserved": 0, "fusion_lat": 0.0, "lat": 38.89882333333333, "fusion_lon": 0.0, "rental_uris": {"ios": "https://dc.lft.to/lastmile_qr_scan", "android": "https://dc.lft.to/lastmile_qr_scan"}, "lon": -76.93180783333334, "bike_id": "60f809fe81492980e6ef244f5305c2ac", "type": "electric_scooter", "name": "60f809fe81492980e6ef244f5305c2ac"}, {"is_disabled": 0, "is_reserved": 0, "fusion_lat": 0.0, "lat": 38.908728333333336, "fusion_lon": 0.0, "rental_uris": {"ios": "https://dc.lft.to/lastmile_qr_scan", "android": "https://dc.lft.to/lastmile_qr_scan"}, "lon": -77.0321505, "bike_id": "74e26a1c113b82f103e3a7fc0e2117ab", "type": "electric_scooter", "name": "74e26a1c113b82f103e3a7fc0e2117ab"}, {"is_disabled": 0, "is_reserved": 0, "fusion_lat": 0.0, "lat": 38.91050766666667, "fusion_lon": 0.0, "rental_uris": {"ios": "https://dc.lft.to/lastmile_qr_scan", "android": "https://dc.lft.to/lastmile_qr_scan"}, "lon": -77.0608685, "bike_id": "78d3e2963d8dac39ce76fe05f00fe259", "type": "electric_scooter", "name": "78d3e2963d8dac39ce76fe05f00fe259"}, {"is_disabled": 0, "is_reserved": 0, "fusion_lat": 0.0, "lat": 38.89227566666667, "fusion_lon": 0.0, "rental_uris": {"ios": "https://dc.lft.to/lastmile_qr_scan", "android": "https://dc.lft.to/lastmile_qr_scan"}, "lon": -77.04657883333333, "bike_id": "e9bd4b56961746dcc610b9fa54cabb61", "type": "electric_scooter", "name": "e9bd4b56961746dcc610b9fa54cabb61"}, {"is_disabled": 0, "is_reserved": 0, "fusion_lat": 0.0, "lat": 38.892693333333334, "fusion_lon": 0.0, "rental_uris": {"ios": "https://dc.lft.to/lastmile_qr_scan", "android": "https://dc.lft.to/lastmile_qr_scan"}, "lon": -77.0466135, "bike_id": "1efafd19a94ee466268e08200b832279", "type": "electric_scooter", "name": "1efafd19a94ee466268e08200b832279"}, {"is_disabled": 0, "is_reserved": 0, "fusion_lat": 0.0, "lat": 38.9272295, "fusion_lon": 0.0, "rental_uris": {"ios": "https://dc.lft.to/lastmile_qr_scan", "android": "https://dc.lft.to/lastmile_qr_scan"}, "lon": -77.05135266666667, "bike_id": "6a0eb7af8c5663cdd621a72f6cee080f", "type": "electric_scooter", "name": "6a0eb7af8c5663cdd621a72f6cee080f"}, {"is_disabled": 0, "is_reserved": 0, "fusion_lat": 0.0, "lat": 38.90446333333333, "fusion_lon": 0.0, "rental_uris": {"ios": "https://dc.lft.to/lastmile_qr_scan", "android": "https://dc.lft.to/lastmile_qr_scan"}, "lon": -77.03480366666666, "bike_id": "390872f87dc39b99dbfea79a9d4d55e5", "type": "electric_scooter", "name": "390872f87dc39b99dbfea79a9d4d55e5"}, {"is_disabled": 0, "is_reserved": 0, "fusion_lat": 0.0, "lat": 38.9241945, "fusion_lon": 0.0, "rental_uris": {"ios": "https://dc.lft.to/lastmile_qr_scan", "android": "https://dc.lft.to/lastmile_qr_scan"}, "lon": -77.02302883333333, "bike_id": "d07dad09dbbc1c59a0740bc375864b68", "type": "electric_scooter", "name": "d07dad09dbbc1c59a0740bc375864b68"}, {"is_disabled": 0, "is_reserved": 0, "fusion_lat": 0.0, "lat": 38.9259995, "fusion_lon": 0.0, "rental_uris": {"ios": "https://dc.lft.to/lastmile_qr_scan", "android": "https://dc.lft.to/lastmile_qr_scan"}, "lon": -77.02495683333333, "bike_id": "a34a816f1494c6c57f8e4b92c6ce188f", "type": "electric_scooter", "name": "a34a816f1494c6c57f8e4b92c6ce188f"}, {"is_disabled": 0, "is_reserved": 0, "fusion_lat": 0.0, "lat": 38.9265265, "fusion_lon": 0.0, "rental_uris": {"ios": "https://dc.lft.to/lastmile_qr_scan", "android": "https://dc.lft.to/lastmile_qr_scan"}, "lon": -77.024325, "bike_id": "6fa0e14ab0e821736709f79845b06c73", "type": "electric_scooter", "name": "6fa0e14ab0e821736709f79845b06c73"}, {"is_disabled": 0, "is_reserved": 0, "fusion_lat": 0.0, "lat": 38.9134485, "fusion_lon": 0.0, "rental_uris": {"ios": "https://dc.lft.to/lastmile_qr_scan", "android": "https://dc.lft.to/lastmile_qr_scan"}, "lon": -77.03122, "bike_id": "388fea254f8a81482e65087686b589b5", "type": "electric_scooter", "name": "388fea254f8a81482e65087686b589b5"}, {"is_disabled": 0, "is_reserved": 0, "fusion_lat": 0.0, "lat": 38.947228833333334, "fusion_lon": 0.0, "rental_uris": {"ios": "https://dc.lft.to/lastmile_qr_scan", "android": "https://dc.lft.to/lastmile_qr_scan"}, "lon": -77.02354983333333, "bike_id": "0781a030b7a71244731a0bc8b0626a7e", "type": "electric_scooter", "name": "0781a030b7a71244731a0bc8b0626a7e"}, {"is_disabled": 0, "is_reserved": 0, "fusion_lat": 0.0, "lat": 38.918178166666664, "fusion_lon": 0.0, "rental_uris": {"ios": "https://dc.lft.to/lastmile_qr_scan", "android": "https://dc.lft.to/lastmile_qr_scan"}, "lon": -77.025251, "bike_id": "d5f7a1954afe06e0d4b5b45e3aae4b9f", "type": "electric_scooter", "name": "d5f7a1954afe06e0d4b5b45e3aae4b9f"}, {"is_disabled": 0, "is_reserved": 0, "fusion_lat": 0.0, "lat": 38.91790133333333, "fusion_lon": 0.0, "rental_uris": {"ios": "https://dc.lft.to/lastmile_qr_scan", "android": "https://dc.lft.to/lastmile_qr_scan"}, "lon": -77.0246595, "bike_id": "b4790a4086f340800ace149a51d9bdbd", "type": "electric_scooter", "name": "b4790a4086f340800ace149a51d9bdbd"}, {"is_disabled": 0, "is_reserved": 0, "fusion_lat": 0.0, "lat": 38.90192716666667, "fusion_lon": 0.0, "rental_uris": {"ios": "https://dc.lft.to/lastmile_qr_scan", "android": "https://dc.lft.to/lastmile_qr_scan"}, "lon": -77.050819, "bike_id": "542387959bb758fb1e27a47f9c43d2f1", "type": "electric_scooter", "name": "542387959bb758fb1e27a47f9c43d2f1"}, {"is_disabled": 0, "is_reserved": 0, "fusion_lat": 0.0, "lat": 38.92649183333333, "fusion_lon": 0.0, "rental_uris": {"ios": "https://dc.lft.to/lastmile_qr_scan", "android": "https://dc.lft.to/lastmile_qr_scan"}, "lon": -77.0347475, "bike_id": "83f3220306deb9f9b2c1be3c61746d7c", "type": "electric_scooter", "name": "83f3220306deb9f9b2c1be3c61746d7c"}, {"is_disabled": 0, "is_reserved": 0, "fusion_lat": 0.0, "lat": 38.930946166666665, "fusion_lon": 0.0, "rental_uris": {"ios": "https://dc.lft.to/lastmile_qr_scan", "android": "https://dc.lft.to/lastmile_qr_scan"}, "lon": -77.02472183333333, "bike_id": "555040d36931c44714ecd04daae7064c", "type": "electric_scooter", "name": "555040d36931c44714ecd04daae7064c"}, {"is_disabled": 0, "is_reserved": 0, "fusion_lat": 0.0, "lat": 38.9053665, "fusion_lon": 0.0, "rental_uris": {"ios": "https://dc.lft.to/lastmile_qr_scan", "android": "https://dc.lft.to/lastmile_qr_scan"}, "lon": -77.048485, "bike_id": "68a893d88ab97b4fc6875cc13cf9ccd1", "type": "electric_scooter", "name": "68a893d88ab97b4fc6875cc13cf9ccd1"}, {"is_disabled": 0, "is_reserved": 0, "fusion_lat": 0.0, "lat": 38.921182333333334, "fusion_lon": 0.0, "rental_uris": {"ios": "https://dc.lft.to/lastmile_qr_scan", "android": "https://dc.lft.to/lastmile_qr_scan"}, "lon": -76.99400966666667, "bike_id": "555ce523684ca7840e49b238e2752a66", "type": "electric_scooter", "name": "555ce523684ca7840e49b238e2752a66"}, {"is_disabled": 0, "is_reserved": 0, "fusion_lat": 0.0, "lat": 38.9037185, "fusion_lon": 0.0, "rental_uris": {"ios": "https://dc.lft.to/lastmile_qr_scan", "android": "https://dc.lft.to/lastmile_qr_scan"}, "lon": -77.01629866666667, "bike_id": "664a78118e5331841a7d72edac80198b", "type": "electric_scooter", "name": "664a78118e5331841a7d72edac80198b"}, {"is_disabled": 0, "is_reserved": 0, "fusion_lat": 0.0, "lat": 38.914098, "fusion_lon": 0.0, "rental_uris": {"ios": "https://dc.lft.to/lastmile_qr_scan", "android": "https://dc.lft.to/lastmile_qr_scan"}, "lon": -77.01066716666666, "bike_id": "ee87314f19703d774ed5aebf6b61673f", "type": "electric_scooter", "name": "ee87314f19703d774ed5aebf6b61673f"}, {"is_disabled": 0, "is_reserved": 0, "fusion_lat": 0.0, "lat": 38.907283166666666, "fusion_lon": 0.0, "rental_uris": {"ios": "https://dc.lft.to/lastmile_qr_scan", "android": "https://dc.lft.to/lastmile_qr_scan"}, "lon": -77.035081, "bike_id": "c6aa592b0923ad9a0587ee48e47f0768", "type": "electric_scooter", "name": "c6aa592b0923ad9a0587ee48e47f0768"}, {"is_disabled": 0, "is_reserved": 0, "fusion_lat": 0.0, "lat": 38.896075333333336, "fusion_lon": 0.0, "rental_uris": {"ios": "https://dc.lft.to/lastmile_qr_scan", "android": "https://dc.lft.to/lastmile_qr_scan"}, "lon": -77.04685283333333, "bike_id": "5e0a1ea9881fc78a5bbbc76a0f844323", "type": "electric_scooter", "name": "5e0a1ea9881fc78a5bbbc76a0f844323"}, {"is_disabled": 0, "is_reserved": 0, "fusion_lat": 0.0, "lat": 38.921066, "fusion_lon": 0.0, "rental_uris": {"ios": "https://dc.lft.to/lastmile_qr_scan", "android": "https://dc.lft.to/lastmile_qr_scan"}, "lon": -77.04166683333334, "bike_id": "fe872f4dde7e2b68c11dc9f63326144b", "type": "electric_scooter", "name": "fe872f4dde7e2b68c11dc9f63326144b"}, {"is_disabled": 0, "is_reserved": 0, "fusion_lat": 0.0, "lat": 38.902481333333334, "fusion_lon": 0.0, "rental_uris": {"ios": "https://dc.lft.to/lastmile_qr_scan", "android": "https://dc.lft.to/lastmile_qr_scan"}, "lon": -77.0076755, "bike_id": "c6844d3d3df68e55e02f6eeb51a4e66f", "type": "electric_scooter", "name": "c6844d3d3df68e55e02f6eeb51a4e66f"}, {"is_disabled": 0, "is_reserved": 0, "fusion_lat": 0.0, "lat": 38.876340166666665, "fusion_lon": 0.0, "rental_uris": {"ios": "https://dc.lft.to/lastmile_qr_scan", "android": "https://dc.lft.to/lastmile_qr_scan"}, "lon": -77.00956316666667, "bike_id": "360d08569e173bc55ef4d59b9c7cd597", "type": "electric_scooter", "name": "360d08569e173bc55ef4d59b9c7cd597"}, {"is_disabled": 0, "is_reserved": 0, "fusion_lat": 0.0, "lat": 38.885768666666664, "fusion_lon": 0.0, "rental_uris": {"ios": "https://dc.lft.to/lastmile_qr_scan", "android": "https://dc.lft.to/lastmile_qr_scan"}, "lon": -77.012129, "bike_id": "0a102c3d0a4140c3e192070f48608a0e", "type": "electric_scooter", "name": "0a102c3d0a4140c3e192070f48608a0e"}, {"is_disabled": 0, "is_reserved": 0, "fusion_lat": 0.0, "lat": 38.9317505, "fusion_lon": 0.0, "rental_uris": {"ios": "https://dc.lft.to/lastmile_qr_scan", "android": "https://dc.lft.to/lastmile_qr_scan"}, "lon": -77.03457683333333, "bike_id": "84c46949f8844ed298e751f3a56f6c1a", "type": "electric_scooter", "name": "84c46949f8844ed298e751f3a56f6c1a"}, {"is_disabled": 0, "is_reserved": 0, "fusion_lat": 0.0, "lat": 38.921629333333335, "fusion_lon": 0.0, "rental_uris": {"ios": "https://dc.lft.to/lastmile_qr_scan", "android": "https://dc.lft.to/lastmile_qr_scan"}, "lon": -77.03257716666667, "bike_id": "accbdfbeba1dd9a6a3e408f6363f7991", "type": "electric_scooter", "name": "accbdfbeba1dd9a6a3e408f6363f7991"}, {"is_disabled": 0, "is_reserved": 0, "fusion_lat": 0.0, "lat": 38.91055566666667, "fusion_lon": 0.0, "rental_uris": {"ios": "https://dc.lft.to/lastmile_qr_scan", "android": "https://dc.lft.to/lastmile_qr_scan"}, "lon": -77.02301966666667, "bike_id": "d2f9a4cd8c217f77b979c605b651ee9c", "type": "electric_scooter", "name": "d2f9a4cd8c217f77b979c605b651ee9c"}, {"is_disabled": 0, "is_reserved": 0, "fusion_lat": 0.0, "lat": 38.928148166666666, "fusion_lon": 0.0, "rental_uris": {"ios": "https://dc.lft.to/lastmile_qr_scan", "android": "https://dc.lft.to/lastmile_qr_scan"}, "lon": -77.043499, "bike_id": "fa46194fe60198ac45e83d2370612041", "type": "electric_scooter", "name": "fa46194fe60198ac45e83d2370612041"}, {"is_disabled": 0, "is_reserved": 0, "fusion_lat": 0.0, "lat": 38.8851845, "fusion_lon": 0.0, "rental_uris": {"ios": "https://dc.lft.to/lastmile_qr_scan", "android": "https://dc.lft.to/lastmile_qr_scan"}, "lon": -77.02820116666666, "bike_id": "b5d9579c5b934017903b9803d0883aa4", "type": "electric_scooter", "name": "b5d9579c5b934017903b9803d0883aa4"}, {"is_disabled": 0, "is_reserved": 0, "fusion_lat": 0.0, "lat": 38.870742666666665, "fusion_lon": 0.0, "rental_uris": {"ios": "https://dc.lft.to/lastmile_qr_scan", "android": "https://dc.lft.to/lastmile_qr_scan"}, "lon": -76.98129666666667, "bike_id": "39325fb4cb260bb8538e43e6a8ba5e02", "type": "electric_scooter", "name": "39325fb4cb260bb8538e43e6a8ba5e02"}, {"is_disabled": 0, "is_reserved": 0, "fusion_lat": 0.0, "lat": 38.9144345, "fusion_lon": 0.0, "rental_uris": {"ios": "https://dc.lft.to/lastmile_qr_scan", "android": "https://dc.lft.to/lastmile_qr_scan"}, "lon": -77.0228705, "bike_id": "148d0f53d49e9f0fe41f4ca8ad366dd4", "type": "electric_scooter", "name": "148d0f53d49e9f0fe41f4ca8ad366dd4"}, {"is_disabled": 0, "is_reserved": 0, "fusion_lat": 0.0, "lat": 38.917882666666664, "fusion_lon": 0.0, "rental_uris": {"ios": "https://dc.lft.to/lastmile_qr_scan", "android": "https://dc.lft.to/lastmile_qr_scan"}, "lon": -77.03191283333334, "bike_id": "b6390f6c23fca794a8cf858eea4866ba", "type": "electric_scooter", "name": "b6390f6c23fca794a8cf858eea4866ba"}, {"is_disabled": 0, "is_reserved": 0, "fusion_lat": 0.0, "lat": 38.9248955, "fusion_lon": 0.0, "rental_uris": {"ios": "https://dc.lft.to/lastmile_qr_scan", "android": "https://dc.lft.to/lastmile_qr_scan"}, "lon": -77.02695333333334, "bike_id": "a46d38c2a0672c659abcf50ce1111cd8", "type": "electric_scooter", "name": "a46d38c2a0672c659abcf50ce1111cd8"}, {"is_disabled": 0, "is_reserved": 0, "fusion_lat": 0.0, "lat": 38.87578933333333, "fusion_lon": 0.0, "rental_uris": {"ios": "https://dc.lft.to/lastmile_qr_scan", "android": "https://dc.lft.to/lastmile_qr_scan"}, "lon": -77.2341125, "bike_id": "d219436f7b817dc210a0f5a7ff820269", "type": "electric_bike", "name": "d219436f7b817dc210a0f5a7ff820269"}, {"is_disabled": 0, "is_reserved": 0, "fusion_lat": 0.0, "lat": 38.88039033333333, "fusion_lon": 0.0, "rental_uris": {"ios": "https://dc.lft.to/lastmile_qr_scan", "android": "https://dc.lft.to/lastmile_qr_scan"}, "lon": -76.92725083333333, "bike_id": "c70a2cb841a97e7c011d0d6b68cee26f", "type": "electric_scooter", "name": "c70a2cb841a97e7c011d0d6b68cee26f"}, {"is_disabled": 0, "is_reserved": 0, "fusion_lat": 0.0, "lat": 38.896101, "fusion_lon": 0.0, "rental_uris": {"ios": "https://dc.lft.to/lastmile_qr_scan", "android": "https://dc.lft.to/lastmile_qr_scan"}, "lon": -77.02311533333334, "bike_id": "76c83669b1aee01b2cb30ee0f5f97361", "type": "electric_scooter", "name": "76c83669b1aee01b2cb30ee0f5f97361"}, {"is_disabled": 0, "is_reserved": 0, "fusion_lat": 0.0, "lat": 38.8763465, "fusion_lon": 0.0, "rental_uris": {"ios": "https://dc.lft.to/lastmile_qr_scan", "android": "https://dc.lft.to/lastmile_qr_scan"}, "lon": -77.009561, "bike_id": "b41ace310990548cb4b40e3012b0c57e", "type": "electric_scooter", "name": "b41ace310990548cb4b40e3012b0c57e"}, {"is_disabled": 0, "is_reserved": 0, "fusion_lat": 0.0, "lat": 38.93001916666667, "fusion_lon": 0.0, "rental_uris": {"ios": "https://dc.lft.to/lastmile_qr_scan", "android": "https://dc.lft.to/lastmile_qr_scan"}, "lon": -77.03804833333334, "bike_id": "17bfce989974f833ac5c4cac55ed1fce", "type": "electric_scooter", "name": "17bfce989974f833ac5c4cac55ed1fce"}, {"is_disabled": 0, "is_reserved": 0, "fusion_lat": 0.0, "lat": 38.917908833333335, "fusion_lon": 0.0, "rental_uris": {"ios": "https://dc.lft.to/lastmile_qr_scan", "android": "https://dc.lft.to/lastmile_qr_scan"}, "lon": -77.032002, "bike_id": "42bd2a88cd96812a791ccf4d98571c30", "type": "electric_scooter", "name": "42bd2a88cd96812a791ccf4d98571c30"}, {"is_disabled": 0, "is_reserved": 0, "fusion_lat": 0.0, "lat": 38.8933895, "fusion_lon": 0.0, "rental_uris": {"ios": "https://dc.lft.to/lastmile_qr_scan", "android": "https://dc.lft.to/lastmile_qr_scan"}, "lon": -76.92892766666667, "bike_id": "b6289adcaf135cbc8b5a65666a25289d", "type": "electric_scooter", "name": "b6289adcaf135cbc8b5a65666a25289d"}, {"is_disabled": 0, "is_reserved": 0, "fusion_lat": 0.0, "lat": 38.91940783333333, "fusion_lon": 0.0, "rental_uris": {"ios": "https://dc.lft.to/lastmile_qr_scan", "android": "https://dc.lft.to/lastmile_qr_scan"}, "lon": -77.023079, "bike_id": "41a4e93e8cf3e6361b1ac4c7b7fa9a40", "type": "electric_scooter", "name": "41a4e93e8cf3e6361b1ac4c7b7fa9a40"}, {"is_disabled": 0, "is_reserved": 0, "fusion_lat": 0.0, "lat": 38.900381833333334, "fusion_lon": 0.0, "rental_uris": {"ios": "https://dc.lft.to/lastmile_qr_scan", "android": "https://dc.lft.to/lastmile_qr_scan"}, "lon": -77.003676, "bike_id": "29bc9cf229a31ca518e6308dc971f983", "type": "electric_scooter", "name": "29bc9cf229a31ca518e6308dc971f983"}, {"is_disabled": 0, "is_reserved": 0, "fusion_lat": 0.0, "lat": 38.87296683333334, "fusion_lon": 0.0, "rental_uris": {"ios": "https://dc.lft.to/lastmile_qr_scan", "android": "https://dc.lft.to/lastmile_qr_scan"}, "lon": -77.00987766666667, "bike_id": "e0fd3067040b93349ecda0b8ec2e8ea1", "type": "electric_scooter", "name": "e0fd3067040b93349ecda0b8ec2e8ea1"}, {"is_disabled": 0, "is_reserved": 0, "fusion_lat": 0.0, "lat": 38.92673716666667, "fusion_lon": 0.0, "rental_uris": {"ios": "https://dc.lft.to/lastmile_qr_scan", "android": "https://dc.lft.to/lastmile_qr_scan"}, "lon": -77.03022266666666, "bike_id": "b84e09349c49f9158cc270ed2bc69c71", "type": "electric_scooter", "name": "b84e09349c49f9158cc270ed2bc69c71"}, {"is_disabled": 0, "is_reserved": 0, "fusion_lat": 0.0, "lat": 38.9352215, "fusion_lon": 0.0, "rental_uris": {"ios": "https://dc.lft.to/lastmile_qr_scan", "android": "https://dc.lft.to/lastmile_qr_scan"}, "lon": -77.02840016666667, "bike_id": "9659248e818a8c47d769ecd9d2a5295d", "type": "electric_scooter", "name": "9659248e818a8c47d769ecd9d2a5295d"}, {"is_disabled": 0, "is_reserved": 0, "fusion_lat": 0.0, "lat": 38.89632616666667, "fusion_lon": 0.0, "rental_uris": {"ios": "https://dc.lft.to/lastmile_qr_scan", "android": "https://dc.lft.to/lastmile_qr_scan"}, "lon": -76.90749866666667, "bike_id": "f7c529c2fc51f42fdf8a2c2a2c0a3cb0", "type": "electric_bike", "name": "f7c529c2fc51f42fdf8a2c2a2c0a3cb0"}, {"is_disabled": 0, "is_reserved": 0, "fusion_lat": 0.0, "lat": 38.92300616666667, "fusion_lon": 0.0, "rental_uris": {"ios": "https://dc.lft.to/lastmile_qr_scan", "android": "https://dc.lft.to/lastmile_qr_scan"}, "lon": -77.02976883333334, "bike_id": "60e69e2475b92d72fbeb2d5a01920625", "type": "electric_scooter", "name": "60e69e2475b92d72fbeb2d5a01920625"}, {"is_disabled": 0, "is_reserved": 0, "fusion_lat": 0.0, "lat": 38.91338116666667, "fusion_lon": 0.0, "rental_uris": {"ios": "https://dc.lft.to/lastmile_qr_scan", "android": "https://dc.lft.to/lastmile_qr_scan"}, "lon": -77.0162165, "bike_id": "eac4f35e6d447f48159549c6bbc22421", "type": "electric_scooter", "name": "eac4f35e6d447f48159549c6bbc22421"}, {"is_disabled": 0, "is_reserved": 0, "fusion_lat": 0.0, "lat": 38.88535, "fusion_lon": 0.0, "rental_uris": {"ios": "https://dc.lft.to/lastmile_qr_scan", "android": "https://dc.lft.to/lastmile_qr_scan"}, "lon": -76.98054816666667, "bike_id": "273c0a752272822e1641fc84a5c82e80", "type": "electric_scooter", "name": "273c0a752272822e1641fc84a5c82e80"}, {"is_disabled": 0, "is_reserved": 0, "fusion_lat": 0.0, "lat": 38.956900833333336, "fusion_lon": 0.0, "rental_uris": {"ios": "https://dc.lft.to/lastmile_qr_scan", "android": "https://dc.lft.to/lastmile_qr_scan"}, "lon": -77.0223135, "bike_id": "8d4be41a48c7d83635c563085d7e665e", "type": "electric_scooter", "name": "8d4be41a48c7d83635c563085d7e665e"}, {"is_disabled": 0, "is_reserved": 0, "fusion_lat": 0.0, "lat": 38.9164175, "fusion_lon": 0.0, "rental_uris": {"ios": "https://dc.lft.to/lastmile_qr_scan", "android": "https://dc.lft.to/lastmile_qr_scan"}, "lon": -77.02391066666667, "bike_id": "7b8a79fb0d806a5b2dde9bd010cc60f0", "type": "electric_scooter", "name": "7b8a79fb0d806a5b2dde9bd010cc60f0"}, {"is_disabled": 0, "is_reserved": 0, "fusion_lat": 0.0, "lat": 38.95756016666667, "fusion_lon": 0.0, "rental_uris": {"ios": "https://dc.lft.to/lastmile_qr_scan", "android": "https://dc.lft.to/lastmile_qr_scan"}, "lon": -77.02210866666667, "bike_id": "120d591e0c1611753872d30a40ec77e7", "type": "electric_scooter", "name": "120d591e0c1611753872d30a40ec77e7"}, {"is_disabled": 0, "is_reserved": 0, "fusion_lat": 0.0, "lat": 38.922079333333336, "fusion_lon": 0.0, "rental_uris": {"ios": "https://dc.lft.to/lastmile_qr_scan", "android": "https://dc.lft.to/lastmile_qr_scan"}, "lon": -77.08188783333334, "bike_id": "52d8570d55c058bad5ca083f8dc48ede", "type": "electric_bike", "name": "52d8570d55c058bad5ca083f8dc48ede"}, {"is_disabled": 0, "is_reserved": 0, "fusion_lat": 0.0, "lat": 38.874969, "fusion_lon": 0.0, "rental_uris": {"ios": "https://dc.lft.to/lastmile_qr_scan", "android": "https://dc.lft.to/lastmile_qr_scan"}, "lon": -77.00078283333333, "bike_id": "1b0e5eb7d7cd98474ceab1677023ef5c", "type": "electric_scooter", "name": "1b0e5eb7d7cd98474ceab1677023ef5c"}, {"is_disabled": 0, "is_reserved": 0, "fusion_lat": 0.0, "lat": 38.911781, "fusion_lon": 0.0, "rental_uris": {"ios": "https://dc.lft.to/lastmile_qr_scan", "android": "https://dc.lft.to/lastmile_qr_scan"}, "lon": -77.028265, "bike_id": "25ea331af65d1491daeed2c499dd1d65", "type": "electric_scooter", "name": "25ea331af65d1491daeed2c499dd1d65"}, {"is_disabled": 0, "is_reserved": 0, "fusion_lat": 0.0, "lat": 38.9060305, "fusion_lon": 0.0, "rental_uris": {"ios": "https://dc.lft.to/lastmile_qr_scan", "android": "https://dc.lft.to/lastmile_qr_scan"}, "lon": -77.12880983333334, "bike_id": "48bb01d188956989b5ced1a812ef031a", "type": "electric_bike", "name": "48bb01d188956989b5ced1a812ef031a"}, {"is_disabled": 0, "is_reserved": 0, "fusion_lat": 0.0, "lat": 38.934451, "fusion_lon": 0.0, "rental_uris": {"ios": "https://dc.lft.to/lastmile_qr_scan", "android": "https://dc.lft.to/lastmile_qr_scan"}, "lon": -77.0298525, "bike_id": "d919c46867a93ace48b3397bb25caae2", "type": "electric_scooter", "name": "d919c46867a93ace48b3397bb25caae2"}, {"is_disabled": 0, "is_reserved": 0, "fusion_lat": 0.0, "lat": 38.9338075, "fusion_lon": 0.0, "rental_uris": {"ios": "https://dc.lft.to/lastmile_qr_scan", "android": "https://dc.lft.to/lastmile_qr_scan"}, "lon": -77.02717566666666, "bike_id": "28f0660b288a7ca5f8a3fd5673981c82", "type": "electric_scooter", "name": "28f0660b288a7ca5f8a3fd5673981c82"}, {"is_disabled": 0, "is_reserved": 0, "fusion_lat": 0.0, "lat": 38.90606233333333, "fusion_lon": 0.0, "rental_uris": {"ios": "https://dc.lft.to/lastmile_qr_scan", "android": "https://dc.lft.to/lastmile_qr_scan"}, "lon": -77.05651716666667, "bike_id": "f5a60d16d869cfd4231da819c71f90d5", "type": "electric_scooter", "name": "f5a60d16d869cfd4231da819c71f90d5"}, {"is_disabled": 0, "is_reserved": 0, "fusion_lat": 0.0, "lat": 38.90041383333333, "fusion_lon": 0.0, "rental_uris": {"ios": "https://dc.lft.to/lastmile_qr_scan", "android": "https://dc.lft.to/lastmile_qr_scan"}, "lon": -77.00379833333334, "bike_id": "5f84be42c0c5c2c5668f4a223199f517", "type": "electric_scooter", "name": "5f84be42c0c5c2c5668f4a223199f517"}, {"is_disabled": 0, "is_reserved": 0, "fusion_lat": 0.0, "lat": 38.8923055, "fusion_lon": 0.0, "rental_uris": {"ios": "https://dc.lft.to/lastmile_qr_scan", "android": "https://dc.lft.to/lastmile_qr_scan"}, "lon": -77.04335383333333, "bike_id": "b0d4da2251cd3afffa9ac06e2cea475c", "type": "electric_scooter", "name": "b0d4da2251cd3afffa9ac06e2cea475c"}, {"is_disabled": 0, "is_reserved": 0, "fusion_lat": 0.0, "lat": 38.902604333333336, "fusion_lon": 0.0, "rental_uris": {"ios": "https://dc.lft.to/lastmile_qr_scan", "android": "https://dc.lft.to/lastmile_qr_scan"}, "lon": -77.01156933333333, "bike_id": "403ec504af38a464c452388dc8655d08", "type": "electric_scooter", "name": "403ec504af38a464c452388dc8655d08"}, {"is_disabled": 0, "is_reserved": 0, "fusion_lat": 0.0, "lat": 38.91971866666667, "fusion_lon": 0.0, "rental_uris": {"ios": "https://dc.lft.to/lastmile_qr_scan", "android": "https://dc.lft.to/lastmile_qr_scan"}, "lon": -77.002056, "bike_id": "ef62d9d25e93187660951f0e3e902f3c", "type": "electric_scooter", "name": "ef62d9d25e93187660951f0e3e902f3c"}, {"is_disabled": 0, "is_reserved": 0, "fusion_lat": 0.0, "lat": 38.9211275, "fusion_lon": 0.0, "rental_uris": {"ios": "https://dc.lft.to/lastmile_qr_scan", "android": "https://dc.lft.to/lastmile_qr_scan"}, "lon": -77.0469425, "bike_id": "75011b10c95b016f817b94acc047b7fe", "type": "electric_scooter", "name": "75011b10c95b016f817b94acc047b7fe"}, {"is_disabled": 0, "is_reserved": 0, "fusion_lat": 0.0, "lat": 38.933645166666665, "fusion_lon": 0.0, "rental_uris": {"ios": "https://dc.lft.to/lastmile_qr_scan", "android": "https://dc.lft.to/lastmile_qr_scan"}, "lon": -77.02650766666666, "bike_id": "5cf9f5d41e18a55748e9fb588abdcb2c", "type": "electric_scooter", "name": "5cf9f5d41e18a55748e9fb588abdcb2c"}, {"is_disabled": 0, "is_reserved": 0, "fusion_lat": 0.0, "lat": 38.904939166666665, "fusion_lon": 0.0, "rental_uris": {"ios": "https://dc.lft.to/lastmile_qr_scan", "android": "https://dc.lft.to/lastmile_qr_scan"}, "lon": -77.00912666666666, "bike_id": "048361d35bfcaacfa9ace07f542931b2", "type": "electric_scooter", "name": "048361d35bfcaacfa9ace07f542931b2"}, {"is_disabled": 0, "is_reserved": 0, "fusion_lat": 0.0, "lat": 38.90347966666667, "fusion_lon": 0.0, "rental_uris": {"ios": "https://dc.lft.to/lastmile_qr_scan", "android": "https://dc.lft.to/lastmile_qr_scan"}, "lon": -76.982786, "bike_id": "86c4751138a4dd3961db096fbe4c748f", "type": "electric_scooter", "name": "86c4751138a4dd3961db096fbe4c748f"}, {"is_disabled": 0, "is_reserved": 0, "fusion_lat": 0.0, "lat": 38.923696, "fusion_lon": 0.0, "rental_uris": {"ios": "https://dc.lft.to/lastmile_qr_scan", "android": "https://dc.lft.to/lastmile_qr_scan"}, "lon": -77.01910683333334, "bike_id": "59557ad5f32feea5cae50f0af8068470", "type": "electric_scooter", "name": "59557ad5f32feea5cae50f0af8068470"}, {"is_disabled": 0, "is_reserved": 0, "fusion_lat": 0.0, "lat": 38.8928145, "fusion_lon": 0.0, "rental_uris": {"ios": "https://dc.lft.to/lastmile_qr_scan", "android": "https://dc.lft.to/lastmile_qr_scan"}, "lon": -77.050388, "bike_id": "44022f6c7f9a7a59443f07ab536b2207", "type": "electric_scooter", "name": "44022f6c7f9a7a59443f07ab536b2207"}, {"is_disabled": 0, "is_reserved": 0, "fusion_lat": 0.0, "lat": 38.8304665, "fusion_lon": 0.0, "rental_uris": {"ios": "https://dc.lft.to/lastmile_qr_scan", "android": "https://dc.lft.to/lastmile_qr_scan"}, "lon": -77.00817916666666, "bike_id": "7820851747407f9b3d1ee4d97c5cbdb6", "type": "electric_bike", "name": "7820851747407f9b3d1ee4d97c5cbdb6"}, {"is_disabled": 0, "is_reserved": 0, "fusion_lat": 0.0, "lat": 38.8996595, "fusion_lon": 0.0, "rental_uris": {"ios": "https://dc.lft.to/lastmile_qr_scan", "android": "https://dc.lft.to/lastmile_qr_scan"}, "lon": -76.9376135, "bike_id": "36cf386c6f3cbbbb13c52a46d171c1bd", "type": "electric_scooter", "name": "36cf386c6f3cbbbb13c52a46d171c1bd"}, {"is_disabled": 0, "is_reserved": 0, "fusion_lat": 0.0, "lat": 38.90916683333333, "fusion_lon": 0.0, "rental_uris": {"ios": "https://dc.lft.to/lastmile_qr_scan", "android": "https://dc.lft.to/lastmile_qr_scan"}, "lon": -77.0339565, "bike_id": "3d8edd16a744ab9ab98e42e8a5ffdd86", "type": "electric_scooter", "name": "3d8edd16a744ab9ab98e42e8a5ffdd86"}, {"is_disabled": 0, "is_reserved": 0, "fusion_lat": 0.0, "lat": 38.92387633333333, "fusion_lon": 0.0, "rental_uris": {"ios": "https://dc.lft.to/lastmile_qr_scan", "android": "https://dc.lft.to/lastmile_qr_scan"}, "lon": -77.03116033333333, "bike_id": "08a44cf15b5793c7b4dd541070ab3ef1", "type": "electric_scooter", "name": "08a44cf15b5793c7b4dd541070ab3ef1"}, {"is_disabled": 0, "is_reserved": 0, "fusion_lat": 0.0, "lat": 38.876847166666664, "fusion_lon": 0.0, "rental_uris": {"ios": "https://dc.lft.to/lastmile_qr_scan", "android": "https://dc.lft.to/lastmile_qr_scan"}, "lon": -77.0007255, "bike_id": "bc1826d8bb51558fba8640b3731bc8b8", "type": "electric_scooter", "name": "bc1826d8bb51558fba8640b3731bc8b8"}, {"is_disabled": 0, "is_reserved": 0, "fusion_lat": 0.0, "lat": 38.921498, "fusion_lon": 0.0, "rental_uris": {"ios": "https://dc.lft.to/lastmile_qr_scan", "android": "https://dc.lft.to/lastmile_qr_scan"}, "lon": -77.035034, "bike_id": "491691111d5a96a33e1cff7058d6876c", "type": "electric_scooter", "name": "491691111d5a96a33e1cff7058d6876c"}, {"is_disabled": 0, "is_reserved": 0, "fusion_lat": 0.0, "lat": 38.91345616666667, "fusion_lon": 0.0, "rental_uris": {"ios": "https://dc.lft.to/lastmile_qr_scan", "android": "https://dc.lft.to/lastmile_qr_scan"}, "lon": -77.02873733333334, "bike_id": "000bed8421efab48b52b44f8c55f040e", "type": "electric_scooter", "name": "000bed8421efab48b52b44f8c55f040e"}, {"is_disabled": 0, "is_reserved": 0, "fusion_lat": 0.0, "lat": 38.94139783333333, "fusion_lon": 0.0, "rental_uris": {"ios": "https://dc.lft.to/lastmile_qr_scan", "android": "https://dc.lft.to/lastmile_qr_scan"}, "lon": -77.02318783333334, "bike_id": "452d252fb328ddb5a99d01dfba2fbecf", "type": "electric_scooter", "name": "452d252fb328ddb5a99d01dfba2fbecf"}, {"is_disabled": 0, "is_reserved": 0, "fusion_lat": 0.0, "lat": 38.896049, "fusion_lon": 0.0, "rental_uris": {"ios": "https://dc.lft.to/lastmile_qr_scan", "android": "https://dc.lft.to/lastmile_qr_scan"}, "lon": -77.04684766666666, "bike_id": "523156c5a8d8eaa250ceb2a347a5c0dd", "type": "electric_scooter", "name": "523156c5a8d8eaa250ceb2a347a5c0dd"}, {"is_disabled": 0, "is_reserved": 0, "fusion_lat": 0.0, "lat": 38.922092666666664, "fusion_lon": 0.0, "rental_uris": {"ios": "https://dc.lft.to/lastmile_qr_scan", "android": "https://dc.lft.to/lastmile_qr_scan"}, "lon": -77.03773916666667, "bike_id": "139431e4d34cb61a9ce3e450dbe5201a", "type": "electric_scooter", "name": "139431e4d34cb61a9ce3e450dbe5201a"}, {"is_disabled": 0, "is_reserved": 0, "fusion_lat": 0.0, "lat": 38.930630666666666, "fusion_lon": 0.0, "rental_uris": {"ios": "https://dc.lft.to/lastmile_qr_scan", "android": "https://dc.lft.to/lastmile_qr_scan"}, "lon": -77.03211683333333, "bike_id": "1bebe3c5168a8d44ffca13f8a0fd9cee", "type": "electric_scooter", "name": "1bebe3c5168a8d44ffca13f8a0fd9cee"}, {"is_disabled": 0, "is_reserved": 0, "fusion_lat": 0.0, "lat": 38.935395, "fusion_lon": 0.0, "rental_uris": {"ios": "https://dc.lft.to/lastmile_qr_scan", "android": "https://dc.lft.to/lastmile_qr_scan"}, "lon": -77.02352316666666, "bike_id": "0a0e02ae17c866f0ab1999368f6d13ca", "type": "electric_scooter", "name": "0a0e02ae17c866f0ab1999368f6d13ca"}, {"is_disabled": 0, "is_reserved": 0, "fusion_lat": 0.0, "lat": 38.92813183333333, "fusion_lon": 0.0, "rental_uris": {"ios": "https://dc.lft.to/lastmile_qr_scan", "android": "https://dc.lft.to/lastmile_qr_scan"}, "lon": -77.043637, "bike_id": "aa2d38e8bb880f36d1441191eabca0f1", "type": "electric_scooter", "name": "aa2d38e8bb880f36d1441191eabca0f1"}, {"is_disabled": 0, "is_reserved": 0, "fusion_lat": 0.0, "lat": 38.89724116666667, "fusion_lon": 0.0, "rental_uris": {"ios": "https://dc.lft.to/lastmile_qr_scan", "android": "https://dc.lft.to/lastmile_qr_scan"}, "lon": -77.02400233333333, "bike_id": "a60d2870a7ad35b707521db6adcd8154", "type": "electric_scooter", "name": "a60d2870a7ad35b707521db6adcd8154"}, {"is_disabled": 0, "is_reserved": 0, "fusion_lat": 0.0, "lat": 38.903991166666664, "fusion_lon": 0.0, "rental_uris": {"ios": "https://dc.lft.to/lastmile_qr_scan", "android": "https://dc.lft.to/lastmile_qr_scan"}, "lon": -77.0629035, "bike_id": "e81e99d24978a9e8c08307c8d854ed61", "type": "electric_scooter", "name": "e81e99d24978a9e8c08307c8d854ed61"}, {"is_disabled": 0, "is_reserved": 0, "fusion_lat": 0.0, "lat": 38.9223855, "fusion_lon": 0.0, "rental_uris": {"ios": "https://dc.lft.to/lastmile_qr_scan", "android": "https://dc.lft.to/lastmile_qr_scan"}, "lon": -77.03521433333333, "bike_id": "c1e1c2a37b693377cb78760fd870fc27", "type": "electric_scooter", "name": "c1e1c2a37b693377cb78760fd870fc27"}, {"is_disabled": 0, "is_reserved": 0, "fusion_lat": 0.0, "lat": 38.899185333333335, "fusion_lon": 0.0, "rental_uris": {"ios": "https://dc.lft.to/lastmile_qr_scan", "android": "https://dc.lft.to/lastmile_qr_scan"}, "lon": -77.03979416666667, "bike_id": "ebe8ba2dd413986012d5bb94f9c017d3", "type": "electric_scooter", "name": "ebe8ba2dd413986012d5bb94f9c017d3"}, {"is_disabled": 0, "is_reserved": 0, "fusion_lat": 0.0, "lat": 38.90421933333333, "fusion_lon": 0.0, "rental_uris": {"ios": "https://dc.lft.to/lastmile_qr_scan", "android": "https://dc.lft.to/lastmile_qr_scan"}, "lon": -77.02967433333333, "bike_id": "964bc7c147b5dbf85580ddaf58012795", "type": "electric_scooter", "name": "964bc7c147b5dbf85580ddaf58012795"}, {"is_disabled": 0, "is_reserved": 0, "fusion_lat": 0.0, "lat": 38.90513216666667, "fusion_lon": 0.0, "rental_uris": {"ios": "https://dc.lft.to/lastmile_qr_scan", "android": "https://dc.lft.to/lastmile_qr_scan"}, "lon": -77.0091505, "bike_id": "6202aa16afac6b43416bba0fa6dcd339", "type": "electric_scooter", "name": "6202aa16afac6b43416bba0fa6dcd339"}, {"is_disabled": 0, "is_reserved": 0, "fusion_lat": 0.0, "lat": 38.90427066666667, "fusion_lon": 0.0, "rental_uris": {"ios": "https://dc.lft.to/lastmile_qr_scan", "android": "https://dc.lft.to/lastmile_qr_scan"}, "lon": -77.06107783333333, "bike_id": "f792ec1d5c72ea9e5f28ea1da1b171b0", "type": "electric_scooter", "name": "f792ec1d5c72ea9e5f28ea1da1b171b0"}, {"is_disabled": 0, "is_reserved": 0, "fusion_lat": 0.0, "lat": 38.92877983333333, "fusion_lon": 0.0, "rental_uris": {"ios": "https://dc.lft.to/lastmile_qr_scan", "android": "https://dc.lft.to/lastmile_qr_scan"}, "lon": -77.03988566666666, "bike_id": "55d649af0977fbc20c7ec59617086816", "type": "electric_scooter", "name": "55d649af0977fbc20c7ec59617086816"}, {"is_disabled": 0, "is_reserved": 0, "fusion_lat": 0.0, "lat": 38.91827333333333, "fusion_lon": 0.0, "rental_uris": {"ios": "https://dc.lft.to/lastmile_qr_scan", "android": "https://dc.lft.to/lastmile_qr_scan"}, "lon": -77.02422266666666, "bike_id": "81b3cadfdaabe767acf9c0e30e460d2f", "type": "electric_scooter", "name": "81b3cadfdaabe767acf9c0e30e460d2f"}, {"is_disabled": 0, "is_reserved": 0, "fusion_lat": 0.0, "lat": 38.9195545, "fusion_lon": 0.0, "rental_uris": {"ios": "https://dc.lft.to/lastmile_qr_scan", "android": "https://dc.lft.to/lastmile_qr_scan"}, "lon": -77.02304066666666, "bike_id": "f4706c35797fac5b69bd46bf017c1a28", "type": "electric_scooter", "name": "f4706c35797fac5b69bd46bf017c1a28"}, {"is_disabled": 0, "is_reserved": 0, "fusion_lat": 0.0, "lat": 38.944504333333335, "fusion_lon": 0.0, "rental_uris": {"ios": "https://dc.lft.to/lastmile_qr_scan", "android": "https://dc.lft.to/lastmile_qr_scan"}, "lon": -77.03283016666667, "bike_id": "2e980ec1a3b6e3f516566b908c7b107e", "type": "electric_scooter", "name": "2e980ec1a3b6e3f516566b908c7b107e"}, {"is_disabled": 0, "is_reserved": 0, "fusion_lat": 0.0, "lat": 38.87379133333334, "fusion_lon": 0.0, "rental_uris": {"ios": "https://dc.lft.to/lastmile_qr_scan", "android": "https://dc.lft.to/lastmile_qr_scan"}, "lon": -77.00923533333334, "bike_id": "ad2a3758eaf310969e646e69bde6f110", "type": "electric_bike", "name": "ad2a3758eaf310969e646e69bde6f110"}, {"is_disabled": 0, "is_reserved": 0, "fusion_lat": 0.0, "lat": 38.90654766666667, "fusion_lon": 0.0, "rental_uris": {"ios": "https://dc.lft.to/lastmile_qr_scan", "android": "https://dc.lft.to/lastmile_qr_scan"}, "lon": -76.97940466666667, "bike_id": "48c4bbde8360a1689da1ff5719bb3574", "type": "electric_scooter", "name": "48c4bbde8360a1689da1ff5719bb3574"}, {"is_disabled": 0, "is_reserved": 0, "fusion_lat": 0.0, "lat": 38.935444833333335, "fusion_lon": 0.0, "rental_uris": {"ios": "https://dc.lft.to/lastmile_qr_scan", "android": "https://dc.lft.to/lastmile_qr_scan"}, "lon": -77.05438, "bike_id": "09516604a779c2d588bf7720c937ec01", "type": "electric_scooter", "name": "09516604a779c2d588bf7720c937ec01"}, {"is_disabled": 0, "is_reserved": 0, "fusion_lat": 0.0, "lat": 38.90573666666667, "fusion_lon": 0.0, "rental_uris": {"ios": "https://dc.lft.to/lastmile_qr_scan", "android": "https://dc.lft.to/lastmile_qr_scan"}, "lon": -77.02013783333334, "bike_id": "c9c179fb16e5837cfae14af3a6ce455e", "type": "electric_scooter", "name": "c9c179fb16e5837cfae14af3a6ce455e"}, {"is_disabled": 0, "is_reserved": 0, "fusion_lat": 0.0, "lat": 38.913558333333334, "fusion_lon": 0.0, "rental_uris": {"ios": "https://dc.lft.to/lastmile_qr_scan", "android": "https://dc.lft.to/lastmile_qr_scan"}, "lon": -77.04659566666666, "bike_id": "5d0f1255d3c760b84209206d921d9e5e", "type": "electric_scooter", "name": "5d0f1255d3c760b84209206d921d9e5e"}, {"is_disabled": 0, "is_reserved": 0, "fusion_lat": 0.0, "lat": 38.9024285, "fusion_lon": 0.0, "rental_uris": {"ios": "https://dc.lft.to/lastmile_qr_scan", "android": "https://dc.lft.to/lastmile_qr_scan"}, "lon": -77.0383075, "bike_id": "adc064787601b57db85e9c492fb7767e", "type": "electric_scooter", "name": "adc064787601b57db85e9c492fb7767e"}, {"is_disabled": 0, "is_reserved": 0, "fusion_lat": 0.0, "lat": 38.912263, "fusion_lon": 0.0, "rental_uris": {"ios": "https://dc.lft.to/lastmile_qr_scan", "android": "https://dc.lft.to/lastmile_qr_scan"}, "lon": -77.00661183333334, "bike_id": "8cb2b60ac4d8b43c54f08d1e9113dbd8", "type": "electric_scooter", "name": "8cb2b60ac4d8b43c54f08d1e9113dbd8"}, {"is_disabled": 0, "is_reserved": 0, "fusion_lat": 0.0, "lat": 38.8618565, "fusion_lon": 0.0, "rental_uris": {"ios": "https://dc.lft.to/lastmile_qr_scan", "android": "https://dc.lft.to/lastmile_qr_scan"}, "lon": -77.08818683333334, "bike_id": "cd5d8023fbd311eb46a5e7dffc3398c5", "type": "electric_bike", "name": "cd5d8023fbd311eb46a5e7dffc3398c5"}, {"is_disabled": 0, "is_reserved": 0, "fusion_lat": 0.0, "lat": 38.914524166666666, "fusion_lon": 0.0, "rental_uris": {"ios": "https://dc.lft.to/lastmile_qr_scan", "android": "https://dc.lft.to/lastmile_qr_scan"}, "lon": -77.02186683333333, "bike_id": "d485e6a6e708472a3da5b28ec4ac3d57", "type": "electric_scooter", "name": "d485e6a6e708472a3da5b28ec4ac3d57"}, {"is_disabled": 0, "is_reserved": 0, "fusion_lat": 0.0, "lat": 38.92166616666667, "fusion_lon": 0.0, "rental_uris": {"ios": "https://dc.lft.to/lastmile_qr_scan", "android": "https://dc.lft.to/lastmile_qr_scan"}, "lon": -77.03664333333333, "bike_id": "547fe6d546e1e30e08f6304de89eb97d", "type": "electric_scooter", "name": "547fe6d546e1e30e08f6304de89eb97d"}, {"is_disabled": 0, "is_reserved": 0, "fusion_lat": 0.0, "lat": 38.90840383333333, "fusion_lon": 0.0, "rental_uris": {"ios": "https://dc.lft.to/lastmile_qr_scan", "android": "https://dc.lft.to/lastmile_qr_scan"}, "lon": -77.029554, "bike_id": "93cb35b8cb2760aa583fc36ee7bc1eb3", "type": "electric_scooter", "name": "93cb35b8cb2760aa583fc36ee7bc1eb3"}, {"is_disabled": 0, "is_reserved": 0, "fusion_lat": 0.0, "lat": 38.899211666666666, "fusion_lon": 0.0, "rental_uris": {"ios": "https://dc.lft.to/lastmile_qr_scan", "android": "https://dc.lft.to/lastmile_qr_scan"}, "lon": -77.00365733333334, "bike_id": "96850fb92e49085d3a2e9ef7ae5cdac8", "type": "electric_scooter", "name": "96850fb92e49085d3a2e9ef7ae5cdac8"}, {"is_disabled": 0, "is_reserved": 0, "fusion_lat": 0.0, "lat": 38.902646833333336, "fusion_lon": 0.0, "rental_uris": {"ios": "https://dc.lft.to/lastmile_qr_scan", "android": "https://dc.lft.to/lastmile_qr_scan"}, "lon": -77.01836683333333, "bike_id": "cc7edc02bf0d99c77da166718fded480", "type": "electric_scooter", "name": "cc7edc02bf0d99c77da166718fded480"}, {"is_disabled": 0, "is_reserved": 0, "fusion_lat": 0.0, "lat": 38.90549983333333, "fusion_lon": 0.0, "rental_uris": {"ios": "https://dc.lft.to/lastmile_qr_scan", "android": "https://dc.lft.to/lastmile_qr_scan"}, "lon": -77.0217845, "bike_id": "6c35957a1bffa700c6171a5ecb3c6d03", "type": "electric_scooter", "name": "6c35957a1bffa700c6171a5ecb3c6d03"}, {"is_disabled": 0, "is_reserved": 0, "fusion_lat": 0.0, "lat": 38.91671383333333, "fusion_lon": 0.0, "rental_uris": {"ios": "https://dc.lft.to/lastmile_qr_scan", "android": "https://dc.lft.to/lastmile_qr_scan"}, "lon": -77.03184983333334, "bike_id": "1236f3933fa7939e46b0a655264485ad", "type": "electric_scooter", "name": "1236f3933fa7939e46b0a655264485ad"}, {"is_disabled": 0, "is_reserved": 0, "fusion_lat": 0.0, "lat": 38.915562666666666, "fusion_lon": 0.0, "rental_uris": {"ios": "https://dc.lft.to/lastmile_qr_scan", "android": "https://dc.lft.to/lastmile_qr_scan"}, "lon": -77.05405666666667, "bike_id": "152ee54b0adef22c58f3ef24914450a0", "type": "electric_scooter", "name": "152ee54b0adef22c58f3ef24914450a0"}, {"is_disabled": 0, "is_reserved": 0, "fusion_lat": 0.0, "lat": 38.9096455, "fusion_lon": 0.0, "rental_uris": {"ios": "https://dc.lft.to/lastmile_qr_scan", "android": "https://dc.lft.to/lastmile_qr_scan"}, "lon": -77.03419233333334, "bike_id": "5945180c963af67c09afdfa64afc8d4f", "type": "electric_scooter", "name": "5945180c963af67c09afdfa64afc8d4f"}, {"is_disabled": 0, "is_reserved": 0, "fusion_lat": 0.0, "lat": 38.909652, "fusion_lon": 0.0, "rental_uris": {"ios": "https://dc.lft.to/lastmile_qr_scan", "android": "https://dc.lft.to/lastmile_qr_scan"}, "lon": -77.03424433333333, "bike_id": "72c34dea7382bdc22cb4857f138bb0af", "type": "electric_scooter", "name": "72c34dea7382bdc22cb4857f138bb0af"}, {"is_disabled": 0, "is_reserved": 0, "fusion_lat": 0.0, "lat": 38.91207283333333, "fusion_lon": 0.0, "rental_uris": {"ios": "https://dc.lft.to/lastmile_qr_scan", "android": "https://dc.lft.to/lastmile_qr_scan"}, "lon": -77.02098366666667, "bike_id": "3eca6eea4b2023cda263d9aa60a5b62e", "type": "electric_scooter", "name": "3eca6eea4b2023cda263d9aa60a5b62e"}, {"is_disabled": 0, "is_reserved": 0, "fusion_lat": 0.0, "lat": 38.91815716666667, "fusion_lon": 0.0, "rental_uris": {"ios": "https://dc.lft.to/lastmile_qr_scan", "android": "https://dc.lft.to/lastmile_qr_scan"}, "lon": -77.0251905, "bike_id": "a30c77ba44bcf782a157900270439c6f", "type": "electric_scooter", "name": "a30c77ba44bcf782a157900270439c6f"}, {"is_disabled": 0, "is_reserved": 0, "fusion_lat": 0.0, "lat": 38.9308695, "fusion_lon": 0.0, "rental_uris": {"ios": "https://dc.lft.to/lastmile_qr_scan", "android": "https://dc.lft.to/lastmile_qr_scan"}, "lon": -77.03208833333333, "bike_id": "f99d49e56d557e5f785e06cbf739aae0", "type": "electric_scooter", "name": "f99d49e56d557e5f785e06cbf739aae0"}, {"is_disabled": 0, "is_reserved": 0, "fusion_lat": 0.0, "lat": 38.9313065, "fusion_lon": 0.0, "rental_uris": {"ios": "https://dc.lft.to/lastmile_qr_scan", "android": "https://dc.lft.to/lastmile_qr_scan"}, "lon": -77.02346416666667, "bike_id": "47a557be21d65559ed2d50e210f500db", "type": "electric_scooter", "name": "47a557be21d65559ed2d50e210f500db"}, {"is_disabled": 0, "is_reserved": 0, "fusion_lat": 0.0, "lat": 38.904501333333336, "fusion_lon": 0.0, "rental_uris": {"ios": "https://dc.lft.to/lastmile_qr_scan", "android": "https://dc.lft.to/lastmile_qr_scan"}, "lon": -76.9963205, "bike_id": "1581a86bab6a77b2b67427d86e427e81", "type": "electric_scooter", "name": "1581a86bab6a77b2b67427d86e427e81"}, {"is_disabled": 0, "is_reserved": 0, "fusion_lat": 0.0, "lat": 38.92234083333334, "fusion_lon": 0.0, "rental_uris": {"ios": "https://dc.lft.to/lastmile_qr_scan", "android": "https://dc.lft.to/lastmile_qr_scan"}, "lon": -77.04016566666667, "bike_id": "03cb64391a874704ad86938f5587f105", "type": "electric_scooter", "name": "03cb64391a874704ad86938f5587f105"}, {"is_disabled": 0, "is_reserved": 0, "fusion_lat": 0.0, "lat": 38.90691666666667, "fusion_lon": 0.0, "rental_uris": {"ios": "https://dc.lft.to/lastmile_qr_scan", "android": "https://dc.lft.to/lastmile_qr_scan"}, "lon": -77.063243, "bike_id": "1f04bd6ad73feff446b95c4582f04193", "type": "electric_scooter", "name": "1f04bd6ad73feff446b95c4582f04193"}, {"is_disabled": 0, "is_reserved": 0, "fusion_lat": 0.0, "lat": 38.89485666666667, "fusion_lon": 0.0, "rental_uris": {"ios": "https://dc.lft.to/lastmile_qr_scan", "android": "https://dc.lft.to/lastmile_qr_scan"}, "lon": -76.97878966666667, "bike_id": "4e685e8b29fc2eddad3c0534de3f2136", "type": "electric_scooter", "name": "4e685e8b29fc2eddad3c0534de3f2136"}, {"is_disabled": 0, "is_reserved": 0, "fusion_lat": 0.0, "lat": 38.8922725, "fusion_lon": 0.0, "rental_uris": {"ios": "https://dc.lft.to/lastmile_qr_scan", "android": "https://dc.lft.to/lastmile_qr_scan"}, "lon": -77.03338266666667, "bike_id": "e55925f9a9ad31adbfe17c54b7da0054", "type": "electric_scooter", "name": "e55925f9a9ad31adbfe17c54b7da0054"}, {"is_disabled": 0, "is_reserved": 0, "fusion_lat": 0.0, "lat": 38.91569, "fusion_lon": 0.0, "rental_uris": {"ios": "https://dc.lft.to/lastmile_qr_scan", "android": "https://dc.lft.to/lastmile_qr_scan"}, "lon": -77.03185866666666, "bike_id": "56e4e3e49b34746af817ac67fafd62c7", "type": "electric_scooter", "name": "56e4e3e49b34746af817ac67fafd62c7"}, {"is_disabled": 0, "is_reserved": 0, "fusion_lat": 0.0, "lat": 38.912674833333334, "fusion_lon": 0.0, "rental_uris": {"ios": "https://dc.lft.to/lastmile_qr_scan", "android": "https://dc.lft.to/lastmile_qr_scan"}, "lon": -77.03034033333333, "bike_id": "6ef1240cfaa9d3de56f7ab1a77b2e91c", "type": "electric_scooter", "name": "6ef1240cfaa9d3de56f7ab1a77b2e91c"}, {"is_disabled": 0, "is_reserved": 0, "fusion_lat": 0.0, "lat": 38.9006305, "fusion_lon": 0.0, "rental_uris": {"ios": "https://dc.lft.to/lastmile_qr_scan", "android": "https://dc.lft.to/lastmile_qr_scan"}, "lon": -77.00671466666667, "bike_id": "a3e262275807ad36928f21313c6d6e0e", "type": "electric_scooter", "name": "a3e262275807ad36928f21313c6d6e0e"}, {"is_disabled": 0, "is_reserved": 0, "fusion_lat": 0.0, "lat": 38.92269266666667, "fusion_lon": 0.0, "rental_uris": {"ios": "https://dc.lft.to/lastmile_qr_scan", "android": "https://dc.lft.to/lastmile_qr_scan"}, "lon": -77.036373, "bike_id": "b27596243d1a693443c14b183a33ad72", "type": "electric_scooter", "name": "b27596243d1a693443c14b183a33ad72"}, {"is_disabled": 0, "is_reserved": 0, "fusion_lat": 0.0, "lat": 38.91354583333333, "fusion_lon": 0.0, "rental_uris": {"ios": "https://dc.lft.to/lastmile_qr_scan", "android": "https://dc.lft.to/lastmile_qr_scan"}, "lon": -76.97139583333333, "bike_id": "79ebf4c7294f36b360f485cb5fe8cdfb", "type": "electric_scooter", "name": "79ebf4c7294f36b360f485cb5fe8cdfb"}, {"is_disabled": 0, "is_reserved": 0, "fusion_lat": 0.0, "lat": 38.8838085, "fusion_lon": 0.0, "rental_uris": {"ios": "https://dc.lft.to/lastmile_qr_scan", "android": "https://dc.lft.to/lastmile_qr_scan"}, "lon": -77.046074, "bike_id": "49723c90df0aba60b15d32479d3e899e", "type": "electric_scooter", "name": "49723c90df0aba60b15d32479d3e899e"}, {"is_disabled": 0, "is_reserved": 0, "fusion_lat": 0.0, "lat": 38.92502316666667, "fusion_lon": 0.0, "rental_uris": {"ios": "https://dc.lft.to/lastmile_qr_scan", "android": "https://dc.lft.to/lastmile_qr_scan"}, "lon": -77.02357533333333, "bike_id": "458347abc8ef0d2d6e9d9d8d708e16f6", "type": "electric_scooter", "name": "458347abc8ef0d2d6e9d9d8d708e16f6"}, {"is_disabled": 0, "is_reserved": 0, "fusion_lat": 0.0, "lat": 38.9170885, "fusion_lon": 0.0, "rental_uris": {"ios": "https://dc.lft.to/lastmile_qr_scan", "android": "https://dc.lft.to/lastmile_qr_scan"}, "lon": -77.0229875, "bike_id": "908111cc363980dba8d1950ad7237ebe", "type": "electric_scooter", "name": "908111cc363980dba8d1950ad7237ebe"}, {"is_disabled": 0, "is_reserved": 0, "fusion_lat": 0.0, "lat": 38.90017183333333, "fusion_lon": 0.0, "rental_uris": {"ios": "https://dc.lft.to/lastmile_qr_scan", "android": "https://dc.lft.to/lastmile_qr_scan"}, "lon": -77.00690916666667, "bike_id": "a1c1d111fedf9aaebd2d4a56c9414014", "type": "electric_scooter", "name": "a1c1d111fedf9aaebd2d4a56c9414014"}, {"is_disabled": 0, "is_reserved": 0, "fusion_lat": 0.0, "lat": 38.89199466666667, "fusion_lon": 0.0, "rental_uris": {"ios": "https://dc.lft.to/lastmile_qr_scan", "android": "https://dc.lft.to/lastmile_qr_scan"}, "lon": -77.03174916666667, "bike_id": "383c000cf8959344168c71784540e752", "type": "electric_scooter", "name": "383c000cf8959344168c71784540e752"}, {"is_disabled": 0, "is_reserved": 0, "fusion_lat": 0.0, "lat": 38.929818, "fusion_lon": 0.0, "rental_uris": {"ios": "https://dc.lft.to/lastmile_qr_scan", "android": "https://dc.lft.to/lastmile_qr_scan"}, "lon": -77.03893683333334, "bike_id": "1d9b73d076a9af5da47d2cd77d03f7fa", "type": "electric_scooter", "name": "1d9b73d076a9af5da47d2cd77d03f7fa"}, {"is_disabled": 0, "is_reserved": 0, "fusion_lat": 0.0, "lat": 38.9103675, "fusion_lon": 0.0, "rental_uris": {"ios": "https://dc.lft.to/lastmile_qr_scan", "android": "https://dc.lft.to/lastmile_qr_scan"}, "lon": -76.92332916666666, "bike_id": "56375bcee2cd6204bc0712e6820c5154", "type": "electric_bike", "name": "56375bcee2cd6204bc0712e6820c5154"}, {"is_disabled": 0, "is_reserved": 0, "fusion_lat": 0.0, "lat": 38.882195833333334, "fusion_lon": 0.0, "rental_uris": {"ios": "https://dc.lft.to/lastmile_qr_scan", "android": "https://dc.lft.to/lastmile_qr_scan"}, "lon": -76.99740566666667, "bike_id": "a1206bfc25013c2da6e1ec9c90b191ca", "type": "electric_scooter", "name": "a1206bfc25013c2da6e1ec9c90b191ca"}, {"is_disabled": 0, "is_reserved": 0, "fusion_lat": 0.0, "lat": 38.87308983333333, "fusion_lon": 0.0, "rental_uris": {"ios": "https://dc.lft.to/lastmile_qr_scan", "android": "https://dc.lft.to/lastmile_qr_scan"}, "lon": -77.01071866666666, "bike_id": "3b814d0b05180349cbab76cedb7dfa58", "type": "electric_scooter", "name": "3b814d0b05180349cbab76cedb7dfa58"}, {"is_disabled": 0, "is_reserved": 0, "fusion_lat": 0.0, "lat": 38.94602183333333, "fusion_lon": 0.0, "rental_uris": {"ios": "https://dc.lft.to/lastmile_qr_scan", "android": "https://dc.lft.to/lastmile_qr_scan"}, "lon": -77.0267235, "bike_id": "a06e14023a8a2385f3916c6ac68fa3d4", "type": "electric_scooter", "name": "a06e14023a8a2385f3916c6ac68fa3d4"}, {"is_disabled": 0, "is_reserved": 0, "fusion_lat": 0.0, "lat": 38.8564205, "fusion_lon": 0.0, "rental_uris": {"ios": "https://dc.lft.to/lastmile_qr_scan", "android": "https://dc.lft.to/lastmile_qr_scan"}, "lon": -77.06832633333333, "bike_id": "3f41f063077f22c490667e76d1ba6138", "type": "electric_bike", "name": "3f41f063077f22c490667e76d1ba6138"}, {"is_disabled": 0, "is_reserved": 0, "fusion_lat": 0.0, "lat": 38.89224433333333, "fusion_lon": 0.0, "rental_uris": {"ios": "https://dc.lft.to/lastmile_qr_scan", "android": "https://dc.lft.to/lastmile_qr_scan"}, "lon": -77.04335566666667, "bike_id": "6da809732f4684937d69308fb079b408", "type": "electric_scooter", "name": "6da809732f4684937d69308fb079b408"}, {"is_disabled": 0, "is_reserved": 0, "fusion_lat": 0.0, "lat": 38.920501333333334, "fusion_lon": 0.0, "rental_uris": {"ios": "https://dc.lft.to/lastmile_qr_scan", "android": "https://dc.lft.to/lastmile_qr_scan"}, "lon": -77.02577566666666, "bike_id": "e39b88177000d5f50cfa7a9d667fb71c", "type": "electric_scooter", "name": "e39b88177000d5f50cfa7a9d667fb71c"}, {"is_disabled": 0, "is_reserved": 0, "fusion_lat": 0.0, "lat": 38.824312, "fusion_lon": 0.0, "rental_uris": {"ios": "https://dc.lft.to/lastmile_qr_scan", "android": "https://dc.lft.to/lastmile_qr_scan"}, "lon": -77.1204085, "bike_id": "cf219f3656fa76b5d068e96951de8709", "type": "electric_bike", "name": "cf219f3656fa76b5d068e96951de8709"}, {"is_disabled": 0, "is_reserved": 0, "fusion_lat": 0.0, "lat": 38.929472833333335, "fusion_lon": 0.0, "rental_uris": {"ios": "https://dc.lft.to/lastmile_qr_scan", "android": "https://dc.lft.to/lastmile_qr_scan"}, "lon": -77.05484483333333, "bike_id": "97a9e4bdb9559c2d0cde7e1319f58065", "type": "electric_scooter", "name": "97a9e4bdb9559c2d0cde7e1319f58065"}, {"is_disabled": 0, "is_reserved": 0, "fusion_lat": 0.0, "lat": 38.86567483333333, "fusion_lon": 0.0, "rental_uris": {"ios": "https://dc.lft.to/lastmile_qr_scan", "android": "https://dc.lft.to/lastmile_qr_scan"}, "lon": -76.9746625, "bike_id": "a6600f99f34de1aa52bbacf89d1d7550", "type": "electric_bike", "name": "a6600f99f34de1aa52bbacf89d1d7550"}, {"is_disabled": 0, "is_reserved": 0, "fusion_lat": 0.0, "lat": 38.9617605, "fusion_lon": 0.0, "rental_uris": {"ios": "https://dc.lft.to/lastmile_qr_scan", "android": "https://dc.lft.to/lastmile_qr_scan"}, "lon": -77.03227916666667, "bike_id": "78268e8228a644c84a238bb730d9c857", "type": "electric_scooter", "name": "78268e8228a644c84a238bb730d9c857"}, {"is_disabled": 0, "is_reserved": 0, "fusion_lat": 0.0, "lat": 38.949807666666665, "fusion_lon": 0.0, "rental_uris": {"ios": "https://dc.lft.to/lastmile_qr_scan", "android": "https://dc.lft.to/lastmile_qr_scan"}, "lon": -77.02447583333333, "bike_id": "a87be95cf59833e5a0a5f90af251c3bc", "type": "electric_scooter", "name": "a87be95cf59833e5a0a5f90af251c3bc"}, {"is_disabled": 0, "is_reserved": 0, "fusion_lat": 0.0, "lat": 38.937029, "fusion_lon": 0.0, "rental_uris": {"ios": "https://dc.lft.to/lastmile_qr_scan", "android": "https://dc.lft.to/lastmile_qr_scan"}, "lon": -77.05681933333334, "bike_id": "9a940664231ea7fec0dd8a267a1713a6", "type": "electric_scooter", "name": "9a940664231ea7fec0dd8a267a1713a6"}, {"is_disabled": 0, "is_reserved": 0, "fusion_lat": 0.0, "lat": 38.8941355, "fusion_lon": 0.0, "rental_uris": {"ios": "https://dc.lft.to/lastmile_qr_scan", "android": "https://dc.lft.to/lastmile_qr_scan"}, "lon": -77.021355, "bike_id": "1253e3857b60cf4251c80ea9a5f70a42", "type": "electric_scooter", "name": "1253e3857b60cf4251c80ea9a5f70a42"}, {"is_disabled": 0, "is_reserved": 0, "fusion_lat": 0.0, "lat": 38.9321815, "fusion_lon": 0.0, "rental_uris": {"ios": "https://dc.lft.to/lastmile_qr_scan", "android": "https://dc.lft.to/lastmile_qr_scan"}, "lon": -77.03652933333333, "bike_id": "1dadc8386e254adb02daa212e9c14a6f", "type": "electric_scooter", "name": "1dadc8386e254adb02daa212e9c14a6f"}, {"is_disabled": 0, "is_reserved": 0, "fusion_lat": 0.0, "lat": 38.924549999999996, "fusion_lon": 0.0, "rental_uris": {"ios": "https://dc.lft.to/lastmile_qr_scan", "android": "https://dc.lft.to/lastmile_qr_scan"}, "lon": -77.03302516666666, "bike_id": "40a1c71f18b99ee814b5b3a120a416c4", "type": "electric_scooter", "name": "40a1c71f18b99ee814b5b3a120a416c4"}, {"is_disabled": 0, "is_reserved": 0, "fusion_lat": 0.0, "lat": 38.9245515, "fusion_lon": 0.0, "rental_uris": {"ios": "https://dc.lft.to/lastmile_qr_scan", "android": "https://dc.lft.to/lastmile_qr_scan"}, "lon": -77.0328815, "bike_id": "0cc93d921cd4f80644ae19f7d293b6ee", "type": "electric_scooter", "name": "0cc93d921cd4f80644ae19f7d293b6ee"}, {"is_disabled": 0, "is_reserved": 0, "fusion_lat": 0.0, "lat": 38.8950355, "fusion_lon": 0.0, "rental_uris": {"ios": "https://dc.lft.to/lastmile_qr_scan", "android": "https://dc.lft.to/lastmile_qr_scan"}, "lon": -77.03961833333334, "bike_id": "0b3e6ec4ebff377265517f05b8eade71", "type": "electric_scooter", "name": "0b3e6ec4ebff377265517f05b8eade71"}, {"is_disabled": 0, "is_reserved": 0, "fusion_lat": 0.0, "lat": 38.885126166666666, "fusion_lon": 0.0, "rental_uris": {"ios": "https://dc.lft.to/lastmile_qr_scan", "android": "https://dc.lft.to/lastmile_qr_scan"}, "lon": -77.01117183333334, "bike_id": "6c31e88ffa2a2bfef2d49e1caef9b1cc", "type": "electric_scooter", "name": "6c31e88ffa2a2bfef2d49e1caef9b1cc"}, {"is_disabled": 0, "is_reserved": 0, "fusion_lat": 0.0, "lat": 38.943628833333335, "fusion_lon": 0.0, "rental_uris": {"ios": "https://dc.lft.to/lastmile_qr_scan", "android": "https://dc.lft.to/lastmile_qr_scan"}, "lon": -77.061113, "bike_id": "c684efd46a4a1b758065efae3353d158", "type": "electric_scooter", "name": "c684efd46a4a1b758065efae3353d158"}, {"is_disabled": 0, "is_reserved": 0, "fusion_lat": 0.0, "lat": 38.906522, "fusion_lon": 0.0, "rental_uris": {"ios": "https://dc.lft.to/lastmile_qr_scan", "android": "https://dc.lft.to/lastmile_qr_scan"}, "lon": -77.05319766666666, "bike_id": "266f7bdfeceda71f0ed113e4a6440829", "type": "electric_scooter", "name": "266f7bdfeceda71f0ed113e4a6440829"}, {"is_disabled": 0, "is_reserved": 0, "fusion_lat": 0.0, "lat": 38.94105016666666, "fusion_lon": 0.0, "rental_uris": {"ios": "https://dc.lft.to/lastmile_qr_scan", "android": "https://dc.lft.to/lastmile_qr_scan"}, "lon": -76.95623833333333, "bike_id": "890e1f2622fa7dc67948ec2b133f0b11", "type": "electric_bike", "name": "890e1f2622fa7dc67948ec2b133f0b11"}, {"is_disabled": 0, "is_reserved": 0, "fusion_lat": 0.0, "lat": 38.967670166666664, "fusion_lon": 0.0, "rental_uris": {"ios": "https://dc.lft.to/lastmile_qr_scan", "android": "https://dc.lft.to/lastmile_qr_scan"}, "lon": -77.03428166666667, "bike_id": "99033ae24ce8860e4bbce45431e4823f", "type": "electric_scooter", "name": "99033ae24ce8860e4bbce45431e4823f"}, {"is_disabled": 0, "is_reserved": 0, "fusion_lat": 0.0, "lat": 38.927949166666664, "fusion_lon": 0.0, "rental_uris": {"ios": "https://dc.lft.to/lastmile_qr_scan", "android": "https://dc.lft.to/lastmile_qr_scan"}, "lon": -77.05263466666666, "bike_id": "798b36cd3c57c8d573b180af69d320d7", "type": "electric_scooter", "name": "798b36cd3c57c8d573b180af69d320d7"}, {"is_disabled": 0, "is_reserved": 0, "fusion_lat": 0.0, "lat": 38.90781033333333, "fusion_lon": 0.0, "rental_uris": {"ios": "https://dc.lft.to/lastmile_qr_scan", "android": "https://dc.lft.to/lastmile_qr_scan"}, "lon": -77.03547766666667, "bike_id": "fc28c9f7aaffac18a0ef77b227738140", "type": "electric_scooter", "name": "fc28c9f7aaffac18a0ef77b227738140"}, {"is_disabled": 0, "is_reserved": 0, "fusion_lat": 0.0, "lat": 38.886616333333336, "fusion_lon": 0.0, "rental_uris": {"ios": "https://dc.lft.to/lastmile_qr_scan", "android": "https://dc.lft.to/lastmile_qr_scan"}, "lon": -77.16229416666667, "bike_id": "1c40465f57e7f069cae90cdff2a441de", "type": "electric_bike", "name": "1c40465f57e7f069cae90cdff2a441de"}, {"is_disabled": 0, "is_reserved": 0, "fusion_lat": 0.0, "lat": 38.912697, "fusion_lon": 0.0, "rental_uris": {"ios": "https://dc.lft.to/lastmile_qr_scan", "android": "https://dc.lft.to/lastmile_qr_scan"}, "lon": -77.04548766666667, "bike_id": "86027459bdd52fa0809a57febf0239b8", "type": "electric_scooter", "name": "86027459bdd52fa0809a57febf0239b8"}, {"is_disabled": 0, "is_reserved": 0, "fusion_lat": 0.0, "lat": 38.921600166666664, "fusion_lon": 0.0, "rental_uris": {"ios": "https://dc.lft.to/lastmile_qr_scan", "android": "https://dc.lft.to/lastmile_qr_scan"}, "lon": -77.018297, "bike_id": "9b5bc54653a879f1f073fd7da7d764f0", "type": "electric_scooter", "name": "9b5bc54653a879f1f073fd7da7d764f0"},