{"data": {"bikes": [{"bike_id": "9a0067b4876a94b359a56fee112b3286", "type": "electric_scooter", "is_disabled": 0, "lat": 38.89753833333333, "rental_uris": {"ios": "https://dc.lft.to/lastmile_qr_scan", "android": "https://dc.lft.to/lastmile_qr_scan"}, "is_reserved": 0, "fusion_lon": 0.0, "fusion_lat": 0.0, "lon": -77.02443433333333, "name": "9a0067b4876a94b359a56fee112b3286"}, {"bike_id": "660fbb664063f7e9e90480630b6e1c94", "type": "electric_scooter", "is_disabled": 0, "lat": 38.91899216666667, "rental_uris": {"ios": "https://dc.lft.to/lastmile_qr_scan", "android": "https://dc.lft.to/lastmile_qr_scan"}, "is_reserved": 0, "fusion_lon": 0.0, "fusion_lat": 0.0, "lon": -77.01692983333334, "name": "660fbb664063f7e9e90480630b6e1c94"}, {"bike_id": "ab0de346e4172c58dab3014a96aa0391", "type": "electric_scooter", "is_disabled": 0, "lat": 38.87372716666667, "rental_uris": {"ios": "https://dc.lft.to/lastmile_qr_scan", "android": "https://dc.lft.to/lastmile_qr_scan"}, "is_reserved": 0, "fusion_lon": 0.0, "fusion_lat": 0.0, "lon": -77.0010875, "name": "ab0de346e4172c58dab3014a96aa0391"}, {"bike_id": "4b448ab3293abdbb1a0e80ae73959beb", "type": "electric_bike", "is_disabled": 0, "lat": 38.913046666666666, "rental_uris": {"ios": "https://dc.lft.to/lastmile_qr_scan", "android": "https://dc.lft.to/lastmile_qr_scan"}, "is_reserved": 0, "fusion_lon": 0.0, "fusion_lat": 0.0, "lon": -77.00641366666666, "name": "4b448ab3293abdbb1a0e80ae73959beb"}, {"bike_id": "93d98815c90270a7e51f12bc503f9622", "type": "electric_scooter", "is_disabled": 0, "lat": 38.920807833333335, "rental_uris": {"ios": "https://dc.lft.to/lastmile_qr_scan", "android": "https://dc.lft.to/lastmile_qr_scan"}, "is_reserved": 0, "fusion_lon": 0.0, "fusion_lat": 0.0, "lon": -77.02339416666666, "name": "93d98815c90270a7e51f12bc503f9622"}, {"bike_id": "4bf274b738155dc69fdba300c871f0f0", "type": "electric_scooter", "is_disabled": 0, "lat": 38.8928765, "rental_uris": {"ios": "https://dc.lft.to/lastmile_qr_scan", "android": "https://dc.lft.to/lastmile_qr_scan"}, "is_reserved": 0, "fusion_lon": 0.0, "fusion_lat": 0.0, "lon": -77.04483483333334, "name": "4bf274b738155dc69fdba300c871f0f0"}, {"bike_id": "1116b73fc338bf5047d2cdd5910b9cbc", "type": "electric_scooter", "is_disabled": 0, "lat": 38.942972833333336, "rental_uris": {"ios": "https://dc.lft.to/lastmile_qr_scan", "android": "https://dc.lft.to/lastmile_qr_scan"}, "is_reserved": 0, "fusion_lon": 0.0, "fusion_lat": 0.0, "lon": -77.02174116666667, "name": "1116b73fc338bf5047d2cdd5910b9cbc"}, {"bike_id": "0093133862036b316bc03aaf0728e4de", "type": "electric_scooter", "is_disabled": 0, "lat": 38.920072, "rental_uris": {"ios": "https://dc.lft.to/lastmile_qr_scan", "android": "https://dc.lft.to/lastmile_qr_scan"}, "is_reserved": 0, "fusion_lon": 0.0, "fusion_lat": 0.0, "lon": -77.03206, "name": "0093133862036b316bc03aaf0728e4de"}, {"bike_id": "19d81155e62465377a5d5edbe2d94e0e", "type": "electric_scooter", "is_disabled": 0, "lat": 38.933352666666664, "rental_uris": {"ios": "https://dc.lft.to/lastmile_qr_scan", "android": "https://dc.lft.to/lastmile_qr_scan"}, "is_reserved": 0, "fusion_lon": 0.0, "fusion_lat": 0.0, "lon": -77.03985083333333, "name": "19d81155e62465377a5d5edbe2d94e0e"}, {"bike_id": "3de079e83fb2b3fbf1696ff9928a8d45", "type": "electric_scooter", "is_disabled": 0, "lat": 38.9223425, "rental_uris": {"ios": "https://dc.lft.to/lastmile_qr_scan", "android": "https://dc.lft.to/lastmile_qr_scan"}, "is_reserved": 0, "fusion_lon": 0.0, "fusion_lat": 0.0, "lon": -77.04265466666666, "name": "3de079e83fb2b3fbf1696ff9928a8d45"}, {"bike_id": "0e40ad5d9ceb80ae6ac369e9c84a3e3f", "type": "electric_scooter", "is_disabled": 0, "lat": 38.902504, "rental_uris": {"ios": "https://dc.lft.to/lastmile_qr_scan", "android": "https://dc.lft.to/lastmile_qr_scan"}, "is_reserved": 0, "fusion_lon": 0.0, "fusion_lat": 0.0, "lon": -77.0265825, "name": "0e40ad5d9ceb80ae6ac369e9c84a3e3f"}, {"bike_id": "4b3b6b5f1af46987f0332411ad649643", "type": "electric_scooter", "is_disabled": 0, "lat": 38.912713, "rental_uris": {"ios": "https://dc.lft.to/lastmile_qr_scan", "android": "https://dc.lft.to/lastmile_qr_scan"}, "is_reserved": 0, "fusion_lon": 0.0, "fusion_lat": 0.0, "lon": -77.03138, "name": "4b3b6b5f1af46987f0332411ad649643"}, {"bike_id": "29dfb628ae2efca0f9fa545e3af2dea4", "type": "electric_scooter", "is_disabled": 0, "lat": 38.92827783333333, "rental_uris": {"ios": "https://dc.lft.to/lastmile_qr_scan", "android": "https://dc.lft.to/lastmile_qr_scan"}, "is_reserved": 0, "fusion_lon": 0.0, "fusion_lat": 0.0, "lon": -77.0225835, "name": "29dfb628ae2efca0f9fa545e3af2dea4"}, {"bike_id": "2febaabea9a8e7a69d97e1362337106f", "type": "electric_scooter", "is_disabled": 0, "lat": 38.86701683333333, "rental_uris": {"ios": "https://dc.lft.to/lastmile_qr_scan", "android": "https://dc.lft.to/lastmile_qr_scan"}, "is_reserved": 0, "fusion_lon": 0.0, "fusion_lat": 0.0, "lon": -76.98711333333333, "name": "2febaabea9a8e7a69d97e1362337106f"}, {"bike_id": "913534233a71d1312691ed729ea23d29", "type": "electric_scooter", "is_disabled": 0, "lat": 38.895542166666665, "rental_uris": {"ios": "https://dc.lft.to/lastmile_qr_scan", "android": "https://dc.lft.to/lastmile_qr_scan"}, "is_reserved": 0, "fusion_lon": 0.0, "fusion_lat": 0.0, "lon": -76.949368, "name": "913534233a71d1312691ed729ea23d29"}, {"bike_id": "486e409f0bceb20c94070546437f3d0f", "type": "electric_scooter", "is_disabled": 0, "lat": 38.902825166666666, "rental_uris": {"ios": "https://dc.lft.to/lastmile_qr_scan", "android": "https://dc.lft.to/lastmile_qr_scan"}, "is_reserved": 0, "fusion_lon": 0.0, "fusion_lat": 0.0, "lon": -77.03347283333333, "name": "486e409f0bceb20c94070546437f3d0f"}, {"bike_id": "c8735997bb87ae84c57321d07923b527", "type": "electric_scooter", "is_disabled": 0, "lat": 38.912682333333336, "rental_uris": {"ios": "https://dc.lft.to/lastmile_qr_scan", "android": "https://dc.lft.to/lastmile_qr_scan"}, "is_reserved": 0, "fusion_lon": 0.0, "fusion_lat": 0.0, "lon": -77.04499216666666, "name": "c8735997bb87ae84c57321d07923b527"}, {"bike_id": "22b7c4d934b2bf3bc58fd3c1ab42f2f0", "type": "electric_bike", "is_disabled": 0, "lat": 38.978613833333334, "rental_uris": {"ios": "https://dc.lft.to/lastmile_qr_scan", "android": "https://dc.lft.to/lastmile_qr_scan"}, "is_reserved": 0, "fusion_lon": 0.0, "fusion_lat": 0.0, "lon": -76.9404535, "name": "22b7c4d934b2bf3bc58fd3c1ab42f2f0"}, {"bike_id": "c78ab0621886c881862a8e2f16c1b774", "type": "electric_scooter", "is_disabled": 0, "lat": 38.91022233333333, "rental_uris": {"ios": "https://dc.lft.to/lastmile_qr_scan", "android": "https://dc.lft.to/lastmile_qr_scan"}, "is_reserved": 0, "fusion_lon": 0.0, "fusion_lat": 0.0, "lon": -77.03188266666666, "name": "c78ab0621886c881862a8e2f16c1b774"}, {"bike_id": "5bce10ba0f5f63ed136cdb9aa338b1bb", "type": "electric_scooter", "is_disabled": 0, "lat": 38.9215605, "rental_uris": {"ios": "https://dc.lft.to/lastmile_qr_scan", "android": "https://dc.lft.to/lastmile_qr_scan"}, "is_reserved": 0, "fusion_lon": 0.0, "fusion_lat": 0.0, "lon": -77.04363516666666, "name": "5bce10ba0f5f63ed136cdb9aa338b1bb"}, {"bike_id": "53eff6ee1cf0dd919f49ce275ecc8b9c", "type": "electric_scooter", "is_disabled": 0, "lat": 38.8670125, "rental_uris": {"ios": "https://dc.lft.to/lastmile_qr_scan", "android": "https://dc.lft.to/lastmile_qr_scan"}, "is_reserved": 0, "fusion_lon": 0.0, "fusion_lat": 0.0, "lon": -76.98711616666667, "name": "53eff6ee1cf0dd919f49ce275ecc8b9c"}, {"bike_id": "6739bad1cc430c38cab33f915055352f", "type": "electric_scooter", "is_disabled": 0, "lat": 38.8788535, "rental_uris": {"ios": "https://dc.lft.to/lastmile_qr_scan", "android": "https://dc.lft.to/lastmile_qr_scan"}, "is_reserved": 0, "fusion_lon": 0.0, "fusion_lat": 0.0, "lon": -77.0192015, "name": "6739bad1cc430c38cab33f915055352f"}, {"bike_id": "08aa0b85a85fcfbc6b91284231d3c3b4", "type": "electric_scooter", "is_disabled": 0, "lat": 38.917661, "rental_uris": {"ios": "https://dc.lft.to/lastmile_qr_scan", "android": "https://dc.lft.to/lastmile_qr_scan"}, "is_reserved": 0, "fusion_lon": 0.0, "fusion_lat": 0.0, "lon": -77.04768, "name": "08aa0b85a85fcfbc6b91284231d3c3b4"}, {"bike_id": "2262303e2829c82c272730076e94936f", "type": "electric_scooter", "is_disabled": 0, "lat": 38.93078966666667, "rental_uris": {"ios": "https://dc.lft.to/lastmile_qr_scan", "android": "https://dc.lft.to/lastmile_qr_scan"}, "is_reserved": 0, "fusion_lon": 0.0, "fusion_lat": 0.0, "lon": -77.0279475, "name": "2262303e2829c82c272730076e94936f"}, {"bike_id": "f2412a1b0520becff3f892ee44a2e7c1", "type": "electric_scooter", "is_disabled": 0, "lat": 38.892238, "rental_uris": {"ios": "https://dc.lft.to/lastmile_qr_scan", "android": "https://dc.lft.to/lastmile_qr_scan"}, "is_reserved": 0, "fusion_lon": 0.0, "fusion_lat": 0.0, "lon": -77.02262633333333, "name": "f2412a1b0520becff3f892ee44a2e7c1"}, {"bike_id": "43f811695988d9ee570989e508514e0b", "type": "electric_scooter", "is_disabled": 0, "lat": 38.89613116666666, "rental_uris": {"ios": "https://dc.lft.to/lastmile_qr_scan", "android": "https://dc.lft.to/lastmile_qr_scan"}, "is_reserved": 0, "fusion_lon": 0.0, "fusion_lat": 0.0, "lon": -77.009281, "name": "43f811695988d9ee570989e508514e0b"}, {"bike_id": "b30b87596033c62cff7f182c1df06f17", "type": "electric_scooter", "is_disabled": 0, "lat": 38.917727166666666, "rental_uris": {"ios": "https://dc.lft.to/lastmile_qr_scan", "android": "https://dc.lft.to/lastmile_qr_scan"}, "is_reserved": 0, "fusion_lon": 0.0, "fusion_lat": 0.0, "lon": -77.02960083333333, "name": "b30b87596033c62cff7f182c1df06f17"}, {"bike_id": "1378b773fb9d22f76421612f73c92e77", "type": "electric_bike", "is_disabled": 0, "lat": 38.92147533333333, "rental_uris": {"ios": "https://dc.lft.to/lastmile_qr_scan", "android": "https://dc.lft.to/lastmile_qr_scan"}, "is_reserved": 0, "fusion_lon": 0.0, "fusion_lat": 0.0, "lon": -77.03659933333333, "name": "1378b773fb9d22f76421612f73c92e77"}, {"bike_id": "d1a3eba094bafb7b31ddee04f0daff87", "type": "electric_scooter", "is_disabled": 0, "lat": 38.885403333333336, "rental_uris": {"ios": "https://dc.lft.to/lastmile_qr_scan", "android": "https://dc.lft.to/lastmile_qr_scan"}, "is_reserved": 0, "fusion_lon": 0.0, "fusion_lat": 0.0, "lon": -77.0058635, "name": "d1a3eba094bafb7b31ddee04f0daff87"}, {"bike_id": "d6049fd70697f6e72c1930f74ca675ed", "type": "electric_scooter", "is_disabled": 0, "lat": 38.923977, "rental_uris": {"ios": "https://dc.lft.to/lastmile_qr_scan", "android": "https://dc.lft.to/lastmile_qr_scan"}, "is_reserved": 0, "fusion_lon": 0.0, "fusion_lat": 0.0, "lon": -76.99372316666667, "name": "d6049fd70697f6e72c1930f74ca675ed"}, {"bike_id": "c5fc88a6ce4d142eca3621db57bd2992", "type": "electric_scooter", "is_disabled": 0, "lat": 38.914244, "rental_uris": {"ios": "https://dc.lft.to/lastmile_qr_scan", "android": "https://dc.lft.to/lastmile_qr_scan"}, "is_reserved": 0, "fusion_lon": 0.0, "fusion_lat": 0.0, "lon": -77.01987733333333, "name": "c5fc88a6ce4d142eca3621db57bd2992"}, {"bike_id": "6400466450850bda4b811d9733ea4074", "type": "electric_scooter", "is_disabled": 0, "lat": 38.92096216666667, "rental_uris": {"ios": "https://dc.lft.to/lastmile_qr_scan", "android": "https://dc.lft.to/lastmile_qr_scan"}, "is_reserved": 0, "fusion_lon": 0.0, "fusion_lat": 0.0, "lon": -77.04162716666667, "name": "6400466450850bda4b811d9733ea4074"}, {"bike_id": "dcbd20ecc7d686085fbb515852add12c", "type": "electric_scooter", "is_disabled": 0, "lat": 38.88711883333333, "rental_uris": {"ios": "https://dc.lft.to/lastmile_qr_scan", "android": "https://dc.lft.to/lastmile_qr_scan"}, "is_reserved": 0, "fusion_lon": 0.0, "fusion_lat": 0.0, "lon": -77.01767316666667, "name": "dcbd20ecc7d686085fbb515852add12c"}, {"bike_id": "1b19246c1d29cf29581d97972129559c", "type": "electric_bike", "is_disabled": 0, "lat": 39.0136995, "rental_uris": {"ios": "https://dc.lft.to/lastmile_qr_scan", "android": "https://dc.lft.to/lastmile_qr_scan"}, "is_reserved": 0, "fusion_lon": 0.0, "fusion_lat": 0.0, "lon": -76.92129383333334, "name": "1b19246c1d29cf29581d97972129559c"}, {"bike_id": "315d05151f1fcc60883db9ef0087ebe9", "type": "electric_scooter", "is_disabled": 0, "lat": 38.9170795, "rental_uris": {"ios": "https://dc.lft.to/lastmile_qr_scan", "android": "https://dc.lft.to/lastmile_qr_scan"}, "is_reserved": 0, "fusion_lon": 0.0, "fusion_lat": 0.0, "lon": -77.02410333333333, "name": "315d05151f1fcc60883db9ef0087ebe9"}, {"bike_id": "70393799bf384da9933f46fed9106afc", "type": "electric_scooter", "is_disabled": 0, "lat": 38.9204875, "rental_uris": {"ios": "https://dc.lft.to/lastmile_qr_scan", "android": "https://dc.lft.to/lastmile_qr_scan"}, "is_reserved": 0, "fusion_lon": 0.0, "fusion_lat": 0.0, "lon": -77.02440266666666, "name": "70393799bf384da9933f46fed9106afc"}, {"bike_id": "ca34c13cf41f3f102257e5004b3341af", "type": "electric_scooter", "is_disabled": 0, "lat": 38.91393866666667, "rental_uris": {"ios": "https://dc.lft.to/lastmile_qr_scan", "android": "https://dc.lft.to/lastmile_qr_scan"}, "is_reserved": 0, "fusion_lon": 0.0, "fusion_lat": 0.0, "lon": -77.03201316666667, "name": "ca34c13cf41f3f102257e5004b3341af"}, {"bike_id": "fbc2d0032ca0e4a2b5c2ee72465c946f", "type": "electric_scooter", "is_disabled": 0, "lat": 38.908263, "rental_uris": {"ios": "https://dc.lft.to/lastmile_qr_scan", "android": "https://dc.lft.to/lastmile_qr_scan"}, "is_reserved": 0, "fusion_lon": 0.0, "fusion_lat": 0.0, "lon": -76.99709216666666, "name": "fbc2d0032ca0e4a2b5c2ee72465c946f"}, {"bike_id": "d742270a40ef9e6774c8159d6948554f", "type": "electric_scooter", "is_disabled": 0, "lat": 38.915665833333335, "rental_uris": {"ios": "https://dc.lft.to/lastmile_qr_scan", "android": "https://dc.lft.to/lastmile_qr_scan"}, "is_reserved": 0, "fusion_lon": 0.0, "fusion_lat": 0.0, "lon": -77.0202105, "name": "d742270a40ef9e6774c8159d6948554f"}, {"bike_id": "aba70ba275e30a47b401007da3befe4f", "type": "electric_scooter", "is_disabled": 0, "lat": 38.915988, "rental_uris": {"ios": "https://dc.lft.to/lastmile_qr_scan", "android": "https://dc.lft.to/lastmile_qr_scan"}, "is_reserved": 0, "fusion_lon": 0.0, "fusion_lat": 0.0, "lon": -77.03981, "name": "aba70ba275e30a47b401007da3befe4f"}, {"bike_id": "56759271f77e022a7f345b2df36a31b6", "type": "electric_scooter", "is_disabled": 0, "lat": 38.8996995, "rental_uris": {"ios": "https://dc.lft.to/lastmile_qr_scan", "android": "https://dc.lft.to/lastmile_qr_scan"}, "is_reserved": 0, "fusion_lon": 0.0, "fusion_lat": 0.0, "lon": -76.983041, "name": "56759271f77e022a7f345b2df36a31b6"}, {"bike_id": "da3218e25e9ec50a146f112216919368", "type": "electric_scooter", "is_disabled": 0, "lat": 38.90378666666667, "rental_uris": {"ios": "https://dc.lft.to/lastmile_qr_scan", "android": "https://dc.lft.to/lastmile_qr_scan"}, "is_reserved": 0, "fusion_lon": 0.0, "fusion_lat": 0.0, "lon": -77.048381, "name": "da3218e25e9ec50a146f112216919368"}, {"bike_id": "d9d29d3f4e654cd4d255f18277e056d4", "type": "electric_scooter", "is_disabled": 0, "lat": 38.92130183333333, "rental_uris": {"ios": "https://dc.lft.to/lastmile_qr_scan", "android": "https://dc.lft.to/lastmile_qr_scan"}, "is_reserved": 0, "fusion_lon": 0.0, "fusion_lat": 0.0, "lon": -77.02713866666667, "name": "d9d29d3f4e654cd4d255f18277e056d4"}, {"bike_id": "60fe0d7fd7c39c97e07fffeeb24c8d05", "type": "electric_scooter", "is_disabled": 0, "lat": 38.93283566666667, "rental_uris": {"ios": "https://dc.lft.to/lastmile_qr_scan", "android": "https://dc.lft.to/lastmile_qr_scan"}, "is_reserved": 0, "fusion_lon": 0.0, "fusion_lat": 0.0, "lon": -77.03088366666667, "name": "60fe0d7fd7c39c97e07fffeeb24c8d05"}, {"bike_id": "bc7310c946dac84e7db653a6737742f3", "type": "electric_scooter", "is_disabled": 0, "lat": 38.88646633333333, "rental_uris": {"ios": "https://dc.lft.to/lastmile_qr_scan", "android": "https://dc.lft.to/lastmile_qr_scan"}, "is_reserved": 0, "fusion_lon": 0.0, "fusion_lat": 0.0, "lon": -77.01365016666666, "name": "bc7310c946dac84e7db653a6737742f3"}, {"bike_id": "a01c25ad4e23a7953ce3394fb6cf7a5b", "type": "electric_scooter", "is_disabled": 0, "lat": 38.86686183333333, "rental_uris": {"ios": "https://dc.lft.to/lastmile_qr_scan", "android": "https://dc.lft.to/lastmile_qr_scan"}, "is_reserved": 0, "fusion_lon": 0.0, "fusion_lat": 0.0, "lon": -76.985694, "name": "a01c25ad4e23a7953ce3394fb6cf7a5b"}, {"bike_id": "e62a856eb63b119282925d70f299389c", "type": "electric_scooter", "is_disabled": 0, "lat": 38.9350165, "rental_uris": {"ios": "https://dc.lft.to/lastmile_qr_scan", "android": "https://dc.lft.to/lastmile_qr_scan"}, "is_reserved": 0, "fusion_lon": 0.0, "fusion_lat": 0.0, "lon": -77.02546283333334, "name": "e62a856eb63b119282925d70f299389c"}, {"bike_id": "962f7e7200a0b83cf9a340ff49067fe4", "type": "electric_scooter", "is_disabled": 0, "lat": 38.8871875, "rental_uris": {"ios": "https://dc.lft.to/lastmile_qr_scan", "android": "https://dc.lft.to/lastmile_qr_scan"}, "is_reserved": 0, "fusion_lon": 0.0, "fusion_lat": 0.0, "lon": -76.99631983333333, "name": "962f7e7200a0b83cf9a340ff49067fe4"}, {"bike_id": "4b5e66dae73bf80e79c781791313b245", "type": "electric_scooter", "is_disabled": 0, "lat": 38.89795216666667, "rental_uris": {"ios": "https://dc.lft.to/lastmile_qr_scan", "android": "https://dc.lft.to/lastmile_qr_scan"}, "is_reserved": 0, "fusion_lon": 0.0, "fusion_lat": 0.0, "lon": -77.032161, "name": "4b5e66dae73bf80e79c781791313b245"}, {"bike_id": "282307ba177ef098fcdebbabcf513011", "type": "electric_scooter", "is_disabled": 0, "lat": 38.85812966666667, "rental_uris": {"ios": "https://dc.lft.to/lastmile_qr_scan", "android": "https://dc.lft.to/lastmile_qr_scan"}, "is_reserved": 0, "fusion_lon": 0.0, "fusion_lat": 0.0, "lon": -76.98925716666666, "name": "282307ba177ef098fcdebbabcf513011"}, {"bike_id": "c423e7ea954046570b5263d8fc59f15c", "type": "electric_bike", "is_disabled": 0, "lat": 38.943641166666666, "rental_uris": {"ios": "https://dc.lft.to/lastmile_qr_scan", "android": "https://dc.lft.to/lastmile_qr_scan"}, "is_reserved": 0, "fusion_lon": 0.0, "fusion_lat": 0.0, "lon": -77.003492, "name": "c423e7ea954046570b5263d8fc59f15c"}, {"bike_id": "795aa513744adbe7b3972206d249769c", "type": "electric_scooter", "is_disabled": 0, "lat": 38.8947685, "rental_uris": {"ios": "https://dc.lft.to/lastmile_qr_scan", "android": "https://dc.lft.to/lastmile_qr_scan"}, "is_reserved": 0, "fusion_lon": 0.0, "fusion_lat": 0.0, "lon": -76.9877335, "name": "795aa513744adbe7b3972206d249769c"}, {"bike_id": "627f4ec112b19be9d79f5c74229ed599", "type": "electric_scooter", "is_disabled": 0, "lat": 38.90792866666666, "rental_uris": {"ios": "https://dc.lft.to/lastmile_qr_scan", "android": "https://dc.lft.to/lastmile_qr_scan"}, "is_reserved": 0, "fusion_lon": 0.0, "fusion_lat": 0.0, "lon": -76.99413983333334, "name": "627f4ec112b19be9d79f5c74229ed599"}, {"bike_id": "ea7ce75d2f8a70a8562dc4115c12e431", "type": "electric_scooter", "is_disabled": 0, "lat": 38.870703166666665, "rental_uris": {"ios": "https://dc.lft.to/lastmile_qr_scan", "android": "https://dc.lft.to/lastmile_qr_scan"}, "is_reserved": 0, "fusion_lon": 0.0, "fusion_lat": 0.0, "lon": -76.98131616666667, "name": "ea7ce75d2f8a70a8562dc4115c12e431"}, {"bike_id": "777646f474aedbc492c8cc6a4abbfe29", "type": "electric_scooter", "is_disabled": 0, "lat": 38.86631166666667, "rental_uris": {"ios": "https://dc.lft.to/lastmile_qr_scan", "android": "https://dc.lft.to/lastmile_qr_scan"}, "is_reserved": 0, "fusion_lon": 0.0, "fusion_lat": 0.0, "lon": -76.98718916666667, "name": "777646f474aedbc492c8cc6a4abbfe29"}, {"bike_id": "2fff0f6fd1ae103c3dd5977eef697b0e", "type": "electric_scooter", "is_disabled": 0, "lat": 38.9059085, "rental_uris": {"ios": "https://dc.lft.to/lastmile_qr_scan", "android": "https://dc.lft.to/lastmile_qr_scan"}, "is_reserved": 0, "fusion_lon": 0.0, "fusion_lat": 0.0, "lon": -77.048842, "name": "2fff0f6fd1ae103c3dd5977eef697b0e"}, {"bike_id": "99005ce739bdb8eae2eacf05bf610ec9", "type": "electric_scooter", "is_disabled": 0, "lat": 38.9170425, "rental_uris": {"ios": "https://dc.lft.to/lastmile_qr_scan", "android": "https://dc.lft.to/lastmile_qr_scan"}, "is_reserved": 0, "fusion_lon": 0.0, "fusion_lat": 0.0, "lon": -77.0401245, "name": "99005ce739bdb8eae2eacf05bf610ec9"}, {"bike_id": "7d2ae17ba7cb44104e7b8a26f1fca485", "type": "electric_scooter", "is_disabled": 0, "lat": 38.897135, "rental_uris": {"ios": "https://dc.lft.to/lastmile_qr_scan", "android": "https://dc.lft.to/lastmile_qr_scan"}, "is_reserved": 0, "fusion_lon": 0.0, "fusion_lat": 0.0, "lon": -77.02296, "name": "7d2ae17ba7cb44104e7b8a26f1fca485"}, {"bike_id": "0e597255ab7944e4ac1e4a98334e5ce3", "type": "electric_scooter", "is_disabled": 0, "lat": 38.9141105, "rental_uris": {"ios": "https://dc.lft.to/lastmile_qr_scan", "android": "https://dc.lft.to/lastmile_qr_scan"}, "is_reserved": 0, "fusion_lon": 0.0, "fusion_lat": 0.0, "lon": -77.02184, "name": "0e597255ab7944e4ac1e4a98334e5ce3"}, {"bike_id": "f07a67bd56b7e090f4378a31d0e144f0", "type": "electric_scooter", "is_disabled": 0, "lat": 38.948418, "rental_uris": {"ios": "https://dc.lft.to/lastmile_qr_scan", "android": "https://dc.lft.to/lastmile_qr_scan"}, "is_reserved": 0, "fusion_lon": 0.0, "fusion_lat": 0.0, "lon": -77.0254325, "name": "f07a67bd56b7e090f4378a31d0e144f0"}, {"bike_id": "ae97f0618ea1fc1fb0a97137c8a05d27", "type": "electric_scooter", "is_disabled": 0, "lat": 38.88356533333334, "rental_uris": {"ios": "https://dc.lft.to/lastmile_qr_scan", "android": "https://dc.lft.to/lastmile_qr_scan"}, "is_reserved": 0, "fusion_lon": 0.0, "fusion_lat": 0.0, "lon": -77.01980766666667, "name": "ae97f0618ea1fc1fb0a97137c8a05d27"}, {"bike_id": "521b01fdbd69a4924c0e336923d9593e", "type": "electric_scooter", "is_disabled": 0, "lat": 38.8984995, "rental_uris": {"ios": "https://dc.lft.to/lastmile_qr_scan", "android": "https://dc.lft.to/lastmile_qr_scan"}, "is_reserved": 0, "fusion_lon": 0.0, "fusion_lat": 0.0, "lon": -76.929109, "name": "521b01fdbd69a4924c0e336923d9593e"}, {"bike_id": "6482284d51b2cc71a02d70488fc886c0", "type": "electric_scooter", "is_disabled": 0, "lat": 38.93104683333333, "rental_uris": {"ios": "https://dc.lft.to/lastmile_qr_scan", "android": "https://dc.lft.to/lastmile_qr_scan"}, "is_reserved": 0, "fusion_lon": 0.0, "fusion_lat": 0.0, "lon": -77.04124683333333, "name": "6482284d51b2cc71a02d70488fc886c0"}, {"bike_id": "3bc5f629ca5425dedc84b27591846bc2", "type": "electric_scooter", "is_disabled": 0, "lat": 38.89385016666667, "rental_uris": {"ios": "https://dc.lft.to/lastmile_qr_scan", "android": "https://dc.lft.to/lastmile_qr_scan"}, "is_reserved": 0, "fusion_lon": 0.0, "fusion_lat": 0.0, "lon": -77.02275033333333, "name": "3bc5f629ca5425dedc84b27591846bc2"}, {"bike_id": "d0031d31257c40b2bce1af5679232b60", "type": "electric_scooter", "is_disabled": 0, "lat": 38.948264, "rental_uris": {"ios": "https://dc.lft.to/lastmile_qr_scan", "android": "https://dc.lft.to/lastmile_qr_scan"}, "is_reserved": 0, "fusion_lon": 0.0, "fusion_lat": 0.0, "lon": -77.02485283333333, "name": "d0031d31257c40b2bce1af5679232b60"}, {"bike_id": "b8ee47284df0f7840f7a954a8c7124c5", "type": "electric_scooter", "is_disabled": 0, "lat": 38.91420316666667, "rental_uris": {"ios": "https://dc.lft.to/lastmile_qr_scan", "android": "https://dc.lft.to/lastmile_qr_scan"}, "is_reserved": 0, "fusion_lon": 0.0, "fusion_lat": 0.0, "lon": -77.03191316666667, "name": "b8ee47284df0f7840f7a954a8c7124c5"}, {"bike_id": "10932ebdf80fb11226ec0320b47b0e21", "type": "electric_scooter", "is_disabled": 0, "lat": 38.903476, "rental_uris": {"ios": "https://dc.lft.to/lastmile_qr_scan", "android": "https://dc.lft.to/lastmile_qr_scan"}, "is_reserved": 0, "fusion_lon": 0.0, "fusion_lat": 0.0, "lon": -77.0627185, "name": "10932ebdf80fb11226ec0320b47b0e21"}, {"bike_id": "a104e0cb7cbc930dca9808c117f6895b", "type": "electric_scooter", "is_disabled": 0, "lat": 38.87714183333333, "rental_uris": {"ios": "https://dc.lft.to/lastmile_qr_scan", "android": "https://dc.lft.to/lastmile_qr_scan"}, "is_reserved": 0, "fusion_lon": 0.0, "fusion_lat": 0.0, "lon": -77.01762383333333, "name": "a104e0cb7cbc930dca9808c117f6895b"}, {"bike_id": "2bf076bfb243140e907e780ed3e27198", "type": "electric_scooter", "is_disabled": 0, "lat": 38.93012916666667, "rental_uris": {"ios": "https://dc.lft.to/lastmile_qr_scan", "android": "https://dc.lft.to/lastmile_qr_scan"}, "is_reserved": 0, "fusion_lon": 0.0, "fusion_lat": 0.0, "lon": -77.02097633333334, "name": "2bf076bfb243140e907e780ed3e27198"}, {"bike_id": "c9d49184b48b2f2c77cd99d7af309acd", "type": "electric_scooter", "is_disabled": 0, "lat": 38.929, "rental_uris": {"ios": "https://dc.lft.to/lastmile_qr_scan", "android": "https://dc.lft.to/lastmile_qr_scan"}, "is_reserved": 0, "fusion_lon": 0.0, "fusion_lat": 0.0, "lon": -77.027477, "name": "c9d49184b48b2f2c77cd99d7af309acd"}, {"bike_id": "320b1f99ace0d4e541a10e0778d6fe70", "type": "electric_scooter", "is_disabled": 0, "lat": 38.922476833333334, "rental_uris": {"ios": "https://dc.lft.to/lastmile_qr_scan", "android": "https://dc.lft.to/lastmile_qr_scan"}, "is_reserved": 0, "fusion_lon": 0.0, "fusion_lat": 0.0, "lon": -77.04270266666667, "name": "320b1f99ace0d4e541a10e0778d6fe70"}, {"bike_id": "473991e78371ec445ca1547fc96cd30f", "type": "electric_scooter", "is_disabled": 0, "lat": 38.92132516666667, "rental_uris": {"ios": "https://dc.lft.to/lastmile_qr_scan", "android": "https://dc.lft.to/lastmile_qr_scan"}, "is_reserved": 0, "fusion_lon": 0.0, "fusion_lat": 0.0, "lon": -77.044269, "name": "473991e78371ec445ca1547fc96cd30f"}, {"bike_id": "e0c9fa7416d2ad75eb756bf8e125f95c", "type": "electric_scooter", "is_disabled": 0, "lat": 38.91273616666667, "rental_uris": {"ios": "https://dc.lft.to/lastmile_qr_scan", "android": "https://dc.lft.to/lastmile_qr_scan"}, "is_reserved": 0, "fusion_lon": 0.0, "fusion_lat": 0.0, "lon": -77.02207266666667, "name": "e0c9fa7416d2ad75eb756bf8e125f95c"}, {"bike_id": "83a03e49579591f6c2649c321153f85d", "type": "electric_bike", "is_disabled": 0, "lat": 38.925656833333335, "rental_uris": {"ios": "https://dc.lft.to/lastmile_qr_scan", "android": "https://dc.lft.to/lastmile_qr_scan"}, "is_reserved": 0, "fusion_lon": 0.0, "fusion_lat": 0.0, "lon": -77.04380466666667, "name": "83a03e49579591f6c2649c321153f85d"}, {"bike_id": "713ef707687f4b63baa63c8d7697fb62", "type": "electric_scooter", "is_disabled": 0, "lat": 38.92051083333333, "rental_uris": {"ios": "https://dc.lft.to/lastmile_qr_scan", "android": "https://dc.lft.to/lastmile_qr_scan"}, "is_reserved": 0, "fusion_lon": 0.0, "fusion_lat": 0.0, "lon": -77.033502, "name": "713ef707687f4b63baa63c8d7697fb62"}, {"bike_id": "3f6addb273ad60b908b7908fed2eccbd", "type": "electric_scooter", "is_disabled": 0, "lat": 38.862470333333334, "rental_uris": {"ios": "https://dc.lft.to/lastmile_qr_scan", "android": "https://dc.lft.to/lastmile_qr_scan"}, "is_reserved": 0, "fusion_lon": 0.0, "fusion_lat": 0.0, "lon": -76.99502666666666, "name": "3f6addb273ad60b908b7908fed2eccbd"}, {"bike_id": "e33db9115598c95c860dd30abf2a6c86", "type": "electric_scooter", "is_disabled": 0, "lat": 38.92875433333333, "rental_uris": {"ios": "https://dc.lft.to/lastmile_qr_scan", "android": "https://dc.lft.to/lastmile_qr_scan"}, "is_reserved": 0, "fusion_lon": 0.0, "fusion_lat": 0.0, "lon": -77.03407316666667, "name": "e33db9115598c95c860dd30abf2a6c86"}, {"bike_id": "5e86d5329225b2f8484e601af20d432c", "type": "electric_scooter", "is_disabled": 0, "lat": 38.90680716666667, "rental_uris": {"ios": "https://dc.lft.to/lastmile_qr_scan", "android": "https://dc.lft.to/lastmile_qr_scan"}, "is_reserved": 0, "fusion_lon": 0.0, "fusion_lat": 0.0, "lon": -76.98001116666667, "name": "5e86d5329225b2f8484e601af20d432c"}, {"bike_id": "0f0a04d2571804d4840e76e92fec93d7", "type": "electric_scooter", "is_disabled": 0, "lat": 38.91656, "rental_uris": {"ios": "https://dc.lft.to/lastmile_qr_scan", "android": "https://dc.lft.to/lastmile_qr_scan"}, "is_reserved": 0, "fusion_lon": 0.0, "fusion_lat": 0.0, "lon": -76.97909316666667, "name": "0f0a04d2571804d4840e76e92fec93d7"}, {"bike_id": "d9ac13413b0d37194b1d76752a3e94f4", "type": "electric_scooter", "is_disabled": 0, "lat": 38.9184255, "rental_uris": {"ios": "https://dc.lft.to/lastmile_qr_scan", "android": "https://dc.lft.to/lastmile_qr_scan"}, "is_reserved": 0, "fusion_lon": 0.0, "fusion_lat": 0.0, "lon": -77.03204433333333, "name": "d9ac13413b0d37194b1d76752a3e94f4"}, {"bike_id": "1dc686532417eafd62a66009dc662232", "type": "electric_scooter", "is_disabled": 0, "lat": 38.919954833333335, "rental_uris": {"ios": "https://dc.lft.to/lastmile_qr_scan", "android": "https://dc.lft.to/lastmile_qr_scan"}, "is_reserved": 0, "fusion_lon": 0.0, "fusion_lat": 0.0, "lon": -77.017856, "name": "1dc686532417eafd62a66009dc662232"}, {"bike_id": "9cf2fb731075cbadab841431aff23511", "type": "electric_scooter", "is_disabled": 0, "lat": 38.92026533333333, "rental_uris": {"ios": "https://dc.lft.to/lastmile_qr_scan", "android": "https://dc.lft.to/lastmile_qr_scan"}, "is_reserved": 0, "fusion_lon": 0.0, "fusion_lat": 0.0, "lon": -77.003045, "name": "9cf2fb731075cbadab841431aff23511"}, {"bike_id": "6871fb4cbf6f1744a3e8e81bdbe226b7", "type": "electric_scooter", "is_disabled": 0, "lat": 38.907168166666665, "rental_uris": {"ios": "https://dc.lft.to/lastmile_qr_scan", "android": "https://dc.lft.to/lastmile_qr_scan"}, "is_reserved": 0, "fusion_lon": 0.0, "fusion_lat": 0.0, "lon": -77.03442566666666, "name": "6871fb4cbf6f1744a3e8e81bdbe226b7"}, {"bike_id": "639c26b5b78dd39a410d1e59cd1722d1", "type": "electric_bike", "is_disabled": 0, "lat": 38.987733666666664, "rental_uris": {"ios": "https://dc.lft.to/lastmile_qr_scan", "android": "https://dc.lft.to/lastmile_qr_scan"}, "is_reserved": 0, "fusion_lon": 0.0, "fusion_lat": 0.0, "lon": -77.14054483333334, "name": "639c26b5b78dd39a410d1e59cd1722d1"}, {"bike_id": "f2ab00cd452bfcde7a707b937ec96e0a", "type": "electric_bike", "is_disabled": 0, "lat": 38.931887833333334, "rental_uris": {"ios": "https://dc.lft.to/lastmile_qr_scan", "android": "https://dc.lft.to/lastmile_qr_scan"}, "is_reserved": 0, "fusion_lon": 0.0, "fusion_lat": 0.0, "lon": -77.03562416666666, "name": "f2ab00cd452bfcde7a707b937ec96e0a"}, {"bike_id": "8febca3d2a1c1b44502cf189520226db", "type": "electric_scooter", "is_disabled": 0, "lat": 38.93366233333333, "rental_uris": {"ios": "https://dc.lft.to/lastmile_qr_scan", "android": "https://dc.lft.to/lastmile_qr_scan"}, "is_reserved": 0, "fusion_lon": 0.0, "fusion_lat": 0.0, "lon": -77.026487, "name": "8febca3d2a1c1b44502cf189520226db"}, {"bike_id": "5c5953db34704e4226448560145fbf7e", "type": "electric_scooter", "is_disabled": 0, "lat": 38.9248965, "rental_uris": {"ios": "https://dc.lft.to/lastmile_qr_scan", "android": "https://dc.lft.to/lastmile_qr_scan"}, "is_reserved": 0, "fusion_lon": 0.0, "fusion_lat": 0.0, "lon": -77.0317715, "name": "5c5953db34704e4226448560145fbf7e"}, {"bike_id": "a5647e692a1af8137344acbafc96bf78", "type": "electric_scooter", "is_disabled": 0, "lat": 38.92328716666667, "rental_uris": {"ios": "https://dc.lft.to/lastmile_qr_scan", "android": "https://dc.lft.to/lastmile_qr_scan"}, "is_reserved": 0, "fusion_lon": 0.0, "fusion_lat": 0.0, "lon": -77.00889516666666, "name": "a5647e692a1af8137344acbafc96bf78"}, {"bike_id": "5efe54a149d38fd663f56513984d698a", "type": "electric_scooter", "is_disabled": 0, "lat": 38.91191, "rental_uris": {"ios": "https://dc.lft.to/lastmile_qr_scan", "android": "https://dc.lft.to/lastmile_qr_scan"}, "is_reserved": 0, "fusion_lon": 0.0, "fusion_lat": 0.0, "lon": -77.0321775, "name": "5efe54a149d38fd663f56513984d698a"}, {"bike_id": "d79d836c5557ca9a2ca6bb624ed25821", "type": "electric_scooter", "is_disabled": 0, "lat": 38.914769666666665, "rental_uris": {"ios": "https://dc.lft.to/lastmile_qr_scan", "android": "https://dc.lft.to/lastmile_qr_scan"}, "is_reserved": 0, "fusion_lon": 0.0, "fusion_lat": 0.0, "lon": -77.04591266666667, "name": "d79d836c5557ca9a2ca6bb624ed25821"}, {"bike_id": "0d8c4ced8efebfac4aa9d6c0bd7880d3", "type": "electric_scooter", "is_disabled": 0, "lat": 38.9026815, "rental_uris": {"ios": "https://dc.lft.to/lastmile_qr_scan", "android": "https://dc.lft.to/lastmile_qr_scan"}, "is_reserved": 0, "fusion_lon": 0.0, "fusion_lat": 0.0, "lon": -76.9811545, "name": "0d8c4ced8efebfac4aa9d6c0bd7880d3"}, {"bike_id": "0dd9b1c9e6a94cbb594cd263a7590e56", "type": "electric_scooter", "is_disabled": 0, "lat": 38.887214666666665, "rental_uris": {"ios": "https://dc.lft.to/lastmile_qr_scan", "android": "https://dc.lft.to/lastmile_qr_scan"}, "is_reserved": 0, "fusion_lon": 0.0, "fusion_lat": 0.0, "lon": -77.0176735, "name": "0dd9b1c9e6a94cbb594cd263a7590e56"}, {"bike_id": "dc269679d525d37a5fa3c8f89aafd6ec", "type": "electric_bike", "is_disabled": 0, "lat": 38.89742016666667, "rental_uris": {"ios": "https://dc.lft.to/lastmile_qr_scan", "android": "https://dc.lft.to/lastmile_qr_scan"}, "is_reserved": 0, "fusion_lon": 0.0, "fusion_lat": 0.0, "lon": -76.920439, "name": "dc269679d525d37a5fa3c8f89aafd6ec"}, {"bike_id": "a888024bc78ea52a0e712388a79ed935", "type": "electric_scooter", "is_disabled": 0, "lat": 38.8874605, "rental_uris": {"ios": "https://dc.lft.to/lastmile_qr_scan", "android": "https://dc.lft.to/lastmile_qr_scan"}, "is_reserved": 0, "fusion_lon": 0.0, "fusion_lat": 0.0, "lon": -77.01527066666667, "name": "a888024bc78ea52a0e712388a79ed935"}, {"bike_id": "e4f8d841cbfab73d0e386598abaa203b", "type": "electric_scooter", "is_disabled": 0, "lat": 38.87470666666667, "rental_uris": {"ios": "https://dc.lft.to/lastmile_qr_scan", "android": "https://dc.lft.to/lastmile_qr_scan"}, "is_reserved": 0, "fusion_lon": 0.0, "fusion_lat": 0.0, "lon": -77.00558516666666, "name": "e4f8d841cbfab73d0e386598abaa203b"}, {"bike_id": "c050a7bb52c84a4ebcc2ea754dfb05b3", "type": "electric_scooter", "is_disabled": 0, "lat": 38.903002, "rental_uris": {"ios": "https://dc.lft.to/lastmile_qr_scan", "android": "https://dc.lft.to/lastmile_qr_scan"}, "is_reserved": 0, "fusion_lon": 0.0, "fusion_lat": 0.0, "lon": -77.03359616666667, "name": "c050a7bb52c84a4ebcc2ea754dfb05b3"}, {"bike_id": "c5b630446b69391f87a2f3d67ff2c193", "type": "electric_scooter", "is_disabled": 0, "lat": 38.90962566666666, "rental_uris": {"ios": "https://dc.lft.to/lastmile_qr_scan", "android": "https://dc.lft.to/lastmile_qr_scan"}, "is_reserved": 0, "fusion_lon": 0.0, "fusion_lat": 0.0, "lon": -77.03631783333333, "name": "c5b630446b69391f87a2f3d67ff2c193"}, {"bike_id": "f2401eab521ffa94dacf257af69e1f10", "type": "electric_scooter", "is_disabled": 0, "lat": 38.915509666666665, "rental_uris": {"ios": "https://dc.lft.to/lastmile_qr_scan", "android": "https://dc.lft.to/lastmile_qr_scan"}, "is_reserved": 0, "fusion_lon": 0.0, "fusion_lat": 0.0, "lon": -77.032111, "name": "f2401eab521ffa94dacf257af69e1f10"}, {"bike_id": "1ecc584155556f0a1043f3809418026c", "type": "electric_scooter", "is_disabled": 0, "lat": 38.943118, "rental_uris": {"ios": "https://dc.lft.to/lastmile_qr_scan", "android": "https://dc.lft.to/lastmile_qr_scan"}, "is_reserved": 0, "fusion_lon": 0.0, "fusion_lat": 0.0, "lon": -77.06171783333333, "name": "1ecc584155556f0a1043f3809418026c"}, {"bike_id": "a867cd21c5d4ec7c1d00e5ab2dba3c57", "type": "electric_scooter", "is_disabled": 0, "lat": 38.91828183333333, "rental_uris": {"ios": "https://dc.lft.to/lastmile_qr_scan", "android": "https://dc.lft.to/lastmile_qr_scan"}, "is_reserved": 0, "fusion_lon": 0.0, "fusion_lat": 0.0, "lon": -77.04944833333333, "name": "a867cd21c5d4ec7c1d00e5ab2dba3c57"}, {"bike_id": "010e9e1fe5ad48afd155e0027e27cf37", "type": "electric_scooter", "is_disabled": 0, "lat": 38.936122833333336, "rental_uris": {"ios": "https://dc.lft.to/lastmile_qr_scan", "android": "https://dc.lft.to/lastmile_qr_scan"}, "is_reserved": 0, "fusion_lon": 0.0, "fusion_lat": 0.0, "lon": -77.05878866666667, "name": "010e9e1fe5ad48afd155e0027e27cf37"}, {"bike_id": "2b9218b60b47425ae991a06abbcf05a2", "type": "electric_scooter", "is_disabled": 0, "lat": 38.90985833333333, "rental_uris": {"ios": "https://dc.lft.to/lastmile_qr_scan", "android": "https://dc.lft.to/lastmile_qr_scan"}, "is_reserved": 0, "fusion_lon": 0.0, "fusion_lat": 0.0, "lon": -77.02194316666667, "name": "2b9218b60b47425ae991a06abbcf05a2"}, {"bike_id": "f0a06f9f55180f66b7551b0633cda438", "type": "electric_scooter", "is_disabled": 0, "lat": 38.92503966666666, "rental_uris": {"ios": "https://dc.lft.to/lastmile_qr_scan", "android": "https://dc.lft.to/lastmile_qr_scan"}, "is_reserved": 0, "fusion_lon": 0.0, "fusion_lat": 0.0, "lon": -77.037699, "name": "f0a06f9f55180f66b7551b0633cda438"}, {"bike_id": "facd64e9fd7a7709ea042013e983f205", "type": "electric_scooter", "is_disabled": 0, "lat": 38.92507466666667, "rental_uris": {"ios": "https://dc.lft.to/lastmile_qr_scan", "android": "https://dc.lft.to/lastmile_qr_scan"}, "is_reserved": 0, "fusion_lon": 0.0, "fusion_lat": 0.0, "lon": -77.0215925, "name": "facd64e9fd7a7709ea042013e983f205"}, {"bike_id": "00d85937d4b874fa18d47f2754637123", "type": "electric_scooter", "is_disabled": 0, "lat": 38.909691333333335, "rental_uris": {"ios": "https://dc.lft.to/lastmile_qr_scan", "android": "https://dc.lft.to/lastmile_qr_scan"}, "is_reserved": 0, "fusion_lon": 0.0, "fusion_lat": 0.0, "lon": -77.021854, "name": "00d85937d4b874fa18d47f2754637123"}, {"bike_id": "98e7528d82a4ce7c91b330cdc9efeef6", "type": "electric_scooter", "is_disabled": 0, "lat": 38.90567866666667, "rental_uris": {"ios": "https://dc.lft.to/lastmile_qr_scan", "android": "https://dc.lft.to/lastmile_qr_scan"}, "is_reserved": 0, "fusion_lon": 0.0, "fusion_lat": 0.0, "lon": -77.03085766666666, "name": "98e7528d82a4ce7c91b330cdc9efeef6"}, {"bike_id": "815d3e27601e04ef44a8565efef617a3", "type": "electric_scooter", "is_disabled": 0, "lat": 38.89237516666667, "rental_uris": {"ios": "https://dc.lft.to/lastmile_qr_scan", "android": "https://dc.lft.to/lastmile_qr_scan"}, "is_reserved": 0, "fusion_lon": 0.0, "fusion_lat": 0.0, "lon": -77.04160966666667, "name": "815d3e27601e04ef44a8565efef617a3"}, {"bike_id": "20df91700bbd7cdd4ea0e49f2dec1f6f", "type": "electric_scooter", "is_disabled": 0, "lat": 38.89854866666667, "rental_uris": {"ios": "https://dc.lft.to/lastmile_qr_scan", "android": "https://dc.lft.to/lastmile_qr_scan"}, "is_reserved": 0, "fusion_lon": 0.0, "fusion_lat": 0.0, "lon": -77.021827, "name": "20df91700bbd7cdd4ea0e49f2dec1f6f"}, {"bike_id": "70895d562d013f862075ed13046d7536", "type": "electric_scooter", "is_disabled": 0, "lat": 38.8840915, "rental_uris": {"ios": "https://dc.lft.to/lastmile_qr_scan", "android": "https://dc.lft.to/lastmile_qr_scan"}, "is_reserved": 0, "fusion_lon": 0.0, "fusion_lat": 0.0, "lon": -77.01987816666667, "name": "70895d562d013f862075ed13046d7536"}, {"bike_id": "8d5afc98fa736f4c108b6b95a7cecfed", "type": "electric_scooter", "is_disabled": 0, "lat": 38.87687433333333, "rental_uris": {"ios": "https://dc.lft.to/lastmile_qr_scan", "android": "https://dc.lft.to/lastmile_qr_scan"}, "is_reserved": 0, "fusion_lon": 0.0, "fusion_lat": 0.0, "lon": -77.01761366666666, "name": "8d5afc98fa736f4c108b6b95a7cecfed"}, {"bike_id": "46ca73857d2ab69ff896943cf00989ad", "type": "electric_scooter", "is_disabled": 0, "lat": 38.909562, "rental_uris": {"ios": "https://dc.lft.to/lastmile_qr_scan", "android": "https://dc.lft.to/lastmile_qr_scan"}, "is_reserved": 0, "fusion_lon": 0.0, "fusion_lat": 0.0, "lon": -77.022774, "name": "46ca73857d2ab69ff896943cf00989ad"}, {"bike_id": "8f04d1d53105a5d59768dd4fd4fa828b", "type": "electric_bike", "is_disabled": 0, "lat": 38.93609566666667, "rental_uris": {"ios": "https://dc.lft.to/lastmile_qr_scan", "android": "https://dc.lft.to/lastmile_qr_scan"}, "is_reserved": 0, "fusion_lon": 0.0, "fusion_lat": 0.0, "lon": -77.05859083333333, "name": "8f04d1d53105a5d59768dd4fd4fa828b"}, {"bike_id": "f2f31fcb291dc7f160d3b30fd55b894a", "type": "electric_scooter", "is_disabled": 0, "lat": 38.91563583333333, "rental_uris": {"ios": "https://dc.lft.to/lastmile_qr_scan", "android": "https://dc.lft.to/lastmile_qr_scan"}, "is_reserved": 0, "fusion_lon": 0.0, "fusion_lat": 0.0, "lon": -77.02414733333333, "name": "f2f31fcb291dc7f160d3b30fd55b894a"}, {"bike_id": "bba757014662e221f113344a946a4589", "type": "electric_scooter", "is_disabled": 0, "lat": 38.875415833333335, "rental_uris": {"ios": "https://dc.lft.to/lastmile_qr_scan", "android": "https://dc.lft.to/lastmile_qr_scan"}, "is_reserved": 0, "fusion_lon": 0.0, "fusion_lat": 0.0, "lon": -77.00049583333333, "name": "bba757014662e221f113344a946a4589"}, {"bike_id": "ba1ad7e01ba49fc84d9d2ac515fe24c8", "type": "electric_scooter", "is_disabled": 0, "lat": 38.91331666666667, "rental_uris": {"ios": "https://dc.lft.to/lastmile_qr_scan", "android": "https://dc.lft.to/lastmile_qr_scan"}, "is_reserved": 0, "fusion_lon": 0.0, "fusion_lat": 0.0, "lon": -77.03844833333333, "name": "ba1ad7e01ba49fc84d9d2ac515fe24c8"}, {"bike_id": "1f20ea58ea0598b214666fd3981093bb", "type": "electric_scooter", "is_disabled": 0, "lat": 38.911089833333335, "rental_uris": {"ios": "https://dc.lft.to/lastmile_qr_scan", "android": "https://dc.lft.to/lastmile_qr_scan"}, "is_reserved": 0, "fusion_lon": 0.0, "fusion_lat": 0.0, "lon": -77.04984433333334, "name": "1f20ea58ea0598b214666fd3981093bb"}, {"bike_id": "3a8022e120f625a926e7f6464431bd82", "type": "electric_bike", "is_disabled": 0, "lat": 38.85936016666667, "rental_uris": {"ios": "https://dc.lft.to/lastmile_qr_scan", "android": "https://dc.lft.to/lastmile_qr_scan"}, "is_reserved": 0, "fusion_lon": 0.0, "fusion_lat": 0.0, "lon": -77.11829533333334, "name": "3a8022e120f625a926e7f6464431bd82"}, {"bike_id": "b2d59d257b3819f3c83eb065d0101935", "type": "electric_scooter", "is_disabled": 0, "lat": 38.92369983333333, "rental_uris": {"ios": "https://dc.lft.to/lastmile_qr_scan", "android": "https://dc.lft.to/lastmile_qr_scan"}, "is_reserved": 0, "fusion_lon": 0.0, "fusion_lat": 0.0, "lon": -77.05029616666667, "name": "b2d59d257b3819f3c83eb065d0101935"}, {"bike_id": "4b086a7484071413b990fc8ee3d51c1f", "type": "electric_scooter", "is_disabled": 0, "lat": 38.923672333333336, "rental_uris": {"ios": "https://dc.lft.to/lastmile_qr_scan", "android": "https://dc.lft.to/lastmile_qr_scan"}, "is_reserved": 0, "fusion_lon": 0.0, "fusion_lat": 0.0, "lon": -77.050513, "name": "4b086a7484071413b990fc8ee3d51c1f"}, {"bike_id": "6d7a8559438960d2b74155a25d2ec018", "type": "electric_bike", "is_disabled": 0, "lat": 38.82370233333333, "rental_uris": {"ios": "https://dc.lft.to/lastmile_qr_scan", "android": "https://dc.lft.to/lastmile_qr_scan"}, "is_reserved": 0, "fusion_lon": 0.0, "fusion_lat": 0.0, "lon": -77.002189, "name": "6d7a8559438960d2b74155a25d2ec018"}, {"bike_id": "42e5ca09aa4a9ae1a3b4c733503c48c5", "type": "electric_scooter", "is_disabled": 0, "lat": 38.91575866666667, "rental_uris": {"ios": "https://dc.lft.to/lastmile_qr_scan", "android": "https://dc.lft.to/lastmile_qr_scan"}, "is_reserved": 0, "fusion_lon": 0.0, "fusion_lat": 0.0, "lon": -77.019589, "name": "42e5ca09aa4a9ae1a3b4c733503c48c5"}, {"bike_id": "0cfe40ca57aa523727cff9053008be43", "type": "electric_bike", "is_disabled": 0, "lat": 38.9525105, "rental_uris": {"ios": "https://dc.lft.to/lastmile_qr_scan", "android": "https://dc.lft.to/lastmile_qr_scan"}, "is_reserved": 0, "fusion_lon": 0.0, "fusion_lat": 0.0, "lon": -76.976747, "name": "0cfe40ca57aa523727cff9053008be43"}, {"bike_id": "8e3bafa36f41e9117983690bea47c390", "type": "electric_scooter", "is_disabled": 0, "lat": 38.92049516666667, "rental_uris": {"ios": "https://dc.lft.to/lastmile_qr_scan", "android": "https://dc.lft.to/lastmile_qr_scan"}, "is_reserved": 0, "fusion_lon": 0.0, "fusion_lat": 0.0, "lon": -77.02576516666667, "name": "8e3bafa36f41e9117983690bea47c390"}, {"bike_id": "6700c26a11c08107ac6494ef0406f8fc", "type": "electric_scooter", "is_disabled": 0, "lat": 38.887302166666665, "rental_uris": {"ios": "https://dc.lft.to/lastmile_qr_scan", "android": "https://dc.lft.to/lastmile_qr_scan"}, "is_reserved": 0, "fusion_lon": 0.0, "fusion_lat": 0.0, "lon": -77.02197966666667, "name": "6700c26a11c08107ac6494ef0406f8fc"}, {"bike_id": "f6cbe486388345e0996fdc943cc57c11", "type": "electric_scooter", "is_disabled": 0, "lat": 38.905477, "rental_uris": {"ios": "https://dc.lft.to/lastmile_qr_scan", "android": "https://dc.lft.to/lastmile_qr_scan"}, "is_reserved": 0, "fusion_lon": 0.0, "fusion_lat": 0.0, "lon": -77.02176466666667, "name": "f6cbe486388345e0996fdc943cc57c11"}, {"bike_id": "424e8700657951d37f677f8c16535500", "type": "electric_scooter", "is_disabled": 0, "lat": 38.901525666666664, "rental_uris": {"ios": "https://dc.lft.to/lastmile_qr_scan", "android": "https://dc.lft.to/lastmile_qr_scan"}, "is_reserved": 0, "fusion_lon": 0.0, "fusion_lat": 0.0, "lon": -77.022854, "name": "424e8700657951d37f677f8c16535500"}, {"bike_id": "5b738eff537e8899d1b0f64f1a284422", "type": "electric_scooter", "is_disabled": 0, "lat": 38.89964283333333, "rental_uris": {"ios": "https://dc.lft.to/lastmile_qr_scan", "android": "https://dc.lft.to/lastmile_qr_scan"}, "is_reserved": 0, "fusion_lon": 0.0, "fusion_lat": 0.0, "lon": -76.928249, "name": "5b738eff537e8899d1b0f64f1a284422"}, {"bike_id": "8c88cd472e1a71f7b8148652eba6255d", "type": "electric_scooter", "is_disabled": 0, "lat": 38.955255666666666, "rental_uris": {"ios": "https://dc.lft.to/lastmile_qr_scan", "android": "https://dc.lft.to/lastmile_qr_scan"}, "is_reserved": 0, "fusion_lon": 0.0, "fusion_lat": 0.0, "lon": -77.023098, "name": "8c88cd472e1a71f7b8148652eba6255d"}, {"bike_id": "e2d5cdf6d2338f126493323e1e69da54", "type": "electric_bike", "is_disabled": 0, "lat": 38.96315233333333, "rental_uris": {"ios": "https://dc.lft.to/lastmile_qr_scan", "android": "https://dc.lft.to/lastmile_qr_scan"}, "is_reserved": 0, "fusion_lon": 0.0, "fusion_lat": 0.0, "lon": -76.973608, "name": "e2d5cdf6d2338f126493323e1e69da54"}, {"bike_id": "7bfcf6a4e65bcb0e4a6e329b77b07bbc", "type": "electric_scooter", "is_disabled": 0, "lat": 38.911168, "rental_uris": {"ios": "https://dc.lft.to/lastmile_qr_scan", "android": "https://dc.lft.to/lastmile_qr_scan"}, "is_reserved": 0, "fusion_lon": 0.0, "fusion_lat": 0.0, "lon": -77.02203666666666, "name": "7bfcf6a4e65bcb0e4a6e329b77b07bbc"}, {"bike_id": "d12f7693e4b43fe7c53a8d6efeabdc79", "type": "electric_scooter", "is_disabled": 0, "lat": 38.905326, "rental_uris": {"ios": "https://dc.lft.to/lastmile_qr_scan", "android": "https://dc.lft.to/lastmile_qr_scan"}, "is_reserved": 0, "fusion_lon": 0.0, "fusion_lat": 0.0, "lon": -77.07030633333333, "name": "d12f7693e4b43fe7c53a8d6efeabdc79"}, {"bike_id": "6c8a010c9dbc2de1b44139f7d2fccff6", "type": "electric_scooter", "is_disabled": 0, "lat": 38.9233165, "rental_uris": {"ios": "https://dc.lft.to/lastmile_qr_scan", "android": "https://dc.lft.to/lastmile_qr_scan"}, "is_reserved": 0, "fusion_lon": 0.0, "fusion_lat": 0.0, "lon": -77.036799, "name": "6c8a010c9dbc2de1b44139f7d2fccff6"}, {"bike_id": "1b23d557f2d7fec606e7122c479060be", "type": "electric_scooter", "is_disabled": 0, "lat": 38.905505166666664, "rental_uris": {"ios": "https://dc.lft.to/lastmile_qr_scan", "android": "https://dc.lft.to/lastmile_qr_scan"}, "is_reserved": 0, "fusion_lon": 0.0, "fusion_lat": 0.0, "lon": -77.0416955, "name": "1b23d557f2d7fec606e7122c479060be"}, {"bike_id": "8beb7d9aa2618ea6dff089bd7f0a5b94", "type": "electric_scooter", "is_disabled": 0, "lat": 38.90366516666667, "rental_uris": {"ios": "https://dc.lft.to/lastmile_qr_scan", "android": "https://dc.lft.to/lastmile_qr_scan"}, "is_reserved": 0, "fusion_lon": 0.0, "fusion_lat": 0.0, "lon": -77.04480933333333, "name": "8beb7d9aa2618ea6dff089bd7f0a5b94"}, {"bike_id": "4f8545aca29a0116df2c31f206c2853c", "type": "electric_scooter", "is_disabled": 0, "lat": 38.89912133333333, "rental_uris": {"ios": "https://dc.lft.to/lastmile_qr_scan", "android": "https://dc.lft.to/lastmile_qr_scan"}, "is_reserved": 0, "fusion_lon": 0.0, "fusion_lat": 0.0, "lon": -76.93365633333333, "name": "4f8545aca29a0116df2c31f206c2853c"}, {"bike_id": "b4b959f0b6ef4d2177690360ac8c0061", "type": "electric_bike", "is_disabled": 0, "lat": 38.873029, "rental_uris": {"ios": "https://dc.lft.to/lastmile_qr_scan", "android": "https://dc.lft.to/lastmile_qr_scan"}, "is_reserved": 0, "fusion_lon": 0.0, "fusion_lat": 0.0, "lon": -77.13920916666666, "name": "b4b959f0b6ef4d2177690360ac8c0061"}, {"bike_id": "bf73f25b18e92537d3730ce5cc99b31d", "type": "electric_bike", "is_disabled": 0, "lat": 38.84278666666667, "rental_uris": {"ios": "https://dc.lft.to/lastmile_qr_scan", "android": "https://dc.lft.to/lastmile_qr_scan"}, "is_reserved": 0, "fusion_lon": 0.0, "fusion_lat": 0.0, "lon": -76.98839116666667, "name": "bf73f25b18e92537d3730ce5cc99b31d"}, {"bike_id": "28fa0f1c4032b4f0ffe5b9583b4c952c", "type": "electric_scooter", "is_disabled": 0, "lat": 38.92348916666667, "rental_uris": {"ios": "https://dc.lft.to/lastmile_qr_scan", "android": "https://dc.lft.to/lastmile_qr_scan"}, "is_reserved": 0, "fusion_lon": 0.0, "fusion_lat": 0.0, "lon": -77.05119233333333, "name": "28fa0f1c4032b4f0ffe5b9583b4c952c"}, {"bike_id": "ca82ef68ddd217ed0c78b9252b029760", "type": "electric_scooter", "is_disabled": 0, "lat": 38.89477633333333, "rental_uris": {"ios": "https://dc.lft.to/lastmile_qr_scan", "android": "https://dc.lft.to/lastmile_qr_scan"}, "is_reserved": 0, "fusion_lon": 0.0, "fusion_lat": 0.0, "lon": -77.021845, "name": "ca82ef68ddd217ed0c78b9252b029760"}, {"bike_id": "c53fcdb18a012d943ce5992ada6f3638", "type": "electric_scooter", "is_disabled": 0, "lat": 38.963959333333335, "rental_uris": {"ios": "https://dc.lft.to/lastmile_qr_scan", "android": "https://dc.lft.to/lastmile_qr_scan"}, "is_reserved": 0, "fusion_lon": 0.0, "fusion_lat": 0.0, "lon": -77.02593766666666, "name": "c53fcdb18a012d943ce5992ada6f3638"}, {"bike_id": "06166d66350718c6fe567e634b622ed4", "type": "electric_scooter", "is_disabled": 0, "lat": 38.8736045, "rental_uris": {"ios": "https://dc.lft.to/lastmile_qr_scan", "android": "https://dc.lft.to/lastmile_qr_scan"}, "is_reserved": 0, "fusion_lon": 0.0, "fusion_lat": 0.0, "lon": -76.97031316666667, "name": "06166d66350718c6fe567e634b622ed4"}, {"bike_id": "17b4ce891a2c6fadb017a4940824b376", "type": "electric_scooter", "is_disabled": 0, "lat": 38.89819833333333, "rental_uris": {"ios": "https://dc.lft.to/lastmile_qr_scan", "android": "https://dc.lft.to/lastmile_qr_scan"}, "is_reserved": 0, "fusion_lon": 0.0, "fusion_lat": 0.0, "lon": -77.03099466666667, "name": "17b4ce891a2c6fadb017a4940824b376"}, {"bike_id": "0b79fc25006b7471ba0428955ad2e27c", "type": "electric_scooter", "is_disabled": 0, "lat": 38.893847666666666, "rental_uris": {"ios": "https://dc.lft.to/lastmile_qr_scan", "android": "https://dc.lft.to/lastmile_qr_scan"}, "is_reserved": 0, "fusion_lon": 0.0, "fusion_lat": 0.0, "lon": -77.02271416666666, "name": "0b79fc25006b7471ba0428955ad2e27c"}, {"bike_id": "30a4b3709ddf0a5a5a46667ff3e7c9ad", "type": "electric_scooter", "is_disabled": 0, "lat": 38.91642, "rental_uris": {"ios": "https://dc.lft.to/lastmile_qr_scan", "android": "https://dc.lft.to/lastmile_qr_scan"}, "is_reserved": 0, "fusion_lon": 0.0, "fusion_lat": 0.0, "lon": -77.032058, "name": "30a4b3709ddf0a5a5a46667ff3e7c9ad"}, {"bike_id": "e344087516e427b6ba71ae99a009f02b", "type": "electric_scooter", "is_disabled": 0, "lat": 38.917040166666666, "rental_uris": {"ios": "https://dc.lft.to/lastmile_qr_scan", "android": "https://dc.lft.to/lastmile_qr_scan"}, "is_reserved": 0, "fusion_lon": 0.0, "fusion_lat": 0.0, "lon": -77.02833716666666, "name": "e344087516e427b6ba71ae99a009f02b"}, {"bike_id": "4754703424d578cb8aee579f4bbcb1dc", "type": "electric_scooter", "is_disabled": 0, "lat": 38.91939466666667, "rental_uris": {"ios": "https://dc.lft.to/lastmile_qr_scan", "android": "https://dc.lft.to/lastmile_qr_scan"}, "is_reserved": 0, "fusion_lon": 0.0, "fusion_lat": 0.0, "lon": -77.02488966666667, "name": "4754703424d578cb8aee579f4bbcb1dc"}, {"bike_id": "0e501bc735b98888102459569641b32f", "type": "electric_scooter", "is_disabled": 0, "lat": 38.93081, "rental_uris": {"ios": "https://dc.lft.to/lastmile_qr_scan", "android": "https://dc.lft.to/lastmile_qr_scan"}, "is_reserved": 0, "fusion_lon": 0.0, "fusion_lat": 0.0, "lon": -77.027926, "name": "0e501bc735b98888102459569641b32f"}, {"bike_id": "0b0ae799f018e7997ee008800afde2f1", "type": "electric_scooter", "is_disabled": 0, "lat": 38.892909333333336, "rental_uris": {"ios": "https://dc.lft.to/lastmile_qr_scan", "android": "https://dc.lft.to/lastmile_qr_scan"}, "is_reserved": 0, "fusion_lon": 0.0, "fusion_lat": 0.0, "lon": -77.0335005, "name": "0b0ae799f018e7997ee008800afde2f1"}, {"bike_id": "7f8beb73ae8f561f6fec6c7158211938", "type": "electric_scooter", "is_disabled": 0, "lat": 38.93921483333333, "rental_uris": {"ios": "https://dc.lft.to/lastmile_qr_scan", "android": "https://dc.lft.to/lastmile_qr_scan"}, "is_reserved": 0, "fusion_lon": 0.0, "fusion_lat": 0.0, "lon": -77.06047983333333, "name": "7f8beb73ae8f561f6fec6c7158211938"}, {"bike_id": "d91879255769d6950f9abd308009ef76", "type": "electric_bike", "is_disabled": 0, "lat": 38.85356316666667, "rental_uris": {"ios": "https://dc.lft.to/lastmile_qr_scan", "android": "https://dc.lft.to/lastmile_qr_scan"}, "is_reserved": 0, "fusion_lon": 0.0, "fusion_lat": 0.0, "lon": -77.08686266666666, "name": "d91879255769d6950f9abd308009ef76"}, {"bike_id": "027b4c36d5f71ca188d0aead8b52adef", "type": "electric_scooter", "is_disabled": 0, "lat": 38.86504033333333, "rental_uris": {"ios": "https://dc.lft.to/lastmile_qr_scan", "android": "https://dc.lft.to/lastmile_qr_scan"}, "is_reserved": 0, "fusion_lon": 0.0, "fusion_lat": 0.0, "lon": -76.99001183333333, "name": "027b4c36d5f71ca188d0aead8b52adef"}, {"bike_id": "5d6c53d0888a049b90bbdf6376b7eb1b", "type": "electric_bike", "is_disabled": 0, "lat": 38.957605, "rental_uris": {"ios": "https://dc.lft.to/lastmile_qr_scan", "android": "https://dc.lft.to/lastmile_qr_scan"}, "is_reserved": 0, "fusion_lon": 0.0, "fusion_lat": 0.0, "lon": -77.020575, "name": "5d6c53d0888a049b90bbdf6376b7eb1b"}, {"bike_id": "3e992a6f80e3de47b29be7520d76041f", "type": "electric_scooter", "is_disabled": 0, "lat": 38.9573405, "rental_uris": {"ios": "https://dc.lft.to/lastmile_qr_scan", "android": "https://dc.lft.to/lastmile_qr_scan"}, "is_reserved": 0, "fusion_lon": 0.0, "fusion_lat": 0.0, "lon": -77.02801133333334, "name": "3e992a6f80e3de47b29be7520d76041f"}, {"bike_id": "95d031cdb99781b054f95610d6cfebec", "type": "electric_scooter", "is_disabled": 0, "lat": 38.9228305, "rental_uris": {"ios": "https://dc.lft.to/lastmile_qr_scan", "android": "https://dc.lft.to/lastmile_qr_scan"}, "is_reserved": 0, "fusion_lon": 0.0, "fusion_lat": 0.0, "lon": -77.04235916666667, "name": "95d031cdb99781b054f95610d6cfebec"}, {"bike_id": "65240eb0057c21ba3f44f6378b11c78d", "type": "electric_scooter", "is_disabled": 0, "lat": 38.900475166666666, "rental_uris": {"ios": "https://dc.lft.to/lastmile_qr_scan", "android": "https://dc.lft.to/lastmile_qr_scan"}, "is_reserved": 0, "fusion_lon": 0.0, "fusion_lat": 0.0, "lon": -76.99148883333334, "name": "65240eb0057c21ba3f44f6378b11c78d"}, {"bike_id": "f079ad941440676007c6e80f7bcc3b61", "type": "electric_scooter", "is_disabled": 0, "lat": 38.915543666666665, "rental_uris": {"ios": "https://dc.lft.to/lastmile_qr_scan", "android": "https://dc.lft.to/lastmile_qr_scan"}, "is_reserved": 0, "fusion_lon": 0.0, "fusion_lat": 0.0, "lon": -77.02566116666667, "name": "f079ad941440676007c6e80f7bcc3b61"}, {"bike_id": "44f2e9a6ec9941f2fb765590530244fd", "type": "electric_scooter", "is_disabled": 0, "lat": 38.91689916666667, "rental_uris": {"ios": "https://dc.lft.to/lastmile_qr_scan", "android": "https://dc.lft.to/lastmile_qr_scan"}, "is_reserved": 0, "fusion_lon": 0.0, "fusion_lat": 0.0, "lon": -77.03853833333334, "name": "44f2e9a6ec9941f2fb765590530244fd"}, {"bike_id": "47b4519fac03dea07c7c8324674040ff", "type": "electric_scooter", "is_disabled": 0, "lat": 38.892302666666666, "rental_uris": {"ios": "https://dc.lft.to/lastmile_qr_scan", "android": "https://dc.lft.to/lastmile_qr_scan"}, "is_reserved": 0, "fusion_lon": 0.0, "fusion_lat": 0.0, "lon": -77.013713, "name": "47b4519fac03dea07c7c8324674040ff"}, {"bike_id": "34222b26851ea3b8b7396c6b808267fb", "type": "electric_scooter", "is_disabled": 0, "lat": 38.9233155, "rental_uris": {"ios": "https://dc.lft.to/lastmile_qr_scan", "android": "https://dc.lft.to/lastmile_qr_scan"}, "is_reserved": 0, "fusion_lon": 0.0, "fusion_lat": 0.0, "lon": -77.036772, "name": "34222b26851ea3b8b7396c6b808267fb"}, {"bike_id": "8b6e5124f5e56dfed1c144ceb901ef31", "type": "electric_scooter", "is_disabled": 0, "lat": 38.9224435, "rental_uris": {"ios": "https://dc.lft.to/lastmile_qr_scan", "android": "https://dc.lft.to/lastmile_qr_scan"}, "is_reserved": 0, "fusion_lon": 0.0, "fusion_lat": 0.0, "lon": -77.02980566666666, "name": "8b6e5124f5e56dfed1c144ceb901ef31"}, {"bike_id": "2e74255e204202728cec5b213325d4e5", "type": "electric_scooter", "is_disabled": 0, "lat": 38.923317, "rental_uris": {"ios": "https://dc.lft.to/lastmile_qr_scan", "android": "https://dc.lft.to/lastmile_qr_scan"}, "is_reserved": 0, "fusion_lon": 0.0, "fusion_lat": 0.0, "lon": -77.03678933333333, "name": "2e74255e204202728cec5b213325d4e5"}, {"bike_id": "59011f7a930dbce28ee14666a5dfa33d", "type": "electric_scooter", "is_disabled": 0, "lat": 38.914193166666664, "rental_uris": {"ios": "https://dc.lft.to/lastmile_qr_scan", "android": "https://dc.lft.to/lastmile_qr_scan"}, "is_reserved": 0, "fusion_lon": 0.0, "fusion_lat": 0.0, "lon": -77.024084, "name": "59011f7a930dbce28ee14666a5dfa33d"}, {"bike_id": "ae34cff464fa8bdc7c10ade44afee1b6", "type": "electric_scooter", "is_disabled": 0, "lat": 38.905136666666664, "rental_uris": {"ios": "https://dc.lft.to/lastmile_qr_scan", "android": "https://dc.lft.to/lastmile_qr_scan"}, "is_reserved": 0, "fusion_lon": 0.0, "fusion_lat": 0.0, "lon": -77.04858633333333, "name": "ae34cff464fa8bdc7c10ade44afee1b6"}, {"bike_id": "226bd3e04587e94d4f788009aaf24767", "type": "electric_bike", "is_disabled": 0, "lat": 38.947333, "rental_uris": {"ios": "https://dc.lft.to/lastmile_qr_scan", "android": "https://dc.lft.to/lastmile_qr_scan"}, "is_reserved": 0, "fusion_lon": 0.0, "fusion_lat": 0.0, "lon": -76.99579183333333, "name": "226bd3e04587e94d4f788009aaf24767"}, {"bike_id": "015fbab8107fe60043411543981a28be", "type": "electric_scooter", "is_disabled": 0, "lat": 38.904116, "rental_uris": {"ios": "https://dc.lft.to/lastmile_qr_scan", "android": "https://dc.lft.to/lastmile_qr_scan"}, "is_reserved": 0, "fusion_lon": 0.0, "fusion_lat": 0.0, "lon": -76.97330616666666, "name": "015fbab8107fe60043411543981a28be"}, {"bike_id": "1a251351f5e656fc44e0de528cedd0f3", "type": "electric_scooter", "is_disabled": 0, "lat": 38.9208435, "rental_uris": {"ios": "https://dc.lft.to/lastmile_qr_scan", "android": "https://dc.lft.to/lastmile_qr_scan"}, "is_reserved": 0, "fusion_lon": 0.0, "fusion_lat": 0.0, "lon": -77.02300116666666, "name": "1a251351f5e656fc44e0de528cedd0f3"}, {"bike_id": "3b0f9ac62085c38c7eefe7c4924ab9eb", "type": "electric_scooter", "is_disabled": 0, "lat": 38.866512666666665, "rental_uris": {"ios": "https://dc.lft.to/lastmile_qr_scan", "android": "https://dc.lft.to/lastmile_qr_scan"}, "is_reserved": 0, "fusion_lon": 0.0, "fusion_lat": 0.0, "lon": -76.98877333333333, "name": "3b0f9ac62085c38c7eefe7c4924ab9eb"}, {"bike_id": "d0c93bef333f2f3ba54f87b759c4d9cd", "type": "electric_scooter", "is_disabled": 0, "lat": 38.9172955, "rental_uris": {"ios": "https://dc.lft.to/lastmile_qr_scan", "android": "https://dc.lft.to/lastmile_qr_scan"}, "is_reserved": 0, "fusion_lon": 0.0, "fusion_lat": 0.0, "lon": -77.03205933333334, "name": "d0c93bef333f2f3ba54f87b759c4d9cd"}, {"bike_id": "a33b6d2885a62a7404b9a4ce085d1d78", "type": "electric_scooter", "is_disabled": 0, "lat": 38.9035835, "rental_uris": {"ios": "https://dc.lft.to/lastmile_qr_scan", "android": "https://dc.lft.to/lastmile_qr_scan"}, "is_reserved": 0, "fusion_lon": 0.0, "fusion_lat": 0.0, "lon": -77.02203983333334, "name": "a33b6d2885a62a7404b9a4ce085d1d78"}, {"bike_id": "8f38da1ff81c00d8271628a18c66f515", "type": "electric_scooter", "is_disabled": 0, "lat": 38.917063666666664, "rental_uris": {"ios": "https://dc.lft.to/lastmile_qr_scan", "android": "https://dc.lft.to/lastmile_qr_scan"}, "is_reserved": 0, "fusion_lon": 0.0, "fusion_lat": 0.0, "lon": -77.03148, "name": "8f38da1ff81c00d8271628a18c66f515"}, {"bike_id": "fa2f20db6ca4429fb9b339f5af3fbba6", "type": "electric_scooter", "is_disabled": 0, "lat": 38.92161733333333, "rental_uris": {"ios": "https://dc.lft.to/lastmile_qr_scan", "android": "https://dc.lft.to/lastmile_qr_scan"}, "is_reserved": 0, "fusion_lon": 0.0, "fusion_lat": 0.0, "lon": -77.0333875, "name": "fa2f20db6ca4429fb9b339f5af3fbba6"}, {"bike_id": "11e6f9311937fa7fdde6e2866865db9d", "type": "electric_scooter", "is_disabled": 0, "lat": 38.91502283333333, "rental_uris": {"ios": "https://dc.lft.to/lastmile_qr_scan", "android": "https://dc.lft.to/lastmile_qr_scan"}, "is_reserved": 0, "fusion_lon": 0.0, "fusion_lat": 0.0, "lon": -77.01772383333333, "name": "11e6f9311937fa7fdde6e2866865db9d"}, {"bike_id": "e3dac0effd6a62763bd05afa9584ce68", "type": "electric_scooter", "is_disabled": 0, "lat": 38.912736, "rental_uris": {"ios": "https://dc.lft.to/lastmile_qr_scan", "android": "https://dc.lft.to/lastmile_qr_scan"}, "is_reserved": 0, "fusion_lon": 0.0, "fusion_lat": 0.0, "lon": -77.02214166666667, "name": "e3dac0effd6a62763bd05afa9584ce68"}, {"bike_id": "a8c86df0a77ac48a2b62c48e73eafb33", "type": "electric_scooter", "is_disabled": 0, "lat": 38.9057325, "rental_uris": {"ios": "https://dc.lft.to/lastmile_qr_scan", "android": "https://dc.lft.to/lastmile_qr_scan"}, "is_reserved": 0, "fusion_lon": 0.0, "fusion_lat": 0.0, "lon": -77.0448375, "name": "a8c86df0a77ac48a2b62c48e73eafb33"}, {"bike_id": "e4e123aa6580432eb834c65d3d355a9a", "type": "electric_scooter", "is_disabled": 0, "lat": 38.89292866666667, "rental_uris": {"ios": "https://dc.lft.to/lastmile_qr_scan", "android": "https://dc.lft.to/lastmile_qr_scan"}, "is_reserved": 0, "fusion_lon": 0.0, "fusion_lat": 0.0, "lon": -77.04873833333333, "name": "e4e123aa6580432eb834c65d3d355a9a"}, {"bike_id": "b7e7ac0abda6f32dbf77c489f0628c24", "type": "electric_scooter", "is_disabled": 0, "lat": 38.92915133333333, "rental_uris": {"ios": "https://dc.lft.to/lastmile_qr_scan", "android": "https://dc.lft.to/lastmile_qr_scan"}, "is_reserved": 0, "fusion_lon": 0.0, "fusion_lat": 0.0, "lon": -77.0374225, "name": "b7e7ac0abda6f32dbf77c489f0628c24"}, {"bike_id": "289845cb529bb5c85c0ad26e071b96d3", "type": "electric_scooter", "is_disabled": 0, "lat": 38.86443666666667, "rental_uris": {"ios": "https://dc.lft.to/lastmile_qr_scan", "android": "https://dc.lft.to/lastmile_qr_scan"}, "is_reserved": 0, "fusion_lon": 0.0, "fusion_lat": 0.0, "lon": -76.97988383333333, "name": "289845cb529bb5c85c0ad26e071b96d3"}, {"bike_id": "d3be5af2a576def479b2fad363edac00", "type": "electric_scooter", "is_disabled": 0, "lat": 38.8973235, "rental_uris": {"ios": "https://dc.lft.to/lastmile_qr_scan", "android": "https://dc.lft.to/lastmile_qr_scan"}, "is_reserved": 0, "fusion_lon": 0.0, "fusion_lat": 0.0, "lon": -77.026866, "name": "d3be5af2a576def479b2fad363edac00"}, {"bike_id": "ff9386cebaaaa4e17e73eb5092d3033a", "type": "electric_scooter", "is_disabled": 0, "lat": 38.8791335, "rental_uris": {"ios": "https://dc.lft.to/lastmile_qr_scan", "android": "https://dc.lft.to/lastmile_qr_scan"}, "is_reserved": 0, "fusion_lon": 0.0, "fusion_lat": 0.0, "lon": -77.0058975, "name": "ff9386cebaaaa4e17e73eb5092d3033a"}, {"bike_id": "e3ab0f695d609209aa7cdae3369ffc76", "type": "electric_scooter", "is_disabled": 0, "lat": 38.9063705, "rental_uris": {"ios": "https://dc.lft.to/lastmile_qr_scan", "android": "https://dc.lft.to/lastmile_qr_scan"}, "is_reserved": 0, "fusion_lon": 0.0, "fusion_lat": 0.0, "lon": -77.018236, "name": "e3ab0f695d609209aa7cdae3369ffc76"}, {"bike_id": "687c1fe9b14681800d15fcb0c1000764", "type": "electric_scooter", "is_disabled": 0, "lat": 38.8961505, "rental_uris": {"ios": "https://dc.lft.to/lastmile_qr_scan", "android": "https://dc.lft.to/lastmile_qr_scan"}, "is_reserved": 0, "fusion_lon": 0.0, "fusion_lat": 0.0, "lon": -77.02343616666667, "name": "687c1fe9b14681800d15fcb0c1000764"}, {"bike_id": "2995c43d5d2c2c428c4b26d234e9b587", "type": "electric_scooter", "is_disabled": 0, "lat": 38.87217183333333, "rental_uris": {"ios": "https://dc.lft.to/lastmile_qr_scan", "android": "https://dc.lft.to/lastmile_qr_scan"}, "is_reserved": 0, "fusion_lon": 0.0, "fusion_lat": 0.0, "lon": -77.01765966666666, "name": "2995c43d5d2c2c428c4b26d234e9b587"}, {"bike_id": "6493be54d3fbefb7c61fbfd968682421", "type": "electric_scooter", "is_disabled": 0, "lat": 38.89259216666667, "rental_uris": {"ios": "https://dc.lft.to/lastmile_qr_scan", "android": "https://dc.lft.to/lastmile_qr_scan"}, "is_reserved": 0, "fusion_lon": 0.0, "fusion_lat": 0.0, "lon": -76.92571633333333, "name": "6493be54d3fbefb7c61fbfd968682421"}, {"bike_id": "ceae2ee80a762d90fa61ec48ae6f93c1", "type": "electric_scooter", "is_disabled": 0, "lat": 38.884165333333335, "rental_uris": {"ios": "https://dc.lft.to/lastmile_qr_scan", "android": "https://dc.lft.to/lastmile_qr_scan"}, "is_reserved": 0, "fusion_lon": 0.0, "fusion_lat": 0.0, "lon": -77.00062866666667, "name": "ceae2ee80a762d90fa61ec48ae6f93c1"}, {"bike_id": "10b2d874fe31f5fa7d7dcb3732815c79", "type": "electric_scooter", "is_disabled": 0, "lat": 38.8922845, "rental_uris": {"ios": "https://dc.lft.to/lastmile_qr_scan", "android": "https://dc.lft.to/lastmile_qr_scan"}, "is_reserved": 0, "fusion_lon": 0.0, "fusion_lat": 0.0, "lon": -77.0495335, "name": "10b2d874fe31f5fa7d7dcb3732815c79"}, {"bike_id": "bef9f5e74000b307341f424e2e93bd3b", "type": "electric_scooter", "is_disabled": 0, "lat": 38.90587516666667, "rental_uris": {"ios": "https://dc.lft.to/lastmile_qr_scan", "android": "https://dc.lft.to/lastmile_qr_scan"}, "is_reserved": 0, "fusion_lon": 0.0, "fusion_lat": 0.0, "lon": -77.00283766666666, "name": "bef9f5e74000b307341f424e2e93bd3b"}, {"bike_id": "663b0831491496c50233350c9046b55d", "type": "electric_scooter", "is_disabled": 0, "lat": 38.9056915, "rental_uris": {"ios": "https://dc.lft.to/lastmile_qr_scan", "android": "https://dc.lft.to/lastmile_qr_scan"}, "is_reserved": 0, "fusion_lon": 0.0, "fusion_lat": 0.0, "lon": -77.03418133333334, "name": "663b0831491496c50233350c9046b55d"}, {"bike_id": "d5c04bff24a39033255eb2dc552fd393", "type": "electric_scooter", "is_disabled": 0, "lat": 38.90636033333333, "rental_uris": {"ios": "https://dc.lft.to/lastmile_qr_scan", "android": "https://dc.lft.to/lastmile_qr_scan"}, "is_reserved": 0, "fusion_lon": 0.0, "fusion_lat": 0.0, "lon": -77.027876, "name": "d5c04bff24a39033255eb2dc552fd393"}, {"bike_id": "aa71a74c484ab5eeefb42882a4d7e86e", "type": "electric_scooter", "is_disabled": 0, "lat": 38.89617416666667, "rental_uris": {"ios": "https://dc.lft.to/lastmile_qr_scan", "android": "https://dc.lft.to/lastmile_qr_scan"}, "is_reserved": 0, "fusion_lon": 0.0, "fusion_lat": 0.0, "lon": -77.044275, "name": "aa71a74c484ab5eeefb42882a4d7e86e"}, {"bike_id": "2a4d1f77b10dcb036aada4cc13aad8ed", "type": "electric_scooter", "is_disabled": 0, "lat": 38.9027255, "rental_uris": {"ios": "https://dc.lft.to/lastmile_qr_scan", "android": "https://dc.lft.to/lastmile_qr_scan"}, "is_reserved": 0, "fusion_lon": 0.0, "fusion_lat": 0.0, "lon": -77.01884766666667, "name": "2a4d1f77b10dcb036aada4cc13aad8ed"}, {"bike_id": "7016b6f1d5dc9a7225e03b3b55b19a77", "type": "electric_scooter", "is_disabled": 0, "lat": 38.9565445, "rental_uris": {"ios": "https://dc.lft.to/lastmile_qr_scan", "android": "https://dc.lft.to/lastmile_qr_scan"}, "is_reserved": 0, "fusion_lon": 0.0, "fusion_lat": 0.0, "lon": -77.0240405, "name": "7016b6f1d5dc9a7225e03b3b55b19a77"}, {"bike_id": "5146420b56ca955f6fa1ab57b38dd71e", "type": "electric_scooter", "is_disabled": 0, "lat": 38.88715716666667, "rental_uris": {"ios": "https://dc.lft.to/lastmile_qr_scan", "android": "https://dc.lft.to/lastmile_qr_scan"}, "is_reserved": 0, "fusion_lon": 0.0, "fusion_lat": 0.0, "lon": -76.99631816666667, "name": "5146420b56ca955f6fa1ab57b38dd71e"}, {"bike_id": "56665e49f3c30d0e723a6f04026c3f86", "type": "electric_bike", "is_disabled": 0, "lat": 38.931205, "rental_uris": {"ios": "https://dc.lft.to/lastmile_qr_scan", "android": "https://dc.lft.to/lastmile_qr_scan"}, "is_reserved": 0, "fusion_lon": 0.0, "fusion_lat": 0.0, "lon": -77.02424366666666, "name": "56665e49f3c30d0e723a6f04026c3f86"}, {"bike_id": "55d5469b98dd29d7bec8383a412eafdf", "type": "electric_scooter", "is_disabled": 0, "lat": 38.89794933333334, "rental_uris": {"ios": "https://dc.lft.to/lastmile_qr_scan", "android": "https://dc.lft.to/lastmile_qr_scan"}, "is_reserved": 0, "fusion_lon": 0.0, "fusion_lat": 0.0, "lon": -77.04996333333334, "name": "55d5469b98dd29d7bec8383a412eafdf"}, {"bike_id": "999bdfb602e0925dfcce4a3f14e949c5", "type": "electric_bike", "is_disabled": 0, "lat": 38.92967633333333, "rental_uris": {"ios": "https://dc.lft.to/lastmile_qr_scan", "android": "https://dc.lft.to/lastmile_qr_scan"}, "is_reserved": 0, "fusion_lon": 0.0, "fusion_lat": 0.0, "lon": -77.18567216666666, "name": "999bdfb602e0925dfcce4a3f14e949c5"}, {"bike_id": "ed7f8852d02eeeb6a26e13e8a0866edb", "type": "electric_bike", "is_disabled": 0, "lat": 38.86137983333333, "rental_uris": {"ios": "https://dc.lft.to/lastmile_qr_scan", "android": "https://dc.lft.to/lastmile_qr_scan"}, "is_reserved": 0, "fusion_lon": 0.0, "fusion_lat": 0.0, "lon": -77.09137933333334, "name": "ed7f8852d02eeeb6a26e13e8a0866edb"}, {"bike_id": "99669da56ce6d42788e851c088f38a90", "type": "electric_scooter", "is_disabled": 0, "lat": 38.932309833333335, "rental_uris": {"ios": "https://dc.lft.to/lastmile_qr_scan", "android": "https://dc.lft.to/lastmile_qr_scan"}, "is_reserved": 0, "fusion_lon": 0.0, "fusion_lat": 0.0, "lon": -77.03863216666667, "name": "99669da56ce6d42788e851c088f38a90"}, {"bike_id": "b0128a43209bc0aa0277411e8b9d3e00", "type": "electric_scooter", "is_disabled": 0, "lat": 38.918075, "rental_uris": {"ios": "https://dc.lft.to/lastmile_qr_scan", "android": "https://dc.lft.to/lastmile_qr_scan"}, "is_reserved": 0, "fusion_lon": 0.0, "fusion_lat": 0.0, "lon": -77.04521166666666, "name": "b0128a43209bc0aa0277411e8b9d3e00"}, {"bike_id": "6a7a40be10e0c9c2ee241df68450d7d6", "type": "electric_scooter", "is_disabled": 0, "lat": 38.902885833333336, "rental_uris": {"ios": "https://dc.lft.to/lastmile_qr_scan", "android": "https://dc.lft.to/lastmile_qr_scan"}, "is_reserved": 0, "fusion_lon": 0.0, "fusion_lat": 0.0, "lon": -77.05812866666666, "name": "6a7a40be10e0c9c2ee241df68450d7d6"}, {"bike_id": "7c5460f51186215e5c8c6aade6a5cdfb", "type": "electric_scooter", "is_disabled": 0, "lat": 38.89846166666667, "rental_uris": {"ios": "https://dc.lft.to/lastmile_qr_scan", "android": "https://dc.lft.to/lastmile_qr_scan"}, "is_reserved": 0, "fusion_lon": 0.0, "fusion_lat": 0.0, "lon": -76.9463095, "name": "7c5460f51186215e5c8c6aade6a5cdfb"}, {"bike_id": "33e01f480ab6897d9158ddf07d25e2db", "type": "electric_scooter", "is_disabled": 0, "lat": 38.89325766666666, "rental_uris": {"ios": "https://dc.lft.to/lastmile_qr_scan", "android": "https://dc.lft.to/lastmile_qr_scan"}, "is_reserved": 0, "fusion_lon": 0.0, "fusion_lat": 0.0, "lon": -77.04673083333333, "name": "33e01f480ab6897d9158ddf07d25e2db"}, {"bike_id": "6a4ab7477217045b39e7725a75e588f8", "type": "electric_scooter", "is_disabled": 0, "lat": 38.89240983333333, "rental_uris": {"ios": "https://dc.lft.to/lastmile_qr_scan", "android": "https://dc.lft.to/lastmile_qr_scan"}, "is_reserved": 0, "fusion_lon": 0.0, "fusion_lat": 0.0, "lon": -77.03958316666667, "name": "6a4ab7477217045b39e7725a75e588f8"}, {"bike_id": "e8a3caa303e652fffffc07c63a18724a", "type": "electric_scooter", "is_disabled": 0, "lat": 38.89005783333333, "rental_uris": {"ios": "https://dc.lft.to/lastmile_qr_scan", "android": "https://dc.lft.to/lastmile_qr_scan"}, "is_reserved": 0, "fusion_lon": 0.0, "fusion_lat": 0.0, "lon": -77.0021055, "name": "e8a3caa303e652fffffc07c63a18724a"}, {"bike_id": "09978f2dfe230278d93536b1a9482c87", "type": "electric_scooter", "is_disabled": 0, "lat": 38.93631033333333, "rental_uris": {"ios": "https://dc.lft.to/lastmile_qr_scan", "android": "https://dc.lft.to/lastmile_qr_scan"}, "is_reserved": 0, "fusion_lon": 0.0, "fusion_lat": 0.0, "lon": -77.02462466666667, "name": "09978f2dfe230278d93536b1a9482c87"}, {"bike_id": "bc4a517e97e6f961d1f44af5decfb2ce", "type": "electric_scooter", "is_disabled": 0, "lat": 38.90404483333333, "rental_uris": {"ios": "https://dc.lft.to/lastmile_qr_scan", "android": "https://dc.lft.to/lastmile_qr_scan"}, "is_reserved": 0, "fusion_lon": 0.0, "fusion_lat": 0.0, "lon": -77.048614, "name": "bc4a517e97e6f961d1f44af5decfb2ce"}, {"bike_id": "689dde6c5705689602b7a3e88ed8dff0", "type": "electric_scooter", "is_disabled": 0, "lat": 38.91830566666667, "rental_uris": {"ios": "https://dc.lft.to/lastmile_qr_scan", "android": "https://dc.lft.to/lastmile_qr_scan"}, "is_reserved": 0, "fusion_lon": 0.0, "fusion_lat": 0.0, "lon": -77.03942683333334, "name": "689dde6c5705689602b7a3e88ed8dff0"}, {"bike_id": "55e5c3d0c733bff6bce70934177c7114", "type": "electric_scooter", "is_disabled": 0, "lat": 38.90063683333333, "rental_uris": {"ios": "https://dc.lft.to/lastmile_qr_scan", "android": "https://dc.lft.to/lastmile_qr_scan"}, "is_reserved": 0, "fusion_lon": 0.0, "fusion_lat": 0.0, "lon": -77.04982983333333, "name": "55e5c3d0c733bff6bce70934177c7114"}, {"bike_id": "da1cbfa0fcbd331746e84df42c02571b", "type": "electric_scooter", "is_disabled": 0, "lat": 38.9221555, "rental_uris": {"ios": "https://dc.lft.to/lastmile_qr_scan", "android": "https://dc.lft.to/lastmile_qr_scan"}, "is_reserved": 0, "fusion_lon": 0.0, "fusion_lat": 0.0, "lon": -77.0425145, "name": "da1cbfa0fcbd331746e84df42c02571b"}, {"bike_id": "95c3e319f72e50969451718b7c8f3596", "type": "electric_scooter", "is_disabled": 0, "lat": 38.9110435, "rental_uris": {"ios": "https://dc.lft.to/lastmile_qr_scan", "android": "https://dc.lft.to/lastmile_qr_scan"}, "is_reserved": 0, "fusion_lon": 0.0, "fusion_lat": 0.0, "lon": -77.002176, "name": "95c3e319f72e50969451718b7c8f3596"}, {"bike_id": "004b6fdb8f545018a5ba71f5ec428d05", "type": "electric_scooter", "is_disabled": 0, "lat": 38.938235666666664, "rental_uris": {"ios": "https://dc.lft.to/lastmile_qr_scan", "android": "https://dc.lft.to/lastmile_qr_scan"}, "is_reserved": 0, "fusion_lon": 0.0, "fusion_lat": 0.0, "lon": -77.059938, "name": "004b6fdb8f545018a5ba71f5ec428d05"}, {"bike_id": "1613ba13ab120be494cc279bea7c8523", "type": "electric_bike", "is_disabled": 0, "lat": 38.9641095, "rental_uris": {"ios": "https://dc.lft.to/lastmile_qr_scan", "android": "https://dc.lft.to/lastmile_qr_scan"}, "is_reserved": 0, "fusion_lon": 0.0, "fusion_lat": 0.0, "lon": -77.00003233333334, "name": "1613ba13ab120be494cc279bea7c8523"}, {"bike_id": "9b62415e38468ab4e880eb5b895806ef", "type": "electric_scooter", "is_disabled": 0, "lat": 38.884911, "rental_uris": {"ios": "https://dc.lft.to/lastmile_qr_scan", "android": "https://dc.lft.to/lastmile_qr_scan"}, "is_reserved": 0, "fusion_lon": 0.0, "fusion_lat": 0.0, "lon": -77.0347635, "name": "9b62415e38468ab4e880eb5b895806ef"}, {"bike_id": "06418a3704e604d53eb314af40780d47", "type": "electric_scooter", "is_disabled": 0, "lat": 38.92299783333333, "rental_uris": {"ios": "https://dc.lft.to/lastmile_qr_scan", "android": "https://dc.lft.to/lastmile_qr_scan"}, "is_reserved": 0, "fusion_lon": 0.0, "fusion_lat": 0.0, "lon": -77.073017, "name": "06418a3704e604d53eb314af40780d47"}, {"bike_id": "4b6c80a09a073d65c79ac514fb11ba14", "type": "electric_scooter", "is_disabled": 0, "lat": 38.905817, "rental_uris": {"ios": "https://dc.lft.to/lastmile_qr_scan", "android": "https://dc.lft.to/lastmile_qr_scan"}, "is_reserved": 0, "fusion_lon": 0.0, "fusion_lat": 0.0, "lon": -77.05169716666667, "name": "4b6c80a09a073d65c79ac514fb11ba14"}, {"bike_id": "46054163148626e95238760b6d5f269a", "type": "electric_scooter", "is_disabled": 0, "lat": 38.932421, "rental_uris": {"ios": "https://dc.lft.to/lastmile_qr_scan", "android": "https://dc.lft.to/lastmile_qr_scan"}, "is_reserved": 0, "fusion_lon": 0.0, "fusion_lat": 0.0, "lon": -77.02972383333334, "name": "46054163148626e95238760b6d5f269a"}, {"bike_id": "14e7f3ba88f7e6bb63ea6e3182551491", "type": "electric_scooter", "is_disabled": 0, "lat": 38.919818666666664, "rental_uris": {"ios": "https://dc.lft.to/lastmile_qr_scan", "android": "https://dc.lft.to/lastmile_qr_scan"}, "is_reserved": 0, "fusion_lon": 0.0, "fusion_lat": 0.0, "lon": -77.017816, "name": "14e7f3ba88f7e6bb63ea6e3182551491"}, {"bike_id": "7bcb21770258062426e13a285ae82e16", "type": "electric_scooter", "is_disabled": 0, "lat": 38.90528366666667, "rental_uris": {"ios": "https://dc.lft.to/lastmile_qr_scan", "android": "https://dc.lft.to/lastmile_qr_scan"}, "is_reserved": 0, "fusion_lon": 0.0, "fusion_lat": 0.0, "lon": -77.04875316666667, "name": "7bcb21770258062426e13a285ae82e16"}, {"bike_id": "9d8a3ce406939ce15f35578daa375f13", "type": "electric_bike", "is_disabled": 0, "lat": 38.811638, "rental_uris": {"ios": "https://dc.lft.to/lastmile_qr_scan", "android": "https://dc.lft.to/lastmile_qr_scan"}, "is_reserved": 0, "fusion_lon": 0.0, "fusion_lat": 0.0, "lon": -77.06953983333334, "name": "9d8a3ce406939ce15f35578daa375f13"}, {"bike_id": "1e61a4d84ebcf9fcb7e9772cb81d80e4", "type": "electric_bike", "is_disabled": 0, "lat": 38.80457466666667, "rental_uris": {"ios": "https://dc.lft.to/lastmile_qr_scan", "android": "https://dc.lft.to/lastmile_qr_scan"}, "is_reserved": 0, "fusion_lon": 0.0, "fusion_lat": 0.0, "lon": -77.05389816666667, "name": "1e61a4d84ebcf9fcb7e9772cb81d80e4"}, {"bike_id": "4e6c158b554388343ef142ee40d69c63", "type": "electric_scooter", "is_disabled": 0, "lat": 38.91870316666667, "rental_uris": {"ios": "https://dc.lft.to/lastmile_qr_scan", "android": "https://dc.lft.to/lastmile_qr_scan"}, "is_reserved": 0, "fusion_lon": 0.0, "fusion_lat": 0.0, "lon": -77.0228435, "name": "4e6c158b554388343ef142ee40d69c63"}, {"bike_id": "b8fd40176226dab97eed916d466bc097", "type": "electric_scooter", "is_disabled": 0, "lat": 38.91984266666667, "rental_uris": {"ios": "https://dc.lft.to/lastmile_qr_scan", "android": "https://dc.lft.to/lastmile_qr_scan"}, "is_reserved": 0, "fusion_lon": 0.0, "fusion_lat": 0.0, "lon": -77.01215766666667, "name": "b8fd40176226dab97eed916d466bc097"}, {"bike_id": "e1645d1b09767c15dca0350783398928", "type": "electric_scooter", "is_disabled": 0, "lat": 38.9197805, "rental_uris": {"ios": "https://dc.lft.to/lastmile_qr_scan", "android": "https://dc.lft.to/lastmile_qr_scan"}, "is_reserved": 0, "fusion_lon": 0.0, "fusion_lat": 0.0, "lon": -77.04214566666667, "name": "e1645d1b09767c15dca0350783398928"}, {"bike_id": "41c76fe574886e464546ff25c728c329", "type": "electric_bike", "is_disabled": 0, "lat": 38.950888666666664, "rental_uris": {"ios": "https://dc.lft.to/lastmile_qr_scan", "android": "https://dc.lft.to/lastmile_qr_scan"}, "is_reserved": 0, "fusion_lon": 0.0, "fusion_lat": 0.0, "lon": -76.99787333333333, "name": "41c76fe574886e464546ff25c728c329"}, {"bike_id": "632c33fc8dba2dd9949a0d191df8ebce", "type": "electric_bike", "is_disabled": 0, "lat": 38.95327, "rental_uris": {"ios": "https://dc.lft.to/lastmile_qr_scan", "android": "https://dc.lft.to/lastmile_qr_scan"}, "is_reserved": 0, "fusion_lon": 0.0, "fusion_lat": 0.0, "lon": -76.98245733333333, "name": "632c33fc8dba2dd9949a0d191df8ebce"}, {"bike_id": "1edf8889a2b36e5a5a6d9e8bd4432bfc", "type": "electric_scooter", "is_disabled": 0, "lat": 38.905202833333334, "rental_uris": {"ios": "https://dc.lft.to/lastmile_qr_scan", "android": "https://dc.lft.to/lastmile_qr_scan"}, "is_reserved": 0, "fusion_lon": 0.0, "fusion_lat": 0.0, "lon": -77.0501135, "name": "1edf8889a2b36e5a5a6d9e8bd4432bfc"}, {"bike_id": "72e699c83c79465e25129be4f2a82731", "type": "electric_scooter", "is_disabled": 0, "lat": 38.89740033333333, "rental_uris": {"ios": "https://dc.lft.to/lastmile_qr_scan", "android": "https://dc.lft.to/lastmile_qr_scan"}, "is_reserved": 0, "fusion_lon": 0.0, "fusion_lat": 0.0, "lon": -77.02195566666667, "name": "72e699c83c79465e25129be4f2a82731"}, {"bike_id": "69a8e7090a5bbc14244d418b30451c6f", "type": "electric_scooter", "is_disabled": 0, "lat": 38.87688, "rental_uris": {"ios": "https://dc.lft.to/lastmile_qr_scan", "android": "https://dc.lft.to/lastmile_qr_scan"}, "is_reserved": 0, "fusion_lon": 0.0, "fusion_lat": 0.0, "lon": -77.017585, "name": "69a8e7090a5bbc14244d418b30451c6f"}, {"bike_id": "dcea04bea8ff029749d914ad014379cc", "type": "electric_scooter", "is_disabled": 0, "lat": 38.911968333333334, "rental_uris": {"ios": "https://dc.lft.to/lastmile_qr_scan", "android": "https://dc.lft.to/lastmile_qr_scan"}, "is_reserved": 0, "fusion_lon": 0.0, "fusion_lat": 0.0, "lon": -77.039684, "name": "dcea04bea8ff029749d914ad014379cc"}, {"bike_id": "e8c9aee5bea172ae3533734a666c683a", "type": "electric_scooter", "is_disabled": 0, "lat": 38.90912466666666, "rental_uris": {"ios": "https://dc.lft.to/lastmile_qr_scan", "android": "https://dc.lft.to/lastmile_qr_scan"}, "is_reserved": 0, "fusion_lon": 0.0, "fusion_lat": 0.0, "lon": -77.02718733333333, "name": "e8c9aee5bea172ae3533734a666c683a"}, {"bike_id": "b777f43987e3b703a1867b05f0dd3eef", "type": "electric_scooter", "is_disabled": 0, "lat": 38.933896, "rental_uris": {"ios": "https://dc.lft.to/lastmile_qr_scan", "android": "https://dc.lft.to/lastmile_qr_scan"}, "is_reserved": 0, "fusion_lon": 0.0, "fusion_lat": 0.0, "lon": -77.032162, "name": "b777f43987e3b703a1867b05f0dd3eef"}, {"bike_id": "e08e26724be9ac5222ca58b6100b523b", "type": "electric_scooter", "is_disabled": 0, "lat": 38.8843555, "rental_uris": {"ios": "https://dc.lft.to/lastmile_qr_scan", "android": "https://dc.lft.to/lastmile_qr_scan"}, "is_reserved": 0, "fusion_lon": 0.0, "fusion_lat": 0.0, "lon": -76.957559, "name": "e08e26724be9ac5222ca58b6100b523b"}, {"bike_id": "1f519a415a4223847faaedb79e190a2f", "type": "electric_scooter", "is_disabled": 0, "lat": 38.91994066666667, "rental_uris": {"ios": "https://dc.lft.to/lastmile_qr_scan", "android": "https://dc.lft.to/lastmile_qr_scan"}, "is_reserved": 0, "fusion_lon": 0.0, "fusion_lat": 0.0, "lon": -77.03248366666666, "name": "1f519a415a4223847faaedb79e190a2f"}, {"bike_id": "2156081896c84338221135b71025433e", "type": "electric_bike", "is_disabled": 0, "lat": 38.839342, "rental_uris": {"ios": "https://dc.lft.to/lastmile_qr_scan", "android": "https://dc.lft.to/lastmile_qr_scan"}, "is_reserved": 0, "fusion_lon": 0.0, "fusion_lat": 0.0, "lon": -77.07897266666667, "name": "2156081896c84338221135b71025433e"}, {"bike_id": "1c9487ac615f587e491c01777f83af66", "type": "electric_scooter", "is_disabled": 0, "lat": 38.905523, "rental_uris": {"ios": "https://dc.lft.to/lastmile_qr_scan", "android": "https://dc.lft.to/lastmile_qr_scan"}, "is_reserved": 0, "fusion_lon": 0.0, "fusion_lat": 0.0, "lon": -76.996196, "name": "1c9487ac615f587e491c01777f83af66"}, {"bike_id": "4bd9178818a6f6e1fa292695e3087a14", "type": "electric_scooter", "is_disabled": 0, "lat": 38.90676466666667, "rental_uris": {"ios": "https://dc.lft.to/lastmile_qr_scan", "android": "https://dc.lft.to/lastmile_qr_scan"}, "is_reserved": 0, "fusion_lon": 0.0, "fusion_lat": 0.0, "lon": -77.034325, "name": "4bd9178818a6f6e1fa292695e3087a14"}, {"bike_id": "872b1de988ca940df5494907f8881162", "type": "electric_scooter", "is_disabled": 0, "lat": 38.90759333333333, "rental_uris": {"ios": "https://dc.lft.to/lastmile_qr_scan", "android": "https://dc.lft.to/lastmile_qr_scan"}, "is_reserved": 0, "fusion_lon": 0.0, "fusion_lat": 0.0, "lon": -77.04211016666666, "name": "872b1de988ca940df5494907f8881162"}, {"bike_id": "704035f4baf74b6fb59c4aa2c7100870", "type": "electric_scooter", "is_disabled": 0, "lat": 38.917071666666665, "rental_uris": {"ios": "https://dc.lft.to/lastmile_qr_scan", "android": "https://dc.lft.to/lastmile_qr_scan"}, "is_reserved": 0, "fusion_lon": 0.0, "fusion_lat": 0.0, "lon": -77.04614033333333, "name": "704035f4baf74b6fb59c4aa2c7100870"}, {"bike_id": "970317315572c7be04d4eac3e091c2cb", "type": "electric_scooter", "is_disabled": 0, "lat": 38.922256, "rental_uris": {"ios": "https://dc.lft.to/lastmile_qr_scan", "android": "https://dc.lft.to/lastmile_qr_scan"}, "is_reserved": 0, "fusion_lon": 0.0, "fusion_lat": 0.0, "lon": -77.03458983333333, "name": "970317315572c7be04d4eac3e091c2cb"}, {"bike_id": "b519f17ef6ce40ff2a3533501ba50369", "type": "electric_scooter", "is_disabled": 0, "lat": 38.929789, "rental_uris": {"ios": "https://dc.lft.to/lastmile_qr_scan", "android": "https://dc.lft.to/lastmile_qr_scan"}, "is_reserved": 0, "fusion_lon": 0.0, "fusion_lat": 0.0, "lon": -77.03184133333333, "name": "b519f17ef6ce40ff2a3533501ba50369"}, {"bike_id": "653adb448a7e7ff37eb1fa0b5ae71c68", "type": "electric_scooter", "is_disabled": 0, "lat": 38.892951, "rental_uris": {"ios": "https://dc.lft.to/lastmile_qr_scan", "android": "https://dc.lft.to/lastmile_qr_scan"}, "is_reserved": 0, "fusion_lon": 0.0, "fusion_lat": 0.0, "lon": -77.04869633333334, "name": "653adb448a7e7ff37eb1fa0b5ae71c68"}, {"bike_id": "f9e605ba19dd9e8a946a0f42654dfbf1", "type": "electric_scooter", "is_disabled": 0, "lat": 38.922403333333335, "rental_uris": {"ios": "https://dc.lft.to/lastmile_qr_scan", "android": "https://dc.lft.to/lastmile_qr_scan"}, "is_reserved": 0, "fusion_lon": 0.0, "fusion_lat": 0.0, "lon": -77.03665666666667, "name": "f9e605ba19dd9e8a946a0f42654dfbf1"}, {"bike_id": "b56d670802575a945eb11465a0ce20f0", "type": "electric_scooter", "is_disabled": 0, "lat": 38.902923, "rental_uris": {"ios": "https://dc.lft.to/lastmile_qr_scan", "android": "https://dc.lft.to/lastmile_qr_scan"}, "is_reserved": 0, "fusion_lon": 0.0, "fusion_lat": 0.0, "lon": -76.976368, "name": "b56d670802575a945eb11465a0ce20f0"}, {"bike_id": "ad7ffc01c6047cd364869ca98ba1296f", "type": "electric_scooter", "is_disabled": 0, "lat": 38.90059016666667, "rental_uris": {"ios": "https://dc.lft.to/lastmile_qr_scan", "android": "https://dc.lft.to/lastmile_qr_scan"}, "is_reserved": 0, "fusion_lon": 0.0, "fusion_lat": 0.0, "lon": -77.036524, "name": "ad7ffc01c6047cd364869ca98ba1296f"}, {"bike_id": "926f888faad9b76d8fc8b317a872f0ac", "type": "electric_scooter", "is_disabled": 0, "lat": 38.917022, "rental_uris": {"ios": "https://dc.lft.to/lastmile_qr_scan", "android": "https://dc.lft.to/lastmile_qr_scan"}, "is_reserved": 0, "fusion_lon": 0.0, "fusion_lat": 0.0, "lon": -77.03211816666666, "name": "926f888faad9b76d8fc8b317a872f0ac"}, {"bike_id": "25b951ee2aeb88282fbf2647884ba8fb", "type": "electric_scooter", "is_disabled": 0, "lat": 38.89020583333333, "rental_uris": {"ios": "https://dc.lft.to/lastmile_qr_scan", "android": "https://dc.lft.to/lastmile_qr_scan"}, "is_reserved": 0, "fusion_lon": 0.0, "fusion_lat": 0.0, "lon": -76.93741983333334, "name": "25b951ee2aeb88282fbf2647884ba8fb"}, {"bike_id": "178a0dff07a861b5a032040e058761c9", "type": "electric_scooter", "is_disabled": 0, "lat": 38.909265, "rental_uris": {"ios": "https://dc.lft.to/lastmile_qr_scan", "android": "https://dc.lft.to/lastmile_qr_scan"}, "is_reserved": 0, "fusion_lon": 0.0, "fusion_lat": 0.0, "lon": -76.99969883333333, "name": "178a0dff07a861b5a032040e058761c9"}, {"bike_id": "7d945fe11ff00b26b06e1256d720d69d", "type": "electric_bike", "is_disabled": 0, "lat": 39.0399565, "rental_uris": {"ios": "https://dc.lft.to/lastmile_qr_scan", "android": "https://dc.lft.to/lastmile_qr_scan"}, "is_reserved": 0, "fusion_lon": 0.0, "fusion_lat": 0.0, "lon": -76.99923983333333, "name": "7d945fe11ff00b26b06e1256d720d69d"}, {"bike_id": "c84e00254578d3796d82387c2a381f1a", "type": "electric_scooter", "is_disabled": 0, "lat": 38.90031616666667, "rental_uris": {"ios": "https://dc.lft.to/lastmile_qr_scan", "android": "https://dc.lft.to/lastmile_qr_scan"}, "is_reserved": 0, "fusion_lon": 0.0, "fusion_lat": 0.0, "lon": -76.9885775, "name": "c84e00254578d3796d82387c2a381f1a"}, {"bike_id": "d19c6938c82003122636b925b6fc1290", "type": "electric_scooter", "is_disabled": 0, "lat": 38.907313333333335, "rental_uris": {"ios": "https://dc.lft.to/lastmile_qr_scan", "android": "https://dc.lft.to/lastmile_qr_scan"}, "is_reserved": 0, "fusion_lon": 0.0, "fusion_lat": 0.0, "lon": -77.0224015, "name": "d19c6938c82003122636b925b6fc1290"}, {"bike_id": "80648c2bc8fb4278dfe2d9e128815c2e", "type": "electric_scooter", "is_disabled": 0, "lat": 38.89228033333333, "rental_uris": {"ios": "https://dc.lft.to/lastmile_qr_scan", "android": "https://dc.lft.to/lastmile_qr_scan"}, "is_reserved": 0, "fusion_lon": 0.0, "fusion_lat": 0.0, "lon": -77.03172533333333, "name": "80648c2bc8fb4278dfe2d9e128815c2e"}, {"bike_id": "85bf923689863184b46337f00383723a", "type": "electric_scooter", "is_disabled": 0, "lat": 38.9324275, "rental_uris": {"ios": "https://dc.lft.to/lastmile_qr_scan", "android": "https://dc.lft.to/lastmile_qr_scan"}, "is_reserved": 0, "fusion_lon": 0.0, "fusion_lat": 0.0, "lon": -76.99521516666667, "name": "85bf923689863184b46337f00383723a"}, {"bike_id": "30a3ed02cee6ae2a0bfdaca8c75179e8", "type": "electric_scooter", "is_disabled": 0, "lat": 38.9155455, "rental_uris": {"ios": "https://dc.lft.to/lastmile_qr_scan", "android": "https://dc.lft.to/lastmile_qr_scan"}, "is_reserved": 0, "fusion_lon": 0.0, "fusion_lat": 0.0, "lon": -77.04445133333333, "name": "30a3ed02cee6ae2a0bfdaca8c75179e8"}, {"bike_id": "b4f2b0da8d3b99fd793bda9310677520", "type": "electric_scooter", "is_disabled": 0, "lat": 38.90079433333333, "rental_uris": {"ios": "https://dc.lft.to/lastmile_qr_scan", "android": "https://dc.lft.to/lastmile_qr_scan"}, "is_reserved": 0, "fusion_lon": 0.0, "fusion_lat": 0.0, "lon": -77.04823133333333, "name": "b4f2b0da8d3b99fd793bda9310677520"}, {"bike_id": "75728bc52224fa88f71bf097940cf45d", "type": "electric_scooter", "is_disabled": 0, "lat": 38.905824333333335, "rental_uris": {"ios": "https://dc.lft.to/lastmile_qr_scan", "android": "https://dc.lft.to/lastmile_qr_scan"}, "is_reserved": 0, "fusion_lon": 0.0, "fusion_lat": 0.0, "lon": -77.04187266666666, "name": "75728bc52224fa88f71bf097940cf45d"}, {"bike_id": "94c82cc348503f80e5bcda2ec19b6b37", "type": "electric_scooter", "is_disabled": 0, "lat": 38.9064205, "rental_uris": {"ios": "https://dc.lft.to/lastmile_qr_scan", "android": "https://dc.lft.to/lastmile_qr_scan"}, "is_reserved": 0, "fusion_lon": 0.0, "fusion_lat": 0.0, "lon": -77.02794016666667, "name": "94c82cc348503f80e5bcda2ec19b6b37"}, {"bike_id": "7d4c9c9291e9ded3207a74b0db71f0f9", "type": "electric_scooter", "is_disabled": 0, "lat": 38.92411966666667, "rental_uris": {"ios": "https://dc.lft.to/lastmile_qr_scan", "android": "https://dc.lft.to/lastmile_qr_scan"}, "is_reserved": 0, "fusion_lon": 0.0, "fusion_lat": 0.0, "lon": -77.02980083333334, "name": "7d4c9c9291e9ded3207a74b0db71f0f9"}, {"bike_id": "efcbdb611b59430e354cb199385421a8", "type": "electric_scooter", "is_disabled": 0, "lat": 38.933969833333336, "rental_uris": {"ios": "https://dc.lft.to/lastmile_qr_scan", "android": "https://dc.lft.to/lastmile_qr_scan"}, "is_reserved": 0, "fusion_lon": 0.0, "fusion_lat": 0.0, "lon": -77.057418, "name": "efcbdb611b59430e354cb199385421a8"}, {"bike_id": "c3e93b3e8db728cdd1dffb9de6ace175", "type": "electric_bike", "is_disabled": 0, "lat": 38.90626666666667, "rental_uris": {"ios": "https://dc.lft.to/lastmile_qr_scan", "android": "https://dc.lft.to/lastmile_qr_scan"}, "is_reserved": 0, "fusion_lon": 0.0, "fusion_lat": 0.0, "lon": -76.98603183333333, "name": "c3e93b3e8db728cdd1dffb9de6ace175"}, {"bike_id": "d35b0bb963ba90fffcb116954d8d617a", "type": "electric_scooter", "is_disabled": 0, "lat": 38.89637583333333, "rental_uris": {"ios": "https://dc.lft.to/lastmile_qr_scan", "android": "https://dc.lft.to/lastmile_qr_scan"}, "is_reserved": 0, "fusion_lon": 0.0, "fusion_lat": 0.0, "lon": -77.02622683333334, "name": "d35b0bb963ba90fffcb116954d8d617a"}, {"bike_id": "f167962c66323be160897bd705de17e6", "type": "electric_scooter", "is_disabled": 0, "lat": 38.8841055, "rental_uris": {"ios": "https://dc.lft.to/lastmile_qr_scan", "android": "https://dc.lft.to/lastmile_qr_scan"}, "is_reserved": 0, "fusion_lon": 0.0, "fusion_lat": 0.0, "lon": -76.94824816666667, "name": "f167962c66323be160897bd705de17e6"}, {"bike_id": "63b3dbdf3989f25aba6a6133a4325a97", "type": "electric_scooter", "is_disabled": 0, "lat": 38.9134845, "rental_uris": {"ios": "https://dc.lft.to/lastmile_qr_scan", "android": "https://dc.lft.to/lastmile_qr_scan"}, "is_reserved": 0, "fusion_lon": 0.0, "fusion_lat": 0.0, "lon": -77.02077633333333, "name": "63b3dbdf3989f25aba6a6133a4325a97"}, {"bike_id": "9ac04e1bbf72584676a7c625339d19fa", "type": "electric_scooter", "is_disabled": 0, "lat": 38.916956, "rental_uris": {"ios": "https://dc.lft.to/lastmile_qr_scan", "android": "https://dc.lft.to/lastmile_qr_scan"}, "is_reserved": 0, "fusion_lon": 0.0, "fusion_lat": 0.0, "lon": -77.03164883333334, "name": "9ac04e1bbf72584676a7c625339d19fa"}, {"bike_id": "e5932fedc645267f790f53cba2ec1930", "type": "electric_scooter", "is_disabled": 0, "lat": 38.908701666666666, "rental_uris": {"ios": "https://dc.lft.to/lastmile_qr_scan", "android": "https://dc.lft.to/lastmile_qr_scan"}, "is_reserved": 0, "fusion_lon": 0.0, "fusion_lat": 0.0, "lon": -76.99783716666667, "name": "e5932fedc645267f790f53cba2ec1930"}, {"bike_id": "76a4f68b407a2d236338a4b14201e164", "type": "electric_scooter", "is_disabled": 0, "lat": 38.90814366666667, "rental_uris": {"ios": "https://dc.lft.to/lastmile_qr_scan", "android": "https://dc.lft.to/lastmile_qr_scan"}, "is_reserved": 0, "fusion_lon": 0.0, "fusion_lat": 0.0, "lon": -77.0345125, "name": "76a4f68b407a2d236338a4b14201e164"}, {"bike_id": "bdf43d8d3899cee829469ab1b3dfd2c3", "type": "electric_scooter", "is_disabled": 0, "lat": 38.885163666666664, "rental_uris": {"ios": "https://dc.lft.to/lastmile_qr_scan", "android": "https://dc.lft.to/lastmile_qr_scan"}, "is_reserved": 0, "fusion_lon": 0.0, "fusion_lat": 0.0, "lon": -76.99088883333333, "name": "bdf43d8d3899cee829469ab1b3dfd2c3"}, {"bike_id": "049fa698400cda51fd25adb36c24667e", "type": "electric_scooter", "is_disabled": 0, "lat": 38.91543433333333, "rental_uris": {"ios": "https://dc.lft.to/lastmile_qr_scan", "android": "https://dc.lft.to/lastmile_qr_scan"}, "is_reserved": 0, "fusion_lon": 0.0, "fusion_lat": 0.0, "lon": -77.022088, "name": "049fa698400cda51fd25adb36c24667e"}, {"bike_id": "49bf7d161c3a9c90a30ab23f48ddc317", "type": "electric_scooter", "is_disabled": 0, "lat": 38.924980166666664, "rental_uris": {"ios": "https://dc.lft.to/lastmile_qr_scan", "android": "https://dc.lft.to/lastmile_qr_scan"}, "is_reserved": 0, "fusion_lon": 0.0, "fusion_lat": 0.0, "lon": -77.02443966666667, "name": "49bf7d161c3a9c90a30ab23f48ddc317"}, {"bike_id": "400cadcf0cd744fe9774f21179634347", "type": "electric_scooter", "is_disabled": 0, "lat": 38.965496333333334, "rental_uris": {"ios": "https://dc.lft.to/lastmile_qr_scan", "android": "https://dc.lft.to/lastmile_qr_scan"}, "is_reserved": 0, "fusion_lon": 0.0, "fusion_lat": 0.0, "lon": -77.03623066666667, "name": "400cadcf0cd744fe9774f21179634347"}, {"bike_id": "5bb96ca626db49f9a4ad75e88be5b7ce", "type": "electric_scooter", "is_disabled": 0, "lat": 38.905567833333336, "rental_uris": {"ios": "https://dc.lft.to/lastmile_qr_scan", "android": "https://dc.lft.to/lastmile_qr_scan"}, "is_reserved": 0, "fusion_lon": 0.0, "fusion_lat": 0.0, "lon": -77.044735, "name": "5bb96ca626db49f9a4ad75e88be5b7ce"}, {"bike_id": "85971b6d94a9434a92059496330711d6", "type": "electric_scooter", "is_disabled": 0, "lat": 38.9235925, "rental_uris": {"ios": "https://dc.lft.to/lastmile_qr_scan", "android": "https://dc.lft.to/lastmile_qr_scan"}, "is_reserved": 0, "fusion_lon": 0.0, "fusion_lat": 0.0, "lon": -77.050496, "name": "85971b6d94a9434a92059496330711d6"}, {"bike_id": "be5d828537d896f6f3918bd50f3536bc", "type": "electric_scooter", "is_disabled": 0, "lat": 38.92876666666667, "rental_uris": {"ios": "https://dc.lft.to/lastmile_qr_scan", "android": "https://dc.lft.to/lastmile_qr_scan"}, "is_reserved": 0, "fusion_lon": 0.0, "fusion_lat": 0.0, "lon": -77.034039, "name": "be5d828537d896f6f3918bd50f3536bc"}, {"bike_id": "41eebb1fa5c8d215f76ca3a1d0364227", "type": "electric_scooter", "is_disabled": 0, "lat": 38.90830183333333, "rental_uris": {"ios": "https://dc.lft.to/lastmile_qr_scan", "android": "https://dc.lft.to/lastmile_qr_scan"}, "is_reserved": 0, "fusion_lon": 0.0, "fusion_lat": 0.0, "lon": -77.04280966666667, "name": "41eebb1fa5c8d215f76ca3a1d0364227"}, {"bike_id": "8f8cf6e7ade007af11007d9c28fc47af", "type": "electric_scooter", "is_disabled": 0, "lat": 38.92460333333333, "rental_uris": {"ios": "https://dc.lft.to/lastmile_qr_scan", "android": "https://dc.lft.to/lastmile_qr_scan"}, "is_reserved": 0, "fusion_lon": 0.0, "fusion_lat": 0.0, "lon": -77.05209216666667, "name": "8f8cf6e7ade007af11007d9c28fc47af"}, {"bike_id": "cb6a8bfffc0ff709b59925cb96952fd8", "type": "electric_scooter", "is_disabled": 0, "lat": 38.920229666666664, "rental_uris": {"ios": "https://dc.lft.to/lastmile_qr_scan", "android": "https://dc.lft.to/lastmile_qr_scan"}, "is_reserved": 0, "fusion_lon": 0.0, "fusion_lat": 0.0, "lon": -77.04194683333333, "name": "cb6a8bfffc0ff709b59925cb96952fd8"}, {"bike_id": "952c1d7fb5deb8b6f5f987db96e27a0d", "type": "electric_scooter", "is_disabled": 0, "lat": 38.90366733333333, "rental_uris": {"ios": "https://dc.lft.to/lastmile_qr_scan", "android": "https://dc.lft.to/lastmile_qr_scan"}, "is_reserved": 0, "fusion_lon": 0.0, "fusion_lat": 0.0, "lon": -77.0482395, "name": "952c1d7fb5deb8b6f5f987db96e27a0d"}, {"bike_id": "4297521065bdaba307daae0dee4c0790", "type": "electric_scooter", "is_disabled": 0, "lat": 38.93432083333333, "rental_uris": {"ios": "https://dc.lft.to/lastmile_qr_scan", "android": "https://dc.lft.to/lastmile_qr_scan"}, "is_reserved": 0, "fusion_lon": 0.0, "fusion_lat": 0.0, "lon": -77.02850666666667, "name": "4297521065bdaba307daae0dee4c0790"}, {"bike_id": "35004be475c0c764b5c5865ceaffe05f", "type": "electric_bike", "is_disabled": 0, "lat": 38.920896666666664, "rental_uris": {"ios": "https://dc.lft.to/lastmile_qr_scan", "android": "https://dc.lft.to/lastmile_qr_scan"}, "is_reserved": 0, "fusion_lon": 0.0, "fusion_lat": 0.0, "lon": -77.03509416666667, "name": "35004be475c0c764b5c5865ceaffe05f"}, {"bike_id": "34acf748d3d8d6528d8ba769020a2c89", "type": "electric_scooter", "is_disabled": 0, "lat": 38.912719333333335, "rental_uris": {"ios": "https://dc.lft.to/lastmile_qr_scan", "android": "https://dc.lft.to/lastmile_qr_scan"}, "is_reserved": 0, "fusion_lon": 0.0, "fusion_lat": 0.0, "lon": -77.02219, "name": "34acf748d3d8d6528d8ba769020a2c89"}, {"bike_id": "c6c70faeddbd6775cda1d48547c62012", "type": "electric_bike", "is_disabled": 0, "lat": 38.95709866666667, "rental_uris": {"ios": "https://dc.lft.to/lastmile_qr_scan", "android": "https://dc.lft.to/lastmile_qr_scan"}, "is_reserved": 0, "fusion_lon": 0.0, "fusion_lat": 0.0, "lon": -77.02400283333333, "name": "c6c70faeddbd6775cda1d48547c62012"}, {"bike_id": "f719e572fa411051051ccd27a69f53ad", "type": "electric_scooter", "is_disabled": 0, "lat": 38.91581883333333, "rental_uris": {"ios": "https://dc.lft.to/lastmile_qr_scan", "android": "https://dc.lft.to/lastmile_qr_scan"}, "is_reserved": 0, "fusion_lon": 0.0, "fusion_lat": 0.0, "lon": -77.01232766666666, "name": "f719e572fa411051051ccd27a69f53ad"}, {"bike_id": "6945f36ab061de84ab8220e7a9565361", "type": "electric_scooter", "is_disabled": 0, "lat": 38.91919933333333, "rental_uris": {"ios": "https://dc.lft.to/lastmile_qr_scan", "android": "https://dc.lft.to/lastmile_qr_scan"}, "is_reserved": 0, "fusion_lon": 0.0, "fusion_lat": 0.0, "lon": -77.00257033333334, "name": "6945f36ab061de84ab8220e7a9565361"}, {"bike_id": "9b606ef9d176f65f80c0dff72f8d782e", "type": "electric_scooter", "is_disabled": 0, "lat": 38.895090333333336, "rental_uris": {"ios": "https://dc.lft.to/lastmile_qr_scan", "android": "https://dc.lft.to/lastmile_qr_scan"}, "is_reserved": 0, "fusion_lon": 0.0, "fusion_lat": 0.0, "lon": -77.02839333333333, "name": "9b606ef9d176f65f80c0dff72f8d782e"}, {"bike_id": "211c6c064efbcd2b3b5f67854adef475", "type": "electric_scooter", "is_disabled": 0, "lat": 38.88476716666667, "rental_uris": {"ios": "https://dc.lft.to/lastmile_qr_scan", "android": "https://dc.lft.to/lastmile_qr_scan"},