{"data": {"bikes": [{"is_reserved": 0, "type": "electric_scooter", "bike_id": "257feeb3c141b5f6e344b90fbc2ea873", "lat": 38.9251635, "lon": -77.02288266666666, "rental_uris": {"android": "https://dc.lft.to/lastmile_qr_scan", "ios": "https://dc.lft.to/lastmile_qr_scan"}, "is_disabled": 0, "fusion_lat": 0.0, "name": "257feeb3c141b5f6e344b90fbc2ea873", "fusion_lon": 0.0}, {"is_reserved": 0, "type": "electric_scooter", "bike_id": "a4f98b21494dd11006c04978b08a6d73", "lat": 38.92898916666667, "lon": -77.02499333333333, "rental_uris": {"android": "https://dc.lft.to/lastmile_qr_scan", "ios": "https://dc.lft.to/lastmile_qr_scan"}, "is_disabled": 0, "fusion_lat": 0.0, "name": "a4f98b21494dd11006c04978b08a6d73", "fusion_lon": 0.0}, {"is_reserved": 0, "type": "electric_scooter", "bike_id": "026aa6bcd015a6d417c235b7eb6fb99e", "lat": 38.91571033333334, "lon": -76.98387733333334, "rental_uris": {"android": "https://dc.lft.to/lastmile_qr_scan", "ios": "https://dc.lft.to/lastmile_qr_scan"}, "is_disabled": 0, "fusion_lat": 0.0, "name": "026aa6bcd015a6d417c235b7eb6fb99e", "fusion_lon": 0.0}, {"is_reserved": 0, "type": "electric_scooter", "bike_id": "79fc6e8f9c4235f486a5207fc0785471", "lat": 38.89223116666667, "lon": -77.04361416666667, "rental_uris": {"android": "https://dc.lft.to/lastmile_qr_scan", "ios": "https://dc.lft.to/lastmile_qr_scan"}, "is_disabled": 0, "fusion_lat": 0.0, "name": "79fc6e8f9c4235f486a5207fc0785471", "fusion_lon": 0.0}, {"is_reserved": 0, "type": "electric_bike", "bike_id": "7e1e2cbc4b5f3f61c1c152c40cd79778", "lat": 38.903828, "lon": -77.06273416666667, "rental_uris": {"android": "https://dc.lft.to/lastmile_qr_scan", "ios": "https://dc.lft.to/lastmile_qr_scan"}, "is_disabled": 0, "fusion_lat": 0.0, "name": "7e1e2cbc4b5f3f61c1c152c40cd79778", "fusion_lon": 0.0}, {"is_reserved": 0, "type": "electric_scooter", "bike_id": "0ca26c628a51fdecf3fbf65d94314aa9", "lat": 38.89727466666667, "lon": -76.99510766666667, "rental_uris": {"android": "https://dc.lft.to/lastmile_qr_scan", "ios": "https://dc.lft.to/lastmile_qr_scan"}, "is_disabled": 0, "fusion_lat": 0.0, "name": "0ca26c628a51fdecf3fbf65d94314aa9", "fusion_lon": 0.0}, {"is_reserved": 0, "type": "electric_bike", "bike_id": "80d8a5717ca120f8179f4c5079fe1f66", "lat": 38.83028483333333, "lon": -77.08380483333333, "rental_uris": {"android": "https://dc.lft.to/lastmile_qr_scan", "ios": "https://dc.lft.to/lastmile_qr_scan"}, "is_disabled": 0, "fusion_lat": 0.0, "name": "80d8a5717ca120f8179f4c5079fe1f66", "fusion_lon": 0.0}, {"is_reserved": 0, "type": "electric_bike", "bike_id": "dc45ba99ee961ec21c55cd730552aa62", "lat": 38.857804333333334, "lon": -76.98767333333333, "rental_uris": {"android": "https://dc.lft.to/lastmile_qr_scan", "ios": "https://dc.lft.to/lastmile_qr_scan"}, "is_disabled": 0, "fusion_lat": 0.0, "name": "dc45ba99ee961ec21c55cd730552aa62", "fusion_lon": 0.0}, {"is_reserved": 0, "type": "electric_scooter", "bike_id": "49b35f495652d9ae572c0561f8631f51", "lat": 38.9164205, "lon": -77.03221383333333, "rental_uris": {"android": "https://dc.lft.to/lastmile_qr_scan", "ios": "https://dc.lft.to/lastmile_qr_scan"}, "is_disabled": 0, "fusion_lat": 0.0, "name": "49b35f495652d9ae572c0561f8631f51", "fusion_lon": 0.0}, {"is_reserved": 0, "type": "electric_scooter", "bike_id": "971b46d6737ba4d59572b141dc1250ae", "lat": 38.914779833333334, "lon": -77.00219816666667, "rental_uris": {"android": "https://dc.lft.to/lastmile_qr_scan", "ios": "https://dc.lft.to/lastmile_qr_scan"}, "is_disabled": 0, "fusion_lat": 0.0, "name": "971b46d6737ba4d59572b141dc1250ae", "fusion_lon": 0.0}, {"is_reserved": 0, "type": "electric_scooter", "bike_id": "30b2b9f23687fab4918a6e7432e1dbe5", "lat": 38.92122333333333, "lon": -77.0458365, "rental_uris": {"android": "https://dc.lft.to/lastmile_qr_scan", "ios": "https://dc.lft.to/lastmile_qr_scan"}, "is_disabled": 0, "fusion_lat": 0.0, "name": "30b2b9f23687fab4918a6e7432e1dbe5", "fusion_lon": 0.0}, {"is_reserved": 0, "type": "electric_scooter", "bike_id": "2038920a0c72b61b8a54eb02bfb5e997", "lat": 38.944477, "lon": -77.028058, "rental_uris": {"android": "https://dc.lft.to/lastmile_qr_scan", "ios": "https://dc.lft.to/lastmile_qr_scan"}, "is_disabled": 0, "fusion_lat": 0.0, "name": "2038920a0c72b61b8a54eb02bfb5e997", "fusion_lon": 0.0}, {"is_reserved": 0, "type": "electric_bike", "bike_id": "18bc1801c056c02644e14a3d32c24d9e", "lat": 38.893931, "lon": -76.868504, "rental_uris": {"android": "https://dc.lft.to/lastmile_qr_scan", "ios": "https://dc.lft.to/lastmile_qr_scan"}, "is_disabled": 0, "fusion_lat": 0.0, "name": "18bc1801c056c02644e14a3d32c24d9e", "fusion_lon": 0.0}, {"is_reserved": 0, "type": "electric_scooter", "bike_id": "88b931f212abbbd33c34d5d5116d6779", "lat": 38.9233205, "lon": -77.008913, "rental_uris": {"android": "https://dc.lft.to/lastmile_qr_scan", "ios": "https://dc.lft.to/lastmile_qr_scan"}, "is_disabled": 0, "fusion_lat": 0.0, "name": "88b931f212abbbd33c34d5d5116d6779", "fusion_lon": 0.0}, {"is_reserved": 0, "type": "electric_scooter", "bike_id": "0ea9e1791b67dc9322533c8bba8ab2a5", "lat": 38.91844583333334, "lon": -77.041132, "rental_uris": {"android": "https://dc.lft.to/lastmile_qr_scan", "ios": "https://dc.lft.to/lastmile_qr_scan"}, "is_disabled": 0, "fusion_lat": 0.0, "name": "0ea9e1791b67dc9322533c8bba8ab2a5", "fusion_lon": 0.0}, {"is_reserved": 0, "type": "electric_scooter", "bike_id": "f69562bf8562b19ab390e605f1678e07", "lat": 38.9056075, "lon": -77.04162283333334, "rental_uris": {"android": "https://dc.lft.to/lastmile_qr_scan", "ios": "https://dc.lft.to/lastmile_qr_scan"}, "is_disabled": 0, "fusion_lat": 0.0, "name": "f69562bf8562b19ab390e605f1678e07", "fusion_lon": 0.0}, {"is_reserved": 0, "type": "electric_scooter", "bike_id": "811bf6b98dc899c4f58f5b97ba0e77dc", "lat": 38.89192116666667, "lon": -77.02176483333334, "rental_uris": {"android": "https://dc.lft.to/lastmile_qr_scan", "ios": "https://dc.lft.to/lastmile_qr_scan"}, "is_disabled": 0, "fusion_lat": 0.0, "name": "811bf6b98dc899c4f58f5b97ba0e77dc", "fusion_lon": 0.0}, {"is_reserved": 0, "type": "electric_scooter", "bike_id": "2d4c076efec63eba1c9c531b67f4a550", "lat": 38.90353616666667, "lon": -77.03201683333333, "rental_uris": {"android": "https://dc.lft.to/lastmile_qr_scan", "ios": "https://dc.lft.to/lastmile_qr_scan"}, "is_disabled": 0, "fusion_lat": 0.0, "name": "2d4c076efec63eba1c9c531b67f4a550", "fusion_lon": 0.0}, {"is_reserved": 0, "type": "electric_scooter", "bike_id": "710cb2399bf81e9f3fe34441865f6c7d", "lat": 38.916899666666666, "lon": -77.02604933333333, "rental_uris": {"android": "https://dc.lft.to/lastmile_qr_scan", "ios": "https://dc.lft.to/lastmile_qr_scan"}, "is_disabled": 0, "fusion_lat": 0.0, "name": "710cb2399bf81e9f3fe34441865f6c7d", "fusion_lon": 0.0}, {"is_reserved": 0, "type": "electric_scooter", "bike_id": "298fc36de32e90f7a3326f319aa372a0", "lat": 38.892206, "lon": -77.02626116666667, "rental_uris": {"android": "https://dc.lft.to/lastmile_qr_scan", "ios": "https://dc.lft.to/lastmile_qr_scan"}, "is_disabled": 0, "fusion_lat": 0.0, "name": "298fc36de32e90f7a3326f319aa372a0", "fusion_lon": 0.0}, {"is_reserved": 0, "type": "electric_scooter", "bike_id": "dad22b43daec733528924ee80f5cbf42", "lat": 38.9230905, "lon": -77.02969966666667, "rental_uris": {"android": "https://dc.lft.to/lastmile_qr_scan", "ios": "https://dc.lft.to/lastmile_qr_scan"}, "is_disabled": 0, "fusion_lat": 0.0, "name": "dad22b43daec733528924ee80f5cbf42", "fusion_lon": 0.0}, {"is_reserved": 0, "type": "electric_scooter", "bike_id": "4a3faff743cf7deb4335d89a4a6bc771", "lat": 38.898546, "lon": -77.028534, "rental_uris": {"android": "https://dc.lft.to/lastmile_qr_scan", "ios": "https://dc.lft.to/lastmile_qr_scan"}, "is_disabled": 0, "fusion_lat": 0.0, "name": "4a3faff743cf7deb4335d89a4a6bc771", "fusion_lon": 0.0}, {"is_reserved": 0, "type": "electric_scooter", "bike_id": "9baa2b19708bd80eb22a48bd36c66213", "lat": 38.91577483333333, "lon": -77.01237266666666, "rental_uris": {"android": "https://dc.lft.to/lastmile_qr_scan", "ios": "https://dc.lft.to/lastmile_qr_scan"}, "is_disabled": 0, "fusion_lat": 0.0, "name": "9baa2b19708bd80eb22a48bd36c66213", "fusion_lon": 0.0}, {"is_reserved": 0, "type": "electric_scooter", "bike_id": "f993a06963710e3d60cbba9be31495f3", "lat": 38.913866, "lon": -76.98418166666667, "rental_uris": {"android": "https://dc.lft.to/lastmile_qr_scan", "ios": "https://dc.lft.to/lastmile_qr_scan"}, "is_disabled": 0, "fusion_lat": 0.0, "name": "f993a06963710e3d60cbba9be31495f3", "fusion_lon": 0.0}, {"is_reserved": 0, "type": "electric_bike", "bike_id": "84303d9cd156c525f4e6fbf554a0cdef", "lat": 38.94268683333333, "lon": -76.99075266666667, "rental_uris": {"android": "https://dc.lft.to/lastmile_qr_scan", "ios": "https://dc.lft.to/lastmile_qr_scan"}, "is_disabled": 0, "fusion_lat": 0.0, "name": "84303d9cd156c525f4e6fbf554a0cdef", "fusion_lon": 0.0}, {"is_reserved": 0, "type": "electric_scooter", "bike_id": "05fb2d780ce3775bfcaee51b26d247f8", "lat": 38.923987, "lon": -77.05058483333333, "rental_uris": {"android": "https://dc.lft.to/lastmile_qr_scan", "ios": "https://dc.lft.to/lastmile_qr_scan"}, "is_disabled": 0, "fusion_lat": 0.0, "name": "05fb2d780ce3775bfcaee51b26d247f8", "fusion_lon": 0.0}, {"is_reserved": 0, "type": "electric_scooter", "bike_id": "becbbcd247776b37cccc483565db8eb8", "lat": 38.918469333333334, "lon": -77.03171133333333, "rental_uris": {"android": "https://dc.lft.to/lastmile_qr_scan", "ios": "https://dc.lft.to/lastmile_qr_scan"}, "is_disabled": 0, "fusion_lat": 0.0, "name": "becbbcd247776b37cccc483565db8eb8", "fusion_lon": 0.0}, {"is_reserved": 0, "type": "electric_scooter", "bike_id": "edc8c505dac094be15cb23ff8ae5153b", "lat": 38.892228833333334, "lon": -77.050024, "rental_uris": {"android": "https://dc.lft.to/lastmile_qr_scan", "ios": "https://dc.lft.to/lastmile_qr_scan"}, "is_disabled": 0, "fusion_lat": 0.0, "name": "edc8c505dac094be15cb23ff8ae5153b", "fusion_lon": 0.0}, {"is_reserved": 0, "type": "electric_scooter", "bike_id": "2b62684e442d153157ef3e41f77b00bc", "lat": 38.927463, "lon": -77.03267833333334, "rental_uris": {"android": "https://dc.lft.to/lastmile_qr_scan", "ios": "https://dc.lft.to/lastmile_qr_scan"}, "is_disabled": 0, "fusion_lat": 0.0, "name": "2b62684e442d153157ef3e41f77b00bc", "fusion_lon": 0.0}, {"is_reserved": 0, "type": "electric_scooter", "bike_id": "ac84e1eda810ce7ea18255b30be182bd", "lat": 38.9276085, "lon": -77.03244516666666, "rental_uris": {"android": "https://dc.lft.to/lastmile_qr_scan", "ios": "https://dc.lft.to/lastmile_qr_scan"}, "is_disabled": 0, "fusion_lat": 0.0, "name": "ac84e1eda810ce7ea18255b30be182bd", "fusion_lon": 0.0}, {"is_reserved": 0, "type": "electric_scooter", "bike_id": "78e254a77f4d7b59eac259d77a4159fb", "lat": 38.899022, "lon": -77.03361066666666, "rental_uris": {"android": "https://dc.lft.to/lastmile_qr_scan", "ios": "https://dc.lft.to/lastmile_qr_scan"}, "is_disabled": 0, "fusion_lat": 0.0, "name": "78e254a77f4d7b59eac259d77a4159fb", "fusion_lon": 0.0}, {"is_reserved": 0, "type": "electric_scooter", "bike_id": "db013b3e88dd7a31380936345b51efaf", "lat": 38.90589, "lon": -77.03666, "rental_uris": {"android": "https://dc.lft.to/lastmile_qr_scan", "ios": "https://dc.lft.to/lastmile_qr_scan"}, "is_disabled": 0, "fusion_lat": 0.0, "name": "db013b3e88dd7a31380936345b51efaf", "fusion_lon": 0.0}, {"is_reserved": 0, "type": "electric_scooter", "bike_id": "ff55d5cf75c1e971aa66b04e48d183ce", "lat": 38.91708933333334, "lon": -77.03220466666667, "rental_uris": {"android": "https://dc.lft.to/lastmile_qr_scan", "ios": "https://dc.lft.to/lastmile_qr_scan"}, "is_disabled": 0, "fusion_lat": 0.0, "name": "ff55d5cf75c1e971aa66b04e48d183ce", "fusion_lon": 0.0}, {"is_reserved": 0, "type": "electric_scooter", "bike_id": "c7561b4e740b2c9acdcd6cd1a55fe5c9", "lat": 38.92266433333333, "lon": -77.03661733333334, "rental_uris": {"android": "https://dc.lft.to/lastmile_qr_scan", "ios": "https://dc.lft.to/lastmile_qr_scan"}, "is_disabled": 0, "fusion_lat": 0.0, "name": "c7561b4e740b2c9acdcd6cd1a55fe5c9", "fusion_lon": 0.0}, {"is_reserved": 0, "type": "electric_scooter", "bike_id": "2c80aec701e19d4e36c7b32e34805eff", "lat": 38.918702, "lon": -77.013531, "rental_uris": {"android": "https://dc.lft.to/lastmile_qr_scan", "ios": "https://dc.lft.to/lastmile_qr_scan"}, "is_disabled": 0, "fusion_lat": 0.0, "name": "2c80aec701e19d4e36c7b32e34805eff", "fusion_lon": 0.0}, {"is_reserved": 0, "type": "electric_scooter", "bike_id": "d55c32bf66879136007b16c500aa92c7", "lat": 38.938661, "lon": -77.02563583333334, "rental_uris": {"android": "https://dc.lft.to/lastmile_qr_scan", "ios": "https://dc.lft.to/lastmile_qr_scan"}, "is_disabled": 0, "fusion_lat": 0.0, "name": "d55c32bf66879136007b16c500aa92c7", "fusion_lon": 0.0}, {"is_reserved": 0, "type": "electric_scooter", "bike_id": "3989cddef4de2019096b65b26a9d2552", "lat": 38.9664945, "lon": -77.00891233333333, "rental_uris": {"android": "https://dc.lft.to/lastmile_qr_scan", "ios": "https://dc.lft.to/lastmile_qr_scan"}, "is_disabled": 0, "fusion_lat": 0.0, "name": "3989cddef4de2019096b65b26a9d2552", "fusion_lon": 0.0}, {"is_reserved": 0, "type": "electric_scooter", "bike_id": "19fc5af184d2887050957e78346201b8", "lat": 38.92612966666667, "lon": -77.02160716666667, "rental_uris": {"android": "https://dc.lft.to/lastmile_qr_scan", "ios": "https://dc.lft.to/lastmile_qr_scan"}, "is_disabled": 0, "fusion_lat": 0.0, "name": "19fc5af184d2887050957e78346201b8", "fusion_lon": 0.0}, {"is_reserved": 0, "type": "electric_scooter", "bike_id": "60cb381077cc655afe6ebf66f2eae667", "lat": 38.90018233333333, "lon": -77.04469583333334, "rental_uris": {"android": "https://dc.lft.to/lastmile_qr_scan", "ios": "https://dc.lft.to/lastmile_qr_scan"}, "is_disabled": 0, "fusion_lat": 0.0, "name": "60cb381077cc655afe6ebf66f2eae667", "fusion_lon": 0.0}, {"is_reserved": 0, "type": "electric_bike", "bike_id": "cce058d2568fb48bf982a882bf4e0d14", "lat": 38.9955105, "lon": -77.074492, "rental_uris": {"android": "https://dc.lft.to/lastmile_qr_scan", "ios": "https://dc.lft.to/lastmile_qr_scan"}, "is_disabled": 0, "fusion_lat": 0.0, "name": "cce058d2568fb48bf982a882bf4e0d14", "fusion_lon": 0.0}, {"is_reserved": 0, "type": "electric_scooter", "bike_id": "09788fdf8537f33542f307e375282dd3", "lat": 38.95249366666667, "lon": -77.02387816666666, "rental_uris": {"android": "https://dc.lft.to/lastmile_qr_scan", "ios": "https://dc.lft.to/lastmile_qr_scan"}, "is_disabled": 0, "fusion_lat": 0.0, "name": "09788fdf8537f33542f307e375282dd3", "fusion_lon": 0.0}, {"is_reserved": 0, "type": "electric_scooter", "bike_id": "ef6520f4e2d5e231af3c36c02d632e6e", "lat": 38.90723333333333, "lon": -77.02542566666666, "rental_uris": {"android": "https://dc.lft.to/lastmile_qr_scan", "ios": "https://dc.lft.to/lastmile_qr_scan"}, "is_disabled": 0, "fusion_lat": 0.0, "name": "ef6520f4e2d5e231af3c36c02d632e6e", "fusion_lon": 0.0}, {"is_reserved": 0, "type": "electric_scooter", "bike_id": "1ce3fc4cc6a86f898944e037d6dc9ae0", "lat": 38.90066366666667, "lon": -77.04936433333333, "rental_uris": {"android": "https://dc.lft.to/lastmile_qr_scan", "ios": "https://dc.lft.to/lastmile_qr_scan"}, "is_disabled": 0, "fusion_lat": 0.0, "name": "1ce3fc4cc6a86f898944e037d6dc9ae0", "fusion_lon": 0.0}, {"is_reserved": 0, "type": "electric_scooter", "bike_id": "fc2b6b267f2aca75e5e5c7ee9205e24f", "lat": 38.93210116666667, "lon": -77.02396933333333, "rental_uris": {"android": "https://dc.lft.to/lastmile_qr_scan", "ios": "https://dc.lft.to/lastmile_qr_scan"}, "is_disabled": 0, "fusion_lat": 0.0, "name": "fc2b6b267f2aca75e5e5c7ee9205e24f", "fusion_lon": 0.0}, {"is_reserved": 0, "type": "electric_scooter", "bike_id": "69a35b6867a725b21cc43c84943b3591", "lat": 38.928226, "lon": -77.0225485, "rental_uris": {"android": "https://dc.lft.to/lastmile_qr_scan", "ios": "https://dc.lft.to/lastmile_qr_scan"}, "is_disabled": 0, "fusion_lat": 0.0, "name": "69a35b6867a725b21cc43c84943b3591", "fusion_lon": 0.0}, {"is_reserved": 0, "type": "electric_scooter", "bike_id": "12234e939a7086149fac81b061d8e09d", "lat": 38.923869833333335, "lon": -77.0366135, "rental_uris": {"android": "https://dc.lft.to/lastmile_qr_scan", "ios": "https://dc.lft.to/lastmile_qr_scan"}, "is_disabled": 0, "fusion_lat": 0.0, "name": "12234e939a7086149fac81b061d8e09d", "fusion_lon": 0.0}, {"is_reserved": 0, "type": "electric_scooter", "bike_id": "d1f8991dc5bcd0aea22bd78fbd4a9036", "lat": 38.920465666666665, "lon": -77.03145633333334, "rental_uris": {"android": "https://dc.lft.to/lastmile_qr_scan", "ios": "https://dc.lft.to/lastmile_qr_scan"}, "is_disabled": 0, "fusion_lat": 0.0, "name": "d1f8991dc5bcd0aea22bd78fbd4a9036", "fusion_lon": 0.0}, {"is_reserved": 0, "type": "electric_scooter", "bike_id": "48f4cfd983778451cbc62043c4d6c360", "lat": 38.91795583333333, "lon": -77.03192266666667, "rental_uris": {"android": "https://dc.lft.to/lastmile_qr_scan", "ios": "https://dc.lft.to/lastmile_qr_scan"}, "is_disabled": 0, "fusion_lat": 0.0, "name": "48f4cfd983778451cbc62043c4d6c360", "fusion_lon": 0.0}, {"is_reserved": 0, "type": "electric_scooter", "bike_id": "737d131f815351ab506a234ed9d56f9e", "lat": 38.877948, "lon": -77.0012525, "rental_uris": {"android": "https://dc.lft.to/lastmile_qr_scan", "ios": "https://dc.lft.to/lastmile_qr_scan"}, "is_disabled": 0, "fusion_lat": 0.0, "name": "737d131f815351ab506a234ed9d56f9e", "fusion_lon": 0.0}, {"is_reserved": 0, "type": "electric_bike", "bike_id": "49c5542dec1d2ec684b28f261e34f7cd", "lat": 38.911103833333335, "lon": -77.0356705, "rental_uris": {"android": "https://dc.lft.to/lastmile_qr_scan", "ios": "https://dc.lft.to/lastmile_qr_scan"}, "is_disabled": 0, "fusion_lat": 0.0, "name": "49c5542dec1d2ec684b28f261e34f7cd", "fusion_lon": 0.0}, {"is_reserved": 0, "type": "electric_scooter", "bike_id": "fb405af291b1677d44653d2cee799e35", "lat": 38.864873333333335, "lon": -76.97747516666666, "rental_uris": {"android": "https://dc.lft.to/lastmile_qr_scan", "ios": "https://dc.lft.to/lastmile_qr_scan"}, "is_disabled": 0, "fusion_lat": 0.0, "name": "fb405af291b1677d44653d2cee799e35", "fusion_lon": 0.0}, {"is_reserved": 0, "type": "electric_scooter", "bike_id": "3c38fc24a26ea77780ab144bc1afdb8e", "lat": 38.894819166666665, "lon": -76.99579916666667, "rental_uris": {"android": "https://dc.lft.to/lastmile_qr_scan", "ios": "https://dc.lft.to/lastmile_qr_scan"}, "is_disabled": 0, "fusion_lat": 0.0, "name": "3c38fc24a26ea77780ab144bc1afdb8e", "fusion_lon": 0.0}, {"is_reserved": 0, "type": "electric_scooter", "bike_id": "d5ee5843ea3ba76d097253eac23341dd", "lat": 38.88989766666667, "lon": -77.00334233333334, "rental_uris": {"android": "https://dc.lft.to/lastmile_qr_scan", "ios": "https://dc.lft.to/lastmile_qr_scan"}, "is_disabled": 0, "fusion_lat": 0.0, "name": "d5ee5843ea3ba76d097253eac23341dd", "fusion_lon": 0.0}, {"is_reserved": 0, "type": "electric_scooter", "bike_id": "0676b86f1ec91c41eec9c5691ae7cdc3", "lat": 38.923731, "lon": -77.030653, "rental_uris": {"android": "https://dc.lft.to/lastmile_qr_scan", "ios": "https://dc.lft.to/lastmile_qr_scan"}, "is_disabled": 0, "fusion_lat": 0.0, "name": "0676b86f1ec91c41eec9c5691ae7cdc3", "fusion_lon": 0.0}, {"is_reserved": 0, "type": "electric_scooter", "bike_id": "5294558b5e0d02a5071b584590cc48d2", "lat": 38.908484, "lon": -77.00161466666667, "rental_uris": {"android": "https://dc.lft.to/lastmile_qr_scan", "ios": "https://dc.lft.to/lastmile_qr_scan"}, "is_disabled": 0, "fusion_lat": 0.0, "name": "5294558b5e0d02a5071b584590cc48d2", "fusion_lon": 0.0}, {"is_reserved": 0, "type": "electric_scooter", "bike_id": "f911b86a730b276bc608928bdb9b3f18", "lat": 38.9124955, "lon": -77.02722733333333, "rental_uris": {"android": "https://dc.lft.to/lastmile_qr_scan", "ios": "https://dc.lft.to/lastmile_qr_scan"}, "is_disabled": 0, "fusion_lat": 0.0, "name": "f911b86a730b276bc608928bdb9b3f18", "fusion_lon": 0.0}, {"is_reserved": 0, "type": "electric_scooter", "bike_id": "993fffa82efe70b45b10841b35436367", "lat": 38.90361933333333, "lon": -77.0321495, "rental_uris": {"android": "https://dc.lft.to/lastmile_qr_scan", "ios": "https://dc.lft.to/lastmile_qr_scan"}, "is_disabled": 0, "fusion_lat": 0.0, "name": "993fffa82efe70b45b10841b35436367", "fusion_lon": 0.0}, {"is_reserved": 0, "type": "electric_scooter", "bike_id": "36b1b03f16a32b8995ee925099a3c45e", "lat": 38.893540333333334, "lon": -77.0173325, "rental_uris": {"android": "https://dc.lft.to/lastmile_qr_scan", "ios": "https://dc.lft.to/lastmile_qr_scan"}, "is_disabled": 0, "fusion_lat": 0.0, "name": "36b1b03f16a32b8995ee925099a3c45e", "fusion_lon": 0.0}, {"is_reserved": 0, "type": "electric_scooter", "bike_id": "1c6ec2ddc07d820be3a8c53888bcf1cc", "lat": 38.92681433333333, "lon": -77.026237, "rental_uris": {"android": "https://dc.lft.to/lastmile_qr_scan", "ios": "https://dc.lft.to/lastmile_qr_scan"}, "is_disabled": 0, "fusion_lat": 0.0, "name": "1c6ec2ddc07d820be3a8c53888bcf1cc", "fusion_lon": 0.0}, {"is_reserved": 0, "type": "electric_bike", "bike_id": "ab5c6a4b04f459146eaeb6c7ce1da9e4", "lat": 38.896125166666664, "lon": -76.9073105, "rental_uris": {"android": "https://dc.lft.to/lastmile_qr_scan", "ios": "https://dc.lft.to/lastmile_qr_scan"}, "is_disabled": 0, "fusion_lat": 0.0, "name": "ab5c6a4b04f459146eaeb6c7ce1da9e4", "fusion_lon": 0.0}, {"is_reserved": 0, "type": "electric_scooter", "bike_id": "6cfb7e4c54ec1c594aa0117f2da0e3ab", "lat": 38.8942715, "lon": -77.0559385, "rental_uris": {"android": "https://dc.lft.to/lastmile_qr_scan", "ios": "https://dc.lft.to/lastmile_qr_scan"}, "is_disabled": 0, "fusion_lat": 0.0, "name": "6cfb7e4c54ec1c594aa0117f2da0e3ab", "fusion_lon": 0.0}, {"is_reserved": 0, "type": "electric_scooter", "bike_id": "48557bad7b855e29de9a135deac40402", "lat": 38.921276166666665, "lon": -77.04431733333334, "rental_uris": {"android": "https://dc.lft.to/lastmile_qr_scan", "ios": "https://dc.lft.to/lastmile_qr_scan"}, "is_disabled": 0, "fusion_lat": 0.0, "name": "48557bad7b855e29de9a135deac40402", "fusion_lon": 0.0}, {"is_reserved": 0, "type": "electric_bike", "bike_id": "7d83d609baf3c9f9dae6dae881c1519a", "lat": 38.85415666666667, "lon": -77.08367866666667, "rental_uris": {"android": "https://dc.lft.to/lastmile_qr_scan", "ios": "https://dc.lft.to/lastmile_qr_scan"}, "is_disabled": 0, "fusion_lat": 0.0, "name": "7d83d609baf3c9f9dae6dae881c1519a", "fusion_lon": 0.0}, {"is_reserved": 0, "type": "electric_bike", "bike_id": "20c4938d6083d3665d97c55574054498", "lat": 38.964394166666665, "lon": -77.0316415, "rental_uris": {"android": "https://dc.lft.to/lastmile_qr_scan", "ios": "https://dc.lft.to/lastmile_qr_scan"}, "is_disabled": 0, "fusion_lat": 0.0, "name": "20c4938d6083d3665d97c55574054498", "fusion_lon": 0.0}, {"is_reserved": 0, "type": "electric_scooter", "bike_id": "15bfbe5b7aedd2bd32722466ba84bbc3", "lat": 38.93116633333333, "lon": -77.020995, "rental_uris": {"android": "https://dc.lft.to/lastmile_qr_scan", "ios": "https://dc.lft.to/lastmile_qr_scan"}, "is_disabled": 0, "fusion_lat": 0.0, "name": "15bfbe5b7aedd2bd32722466ba84bbc3", "fusion_lon": 0.0}, {"is_reserved": 0, "type": "electric_scooter", "bike_id": "d082d422395de9a4c2ebf34d41aec7f9", "lat": 38.924162333333335, "lon": -77.01946083333333, "rental_uris": {"android": "https://dc.lft.to/lastmile_qr_scan", "ios": "https://dc.lft.to/lastmile_qr_scan"}, "is_disabled": 0, "fusion_lat": 0.0, "name": "d082d422395de9a4c2ebf34d41aec7f9", "fusion_lon": 0.0}, {"is_reserved": 0, "type": "electric_scooter", "bike_id": "dddb15694bda6226b93795681a615456", "lat": 38.907719166666666, "lon": -77.04512916666667, "rental_uris": {"android": "https://dc.lft.to/lastmile_qr_scan", "ios": "https://dc.lft.to/lastmile_qr_scan"}, "is_disabled": 0, "fusion_lat": 0.0, "name": "dddb15694bda6226b93795681a615456", "fusion_lon": 0.0}, {"is_reserved": 0, "type": "electric_scooter", "bike_id": "6fd3c08d4325dff8e537f64bbe98e390", "lat": 38.92236883333333, "lon": -77.04389383333333, "rental_uris": {"android": "https://dc.lft.to/lastmile_qr_scan", "ios": "https://dc.lft.to/lastmile_qr_scan"}, "is_disabled": 0, "fusion_lat": 0.0, "name": "6fd3c08d4325dff8e537f64bbe98e390", "fusion_lon": 0.0}, {"is_reserved": 0, "type": "electric_scooter", "bike_id": "5b49e1e9d3362ad22938114473ad3639", "lat": 38.9136245, "lon": -77.01999866666667, "rental_uris": {"android": "https://dc.lft.to/lastmile_qr_scan", "ios": "https://dc.lft.to/lastmile_qr_scan"}, "is_disabled": 0, "fusion_lat": 0.0, "name": "5b49e1e9d3362ad22938114473ad3639", "fusion_lon": 0.0}, {"is_reserved": 0, "type": "electric_scooter", "bike_id": "0abcbf2cb3fd147ee65fc5ca7a653617", "lat": 38.913886166666664, "lon": -77.026093, "rental_uris": {"android": "https://dc.lft.to/lastmile_qr_scan", "ios": "https://dc.lft.to/lastmile_qr_scan"}, "is_disabled": 0, "fusion_lat": 0.0, "name": "0abcbf2cb3fd147ee65fc5ca7a653617", "fusion_lon": 0.0}, {"is_reserved": 0, "type": "electric_bike", "bike_id": "c1f9cbaf3690d83966d821636c603fbb", "lat": 38.87036283333333, "lon": -77.22905916666667, "rental_uris": {"android": "https://dc.lft.to/lastmile_qr_scan", "ios": "https://dc.lft.to/lastmile_qr_scan"}, "is_disabled": 0, "fusion_lat": 0.0, "name": "c1f9cbaf3690d83966d821636c603fbb", "fusion_lon": 0.0}, {"is_reserved": 0, "type": "electric_scooter", "bike_id": "1948e167712a3f400eb2d04f7885e0fb", "lat": 38.8942375, "lon": -76.99828883333333, "rental_uris": {"android": "https://dc.lft.to/lastmile_qr_scan", "ios": "https://dc.lft.to/lastmile_qr_scan"}, "is_disabled": 0, "fusion_lat": 0.0, "name": "1948e167712a3f400eb2d04f7885e0fb", "fusion_lon": 0.0}, {"is_reserved": 0, "type": "electric_scooter", "bike_id": "5db3ac4f86df2820d13cedfbe228af75", "lat": 38.942239, "lon": -77.029646, "rental_uris": {"android": "https://dc.lft.to/lastmile_qr_scan", "ios": "https://dc.lft.to/lastmile_qr_scan"}, "is_disabled": 0, "fusion_lat": 0.0, "name": "5db3ac4f86df2820d13cedfbe228af75", "fusion_lon": 0.0}, {"is_reserved": 0, "type": "electric_scooter", "bike_id": "01e0db96e8703e25be3736b4a66771de", "lat": 38.8765125, "lon": -77.00059466666667, "rental_uris": {"android": "https://dc.lft.to/lastmile_qr_scan", "ios": "https://dc.lft.to/lastmile_qr_scan"}, "is_disabled": 0, "fusion_lat": 0.0, "name": "01e0db96e8703e25be3736b4a66771de", "fusion_lon": 0.0}, {"is_reserved": 0, "type": "electric_scooter", "bike_id": "7bbaadb1792d492a4437828d38735427", "lat": 38.89011583333333, "lon": -76.93746433333334, "rental_uris": {"android": "https://dc.lft.to/lastmile_qr_scan", "ios": "https://dc.lft.to/lastmile_qr_scan"}, "is_disabled": 0, "fusion_lat": 0.0, "name": "7bbaadb1792d492a4437828d38735427", "fusion_lon": 0.0}, {"is_reserved": 0, "type": "electric_scooter", "bike_id": "48730a6b2defd3871567161761f9e2a7", "lat": 38.92449916666666, "lon": -77.02036983333333, "rental_uris": {"android": "https://dc.lft.to/lastmile_qr_scan", "ios": "https://dc.lft.to/lastmile_qr_scan"}, "is_disabled": 0, "fusion_lat": 0.0, "name": "48730a6b2defd3871567161761f9e2a7", "fusion_lon": 0.0}, {"is_reserved": 0, "type": "electric_bike", "bike_id": "159c94a0df32aba8a7cf7e001c2f85ae", "lat": 38.99888083333333, "lon": -76.90868116666667, "rental_uris": {"android": "https://dc.lft.to/lastmile_qr_scan", "ios": "https://dc.lft.to/lastmile_qr_scan"}, "is_disabled": 0, "fusion_lat": 0.0, "name": "159c94a0df32aba8a7cf7e001c2f85ae", "fusion_lon": 0.0}, {"is_reserved": 0, "type": "electric_scooter", "bike_id": "2608b293303eb0826dfa2cf6ce074842", "lat": 38.933069833333334, "lon": -77.02134533333333, "rental_uris": {"android": "https://dc.lft.to/lastmile_qr_scan", "ios": "https://dc.lft.to/lastmile_qr_scan"}, "is_disabled": 0, "fusion_lat": 0.0, "name": "2608b293303eb0826dfa2cf6ce074842", "fusion_lon": 0.0}, {"is_reserved": 0, "type": "electric_bike", "bike_id": "46bde163949ce8727d57b294c1fd1991", "lat": 39.0859015, "lon": -77.122732, "rental_uris": {"android": "https://dc.lft.to/lastmile_qr_scan", "ios": "https://dc.lft.to/lastmile_qr_scan"}, "is_disabled": 0, "fusion_lat": 0.0, "name": "46bde163949ce8727d57b294c1fd1991", "fusion_lon": 0.0}, {"is_reserved": 0, "type": "electric_scooter", "bike_id": "a9f633d8afdb1aff57944e8273260f90", "lat": 38.91552316666667, "lon": -77.01417866666667, "rental_uris": {"android": "https://dc.lft.to/lastmile_qr_scan", "ios": "https://dc.lft.to/lastmile_qr_scan"}, "is_disabled": 0, "fusion_lat": 0.0, "name": "a9f633d8afdb1aff57944e8273260f90", "fusion_lon": 0.0}, {"is_reserved": 0, "type": "electric_scooter", "bike_id": "c07f554d282d8b38c98ba9b24afa3674", "lat": 38.90773083333333, "lon": -77.04521166666666, "rental_uris": {"android": "https://dc.lft.to/lastmile_qr_scan", "ios": "https://dc.lft.to/lastmile_qr_scan"}, "is_disabled": 0, "fusion_lat": 0.0, "name": "c07f554d282d8b38c98ba9b24afa3674", "fusion_lon": 0.0}, {"is_reserved": 0, "type": "electric_scooter", "bike_id": "7995c518182c6cf39608442ca75b60d8", "lat": 38.92317716666667, "lon": -77.03540283333334, "rental_uris": {"android": "https://dc.lft.to/lastmile_qr_scan", "ios": "https://dc.lft.to/lastmile_qr_scan"}, "is_disabled": 0, "fusion_lat": 0.0, "name": "7995c518182c6cf39608442ca75b60d8", "fusion_lon": 0.0}, {"is_reserved": 0, "type": "electric_scooter", "bike_id": "0b3e66299af74b32701228725d364edb", "lat": 38.92640816666667, "lon": -77.02516, "rental_uris": {"android": "https://dc.lft.to/lastmile_qr_scan", "ios": "https://dc.lft.to/lastmile_qr_scan"}, "is_disabled": 0, "fusion_lat": 0.0, "name": "0b3e66299af74b32701228725d364edb", "fusion_lon": 0.0}, {"is_reserved": 0, "type": "electric_scooter", "bike_id": "e86210312740103578ca5b10d3b9f7c6", "lat": 38.92056616666667, "lon": -77.04181016666666, "rental_uris": {"android": "https://dc.lft.to/lastmile_qr_scan", "ios": "https://dc.lft.to/lastmile_qr_scan"}, "is_disabled": 0, "fusion_lat": 0.0, "name": "e86210312740103578ca5b10d3b9f7c6", "fusion_lon": 0.0}, {"is_reserved": 0, "type": "electric_scooter", "bike_id": "597922e272faf49419691a230e8dce92", "lat": 38.9044545, "lon": -77.058563, "rental_uris": {"android": "https://dc.lft.to/lastmile_qr_scan", "ios": "https://dc.lft.to/lastmile_qr_scan"}, "is_disabled": 0, "fusion_lat": 0.0, "name": "597922e272faf49419691a230e8dce92", "fusion_lon": 0.0}, {"is_reserved": 0, "type": "electric_scooter", "bike_id": "c02e246a78ba9419e51f138cca57d7b2", "lat": 38.92324766666667, "lon": -77.0289635, "rental_uris": {"android": "https://dc.lft.to/lastmile_qr_scan", "ios": "https://dc.lft.to/lastmile_qr_scan"}, "is_disabled": 0, "fusion_lat": 0.0, "name": "c02e246a78ba9419e51f138cca57d7b2", "fusion_lon": 0.0}, {"is_reserved": 0, "type": "electric_scooter", "bike_id": "078c84a38a8134c86bf57b26ab4cfaa5", "lat": 38.9205415, "lon": -76.99883883333334, "rental_uris": {"android": "https://dc.lft.to/lastmile_qr_scan", "ios": "https://dc.lft.to/lastmile_qr_scan"}, "is_disabled": 0, "fusion_lat": 0.0, "name": "078c84a38a8134c86bf57b26ab4cfaa5", "fusion_lon": 0.0}, {"is_reserved": 0, "type": "electric_scooter", "bike_id": "51f796c2562186c9de9e59d093d2489b", "lat": 38.916466, "lon": -77.02180366666667, "rental_uris": {"android": "https://dc.lft.to/lastmile_qr_scan", "ios": "https://dc.lft.to/lastmile_qr_scan"}, "is_disabled": 0, "fusion_lat": 0.0, "name": "51f796c2562186c9de9e59d093d2489b", "fusion_lon": 0.0}, {"is_reserved": 0, "type": "electric_scooter", "bike_id": "786fc9f66372524872aaf43df35407c8", "lat": 38.9026695, "lon": -77.00328183333333, "rental_uris": {"android": "https://dc.lft.to/lastmile_qr_scan", "ios": "https://dc.lft.to/lastmile_qr_scan"}, "is_disabled": 0, "fusion_lat": 0.0, "name": "786fc9f66372524872aaf43df35407c8", "fusion_lon": 0.0}, {"is_reserved": 0, "type": "electric_scooter", "bike_id": "23029cd297ce5f86b1048261e81f67c5", "lat": 38.9400855, "lon": -77.02735033333333, "rental_uris": {"android": "https://dc.lft.to/lastmile_qr_scan", "ios": "https://dc.lft.to/lastmile_qr_scan"}, "is_disabled": 0, "fusion_lat": 0.0, "name": "23029cd297ce5f86b1048261e81f67c5", "fusion_lon": 0.0}, {"is_reserved": 0, "type": "electric_scooter", "bike_id": "af915b594082bfb0f6980963cfc54137", "lat": 38.9180185, "lon": -77.03187566666666, "rental_uris": {"android": "https://dc.lft.to/lastmile_qr_scan", "ios": "https://dc.lft.to/lastmile_qr_scan"}, "is_disabled": 0, "fusion_lat": 0.0, "name": "af915b594082bfb0f6980963cfc54137", "fusion_lon": 0.0}, {"is_reserved": 0, "type": "electric_scooter", "bike_id": "32ec3362106dac801b2987e0b4288adf", "lat": 38.899239, "lon": -76.9457825, "rental_uris": {"android": "https://dc.lft.to/lastmile_qr_scan", "ios": "https://dc.lft.to/lastmile_qr_scan"}, "is_disabled": 0, "fusion_lat": 0.0, "name": "32ec3362106dac801b2987e0b4288adf", "fusion_lon": 0.0}, {"is_reserved": 0, "type": "electric_scooter", "bike_id": "19e9f6eded0e6af71afef8a417d52149", "lat": 38.927536833333335, "lon": -77.03277216666666, "rental_uris": {"android": "https://dc.lft.to/lastmile_qr_scan", "ios": "https://dc.lft.to/lastmile_qr_scan"}, "is_disabled": 0, "fusion_lat": 0.0, "name": "19e9f6eded0e6af71afef8a417d52149", "fusion_lon": 0.0}, {"is_reserved": 0, "type": "electric_scooter", "bike_id": "e020867430347044d4c1315f0763670c", "lat": 38.899924666666664, "lon": -77.02891633333333, "rental_uris": {"android": "https://dc.lft.to/lastmile_qr_scan", "ios": "https://dc.lft.to/lastmile_qr_scan"}, "is_disabled": 0, "fusion_lat": 0.0, "name": "e020867430347044d4c1315f0763670c", "fusion_lon": 0.0}, {"is_reserved": 0, "type": "electric_bike", "bike_id": "01ed248a7865c05eb9ab283019241088", "lat": 38.9141125, "lon": -77.0049, "rental_uris": {"android": "https://dc.lft.to/lastmile_qr_scan", "ios": "https://dc.lft.to/lastmile_qr_scan"}, "is_disabled": 0, "fusion_lat": 0.0, "name": "01ed248a7865c05eb9ab283019241088", "fusion_lon": 0.0}, {"is_reserved": 0, "type": "electric_scooter", "bike_id": "b926352091a6a8152a68efab31191904", "lat": 38.92362833333333, "lon": -77.05107866666667, "rental_uris": {"android": "https://dc.lft.to/lastmile_qr_scan", "ios": "https://dc.lft.to/lastmile_qr_scan"}, "is_disabled": 0, "fusion_lat": 0.0, "name": "b926352091a6a8152a68efab31191904", "fusion_lon": 0.0}, {"is_reserved": 0, "type": "electric_scooter", "bike_id": "ff0e9925ab454e74d59e05d80ff1b215", "lat": 38.928099833333334, "lon": -77.036206, "rental_uris": {"android": "https://dc.lft.to/lastmile_qr_scan", "ios": "https://dc.lft.to/lastmile_qr_scan"}, "is_disabled": 0, "fusion_lat": 0.0, "name": "ff0e9925ab454e74d59e05d80ff1b215", "fusion_lon": 0.0}, {"is_reserved": 0, "type": "electric_scooter", "bike_id": "da8c07010e635344f6ea424411c754b9", "lat": 38.9015955, "lon": -77.04491516666667, "rental_uris": {"android": "https://dc.lft.to/lastmile_qr_scan", "ios": "https://dc.lft.to/lastmile_qr_scan"}, "is_disabled": 0, "fusion_lat": 0.0, "name": "da8c07010e635344f6ea424411c754b9", "fusion_lon": 0.0}, {"is_reserved": 0, "type": "electric_scooter", "bike_id": "868c289a1dfcdfd0d4bf3dbe93dde608", "lat": 38.90566416666667, "lon": -77.01943783333333, "rental_uris": {"android": "https://dc.lft.to/lastmile_qr_scan", "ios": "https://dc.lft.to/lastmile_qr_scan"}, "is_disabled": 0, "fusion_lat": 0.0, "name": "868c289a1dfcdfd0d4bf3dbe93dde608", "fusion_lon": 0.0}, {"is_reserved": 0, "type": "electric_scooter", "bike_id": "48d8d79f0aeaebeb9938ce5a3658becc", "lat": 38.9213765, "lon": -77.01040483333334, "rental_uris": {"android": "https://dc.lft.to/lastmile_qr_scan", "ios": "https://dc.lft.to/lastmile_qr_scan"}, "is_disabled": 0, "fusion_lat": 0.0, "name": "48d8d79f0aeaebeb9938ce5a3658becc", "fusion_lon": 0.0}, {"is_reserved": 0, "type": "electric_scooter", "bike_id": "192a335e9838c1b9d4974926fb56254a", "lat": 38.90597983333333, "lon": -77.04681816666667, "rental_uris": {"android": "https://dc.lft.to/lastmile_qr_scan", "ios": "https://dc.lft.to/lastmile_qr_scan"}, "is_disabled": 0, "fusion_lat": 0.0, "name": "192a335e9838c1b9d4974926fb56254a", "fusion_lon": 0.0}, {"is_reserved": 0, "type": "electric_scooter", "bike_id": "243d97245e582971072237683d12897f", "lat": 38.931845833333334, "lon": -77.03846866666666, "rental_uris": {"android": "https://dc.lft.to/lastmile_qr_scan", "ios": "https://dc.lft.to/lastmile_qr_scan"}, "is_disabled": 0, "fusion_lat": 0.0, "name": "243d97245e582971072237683d12897f", "fusion_lon": 0.0}, {"is_reserved": 0, "type": "electric_scooter", "bike_id": "044c2e0976073daa6defbedd213922d2", "lat": 38.909608666666664, "lon": -77.014434, "rental_uris": {"android": "https://dc.lft.to/lastmile_qr_scan", "ios": "https://dc.lft.to/lastmile_qr_scan"}, "is_disabled": 0, "fusion_lat": 0.0, "name": "044c2e0976073daa6defbedd213922d2", "fusion_lon": 0.0}, {"is_reserved": 0, "type": "electric_scooter", "bike_id": "3fdacc95212c67099cd82fc0b8458fc9", "lat": 38.924025666666665, "lon": -76.95146916666667, "rental_uris": {"android": "https://dc.lft.to/lastmile_qr_scan", "ios": "https://dc.lft.to/lastmile_qr_scan"}, "is_disabled": 0, "fusion_lat": 0.0, "name": "3fdacc95212c67099cd82fc0b8458fc9", "fusion_lon": 0.0}, {"is_reserved": 0, "type": "electric_scooter", "bike_id": "8dc61b63cd04772cad36af50b03859ac", "lat": 38.896298333333334, "lon": -77.00209433333333, "rental_uris": {"android": "https://dc.lft.to/lastmile_qr_scan", "ios": "https://dc.lft.to/lastmile_qr_scan"}, "is_disabled": 0, "fusion_lat": 0.0, "name": "8dc61b63cd04772cad36af50b03859ac", "fusion_lon": 0.0}, {"is_reserved": 0, "type": "electric_scooter", "bike_id": "c2fd8aa5c9e9ab99c5267c57a6cbbc72", "lat": 38.9142105, "lon": -77.0180585, "rental_uris": {"android": "https://dc.lft.to/lastmile_qr_scan", "ios": "https://dc.lft.to/lastmile_qr_scan"}, "is_disabled": 0, "fusion_lat": 0.0, "name": "c2fd8aa5c9e9ab99c5267c57a6cbbc72", "fusion_lon": 0.0}, {"is_reserved": 0, "type": "electric_scooter", "bike_id": "5a695b8feace3cc1d860eb35163d5f42", "lat": 38.905674, "lon": -77.02756, "rental_uris": {"android": "https://dc.lft.to/lastmile_qr_scan", "ios": "https://dc.lft.to/lastmile_qr_scan"}, "is_disabled": 0, "fusion_lat": 0.0, "name": "5a695b8feace3cc1d860eb35163d5f42", "fusion_lon": 0.0}, {"is_reserved": 0, "type": "electric_scooter", "bike_id": "fe295e0d125bbe9435f68a3aaac28459", "lat": 38.900334, "lon": -76.9882815, "rental_uris": {"android": "https://dc.lft.to/lastmile_qr_scan", "ios": "https://dc.lft.to/lastmile_qr_scan"}, "is_disabled": 0, "fusion_lat": 0.0, "name": "fe295e0d125bbe9435f68a3aaac28459", "fusion_lon": 0.0}, {"is_reserved": 0, "type": "electric_scooter", "bike_id": "1242083335edb0eeafbd4fbda9563751", "lat": 38.892247166666664, "lon": -77.04487383333333, "rental_uris": {"android": "https://dc.lft.to/lastmile_qr_scan", "ios": "https://dc.lft.to/lastmile_qr_scan"}, "is_disabled": 0, "fusion_lat": 0.0, "name": "1242083335edb0eeafbd4fbda9563751", "fusion_lon": 0.0}, {"is_reserved": 0, "type": "electric_scooter", "bike_id": "25be9f4d3da1c6c814d954b9a222013e", "lat": 38.90078616666667, "lon": -77.02380283333333, "rental_uris": {"android": "https://dc.lft.to/lastmile_qr_scan", "ios": "https://dc.lft.to/lastmile_qr_scan"}, "is_disabled": 0, "fusion_lat": 0.0, "name": "25be9f4d3da1c6c814d954b9a222013e", "fusion_lon": 0.0}, {"is_reserved": 0, "type": "electric_scooter", "bike_id": "36ce945d536e808bafcb161988848069", "lat": 38.924800166666664, "lon": -77.02722416666667, "rental_uris": {"android": "https://dc.lft.to/lastmile_qr_scan", "ios": "https://dc.lft.to/lastmile_qr_scan"}, "is_disabled": 0, "fusion_lat": 0.0, "name": "36ce945d536e808bafcb161988848069", "fusion_lon": 0.0}, {"is_reserved": 0, "type": "electric_scooter", "bike_id": "df79c70117abef56cdafbd6691ac5abe", "lat": 38.912904, "lon": -77.02304183333334, "rental_uris": {"android": "https://dc.lft.to/lastmile_qr_scan", "ios": "https://dc.lft.to/lastmile_qr_scan"}, "is_disabled": 0, "fusion_lat": 0.0, "name": "df79c70117abef56cdafbd6691ac5abe", "fusion_lon": 0.0}, {"is_reserved": 0, "type": "electric_scooter", "bike_id": "acce522318c902257fbd7a8b08dd17c4", "lat": 38.939772, "lon": -77.03567733333334, "rental_uris": {"android": "https://dc.lft.to/lastmile_qr_scan", "ios": "https://dc.lft.to/lastmile_qr_scan"}, "is_disabled": 0, "fusion_lat": 0.0, "name": "acce522318c902257fbd7a8b08dd17c4", "fusion_lon": 0.0}, {"is_reserved": 0, "type": "electric_bike", "bike_id": "948ba1209bd1e1495bfafde486980c54", "lat": 38.793308333333336, "lon": -77.000509, "rental_uris": {"android": "https://dc.lft.to/lastmile_qr_scan", "ios": "https://dc.lft.to/lastmile_qr_scan"}, "is_disabled": 0, "fusion_lat": 0.0, "name": "948ba1209bd1e1495bfafde486980c54", "fusion_lon": 0.0}, {"is_reserved": 0, "type": "electric_scooter", "bike_id": "ca3956f17f7cf96018d08cdb7403f46f", "lat": 38.935677, "lon": -77.03269666666667, "rental_uris": {"android": "https://dc.lft.to/lastmile_qr_scan", "ios": "https://dc.lft.to/lastmile_qr_scan"}, "is_disabled": 0, "fusion_lat": 0.0, "name": "ca3956f17f7cf96018d08cdb7403f46f", "fusion_lon": 0.0}, {"is_reserved": 0, "type": "electric_scooter", "bike_id": "13e0860cb5f09856088301959d4eed6e", "lat": 38.923864, "lon": -77.05046116666666, "rental_uris": {"android": "https://dc.lft.to/lastmile_qr_scan", "ios": "https://dc.lft.to/lastmile_qr_scan"}, "is_disabled": 0, "fusion_lat": 0.0, "name": "13e0860cb5f09856088301959d4eed6e", "fusion_lon": 0.0}, {"is_reserved": 0, "type": "electric_scooter", "bike_id": "4761383f88b91c8ce7c3c53242d331b9", "lat": 38.892239833333335, "lon": -77.02423733333333, "rental_uris": {"android": "https://dc.lft.to/lastmile_qr_scan", "ios": "https://dc.lft.to/lastmile_qr_scan"}, "is_disabled": 0, "fusion_lat": 0.0, "name": "4761383f88b91c8ce7c3c53242d331b9", "fusion_lon": 0.0}, {"is_reserved": 0, "type": "electric_scooter", "bike_id": "b3e5a21ead84deda1ec8c777c7ba7a57", "lat": 38.905626166666664, "lon": -77.03250266666667, "rental_uris": {"android": "https://dc.lft.to/lastmile_qr_scan", "ios": "https://dc.lft.to/lastmile_qr_scan"}, "is_disabled": 0, "fusion_lat": 0.0, "name": "b3e5a21ead84deda1ec8c777c7ba7a57", "fusion_lon": 0.0}, {"is_reserved": 0, "type": "electric_scooter", "bike_id": "b05c0515cf9fcbe927a0a850b0f83553", "lat": 38.87650766666667, "lon": -77.0083865, "rental_uris": {"android": "https://dc.lft.to/lastmile_qr_scan", "ios": "https://dc.lft.to/lastmile_qr_scan"}, "is_disabled": 0, "fusion_lat": 0.0, "name": "b05c0515cf9fcbe927a0a850b0f83553", "fusion_lon": 0.0}, {"is_reserved": 0, "type": "electric_scooter", "bike_id": "d05f0ec84667d784da72680fe5dc70ba", "lat": 38.923935, "lon": -77.04456516666667, "rental_uris": {"android": "https://dc.lft.to/lastmile_qr_scan", "ios": "https://dc.lft.to/lastmile_qr_scan"}, "is_disabled": 0, "fusion_lat": 0.0, "name": "d05f0ec84667d784da72680fe5dc70ba", "fusion_lon": 0.0}, {"is_reserved": 0, "type": "electric_scooter", "bike_id": "774857c314a11b7ec0373bb46038109c", "lat": 38.89822516666667, "lon": -77.03061133333334, "rental_uris": {"android": "https://dc.lft.to/lastmile_qr_scan", "ios": "https://dc.lft.to/lastmile_qr_scan"}, "is_disabled": 0, "fusion_lat": 0.0, "name": "774857c314a11b7ec0373bb46038109c", "fusion_lon": 0.0}, {"is_reserved": 0, "type": "electric_scooter", "bike_id": "e851fa21a7a2c58e1a2a4140a24035f5", "lat": 38.90388016666667, "lon": -77.0403845, "rental_uris": {"android": "https://dc.lft.to/lastmile_qr_scan", "ios": "https://dc.lft.to/lastmile_qr_scan"}, "is_disabled": 0, "fusion_lat": 0.0, "name": "e851fa21a7a2c58e1a2a4140a24035f5", "fusion_lon": 0.0}, {"is_reserved": 0, "type": "electric_scooter", "bike_id": "f92a218aaf07fc8178de52d66e2e83a5", "lat": 38.895222833333335, "lon": -77.039588, "rental_uris": {"android": "https://dc.lft.to/lastmile_qr_scan", "ios": "https://dc.lft.to/lastmile_qr_scan"}, "is_disabled": 0, "fusion_lat": 0.0, "name": "f92a218aaf07fc8178de52d66e2e83a5", "fusion_lon": 0.0}, {"is_reserved": 0, "type": "electric_scooter", "bike_id": "756a63357ee704190c86c3240d60c03c", "lat": 38.8981805, "lon": -77.02184066666666, "rental_uris": {"android": "https://dc.lft.to/lastmile_qr_scan", "ios": "https://dc.lft.to/lastmile_qr_scan"}, "is_disabled": 0, "fusion_lat": 0.0, "name": "756a63357ee704190c86c3240d60c03c", "fusion_lon": 0.0}, {"is_reserved": 0, "type": "electric_scooter", "bike_id": "ea90b5c6a2b9e25576571a0681f1c6f2", "lat": 38.916776, "lon": -77.03464483333333, "rental_uris": {"android": "https://dc.lft.to/lastmile_qr_scan", "ios": "https://dc.lft.to/lastmile_qr_scan"}, "is_disabled": 0, "fusion_lat": 0.0, "name": "ea90b5c6a2b9e25576571a0681f1c6f2", "fusion_lon": 0.0}, {"is_reserved": 0, "type": "electric_scooter", "bike_id": "6334c4afa179dd447e76434ad2b3f3f8", "lat": 38.89595766666667, "lon": -76.9299165, "rental_uris": {"android": "https://dc.lft.to/lastmile_qr_scan", "ios": "https://dc.lft.to/lastmile_qr_scan"}, "is_disabled": 0, "fusion_lat": 0.0, "name": "6334c4afa179dd447e76434ad2b3f3f8", "fusion_lon": 0.0}, {"is_reserved": 0, "type": "electric_scooter", "bike_id": "c0bda4d53e7fdb4a5a5ebec66db7be60", "lat": 38.97003383333333, "lon": -77.009107, "rental_uris": {"android": "https://dc.lft.to/lastmile_qr_scan", "ios": "https://dc.lft.to/lastmile_qr_scan"}, "is_disabled": 0, "fusion_lat": 0.0, "name": "c0bda4d53e7fdb4a5a5ebec66db7be60", "fusion_lon": 0.0}, {"is_reserved": 0, "type": "electric_scooter", "bike_id": "073a889e7a7cfe008df83a339ab2a749", "lat": 38.9574685, "lon": -77.021039, "rental_uris": {"android": "https://dc.lft.to/lastmile_qr_scan", "ios": "https://dc.lft.to/lastmile_qr_scan"}, "is_disabled": 0, "fusion_lat": 0.0, "name": "073a889e7a7cfe008df83a339ab2a749", "fusion_lon": 0.0}, {"is_reserved": 0, "type": "electric_scooter", "bike_id": "261d04fdc5d1e85b5b1677602c470c33", "lat": 38.92107466666667, "lon": -77.04223216666666, "rental_uris": {"android": "https://dc.lft.to/lastmile_qr_scan", "ios": "https://dc.lft.to/lastmile_qr_scan"}, "is_disabled": 0, "fusion_lat": 0.0, "name": "261d04fdc5d1e85b5b1677602c470c33", "fusion_lon": 0.0}, {"is_reserved": 0, "type": "electric_bike", "bike_id": "b5530b36d3e7aed16d1c10a37a3ae342", "lat": 38.98136266666667, "lon": -77.00768716666667, "rental_uris": {"android": "https://dc.lft.to/lastmile_qr_scan", "ios": "https://dc.lft.to/lastmile_qr_scan"}, "is_disabled": 0, "fusion_lat": 0.0, "name": "b5530b36d3e7aed16d1c10a37a3ae342", "fusion_lon": 0.0}, {"is_reserved": 0, "type": "electric_scooter", "bike_id": "8818617eb2f0629debb57717a737a294", "lat": 38.898801, "lon": -76.98841433333334, "rental_uris": {"android": "https://dc.lft.to/lastmile_qr_scan", "ios": "https://dc.lft.to/lastmile_qr_scan"}, "is_disabled": 0, "fusion_lat": 0.0, "name": "8818617eb2f0629debb57717a737a294", "fusion_lon": 0.0}, {"is_reserved": 0, "type": "electric_scooter", "bike_id": "2c319346cdf5b8d002ba2b922e06ad53", "lat": 38.918159833333334, "lon": -77.02481433333334, "rental_uris": {"android": "https://dc.lft.to/lastmile_qr_scan", "ios": "https://dc.lft.to/lastmile_qr_scan"}, "is_disabled": 0, "fusion_lat": 0.0, "name": "2c319346cdf5b8d002ba2b922e06ad53", "fusion_lon": 0.0}, {"is_reserved": 0, "type": "electric_scooter", "bike_id": "846f86803402b0063c0284e3c1915302", "lat": 38.913786, "lon": -77.04605733333334, "rental_uris": {"android": "https://dc.lft.to/lastmile_qr_scan", "ios": "https://dc.lft.to/lastmile_qr_scan"}, "is_disabled": 0, "fusion_lat": 0.0, "name": "846f86803402b0063c0284e3c1915302", "fusion_lon": 0.0}, {"is_reserved": 0, "type": "electric_scooter", "bike_id": "2ee686d8a5e39c0d076319be54cd9dc9", "lat": 38.934942666666664, "lon": -77.04456383333333, "rental_uris": {"android": "https://dc.lft.to/lastmile_qr_scan", "ios": "https://dc.lft.to/lastmile_qr_scan"}, "is_disabled": 0, "fusion_lat": 0.0, "name": "2ee686d8a5e39c0d076319be54cd9dc9", "fusion_lon": 0.0}, {"is_reserved": 0, "type": "electric_scooter", "bike_id": "d79ff776e668bc2812846d49e613b652", "lat": 38.9264335, "lon": -77.0251235, "rental_uris": {"android": "https://dc.lft.to/lastmile_qr_scan", "ios": "https://dc.lft.to/lastmile_qr_scan"}, "is_disabled": 0, "fusion_lat": 0.0, "name": "d79ff776e668bc2812846d49e613b652", "fusion_lon": 0.0}, {"is_reserved": 0, "type": "electric_scooter", "bike_id": "7856e1b4bbb1aa2bad219a5cc5c33bdd", "lat": 38.927331333333335, "lon": -77.02247183333333, "rental_uris": {"android": "https://dc.lft.to/lastmile_qr_scan", "ios": "https://dc.lft.to/lastmile_qr_scan"}, "is_disabled": 0, "fusion_lat": 0.0, "name": "7856e1b4bbb1aa2bad219a5cc5c33bdd", "fusion_lon": 0.0}, {"is_reserved": 0, "type": "electric_scooter", "bike_id": "ebe25059b498731665c553d2d94e12cb", "lat": 38.9255435, "lon": -77.0531795, "rental_uris": {"android": "https://dc.lft.to/lastmile_qr_scan", "ios": "https://dc.lft.to/lastmile_qr_scan"}, "is_disabled": 0, "fusion_lat": 0.0, "name": "ebe25059b498731665c553d2d94e12cb", "fusion_lon": 0.0}, {"is_reserved": 0, "type": "electric_scooter", "bike_id": "6d99e4e3e1ff45a4d7d361e2ff168c21", "lat": 38.886095, "lon": -77.00347083333334, "rental_uris": {"android": "https://dc.lft.to/lastmile_qr_scan", "ios": "https://dc.lft.to/lastmile_qr_scan"}, "is_disabled": 0, "fusion_lat": 0.0, "name": "6d99e4e3e1ff45a4d7d361e2ff168c21", "fusion_lon": 0.0}, {"is_reserved": 0, "type": "electric_scooter", "bike_id": "cccbc9463614be998f6d98a1d0c22c9e", "lat": 38.9104925, "lon": -77.00460783333334, "rental_uris": {"android": "https://dc.lft.to/lastmile_qr_scan", "ios": "https://dc.lft.to/lastmile_qr_scan"}, "is_disabled": 0, "fusion_lat": 0.0, "name": "cccbc9463614be998f6d98a1d0c22c9e", "fusion_lon": 0.0}, {"is_reserved": 0, "type": "electric_scooter", "bike_id": "2ebac44f591f1c95a8edd26bc197374c", "lat": 38.989892, "lon": -77.0336325, "rental_uris": {"android": "https://dc.lft.to/lastmile_qr_scan", "ios": "https://dc.lft.to/lastmile_qr_scan"}, "is_disabled": 0, "fusion_lat": 0.0, "name": "2ebac44f591f1c95a8edd26bc197374c", "fusion_lon": 0.0}, {"is_reserved": 0, "type": "electric_scooter", "bike_id": "f579b4f63168c9de5b6c17787a474b44", "lat": 38.90632083333333, "lon": -77.025003, "rental_uris": {"android": "https://dc.lft.to/lastmile_qr_scan", "ios": "https://dc.lft.to/lastmile_qr_scan"}, "is_disabled": 0, "fusion_lat": 0.0, "name": "f579b4f63168c9de5b6c17787a474b44", "fusion_lon": 0.0}, {"is_reserved": 0, "type": "electric_scooter", "bike_id": "0ab600e9005f0c8e799bc399ac510e01", "lat": 38.91809, "lon": -77.040045, "rental_uris": {"android": "https://dc.lft.to/lastmile_qr_scan", "ios": "https://dc.lft.to/lastmile_qr_scan"}, "is_disabled": 0, "fusion_lat": 0.0, "name": "0ab600e9005f0c8e799bc399ac510e01", "fusion_lon": 0.0}, {"is_reserved": 0, "type": "electric_scooter", "bike_id": "24693c32608901a125c7d4b6b4429371", "lat": 38.898677, "lon": -76.94639866666667, "rental_uris": {"android": "https://dc.lft.to/lastmile_qr_scan", "ios": "https://dc.lft.to/lastmile_qr_scan"}, "is_disabled": 0, "fusion_lat": 0.0, "name": "24693c32608901a125c7d4b6b4429371", "fusion_lon": 0.0}, {"is_reserved": 0, "type": "electric_scooter", "bike_id": "60d07f422a7a88c1b381fffefb7f1958", "lat": 38.899094833333336, "lon": -76.93366116666667, "rental_uris": {"android": "https://dc.lft.to/lastmile_qr_scan", "ios": "https://dc.lft.to/lastmile_qr_scan"}, "is_disabled": 0, "fusion_lat": 0.0, "name": "60d07f422a7a88c1b381fffefb7f1958", "fusion_lon": 0.0}, {"is_reserved": 0, "type": "electric_scooter", "bike_id": "47b2803c3f40f2489237c0a46fb3c07c", "lat": 38.925403833333334, "lon": -77.03829816666666, "rental_uris": {"android": "https://dc.lft.to/lastmile_qr_scan", "ios": "https://dc.lft.to/lastmile_qr_scan"}, "is_disabled": 0, "fusion_lat": 0.0, "name": "47b2803c3f40f2489237c0a46fb3c07c", "fusion_lon": 0.0}, {"is_reserved": 0, "type": "electric_bike", "bike_id": "2aafef00fcc52dd49d953596650d2f34", "lat": 38.999989666666664, "lon": -76.918041, "rental_uris": {"android": "https://dc.lft.to/lastmile_qr_scan", "ios": "https://dc.lft.to/lastmile_qr_scan"}, "is_disabled": 0, "fusion_lat": 0.0, "name": "2aafef00fcc52dd49d953596650d2f34", "fusion_lon": 0.0}, {"is_reserved": 0, "type": "electric_scooter", "bike_id": "d1cfbd9478bdfa1647898b52abb0b6c4", "lat": 38.90792166666667, "lon": -77.0019805, "rental_uris": {"android": "https://dc.lft.to/lastmile_qr_scan", "ios": "https://dc.lft.to/lastmile_qr_scan"}, "is_disabled": 0, "fusion_lat": 0.0, "name": "d1cfbd9478bdfa1647898b52abb0b6c4", "fusion_lon": 0.0}, {"is_reserved": 0, "type": "electric_scooter", "bike_id": "dab5b4c543a3e4c1d18fae8b68a5f6c0", "lat": 38.92437783333333, "lon": -76.99665883333333, "rental_uris": {"android": "https://dc.lft.to/lastmile_qr_scan", "ios": "https://dc.lft.to/lastmile_qr_scan"}, "is_disabled": 0, "fusion_lat": 0.0, "name": "dab5b4c543a3e4c1d18fae8b68a5f6c0", "fusion_lon": 0.0}, {"is_reserved": 0, "type": "electric_scooter", "bike_id": "9ec6bd7e15b19478dc13fca271dd2dab", "lat": 38.91821683333333, "lon": -77.01216616666666, "rental_uris": {"android": "https://dc.lft.to/lastmile_qr_scan", "ios": "https://dc.lft.to/lastmile_qr_scan"}, "is_disabled": 0, "fusion_lat": 0.0, "name": "9ec6bd7e15b19478dc13fca271dd2dab", "fusion_lon": 0.0}, {"is_reserved": 0, "type": "electric_bike", "bike_id": "b6d4b90cd886d14cb8c028292e19fe52", "lat": 39.01088516666667, "lon": -77.04951516666667, "rental_uris": {"android": "https://dc.lft.to/lastmile_qr_scan", "ios": "https://dc.lft.to/lastmile_qr_scan"}, "is_disabled": 0, "fusion_lat": 0.0, "name": "b6d4b90cd886d14cb8c028292e19fe52", "fusion_lon": 0.0}, {"is_reserved": 0, "type": "electric_scooter", "bike_id": "a1866dbc6c7027f0dfacc8a8da6194b5", "lat": 38.902444, "lon": -77.02902016666667, "rental_uris": {"android": "https://dc.lft.to/lastmile_qr_scan", "ios": "https://dc.lft.to/lastmile_qr_scan"}, "is_disabled": 0, "fusion_lat": 0.0, "name": "a1866dbc6c7027f0dfacc8a8da6194b5", "fusion_lon": 0.0}, {"is_reserved": 0, "type": "electric_scooter", "bike_id": "3166dced26344dda695bb8bf55fbf88b", "lat": 38.919279833333334, "lon": -77.0342745, "rental_uris": {"android": "https://dc.lft.to/lastmile_qr_scan", "ios": "https://dc.lft.to/lastmile_qr_scan"}, "is_disabled": 0, "fusion_lat": 0.0, "name": "3166dced26344dda695bb8bf55fbf88b", "fusion_lon": 0.0}, {"is_reserved": 0, "type": "electric_scooter", "bike_id": "18e59986860054df46e2a9c5ecba6515", "lat": 38.9053485, "lon": -77.02208833333333, "rental_uris": {"android": "https://dc.lft.to/lastmile_qr_scan", "ios": "https://dc.lft.to/lastmile_qr_scan"}, "is_disabled": 0, "fusion_lat": 0.0, "name": "18e59986860054df46e2a9c5ecba6515", "fusion_lon": 0.0}, {"is_reserved": 0, "type": "electric_scooter", "bike_id": "a2d19220042195e295f922477fd948bc", "lat": 38.896232, "lon": -77.03215533333334, "rental_uris": {"android": "https://dc.lft.to/lastmile_qr_scan", "ios": "https://dc.lft.to/lastmile_qr_scan"}, "is_disabled": 0, "fusion_lat": 0.0, "name": "a2d19220042195e295f922477fd948bc", "fusion_lon": 0.0}, {"is_reserved": 0, "type": "electric_scooter", "bike_id": "dff58145be3360c978796cda78d16a60", "lat": 38.93057433333333, "lon": -77.02802733333333, "rental_uris": {"android": "https://dc.lft.to/lastmile_qr_scan", "ios": "https://dc.lft.to/lastmile_qr_scan"}, "is_disabled": 0, "fusion_lat": 0.0, "name": "dff58145be3360c978796cda78d16a60", "fusion_lon": 0.0}, {"is_reserved": 0, "type": "electric_scooter", "bike_id": "aa4a41ca47b88f80f76535ce3eadfde7", "lat": 38.9017685, "lon": -77.001254, "rental_uris": {"android": "https://dc.lft.to/lastmile_qr_scan", "ios": "https://dc.lft.to/lastmile_qr_scan"}, "is_disabled": 0, "fusion_lat": 0.0, "name": "aa4a41ca47b88f80f76535ce3eadfde7", "fusion_lon": 0.0}, {"is_reserved": 0, "type": "electric_scooter", "bike_id": "030c0f4a115085e6e166933547070e61", "lat": 38.91709633333333, "lon": -77.03737466666666, "rental_uris": {"android": "https://dc.lft.to/lastmile_qr_scan", "ios": "https://dc.lft.to/lastmile_qr_scan"}, "is_disabled": 0, "fusion_lat": 0.0, "name": "030c0f4a115085e6e166933547070e61", "fusion_lon": 0.0}, {"is_reserved": 0, "type": "electric_bike", "bike_id": "5bbe3215889d3bc099a8bc3d0585cd4a", "lat": 38.830156333333335, "lon": -76.9941985, "rental_uris": {"android": "https://dc.lft.to/lastmile_qr_scan", "ios": "https://dc.lft.to/lastmile_qr_scan"}, "is_disabled": 0, "fusion_lat": 0.0, "name": "5bbe3215889d3bc099a8bc3d0585cd4a", "fusion_lon": 0.0}, {"is_reserved": 0, "type": "electric_scooter", "bike_id": "fcef28d17595e2233e15d7f5cbb6db49", "lat": 38.8922255, "lon": -77.02625333333333, "rental_uris": {"android": "https://dc.lft.to/lastmile_qr_scan", "ios": "https://dc.lft.to/lastmile_qr_scan"}, "is_disabled": 0, "fusion_lat": 0.0, "name": "fcef28d17595e2233e15d7f5cbb6db49", "fusion_lon": 0.0}, {"is_reserved": 0, "type": "electric_scooter", "bike_id": "77d2d64b0b7bd9e213fb9417de31420f", "lat": 38.93660583333333, "lon": -77.05500566666667, "rental_uris": {"android": "https://dc.lft.to/lastmile_qr_scan", "ios": "https://dc.lft.to/lastmile_qr_scan"}, "is_disabled": 0, "fusion_lat": 0.0, "name": "77d2d64b0b7bd9e213fb9417de31420f", "fusion_lon": 0.0}, {"is_reserved": 0, "type": "electric_scooter", "bike_id": "02f3b00df6662a3ba264f685abd759de", "lat": 38.93134216666667, "lon": -77.023548, "rental_uris": {"android": "https://dc.lft.to/lastmile_qr_scan", "ios": "https://dc.lft.to/lastmile_qr_scan"}, "is_disabled": 0, "fusion_lat": 0.0, "name": "02f3b00df6662a3ba264f685abd759de", "fusion_lon": 0.0}, {"is_reserved": 0, "type": "electric_bike", "bike_id": "91d5a31fc28314d665e65cc919052774", "lat": 38.838096, "lon": -77.09523883333334, "rental_uris": {"android": "https://dc.lft.to/lastmile_qr_scan", "ios": "https://dc.lft.to/lastmile_qr_scan"}, "is_disabled": 0, "fusion_lat": 0.0, "name": "91d5a31fc28314d665e65cc919052774", "fusion_lon": 0.0}, {"is_reserved": 0, "type": "electric_scooter", "bike_id": "1e8b2234f95ee298460369638f80d74c", "lat": 38.935021, "lon": -77.02009666666666, "rental_uris": {"android": "https://dc.lft.to/lastmile_qr_scan", "ios": "https://dc.lft.to/lastmile_qr_scan"}, "is_disabled": 0, "fusion_lat": 0.0, "name": "1e8b2234f95ee298460369638f80d74c", "fusion_lon": 0.0}, {"is_reserved": 0, "type": "electric_scooter", "bike_id": "984ef5547d5001f79b97a20904e96626", "lat": 38.95215816666666, "lon": -77.016007, "rental_uris": {"android": "https://dc.lft.to/lastmile_qr_scan", "ios": "https://dc.lft.to/lastmile_qr_scan"}, "is_disabled": 0, "fusion_lat": 0.0, "name": "984ef5547d5001f79b97a20904e96626", "fusion_lon": 0.0}, {"is_reserved": 0, "type": "electric_scooter", "bike_id": "d57b2194ca3881241815ab29be844c9c", "lat": 38.973674333333335, "lon": -77.01864283333333, "rental_uris": {"android": "https://dc.lft.to/lastmile_qr_scan", "ios": "https://dc.lft.to/lastmile_qr_scan"}, "is_disabled": 0, "fusion_lat": 0.0, "name": "d57b2194ca3881241815ab29be844c9c", "fusion_lon": 0.0}, {"is_reserved": 0, "type": "electric_scooter", "bike_id": "a6824caa3414f0714c84ca753f3702ee", "lat": 38.92786733333333, "lon": -77.0257075, "rental_uris": {"android": "https://dc.lft.to/lastmile_qr_scan", "ios": "https://dc.lft.to/lastmile_qr_scan"}, "is_disabled": 0, "fusion_lat": 0.0, "name": "a6824caa3414f0714c84ca753f3702ee", "fusion_lon": 0.0}, {"is_reserved": 0, "type": "electric_scooter", "bike_id": "b50172ac614451801d7b469bb0afd049", "lat": 38.90036816666667, "lon": -77.00199216666667, "rental_uris": {"android": "https://dc.lft.to/lastmile_qr_scan", "ios": "https://dc.lft.to/lastmile_qr_scan"}, "is_disabled": 0, "fusion_lat": 0.0, "name": "b50172ac614451801d7b469bb0afd049", "fusion_lon": 0.0}, {"is_reserved": 0, "type": "electric_bike", "bike_id": "8b29ebda31c2d29ba36b9ad715f95791", "lat": 38.8767825, "lon": -77.00011583333334, "rental_uris": {"android": "https://dc.lft.to/lastmile_qr_scan", "ios": "https://dc.lft.to/lastmile_qr_scan"}, "is_disabled": 0, "fusion_lat": 0.0, "name": "8b29ebda31c2d29ba36b9ad715f95791", "fusion_lon": 0.0}, {"is_reserved": 0, "type": "electric_scooter", "bike_id": "9e4b3e88fec5bdf6cdc1883334ee98c4", "lat": 38.9013645, "lon": -77.02782466666666, "rental_uris": {"android": "https://dc.lft.to/lastmile_qr_scan", "ios": "https://dc.lft.to/lastmile_qr_scan"}, "is_disabled": 0, "fusion_lat": 0.0, "name": "9e4b3e88fec5bdf6cdc1883334ee98c4", "fusion_lon": 0.0}, {"is_reserved": 0, "type": "electric_scooter", "bike_id": "0c4aadfc521fe92a07f7ea1820547156", "lat": 38.904946833333334, "lon": -77.01996016666666, "rental_uris": {"android": "https://dc.lft.to/lastmile_qr_scan", "ios": "https://dc.lft.to/lastmile_qr_scan"}, "is_disabled": 0, "fusion_lat": 0.0, "name": "0c4aadfc521fe92a07f7ea1820547156", "fusion_lon": 0.0}, {"is_reserved": 0, "type": "electric_scooter", "bike_id": "3c9ffe1d11a3877136da401caed2cb6c", "lat": 38.8900705, "lon": -76.9374505, "rental_uris": {"android": "https://dc.lft.to/lastmile_qr_scan", "ios": "https://dc.lft.to/lastmile_qr_scan"}, "is_disabled": 0, "fusion_lat": 0.0, "name": "3c9ffe1d11a3877136da401caed2cb6c", "fusion_lon": 0.0}, {"is_reserved": 0, "type": "electric_bike", "bike_id": "93ee2b0a882b3631c832b6a70761e725", "lat": 39.04234683333333, "lon": -76.99736783333333, "rental_uris": {"android": "https://dc.lft.to/lastmile_qr_scan", "ios": "https://dc.lft.to/lastmile_qr_scan"}, "is_disabled": 0, "fusion_lat": 0.0, "name": "93ee2b0a882b3631c832b6a70761e725", "fusion_lon": 0.0}, {"is_reserved": 0, "type": "electric_bike", "bike_id": "0ff9d352ba3b00bf1e734490e782e943", "lat": 38.973365666666666, "lon": -76.99585216666667, "rental_uris": {"android": "https://dc.lft.to/lastmile_qr_scan", "ios": "https://dc.lft.to/lastmile_qr_scan"}, "is_disabled": 0, "fusion_lat": 0.0, "name": "0ff9d352ba3b00bf1e734490e782e943", "fusion_lon": 0.0}, {"is_reserved": 0, "type": "electric_scooter", "bike_id": "c96b5b674705727e9b652f039df3bb10", "lat": 38.89731916666667, "lon": -77.01966433333334, "rental_uris": {"android": "https://dc.lft.to/lastmile_qr_scan", "ios": "https://dc.lft.to/lastmile_qr_scan"}, "is_disabled": 0, "fusion_lat": 0.0, "name": "c96b5b674705727e9b652f039df3bb10", "fusion_lon": 0.0}, {"is_reserved": 0, "type": "electric_scooter", "bike_id": "9a892e2c6a704f7266ba39f83e1daae6", "lat": 38.910409, "lon": -77.033345, "rental_uris": {"android": "https://dc.lft.to/lastmile_qr_scan", "ios": "https://dc.lft.to/lastmile_qr_scan"}, "is_disabled": 0, "fusion_lat": 0.0, "name": "9a892e2c6a704f7266ba39f83e1daae6", "fusion_lon": 0.0}, {"is_reserved": 0, "type": "electric_scooter", "bike_id": "d07a0268b9d74d2e4c51920ef8fbe344", "lat": 38.913663666666665, "lon": -77.06565316666666, "rental_uris": {"android": "https://dc.lft.to/lastmile_qr_scan", "ios": "https://dc.lft.to/lastmile_qr_scan"}, "is_disabled": 0, "fusion_lat": 0.0, "name": "d07a0268b9d74d2e4c51920ef8fbe344", "fusion_lon": 0.0}, {"is_reserved": 0, "type": "electric_scooter", "bike_id": "bfd74a8c8013f72e60dd988dd39e1cd6", "lat": 38.89608116666667, "lon": -77.005298, "rental_uris": {"android": "https://dc.lft.to/lastmile_qr_scan", "ios": "https://dc.lft.to/lastmile_qr_scan"}, "is_disabled": 0, "fusion_lat": 0.0, "name": "bfd74a8c8013f72e60dd988dd39e1cd6", "fusion_lon": 0.0}, {"is_reserved": 0, "type": "electric_scooter", "bike_id": "cc5f6b9e9be508464cdcd52296101637", "lat": 38.9363475, "lon": -77.06482966666667, "rental_uris": {"android": "https://dc.lft.to/lastmile_qr_scan", "ios": "https://dc.lft.to/lastmile_qr_scan"}, "is_disabled": 0, "fusion_lat": 0.0, "name": "cc5f6b9e9be508464cdcd52296101637", "fusion_lon": 0.0}, {"is_reserved": 0, "type": "electric_scooter", "bike_id": "7b946c4e60ac7d14ead1b957e064942d", "lat": 38.915663333333335, "lon": -77.03672983333334, "rental_uris": {"android": "https://dc.lft.to/lastmile_qr_scan", "ios": "https://dc.lft.to/lastmile_qr_scan"}, "is_disabled": 0, "fusion_lat": 0.0, "name": "7b946c4e60ac7d14ead1b957e064942d", "fusion_lon": 0.0}, {"is_reserved": 0, "type": "electric_scooter", "bike_id": "0c8091abb2fcef8d0691fc8fefba1356", "lat": 38.89829, "lon": -77.04828516666667, "rental_uris": {"android": "https://dc.lft.to/lastmile_qr_scan", "ios": "https://dc.lft.to/lastmile_qr_scan"}, "is_disabled": 0, "fusion_lat": 0.0, "name": "0c8091abb2fcef8d0691fc8fefba1356", "fusion_lon": 0.0}, {"is_reserved": 0, "type": "electric_scooter", "bike_id": "17eb2535d695a290106c7b0dc34b7146", "lat": 38.92029616666667, "lon": -77.03131433333333, "rental_uris": {"android": "https://dc.lft.to/lastmile_qr_scan", "ios": "https://dc.lft.to/lastmile_qr_scan"}, "is_disabled": 0, "fusion_lat": 0.0, "name": "17eb2535d695a290106c7b0dc34b7146", "fusion_lon": 0.0}, {"is_reserved": 0, "type": "electric_scooter", "bike_id": "bcd4e79624e098995819de11144054a5", "lat": 38.93035066666667, "lon": -77.08320566666667, "rental_uris": {"android": "https://dc.lft.to/lastmile_qr_scan", "ios": "https://dc.lft.to/lastmile_qr_scan"}, "is_disabled": 0, "fusion_lat": 0.0, "name": "bcd4e79624e098995819de11144054a5", "fusion_lon": 0.0}, {"is_reserved": 0, "type": "electric_scooter", "bike_id": "ca8b83dd90034651a952bd3c65804318", "lat": 38.916242833333335, "lon": -77.03961833333334, "rental_uris": {"android": "https://dc.lft.to/lastmile_qr_scan", "ios": "https://dc.lft.to/lastmile_qr_scan"}, "is_disabled": 0, "fusion_lat": 0.0, "name": "ca8b83dd90034651a952bd3c65804318", "fusion_lon": 0.0}, {"is_reserved": 0, "type": "electric_scooter", "bike_id": "75d0f2ba45e74d0480681acbdb239f4e", "lat": 38.97502183333334, "lon": -77.017014, "rental_uris": {"android": "https://dc.lft.to/lastmile_qr_scan", "ios": "https://dc.lft.to/lastmile_qr_scan"}, "is_disabled": 0, "fusion_lat": 0.0, "name": "75d0f2ba45e74d0480681acbdb239f4e", "fusion_lon": 0.0}, {"is_reserved": 0, "type": "electric_scooter", "bike_id": "5afe439dcba1a3e078c2548d5b7a8e7b", "lat": 38.91262866666667, "lon": -77.01881516666667, "rental_uris": {"android": "https://dc.lft.to/lastmile_qr_scan", "ios": "https://dc.lft.to/lastmile_qr_scan"}, "is_disabled": 0, "fusion_lat": 0.0, "name": "5afe439dcba1a3e078c2548d5b7a8e7b", "fusion_lon": 0.0}, {"is_reserved": 0, "type": "electric_scooter", "bike_id": "884d5642bb76e3d0a90dc1c076d20175", "lat": 38.956190666666664, "lon": -77.00326583333333, "rental_uris": {"android": "https://dc.lft.to/lastmile_qr_scan", "ios": "https://dc.lft.to/lastmile_qr_scan"}, "is_disabled": 0, "fusion_lat": 0.0, "name": "884d5642bb76e3d0a90dc1c076d20175", "fusion_lon": 0.0}, {"is_reserved": 0, "type": "electric_scooter", "bike_id": "3659341c65f87d8b067ac568edcdf54e", "lat": 38.919287833333335, "lon": -77.03426583333334, "rental_uris": {"android": "https://dc.lft.to/lastmile_qr_scan", "ios": "https://dc.lft.to/lastmile_qr_scan"}, "is_disabled": 0, "fusion_lat": 0.0, "name": "3659341c65f87d8b067ac568edcdf54e", "fusion_lon": 0.0}, {"is_reserved": 0, "type": "electric_scooter", "bike_id": "439ffcc5c426efb0b1f4b2793c6e410e", "lat": 38.91804166666667, "lon": -77.034421, "rental_uris": {"android": "https://dc.lft.to/lastmile_qr_scan", "ios": "https://dc.lft.to/lastmile_qr_scan"}, "is_disabled": 0, "fusion_lat": 0.0, "name": "439ffcc5c426efb0b1f4b2793c6e410e", "fusion_lon": 0.0}, {"is_reserved": 0, "type": "electric_scooter", "bike_id": "217f39f7c8764dbf5bb5207e4a15aab1", "lat": 38.95737666666667, "lon": -77.03028683333334, "rental_uris": {"android": "https://dc.lft.to/lastmile_qr_scan", "ios": "https://dc.lft.to/lastmile_qr_scan"}, "is_disabled": 0, "fusion_lat": 0.0, "name": "217f39f7c8764dbf5bb5207e4a15aab1", "fusion_lon": 0.0}, {"is_reserved": 0, "type": "electric_scooter", "bike_id": "98bcefb5ac95543429d66b19318db0cf", "lat": 38.906478166666666, "lon": -77.01201633333334, "rental_uris": {"android": "https://dc.lft.to/lastmile_qr_scan", "ios": "https://dc.lft.to/lastmile_qr_scan"}, "is_disabled": 0, "fusion_lat": 0.0, "name": "98bcefb5ac95543429d66b19318db0cf", "fusion_lon": 0.0}, {"is_reserved": 0, "type": "electric_scooter", "bike_id": "58c7734d48a483decf67b5474bb3a456", "lat": 38.895291666666665, "lon": -77.0447355, "rental_uris": {"android": "https://dc.lft.to/lastmile_qr_scan", "ios": "https://dc.lft.to/lastmile_qr_scan"}, "is_disabled": 0, "fusion_lat": 0.0, "name": "58c7734d48a483decf67b5474bb3a456", "fusion_lon": 0.0}, {"is_reserved": 0, "type": "electric_scooter", "bike_id": "310f42388e8b8c1da78746425613f315", "lat": 38.914896666666664, "lon": -77.03230983333333, "rental_uris": {"android": "https://dc.lft.to/lastmile_qr_scan", "ios": "https://dc.lft.to/lastmile_qr_scan"}, "is_disabled": 0, "fusion_lat": 0.0, "name": "310f42388e8b8c1da78746425613f315", "fusion_lon": 0.0}, {"is_reserved": 0, "type": "electric_scooter", "bike_id": "994db3f4cf7f2bfb1bfea5e4b35f95eb", "lat": 38.92049866666667, "lon": -77.01691066666666, "rental_uris": {"android": "https://dc.lft.to/lastmile_qr_scan", "ios": "https://dc.lft.to/lastmile_qr_scan"}, "is_disabled": 0, "fusion_lat": 0.0, "name": "994db3f4cf7f2bfb1bfea5e4b35f95eb", "fusion_lon": 0.0}, {"is_reserved": 0, "type": "electric_scooter", "bike_id": "217d1e307310727ad75007f01f161399", "lat": 38.926582, "lon": -77.03714266666667, "rental_uris": {"android": "https://dc.lft.to/lastmile_qr_scan", "ios": "https://dc.lft.to/lastmile_qr_scan"}, "is_disabled": 0, "fusion_lat": 0.0, "name": "217d1e307310727ad75007f01f161399", "fusion_lon": 0.0}, {"is_reserved": 0, "type": "electric_bike", "bike_id": "f812d14e09f8c8dc543184525cf62142", "lat": 39.084914, "lon": -76.9506505, "rental_uris": {"android": "https://dc.lft.to/lastmile_qr_scan", "ios": "https://dc.lft.to/lastmile_qr_scan"}, "is_disabled": 0, "fusion_lat": 0.0, "name": "f812d14e09f8c8dc543184525cf62142", "fusion_lon": 0.0}, {"is_reserved": 0, "type": "electric_scooter", "bike_id": "1b8ff7952ba1e928d49e5fd3a74e0f3d", "lat": 38.9117155, "lon": -77.01979416666667, "rental_uris": {"android": "https://dc.lft.to/lastmile_qr_scan", "ios": "https://dc.lft.to/lastmile_qr_scan"}, "is_disabled": 0, "fusion_lat": 0.0, "name": "1b8ff7952ba1e928d49e5fd3a74e0f3d", "fusion_lon": 0.0}, {"is_reserved": 0, "type": "electric_scooter", "bike_id": "2435f7ab10513dddac4a375d8b294add", "lat": 38.91458383333333, "lon": -77.02184816666667, "rental_uris": {"android": "https://dc.lft.to/lastmile_qr_scan", "ios": "https://dc.lft.to/lastmile_qr_scan"}, "is_disabled": 0, "fusion_lat": 0.0, "name": "2435f7ab10513dddac4a375d8b294add", "fusion_lon": 0.0}, {"is_reserved": 0, "type": "electric_scooter", "bike_id": "cf40ac003bf4eca954866d33d52bd50a", "lat": 38.90405616666666, "lon": -77.06779566666667, "rental_uris": {"android": "https://dc.lft.to/lastmile_qr_scan", "ios": "https://dc.lft.to/lastmile_qr_scan"}, "is_disabled": 0, "fusion_lat": 0.0, "name": "cf40ac003bf4eca954866d33d52bd50a", "fusion_lon": 0.0}, {"is_reserved": 0, "type": "electric_scooter", "bike_id": "0db9157a6aed0e5ed7f0fad88db2474f", "lat": 38.89226433333333, "lon": -77.04360433333333, "rental_uris": {"android": "https://dc.lft.to/lastmile_qr_scan", "ios": "https://dc.lft.to/lastmile_qr_scan"}, "is_disabled": 0, "fusion_lat": 0.0, "name": "0db9157a6aed0e5ed7f0fad88db2474f", "fusion_lon": 0.0}, {"is_reserved": 0, "type": "electric_scooter", "bike_id": "b78672f6b3eddaf76fb1c68688622672", "lat": 38.905866833333334, "lon": -77.01617216666666, "rental_uris": {"android": "https://dc.lft.to/lastmile_qr_scan", "ios": "https://dc.lft.to/lastmile_qr_scan"}, "is_disabled": 0, "fusion_lat": 0.0, "name": "b78672f6b3eddaf76fb1c68688622672", "fusion_lon": 0.0}, {"is_reserved": 0, "type": "electric_scooter", "bike_id": "cc05adcffef7419db1537731d43ef915", "lat": 38.91661083333334, "lon": -77.02701383333333, "rental_uris": {"android": "https://dc.lft.to/lastmile_qr_scan", "ios": "https://dc.lft.to/lastmile_qr_scan"}, "is_disabled": 0, "fusion_lat": 0.0, "name": "cc05adcffef7419db1537731d43ef915", "fusion_lon": 0.0}, {"is_reserved": 0, "type": "electric_scooter", "bike_id": "784e4ae541e33c6240db3eb4d269ec4a", "lat": 38.91201083333333, "lon": -77.01205383333334, "rental_uris": {"android": "https://dc.lft.to/lastmile_qr_scan", "ios": "https://dc.lft.to/lastmile_qr_scan"}, "is_disabled": 0, "fusion_lat": 0.0, "name": "784e4ae541e33c6240db3eb4d269ec4a", "fusion_lon": 0.0}, {"is_reserved": 0, "type": "electric_scooter", "bike_id": "4b1aae95febb2451d8710713763566fc", "lat": 38.90565216666667, "lon": -77.01808366666667, "rental_uris": {"android": "https://dc.lft.to/lastmile_qr_scan", "ios": "https://dc.lft.to/lastmile_qr_scan"}, "is_disabled": 0, "fusion_lat": 0.0, "name": "4b1aae95febb2451d8710713763566fc", "fusion_lon": 0.0}, {"is_reserved": 0, "type": "electric_scooter", "bike_id": "3fe2159fbe164a5c564c16e52bd1348c", "lat": 38.92918933333333, "lon": -76.99811766666667, "rental_uris": {"android": "https://dc.lft.to/lastmile_qr_scan", "ios": "https://dc.lft.to/lastmile_qr_scan"}, "is_disabled": 0, "fusion_lat": 0.0, "name": "3fe2159fbe164a5c564c16e52bd1348c", "fusion_lon": 0.0}, {"is_reserved": 0, "type": "electric_scooter", "bike_id": "e125f56828c31be084d22f3ae4b193f3", "lat": 38.93501633333333, "lon": -77.04287983333333, "rental_uris": {"android": "https://dc.lft.to/lastmile_qr_scan", "ios": "https://dc.lft.to/lastmile_qr_scan"}, "is_disabled": 0, "fusion_lat": 0.0, "name": "e125f56828c31be084d22f3ae4b193f3", "fusion_lon": 0.0}, {"is_reserved": 0, "type": "electric_scooter", "bike_id": "675a2d2b820e28092f06ddb6a3d048ff", "lat": 38.9003545, "lon": -76.98826066666666, "rental_uris": {"android": "https://dc.lft.to/lastmile_qr_scan", "ios": "https://dc.lft.to/lastmile_qr_scan"}, "is_disabled": 0, "fusion_lat": 0.0, "name": "675a2d2b820e28092f06ddb6a3d048ff", "fusion_lon": 0.0}, {"is_reserved": 0, "type": "electric_scooter", "bike_id": "fb615069a524611bcd28ab7e5ab9ef54", "lat": 38.9276585, "lon": -77.027834, "rental_uris": {"android": "https://dc.lft.to/lastmile_qr_scan", "ios": "https://dc.lft.to/lastmile_qr_scan"}, "is_disabled": 0, "fusion_lat": 0.0, "name": "fb615069a524611bcd28ab7e5ab9ef54", "fusion_lon": 0.0}, {"is_reserved": 0, "type": "electric_scooter", "bike_id": "92f6ea3aa4e82468ccd39aa73e21db3c", "lat": 38.923965, "lon": -77.05052516666667, "rental_uris": {"android": "https://dc.lft.to/lastmile_qr_scan", "ios": "https://dc.lft.to/lastmile_qr_scan"}, "is_disabled": 0, "fusion_lat": 0.0, "name": "92f6ea3aa4e82468ccd39aa73e21db3c", "fusion_lon": 0.0}, {"is_reserved": 0, "type": "electric_scooter", "bike_id": "c88295fd9e6e3fa9de0634e2aa022179", "lat": 38.912830166666666, "lon": -77.07280033333333, "rental_uris": {"android": "https://dc.lft.to/lastmile_qr_scan", "ios": "https://dc.lft.to/lastmile_qr_scan"}, "is_disabled": 0, "fusion_lat": 0.0, "name": "c88295fd9e6e3fa9de0634e2aa022179", "fusion_lon": 0.0}, {"is_reserved": 0, "type": "electric_scooter", "bike_id": "4724bc0187df7e80d430e3b6f40731e2", "lat": 38.923928, "lon": -77.05057083333334, "rental_uris": {"android": "https://dc.lft.to/lastmile_qr_scan", "ios": "https://dc.lft.to/lastmile_qr_scan"}, "is_disabled": 0, "fusion_lat": 0.0, "name": "4724bc0187df7e80d430e3b6f40731e2", "fusion_lon": 0.0}, {"is_reserved": 0, "type": "electric_scooter", "bike_id": "2e23ebc03a54a008487ff74a3649dad6", "lat": 38.94748933333333, "lon": -77.0193685, "rental_uris": {"android": "https://dc.lft.to/lastmile_qr_scan", "ios": "https://dc.lft.to/lastmile_qr_scan"}, "is_disabled": 0, "fusion_lat": 0.0, "name": "2e23ebc03a54a008487ff74a3649dad6", "fusion_lon": 0.0}, {"is_reserved": 0, "type": "electric_scooter", "bike_id": "536161e8ae22a89ea69f2735a5ff51ee", "lat": 38.8979495, "lon": -77.01183783333333, "rental_uris": {"android": "https://dc.lft.to/lastmile_qr_scan", "ios": "https://dc.lft.to/lastmile_qr_scan"}, "is_disabled": 0, "fusion_lat": 0.0, "name": "536161e8ae22a89ea69f2735a5ff51ee", "fusion_lon": 0.0}, {"is_reserved": 0, "type": "electric_scooter", "bike_id": "8fecebd5a6c19198d96b6b7ac54acce1", "lat": 38.90402, "lon": -77.02004916666667, "rental_uris": {"android": "https://dc.lft.to/lastmile_qr_scan", "ios": "https://dc.lft.to/lastmile_qr_scan"}, "is_disabled": 0, "fusion_lat": 0.0, "name": "8fecebd5a6c19198d96b6b7ac54acce1", "fusion_lon": 0.0}, {"is_reserved": 0, "type": "electric_scooter", "bike_id": "cfadb76a8984bc46e91825cc8e2bed43", "lat": 38.92611933333333, "lon": -77.02159216666666, "rental_uris": {"android": "https://dc.lft.to/lastmile_qr_scan", "ios": "https://dc.lft.to/lastmile_qr_scan"}, "is_disabled": 0, "fusion_lat": 0.0, "name": "cfadb76a8984bc46e91825cc8e2bed43", "fusion_lon": 0.0}, {"is_reserved": 0, "type": "electric_scooter", "bike_id": "823a06ad7b4c4c14086b9c8291cfbee4", "lat": 38.876538833333335, "lon": -77.00067233333333, "rental_uris": {"android": "https://dc.lft.to/lastmile_qr_scan", "ios": "https://dc.lft.to/lastmile_qr_scan"}, "is_disabled": 0, "fusion_lat": 0.0, "name": "823a06ad7b4c4c14086b9c8291cfbee4", "fusion_lon": 0.0}, {"is_reserved": 0, "type": "electric_scooter", "bike_id": "d7da0adb1de4ae752b6dcb94e7d5515e", "lat": 38.93084833333333, "lon": -77.0255135, "rental_uris": {"android": "https://dc.lft.to/lastmile_qr_scan", "ios": "https://dc.lft.to/lastmile_qr_scan"}, "is_disabled": 0, "fusion_lat": 0.0, "name": "d7da0adb1de4ae752b6dcb94e7d5515e", "fusion_lon": 0.0}, {"is_reserved": 0, "type": "electric_scooter", "bike_id": "1c61edf1c257969f2b66e5758f732c23", "lat": 38.917348833333335, "lon": -77.01600916666666, "rental_uris": {"android": "https://dc.lft.to/lastmile_qr_scan", "ios": "https://dc.lft.to/lastmile_qr_scan"}, "is_disabled": 0, "fusion_lat": 0.0, "name": "1c61edf1c257969f2b66e5758f732c23", "fusion_lon": 0.0}, {"is_reserved": 0, "type": "electric_scooter", "bike_id": "95e1af44184038742449d914399ec249", "lat": 38.9449225, "lon": -77.00743166666666, "rental_uris": {"android": "https://dc.lft.to/lastmile_qr_scan", "ios": "https://dc.lft.to/lastmile_qr_scan"}, "is_disabled": 0, "fusion_lat": 0.0, "name": "95e1af44184038742449d914399ec249", "fusion_lon": 0.0}, {"is_reserved": 0, "type": "electric_scooter", "bike_id": "121c8342759f0fbb834f1140c7455ea5", "lat": 38.88371866666667, "lon": -76.99522616666667, "rental_uris": {"android": "https://dc.lft.to/lastmile_qr_scan", "ios": "https://dc.lft.to/lastmile_qr_scan"}, "is_disabled": 0, "fusion_lat": 0.0, "name": "121c8342759f0fbb834f1140c7455ea5", "fusion_lon": 0.0}, {"is_reserved": 0, "type": "electric_scooter", "bike_id": "9451122ebaf661830be57a2fa57a7fd2", "lat": 38.90493633333333, "lon": -77.04171566666666, "rental_uris": {"android": "https://dc.lft.to/lastmile_qr_scan", "ios": "https://dc.lft.to/lastmile_qr_scan"}, "is_disabled": 0, "fusion_lat": 0.0, "name": "9451122ebaf661830be57a2fa57a7fd2", "fusion_lon": 0.0}, {"is_reserved": 0, "type": "electric_scooter", "bike_id": "0f73eb6f7232e17553b4100d148908f1", "lat": 38.93361016666667, "lon": -77.0241725, "rental_uris": {"android": "https://dc.lft.to/lastmile_qr_scan", "ios": "https://dc.lft.to/lastmile_qr_scan"}, "is_disabled": 0, "fusion_lat": 0.0, "name": "0f73eb6f7232e17553b4100d148908f1", "fusion_lon": 0.0}, {"is_reserved": 0, "type": "electric_bike", "bike_id": "9644eb18dea949bb62bb4edb72a676a3", "lat": 38.83234083333333, "lon": -76.946251, "rental_uris": {"android": "https://dc.lft.to/lastmile_qr_scan", "ios": "https://dc.lft.to/lastmile_qr_scan"}, "is_disabled": 0, "fusion_lat": 0.0, "name": "9644eb18dea949bb62bb4edb72a676a3", "fusion_lon": 0.0}, {"is_reserved": 0, "type": "electric_scooter", "bike_id": "4f9b99cc287fa39ef5417dd4d993a66d", "lat": 38.92714333333333, "lon": -77.02077616666666, "rental_uris": {"android": "https://dc.lft.to/lastmile_qr_scan", "ios": "https://dc.lft.to/lastmile_qr_scan"}, "is_disabled": 0, "fusion_lat": 0.0, "name": "4f9b99cc287fa39ef5417dd4d993a66d", "fusion_lon": 0.0}, {"is_reserved": 0, "type": "electric_scooter", "bike_id": "3d340b8218cecba34927f2023cfdd16c", "lat": 38.911314833333336, "lon": -77.02202333333334, "rental_uris": {"android": "https://dc.lft.to/lastmile_qr_scan", "ios": "https://dc.lft.to/lastmile_qr_scan"}, "is_disabled": 0, "fusion_lat": 0.0, "name": "3d340b8218cecba34927f2023cfdd16c", "fusion_lon": 0.0}, {"is_reserved": 0, "type": "electric_scooter", "bike_id": "e582fe1c71ba807689feab15ac4c16a5", "lat": 38.90511883333333, "lon": -77.02613816666667, "rental_uris": {"android": "https://dc.lft.to/lastmile_qr_scan", "ios": "https://dc.lft.to/lastmile_qr_scan"}, "is_disabled": 0, "fusion_lat": 0.0, "name": "e582fe1c71ba807689feab15ac4c16a5", "fusion_lon": 0.0}, {"is_reserved": 0, "type": "electric_scooter", "bike_id": "9bead17c74295ce2c18cd1a8c3174e90", "lat": 38.8986505, "lon": -77.0396665, "rental_uris": {"android": "https://dc.lft.to/lastmile_qr_scan", "ios": "https://dc.lft.to/lastmile_qr_scan"}, "is_disabled": 0, "fusion_lat": 0.0, "name": "9bead17c74295ce2c18cd1a8c3174e90", "fusion_lon": 0.0}, {"is_reserved": 0, "type": "electric_bike", "bike_id": "c4a7f085d131697d387f04f9e6af03ca", "lat": 38.8839, "lon": -76.95449083333334, "rental_uris": {"android": "https://dc.lft.to/lastmile_qr_scan", "ios": "https://dc.lft.to/lastmile_qr_scan"}, "is_disabled": 0, "fusion_lat": 0.0, "name": "c4a7f085d131697d387f04f9e6af03ca", "fusion_lon": 0.0}, {"is_reserved": 0, "type": "electric_bike", "bike_id": "1648180f4a59c5f1d2ada62fb2e13fa7", "lat": 38.92946666666667, "lon": -77.02323116666666, "rental_uris": {"android": "https://dc.lft.to/lastmile_qr_scan", "ios": "https://dc.lft.to/lastmile_qr_scan"}, "is_disabled": 0, "fusion_lat": 0.0, "name": "1648180f4a59c5f1d2ada62fb2e13fa7", "fusion_lon": 0.0}, {"is_reserved": 0, "type": "electric_scooter", "bike_id": "e484587038056a90495a70ee23fb1736", "lat": 38.9111515, "lon": -77.03752983333334, "rental_uris": {"android": "https://dc.lft.to/lastmile_qr_scan", "ios": "https://dc.lft.to/lastmile_qr_scan"}, "is_disabled": 0, "fusion_lat": 0.0, "name": "e484587038056a90495a70ee23fb1736", "fusion_lon": 0.0}, {"is_reserved": 0, "type": "electric_scooter", "bike_id": "be3f6c393cf3d44416f7df2dbc4fbbf3", "lat": 38.89364416666667, "lon": -77.00335083333333, "rental_uris": {"android": "https://dc.lft.to/lastmile_qr_scan", "ios": "https://dc.lft.to/lastmile_qr_scan"}, "is_disabled": 0, "fusion_lat": 0.0, "name": "be3f6c393cf3d44416f7df2dbc4fbbf3", "fusion_lon": 0.0}, {"is_reserved": 0, "type": "electric_scooter", "bike_id": "bb293a41f15bf256a42e050aa0405e44", "lat": 38.886269166666665, "lon": -77.03352016666666, "rental_uris": {"android": "https://dc.lft.to/lastmile_qr_scan", "ios": "https://dc.lft.to/lastmile_qr_scan"}, "is_disabled": 0, "fusion_lat": 0.0, "name": "bb293a41f15bf256a42e050aa0405e44", "fusion_lon": 0.0}, {"is_reserved": 0, "type": "electric_scooter", "bike_id": "5f46bcdd3b1b0470bd033761c90fa865", "lat": 38.86585983333333, "lon": -76.99018183333334, "rental_uris": {"android": "https://dc.lft.to/lastmile_qr_scan", "ios": "https://dc.lft.to/lastmile_qr_scan"}, "is_disabled": 0, "fusion_lat": 0.0, "name": "5f46bcdd3b1b0470bd033761c90fa865", "fusion_lon": 0.0}, {"is_reserved": 0, "type": "electric_scooter", "bike_id": "eaafe94845ba5ad852af46e7fdc3c366", "lat": 38.905807333333335, "lon": -77.0466265, "rental_uris": {"android": "https://dc.lft.to/lastmile_qr_scan", "ios": "https://dc.lft.to/lastmile_qr_scan"}, "is_disabled": 0, "fusion_lat": 0.0, "name": "eaafe94845ba5ad852af46e7fdc3c366", "fusion_lon": 0.0}, {"is_reserved": 0, "type": "electric_scooter", "bike_id": "29db3af3e36acb27363e86b12e1082b2", "lat": 38.91924366666667, "lon": -77.00976316666667, "rental_uris": {"android": "https://dc.lft.to/lastmile_qr_scan", "ios": "https://dc.lft.to/lastmile_qr_scan"}, "is_disabled": 0, "fusion_lat": 0.0, "name": "29db3af3e36acb27363e86b12e1082b2", "fusion_lon": 0.0}, {"is_reserved": 0, "type": "electric_scooter", "bike_id": "8c7cc1ed1a6ced040a2c0306fd4cb9bd", "lat": 38.924086, "lon": -77.02980466666666, "rental_uris": {"android": "https://dc.lft.to/lastmile_qr_scan", "ios": "https://dc.lft.to/lastmile_qr_scan"}, "is_disabled": 0, "fusion_lat": 0.0, "name": "8c7cc1ed1a6ced040a2c0306fd4cb9bd", "fusion_lon": 0.0}, {"is_reserved": 0, "type": "electric_scooter", "bike_id": "100913bf663d49b81652d95117915570", "lat": 38.91288316666667, "lon": -76.985432, "rental_uris": {"android": "https://dc.lft.to/lastmile_qr_scan", "ios": "https://dc.lft.to/lastmile_qr_scan"}, "is_disabled": 0, "fusion_lat": 0.0, "name": "100913bf663d49b81652d95117915570", "fusion_lon": 0.0}, {"is_reserved": 0, "type": "electric_scooter", "bike_id": "d223c055772e2950a4f3867f40a06afb", "lat": 38.92871233333334, "lon": -77.027081, "rental_uris": {"android": "https://dc.lft.to/lastmile_qr_scan", "ios": "https://dc.lft.to/lastmile_qr_scan"}, "is_disabled": 0, "fusion_lat": 0.0, "name": "d223c055772e2950a4f3867f40a06afb", "fusion_lon": 0.0}, {"is_reserved": 0, "type": "electric_scooter", "bike_id": "dc63e711155262cd6250b5bedfa45e83", "lat": 38.900650666666664, "lon": -76.92742183333333, "rental_uris": {"android": "https://dc.lft.to/lastmile_qr_scan", "ios": "https://dc.lft.to/lastmile_qr_scan"}, "is_disabled": 0, "fusion_lat": 0.0, "name": "dc63e711155262cd6250b5bedfa45e83", "fusion_lon": 0.0}, {"is_reserved": 0, "type": "electric_scooter", "bike_id": "8c30ba3d086f6abe071712031170aa67", "lat": 38.9148725, "lon": -77.00217016666667, "rental_uris": {"android": "https://dc.lft.to/lastmile_qr_scan", "ios": "https://dc.lft.to/lastmile_qr_scan"}, "is_disabled": 0, "fusion_lat": 0.0, "name": "8c30ba3d086f6abe071712031170aa67", "fusion_lon": 0.0}, {"is_reserved": 0, "type": "electric_scooter", "bike_id": "71e7a7d64183e95960921e35e4998e6a", "lat": 38.930926, "lon": -77.024036, "rental_uris": {"android": "https://dc.lft.to/lastmile_qr_scan", "ios": "https://dc.lft.to/lastmile_qr_scan"}, "is_disabled": 0, "fusion_lat": 0.0, "name": "71e7a7d64183e95960921e35e4998e6a", "fusion_lon": 0.0}, {"is_reserved": 0, "type": "electric_scooter", "bike_id": "722e44f8f8cf1b69c74aeb628f5173c0", "lat": 38.942424333333335, "lon": -77.0358405, "rental_uris": {"android": "https://dc.lft.to/lastmile_qr_scan", "ios": "https://dc.lft.to/lastmile_qr_scan"}, "is_disabled": 0, "fusion_lat": 0.0, "name": "722e44f8f8cf1b69c74aeb628f5173c0", "fusion_lon": 0.0}, {"is_reserved": 0, "type": "electric_scooter", "bike_id": "6ee41cd44aa45904e9a08e1629c1d460", "lat": 38.933344166666664, "lon": -77.023821, "rental_uris": {"android": "https://dc.lft.to/lastmile_qr_scan", "ios": "https://dc.lft.to/lastmile_qr_scan"}, "is_disabled": 0, "fusion_lat": 0.0, "name": "6ee41cd44aa45904e9a08e1629c1d460", "fusion_lon": 0.0}, {"is_reserved": 0, "type": "electric_scooter", "bike_id": "c30077489ed078f1446942439e714273", "lat": 38.887247, "lon": -76.983606, "rental_uris": {"android": "https://dc.lft.to/lastmile_qr_scan", "ios": "https://dc.lft.to/lastmile_qr_scan"}, "is_disabled": 0, "fusion_lat": 0.0, "name": "c30077489ed078f1446942439e714273", "fusion_lon": 0.0}, {"is_reserved": 0, "type": "electric_scooter", "bike_id": "2194ca9b68e207bb9bc641482240341d", "lat": 38.93881233333333, "lon": -77.03285433333333, "rental_uris": {"android": "https://dc.lft.to/lastmile_qr_scan", "ios": "https://dc.lft.to/lastmile_qr_scan"}, "is_disabled": 0, "fusion_lat": 0.0, "name": "2194ca9b68e207bb9bc641482240341d", "fusion_lon": 0.0}, {"is_reserved": 0, "type": "electric_scooter", "bike_id": "f5e7f3544df00816fb09fabae8c59d71", "lat": 38.8921715, "lon": -77.01555783333333, "rental_uris": {"android": "https://dc.lft.to/lastmile_qr_scan", "ios": "https://dc.lft.to/lastmile_qr_scan"}, "is_disabled": 0, "fusion_lat": 0.0, "name": "f5e7f3544df00816fb09fabae8c59d71", "fusion_lon": 0.0}, {"is_reserved": 0, "type": "electric_scooter", "bike_id": "a4f5d2e8aa7682d536886992122284cb", "lat": 38.910011833333336, "lon": -77.04005983333333, "rental_uris": {"android": "https://dc.lft.to/lastmile_qr_scan", "ios": "https://dc.lft.to/lastmile_qr_scan"}, "is_disabled": 0, "fusion_lat": 0.0, "name": "a4f5d2e8aa7682d536886992122284cb", "fusion_lon": 0.0}, {"is_reserved": 0, "type": "electric_scooter", "bike_id": "165367e87de03458ab05e2b8353b1580", "lat": 38.8781155, "lon": -76.9948745, "rental_uris": {"android": "https://dc.lft.to/lastmile_qr_scan", "ios": "https://dc.lft.to/lastmile_qr_scan"}, "is_disabled": 0, "fusion_lat": 0.0, "name": "165367e87de03458ab05e2b8353b1580", "fusion_lon": 0.0}, {"is_reserved": 0, "type": "electric_bike", "bike_id": "e810a1bdc7d6c3bd2abc2bc45291bd4e", "lat": 38.86370616666667, "lon": -76.9701135, "rental_uris": {"android": "https://dc.lft.to/lastmile_qr_scan", "ios": "https://dc.lft.to/lastmile_qr_scan"}, "is_disabled": 0, "fusion_lat": 0.0, "name": "e810a1bdc7d6c3bd2abc2bc45291bd4e", "fusion_lon": 0.0}, {"is_reserved": 0, "type": "electric_scooter", "bike_id": "0212c4a93e11da493ad0816fb5df5eed", "lat": 38.90536066666667, "lon": -77.00210716666666, "rental_uris": {"android": "https://dc.lft.to/lastmile_qr_scan", "ios": "https://dc.lft.to/lastmile_qr_scan"}, "is_disabled": 0, "fusion_lat": 0.0, "name": "0212c4a93e11da493ad0816fb5df5eed", "fusion_lon": 0.0}, {"is_reserved": 0, "type": "electric_scooter", "bike_id": "4b29ade574b61ef718f2afcf5b49bf9f", "lat": 38.8960485, "lon": -77.04413633333333, "rental_uris": {"android": "https://dc.lft.to/lastmile_qr_scan", "ios": "https://dc.lft.to/lastmile_qr_scan"}, "is_disabled": 0, "fusion_lat": 0.0, "name": "4b29ade574b61ef718f2afcf5b49bf9f", "fusion_lon": 0.0}, {"is_reserved": 0, "type": "electric_scooter", "bike_id": "7ef0c9f74f1d9551852dc778dff3f648", "lat": 38.898857666666665, "lon": -76.9317695, "rental_uris": {"android": "https://dc.lft.to/lastmile_qr_scan", "ios": "https://dc.lft.to/lastmile_qr_scan"}, "is_disabled": 0, "fusion_lat": 0.0, "name": "7ef0c9f74f1d9551852dc778dff3f648", "fusion_lon": 0.0}, {"is_reserved": 0, "type": "electric_scooter", "bike_id": "67686ebfcbb10fa698d501fad9766672", "lat": 38.9065355, "lon": -77.04649983333333, "rental_uris": {"android": "https://dc.lft.to/lastmile_qr_scan", "ios": "https://dc.lft.to/lastmile_qr_scan"}, "is_disabled": 0, "fusion_lat": 0.0, "name": "67686ebfcbb10fa698d501fad9766672", "fusion_lon": 0.0}, {"is_reserved": 0, "type": "electric_scooter", "bike_id": "027a5ae188c91eb1157dc17ca1857ae2", "lat": 38.92945983333333, "lon": -77.004055, "rental_uris": {"android": "https://dc.lft.to/lastmile_qr_scan", "ios": "https://dc.lft.to/lastmile_qr_scan"}, "is_disabled": 0, "fusion_lat": 0.0, "name": "027a5ae188c91eb1157dc17ca1857ae2", "fusion_lon": 0.0}, {"is_reserved": 0, "type": "electric_scooter", "bike_id": "22d7a742fa041e86fe0ac7c33ee1649b", "lat": 38.91813766666667, "lon": -77.0302375, "rental_uris": {"android": "https://dc.lft.to/lastmile_qr_scan", "ios": "https://dc.lft.to/lastmile_qr_scan"}, "is_disabled": 0, "fusion_lat": 0.0, "name": "22d7a742fa041e86fe0ac7c33ee1649b", "fusion_lon": 0.0}, {"is_reserved": 0, "type": "electric_scooter", "bike_id": "b44ae64584e992734981b4c9c5c6b3a6", "lat": 38.899343333333334, "lon": -76.97840783333334, "rental_uris": {"android": "https://dc.lft.to/lastmile_qr_scan", "ios": "https://dc.lft.to/lastmile_qr_scan"}, "is_disabled": 0, "fusion_lat": 0.0, "name": "b44ae64584e992734981b4c9c5c6b3a6", "fusion_lon": 0.0}, {"is_reserved": 0, "type": "electric_scooter", "bike_id": "132a10cd564134ab1a0c1d8f6a2f29d7", "lat": 38.897090666666664, "lon": -77.02276033333334, "rental_uris": {"android": "https://dc.lft.to/lastmile_qr_scan", "ios": "https://dc.lft.to/lastmile_qr_scan"}, "is_disabled": 0, "fusion_lat": 0.0, "name": "132a10cd564134ab1a0c1d8f6a2f29d7", "fusion_lon": 0.0}, {"is_reserved": 0, "type": "electric_scooter", "bike_id": "0814907b8d36a5f4a17838ea82655ac1", "lat": 38.882668, "lon": -77.0035555, "rental_uris": {"android": "https://dc.lft.to/lastmile_qr_scan", "ios": "https://dc.lft.to/lastmile_qr_scan"}, "is_disabled": 0, "fusion_lat": 0.0, "name": "0814907b8d36a5f4a17838ea82655ac1", "fusion_lon": 0.0}, {"is_reserved": 0, "type": "electric_scooter", "bike_id": "b52c1d5167ede7bb6a0025486edde3ed", "lat": 38.93128733333333, "lon": -77.0385675, "rental_uris": {"android": "https://dc.lft.to/lastmile_qr_scan", "ios": "https://dc.lft.to/lastmile_qr_scan"}, "is_disabled": 0, "fusion_lat": 0.0, "name": "b52c1d5167ede7bb6a0025486edde3ed", "fusion_lon": 0.0}, {"is_reserved": 0, "type": "electric_scooter", "bike_id": "678dce60889f5986d664ef4ca3e657a9", "lat": 38.917944166666665, "lon": -77.03436783333333, "rental_uris": {"android": "https://dc.lft.to/lastmile_qr_scan", "ios": "https://dc.lft.to/lastmile_qr_scan"}, "is_disabled": 0, "fusion_lat": 0.0, "name": "678dce60889f5986d664ef4ca3e657a9", "fusion_lon": 0.0}, {"is_reserved": 0, "type": "electric_scooter", "bike_id": "25c49084eaa48831161bced7c119e62a", "lat": 38.901451, "lon": -77.028594, "rental_uris": {"android": "https://dc.lft.to/lastmile_qr_scan", "ios": "https://dc.lft.to/lastmile_qr_scan"}, "is_disabled": 0, "fusion_lat": 0.0, "name": "25c49084eaa48831161bced7c119e62a", "fusion_lon": 0.0}, {"is_reserved": 0, "type": "electric_scooter", "bike_id": "ca80e93378df8518a0e7d51adef3e582", "lat": 38.93701633333333, "lon": -77.0211985, "rental_uris": {"android": "https://dc.lft.to/lastmile_qr_scan", "ios": "https://dc.lft.to/lastmile_qr_scan"}, "is_disabled": 0, "fusion_lat": 0.0, "name": "ca80e93378df8518a0e7d51adef3e582", "fusion_lon": 0.0}, {"is_reserved": 0, "type": "electric_scooter", "bike_id": "6e7b4e11ac3b719d174975a71c702ddf", "lat": 38.895441166666664, "lon": -77.03018466666667, "rental_uris": {"android": "https://dc.lft.to/lastmile_qr_scan", "ios": "https://dc.lft.to/lastmile_qr_scan"}, "is_disabled": 0, "fusion_lat": 0.0, "name": "6e7b4e11ac3b719d174975a71c702ddf", "fusion_lon": 0.0}, {"is_reserved": 0, "type": "electric_scooter", "bike_id": "c427e9bcb4d224c62911850ac9378c8a", "lat": 38.923621833333335, "lon": -77.05031783333334, "rental_uris": {"android": "https://dc.lft.to/lastmile_qr_scan", "ios": "https://dc.lft.to/lastmile_qr_scan"}, "is_disabled": 0, "fusion_lat": 0.0, "name": "c427e9bcb4d224c62911850ac9378c8a", "fusion_lon": 0.0}, {"is_reserved": 0, "type": "electric_scooter", "bike_id": "3bb27cb0aaecbff62e6d7c305471bf37", "lat": 38.9269775, "lon": -77.02425716666667, "rental_uris": {"android": "https://dc.lft.to/lastmile_qr_scan", "ios": "https://dc.lft.to/lastmile_qr_scan"}, "is_disabled": 0, "fusion_lat": 0.0, "name": "3bb27cb0aaecbff62e6d7c305471bf37", "fusion_lon": 0.0}, {"is_reserved": 0, "type": "electric_scooter", "bike_id": "e36a3dd0bb85d2574223a146f7ccacb6", "lat": 38.91564983333333, "lon": -77.0367155, "rental_uris": {"android": "https://dc.lft.to/lastmile_qr_scan", "ios": "https://dc.lft.to/lastmile_qr_scan"}, "is_disabled": 0, "fusion_lat": 0.0, "name": "e36a3dd0bb85d2574223a146f7ccacb6", "fusion_lon": 0.0}, {"is_reserved": 0, "type": "electric_scooter", "bike_id": "e8c25274bfb9daccbbfe913639590a32", "lat": 38.886089166666665, "lon": -77.00408266666666, "rental_uris": {"android": "https://dc.lft.to/lastmile_qr_scan", "ios": "https://dc.lft.to/lastmile_qr_scan"}, "is_disabled": 0, "fusion_lat": 0.0, "name": "e8c25274bfb9daccbbfe913639590a32", "fusion_lon": 0.0}, {"is_reserved": 0, "type": "electric_bike", "bike_id": "71565376444bacc58ea3577014e239ea", "lat": 38.882739, "lon": -76.9323415, "rental_uris": {"android": "https://dc.lft.to/lastmile_qr_scan", "ios": "https://dc.lft.to/lastmile_qr_scan"}, "is_disabled": 0, "fusion_lat": 0.0, "name": "71565376444bacc58ea3577014e239ea", "fusion_lon": 0.0}, {"is_reserved": 0, "type": "electric_scooter", "bike_id": "d2531bf1e421af55f05dcc0ed9f87ded", "lat": 38.918519, "lon": -76.965426, "rental_uris": {"android": "https://dc.lft.to/lastmile_qr_scan", "ios": "https://dc.lft.to/lastmile_qr_scan"}, "is_disabled": 0, "fusion_lat": 0.0, "name": "d2531bf1e421af55f05dcc0ed9f87ded", "fusion_lon": 0.0}, {"is_reserved": 0, "type": "electric_bike", "bike_id": "69e8555212e9b32dc1967ea87c1cd24e", "lat": 38.92352, "lon": -77.03508483333333, "rental_uris": {"android": "https://dc.lft.to/lastmile_qr_scan", "ios": "https://dc.lft.to/lastmile_qr_scan"}, "is_disabled": 0, "fusion_lat": 0.0, "name": "69e8555212e9b32dc1967ea87c1cd24e", "fusion_lon": 0.0}, {"is_reserved": 0, "type": "electric_scooter", "bike_id": "94cd74ad582e383c741ac47cc22bbc41", "lat": 38.94977883333333, "lon": -77.024599, "rental_uris": {"android": "https://dc.lft.to/lastmile_qr_scan", "ios": "https://dc.lft.to/lastmile_qr_scan"}, "is_disabled": 0, "fusion_lat": 0.0, "name": "94cd74ad582e383c741ac47cc22bbc41", "fusion_lon": 0.0}, {"is_reserved": 0, "type": "electric_scooter", "bike_id": "e4416c84c3879222b2bdbd3fafb79ba7", "lat": 38.919598, "lon": -77.01798816666667, "rental_uris": {"android": "https://dc.lft.to/lastmile_qr_scan", "ios": "https://dc.lft.to/lastmile_qr_scan"}, "is_disabled": 0, "fusion_lat": 0.0, "name": "e4416c84c3879222b2bdbd3fafb79ba7", "fusion_lon": 0.0}, {"is_reserved": 0, "type": "electric_scooter", "bike_id": "d612ea8264f8ea4410aa68ae72370391", "lat": 38.946102, "lon": -77.03059883333333, "rental_uris": {"android": "https://dc.lft.to/lastmile_qr_scan", "ios": "https://dc.lft.to/lastmile_qr_scan"}, "is_disabled": 0, "fusion_lat": 0.0, "name": "d612ea8264f8ea4410aa68ae72370391", "fusion_lon": 0.0}, {"is_reserved": 0, "type": "electric_scooter", "bike_id": "506adff7da0c047c513eda237252a1b3", "lat": 38.894076, "lon": -77.023278, "rental_uris": {"android": "https://dc.lft.to/lastmile_qr_scan", "ios": "https://dc.lft.to/lastmile_qr_scan"}, "is_disabled": 0, "fusion_lat": 0.0, "name": "506adff7da0c047c513eda237252a1b3", "fusion_lon": 0.0}, {"is_reserved": 0, "type": "electric_scooter", "bike_id": "a6b5b1e66563707b009aa04855d77574", "lat": 38.908055166666664, "lon": -77.03658683333333, "rental_uris": {"android": "https://dc.lft.to/lastmile_qr_scan", "ios": "https://dc.lft.to/lastmile_qr_scan"}, "is_disabled": 0, "fusion_lat": 0.0, "name": "a6b5b1e66563707b009aa04855d77574", "fusion_lon": 0.0}, {"is_reserved": 0, "type": "electric_scooter", "bike_id": "173a850c3e3ca85f221ac15b9395042d", "lat": 38.91404083333333, "lon": -77.02840166666667, "rental_uris": {"android": "https://dc.lft.to/lastmile_qr_scan", "ios": "https://dc.lft.to/lastmile_qr_scan"}, "is_disabled": 0, "fusion_lat": 0.0, "name": "173a850c3e3ca85f221ac15b9395042d", "fusion_lon": 0.0}, {"is_reserved": 0, "type": "electric_scooter", "bike_id": "f2ae405d227d3a08e091cef84a66aae4", "lat": 38.9083145, "lon": -76.9871915, "rental_uris": {"android": "https://dc.lft.to/lastmile_qr_scan", "ios": "https://dc.lft.to/lastmile_qr_scan"}, "is_disabled": 0, "fusion_lat": 0.0, "name": "f2ae405d227d3a08e091cef84a66aae4", "fusion_lon": 0.0}, {"is_reserved": 0, "type": "electric_scooter", "bike_id": "fe893cde4ad89cd20e8cdb57be2ccb3f", "lat": 38.9269195, "lon": -77.02983133333333, "rental_uris": {"android": "https://dc.lft.to/lastmile_qr_scan", "ios": "https://dc.lft.to/lastmile_qr_scan"}, "is_disabled": 0, "fusion_lat": 0.0, "name": "fe893cde4ad89cd20e8cdb57be2ccb3f", "fusion_lon": 0.0}, {"is_reserved": 0, "type": "electric_scooter", "bike_id": "e62959a5783f2eea5b0a6a0ffc754c7f", "lat": 38.90099383333333, "lon": -77.02232116666667, "rental_uris": {"android": "https://dc.lft.to/lastmile_qr_scan", "ios": "https://dc.lft.to/lastmile_qr_scan"}, "is_disabled": 0, "fusion_lat": 0.0, "name": "e62959a5783f2eea5b0a6a0ffc754c7f", "fusion_lon": 0.0}, {"is_reserved": 0, "type": "electric_bike", "bike_id": "260be7e6c773c8f4ecc7cab2fe891e6a", "lat": 39.01076616666667, "lon": -76.91066716666667, "rental_uris": {"android": "https://dc.lft.to/lastmile_qr_scan", "ios": "https://dc.lft.to/lastmile_qr_scan"}, "is_disabled": 0, "fusion_lat": 0.0, "name": "260be7e6c773c8f4ecc7cab2fe891e6a", "fusion_lon": 0.0}, {"is_reserved": 0, "type": "electric_scooter", "bike_id": "7029a62ff24a745ae539c3bc05aa054e", "lat": 38.91302, "lon": -76.98479866666666, "rental_uris": {"android": "https://dc.lft.to/lastmile_qr_scan", "ios": "https://dc.lft.to/lastmile_qr_scan"}, "is_disabled": 0, "fusion_lat": 0.0, "name": "7029a62ff24a745ae539c3bc05aa054e", "fusion_lon": 0.0}, {"is_reserved": 0, "type": "electric_scooter", "bike_id": "da616d8f2a7e1c2b8277b6c70c68e09e", "lat": 38.92655416666667, "lon": -77.037139, "rental_uris": {"android": "https://dc.lft.to/lastmile_qr_scan", "ios": "https://dc.lft.to/lastmile_qr_scan"}, "is_disabled": 0, "fusion_lat": 0.0, "name": "da616d8f2a7e1c2b8277b6c70c68e09e", "fusion_lon": 0.0}, {"is_reserved": 0, "type": "electric_bike", "bike_id": "3b793d9a274ec5b0249b5c2bdc5d0fc3", "lat": 38.8038365, "lon": -76.9881615, "rental_uris": {"android": "https://dc.lft.to/lastmile_qr_scan", "ios": "https://dc.lft.to/lastmile_qr_scan"}, "is_disabled": 0, "fusion_lat": 0.0, "name": "3b793d9a274ec5b0249b5c2bdc5d0fc3", "fusion_lon": 0.0}, {"is_reserved": 0, "type": "electric_scooter", "bike_id": "3bcc74e139361462ababa8abe4c258e3", "lat": 38.922198, "lon": -77.02289916666666, "rental_uris": {"android": "https://dc.lft.to/lastmile_qr_scan", "ios": "https://dc.lft.to/lastmile_qr_scan"},