{"data": {"bikes": [{"type": "electric_scooter", "name": "221b2afaec0da93b67f22d80c1e04360", "rental_uris": {"ios": "https://dc.lft.to/lastmile_qr_scan", "android": "https://dc.lft.to/lastmile_qr_scan"}, "fusion_lon": 0.0, "lat": 38.865011833333334, "is_disabled": 0, "bike_id": "221b2afaec0da93b67f22d80c1e04360", "fusion_lat": 0.0, "is_reserved": 0, "lon": -76.99003883333333}, {"type": "electric_scooter", "name": "44e1d774a1b2696694ad56726443b75d", "rental_uris": {"ios": "https://dc.lft.to/lastmile_qr_scan", "android": "https://dc.lft.to/lastmile_qr_scan"}, "fusion_lon": 0.0, "lat": 38.89794, "is_disabled": 0, "bike_id": "44e1d774a1b2696694ad56726443b75d", "fusion_lat": 0.0, "is_reserved": 0, "lon": -76.93120133333333}, {"type": "electric_scooter", "name": "ac3520573b48d8e50a9df0a7d2cc45b6", "rental_uris": {"ios": "https://dc.lft.to/lastmile_qr_scan", "android": "https://dc.lft.to/lastmile_qr_scan"}, "fusion_lon": 0.0, "lat": 38.915580166666665, "is_disabled": 0, "bike_id": "ac3520573b48d8e50a9df0a7d2cc45b6", "fusion_lat": 0.0, "is_reserved": 0, "lon": -77.02355}, {"type": "electric_scooter", "name": "323335cadfe14e1e943c3082b33b774b", "rental_uris": {"ios": "https://dc.lft.to/lastmile_qr_scan", "android": "https://dc.lft.to/lastmile_qr_scan"}, "fusion_lon": 0.0, "lat": 38.93610733333333, "is_disabled": 0, "bike_id": "323335cadfe14e1e943c3082b33b774b", "fusion_lat": 0.0, "is_reserved": 0, "lon": -77.05864616666666}, {"type": "electric_scooter", "name": "d0c9d0299087e042f97223d7324d4eed", "rental_uris": {"ios": "https://dc.lft.to/lastmile_qr_scan", "android": "https://dc.lft.to/lastmile_qr_scan"}, "fusion_lon": 0.0, "lat": 38.9016945, "is_disabled": 0, "bike_id": "d0c9d0299087e042f97223d7324d4eed", "fusion_lat": 0.0, "is_reserved": 0, "lon": -76.9806415}, {"type": "electric_scooter", "name": "fe622f44e19b94053ab10139cea12afe", "rental_uris": {"ios": "https://dc.lft.to/lastmile_qr_scan", "android": "https://dc.lft.to/lastmile_qr_scan"}, "fusion_lon": 0.0, "lat": 38.904532333333336, "is_disabled": 0, "bike_id": "fe622f44e19b94053ab10139cea12afe", "fusion_lat": 0.0, "is_reserved": 0, "lon": -77.0190295}, {"type": "electric_scooter", "name": "04e95d3921818b8ef9911dc0443b15d7", "rental_uris": {"ios": "https://dc.lft.to/lastmile_qr_scan", "android": "https://dc.lft.to/lastmile_qr_scan"}, "fusion_lon": 0.0, "lat": 38.92973766666667, "is_disabled": 0, "bike_id": "04e95d3921818b8ef9911dc0443b15d7", "fusion_lat": 0.0, "is_reserved": 0, "lon": -77.05499083333333}, {"type": "electric_scooter", "name": "5d12ce8c54d61fd1fa60313bfc135fda", "rental_uris": {"ios": "https://dc.lft.to/lastmile_qr_scan", "android": "https://dc.lft.to/lastmile_qr_scan"}, "fusion_lon": 0.0, "lat": 38.90265816666667, "is_disabled": 0, "bike_id": "5d12ce8c54d61fd1fa60313bfc135fda", "fusion_lat": 0.0, "is_reserved": 0, "lon": -77.03546616666667}, {"type": "electric_scooter", "name": "5bcdbc4235121aa5dfce9d2bba9e93c4", "rental_uris": {"ios": "https://dc.lft.to/lastmile_qr_scan", "android": "https://dc.lft.to/lastmile_qr_scan"}, "fusion_lon": 0.0, "lat": 38.973733, "is_disabled": 0, "bike_id": "5bcdbc4235121aa5dfce9d2bba9e93c4", "fusion_lat": 0.0, "is_reserved": 0, "lon": -77.01854583333333}, {"type": "electric_scooter", "name": "cc7eb2e9b198c04ce08a2402200b8f51", "rental_uris": {"ios": "https://dc.lft.to/lastmile_qr_scan", "android": "https://dc.lft.to/lastmile_qr_scan"}, "fusion_lon": 0.0, "lat": 38.9016085, "is_disabled": 0, "bike_id": "cc7eb2e9b198c04ce08a2402200b8f51", "fusion_lat": 0.0, "is_reserved": 0, "lon": -77.013076}, {"type": "electric_scooter", "name": "574e31f81f35cc0d29f61c1a24b79a43", "rental_uris": {"ios": "https://dc.lft.to/lastmile_qr_scan", "android": "https://dc.lft.to/lastmile_qr_scan"}, "fusion_lon": 0.0, "lat": 38.912356833333334, "is_disabled": 0, "bike_id": "574e31f81f35cc0d29f61c1a24b79a43", "fusion_lat": 0.0, "is_reserved": 0, "lon": -76.98796233333333}, {"type": "electric_scooter", "name": "186cbcc4964ed4acca6ba6a5ddc8fd33", "rental_uris": {"ios": "https://dc.lft.to/lastmile_qr_scan", "android": "https://dc.lft.to/lastmile_qr_scan"}, "fusion_lon": 0.0, "lat": 38.89224983333333, "is_disabled": 0, "bike_id": "186cbcc4964ed4acca6ba6a5ddc8fd33", "fusion_lat": 0.0, "is_reserved": 0, "lon": -77.04378816666667}, {"type": "electric_scooter", "name": "0b3a4e00ca367ed283b157757158b1ad", "rental_uris": {"ios": "https://dc.lft.to/lastmile_qr_scan", "android": "https://dc.lft.to/lastmile_qr_scan"}, "fusion_lon": 0.0, "lat": 38.892231333333335, "is_disabled": 0, "bike_id": "0b3a4e00ca367ed283b157757158b1ad", "fusion_lat": 0.0, "is_reserved": 0, "lon": -77.03338116666667}, {"type": "electric_scooter", "name": "adf178f3c292199e48f2bac3cef2d050", "rental_uris": {"ios": "https://dc.lft.to/lastmile_qr_scan", "android": "https://dc.lft.to/lastmile_qr_scan"}, "fusion_lon": 0.0, "lat": 38.898684333333335, "is_disabled": 0, "bike_id": "adf178f3c292199e48f2bac3cef2d050", "fusion_lat": 0.0, "is_reserved": 0, "lon": -77.020211}, {"type": "electric_scooter", "name": "b60b7e97b1f870144b478e96f55a86ba", "rental_uris": {"ios": "https://dc.lft.to/lastmile_qr_scan", "android": "https://dc.lft.to/lastmile_qr_scan"}, "fusion_lon": 0.0, "lat": 38.907135333333336, "is_disabled": 0, "bike_id": "b60b7e97b1f870144b478e96f55a86ba", "fusion_lat": 0.0, "is_reserved": 0, "lon": -77.034506}, {"type": "electric_scooter", "name": "ae194ae46a4a5d1323f20f2fdb61d298", "rental_uris": {"ios": "https://dc.lft.to/lastmile_qr_scan", "android": "https://dc.lft.to/lastmile_qr_scan"}, "fusion_lon": 0.0, "lat": 38.9139025, "is_disabled": 0, "bike_id": "ae194ae46a4a5d1323f20f2fdb61d298", "fusion_lat": 0.0, "is_reserved": 0, "lon": -77.03208683333334}, {"type": "electric_scooter", "name": "c5f388e4545f321ebcb5b1bffa85e3eb", "rental_uris": {"ios": "https://dc.lft.to/lastmile_qr_scan", "android": "https://dc.lft.to/lastmile_qr_scan"}, "fusion_lon": 0.0, "lat": 38.921201, "is_disabled": 0, "bike_id": "c5f388e4545f321ebcb5b1bffa85e3eb", "fusion_lat": 0.0, "is_reserved": 0, "lon": -77.0365865}, {"type": "electric_scooter", "name": "aa146af4b78cc621c07c968d6f3c9b9f", "rental_uris": {"ios": "https://dc.lft.to/lastmile_qr_scan", "android": "https://dc.lft.to/lastmile_qr_scan"}, "fusion_lon": 0.0, "lat": 38.9098125, "is_disabled": 0, "bike_id": "aa146af4b78cc621c07c968d6f3c9b9f", "fusion_lat": 0.0, "is_reserved": 0, "lon": -77.03447783333333}, {"type": "electric_scooter", "name": "983a85987b1882098bb7a0b26209f254", "rental_uris": {"ios": "https://dc.lft.to/lastmile_qr_scan", "android": "https://dc.lft.to/lastmile_qr_scan"}, "fusion_lon": 0.0, "lat": 38.92273016666667, "is_disabled": 0, "bike_id": "983a85987b1882098bb7a0b26209f254", "fusion_lat": 0.0, "is_reserved": 0, "lon": -77.03272433333333}, {"type": "electric_scooter", "name": "6b20bd131b99865a0cfd323585d57df3", "rental_uris": {"ios": "https://dc.lft.to/lastmile_qr_scan", "android": "https://dc.lft.to/lastmile_qr_scan"}, "fusion_lon": 0.0, "lat": 38.9013815, "is_disabled": 0, "bike_id": "6b20bd131b99865a0cfd323585d57df3", "fusion_lat": 0.0, "is_reserved": 0, "lon": -77.04627916666666}, {"type": "electric_scooter", "name": "90aa1c736fa3d31f11e5d5865a983807", "rental_uris": {"ios": "https://dc.lft.to/lastmile_qr_scan", "android": "https://dc.lft.to/lastmile_qr_scan"}, "fusion_lon": 0.0, "lat": 38.89237966666666, "is_disabled": 0, "bike_id": "90aa1c736fa3d31f11e5d5865a983807", "fusion_lat": 0.0, "is_reserved": 0, "lon": -77.04874583333333}, {"type": "electric_scooter", "name": "dbacbde63a3282dc4cf48350ab54d035", "rental_uris": {"ios": "https://dc.lft.to/lastmile_qr_scan", "android": "https://dc.lft.to/lastmile_qr_scan"}, "fusion_lon": 0.0, "lat": 38.8816755, "is_disabled": 0, "bike_id": "dbacbde63a3282dc4cf48350ab54d035", "fusion_lat": 0.0, "is_reserved": 0, "lon": -77.0267145}, {"type": "electric_scooter", "name": "99672942627d2cbdf2a31c761312b79a", "rental_uris": {"ios": "https://dc.lft.to/lastmile_qr_scan", "android": "https://dc.lft.to/lastmile_qr_scan"}, "fusion_lon": 0.0, "lat": 38.85545466666667, "is_disabled": 0, "bike_id": "99672942627d2cbdf2a31c761312b79a", "fusion_lat": 0.0, "is_reserved": 0, "lon": -76.97178916666667}, {"type": "electric_scooter", "name": "220308eb3cf13efad0c903bf2227440d", "rental_uris": {"ios": "https://dc.lft.to/lastmile_qr_scan", "android": "https://dc.lft.to/lastmile_qr_scan"}, "fusion_lon": 0.0, "lat": 38.892519166666666, "is_disabled": 0, "bike_id": "220308eb3cf13efad0c903bf2227440d", "fusion_lat": 0.0, "is_reserved": 0, "lon": -77.03957433333333}, {"type": "electric_scooter", "name": "dbdfb9b7cbdc9ddf6fa3062133a80c19", "rental_uris": {"ios": "https://dc.lft.to/lastmile_qr_scan", "android": "https://dc.lft.to/lastmile_qr_scan"}, "fusion_lon": 0.0, "lat": 38.922866166666665, "is_disabled": 0, "bike_id": "dbdfb9b7cbdc9ddf6fa3062133a80c19", "fusion_lat": 0.0, "is_reserved": 0, "lon": -77.02972483333333}, {"type": "electric_scooter", "name": "ff2c11613200c95702b5386b1f453774", "rental_uris": {"ios": "https://dc.lft.to/lastmile_qr_scan", "android": "https://dc.lft.to/lastmile_qr_scan"}, "fusion_lon": 0.0, "lat": 38.91413883333333, "is_disabled": 0, "bike_id": "ff2c11613200c95702b5386b1f453774", "fusion_lat": 0.0, "is_reserved": 0, "lon": -77.02451116666667}, {"type": "electric_scooter", "name": "b87875eb0e581be739e9a080dd1ec0f3", "rental_uris": {"ios": "https://dc.lft.to/lastmile_qr_scan", "android": "https://dc.lft.to/lastmile_qr_scan"}, "fusion_lon": 0.0, "lat": 38.902465666666664, "is_disabled": 0, "bike_id": "b87875eb0e581be739e9a080dd1ec0f3", "fusion_lat": 0.0, "is_reserved": 0, "lon": -77.04025366666667}, {"type": "electric_bike", "name": "2e650b87a7d8fe8deba5a1a1f0a85a8e", "rental_uris": {"ios": "https://dc.lft.to/lastmile_qr_scan", "android": "https://dc.lft.to/lastmile_qr_scan"}, "fusion_lon": 0.0, "lat": 38.972376833333335, "is_disabled": 0, "bike_id": "2e650b87a7d8fe8deba5a1a1f0a85a8e", "fusion_lat": 0.0, "is_reserved": 0, "lon": -77.02714933333333}, {"type": "electric_bike", "name": "9d841d92bde9a5507899a636f20ed5b6", "rental_uris": {"ios": "https://dc.lft.to/lastmile_qr_scan", "android": "https://dc.lft.to/lastmile_qr_scan"}, "fusion_lon": 0.0, "lat": 38.99445083333333, "is_disabled": 0, "bike_id": "9d841d92bde9a5507899a636f20ed5b6", "fusion_lat": 0.0, "is_reserved": 0, "lon": -76.99588366666667}, {"type": "electric_scooter", "name": "3e9af9f2a695515aa8e41b940e1c4da4", "rental_uris": {"ios": "https://dc.lft.to/lastmile_qr_scan", "android": "https://dc.lft.to/lastmile_qr_scan"}, "fusion_lon": 0.0, "lat": 38.879983833333334, "is_disabled": 0, "bike_id": "3e9af9f2a695515aa8e41b940e1c4da4", "fusion_lat": 0.0, "is_reserved": 0, "lon": -76.99508416666667}, {"type": "electric_scooter", "name": "2186562e7c9cb901b73ab8741bb890f0", "rental_uris": {"ios": "https://dc.lft.to/lastmile_qr_scan", "android": "https://dc.lft.to/lastmile_qr_scan"}, "fusion_lon": 0.0, "lat": 38.887154833333334, "is_disabled": 0, "bike_id": "2186562e7c9cb901b73ab8741bb890f0", "fusion_lat": 0.0, "is_reserved": 0, "lon": -76.9835185}, {"type": "electric_bike", "name": "8eae4821d475828d7bbc777b8e549dd1", "rental_uris": {"ios": "https://dc.lft.to/lastmile_qr_scan", "android": "https://dc.lft.to/lastmile_qr_scan"}, "fusion_lon": 0.0, "lat": 38.940456, "is_disabled": 0, "bike_id": "8eae4821d475828d7bbc777b8e549dd1", "fusion_lat": 0.0, "is_reserved": 0, "lon": -76.904164}, {"type": "electric_scooter", "name": "a3e05953de37f6a643f76f3a3c5de385", "rental_uris": {"ios": "https://dc.lft.to/lastmile_qr_scan", "android": "https://dc.lft.to/lastmile_qr_scan"}, "fusion_lon": 0.0, "lat": 38.918268, "is_disabled": 0, "bike_id": "a3e05953de37f6a643f76f3a3c5de385", "fusion_lat": 0.0, "is_reserved": 0, "lon": -77.040248}, {"type": "electric_scooter", "name": "2e64e56076e0c879ee012a7b8425254f", "rental_uris": {"ios": "https://dc.lft.to/lastmile_qr_scan", "android": "https://dc.lft.to/lastmile_qr_scan"}, "fusion_lon": 0.0, "lat": 38.92629783333334, "is_disabled": 0, "bike_id": "2e64e56076e0c879ee012a7b8425254f", "fusion_lat": 0.0, "is_reserved": 0, "lon": -77.03532516666667}, {"type": "electric_scooter", "name": "048ea348efabca5919e11bcfb71ea015", "rental_uris": {"ios": "https://dc.lft.to/lastmile_qr_scan", "android": "https://dc.lft.to/lastmile_qr_scan"}, "fusion_lon": 0.0, "lat": 38.91963233333333, "is_disabled": 0, "bike_id": "048ea348efabca5919e11bcfb71ea015", "fusion_lat": 0.0, "is_reserved": 0, "lon": -77.02377483333333}, {"type": "electric_scooter", "name": "ada113edf6f646016c727ded784c044e", "rental_uris": {"ios": "https://dc.lft.to/lastmile_qr_scan", "android": "https://dc.lft.to/lastmile_qr_scan"}, "fusion_lon": 0.0, "lat": 38.88946766666667, "is_disabled": 0, "bike_id": "ada113edf6f646016c727ded784c044e", "fusion_lat": 0.0, "is_reserved": 0, "lon": -76.99162633333333}, {"type": "electric_scooter", "name": "f38e89a30ba0eac7f88dc399cf2640f9", "rental_uris": {"ios": "https://dc.lft.to/lastmile_qr_scan", "android": "https://dc.lft.to/lastmile_qr_scan"}, "fusion_lon": 0.0, "lat": 38.89699483333333, "is_disabled": 0, "bike_id": "f38e89a30ba0eac7f88dc399cf2640f9", "fusion_lat": 0.0, "is_reserved": 0, "lon": -77.007589}, {"type": "electric_scooter", "name": "cc2f8ded9dc9b860823af7945d6352c7", "rental_uris": {"ios": "https://dc.lft.to/lastmile_qr_scan", "android": "https://dc.lft.to/lastmile_qr_scan"}, "fusion_lon": 0.0, "lat": 38.92109583333333, "is_disabled": 0, "bike_id": "cc2f8ded9dc9b860823af7945d6352c7", "fusion_lat": 0.0, "is_reserved": 0, "lon": -77.0418865}, {"type": "electric_scooter", "name": "7b4c99e004f3b4bc94776a589ecaf4af", "rental_uris": {"ios": "https://dc.lft.to/lastmile_qr_scan", "android": "https://dc.lft.to/lastmile_qr_scan"}, "fusion_lon": 0.0, "lat": 38.94422083333333, "is_disabled": 0, "bike_id": "7b4c99e004f3b4bc94776a589ecaf4af", "fusion_lat": 0.0, "is_reserved": 0, "lon": -77.017781}, {"type": "electric_scooter", "name": "207a563537d63c7365acc4658d8a2783", "rental_uris": {"ios": "https://dc.lft.to/lastmile_qr_scan", "android": "https://dc.lft.to/lastmile_qr_scan"}, "fusion_lon": 0.0, "lat": 38.927271833333336, "is_disabled": 0, "bike_id": "207a563537d63c7365acc4658d8a2783", "fusion_lat": 0.0, "is_reserved": 0, "lon": -77.02306033333333}, {"type": "electric_scooter", "name": "7e499d9855cffd4bb9f2a5c59b6ca8f9", "rental_uris": {"ios": "https://dc.lft.to/lastmile_qr_scan", "android": "https://dc.lft.to/lastmile_qr_scan"}, "fusion_lon": 0.0, "lat": 38.9222035, "is_disabled": 0, "bike_id": "7e499d9855cffd4bb9f2a5c59b6ca8f9", "fusion_lat": 0.0, "is_reserved": 0, "lon": -77.02417866666667}, {"type": "electric_scooter", "name": "7b08eac4d22ba4c489bebc3e1005c9d1", "rental_uris": {"ios": "https://dc.lft.to/lastmile_qr_scan", "android": "https://dc.lft.to/lastmile_qr_scan"}, "fusion_lon": 0.0, "lat": 38.92672966666667, "is_disabled": 0, "bike_id": "7b08eac4d22ba4c489bebc3e1005c9d1", "fusion_lat": 0.0, "is_reserved": 0, "lon": -77.02919783333333}, {"type": "electric_scooter", "name": "1338bbb11c6ea47ff2ca1e592fe72a3a", "rental_uris": {"ios": "https://dc.lft.to/lastmile_qr_scan", "android": "https://dc.lft.to/lastmile_qr_scan"}, "fusion_lon": 0.0, "lat": 38.901767666666665, "is_disabled": 0, "bike_id": "1338bbb11c6ea47ff2ca1e592fe72a3a", "fusion_lat": 0.0, "is_reserved": 0, "lon": -76.98045733333333}, {"type": "electric_scooter", "name": "fec31f23409330176853a4437c9d1013", "rental_uris": {"ios": "https://dc.lft.to/lastmile_qr_scan", "android": "https://dc.lft.to/lastmile_qr_scan"}, "fusion_lon": 0.0, "lat": 38.919321333333336, "is_disabled": 0, "bike_id": "fec31f23409330176853a4437c9d1013", "fusion_lat": 0.0, "is_reserved": 0, "lon": -77.04477783333333}, {"type": "electric_scooter", "name": "5ff233ce12ef11459777b71f931db322", "rental_uris": {"ios": "https://dc.lft.to/lastmile_qr_scan", "android": "https://dc.lft.to/lastmile_qr_scan"}, "fusion_lon": 0.0, "lat": 38.90884833333333, "is_disabled": 0, "bike_id": "5ff233ce12ef11459777b71f931db322", "fusion_lat": 0.0, "is_reserved": 0, "lon": -77.0752425}, {"type": "electric_scooter", "name": "f606630cb2e9c5d2a0ad3812bf7212aa", "rental_uris": {"ios": "https://dc.lft.to/lastmile_qr_scan", "android": "https://dc.lft.to/lastmile_qr_scan"}, "fusion_lon": 0.0, "lat": 38.9056215, "is_disabled": 0, "bike_id": "f606630cb2e9c5d2a0ad3812bf7212aa", "fusion_lat": 0.0, "is_reserved": 0, "lon": -77.0131}, {"type": "electric_scooter", "name": "753b68137367519a41d1dfdb0a138c4e", "rental_uris": {"ios": "https://dc.lft.to/lastmile_qr_scan", "android": "https://dc.lft.to/lastmile_qr_scan"}, "fusion_lon": 0.0, "lat": 38.91784616666666, "is_disabled": 0, "bike_id": "753b68137367519a41d1dfdb0a138c4e", "fusion_lat": 0.0, "is_reserved": 0, "lon": -77.02287266666667}, {"type": "electric_scooter", "name": "e8a730da3f96e82745c815f32c6b7e43", "rental_uris": {"ios": "https://dc.lft.to/lastmile_qr_scan", "android": "https://dc.lft.to/lastmile_qr_scan"}, "fusion_lon": 0.0, "lat": 38.9318185, "is_disabled": 0, "bike_id": "e8a730da3f96e82745c815f32c6b7e43", "fusion_lat": 0.0, "is_reserved": 0, "lon": -77.04302783333333}, {"type": "electric_scooter", "name": "50f0f50b7f8c9643b80372dbc7b15d07", "rental_uris": {"ios": "https://dc.lft.to/lastmile_qr_scan", "android": "https://dc.lft.to/lastmile_qr_scan"}, "fusion_lon": 0.0, "lat": 38.936701666666664, "is_disabled": 0, "bike_id": "50f0f50b7f8c9643b80372dbc7b15d07", "fusion_lat": 0.0, "is_reserved": 0, "lon": -77.03585983333333}, {"type": "electric_scooter", "name": "248d7795006f263e594d8b7249cd1d34", "rental_uris": {"ios": "https://dc.lft.to/lastmile_qr_scan", "android": "https://dc.lft.to/lastmile_qr_scan"}, "fusion_lon": 0.0, "lat": 38.8922505, "is_disabled": 0, "bike_id": "248d7795006f263e594d8b7249cd1d34", "fusion_lat": 0.0, "is_reserved": 0, "lon": -77.04330933333334}, {"type": "electric_bike", "name": "860524793cbcdfb39a042b60a0fa257a", "rental_uris": {"ios": "https://dc.lft.to/lastmile_qr_scan", "android": "https://dc.lft.to/lastmile_qr_scan"}, "fusion_lon": 0.0, "lat": 38.8981315, "is_disabled": 0, "bike_id": "860524793cbcdfb39a042b60a0fa257a", "fusion_lat": 0.0, "is_reserved": 0, "lon": -77.00608616666666}, {"type": "electric_scooter", "name": "ac14260f166179cf485cb463d454b5a6", "rental_uris": {"ios": "https://dc.lft.to/lastmile_qr_scan", "android": "https://dc.lft.to/lastmile_qr_scan"}, "fusion_lon": 0.0, "lat": 38.8968465, "is_disabled": 0, "bike_id": "ac14260f166179cf485cb463d454b5a6", "fusion_lat": 0.0, "is_reserved": 0, "lon": -77.04660933333334}, {"type": "electric_scooter", "name": "491e951b76368c2d6d1e880128eaf534", "rental_uris": {"ios": "https://dc.lft.to/lastmile_qr_scan", "android": "https://dc.lft.to/lastmile_qr_scan"}, "fusion_lon": 0.0, "lat": 38.9038005, "is_disabled": 0, "bike_id": "491e951b76368c2d6d1e880128eaf534", "fusion_lat": 0.0, "is_reserved": 0, "lon": -77.01656516666667}, {"type": "electric_scooter", "name": "ec4c6e4f8bd13b0b067fe2becfd4716a", "rental_uris": {"ios": "https://dc.lft.to/lastmile_qr_scan", "android": "https://dc.lft.to/lastmile_qr_scan"}, "fusion_lon": 0.0, "lat": 38.93113966666667, "is_disabled": 0, "bike_id": "ec4c6e4f8bd13b0b067fe2becfd4716a", "fusion_lat": 0.0, "is_reserved": 0, "lon": -77.03823283333334}, {"type": "electric_scooter", "name": "c103800c600edafebb943489bde8ca3e", "rental_uris": {"ios": "https://dc.lft.to/lastmile_qr_scan", "android": "https://dc.lft.to/lastmile_qr_scan"}, "fusion_lon": 0.0, "lat": 38.92060166666667, "is_disabled": 0, "bike_id": "c103800c600edafebb943489bde8ca3e", "fusion_lat": 0.0, "is_reserved": 0, "lon": -77.02536383333333}, {"type": "electric_scooter", "name": "b69b998782782b8f74439e368c2fb697", "rental_uris": {"ios": "https://dc.lft.to/lastmile_qr_scan", "android": "https://dc.lft.to/lastmile_qr_scan"}, "fusion_lon": 0.0, "lat": 38.874007666666664, "is_disabled": 0, "bike_id": "b69b998782782b8f74439e368c2fb697", "fusion_lat": 0.0, "is_reserved": 0, "lon": -77.0020775}, {"type": "electric_scooter", "name": "6d2a20b1fe8759ea10db4780e68aee07", "rental_uris": {"ios": "https://dc.lft.to/lastmile_qr_scan", "android": "https://dc.lft.to/lastmile_qr_scan"}, "fusion_lon": 0.0, "lat": 38.90980666666667, "is_disabled": 0, "bike_id": "6d2a20b1fe8759ea10db4780e68aee07", "fusion_lat": 0.0, "is_reserved": 0, "lon": -77.0649915}, {"type": "electric_scooter", "name": "83cb709033dd18404bf89b7b14b260f7", "rental_uris": {"ios": "https://dc.lft.to/lastmile_qr_scan", "android": "https://dc.lft.to/lastmile_qr_scan"}, "fusion_lon": 0.0, "lat": 38.88348766666667, "is_disabled": 0, "bike_id": "83cb709033dd18404bf89b7b14b260f7", "fusion_lat": 0.0, "is_reserved": 0, "lon": -77.01757283333333}, {"type": "electric_scooter", "name": "2bb33799dda1915c7b66cf97616a91cd", "rental_uris": {"ios": "https://dc.lft.to/lastmile_qr_scan", "android": "https://dc.lft.to/lastmile_qr_scan"}, "fusion_lon": 0.0, "lat": 38.90034433333334, "is_disabled": 0, "bike_id": "2bb33799dda1915c7b66cf97616a91cd", "fusion_lat": 0.0, "is_reserved": 0, "lon": -76.98859416666667}, {"type": "electric_scooter", "name": "5d2f37f0f256a087db4c05d0dabb88f9", "rental_uris": {"ios": "https://dc.lft.to/lastmile_qr_scan", "android": "https://dc.lft.to/lastmile_qr_scan"}, "fusion_lon": 0.0, "lat": 38.904473333333335, "is_disabled": 0, "bike_id": "5d2f37f0f256a087db4c05d0dabb88f9", "fusion_lat": 0.0, "is_reserved": 0, "lon": -77.03457666666667}, {"type": "electric_scooter", "name": "ed9b47b60e988c4c13371f2fd77dc6a4", "rental_uris": {"ios": "https://dc.lft.to/lastmile_qr_scan", "android": "https://dc.lft.to/lastmile_qr_scan"}, "fusion_lon": 0.0, "lat": 38.91906933333333, "is_disabled": 0, "bike_id": "ed9b47b60e988c4c13371f2fd77dc6a4", "fusion_lat": 0.0, "is_reserved": 0, "lon": -77.04109016666666}, {"type": "electric_bike", "name": "b5cf11728c6d5745f8731a8415bdc0f1", "rental_uris": {"ios": "https://dc.lft.to/lastmile_qr_scan", "android": "https://dc.lft.to/lastmile_qr_scan"}, "fusion_lon": 0.0, "lat": 39.052533, "is_disabled": 0, "bike_id": "b5cf11728c6d5745f8731a8415bdc0f1", "fusion_lat": 0.0, "is_reserved": 0, "lon": -77.08066}, {"type": "electric_scooter", "name": "f05d65f1b56937b746f4ea0519f9cca3", "rental_uris": {"ios": "https://dc.lft.to/lastmile_qr_scan", "android": "https://dc.lft.to/lastmile_qr_scan"}, "fusion_lon": 0.0, "lat": 38.90489066666667, "is_disabled": 0, "bike_id": "f05d65f1b56937b746f4ea0519f9cca3", "fusion_lat": 0.0, "is_reserved": 0, "lon": -77.02963616666666}, {"type": "electric_scooter", "name": "1b7522ac36204d920a7a9c5fc7a7680c", "rental_uris": {"ios": "https://dc.lft.to/lastmile_qr_scan", "android": "https://dc.lft.to/lastmile_qr_scan"}, "fusion_lon": 0.0, "lat": 38.896211, "is_disabled": 0, "bike_id": "1b7522ac36204d920a7a9c5fc7a7680c", "fusion_lat": 0.0, "is_reserved": 0, "lon": -77.009227}, {"type": "electric_scooter", "name": "62c9a5f1b23f704b1ddac02edeb60c19", "rental_uris": {"ios": "https://dc.lft.to/lastmile_qr_scan", "android": "https://dc.lft.to/lastmile_qr_scan"}, "fusion_lon": 0.0, "lat": 38.939140333333334, "is_disabled": 0, "bike_id": "62c9a5f1b23f704b1ddac02edeb60c19", "fusion_lat": 0.0, "is_reserved": 0, "lon": -77.03621366666667}, {"type": "electric_scooter", "name": "d4cacf41c99a12222b15b61c89f4a2d0", "rental_uris": {"ios": "https://dc.lft.to/lastmile_qr_scan", "android": "https://dc.lft.to/lastmile_qr_scan"}, "fusion_lon": 0.0, "lat": 38.87371866666667, "is_disabled": 0, "bike_id": "d4cacf41c99a12222b15b61c89f4a2d0", "fusion_lat": 0.0, "is_reserved": 0, "lon": -76.9700555}, {"type": "electric_scooter", "name": "3d25afcf2635171a443f7cb129bce987", "rental_uris": {"ios": "https://dc.lft.to/lastmile_qr_scan", "android": "https://dc.lft.to/lastmile_qr_scan"}, "fusion_lon": 0.0, "lat": 38.883191833333335, "is_disabled": 0, "bike_id": "3d25afcf2635171a443f7cb129bce987", "fusion_lat": 0.0, "is_reserved": 0, "lon": -77.01772183333334}, {"type": "electric_scooter", "name": "5a82a0599668e0f3972ea9f965064bdc", "rental_uris": {"ios": "https://dc.lft.to/lastmile_qr_scan", "android": "https://dc.lft.to/lastmile_qr_scan"}, "fusion_lon": 0.0, "lat": 38.898764, "is_disabled": 0, "bike_id": "5a82a0599668e0f3972ea9f965064bdc", "fusion_lat": 0.0, "is_reserved": 0, "lon": -76.93185233333334}, {"type": "electric_scooter", "name": "e2864679cfd4f62333698e6a8e71d871", "rental_uris": {"ios": "https://dc.lft.to/lastmile_qr_scan", "android": "https://dc.lft.to/lastmile_qr_scan"}, "fusion_lon": 0.0, "lat": 38.91187866666667, "is_disabled": 0, "bike_id": "e2864679cfd4f62333698e6a8e71d871", "fusion_lat": 0.0, "is_reserved": 0, "lon": -77.03255916666667}, {"type": "electric_scooter", "name": "af229edeaac6d4992a7dbea8fc5649cc", "rental_uris": {"ios": "https://dc.lft.to/lastmile_qr_scan", "android": "https://dc.lft.to/lastmile_qr_scan"}, "fusion_lon": 0.0, "lat": 38.92482316666667, "is_disabled": 0, "bike_id": "af229edeaac6d4992a7dbea8fc5649cc", "fusion_lat": 0.0, "is_reserved": 0, "lon": -77.027539}, {"type": "electric_bike", "name": "5fd1d910406e287761de72cef9009d14", "rental_uris": {"ios": "https://dc.lft.to/lastmile_qr_scan", "android": "https://dc.lft.to/lastmile_qr_scan"}, "fusion_lon": 0.0, "lat": 38.957632, "is_disabled": 0, "bike_id": "5fd1d910406e287761de72cef9009d14", "fusion_lat": 0.0, "is_reserved": 0, "lon": -76.98092}, {"type": "electric_scooter", "name": "fae66066482a3cdd382d32de55f13d47", "rental_uris": {"ios": "https://dc.lft.to/lastmile_qr_scan", "android": "https://dc.lft.to/lastmile_qr_scan"}, "fusion_lon": 0.0, "lat": 38.892252166666665, "is_disabled": 0, "bike_id": "fae66066482a3cdd382d32de55f13d47", "fusion_lat": 0.0, "is_reserved": 0, "lon": -77.048662}, {"type": "electric_scooter", "name": "7daa85c30168fd984e287bae0fe13e6c", "rental_uris": {"ios": "https://dc.lft.to/lastmile_qr_scan", "android": "https://dc.lft.to/lastmile_qr_scan"}, "fusion_lon": 0.0, "lat": 38.898566, "is_disabled": 0, "bike_id": "7daa85c30168fd984e287bae0fe13e6c", "fusion_lat": 0.0, "is_reserved": 0, "lon": -77.03291933333334}, {"type": "electric_scooter", "name": "9a666e90900547fbd25528bedb3c30fc", "rental_uris": {"ios": "https://dc.lft.to/lastmile_qr_scan", "android": "https://dc.lft.to/lastmile_qr_scan"}, "fusion_lon": 0.0, "lat": 38.93219666666667, "is_disabled": 0, "bike_id": "9a666e90900547fbd25528bedb3c30fc", "fusion_lat": 0.0, "is_reserved": 0, "lon": -76.99536216666667}, {"type": "electric_scooter", "name": "356f34511487d7c7ef337dcfda97ab5b", "rental_uris": {"ios": "https://dc.lft.to/lastmile_qr_scan", "android": "https://dc.lft.to/lastmile_qr_scan"}, "fusion_lon": 0.0, "lat": 38.919405, "is_disabled": 0, "bike_id": "356f34511487d7c7ef337dcfda97ab5b", "fusion_lat": 0.0, "is_reserved": 0, "lon": -77.04499783333333}, {"type": "electric_bike", "name": "185288290dcf610ce5814c049f03d2e0", "rental_uris": {"ios": "https://dc.lft.to/lastmile_qr_scan", "android": "https://dc.lft.to/lastmile_qr_scan"}, "fusion_lon": 0.0, "lat": 38.959656, "is_disabled": 0, "bike_id": "185288290dcf610ce5814c049f03d2e0", "fusion_lat": 0.0, "is_reserved": 0, "lon": -76.9815895}, {"type": "electric_scooter", "name": "44119f9b6b55ca42ceab818f1285facb", "rental_uris": {"ios": "https://dc.lft.to/lastmile_qr_scan", "android": "https://dc.lft.to/lastmile_qr_scan"}, "fusion_lon": 0.0, "lat": 38.920302166666666, "is_disabled": 0, "bike_id": "44119f9b6b55ca42ceab818f1285facb", "fusion_lat": 0.0, "is_reserved": 0, "lon": -77.02184616666666}, {"type": "electric_scooter", "name": "39d204d03005f5c658e9cd5304acf214", "rental_uris": {"ios": "https://dc.lft.to/lastmile_qr_scan", "android": "https://dc.lft.to/lastmile_qr_scan"}, "fusion_lon": 0.0, "lat": 38.91776466666666, "is_disabled": 0, "bike_id": "39d204d03005f5c658e9cd5304acf214", "fusion_lat": 0.0, "is_reserved": 0, "lon": -77.03202933333333}, {"type": "electric_scooter", "name": "5c29c009e38b1bc6859d3274064eed2c", "rental_uris": {"ios": "https://dc.lft.to/lastmile_qr_scan", "android": "https://dc.lft.to/lastmile_qr_scan"}, "fusion_lon": 0.0, "lat": 38.916605, "is_disabled": 0, "bike_id": "5c29c009e38b1bc6859d3274064eed2c", "fusion_lat": 0.0, "is_reserved": 0, "lon": -77.006518}, {"type": "electric_scooter", "name": "9f4a662ac0dcdf1fa91e8ca9ef365275", "rental_uris": {"ios": "https://dc.lft.to/lastmile_qr_scan", "android": "https://dc.lft.to/lastmile_qr_scan"}, "fusion_lon": 0.0, "lat": 38.896718166666666, "is_disabled": 0, "bike_id": "9f4a662ac0dcdf1fa91e8ca9ef365275", "fusion_lat": 0.0, "is_reserved": 0, "lon": -76.9321215}, {"type": "electric_scooter", "name": "613fedeffc7efa674763aeacf12a992f", "rental_uris": {"ios": "https://dc.lft.to/lastmile_qr_scan", "android": "https://dc.lft.to/lastmile_qr_scan"}, "fusion_lon": 0.0, "lat": 38.930214166666666, "is_disabled": 0, "bike_id": "613fedeffc7efa674763aeacf12a992f", "fusion_lat": 0.0, "is_reserved": 0, "lon": -77.03798316666666}, {"type": "electric_scooter", "name": "72d396861b62898a057697b71c879d88", "rental_uris": {"ios": "https://dc.lft.to/lastmile_qr_scan", "android": "https://dc.lft.to/lastmile_qr_scan"}, "fusion_lon": 0.0, "lat": 38.89623266666667, "is_disabled": 0, "bike_id": "72d396861b62898a057697b71c879d88", "fusion_lat": 0.0, "is_reserved": 0, "lon": -77.04081933333333}, {"type": "electric_scooter", "name": "6eb46d80ab535f4767e8797d354a25f3", "rental_uris": {"ios": "https://dc.lft.to/lastmile_qr_scan", "android": "https://dc.lft.to/lastmile_qr_scan"}, "fusion_lon": 0.0, "lat": 38.9172015, "is_disabled": 0, "bike_id": "6eb46d80ab535f4767e8797d354a25f3", "fusion_lat": 0.0, "is_reserved": 0, "lon": -77.02581866666667}, {"type": "electric_scooter", "name": "07e27a4c4da53d129baf4657ee9e8821", "rental_uris": {"ios": "https://dc.lft.to/lastmile_qr_scan", "android": "https://dc.lft.to/lastmile_qr_scan"}, "fusion_lon": 0.0, "lat": 38.91636616666667, "is_disabled": 0, "bike_id": "07e27a4c4da53d129baf4657ee9e8821", "fusion_lat": 0.0, "is_reserved": 0, "lon": -77.04123316666667}, {"type": "electric_scooter", "name": "6b859b4a4e67cce10d65985b5997e616", "rental_uris": {"ios": "https://dc.lft.to/lastmile_qr_scan", "android": "https://dc.lft.to/lastmile_qr_scan"}, "fusion_lon": 0.0, "lat": 38.8832075, "is_disabled": 0, "bike_id": "6b859b4a4e67cce10d65985b5997e616", "fusion_lat": 0.0, "is_reserved": 0, "lon": -77.01379316666667}, {"type": "electric_scooter", "name": "f9e7abd2142e5b73f877ee61c2879f8f", "rental_uris": {"ios": "https://dc.lft.to/lastmile_qr_scan", "android": "https://dc.lft.to/lastmile_qr_scan"}, "fusion_lon": 0.0, "lat": 38.93058966666667, "is_disabled": 0, "bike_id": "f9e7abd2142e5b73f877ee61c2879f8f", "fusion_lat": 0.0, "is_reserved": 0, "lon": -77.018641}, {"type": "electric_scooter", "name": "b5b2e6810c23d42e8d08059194b4b668", "rental_uris": {"ios": "https://dc.lft.to/lastmile_qr_scan", "android": "https://dc.lft.to/lastmile_qr_scan"}, "fusion_lon": 0.0, "lat": 38.901430166666664, "is_disabled": 0, "bike_id": "b5b2e6810c23d42e8d08059194b4b668", "fusion_lat": 0.0, "is_reserved": 0, "lon": -77.06074833333334}, {"type": "electric_scooter", "name": "2dfe0aa444c26d4d56d02ab344a9f72f", "rental_uris": {"ios": "https://dc.lft.to/lastmile_qr_scan", "android": "https://dc.lft.to/lastmile_qr_scan"}, "fusion_lon": 0.0, "lat": 38.898879666666666, "is_disabled": 0, "bike_id": "2dfe0aa444c26d4d56d02ab344a9f72f", "fusion_lat": 0.0, "is_reserved": 0, "lon": -77.007385}, {"type": "electric_scooter", "name": "c260dc0c31c23a0fde4f8c15c4ce7291", "rental_uris": {"ios": "https://dc.lft.to/lastmile_qr_scan", "android": "https://dc.lft.to/lastmile_qr_scan"}, "fusion_lon": 0.0, "lat": 38.90350433333333, "is_disabled": 0, "bike_id": "c260dc0c31c23a0fde4f8c15c4ce7291", "fusion_lat": 0.0, "is_reserved": 0, "lon": -76.97479166666666}, {"type": "electric_scooter", "name": "671366016f878217e3861562ae482e2b", "rental_uris": {"ios": "https://dc.lft.to/lastmile_qr_scan", "android": "https://dc.lft.to/lastmile_qr_scan"}, "fusion_lon": 0.0, "lat": 38.9367565, "is_disabled": 0, "bike_id": "671366016f878217e3861562ae482e2b", "fusion_lat": 0.0, "is_reserved": 0, "lon": -77.03591683333333}, {"type": "electric_scooter", "name": "3fd7d2314191c96d60b7d1fd59a4e744", "rental_uris": {"ios": "https://dc.lft.to/lastmile_qr_scan", "android": "https://dc.lft.to/lastmile_qr_scan"}, "fusion_lon": 0.0, "lat": 38.892320833333336, "is_disabled": 0, "bike_id": "3fd7d2314191c96d60b7d1fd59a4e744", "fusion_lat": 0.0, "is_reserved": 0, "lon": -77.0416455}, {"type": "electric_scooter", "name": "1116ba694db382df757fe2e51bb77730", "rental_uris": {"ios": "https://dc.lft.to/lastmile_qr_scan", "android": "https://dc.lft.to/lastmile_qr_scan"}, "fusion_lon": 0.0, "lat": 38.87658533333333, "is_disabled": 0, "bike_id": "1116ba694db382df757fe2e51bb77730", "fusion_lat": 0.0, "is_reserved": 0, "lon": -77.0171985}, {"type": "electric_scooter", "name": "637f60a6347a65a7468e6df32cb9697e", "rental_uris": {"ios": "https://dc.lft.to/lastmile_qr_scan", "android": "https://dc.lft.to/lastmile_qr_scan"}, "fusion_lon": 0.0, "lat": 38.89142483333333, "is_disabled": 0, "bike_id": "637f60a6347a65a7468e6df32cb9697e", "fusion_lat": 0.0, "is_reserved": 0, "lon": -76.99258716666667}, {"type": "electric_scooter", "name": "e5b95df69153f19e49b83a0d5e7d4068", "rental_uris": {"ios": "https://dc.lft.to/lastmile_qr_scan", "android": "https://dc.lft.to/lastmile_qr_scan"}, "fusion_lon": 0.0, "lat": 38.8830225, "is_disabled": 0, "bike_id": "e5b95df69153f19e49b83a0d5e7d4068", "fusion_lat": 0.0, "is_reserved": 0, "lon": -76.94856916666667}, {"type": "electric_scooter", "name": "42e83cd8664e9be2dcf96b3091dd7ba4", "rental_uris": {"ios": "https://dc.lft.to/lastmile_qr_scan", "android": "https://dc.lft.to/lastmile_qr_scan"}, "fusion_lon": 0.0, "lat": 38.917863833333335, "is_disabled": 0, "bike_id": "42e83cd8664e9be2dcf96b3091dd7ba4", "fusion_lat": 0.0, "is_reserved": 0, "lon": -77.02282416666667}, {"type": "electric_scooter", "name": "84380954df888298f4bfdee00c4d5e51", "rental_uris": {"ios": "https://dc.lft.to/lastmile_qr_scan", "android": "https://dc.lft.to/lastmile_qr_scan"}, "fusion_lon": 0.0, "lat": 38.919356666666665, "is_disabled": 0, "bike_id": "84380954df888298f4bfdee00c4d5e51", "fusion_lat": 0.0, "is_reserved": 0, "lon": -77.01364533333333}, {"type": "electric_scooter", "name": "00e2cf83b9ba56da7cfbde19c569247a", "rental_uris": {"ios": "https://dc.lft.to/lastmile_qr_scan", "android": "https://dc.lft.to/lastmile_qr_scan"}, "fusion_lon": 0.0, "lat": 38.914719833333336, "is_disabled": 0, "bike_id": "00e2cf83b9ba56da7cfbde19c569247a", "fusion_lat": 0.0, "is_reserved": 0, "lon": -77.03885516666666}, {"type": "electric_scooter", "name": "9ca258925e1ba4b9ef992663c3963e98", "rental_uris": {"ios": "https://dc.lft.to/lastmile_qr_scan", "android": "https://dc.lft.to/lastmile_qr_scan"}, "fusion_lon": 0.0, "lat": 38.900739333333334, "is_disabled": 0, "bike_id": "9ca258925e1ba4b9ef992663c3963e98", "fusion_lat": 0.0, "is_reserved": 0, "lon": -77.031466}, {"type": "electric_scooter", "name": "8c79c154344824ea12805dc75c184f5a", "rental_uris": {"ios": "https://dc.lft.to/lastmile_qr_scan", "android": "https://dc.lft.to/lastmile_qr_scan"}, "fusion_lon": 0.0, "lat": 38.945359, "is_disabled": 0, "bike_id": "8c79c154344824ea12805dc75c184f5a", "fusion_lat": 0.0, "is_reserved": 0, "lon": -77.0253375}, {"type": "electric_scooter", "name": "7e334f30ec985286486bf39413fa9805", "rental_uris": {"ios": "https://dc.lft.to/lastmile_qr_scan", "android": "https://dc.lft.to/lastmile_qr_scan"}, "fusion_lon": 0.0, "lat": 38.8641905, "is_disabled": 0, "bike_id": "7e334f30ec985286486bf39413fa9805", "fusion_lat": 0.0, "is_reserved": 0, "lon": -76.99004633333334}, {"type": "electric_scooter", "name": "cea9194f3a60d9c66c0263c804ceb872", "rental_uris": {"ios": "https://dc.lft.to/lastmile_qr_scan", "android": "https://dc.lft.to/lastmile_qr_scan"}, "fusion_lon": 0.0, "lat": 38.89043066666667, "is_disabled": 0, "bike_id": "cea9194f3a60d9c66c0263c804ceb872", "fusion_lat": 0.0, "is_reserved": 0, "lon": -76.9524705}, {"type": "electric_scooter", "name": "f1fb94f78ebe120b183bd0c4e812f9d1", "rental_uris": {"ios": "https://dc.lft.to/lastmile_qr_scan", "android": "https://dc.lft.to/lastmile_qr_scan"}, "fusion_lon": 0.0, "lat": 38.91108416666667, "is_disabled": 0, "bike_id": "f1fb94f78ebe120b183bd0c4e812f9d1", "fusion_lat": 0.0, "is_reserved": 0, "lon": -77.02419133333333}, {"type": "electric_scooter", "name": "dbc2088596b590d04165490c5152f9cb", "rental_uris": {"ios": "https://dc.lft.to/lastmile_qr_scan", "android": "https://dc.lft.to/lastmile_qr_scan"}, "fusion_lon": 0.0, "lat": 38.924191666666665, "is_disabled": 0, "bike_id": "dbc2088596b590d04165490c5152f9cb", "fusion_lat": 0.0, "is_reserved": 0, "lon": -77.02029366666666}, {"type": "electric_scooter", "name": "1a8365e4732f3caa4fa6bc62a5654f07", "rental_uris": {"ios": "https://dc.lft.to/lastmile_qr_scan", "android": "https://dc.lft.to/lastmile_qr_scan"}, "fusion_lon": 0.0, "lat": 38.88897733333334, "is_disabled": 0, "bike_id": "1a8365e4732f3caa4fa6bc62a5654f07", "fusion_lat": 0.0, "is_reserved": 0, "lon": -76.93687533333333}, {"type": "electric_bike", "name": "563964bd5823514ec982a9f5d3635f04", "rental_uris": {"ios": "https://dc.lft.to/lastmile_qr_scan", "android": "https://dc.lft.to/lastmile_qr_scan"}, "fusion_lon": 0.0, "lat": 38.883582, "is_disabled": 0, "bike_id": "563964bd5823514ec982a9f5d3635f04", "fusion_lat": 0.0, "is_reserved": 0, "lon": -76.9821285}, {"type": "electric_scooter", "name": "0764d34ce3c6b73b85af2d82d5e04be7", "rental_uris": {"ios": "https://dc.lft.to/lastmile_qr_scan", "android": "https://dc.lft.to/lastmile_qr_scan"}, "fusion_lon": 0.0, "lat": 38.89740366666667, "is_disabled": 0, "bike_id": "0764d34ce3c6b73b85af2d82d5e04be7", "fusion_lat": 0.0, "is_reserved": 0, "lon": -77.00921166666667}, {"type": "electric_scooter", "name": "d762098332df978f30005e261989b19f", "rental_uris": {"ios": "https://dc.lft.to/lastmile_qr_scan", "android": "https://dc.lft.to/lastmile_qr_scan"}, "fusion_lon": 0.0, "lat": 38.909408166666665, "is_disabled": 0, "bike_id": "d762098332df978f30005e261989b19f", "fusion_lat": 0.0, "is_reserved": 0, "lon": -77.028141}, {"type": "electric_scooter", "name": "2615e35f65096f25572b1997345786b8", "rental_uris": {"ios": "https://dc.lft.to/lastmile_qr_scan", "android": "https://dc.lft.to/lastmile_qr_scan"}, "fusion_lon": 0.0, "lat": 38.92503333333333, "is_disabled": 0, "bike_id": "2615e35f65096f25572b1997345786b8", "fusion_lat": 0.0, "is_reserved": 0, "lon": -77.00238483333334}, {"type": "electric_scooter", "name": "8de4cc27006577b8abf93dccc2861918", "rental_uris": {"ios": "https://dc.lft.to/lastmile_qr_scan", "android": "https://dc.lft.to/lastmile_qr_scan"}, "fusion_lon": 0.0, "lat": 38.897048833333336, "is_disabled": 0, "bike_id": "8de4cc27006577b8abf93dccc2861918", "fusion_lat": 0.0, "is_reserved": 0, "lon": -77.04324716666666}, {"type": "electric_scooter", "name": "ca6e025d727cf77c6a0af7ae9e70b75c", "rental_uris": {"ios": "https://dc.lft.to/lastmile_qr_scan", "android": "https://dc.lft.to/lastmile_qr_scan"}, "fusion_lon": 0.0, "lat": 38.931076166666664, "is_disabled": 0, "bike_id": "ca6e025d727cf77c6a0af7ae9e70b75c", "fusion_lat": 0.0, "is_reserved": 0, "lon": -77.021251}, {"type": "electric_scooter", "name": "25e028f5b226a9f5f7864ad6f940503d", "rental_uris": {"ios": "https://dc.lft.to/lastmile_qr_scan", "android": "https://dc.lft.to/lastmile_qr_scan"}, "fusion_lon": 0.0, "lat": 38.91983316666666, "is_disabled": 0, "bike_id": "25e028f5b226a9f5f7864ad6f940503d", "fusion_lat": 0.0, "is_reserved": 0, "lon": -76.97307616666667}, {"type": "electric_scooter", "name": "f33cd75d9140f979b5e37675e176cf7f", "rental_uris": {"ios": "https://dc.lft.to/lastmile_qr_scan", "android": "https://dc.lft.to/lastmile_qr_scan"}, "fusion_lon": 0.0, "lat": 38.90749066666667, "is_disabled": 0, "bike_id": "f33cd75d9140f979b5e37675e176cf7f", "fusion_lat": 0.0, "is_reserved": 0, "lon": -76.99884133333333}, {"type": "electric_scooter", "name": "00864d11222a403aa7e0f2e9e6e2e65c", "rental_uris": {"ios": "https://dc.lft.to/lastmile_qr_scan", "android": "https://dc.lft.to/lastmile_qr_scan"}, "fusion_lon": 0.0, "lat": 38.90112833333333, "is_disabled": 0, "bike_id": "00864d11222a403aa7e0f2e9e6e2e65c", "fusion_lat": 0.0, "is_reserved": 0, "lon": -77.04479933333333}, {"type": "electric_scooter", "name": "b6923833a4783359403e54e42c68f35c", "rental_uris": {"ios": "https://dc.lft.to/lastmile_qr_scan", "android": "https://dc.lft.to/lastmile_qr_scan"}, "fusion_lon": 0.0, "lat": 38.9367435, "is_disabled": 0, "bike_id": "b6923833a4783359403e54e42c68f35c", "fusion_lat": 0.0, "is_reserved": 0, "lon": -77.03591533333334}, {"type": "electric_scooter", "name": "7c3825db0dea200e1651bbb05565d46e", "rental_uris": {"ios": "https://dc.lft.to/lastmile_qr_scan", "android": "https://dc.lft.to/lastmile_qr_scan"}, "fusion_lon": 0.0, "lat": 38.916412, "is_disabled": 0, "bike_id": "7c3825db0dea200e1651bbb05565d46e", "fusion_lat": 0.0, "is_reserved": 0, "lon": -77.04779183333333}, {"type": "electric_scooter", "name": "12a44da4f3681008d3d245214fc32eff", "rental_uris": {"ios": "https://dc.lft.to/lastmile_qr_scan", "android": "https://dc.lft.to/lastmile_qr_scan"}, "fusion_lon": 0.0, "lat": 38.920447, "is_disabled": 0, "bike_id": "12a44da4f3681008d3d245214fc32eff", "fusion_lat": 0.0, "is_reserved": 0, "lon": -77.02573783333334}, {"type": "electric_bike", "name": "4f439c0076fe2196b6a0399e38c84873", "rental_uris": {"ios": "https://dc.lft.to/lastmile_qr_scan", "android": "https://dc.lft.to/lastmile_qr_scan"}, "fusion_lon": 0.0, "lat": 38.84085966666667, "is_disabled": 0, "bike_id": "4f439c0076fe2196b6a0399e38c84873", "fusion_lat": 0.0, "is_reserved": 0, "lon": -76.97030233333334}, {"type": "electric_scooter", "name": "aa1472eb2aacb534714d40beadf8170a", "rental_uris": {"ios": "https://dc.lft.to/lastmile_qr_scan", "android": "https://dc.lft.to/lastmile_qr_scan"}, "fusion_lon": 0.0, "lat": 38.917102666666665, "is_disabled": 0, "bike_id": "aa1472eb2aacb534714d40beadf8170a", "fusion_lat": 0.0, "is_reserved": 0, "lon": -77.0386715}, {"type": "electric_scooter", "name": "c2d3f5d2ea53c903309dd4611ca7995b", "rental_uris": {"ios": "https://dc.lft.to/lastmile_qr_scan", "android": "https://dc.lft.to/lastmile_qr_scan"}, "fusion_lon": 0.0, "lat": 38.855471333333334, "is_disabled": 0, "bike_id": "c2d3f5d2ea53c903309dd4611ca7995b", "fusion_lat": 0.0, "is_reserved": 0, "lon": -76.9876025}, {"type": "electric_scooter", "name": "69c8c557cac88f9597a6cbe17a1f427e", "rental_uris": {"ios": "https://dc.lft.to/lastmile_qr_scan", "android": "https://dc.lft.to/lastmile_qr_scan"}, "fusion_lon": 0.0, "lat": 38.9230025, "is_disabled": 0, "bike_id": "69c8c557cac88f9597a6cbe17a1f427e", "fusion_lat": 0.0, "is_reserved": 0, "lon": -77.04273716666667}, {"type": "electric_scooter", "name": "c96df92757c35a41f32ccc3c2bfc106e", "rental_uris": {"ios": "https://dc.lft.to/lastmile_qr_scan", "android": "https://dc.lft.to/lastmile_qr_scan"}, "fusion_lon": 0.0, "lat": 38.921551666666666, "is_disabled": 0, "bike_id": "c96df92757c35a41f32ccc3c2bfc106e", "fusion_lat": 0.0, "is_reserved": 0, "lon": -77.03500916666667}, {"type": "electric_scooter", "name": "2ae8d157dc4b1ce9592cc2ebab5fd04b", "rental_uris": {"ios": "https://dc.lft.to/lastmile_qr_scan", "android": "https://dc.lft.to/lastmile_qr_scan"}, "fusion_lon": 0.0, "lat": 38.90624066666667, "is_disabled": 0, "bike_id": "2ae8d157dc4b1ce9592cc2ebab5fd04b", "fusion_lat": 0.0, "is_reserved": 0, "lon": -77.03576266666667}, {"type": "electric_scooter", "name": "7bbfd0a6af36e94a309fa64d77ed1228", "rental_uris": {"ios": "https://dc.lft.to/lastmile_qr_scan", "android": "https://dc.lft.to/lastmile_qr_scan"}, "fusion_lon": 0.0, "lat": 38.94462733333334, "is_disabled": 0, "bike_id": "7bbfd0a6af36e94a309fa64d77ed1228", "fusion_lat": 0.0, "is_reserved": 0, "lon": -77.0065885}, {"type": "electric_scooter", "name": "8cc7b1ccec7fdf8c77551e2e5dd4f9fb", "rental_uris": {"ios": "https://dc.lft.to/lastmile_qr_scan", "android": "https://dc.lft.to/lastmile_qr_scan"}, "fusion_lon": 0.0, "lat": 38.88518883333333, "is_disabled": 0, "bike_id": "8cc7b1ccec7fdf8c77551e2e5dd4f9fb", "fusion_lat": 0.0, "is_reserved": 0, "lon": -77.01518583333333}, {"type": "electric_scooter", "name": "0d0c2c8951986df2e7f00a726cfb3a1f", "rental_uris": {"ios": "https://dc.lft.to/lastmile_qr_scan", "android": "https://dc.lft.to/lastmile_qr_scan"}, "fusion_lon": 0.0, "lat": 38.93630783333333, "is_disabled": 0, "bike_id": "0d0c2c8951986df2e7f00a726cfb3a1f", "fusion_lat": 0.0, "is_reserved": 0, "lon": -77.0366275}, {"type": "electric_scooter", "name": "8c8f7529be3eb5fbf0707fab9f059133", "rental_uris": {"ios": "https://dc.lft.to/lastmile_qr_scan", "android": "https://dc.lft.to/lastmile_qr_scan"}, "fusion_lon": 0.0, "lat": 38.91695166666667, "is_disabled": 0, "bike_id": "8c8f7529be3eb5fbf0707fab9f059133", "fusion_lat": 0.0, "is_reserved": 0, "lon": -77.03067766666666}, {"type": "electric_scooter", "name": "4a2ef4847492878efdc585596310791f", "rental_uris": {"ios": "https://dc.lft.to/lastmile_qr_scan", "android": "https://dc.lft.to/lastmile_qr_scan"}, "fusion_lon": 0.0, "lat": 38.9278015, "is_disabled": 0, "bike_id": "4a2ef4847492878efdc585596310791f", "fusion_lat": 0.0, "is_reserved": 0, "lon": -77.02678883333333}, {"type": "electric_scooter", "name": "e3b115189963f77c7d1cd4bf3e14ad4c", "rental_uris": {"ios": "https://dc.lft.to/lastmile_qr_scan", "android": "https://dc.lft.to/lastmile_qr_scan"}, "fusion_lon": 0.0, "lat": 38.90133216666667, "is_disabled": 0, "bike_id": "e3b115189963f77c7d1cd4bf3e14ad4c", "fusion_lat": 0.0, "is_reserved": 0, "lon": -77.03574516666667}, {"type": "electric_scooter", "name": "761def754a11a4aebfbe09ba7b1e337e", "rental_uris": {"ios": "https://dc.lft.to/lastmile_qr_scan", "android": "https://dc.lft.to/lastmile_qr_scan"}, "fusion_lon": 0.0, "lat": 38.921644666666666, "is_disabled": 0, "bike_id": "761def754a11a4aebfbe09ba7b1e337e", "fusion_lat": 0.0, "is_reserved": 0, "lon": -77.03380583333333}, {"type": "electric_scooter", "name": "2d4bf9b67ea2cdebc88ce197e3cd3711", "rental_uris": {"ios": "https://dc.lft.to/lastmile_qr_scan", "android": "https://dc.lft.to/lastmile_qr_scan"}, "fusion_lon": 0.0, "lat": 38.908683333333336, "is_disabled": 0, "bike_id": "2d4bf9b67ea2cdebc88ce197e3cd3711", "fusion_lat": 0.0, "is_reserved": 0, "lon": -76.933386}, {"type": "electric_scooter", "name": "70c88f84f52e9833bd17e9302cf61839", "rental_uris": {"ios": "https://dc.lft.to/lastmile_qr_scan", "android": "https://dc.lft.to/lastmile_qr_scan"}, "fusion_lon": 0.0, "lat": 38.911673666666665, "is_disabled": 0, "bike_id": "70c88f84f52e9833bd17e9302cf61839", "fusion_lat": 0.0, "is_reserved": 0, "lon": -77.06090183333333}, {"type": "electric_scooter", "name": "c15abae15506237a8845810cdc82f280", "rental_uris": {"ios": "https://dc.lft.to/lastmile_qr_scan", "android": "https://dc.lft.to/lastmile_qr_scan"}, "fusion_lon": 0.0, "lat": 38.907727333333334, "is_disabled": 0, "bike_id": "c15abae15506237a8845810cdc82f280", "fusion_lat": 0.0, "is_reserved": 0, "lon": -76.99435383333334}, {"type": "electric_scooter", "name": "037ca96600142788b1bd5539eb850ffa", "rental_uris": {"ios": "https://dc.lft.to/lastmile_qr_scan", "android": "https://dc.lft.to/lastmile_qr_scan"}, "fusion_lon": 0.0, "lat": 38.923065666666666, "is_disabled": 0, "bike_id": "037ca96600142788b1bd5539eb850ffa", "fusion_lat": 0.0, "is_reserved": 0, "lon": -77.02447416666666}, {"type": "electric_scooter", "name": "3c69a614cf3b97de4b5ff61bd06c6cf7", "rental_uris": {"ios": "https://dc.lft.to/lastmile_qr_scan", "android": "https://dc.lft.to/lastmile_qr_scan"}, "fusion_lon": 0.0, "lat": 38.899739, "is_disabled": 0, "bike_id": "3c69a614cf3b97de4b5ff61bd06c6cf7", "fusion_lat": 0.0, "is_reserved": 0, "lon": -76.99485116666666}, {"type": "electric_bike", "name": "f13f81dc22f66ad3be1f93fc575b2af3", "rental_uris": {"ios": "https://dc.lft.to/lastmile_qr_scan", "android": "https://dc.lft.to/lastmile_qr_scan"}, "fusion_lon": 0.0, "lat": 38.9097065, "is_disabled": 0, "bike_id": "f13f81dc22f66ad3be1f93fc575b2af3", "fusion_lat": 0.0, "is_reserved": 0, "lon": -77.08817366666666}, {"type": "electric_scooter", "name": "7ea551ceb72d7d847acdfb703287b8cc", "rental_uris": {"ios": "https://dc.lft.to/lastmile_qr_scan", "android": "https://dc.lft.to/lastmile_qr_scan"}, "fusion_lon": 0.0, "lat": 38.866821, "is_disabled": 0, "bike_id": "7ea551ceb72d7d847acdfb703287b8cc", "fusion_lat": 0.0, "is_reserved": 0, "lon": -76.98563266666666}, {"type": "electric_scooter", "name": "547017e021c2cb1627386213ec4711dc", "rental_uris": {"ios": "https://dc.lft.to/lastmile_qr_scan", "android": "https://dc.lft.to/lastmile_qr_scan"}, "fusion_lon": 0.0, "lat": 38.92062683333333, "is_disabled": 0, "bike_id": "547017e021c2cb1627386213ec4711dc", "fusion_lat": 0.0, "is_reserved": 0, "lon": -76.98192833333333}, {"type": "electric_scooter", "name": "ec2607bc327d858bf5e3ec7785d5ee0a", "rental_uris": {"ios": "https://dc.lft.to/lastmile_qr_scan", "android": "https://dc.lft.to/lastmile_qr_scan"}, "fusion_lon": 0.0, "lat": 38.908568333333335, "is_disabled": 0, "bike_id": "ec2607bc327d858bf5e3ec7785d5ee0a", "fusion_lat": 0.0, "is_reserved": 0, "lon": -76.99797016666666}, {"type": "electric_scooter", "name": "eefbd40bfec72e558d161ea86f2de485", "rental_uris": {"ios": "https://dc.lft.to/lastmile_qr_scan", "android": "https://dc.lft.to/lastmile_qr_scan"}, "fusion_lon": 0.0, "lat": 38.901443, "is_disabled": 0, "bike_id": "eefbd40bfec72e558d161ea86f2de485", "fusion_lat": 0.0, "is_reserved": 0, "lon": -77.01784883333333}, {"type": "electric_scooter", "name": "74be459f3efae7e5f6679c28efed26a1", "rental_uris": {"ios": "https://dc.lft.to/lastmile_qr_scan", "android": "https://dc.lft.to/lastmile_qr_scan"}, "fusion_lon": 0.0, "lat": 38.8771975, "is_disabled": 0, "bike_id": "74be459f3efae7e5f6679c28efed26a1", "fusion_lat": 0.0, "is_reserved": 0, "lon": -77.00406216666667}, {"type": "electric_scooter", "name": "c284a68d0431dccf142f80709232414c", "rental_uris": {"ios": "https://dc.lft.to/lastmile_qr_scan", "android": "https://dc.lft.to/lastmile_qr_scan"}, "fusion_lon": 0.0, "lat": 38.89321566666667, "is_disabled": 0, "bike_id": "c284a68d0431dccf142f80709232414c", "fusion_lat": 0.0, "is_reserved": 0, "lon": -77.022279}, {"type": "electric_scooter", "name": "98ed2d4fd9b82c92d18062bc9c066df7", "rental_uris": {"ios": "https://dc.lft.to/lastmile_qr_scan", "android": "https://dc.lft.to/lastmile_qr_scan"}, "fusion_lon": 0.0, "lat": 38.9342495, "is_disabled": 0, "bike_id": "98ed2d4fd9b82c92d18062bc9c066df7", "fusion_lat": 0.0, "is_reserved": 0, "lon": -77.024448}, {"type": "electric_scooter", "name": "a2f4b8879336d4c29433d91309bb1475", "rental_uris": {"ios": "https://dc.lft.to/lastmile_qr_scan", "android": "https://dc.lft.to/lastmile_qr_scan"}, "fusion_lon": 0.0, "lat": 38.923634166666666, "is_disabled": 0, "bike_id": "a2f4b8879336d4c29433d91309bb1475", "fusion_lat": 0.0, "is_reserved": 0, "lon": -77.0503145}, {"type": "electric_bike", "name": "0aa35dfc0e58d269d9d73eaf313362e7", "rental_uris": {"ios": "https://dc.lft.to/lastmile_qr_scan", "android": "https://dc.lft.to/lastmile_qr_scan"}, "fusion_lon": 0.0, "lat": 38.961969833333335, "is_disabled": 0, "bike_id": "0aa35dfc0e58d269d9d73eaf313362e7", "fusion_lat": 0.0, "is_reserved": 0, "lon": -77.00085783333333}, {"type": "electric_scooter", "name": "86d8b6766ad7e4d99e77e203b1f2734a", "rental_uris": {"ios": "https://dc.lft.to/lastmile_qr_scan", "android": "https://dc.lft.to/lastmile_qr_scan"}, "fusion_lon": 0.0, "lat": 38.92469116666667, "is_disabled": 0, "bike_id": "86d8b6766ad7e4d99e77e203b1f2734a", "fusion_lat": 0.0, "is_reserved": 0, "lon": -76.99028966666667}, {"type": "electric_bike", "name": "2375274f8109fdcbbbd530bfe3c48dc4", "rental_uris": {"ios": "https://dc.lft.to/lastmile_qr_scan", "android": "https://dc.lft.to/lastmile_qr_scan"}, "fusion_lon": 0.0, "lat": 38.99096816666667, "is_disabled": 0, "bike_id": "2375274f8109fdcbbbd530bfe3c48dc4", "fusion_lat": 0.0, "is_reserved": 0, "lon": -76.993769}, {"type": "electric_bike", "name": "d18ff16e9d908b0004f18993d0a58411", "rental_uris": {"ios": "https://dc.lft.to/lastmile_qr_scan", "android": "https://dc.lft.to/lastmile_qr_scan"}, "fusion_lon": 0.0, "lat": 38.89900816666667, "is_disabled": 0, "bike_id": "d18ff16e9d908b0004f18993d0a58411", "fusion_lat": 0.0, "is_reserved": 0, "lon": -77.09620516666666}, {"type": "electric_bike", "name": "ceb993d71ff110f12d8b14efecba261d", "rental_uris": {"ios": "https://dc.lft.to/lastmile_qr_scan", "android": "https://dc.lft.to/lastmile_qr_scan"}, "fusion_lon": 0.0, "lat": 38.961262, "is_disabled": 0, "bike_id": "ceb993d71ff110f12d8b14efecba261d", "fusion_lat": 0.0, "is_reserved": 0, "lon": -77.03277466666667}, {"type": "electric_scooter", "name": "781444f800a58f24711d9a38f415511c", "rental_uris": {"ios": "https://dc.lft.to/lastmile_qr_scan", "android": "https://dc.lft.to/lastmile_qr_scan"}, "fusion_lon": 0.0, "lat": 38.921185, "is_disabled": 0, "bike_id": "781444f800a58f24711d9a38f415511c", "fusion_lat": 0.0, "is_reserved": 0, "lon": -77.04389283333333}, {"type": "electric_scooter", "name": "c69dffeece6a3a80c9d3eaa4c7bf60ef", "rental_uris": {"ios": "https://dc.lft.to/lastmile_qr_scan", "android": "https://dc.lft.to/lastmile_qr_scan"}, "fusion_lon": 0.0, "lat": 38.884807, "is_disabled": 0, "bike_id": "c69dffeece6a3a80c9d3eaa4c7bf60ef", "fusion_lat": 0.0, "is_reserved": 0, "lon": -76.94987216666667}, {"type": "electric_scooter", "name": "e9d277399418bd1bf1672c28b83c3210", "rental_uris": {"ios": "https://dc.lft.to/lastmile_qr_scan", "android": "https://dc.lft.to/lastmile_qr_scan"}, "fusion_lon": 0.0, "lat": 38.896619666666666, "is_disabled": 0, "bike_id": "e9d277399418bd1bf1672c28b83c3210", "fusion_lat": 0.0, "is_reserved": 0, "lon": -77.04646216666667}, {"type": "electric_scooter", "name": "e3a23e821fe14ad1b2c9f4dd584bb3d0", "rental_uris": {"ios": "https://dc.lft.to/lastmile_qr_scan", "android": "https://dc.lft.to/lastmile_qr_scan"}, "fusion_lon": 0.0, "lat": 38.8832545, "is_disabled": 0, "bike_id": "e3a23e821fe14ad1b2c9f4dd584bb3d0", "fusion_lat": 0.0, "is_reserved": 0, "lon": -77.017709}, {"type": "electric_scooter", "name": "5232e1d7277d4d77195f4a794fde7d5b", "rental_uris": {"ios": "https://dc.lft.to/lastmile_qr_scan", "android": "https://dc.lft.to/lastmile_qr_scan"}, "fusion_lon": 0.0, "lat": 38.93675983333333, "is_disabled": 0, "bike_id": "5232e1d7277d4d77195f4a794fde7d5b", "fusion_lat": 0.0, "is_reserved": 0, "lon": -77.03593866666667}, {"type": "electric_scooter", "name": "c84aadbd846e7975293e28d459eadb92", "rental_uris": {"ios": "https://dc.lft.to/lastmile_qr_scan", "android": "https://dc.lft.to/lastmile_qr_scan"}, "fusion_lon": 0.0, "lat": 38.9233735, "is_disabled": 0, "bike_id": "c84aadbd846e7975293e28d459eadb92", "fusion_lat": 0.0, "is_reserved": 0, "lon": -77.00044683333333}, {"type": "electric_scooter", "name": "7931638580f4fa32eeae1b8f68652cbd", "rental_uris": {"ios": "https://dc.lft.to/lastmile_qr_scan", "android": "https://dc.lft.to/lastmile_qr_scan"}, "fusion_lon": 0.0, "lat": 38.902317833333335, "is_disabled": 0, "bike_id": "7931638580f4fa32eeae1b8f68652cbd", "fusion_lat": 0.0, "is_reserved": 0, "lon": -77.0460695}, {"type": "electric_scooter", "name": "1ae9390c3fa75c7d889315dd2f08d404", "rental_uris": {"ios": "https://dc.lft.to/lastmile_qr_scan", "android": "https://dc.lft.to/lastmile_qr_scan"}, "fusion_lon": 0.0, "lat": 38.920425, "is_disabled": 0, "bike_id": "1ae9390c3fa75c7d889315dd2f08d404", "fusion_lat": 0.0, "is_reserved": 0, "lon": -77.01680366666666}, {"type": "electric_scooter", "name": "b29c4ea7d3f2d018719e92393e206245", "rental_uris": {"ios": "https://dc.lft.to/lastmile_qr_scan", "android": "https://dc.lft.to/lastmile_qr_scan"}, "fusion_lon": 0.0, "lat": 38.916320166666665, "is_disabled": 0, "bike_id": "b29c4ea7d3f2d018719e92393e206245", "fusion_lat": 0.0, "is_reserved": 0, "lon": -77.04787633333333}, {"type": "electric_scooter", "name": "6e3b0830ca7e7c2151fc3110ffd8fb29", "rental_uris": {"ios": "https://dc.lft.to/lastmile_qr_scan", "android": "https://dc.lft.to/lastmile_qr_scan"}, "fusion_lon": 0.0, "lat": 38.9229645, "is_disabled": 0, "bike_id": "6e3b0830ca7e7c2151fc3110ffd8fb29", "fusion_lat": 0.0, "is_reserved": 0, "lon": -77.02716666666667}, {"type": "electric_scooter", "name": "c47eb9010fdf7d3556c1b0b0d43d3d4a", "rental_uris": {"ios": "https://dc.lft.to/lastmile_qr_scan", "android": "https://dc.lft.to/lastmile_qr_scan"}, "fusion_lon": 0.0, "lat": 38.898416, "is_disabled": 0, "bike_id": "c47eb9010fdf7d3556c1b0b0d43d3d4a", "fusion_lat": 0.0, "is_reserved": 0, "lon": -77.0316945}, {"type": "electric_scooter", "name": "e54684a8084f1768bebb44349bb0adc7", "rental_uris": {"ios": "https://dc.lft.to/lastmile_qr_scan", "android": "https://dc.lft.to/lastmile_qr_scan"}, "fusion_lon": 0.0, "lat": 38.92394766666666, "is_disabled": 0, "bike_id": "e54684a8084f1768bebb44349bb0adc7", "fusion_lat": 0.0, "is_reserved": 0, "lon": -77.04304566666667}, {"type": "electric_bike", "name": "49fa531aeba6c1cd0be0f0e174952a4c", "rental_uris": {"ios": "https://dc.lft.to/lastmile_qr_scan", "android": "https://dc.lft.to/lastmile_qr_scan"}, "fusion_lon": 0.0, "lat": 38.9387915, "is_disabled": 0, "bike_id": "49fa531aeba6c1cd0be0f0e174952a4c", "fusion_lat": 0.0, "is_reserved": 0, "lon": -76.99032316666667}, {"type": "electric_scooter", "name": "8d6dd6b630b001774275af5f81bece04", "rental_uris": {"ios": "https://dc.lft.to/lastmile_qr_scan", "android": "https://dc.lft.to/lastmile_qr_scan"}, "fusion_lon": 0.0, "lat": 38.89992216666667, "is_disabled": 0, "bike_id": "8d6dd6b630b001774275af5f81bece04", "fusion_lat": 0.0, "is_reserved": 0, "lon": -76.9822455}, {"type": "electric_scooter", "name": "e2639ebb19f251f4df3966759768da63", "rental_uris": {"ios": "https://dc.lft.to/lastmile_qr_scan", "android": "https://dc.lft.to/lastmile_qr_scan"}, "fusion_lon": 0.0, "lat": 38.89270916666667, "is_disabled": 0, "bike_id": "e2639ebb19f251f4df3966759768da63", "fusion_lat": 0.0, "is_reserved": 0, "lon": -77.0034755}, {"type": "electric_bike", "name": "955570c980a8d32a75dbec56d531a501", "rental_uris": {"ios": "https://dc.lft.to/lastmile_qr_scan", "android": "https://dc.lft.to/lastmile_qr_scan"}, "fusion_lon": 0.0, "lat": 38.885306, "is_disabled": 0, "bike_id": "955570c980a8d32a75dbec56d531a501", "fusion_lat": 0.0, "is_reserved": 0, "lon": -77.12193116666667}, {"type": "electric_scooter", "name": "519ddddb01f7d85a45ae67eb16c9df57", "rental_uris": {"ios": "https://dc.lft.to/lastmile_qr_scan", "android": "https://dc.lft.to/lastmile_qr_scan"}, "fusion_lon": 0.0, "lat": 38.883823, "is_disabled": 0, "bike_id": "519ddddb01f7d85a45ae67eb16c9df57", "fusion_lat": 0.0, "is_reserved": 0, "lon": -76.9291865}, {"type": "electric_scooter", "name": "0995fee811a7a7d78d1d1a86ee014315", "rental_uris": {"ios": "https://dc.lft.to/lastmile_qr_scan", "android": "https://dc.lft.to/lastmile_qr_scan"}, "fusion_lon": 0.0, "lat": 38.924362, "is_disabled": 0, "bike_id": "0995fee811a7a7d78d1d1a86ee014315", "fusion_lat": 0.0, "is_reserved": 0, "lon": -77.02117833333334}, {"type": "electric_scooter", "name": "8413bd355cf7170ebc489dee1ac7d706", "rental_uris": {"ios": "https://dc.lft.to/lastmile_qr_scan", "android": "https://dc.lft.to/lastmile_qr_scan"}, "fusion_lon": 0.0, "lat": 38.90857316666666, "is_disabled": 0, "bike_id": "8413bd355cf7170ebc489dee1ac7d706", "fusion_lat": 0.0, "is_reserved": 0, "lon": -76.998011}, {"type": "electric_scooter", "name": "19e4bd66f547918ff492db45af7344a7", "rental_uris": {"ios": "https://dc.lft.to/lastmile_qr_scan", "android": "https://dc.lft.to/lastmile_qr_scan"}, "fusion_lon": 0.0, "lat": 38.9050805, "is_disabled": 0, "bike_id": "19e4bd66f547918ff492db45af7344a7", "fusion_lat": 0.0, "is_reserved": 0, "lon": -77.02984}, {"type": "electric_bike", "name": "243a212fcd5bc1739bed7abebd155435", "rental_uris": {"ios": "https://dc.lft.to/lastmile_qr_scan", "android": "https://dc.lft.to/lastmile_qr_scan"}, "fusion_lon": 0.0, "lat": 38.8412775, "is_disabled": 0, "bike_id": "243a212fcd5bc1739bed7abebd155435", "fusion_lat": 0.0, "is_reserved": 0, "lon": -77.06307}, {"type": "electric_scooter", "name": "d65c92cf46c74a4940e0b4437ef41db5", "rental_uris": {"ios": "https://dc.lft.to/lastmile_qr_scan", "android": "https://dc.lft.to/lastmile_qr_scan"}, "fusion_lon": 0.0, "lat": 38.872922833333334, "is_disabled": 0, "bike_id": "d65c92cf46c74a4940e0b4437ef41db5", "fusion_lat": 0.0, "is_reserved": 0, "lon": -77.00986833333333}, {"type": "electric_scooter", "name": "833e1afcb830a74013d93f51559352d0", "rental_uris": {"ios": "https://dc.lft.to/lastmile_qr_scan", "android": "https://dc.lft.to/lastmile_qr_scan"}, "fusion_lon": 0.0, "lat": 38.90554483333333, "is_disabled": 0, "bike_id": "833e1afcb830a74013d93f51559352d0", "fusion_lat": 0.0, "is_reserved": 0, "lon": -77.04015183333334}, {"type": "electric_bike", "name": "ca22af19b2cdb35dc7b0fb50128bd480", "rental_uris": {"ios": "https://dc.lft.to/lastmile_qr_scan", "android": "https://dc.lft.to/lastmile_qr_scan"}, "fusion_lon": 0.0, "lat": 38.9521915, "is_disabled": 0, "bike_id": "ca22af19b2cdb35dc7b0fb50128bd480", "fusion_lat": 0.0, "is_reserved": 0, "lon": -77.06977233333333}, {"type": "electric_scooter", "name": "647f64ba504347f24c3ad4162a2b36d3", "rental_uris": {"ios": "https://dc.lft.to/lastmile_qr_scan", "android": "https://dc.lft.to/lastmile_qr_scan"}, "fusion_lon": 0.0, "lat": 38.895339166666666, "is_disabled": 0, "bike_id": "647f64ba504347f24c3ad4162a2b36d3", "fusion_lat": 0.0, "is_reserved": 0, "lon": -76.94893766666667}, {"type": "electric_scooter", "name": "750e5b10816967c2b2916ee8abd7a4bf", "rental_uris": {"ios": "https://dc.lft.to/lastmile_qr_scan", "android": "https://dc.lft.to/lastmile_qr_scan"}, "fusion_lon": 0.0, "lat": 38.92472016666667, "is_disabled": 0, "bike_id": "750e5b10816967c2b2916ee8abd7a4bf", "fusion_lat": 0.0, "is_reserved": 0, "lon": -77.022051}, {"type": "electric_scooter", "name": "cea4dba88e09da4d0cd5edff561fb8ff", "rental_uris": {"ios": "https://dc.lft.to/lastmile_qr_scan", "android": "https://dc.lft.to/lastmile_qr_scan"}, "fusion_lon": 0.0, "lat": 38.92917033333333, "is_disabled": 0, "bike_id": "cea4dba88e09da4d0cd5edff561fb8ff", "fusion_lat": 0.0, "is_reserved": 0, "lon": -77.02037516666667}, {"type": "electric_scooter", "name": "c343f13d635908b932a50dea6ffc1e2a", "rental_uris": {"ios": "https://dc.lft.to/lastmile_qr_scan", "android": "https://dc.lft.to/lastmile_qr_scan"}, "fusion_lon": 0.0, "lat": 38.922428833333335, "is_disabled": 0, "bike_id": "c343f13d635908b932a50dea6ffc1e2a", "fusion_lat": 0.0, "is_reserved": 0, "lon": -77.03016166666667}, {"type": "electric_scooter", "name": "0ec18ff80d87f7320117e557df1963c8", "rental_uris": {"ios": "https://dc.lft.to/lastmile_qr_scan", "android": "https://dc.lft.to/lastmile_qr_scan"}, "fusion_lon": 0.0, "lat": 38.88425866666667, "is_disabled": 0, "bike_id": "0ec18ff80d87f7320117e557df1963c8", "fusion_lat": 0.0, "is_reserved": 0, "lon": -76.95760116666666}, {"type": "electric_scooter", "name": "2298c97aeda93c31d0236edaeb05ebad", "rental_uris": {"ios": "https://dc.lft.to/lastmile_qr_scan", "android": "https://dc.lft.to/lastmile_qr_scan"}, "fusion_lon": 0.0, "lat": 38.9170575, "is_disabled": 0, "bike_id": "2298c97aeda93c31d0236edaeb05ebad", "fusion_lat": 0.0, "is_reserved": 0, "lon": -77.0318355}, {"type": "electric_scooter", "name": "960f1c27c2e4199a689150e3ca5d7f15", "rental_uris": {"ios": "https://dc.lft.to/lastmile_qr_scan", "android": "https://dc.lft.to/lastmile_qr_scan"}, "fusion_lon": 0.0, "lat": 38.906979166666666, "is_disabled": 0, "bike_id": "960f1c27c2e4199a689150e3ca5d7f15", "fusion_lat": 0.0, "is_reserved": 0, "lon": -77.05643366666666}, {"type": "electric_scooter", "name": "176d21f14bfbc5b66ae96296b4ef8485", "rental_uris": {"ios": "https://dc.lft.to/lastmile_qr_scan", "android": "https://dc.lft.to/lastmile_qr_scan"}, "fusion_lon": 0.0, "lat": 38.92516166666667, "is_disabled": 0, "bike_id": "176d21f14bfbc5b66ae96296b4ef8485", "fusion_lat": 0.0, "is_reserved": 0, "lon": -77.022852}, {"type": "electric_scooter", "name": "b88493bf7012706b853893bf2b29dee5", "rental_uris": {"ios": "https://dc.lft.to/lastmile_qr_scan", "android": "https://dc.lft.to/lastmile_qr_scan"}, "fusion_lon": 0.0, "lat": 38.898449166666666, "is_disabled": 0, "bike_id": "b88493bf7012706b853893bf2b29dee5", "fusion_lat": 0.0, "is_reserved": 0, "lon": -77.01334433333334}, {"type": "electric_scooter", "name": "637e396da66e198561afc573b970bbf8", "rental_uris": {"ios": "https://dc.lft.to/lastmile_qr_scan", "android": "https://dc.lft.to/lastmile_qr_scan"}, "fusion_lon": 0.0, "lat": 38.920673666666666, "is_disabled": 0, "bike_id": "637e396da66e198561afc573b970bbf8", "fusion_lat": 0.0, "is_reserved": 0, "lon": -77.04227416666667}, {"type": "electric_scooter", "name": "d6f6c915e8f4b2165ad2e851610b1bf8", "rental_uris": {"ios": "https://dc.lft.to/lastmile_qr_scan", "android": "https://dc.lft.to/lastmile_qr_scan"}, "fusion_lon": 0.0, "lat": 38.93734283333333, "is_disabled": 0, "bike_id": "d6f6c915e8f4b2165ad2e851610b1bf8", "fusion_lat": 0.0, "is_reserved": 0, "lon": -77.02431233333333}, {"type": "electric_scooter", "name": "92e84ebb1d67fddb906b60359bb39d43", "rental_uris": {"ios": "https://dc.lft.to/lastmile_qr_scan", "android": "https://dc.lft.to/lastmile_qr_scan"}, "fusion_lon": 0.0, "lat": 38.9073345, "is_disabled": 0, "bike_id": "92e84ebb1d67fddb906b60359bb39d43", "fusion_lat": 0.0, "is_reserved": 0, "lon": -77.02375866666667}, {"type": "electric_scooter", "name": "7c6304745acfb07d6aee96337f5becc7", "rental_uris": {"ios": "https://dc.lft.to/lastmile_qr_scan", "android": "https://dc.lft.to/lastmile_qr_scan"}, "fusion_lon": 0.0, "lat": 38.936081333333334, "is_disabled": 0, "bike_id": "7c6304745acfb07d6aee96337f5becc7", "fusion_lat": 0.0, "is_reserved": 0, "lon": -77.05861066666667}, {"type": "electric_scooter", "name": "7e907cbe2eff8b70cf865a9586a32c20", "rental_uris": {"ios": "https://dc.lft.to/lastmile_qr_scan", "android": "https://dc.lft.to/lastmile_qr_scan"}, "fusion_lon": 0.0, "lat": 38.88501766666667, "is_disabled": 0, "bike_id": "7e907cbe2eff8b70cf865a9586a32c20", "fusion_lat": 0.0, "is_reserved": 0, "lon": -77.00697533333333}, {"type": "electric_scooter", "name": "53dd9987a7daace8e04cabb071449a38", "rental_uris": {"ios": "https://dc.lft.to/lastmile_qr_scan", "android": "https://dc.lft.to/lastmile_qr_scan"}, "fusion_lon": 0.0, "lat": 38.85805883333333, "is_disabled": 0, "bike_id": "53dd9987a7daace8e04cabb071449a38", "fusion_lat": 0.0, "is_reserved": 0, "lon": -76.986551}, {"type": "electric_scooter", "name": "5cb4005510c9aad0edd93281e818f119", "rental_uris": {"ios": "https://dc.lft.to/lastmile_qr_scan", "android": "https://dc.lft.to/lastmile_qr_scan"}, "fusion_lon": 0.0, "lat": 38.866850166666666, "is_disabled": 0, "bike_id": "5cb4005510c9aad0edd93281e818f119", "fusion_lat": 0.0, "is_reserved": 0, "lon": -76.98575183333334}, {"type": "electric_scooter", "name": "cfd76123ecee20518ffcff432d5a3df5", "rental_uris": {"ios": "https://dc.lft.to/lastmile_qr_scan", "android": "https://dc.lft.to/lastmile_qr_scan"}, "fusion_lon": 0.0, "lat": 38.86634083333333, "is_disabled": 0, "bike_id": "cfd76123ecee20518ffcff432d5a3df5", "fusion_lat": 0.0, "is_reserved": 0, "lon": -76.987129}, {"type": "electric_scooter", "name": "08f71b331106b0a85e005776ee75ecd8", "rental_uris": {"ios": "https://dc.lft.to/lastmile_qr_scan", "android": "https://dc.lft.to/lastmile_qr_scan"}, "fusion_lon": 0.0, "lat": 38.92468683333333, "is_disabled": 0, "bike_id": "08f71b331106b0a85e005776ee75ecd8", "fusion_lat": 0.0, "is_reserved": 0, "lon": -77.022149}, {"type": "electric_bike", "name": "9b9b27f872913507fa279bf60337c89f", "rental_uris": {"ios": "https://dc.lft.to/lastmile_qr_scan", "android": "https://dc.lft.to/lastmile_qr_scan"}, "fusion_lon": 0.0, "lat": 38.8279145, "is_disabled": 0, "bike_id": "9b9b27f872913507fa279bf60337c89f", "fusion_lat": 0.0, "is_reserved": 0, "lon": -77.12488783333333}, {"type": "electric_scooter", "name": "5d95a9e649ac796582cbdca568f5a574", "rental_uris": {"ios": "https://dc.lft.to/lastmile_qr_scan", "android": "https://dc.lft.to/lastmile_qr_scan"}, "fusion_lon": 0.0, "lat": 38.92722666666667, "is_disabled": 0, "bike_id": "5d95a9e649ac796582cbdca568f5a574", "fusion_lat": 0.0, "is_reserved": 0, "lon": -77.0400615}, {"type": "electric_bike", "name": "599f4ea6090643cf02bdf47addcf6332", "rental_uris": {"ios": "https://dc.lft.to/lastmile_qr_scan", "android": "https://dc.lft.to/lastmile_qr_scan"}, "fusion_lon": 0.0, "lat": 38.9095765, "is_disabled": 0, "bike_id": "599f4ea6090643cf02bdf47addcf6332", "fusion_lat": 0.0, "is_reserved": 0, "lon": -76.98439183333333}, {"type": "electric_scooter", "name": "becd84b1a18931d1cb4d70e6f7977b41", "rental_uris": {"ios": "https://dc.lft.to/lastmile_qr_scan", "android": "https://dc.lft.to/lastmile_qr_scan"}, "fusion_lon": 0.0, "lat": 38.901312833333336, "is_disabled": 0, "bike_id": "becd84b1a18931d1cb4d70e6f7977b41", "fusion_lat": 0.0, "is_reserved": 0, "lon": -77.04155166666666}, {"type": "electric_scooter", "name": "ecb16d1811bd32b70bc6459eb34f245f", "rental_uris": {"ios": "https://dc.lft.to/lastmile_qr_scan", "android": "https://dc.lft.to/lastmile_qr_scan"}, "fusion_lon": 0.0, "lat": 38.885406333333336, "is_disabled": 0, "bike_id": "ecb16d1811bd32b70bc6459eb34f245f", "fusion_lat": 0.0, "is_reserved": 0, "lon": -77.0004855}, {"type": "electric_scooter", "name": "30dfa44a8ca357a967e675a868ebf60a", "rental_uris": {"ios": "https://dc.lft.to/lastmile_qr_scan", "android": "https://dc.lft.to/lastmile_qr_scan"}, "fusion_lon": 0.0, "lat": 38.88411116666666, "is_disabled": 0, "bike_id": "30dfa44a8ca357a967e675a868ebf60a", "fusion_lat": 0.0, "is_reserved": 0, "lon": -77.01534366666667}, {"type": "electric_bike", "name": "4d66b88de4059b1fe6f6669c5bcb82c0", "rental_uris": {"ios": "https://dc.lft.to/lastmile_qr_scan", "android": "https://dc.lft.to/lastmile_qr_scan"}, "fusion_lon": 0.0, "lat": 38.86517766666667, "is_disabled": 0, "bike_id": "4d66b88de4059b1fe6f6669c5bcb82c0", "fusion_lat": 0.0, "is_reserved": 0, "lon": -76.97334}, {"type": "electric_scooter", "name": "440eda8931c249a8bddb478c2c994eed", "rental_uris": {"ios": "https://dc.lft.to/lastmile_qr_scan", "android": "https://dc.lft.to/lastmile_qr_scan"}, "fusion_lon": 0.0, "lat": 38.89837383333333, "is_disabled": 0, "bike_id": "440eda8931c249a8bddb478c2c994eed", "fusion_lat": 0.0, "is_reserved": 0, "lon": -77.03347233333334}, {"type": "electric_scooter", "name": "93563f7c182967c099409d016c04f34f", "rental_uris": {"ios": "https://dc.lft.to/lastmile_qr_scan", "android": "https://dc.lft.to/lastmile_qr_scan"}, "fusion_lon": 0.0, "lat": 38.91117916666666, "is_disabled": 0, "bike_id": "93563f7c182967c099409d016c04f34f", "fusion_lat": 0.0, "is_reserved": 0, "lon": -77.081303}, {"type": "electric_scooter", "name": "d7704eae8fa2b0aad0c6cef892de22e3", "rental_uris": {"ios": "https://dc.lft.to/lastmile_qr_scan", "android": "https://dc.lft.to/lastmile_qr_scan"}, "fusion_lon": 0.0, "lat": 38.88743916666667, "is_disabled": 0, "bike_id": "d7704eae8fa2b0aad0c6cef892de22e3", "fusion_lat": 0.0, "is_reserved": 0, "lon": -77.02847966666667}, {"type": "electric_scooter", "name": "40d1e0cb6d296e7e765f4382442120ed", "rental_uris": {"ios": "https://dc.lft.to/lastmile_qr_scan", "android": "https://dc.lft.to/lastmile_qr_scan"}, "fusion_lon": 0.0, "lat": 38.92878016666667, "is_disabled": 0, "bike_id": "40d1e0cb6d296e7e765f4382442120ed", "fusion_lat": 0.0, "is_reserved": 0, "lon": -77.027088}, {"type": "electric_scooter", "name": "ba89d3ae71d3f6810122e13b6102ee72", "rental_uris": {"ios": "https://dc.lft.to/lastmile_qr_scan", "android": "https://dc.lft.to/lastmile_qr_scan"}, "fusion_lon": 0.0, "lat": 38.913169, "is_disabled": 0, "bike_id": "ba89d3ae71d3f6810122e13b6102ee72", "fusion_lat": 0.0, "is_reserved": 0, "lon": -77.01510833333333}, {"type": "electric_scooter", "name": "079db8d789dfc9c569f6ec7ab0741683", "rental_uris": {"ios": "https://dc.lft.to/lastmile_qr_scan", "android": "https://dc.lft.to/lastmile_qr_scan"}, "fusion_lon": 0.0, "lat": 38.898315333333336, "is_disabled": 0, "bike_id": "079db8d789dfc9c569f6ec7ab0741683", "fusion_lat": 0.0, "is_reserved": 0, "lon": -77.03173616666666}, {"type": "electric_scooter", "name": "2db3d18810af9817b38a8e7a35ec13f0", "rental_uris": {"ios": "https://dc.lft.to/lastmile_qr_scan", "android": "https://dc.lft.to/lastmile_qr_scan"}, "fusion_lon": 0.0, "lat": 38.90260833333333, "is_disabled": 0, "bike_id": "2db3d18810af9817b38a8e7a35ec13f0", "fusion_lat": 0.0, "is_reserved": 0, "lon": -76.97461183333333}, {"type": "electric_scooter", "name": "372445dffeda63b9e0d73b7127d374df", "rental_uris": {"ios": "https://dc.lft.to/lastmile_qr_scan", "android": "https://dc.lft.to/lastmile_qr_scan"}, "fusion_lon": 0.0, "lat": 38.908572166666666, "is_disabled": 0, "bike_id": "372445dffeda63b9e0d73b7127d374df", "fusion_lat": 0.0, "is_reserved": 0, "lon": -76.99796766666667}, {"type": "electric_scooter", "name": "5ac8c0dfa0b2db579562725eef071c1d", "rental_uris": {"ios": "https://dc.lft.to/lastmile_qr_scan", "android": "https://dc.lft.to/lastmile_qr_scan"}, "fusion_lon": 0.0, "lat": 38.91502166666667, "is_disabled": 0, "bike_id": "5ac8c0dfa0b2db579562725eef071c1d", "fusion_lat": 0.0, "is_reserved": 0, "lon": -77.03826833333333}, {"type": "electric_scooter", "name": "7078334776deaed8ba58dcc478b8d76d", "rental_uris": {"ios": "https://dc.lft.to/lastmile_qr_scan", "android": "https://dc.lft.to/lastmile_qr_scan"}, "fusion_lon": 0.0, "lat": 38.912626833333334, "is_disabled": 0, "bike_id": "7078334776deaed8ba58dcc478b8d76d", "fusion_lat": 0.0, "is_reserved": 0, "lon": -77.01906266666667}, {"type": "electric_scooter", "name": "d3558fd50a43b124193ac4af088e9e69", "rental_uris": {"ios": "https://dc.lft.to/lastmile_qr_scan", "android": "https://dc.lft.to/lastmile_qr_scan"}, "fusion_lon": 0.0, "lat": 38.90797666666667, "is_disabled": 0, "bike_id": "d3558fd50a43b124193ac4af088e9e69", "fusion_lat": 0.0, "is_reserved": 0, "lon": -77.0401165}, {"type": "electric_scooter", "name": "b192963b0fd3b8e2cb38b7561397100c", "rental_uris": {"ios": "https://dc.lft.to/lastmile_qr_scan", "android": "https://dc.lft.to/lastmile_qr_scan"}, "fusion_lon": 0.0, "lat": 38.904081833333336, "is_disabled": 0, "bike_id": "b192963b0fd3b8e2cb38b7561397100c", "fusion_lat": 0.0, "is_reserved": 0, "lon": -76.9733115}, {"type": "electric_scooter", "name": "3880a92350d39be0509fc8389944bf48", "rental_uris": {"ios": "https://dc.lft.to/lastmile_qr_scan", "android": "https://dc.lft.to/lastmile_qr_scan"}, "fusion_lon": 0.0, "lat": 38.92098216666667, "is_disabled": 0, "bike_id": "3880a92350d39be0509fc8389944bf48", "fusion_lat": 0.0, "is_reserved": 0, "lon": -77.0467945}, {"type": "electric_scooter", "name": "3760c8bd478ad3a8ca16c23f543a1eca", "rental_uris": {"ios": "https://dc.lft.to/lastmile_qr_scan", "android": "https://dc.lft.to/lastmile_qr_scan"}, "fusion_lon": 0.0, "lat": 38.896707666666664, "is_disabled": 0, "bike_id": "3760c8bd478ad3a8ca16c23f543a1eca", "fusion_lat": 0.0, "is_reserved": 0, "lon": -77.05465016666666}, {"type": "electric_scooter", "name": "74156d21e27d0e04d1d75d7fd6515d23", "rental_uris": {"ios": "https://dc.lft.to/lastmile_qr_scan", "android": "https://dc.lft.to/lastmile_qr_scan"}, "fusion_lon": 0.0, "lat": 38.9002585, "is_disabled": 0, "bike_id": "74156d21e27d0e04d1d75d7fd6515d23", "fusion_lat": 0.0, "is_reserved": 0, "lon": -77.01046733333334}, {"type": "electric_scooter", "name": "2042652736b33d82838dd1b73a87e730", "rental_uris": {"ios": "https://dc.lft.to/lastmile_qr_scan", "android": "https://dc.lft.to/lastmile_qr_scan"}, "fusion_lon": 0.0, "lat": 38.911123, "is_disabled": 0, "bike_id": "2042652736b33d82838dd1b73a87e730", "fusion_lat": 0.0, "is_reserved": 0, "lon": -77.00406816666667}, {"type": "electric_scooter", "name": "dcc76312ea953e09dff6ffbaa42963ce", "rental_uris": {"ios": "https://dc.lft.to/lastmile_qr_scan", "android": "https://dc.lft.to/lastmile_qr_scan"}, "fusion_lon": 0.0, "lat": 38.90407533333333, "is_disabled": 0, "bike_id": "dcc76312ea953e09dff6ffbaa42963ce", "fusion_lat": 0.0, "is_reserved": 0, "lon": -77.053361}, {"type": "electric_scooter", "name": "c78b6f5cb49350aee7fa4c63c72e1104", "rental_uris": {"ios": "https://dc.lft.to/lastmile_qr_scan", "android": "https://dc.lft.to/lastmile_qr_scan"}, "fusion_lon": 0.0, "lat": 38.907904, "is_disabled": 0, "bike_id": "c78b6f5cb49350aee7fa4c63c72e1104", "fusion_lat": 0.0, "is_reserved": 0, "lon": -76.99424366666666}, {"type": "electric_scooter", "name": "6ec9127a93d5bf072ccd288449c72ffd", "rental_uris": {"ios": "https://dc.lft.to/lastmile_qr_scan", "android": "https://dc.lft.to/lastmile_qr_scan"}, "fusion_lon": 0.0, "lat": 38.935305666666665, "is_disabled": 0, "bike_id": "6ec9127a93d5bf072ccd288449c72ffd", "fusion_lat": 0.0, "is_reserved": 0, "lon": -77.023473}, {"type": "electric_scooter", "name": "09810b29c683029ee321d028dae6b8a1", "rental_uris": {"ios": "https://dc.lft.to/lastmile_qr_scan", "android": "https://dc.lft.to/lastmile_qr_scan"}, "fusion_lon": 0.0, "lat": 38.898265, "is_disabled": 0, "bike_id": "09810b29c683029ee321d028dae6b8a1", "fusion_lat": 0.0, "is_reserved": 0, "lon": -77.03339766666667}, {"type": "electric_scooter", "name": "6c3597e31af29d464638440d75141270", "rental_uris": {"ios": "https://dc.lft.to/lastmile_qr_scan", "android": "https://dc.lft.to/lastmile_qr_scan"}, "fusion_lon": 0.0, "lat": 38.901516, "is_disabled": 0, "bike_id": "6c3597e31af29d464638440d75141270", "fusion_lat": 0.0, "is_reserved": 0, "lon": -76.99023116666666}, {"type": "electric_scooter", "name": "673a073b108d98d00b056fd78b430c34", "rental_uris": {"ios": "https://dc.lft.to/lastmile_qr_scan", "android": "https://dc.lft.to/lastmile_qr_scan"}, "fusion_lon": 0.0, "lat": 38.92342, "is_disabled": 0, "bike_id": "673a073b108d98d00b056fd78b430c34", "fusion_lat": 0.0, "is_reserved": 0, "lon": -77.05238083333333}, {"type": "electric_scooter", "name": "d7fefddb659b9a88404c87ea07140761", "rental_uris": {"ios": "https://dc.lft.to/lastmile_qr_scan", "android": "https://dc.lft.to/lastmile_qr_scan"}, "fusion_lon": 0.0, "lat": 38.895352833333334, "is_disabled": 0, "bike_id": "d7fefddb659b9a88404c87ea07140761", "fusion_lat": 0.0, "is_reserved": 0, "lon": -76.94879883333333}, {"type": "electric_scooter", "name": "ecfff9894259dc2e279894d44254ed6a", "rental_uris": {"ios": "https://dc.lft.to/lastmile_qr_scan", "android": "https://dc.lft.to/lastmile_qr_scan"}, "fusion_lon": 0.0, "lat": 38.942994166666665, "is_disabled": 0, "bike_id": "ecfff9894259dc2e279894d44254ed6a", "fusion_lat": 0.0, "is_reserved": 0, "lon": -77.029548}, {"type": "electric_scooter", "name": "05e3e169133f1bf81e9dadcf4df810eb", "rental_uris": {"ios": "https://dc.lft.to/lastmile_qr_scan", "android": "https://dc.lft.to/lastmile_qr_scan"}, "fusion_lon": 0.0, "lat": 38.9211705, "is_disabled": 0, "bike_id": "05e3e169133f1bf81e9dadcf4df810eb", "fusion_lat": 0.0, "is_reserved": 0, "lon": -77.00918683333333}, {"type": "electric_scooter", "name": "4b10315e244f225a0f35bd1d03b12b03", "rental_uris": {"ios": "https://dc.lft.to/lastmile_qr_scan", "android": "https://dc.lft.to/lastmile_qr_scan"}, "fusion_lon": 0.0, "lat": 38.917865, "is_disabled": 0, "bike_id": "4b10315e244f225a0f35bd1d03b12b03", "fusion_lat": 0.0, "is_reserved": 0, "lon": -77.0231645}, {"type": "electric_scooter", "name": "4aad7dffb2e63f7ea65bc48636c3e688", "rental_uris": {"ios": "https://dc.lft.to/lastmile_qr_scan", "android": "https://dc.lft.to/lastmile_qr_scan"}, "fusion_lon": 0.0, "lat": 38.88522433333333, "is_disabled": 0, "bike_id": "4aad7dffb2e63f7ea65bc48636c3e688", "fusion_lat": 0.0, "is_reserved": 0, "lon": -76.97710133333334}, {"type": "electric_scooter", "name": "d1d7d846b72f669119b0dbfd0dc7ef08", "rental_uris": {"ios": "https://dc.lft.to/lastmile_qr_scan", "android": "https://dc.lft.to/lastmile_qr_scan"}, "fusion_lon": 0.0, "lat": 38.8981415, "is_disabled": 0, "bike_id": "d1d7d846b72f669119b0dbfd0dc7ef08", "fusion_lat": 0.0, "is_reserved": 0, "lon": -77.00742583333333}, {"type": "electric_bike", "name": "c87291923b509d2023af046982ca0da6", "rental_uris": {"ios": "https://dc.lft.to/lastmile_qr_scan", "android": "https://dc.lft.to/lastmile_qr_scan"}, "fusion_lon": 0.0, "lat": 38.90960166666667, "is_disabled": 0, "bike_id": "c87291923b509d2023af046982ca0da6", "fusion_lat": 0.0, "is_reserved": 0, "lon": -77.228879}, {"type": "electric_scooter", "name": "80cba0a9d3949e98f7bd0b200ef8296a", "rental_uris": {"ios": "https://dc.lft.to/lastmile_qr_scan", "android": "https://dc.lft.to/lastmile_qr_scan"}, "fusion_lon": 0.0, "lat": 38.93423833333333, "is_disabled": 0, "bike_id": "80cba0a9d3949e98f7bd0b200ef8296a", "fusion_lat": 0.0, "is_reserved": 0, "lon": -77.044169}, {"type": "electric_scooter", "name": "3cb8a1789ed73a6e68b914c38a5ee037", "rental_uris": {"ios": "https://dc.lft.to/lastmile_qr_scan", "android": "https://dc.lft.to/lastmile_qr_scan"}, "fusion_lon": 0.0, "lat": 38.90712216666667, "is_disabled": 0, "bike_id": "3cb8a1789ed73a6e68b914c38a5ee037", "fusion_lat": 0.0, "is_reserved": 0, "lon": -77.029471}, {"type": "electric_scooter", "name": "d2f6bf160e661e29d0f873afbf00d1ef", "rental_uris": {"ios": "https://dc.lft.to/lastmile_qr_scan", "android": "https://dc.lft.to/lastmile_qr_scan"}, "fusion_lon": 0.0, "lat": 38.931886666666664, "is_disabled": 0, "bike_id": "d2f6bf160e661e29d0f873afbf00d1ef", "fusion_lat": 0.0, "is_reserved": 0, "lon": -77.0198925}, {"type": "electric_scooter", "name": "de0960e54f0d608fd80418abb931f412", "rental_uris": {"ios": "https://dc.lft.to/lastmile_qr_scan", "android": "https://dc.lft.to/lastmile_qr_scan"}, "fusion_lon": 0.0, "lat": 38.91250183333333, "is_disabled": 0, "bike_id": "de0960e54f0d608fd80418abb931f412", "fusion_lat": 0.0, "is_reserved": 0, "lon": -77.03664416666666}, {"type": "electric_scooter", "name": "2f38c9e1041da5a18f48e10e195cdd93", "rental_uris": {"ios": "https://dc.lft.to/lastmile_qr_scan", "android": "https://dc.lft.to/lastmile_qr_scan"}, "fusion_lon": 0.0, "lat": 38.900250666666665, "is_disabled": 0, "bike_id": "2f38c9e1041da5a18f48e10e195cdd93", "fusion_lat": 0.0, "is_reserved": 0, "lon": -76.97400066666667}, {"type": "electric_scooter", "name": "303718bcd008d53476dd259adaaaf888", "rental_uris": {"ios": "https://dc.lft.to/lastmile_qr_scan", "android": "https://dc.lft.to/lastmile_qr_scan"}, "fusion_lon": 0.0, "lat": 38.9216465, "is_disabled": 0, "bike_id": "303718bcd008d53476dd259adaaaf888", "fusion_lat": 0.0, "is_reserved": 0, "lon": -77.03265016666667}, {"type": "electric_bike", "name": "d0912e072cfd4ba5b0805579c8d1b53f", "rental_uris": {"ios": "https://dc.lft.to/lastmile_qr_scan", "android": "https://dc.lft.to/lastmile_qr_scan"}, "fusion_lon": 0.0, "lat": 38.94509883333333, "is_disabled": 0, "bike_id": "d0912e072cfd4ba5b0805579c8d1b53f", "fusion_lat": 0.0, "is_reserved": 0, "lon": -77.00670716666667}, {"type": "electric_scooter", "name": "d62ca06c2d3ba076842583902705a44d", "rental_uris": {"ios": "https://dc.lft.to/lastmile_qr_scan", "android": "https://dc.lft.to/lastmile_qr_scan"}, "fusion_lon": 0.0, "lat": 38.91329316666667, "is_disabled": 0, "bike_id": "d62ca06c2d3ba076842583902705a44d", "fusion_lat": 0.0, "is_reserved": 0, "lon": -77.04862066666666}, {"type": "electric_scooter", "name": "8fdc4e331b642095b7e5b98dc56ef726", "rental_uris": {"ios": "https://dc.lft.to/lastmile_qr_scan", "android": "https://dc.lft.to/lastmile_qr_scan"}, "fusion_lon": 0.0, "lat": 38.920242333333334, "is_disabled": 0, "bike_id": "8fdc4e331b642095b7e5b98dc56ef726", "fusion_lat": 0.0, "is_reserved": 0, "lon": -77.01793783333333}, {"type": "electric_scooter", "name": "61b406992299de386a015755e1308dba", "rental_uris": {"ios": "https://dc.lft.to/lastmile_qr_scan", "android": "https://dc.lft.to/lastmile_qr_scan"}, "fusion_lon": 0.0, "lat": 38.926207166666664, "is_disabled": 0, "bike_id": "61b406992299de386a015755e1308dba", "fusion_lat": 0.0, "is_reserved": 0, "lon": -77.03925733333334}, {"type": "electric_scooter", "name": "5607833cdbbb10c53a8246c96df51b36", "rental_uris": {"ios": "https://dc.lft.to/lastmile_qr_scan", "android": "https://dc.lft.to/lastmile_qr_scan"}, "fusion_lon": 0.0, "lat": 38.908383, "is_disabled": 0, "bike_id": "5607833cdbbb10c53a8246c96df51b36", "fusion_lat": 0.0, "is_reserved": 0, "lon": -77.021843}, {"type": "electric_scooter", "name": "5198be47d21b27ba88545b9fd7d0824e", "rental_uris": {"ios": "https://dc.lft.to/lastmile_qr_scan", "android": "https://dc.lft.to/lastmile_qr_scan"}, "fusion_lon": 0.0, "lat": 38.90494066666667, "is_disabled": 0, "bike_id": "5198be47d21b27ba88545b9fd7d0824e", "fusion_lat": 0.0, "is_reserved": 0, "lon": -76.9813465}, {"type": "electric_scooter", "name": "583a5ecc05956d5f5f0f51d3450ea6f9", "rental_uris": {"ios": "https://dc.lft.to/lastmile_qr_scan", "android": "https://dc.lft.to/lastmile_qr_scan"}, "fusion_lon": 0.0, "lat": 38.918207833333334, "is_disabled": 0, "bike_id": "583a5ecc05956d5f5f0f51d3450ea6f9", "fusion_lat": 0.0, "is_reserved": 0, "lon": -77.012072}, {"type": "electric_scooter", "name": "75d4914d3c63ea9c51b2389bd50cdef7", "rental_uris": {"ios": "https://dc.lft.to/lastmile_qr_scan", "android": "https://dc.lft.to/lastmile_qr_scan"}, "fusion_lon": 0.0, "lat": 38.92257583333333, "is_disabled": 0, "bike_id": "75d4914d3c63ea9c51b2389bd50cdef7", "fusion_lat": 0.0, "is_reserved": 0, "lon": -77.04249666666666}, {"type": "electric_scooter", "name": "fd5bd570dd865148ede5147400e21443", "rental_uris": {"ios": "https://dc.lft.to/lastmile_qr_scan", "android": "https://dc.lft.to/lastmile_qr_scan"}, "fusion_lon": 0.0, "lat": 38.895392, "is_disabled": 0, "bike_id": "fd5bd570dd865148ede5147400e21443", "fusion_lat": 0.0, "is_reserved": 0, "lon": -76.98214533333334}, {"type": "electric_scooter", "name": "bc90e992dbb6fc555b5af68c2ccf029e", "rental_uris": {"ios": "https://dc.lft.to/lastmile_qr_scan", "android": "https://dc.lft.to/lastmile_qr_scan"}, "fusion_lon": 0.0, "lat": 38.909693, "is_disabled": 0, "bike_id": "bc90e992dbb6fc555b5af68c2ccf029e", "fusion_lat": 0.0, "is_reserved": 0, "lon": -77.03211833333333}, {"type": "electric_scooter", "name": "796a26d8eee5d31a84b4be2d6e1e650b", "rental_uris": {"ios": "https://dc.lft.to/lastmile_qr_scan", "android": "https://dc.lft.to/lastmile_qr_scan"}, "fusion_lon": 0.0, "lat": 38.904093833333334, "is_disabled": 0, "bike_id": "796a26d8eee5d31a84b4be2d6e1e650b", "fusion_lat": 0.0, "is_reserved": 0, "lon": -76.99285483333334}, {"type": "electric_scooter", "name": "371b6fb46b65616ee34181affdf77ac9", "rental_uris": {"ios": "https://dc.lft.to/lastmile_qr_scan", "android": "https://dc.lft.to/lastmile_qr_scan"}, "fusion_lon": 0.0, "lat": 38.9174785, "is_disabled": 0, "bike_id": "371b6fb46b65616ee34181affdf77ac9", "fusion_lat": 0.0, "is_reserved": 0, "lon": -77.01450916666667}, {"type": "electric_scooter", "name": "b2eddfe0faaedfa78f79053c4cf36e22", "rental_uris": {"ios": "https://dc.lft.to/lastmile_qr_scan", "android": "https://dc.lft.to/lastmile_qr_scan"}, "fusion_lon": 0.0, "lat": 38.90257616666667, "is_disabled": 0, "bike_id": "b2eddfe0faaedfa78f79053c4cf36e22", "fusion_lat": 0.0, "is_reserved": 0, "lon": -77.00888516666667}, {"type": "electric_scooter", "name": "7721b39c4d0accc3062ca63c94428bb7", "rental_uris": {"ios": "https://dc.lft.to/lastmile_qr_scan", "android": "https://dc.lft.to/lastmile_qr_scan"}, "fusion_lon": 0.0, "lat": 38.9096985, "is_disabled": 0, "bike_id": "7721b39c4d0accc3062ca63c94428bb7", "fusion_lat": 0.0, "is_reserved": 0, "lon": -77.03434666666666}, {"type": "electric_scooter", "name": "635ee130416b13ae35fe1d6f05d4f72d", "rental_uris": {"ios": "https://dc.lft.to/lastmile_qr_scan", "android": "https://dc.lft.to/lastmile_qr_scan"}, "fusion_lon": 0.0, "lat": 38.941945, "is_disabled": 0, "bike_id": "635ee130416b13ae35fe1d6f05d4f72d", "fusion_lat": 0.0, "is_reserved": 0, "lon": -77.0383805}, {"type": "electric_scooter", "name": "64e1cbd7cb98e19193f04833349abdd5", "rental_uris": {"ios": "https://dc.lft.to/lastmile_qr_scan", "android": "https://dc.lft.to/lastmile_qr_scan"}, "fusion_lon": 0.0, "lat": 38.89711066666667, "is_disabled": 0, "bike_id": "64e1cbd7cb98e19193f04833349abdd5", "fusion_lat": 0.0, "is_reserved": 0, "lon": -77.0084365}, {"type": "electric_scooter", "name": "bef71ab3fbe1d6656cc02521bfa2f2e2", "rental_uris": {"ios": "https://dc.lft.to/lastmile_qr_scan", "android": "https://dc.lft.to/lastmile_qr_scan"}, "fusion_lon": 0.0, "lat": 38.914313666666665, "is_disabled": 0, "bike_id": "bef71ab3fbe1d6656cc02521bfa2f2e2", "fusion_lat": 0.0, "is_reserved": 0, "lon": -77.03209816666667}, {"type": "electric_scooter", "name": "350db626f4cee998d13e45f029196232", "rental_uris": {"ios": "https://dc.lft.to/lastmile_qr_scan", "android": "https://dc.lft.to/lastmile_qr_scan"}, "fusion_lon": 0.0, "lat": 38.898787666666664, "is_disabled": 0, "bike_id": "350db626f4cee998d13e45f029196232", "fusion_lat": 0.0, "is_reserved": 0, "lon": -77.05309233333334}, {"type": "electric_scooter", "name": "9be836c34aed5713779a897b02be738e", "rental_uris": {"ios": "https://dc.lft.to/lastmile_qr_scan", "android": "https://dc.lft.to/lastmile_qr_scan"}, "fusion_lon": 0.0, "lat": 38.896108166666664, "is_disabled": 0, "bike_id": "9be836c34aed5713779a897b02be738e", "fusion_lat": 0.0, "is_reserved": 0, "lon": -77.02157133333333}, {"type": "electric_scooter", "name": "2d891d566e2c72a67c1fa1b4813032c6", "rental_uris": {"ios": "https://dc.lft.to/lastmile_qr_scan", "android": "https://dc.lft.to/lastmile_qr_scan"}, "fusion_lon": 0.0, "lat": 38.89221416666667, "is_disabled": 0, "bike_id": "2d891d566e2c72a67c1fa1b4813032c6", "fusion_lat": 0.0, "is_reserved": 0, "lon": -77.04196533333334}, {"type": "electric_scooter", "name": "7af9cb1d2d49ec887df60bcb959e66d1", "rental_uris": {"ios": "https://dc.lft.to/lastmile_qr_scan", "android": "https://dc.lft.to/lastmile_qr_scan"}, "fusion_lon": 0.0, "lat": 38.9162225, "is_disabled": 0, "bike_id": "7af9cb1d2d49ec887df60bcb959e66d1", "fusion_lat": 0.0, "is_reserved": 0, "lon": -77.04005016666666}, {"type": "electric_scooter", "name": "7e0250df222736fd62bba5d0026c7886", "rental_uris": {"ios": "https://dc.lft.to/lastmile_qr_scan", "android": "https://dc.lft.to/lastmile_qr_scan"}, "fusion_lon": 0.0, "lat": 38.902505833333336, "is_disabled": 0, "bike_id": "7e0250df222736fd62bba5d0026c7886", "fusion_lat": 0.0, "is_reserved": 0, "lon": -77.0185465}, {"type": "electric_scooter", "name": "0e8178f82c2a9e6f4baf20986d26f134", "rental_uris": {"ios": "https://dc.lft.to/lastmile_qr_scan", "android": "https://dc.lft.to/lastmile_qr_scan"}, "fusion_lon": 0.0, "lat": 38.927967, "is_disabled": 0, "bike_id": "0e8178f82c2a9e6f4baf20986d26f134", "fusion_lat": 0.0, "is_reserved": 0, "lon": -77.03152533333333}, {"type": "electric_scooter", "name": "eef9fed7e530af7aa0e5ef42cf3ab924", "rental_uris": {"ios": "https://dc.lft.to/lastmile_qr_scan", "android": "https://dc.lft.to/lastmile_qr_scan"}, "fusion_lon": 0.0, "lat": 38.954964833333335, "is_disabled": 0, "bike_id": "eef9fed7e530af7aa0e5ef42cf3ab924", "fusion_lat": 0.0, "is_reserved": 0, "lon": -77.01726533333333}, {"type": "electric_bike", "name": "a362e5177b8ef5961a26d11255f0eadc", "rental_uris": {"ios": "https://dc.lft.to/lastmile_qr_scan", "android": "https://dc.lft.to/lastmile_qr_scan"}, "fusion_lon": 0.0, "lat": 38.86461366666666, "is_disabled": 0, "bike_id": "a362e5177b8ef5961a26d11255f0eadc", "fusion_lat": 0.0, "is_reserved": 0, "lon": -76.94532116666667}, {"type": "electric_scooter", "name": "fc4a5eed389fc133d7d2827c15e59b80", "rental_uris": {"ios": "https://dc.lft.to/lastmile_qr_scan", "android": "https://dc.lft.to/lastmile_qr_scan"}, "fusion_lon": 0.0, "lat": 38.90826283333333, "is_disabled": 0, "bike_id": "fc4a5eed389fc133d7d2827c15e59b80", "fusion_lat": 0.0, "is_reserved": 0, "lon": -77.04352116666666}, {"type": "electric_scooter", "name": "c293936b1455f872360af67eb573b849", "rental_uris": {"ios": "https://dc.lft.to/lastmile_qr_scan", "android": "https://dc.lft.to/lastmile_qr_scan"}, "fusion_lon": 0.0, "lat": 38.92471483333333, "is_disabled": 0, "bike_id": "c293936b1455f872360af67eb573b849", "fusion_lat": 0.0, "is_reserved": 0, "lon": -77.03827316666667}, {"type": "electric_scooter", "name": "5cb82db4dacdb32c32382553677fcf51", "rental_uris": {"ios": "https://dc.lft.to/lastmile_qr_scan", "android": "https://dc.lft.to/lastmile_qr_scan"}, "fusion_lon": 0.0, "lat": 38.9285735, "is_disabled": 0, "bike_id": "5cb82db4dacdb32c32382553677fcf51", "fusion_lat": 0.0, "is_reserved": 0, "lon": -77.01413466666666}, {"type": "electric_scooter", "name": "7c09c844cda51cddf7bfb6a3b352d15a", "rental_uris": {"ios": "https://dc.lft.to/lastmile_qr_scan", "android": "https://dc.lft.to/lastmile_qr_scan"}, "fusion_lon": 0.0, "lat": 38.913607666666664, "is_disabled": 0, "bike_id": "7c09c844cda51cddf7bfb6a3b352d15a", "fusion_lat": 0.0, "is_reserved": 0, "lon": -77.03433983333333}, {"type": "electric_bike", "name": "420c51c97ef47ae62bbbd1a58f0b25fc", "rental_uris": {"ios": "https://dc.lft.to/lastmile_qr_scan", "android": "https://dc.lft.to/lastmile_qr_scan"}, "fusion_lon": 0.0, "lat": 38.813291166666666, "is_disabled": 0, "bike_id": "420c51c97ef47ae62bbbd1a58f0b25fc", "fusion_lat": 0.0, "is_reserved": 0, "lon": -77.050931}, {"type": "electric_bike", "name": "ce905743411fa8573b453819120053b4", "rental_uris": {"ios": "https://dc.lft.to/lastmile_qr_scan", "android": "https://dc.lft.to/lastmile_qr_scan"}, "fusion_lon": 0.0, "lat": 38.93190083333333, "is_disabled": 0, "bike_id": "ce905743411fa8573b453819120053b4", "fusion_lat": 0.0, "is_reserved": 0, "lon": -77.22926666666666}, {"type": "electric_bike", "name": "dfdd0f227ed1fb335444489a51125789", "rental_uris": {"ios": "https://dc.lft.to/lastmile_qr_scan", "android": "https://dc.lft.to/lastmile_qr_scan"}, "fusion_lon": 0.0, "lat": 38.849912333333336, "is_disabled": 0, "bike_id": "dfdd0f227ed1fb335444489a51125789", "fusion_lat": 0.0, "is_reserved": 0, "lon": -77.09759566666666}, {"type": "electric_scooter", "name": "af736644b96233b4ee8ec510a7252614", "rental_uris": {"ios": "https://dc.lft.to/lastmile_qr_scan", "android": "https://dc.lft.to/lastmile_qr_scan"}, "fusion_lon": 0.0, "lat": 38.91919733333334, "is_disabled": 0, "bike_id": "af736644b96233b4ee8ec510a7252614", "fusion_lat": 0.0, "is_reserved": 0, "lon": -77.03174066666666}, {"type": "electric_scooter", "name": "7ac7e7456c62304f9da6e971976fe57f", "rental_uris": {"ios": "https://dc.lft.to/lastmile_qr_scan", "android": "https://dc.lft.to/lastmile_qr_scan"}, "fusion_lon": 0.0, "lat": 38.92076316666667, "is_disabled": 0, "bike_id": "7ac7e7456c62304f9da6e971976fe57f", "fusion_lat": 0.0, "is_reserved": 0, "lon": -76.9972825}, {"type": "electric_scooter", "name": "feec81165a9412df0beda6d87d428138", "rental_uris": {"ios": "https://dc.lft.to/lastmile_qr_scan", "android": "https://dc.lft.to/lastmile_qr_scan"}, "fusion_lon": 0.0, "lat": 38.88347866666667, "is_disabled": 0, "bike_id": "feec81165a9412df0beda6d87d428138", "fusion_lat": 0.0, "is_reserved": 0, "lon": -77.0196235}, {"type": "electric_scooter", "name": "57e9034f699f07d0740635cb1d186411", "rental_uris": {"ios": "https://dc.lft.to/lastmile_qr_scan", "android": "https://dc.lft.to/lastmile_qr_scan"}, "fusion_lon": 0.0, "lat": 38.9271515, "is_disabled": 0, "bike_id": "57e9034f699f07d0740635cb1d186411", "fusion_lat": 0.0, "is_reserved": 0, "lon": -77.015957}, {"type": "electric_scooter", "name": "48ade2508a1b7236a116a3062d3f85ce", "rental_uris": {"ios": "https://dc.lft.to/lastmile_qr_scan", "android": "https://dc.lft.to/lastmile_qr_scan"}, "fusion_lon": 0.0, "lat": 38.90576566666667, "is_disabled": 0, "bike_id": "48ade2508a1b7236a116a3062d3f85ce", "fusion_lat": 0.0, "is_reserved": 0, "lon": -77.02409916666667}, {"type": "electric_scooter", "name": "b4a5b427b0a7d4051c347ecd38e8fb55", "rental_uris": {"ios": "https://dc.lft.to/lastmile_qr_scan", "android": "https://dc.lft.to/lastmile_qr_scan"}, "fusion_lon": 0.0, "lat": 38.88296533333333, "is_disabled": 0, "bike_id": "b4a5b427b0a7d4051c347ecd38e8fb55", "fusion_lat": 0.0, "is_reserved": 0, "lon": -77.02479}, {"type": "electric_scooter", "name": "cf19ecdb36f57134a724f9b81c34d965", "rental_uris": {"ios": "https://dc.lft.to/lastmile_qr_scan", "android": "https://dc.lft.to/lastmile_qr_scan"}, "fusion_lon": 0.0, "lat": 38.917106, "is_disabled": 0, "bike_id": "cf19ecdb36f57134a724f9b81c34d965", "fusion_lat": 0.0, "is_reserved": 0, "lon": -77.0414765}, {"type": "electric_scooter", "name": "f500c4c4a82b4ea0fb8319de628b6931", "rental_uris": {"ios": "https://dc.lft.to/lastmile_qr_scan", "android": "https://dc.lft.to/lastmile_qr_scan"}, "fusion_lon": 0.0, "lat": 38.9169135, "is_disabled": 0, "bike_id": "f500c4c4a82b4ea0fb8319de628b6931", "fusion_lat": 0.0, "is_reserved": 0, "lon": -77.02599}, {"type": "electric_scooter", "name": "0c7a0f7ec6ab0f45b019997721f7d350", "rental_uris": {"ios": "https://dc.lft.to/lastmile_qr_scan", "android": "https://dc.lft.to/lastmile_qr_scan"}, "fusion_lon": 0.0, "lat": 38.887346666666666, "is_disabled": 0, "bike_id": "0c7a0f7ec6ab0f45b019997721f7d350", "fusion_lat": 0.0, "is_reserved": 0, "lon": -76.99490316666666}, {"type": "electric_scooter", "name": "c2430c272a93ed8b5976f719c89d4ed4", "rental_uris": {"ios": "https://dc.lft.to/lastmile_qr_scan", "android": "https://dc.lft.to/lastmile_qr_scan"}, "fusion_lon": 0.0, "lat": 38.907321333333336, "is_disabled": 0, "bike_id": "c2430c272a93ed8b5976f719c89d4ed4", "fusion_lat": 0.0, "is_reserved": 0, "lon": -77.02893916666666}, {"type": "electric_scooter", "name": "9d4e427c648bcd45732e188aa9a98ae4", "rental_uris": {"ios": "https://dc.lft.to/lastmile_qr_scan", "android": "https://dc.lft.to/lastmile_qr_scan"}, "fusion_lon": 0.0, "lat": 38.935467, "is_disabled": 0, "bike_id": "9d4e427c648bcd45732e188aa9a98ae4", "fusion_lat": 0.0, "is_reserved": 0, "lon": -77.05828083333333}, {"type": "electric_scooter", "name": "e0f5e3151045e53e3aad9c7e198729a3", "rental_uris": {"ios": "https://dc.lft.to/lastmile_qr_scan", "android": "https://dc.lft.to/lastmile_qr_scan"}, "fusion_lon": 0.0, "lat": 38.906885, "is_disabled": 0, "bike_id": "e0f5e3151045e53e3aad9c7e198729a3", "fusion_lat": 0.0, "is_reserved": 0, "lon": -77.05720716666667}, {"type": "electric_scooter", "name": "f2d8d60e95bfba8ed8df112456afb57a", "rental_uris": {"ios": "https://dc.lft.to/lastmile_qr_scan", "android": "https://dc.lft.to/lastmile_qr_scan"}, "fusion_lon": 0.0, "lat": 38.89242516666667, "is_disabled": 0, "bike_id": "f2d8d60e95bfba8ed8df112456afb57a", "fusion_lat": 0.0, "is_reserved": 0, "lon": -77.03957833333334}, {"type": "electric_scooter", "name": "a766c4bdf86c6bd54068b0a684177a3e", "rental_uris": {"ios": "https://dc.lft.to/lastmile_qr_scan", "android": "https://dc.lft.to/lastmile_qr_scan"}, "fusion_lon": 0.0, "lat": 38.9311295, "is_disabled": 0, "bike_id": "a766c4bdf86c6bd54068b0a684177a3e", "fusion_lat": 0.0, "is_reserved": 0, "lon": -77.02415883333333}, {"type": "electric_bike", "name": "24aa8282bcd566fcc1cb60ef96d9ab1f", "rental_uris": {"ios": "https://dc.lft.to/lastmile_qr_scan", "android": "https://dc.lft.to/lastmile_qr_scan"}, "fusion_lon": 0.0, "lat": 38.952378, "is_disabled": 0, "bike_id": "24aa8282bcd566fcc1cb60ef96d9ab1f", "fusion_lat": 0.0, "is_reserved": 0, "lon": -77.00271233333333}, {"type": "electric_scooter", "name": "7defd484ba27ff5e8c3d4d8d1011830f", "rental_uris": {"ios": "https://dc.lft.to/lastmile_qr_scan", "android": "https://dc.lft.to/lastmile_qr_scan"}, "fusion_lon": 0.0, "lat": 38.934864, "is_disabled": 0, "bike_id": "7defd484ba27ff5e8c3d4d8d1011830f", "fusion_lat": 0.0, "is_reserved": 0, "lon": -77.04530283333334}, {"type": "electric_scooter", "name": "a0c5886c16371c4b261498cdc081b8b8", "rental_uris": {"ios": "https://dc.lft.to/lastmile_qr_scan", "android": "https://dc.lft.to/lastmile_qr_scan"}, "fusion_lon": 0.0, "lat": 38.898739666666664, "is_disabled": 0, "bike_id": "a0c5886c16371c4b261498cdc081b8b8", "fusion_lat": 0.0, "is_reserved": 0, "lon": -76.93187033333334}, {"type": "electric_scooter", "name": "2c762ea161a5ba537b66dc80b138a365", "rental_uris": {"ios": "https://dc.lft.to/lastmile_qr_scan", "android": "https://dc.lft.to/lastmile_qr_scan"}, "fusion_lon": 0.0, "lat": 38.918774166666665, "is_disabled": 0, "bike_id": "2c762ea161a5ba537b66dc80b138a365", "fusion_lat": 0.0, "is_reserved": 0, "lon": -77.04183166666667},