{"data": {"bikes": [{"name": "425df669f6a4b9c8a91f91bd7f8463dd", "fusion_lat": 0.0, "type": "electric_scooter", "lat": 38.86663766666667, "is_reserved": 0, "is_disabled": 0, "fusion_lon": 0.0, "bike_id": "425df669f6a4b9c8a91f91bd7f8463dd", "lon": -76.98887833333333, "rental_uris": {"ios": "https://dc.lft.to/lastmile_qr_scan", "android": "https://dc.lft.to/lastmile_qr_scan"}}, {"name": "e181204ec418722c892e62291b5f0dd6", "fusion_lat": 0.0, "type": "electric_bike", "lat": 38.9555975, "is_reserved": 0, "is_disabled": 0, "fusion_lon": 0.0, "bike_id": "e181204ec418722c892e62291b5f0dd6", "lon": -77.070875, "rental_uris": {"ios": "https://dc.lft.to/lastmile_qr_scan", "android": "https://dc.lft.to/lastmile_qr_scan"}}, {"name": "12d99bf02d77e51bd5dd346d77e6ebe7", "fusion_lat": 0.0, "type": "electric_scooter", "lat": 38.90574, "is_reserved": 0, "is_disabled": 0, "fusion_lon": 0.0, "bike_id": "12d99bf02d77e51bd5dd346d77e6ebe7", "lon": -77.022078, "rental_uris": {"ios": "https://dc.lft.to/lastmile_qr_scan", "android": "https://dc.lft.to/lastmile_qr_scan"}}, {"name": "4b7905177eb73c064b437458c8bfbd36", "fusion_lat": 0.0, "type": "electric_bike", "lat": 38.94274033333333, "is_reserved": 0, "is_disabled": 0, "fusion_lon": 0.0, "bike_id": "4b7905177eb73c064b437458c8bfbd36", "lon": -76.98074666666666, "rental_uris": {"ios": "https://dc.lft.to/lastmile_qr_scan", "android": "https://dc.lft.to/lastmile_qr_scan"}}, {"name": "1339feb3de6843b04368d27064471899", "fusion_lat": 0.0, "type": "electric_scooter", "lat": 38.90210233333333, "is_reserved": 0, "is_disabled": 0, "fusion_lon": 0.0, "bike_id": "1339feb3de6843b04368d27064471899", "lon": -77.01503583333333, "rental_uris": {"ios": "https://dc.lft.to/lastmile_qr_scan", "android": "https://dc.lft.to/lastmile_qr_scan"}}, {"name": "7a43b302cd0f5204aa33d1d1e8f87b47", "fusion_lat": 0.0, "type": "electric_scooter", "lat": 38.8861215, "is_reserved": 0, "is_disabled": 0, "fusion_lon": 0.0, "bike_id": "7a43b302cd0f5204aa33d1d1e8f87b47", "lon": -77.01968566666666, "rental_uris": {"ios": "https://dc.lft.to/lastmile_qr_scan", "android": "https://dc.lft.to/lastmile_qr_scan"}}, {"name": "79d65a39e9314de02d55b007610b0642", "fusion_lat": 0.0, "type": "electric_bike", "lat": 38.87480566666667, "is_reserved": 0, "is_disabled": 0, "fusion_lon": 0.0, "bike_id": "79d65a39e9314de02d55b007610b0642", "lon": -76.96530633333333, "rental_uris": {"ios": "https://dc.lft.to/lastmile_qr_scan", "android": "https://dc.lft.to/lastmile_qr_scan"}}, {"name": "f2b6ab4f23b63d53ee52e5330e99c63a", "fusion_lat": 0.0, "type": "electric_scooter", "lat": 38.921783166666664, "is_reserved": 0, "is_disabled": 0, "fusion_lon": 0.0, "bike_id": "f2b6ab4f23b63d53ee52e5330e99c63a", "lon": -77.02663366666667, "rental_uris": {"ios": "https://dc.lft.to/lastmile_qr_scan", "android": "https://dc.lft.to/lastmile_qr_scan"}}, {"name": "73bdb04b13120f97b7f40a7b5e50705a", "fusion_lat": 0.0, "type": "electric_scooter", "lat": 38.931501833333336, "is_reserved": 0, "is_disabled": 0, "fusion_lon": 0.0, "bike_id": "73bdb04b13120f97b7f40a7b5e50705a", "lon": -77.03879316666666, "rental_uris": {"ios": "https://dc.lft.to/lastmile_qr_scan", "android": "https://dc.lft.to/lastmile_qr_scan"}}, {"name": "7563e6310cf0c3a44ab35ac7037d4560", "fusion_lat": 0.0, "type": "electric_scooter", "lat": 38.917826, "is_reserved": 0, "is_disabled": 0, "fusion_lon": 0.0, "bike_id": "7563e6310cf0c3a44ab35ac7037d4560", "lon": -77.02344416666666, "rental_uris": {"ios": "https://dc.lft.to/lastmile_qr_scan", "android": "https://dc.lft.to/lastmile_qr_scan"}}, {"name": "88a1069404b1fe45c8565790cf9575ae", "fusion_lat": 0.0, "type": "electric_scooter", "lat": 38.892228833333334, "is_reserved": 0, "is_disabled": 0, "fusion_lon": 0.0, "bike_id": "88a1069404b1fe45c8565790cf9575ae", "lon": -77.02230216666666, "rental_uris": {"ios": "https://dc.lft.to/lastmile_qr_scan", "android": "https://dc.lft.to/lastmile_qr_scan"}}, {"name": "e65546d899267c5b69bdb7c6c1a9b0ab", "fusion_lat": 0.0, "type": "electric_scooter", "lat": 38.87576883333333, "is_reserved": 0, "is_disabled": 0, "fusion_lon": 0.0, "bike_id": "e65546d899267c5b69bdb7c6c1a9b0ab", "lon": -77.01054933333333, "rental_uris": {"ios": "https://dc.lft.to/lastmile_qr_scan", "android": "https://dc.lft.to/lastmile_qr_scan"}}, {"name": "cf756947156da26c69ceab266d96851b", "fusion_lat": 0.0, "type": "electric_scooter", "lat": 38.8837955, "is_reserved": 0, "is_disabled": 0, "fusion_lon": 0.0, "bike_id": "cf756947156da26c69ceab266d96851b", "lon": -77.0261975, "rental_uris": {"ios": "https://dc.lft.to/lastmile_qr_scan", "android": "https://dc.lft.to/lastmile_qr_scan"}}, {"name": "a14f13a72256f6422da9d135c9ecbe2d", "fusion_lat": 0.0, "type": "electric_scooter", "lat": 38.918054, "is_reserved": 0, "is_disabled": 0, "fusion_lon": 0.0, "bike_id": "a14f13a72256f6422da9d135c9ecbe2d", "lon": -77.02816516666667, "rental_uris": {"ios": "https://dc.lft.to/lastmile_qr_scan", "android": "https://dc.lft.to/lastmile_qr_scan"}}, {"name": "795beb3a6df071c436afe4e50a5c3884", "fusion_lat": 0.0, "type": "electric_scooter", "lat": 38.907001666666666, "is_reserved": 0, "is_disabled": 0, "fusion_lon": 0.0, "bike_id": "795beb3a6df071c436afe4e50a5c3884", "lon": -77.023868, "rental_uris": {"ios": "https://dc.lft.to/lastmile_qr_scan", "android": "https://dc.lft.to/lastmile_qr_scan"}}, {"name": "ed9e555f1fa9cf9d7273b3dbe6c50de2", "fusion_lat": 0.0, "type": "electric_scooter", "lat": 38.92063516666666, "is_reserved": 0, "is_disabled": 0, "fusion_lon": 0.0, "bike_id": "ed9e555f1fa9cf9d7273b3dbe6c50de2", "lon": -77.042485, "rental_uris": {"ios": "https://dc.lft.to/lastmile_qr_scan", "android": "https://dc.lft.to/lastmile_qr_scan"}}, {"name": "8d72354c2788d496c41b4da1494f97f2", "fusion_lat": 0.0, "type": "electric_scooter", "lat": 38.907190166666666, "is_reserved": 0, "is_disabled": 0, "fusion_lon": 0.0, "bike_id": "8d72354c2788d496c41b4da1494f97f2", "lon": -77.03444583333334, "rental_uris": {"ios": "https://dc.lft.to/lastmile_qr_scan", "android": "https://dc.lft.to/lastmile_qr_scan"}}, {"name": "55209ce3df00697acd4498df8586934a", "fusion_lat": 0.0, "type": "electric_scooter", "lat": 38.92744033333334, "is_reserved": 0, "is_disabled": 0, "fusion_lon": 0.0, "bike_id": "55209ce3df00697acd4498df8586934a", "lon": -77.03477116666667, "rental_uris": {"ios": "https://dc.lft.to/lastmile_qr_scan", "android": "https://dc.lft.to/lastmile_qr_scan"}}, {"name": "566c96a86fac53dfb15f008216327d94", "fusion_lat": 0.0, "type": "electric_scooter", "lat": 38.9423465, "is_reserved": 0, "is_disabled": 0, "fusion_lon": 0.0, "bike_id": "566c96a86fac53dfb15f008216327d94", "lon": -77.0215685, "rental_uris": {"ios": "https://dc.lft.to/lastmile_qr_scan", "android": "https://dc.lft.to/lastmile_qr_scan"}}, {"name": "3acdc5e38d9b041a75a0e0a6c8d931be", "fusion_lat": 0.0, "type": "electric_bike", "lat": 38.80753816666667, "is_reserved": 0, "is_disabled": 0, "fusion_lon": 0.0, "bike_id": "3acdc5e38d9b041a75a0e0a6c8d931be", "lon": -77.09453533333334, "rental_uris": {"ios": "https://dc.lft.to/lastmile_qr_scan", "android": "https://dc.lft.to/lastmile_qr_scan"}}, {"name": "fa875a74ee5029ac3490a18afaf7fde5", "fusion_lat": 0.0, "type": "electric_scooter", "lat": 38.92054983333333, "is_reserved": 0, "is_disabled": 0, "fusion_lon": 0.0, "bike_id": "fa875a74ee5029ac3490a18afaf7fde5", "lon": -76.9988725, "rental_uris": {"ios": "https://dc.lft.to/lastmile_qr_scan", "android": "https://dc.lft.to/lastmile_qr_scan"}}, {"name": "feac4459743624fcb389c2c0d4a786f6", "fusion_lat": 0.0, "type": "electric_scooter", "lat": 38.927303, "is_reserved": 0, "is_disabled": 0, "fusion_lon": 0.0, "bike_id": "feac4459743624fcb389c2c0d4a786f6", "lon": -77.035224, "rental_uris": {"ios": "https://dc.lft.to/lastmile_qr_scan", "android": "https://dc.lft.to/lastmile_qr_scan"}}, {"name": "a39ca940ea25929899a03e5e61eb9daa", "fusion_lat": 0.0, "type": "electric_scooter", "lat": 38.884194666666666, "is_reserved": 0, "is_disabled": 0, "fusion_lon": 0.0, "bike_id": "a39ca940ea25929899a03e5e61eb9daa", "lon": -77.01727133333333, "rental_uris": {"ios": "https://dc.lft.to/lastmile_qr_scan", "android": "https://dc.lft.to/lastmile_qr_scan"}}, {"name": "a27a618fa83055c4a34a02a138899b90", "fusion_lat": 0.0, "type": "electric_scooter", "lat": 38.911504, "is_reserved": 0, "is_disabled": 0, "fusion_lon": 0.0, "bike_id": "a27a618fa83055c4a34a02a138899b90", "lon": -77.01685983333333, "rental_uris": {"ios": "https://dc.lft.to/lastmile_qr_scan", "android": "https://dc.lft.to/lastmile_qr_scan"}}, {"name": "afd52697a7ed0657696bde5cf0419ec4", "fusion_lat": 0.0, "type": "electric_scooter", "lat": 38.929362, "is_reserved": 0, "is_disabled": 0, "fusion_lon": 0.0, "bike_id": "afd52697a7ed0657696bde5cf0419ec4", "lon": -77.03650266666666, "rental_uris": {"ios": "https://dc.lft.to/lastmile_qr_scan", "android": "https://dc.lft.to/lastmile_qr_scan"}}, {"name": "fec948a2f7cedbab37366a79133d7f64", "fusion_lat": 0.0, "type": "electric_scooter", "lat": 38.90271883333333, "is_reserved": 0, "is_disabled": 0, "fusion_lon": 0.0, "bike_id": "fec948a2f7cedbab37366a79133d7f64", "lon": -77.00213833333333, "rental_uris": {"ios": "https://dc.lft.to/lastmile_qr_scan", "android": "https://dc.lft.to/lastmile_qr_scan"}}, {"name": "b862877b30d983650c0e09de9755d900", "fusion_lat": 0.0, "type": "electric_scooter", "lat": 38.922406, "is_reserved": 0, "is_disabled": 0, "fusion_lon": 0.0, "bike_id": "b862877b30d983650c0e09de9755d900", "lon": -77.07315116666666, "rental_uris": {"ios": "https://dc.lft.to/lastmile_qr_scan", "android": "https://dc.lft.to/lastmile_qr_scan"}}, {"name": "5cd254bf3d8ac72d406675601ecc434e", "fusion_lat": 0.0, "type": "electric_scooter", "lat": 38.91328983333333, "is_reserved": 0, "is_disabled": 0, "fusion_lon": 0.0, "bike_id": "5cd254bf3d8ac72d406675601ecc434e", "lon": -77.03183733333333, "rental_uris": {"ios": "https://dc.lft.to/lastmile_qr_scan", "android": "https://dc.lft.to/lastmile_qr_scan"}}, {"name": "9497aee83bd6a24d416b6a4edb8d0694", "fusion_lat": 0.0, "type": "electric_scooter", "lat": 38.89771616666667, "is_reserved": 0, "is_disabled": 0, "fusion_lon": 0.0, "bike_id": "9497aee83bd6a24d416b6a4edb8d0694", "lon": -77.05148, "rental_uris": {"ios": "https://dc.lft.to/lastmile_qr_scan", "android": "https://dc.lft.to/lastmile_qr_scan"}}, {"name": "01a71c9c417449b4d3ce69b2fd74541c", "fusion_lat": 0.0, "type": "electric_scooter", "lat": 38.8784085, "is_reserved": 0, "is_disabled": 0, "fusion_lon": 0.0, "bike_id": "01a71c9c417449b4d3ce69b2fd74541c", "lon": -77.00037383333333, "rental_uris": {"ios": "https://dc.lft.to/lastmile_qr_scan", "android": "https://dc.lft.to/lastmile_qr_scan"}}, {"name": "19ec5336fdbccfbf2ae8a18764c68559", "fusion_lat": 0.0, "type": "electric_scooter", "lat": 38.90264766666667, "is_reserved": 0, "is_disabled": 0, "fusion_lon": 0.0, "bike_id": "19ec5336fdbccfbf2ae8a18764c68559", "lon": -77.017439, "rental_uris": {"ios": "https://dc.lft.to/lastmile_qr_scan", "android": "https://dc.lft.to/lastmile_qr_scan"}}, {"name": "2494eb66662c86dfbe7e192a8478f2a7", "fusion_lat": 0.0, "type": "electric_scooter", "lat": 38.91695, "is_reserved": 0, "is_disabled": 0, "fusion_lon": 0.0, "bike_id": "2494eb66662c86dfbe7e192a8478f2a7", "lon": -77.02897616666667, "rental_uris": {"ios": "https://dc.lft.to/lastmile_qr_scan", "android": "https://dc.lft.to/lastmile_qr_scan"}}, {"name": "059c2bc01339950a3a7dbf43492063f0", "fusion_lat": 0.0, "type": "electric_scooter", "lat": 38.920896166666665, "is_reserved": 0, "is_disabled": 0, "fusion_lon": 0.0, "bike_id": "059c2bc01339950a3a7dbf43492063f0", "lon": -77.07560433333333, "rental_uris": {"ios": "https://dc.lft.to/lastmile_qr_scan", "android": "https://dc.lft.to/lastmile_qr_scan"}}, {"name": "be03241fab0c919cd26d6349118da2c9", "fusion_lat": 0.0, "type": "electric_scooter", "lat": 38.901293833333334, "is_reserved": 0, "is_disabled": 0, "fusion_lon": 0.0, "bike_id": "be03241fab0c919cd26d6349118da2c9", "lon": -77.032099, "rental_uris": {"ios": "https://dc.lft.to/lastmile_qr_scan", "android": "https://dc.lft.to/lastmile_qr_scan"}}, {"name": "c4968cec03f60a84147dc116566236c3", "fusion_lat": 0.0, "type": "electric_scooter", "lat": 38.8621685, "is_reserved": 0, "is_disabled": 0, "fusion_lon": 0.0, "bike_id": "c4968cec03f60a84147dc116566236c3", "lon": -76.97358133333333, "rental_uris": {"ios": "https://dc.lft.to/lastmile_qr_scan", "android": "https://dc.lft.to/lastmile_qr_scan"}}, {"name": "c4d06968e34206151c606553ff4b6b0c", "fusion_lat": 0.0, "type": "electric_scooter", "lat": 38.90871716666667, "is_reserved": 0, "is_disabled": 0, "fusion_lon": 0.0, "bike_id": "c4d06968e34206151c606553ff4b6b0c", "lon": -77.045046, "rental_uris": {"ios": "https://dc.lft.to/lastmile_qr_scan", "android": "https://dc.lft.to/lastmile_qr_scan"}}, {"name": "06131c2efd16dc0171c10f9c34327a65", "fusion_lat": 0.0, "type": "electric_scooter", "lat": 38.90851933333333, "is_reserved": 0, "is_disabled": 0, "fusion_lon": 0.0, "bike_id": "06131c2efd16dc0171c10f9c34327a65", "lon": -77.03279366666666, "rental_uris": {"ios": "https://dc.lft.to/lastmile_qr_scan", "android": "https://dc.lft.to/lastmile_qr_scan"}}, {"name": "ccb1ad42c66c5b79c2bceb4e7b2fd386", "fusion_lat": 0.0, "type": "electric_scooter", "lat": 38.890900333333335, "is_reserved": 0, "is_disabled": 0, "fusion_lon": 0.0, "bike_id": "ccb1ad42c66c5b79c2bceb4e7b2fd386", "lon": -76.997881, "rental_uris": {"ios": "https://dc.lft.to/lastmile_qr_scan", "android": "https://dc.lft.to/lastmile_qr_scan"}}, {"name": "a0a37c7941a1f27d86443f399e46af9e", "fusion_lat": 0.0, "type": "electric_scooter", "lat": 38.90033316666667, "is_reserved": 0, "is_disabled": 0, "fusion_lon": 0.0, "bike_id": "a0a37c7941a1f27d86443f399e46af9e", "lon": -77.0298485, "rental_uris": {"ios": "https://dc.lft.to/lastmile_qr_scan", "android": "https://dc.lft.to/lastmile_qr_scan"}}, {"name": "55cd45c2ea40a79e313829a38a50f9c9", "fusion_lat": 0.0, "type": "electric_scooter", "lat": 38.89737383333333, "is_reserved": 0, "is_disabled": 0, "fusion_lon": 0.0, "bike_id": "55cd45c2ea40a79e313829a38a50f9c9", "lon": -77.047258, "rental_uris": {"ios": "https://dc.lft.to/lastmile_qr_scan", "android": "https://dc.lft.to/lastmile_qr_scan"}}, {"name": "4df9d933ada9b8092ed72732d437740b", "fusion_lat": 0.0, "type": "electric_bike", "lat": 38.92845616666666, "is_reserved": 0, "is_disabled": 0, "fusion_lon": 0.0, "bike_id": "4df9d933ada9b8092ed72732d437740b", "lon": -77.10503733333333, "rental_uris": {"ios": "https://dc.lft.to/lastmile_qr_scan", "android": "https://dc.lft.to/lastmile_qr_scan"}}, {"name": "8c6c95f2d1f392475049ecd719e8a399", "fusion_lat": 0.0, "type": "electric_scooter", "lat": 38.92432766666667, "is_reserved": 0, "is_disabled": 0, "fusion_lon": 0.0, "bike_id": "8c6c95f2d1f392475049ecd719e8a399", "lon": -77.041295, "rental_uris": {"ios": "https://dc.lft.to/lastmile_qr_scan", "android": "https://dc.lft.to/lastmile_qr_scan"}}, {"name": "5e78d33a76fba6701e948ef1a5ef666a", "fusion_lat": 0.0, "type": "electric_bike", "lat": 38.965506833333336, "is_reserved": 0, "is_disabled": 0, "fusion_lon": 0.0, "bike_id": "5e78d33a76fba6701e948ef1a5ef666a", "lon": -77.03511683333333, "rental_uris": {"ios": "https://dc.lft.to/lastmile_qr_scan", "android": "https://dc.lft.to/lastmile_qr_scan"}}, {"name": "0dc4c365a40b55a2ec11ca905f31d5bd", "fusion_lat": 0.0, "type": "electric_scooter", "lat": 38.92062283333333, "is_reserved": 0, "is_disabled": 0, "fusion_lon": 0.0, "bike_id": "0dc4c365a40b55a2ec11ca905f31d5bd", "lon": -77.04701983333334, "rental_uris": {"ios": "https://dc.lft.to/lastmile_qr_scan", "android": "https://dc.lft.to/lastmile_qr_scan"}}, {"name": "0698e99d812773a5442551169907b6cc", "fusion_lat": 0.0, "type": "electric_scooter", "lat": 38.919917833333336, "is_reserved": 0, "is_disabled": 0, "fusion_lon": 0.0, "bike_id": "0698e99d812773a5442551169907b6cc", "lon": -77.03319, "rental_uris": {"ios": "https://dc.lft.to/lastmile_qr_scan", "android": "https://dc.lft.to/lastmile_qr_scan"}}, {"name": "d402fa8fb3ea48cf014a7ab01f5cd1aa", "fusion_lat": 0.0, "type": "electric_scooter", "lat": 38.931717166666665, "is_reserved": 0, "is_disabled": 0, "fusion_lon": 0.0, "bike_id": "d402fa8fb3ea48cf014a7ab01f5cd1aa", "lon": -77.05615433333334, "rental_uris": {"ios": "https://dc.lft.to/lastmile_qr_scan", "android": "https://dc.lft.to/lastmile_qr_scan"}}, {"name": "d0ab0d8e0c7a13d48af0b27d539cd390", "fusion_lat": 0.0, "type": "electric_scooter", "lat": 38.906692666666665, "is_reserved": 0, "is_disabled": 0, "fusion_lon": 0.0, "bike_id": "d0ab0d8e0c7a13d48af0b27d539cd390", "lon": -77.0271375, "rental_uris": {"ios": "https://dc.lft.to/lastmile_qr_scan", "android": "https://dc.lft.to/lastmile_qr_scan"}}, {"name": "7a1d1aec909ea93474478b4bad00af59", "fusion_lat": 0.0, "type": "electric_scooter", "lat": 38.9168145, "is_reserved": 0, "is_disabled": 0, "fusion_lon": 0.0, "bike_id": "7a1d1aec909ea93474478b4bad00af59", "lon": -77.0321985, "rental_uris": {"ios": "https://dc.lft.to/lastmile_qr_scan", "android": "https://dc.lft.to/lastmile_qr_scan"}}, {"name": "38e3553a517020e076486ce4983d5613", "fusion_lat": 0.0, "type": "electric_bike", "lat": 38.922956, "is_reserved": 0, "is_disabled": 0, "fusion_lon": 0.0, "bike_id": "38e3553a517020e076486ce4983d5613", "lon": -76.99373216666666, "rental_uris": {"ios": "https://dc.lft.to/lastmile_qr_scan", "android": "https://dc.lft.to/lastmile_qr_scan"}}, {"name": "4d2885194cd9e71f9128f1e77d1335db", "fusion_lat": 0.0, "type": "electric_scooter", "lat": 38.91678783333333, "is_reserved": 0, "is_disabled": 0, "fusion_lon": 0.0, "bike_id": "4d2885194cd9e71f9128f1e77d1335db", "lon": -77.0297245, "rental_uris": {"ios": "https://dc.lft.to/lastmile_qr_scan", "android": "https://dc.lft.to/lastmile_qr_scan"}}, {"name": "dd43613fff8c4121da1c1cfb5e28868e", "fusion_lat": 0.0, "type": "electric_scooter", "lat": 38.896273666666666, "is_reserved": 0, "is_disabled": 0, "fusion_lon": 0.0, "bike_id": "dd43613fff8c4121da1c1cfb5e28868e", "lon": -77.02377083333333, "rental_uris": {"ios": "https://dc.lft.to/lastmile_qr_scan", "android": "https://dc.lft.to/lastmile_qr_scan"}}, {"name": "b0ae7716ff31f9aaf50b6a4ba81627ad", "fusion_lat": 0.0, "type": "electric_scooter", "lat": 38.8951985, "is_reserved": 0, "is_disabled": 0, "fusion_lon": 0.0, "bike_id": "b0ae7716ff31f9aaf50b6a4ba81627ad", "lon": -76.949272, "rental_uris": {"ios": "https://dc.lft.to/lastmile_qr_scan", "android": "https://dc.lft.to/lastmile_qr_scan"}}, {"name": "7525c5fbc14f1acbcaed4fda1632b63c", "fusion_lat": 0.0, "type": "electric_scooter", "lat": 38.876475166666665, "is_reserved": 0, "is_disabled": 0, "fusion_lon": 0.0, "bike_id": "7525c5fbc14f1acbcaed4fda1632b63c", "lon": -76.96504433333334, "rental_uris": {"ios": "https://dc.lft.to/lastmile_qr_scan", "android": "https://dc.lft.to/lastmile_qr_scan"}}, {"name": "6a9dd629b0b44bf7d15aa5d227690108", "fusion_lat": 0.0, "type": "electric_scooter", "lat": 38.896064333333335, "is_reserved": 0, "is_disabled": 0, "fusion_lon": 0.0, "bike_id": "6a9dd629b0b44bf7d15aa5d227690108", "lon": -77.04116233333333, "rental_uris": {"ios": "https://dc.lft.to/lastmile_qr_scan", "android": "https://dc.lft.to/lastmile_qr_scan"}}, {"name": "aac6ad5b298e9cfc2b012830f57163ae", "fusion_lat": 0.0, "type": "electric_bike", "lat": 38.89559533333333, "is_reserved": 0, "is_disabled": 0, "fusion_lon": 0.0, "bike_id": "aac6ad5b298e9cfc2b012830f57163ae", "lon": -77.1273285, "rental_uris": {"ios": "https://dc.lft.to/lastmile_qr_scan", "android": "https://dc.lft.to/lastmile_qr_scan"}}, {"name": "d2b475668c9c8ff9464471156a505bf8", "fusion_lat": 0.0, "type": "electric_bike", "lat": 39.105658166666664, "is_reserved": 0, "is_disabled": 0, "fusion_lon": 0.0, "bike_id": "d2b475668c9c8ff9464471156a505bf8", "lon": -77.1526835, "rental_uris": {"ios": "https://dc.lft.to/lastmile_qr_scan", "android": "https://dc.lft.to/lastmile_qr_scan"}}, {"name": "e9bb7062e386a249f9134c6e01245f27", "fusion_lat": 0.0, "type": "electric_scooter", "lat": 38.912964333333335, "is_reserved": 0, "is_disabled": 0, "fusion_lon": 0.0, "bike_id": "e9bb7062e386a249f9134c6e01245f27", "lon": -77.029662, "rental_uris": {"ios": "https://dc.lft.to/lastmile_qr_scan", "android": "https://dc.lft.to/lastmile_qr_scan"}}, {"name": "89ae9ca8431b7e3c3d547eb52ea6442c", "fusion_lat": 0.0, "type": "electric_scooter", "lat": 38.918191666666665, "is_reserved": 0, "is_disabled": 0, "fusion_lon": 0.0, "bike_id": "89ae9ca8431b7e3c3d547eb52ea6442c", "lon": -77.0025895, "rental_uris": {"ios": "https://dc.lft.to/lastmile_qr_scan", "android": "https://dc.lft.to/lastmile_qr_scan"}}, {"name": "4aa73d29c6be09c79ee1a01d14b741f8", "fusion_lat": 0.0, "type": "electric_scooter", "lat": 38.895850833333334, "is_reserved": 0, "is_disabled": 0, "fusion_lon": 0.0, "bike_id": "4aa73d29c6be09c79ee1a01d14b741f8", "lon": -77.04332433333333, "rental_uris": {"ios": "https://dc.lft.to/lastmile_qr_scan", "android": "https://dc.lft.to/lastmile_qr_scan"}}, {"name": "b7f85a84e245a9cb3478cbe4cd7e8059", "fusion_lat": 0.0, "type": "electric_scooter", "lat": 38.93056766666667, "is_reserved": 0, "is_disabled": 0, "fusion_lon": 0.0, "bike_id": "b7f85a84e245a9cb3478cbe4cd7e8059", "lon": -77.02321633333334, "rental_uris": {"ios": "https://dc.lft.to/lastmile_qr_scan", "android": "https://dc.lft.to/lastmile_qr_scan"}}, {"name": "50476110f04b3ffb2a432ec12fa4378b", "fusion_lat": 0.0, "type": "electric_bike", "lat": 38.95304083333333, "is_reserved": 0, "is_disabled": 0, "fusion_lon": 0.0, "bike_id": "50476110f04b3ffb2a432ec12fa4378b", "lon": -77.02508666666667, "rental_uris": {"ios": "https://dc.lft.to/lastmile_qr_scan", "android": "https://dc.lft.to/lastmile_qr_scan"}}, {"name": "393b2a133629bf6731e3a66965f0f0bf", "fusion_lat": 0.0, "type": "electric_bike", "lat": 38.93578933333333, "is_reserved": 0, "is_disabled": 0, "fusion_lon": 0.0, "bike_id": "393b2a133629bf6731e3a66965f0f0bf", "lon": -77.1069025, "rental_uris": {"ios": "https://dc.lft.to/lastmile_qr_scan", "android": "https://dc.lft.to/lastmile_qr_scan"}}, {"name": "670e49fd5d2aa0e15a95751737bdf47d", "fusion_lat": 0.0, "type": "electric_scooter", "lat": 38.937415, "is_reserved": 0, "is_disabled": 0, "fusion_lon": 0.0, "bike_id": "670e49fd5d2aa0e15a95751737bdf47d", "lon": -77.03263416666667, "rental_uris": {"ios": "https://dc.lft.to/lastmile_qr_scan", "android": "https://dc.lft.to/lastmile_qr_scan"}}, {"name": "0e49165c62a0febd514a7b06364265cd", "fusion_lat": 0.0, "type": "electric_scooter", "lat": 38.9255095, "is_reserved": 0, "is_disabled": 0, "fusion_lon": 0.0, "bike_id": "0e49165c62a0febd514a7b06364265cd", "lon": -77.032663, "rental_uris": {"ios": "https://dc.lft.to/lastmile_qr_scan", "android": "https://dc.lft.to/lastmile_qr_scan"}}, {"name": "7cf70ee9a4818a776f4d2e0097a079ee", "fusion_lat": 0.0, "type": "electric_scooter", "lat": 38.89975066666667, "is_reserved": 0, "is_disabled": 0, "fusion_lon": 0.0, "bike_id": "7cf70ee9a4818a776f4d2e0097a079ee", "lon": -77.0190785, "rental_uris": {"ios": "https://dc.lft.to/lastmile_qr_scan", "android": "https://dc.lft.to/lastmile_qr_scan"}}, {"name": "c9a58aba550689b35b1c73007edc5ef0", "fusion_lat": 0.0, "type": "electric_scooter", "lat": 38.9119055, "is_reserved": 0, "is_disabled": 0, "fusion_lon": 0.0, "bike_id": "c9a58aba550689b35b1c73007edc5ef0", "lon": -77.03214, "rental_uris": {"ios": "https://dc.lft.to/lastmile_qr_scan", "android": "https://dc.lft.to/lastmile_qr_scan"}}, {"name": "97fb6ce0c2a6d2b03a75604071538d38", "fusion_lat": 0.0, "type": "electric_scooter", "lat": 38.90274766666667, "is_reserved": 0, "is_disabled": 0, "fusion_lon": 0.0, "bike_id": "97fb6ce0c2a6d2b03a75604071538d38", "lon": -77.04262633333333, "rental_uris": {"ios": "https://dc.lft.to/lastmile_qr_scan", "android": "https://dc.lft.to/lastmile_qr_scan"}}, {"name": "32b5925071e42d180a61458f1997480a", "fusion_lat": 0.0, "type": "electric_scooter", "lat": 38.905248, "is_reserved": 0, "is_disabled": 0, "fusion_lon": 0.0, "bike_id": "32b5925071e42d180a61458f1997480a", "lon": -77.066759, "rental_uris": {"ios": "https://dc.lft.to/lastmile_qr_scan", "android": "https://dc.lft.to/lastmile_qr_scan"}}, {"name": "fe67966f1339ccb1d666f6e35c7681a6", "fusion_lat": 0.0, "type": "electric_scooter", "lat": 38.94465816666667, "is_reserved": 0, "is_disabled": 0, "fusion_lon": 0.0, "bike_id": "fe67966f1339ccb1d666f6e35c7681a6", "lon": -77.00657933333333, "rental_uris": {"ios": "https://dc.lft.to/lastmile_qr_scan", "android": "https://dc.lft.to/lastmile_qr_scan"}}, {"name": "ade159f10b29a7b91b12f93a2f7df50a", "fusion_lat": 0.0, "type": "electric_scooter", "lat": 38.877053333333336, "is_reserved": 0, "is_disabled": 0, "fusion_lon": 0.0, "bike_id": "ade159f10b29a7b91b12f93a2f7df50a", "lon": -77.0176455, "rental_uris": {"ios": "https://dc.lft.to/lastmile_qr_scan", "android": "https://dc.lft.to/lastmile_qr_scan"}}, {"name": "10437c79087c85d6fe7fad633813d878", "fusion_lat": 0.0, "type": "electric_scooter", "lat": 38.9125225, "is_reserved": 0, "is_disabled": 0, "fusion_lon": 0.0, "bike_id": "10437c79087c85d6fe7fad633813d878", "lon": -77.00766966666667, "rental_uris": {"ios": "https://dc.lft.to/lastmile_qr_scan", "android": "https://dc.lft.to/lastmile_qr_scan"}}, {"name": "69bdc6aac8da91b6f0c7f53e986dedbe", "fusion_lat": 0.0, "type": "electric_scooter", "lat": 38.883439833333334, "is_reserved": 0, "is_disabled": 0, "fusion_lon": 0.0, "bike_id": "69bdc6aac8da91b6f0c7f53e986dedbe", "lon": -76.936429, "rental_uris": {"ios": "https://dc.lft.to/lastmile_qr_scan", "android": "https://dc.lft.to/lastmile_qr_scan"}}, {"name": "7dcfc9f1ac2cc6521cbe4f409ba1395d", "fusion_lat": 0.0, "type": "electric_scooter", "lat": 38.899481, "is_reserved": 0, "is_disabled": 0, "fusion_lon": 0.0, "bike_id": "7dcfc9f1ac2cc6521cbe4f409ba1395d", "lon": -77.02804216666667, "rental_uris": {"ios": "https://dc.lft.to/lastmile_qr_scan", "android": "https://dc.lft.to/lastmile_qr_scan"}}, {"name": "7b067181510cd89d40195630f96068d6", "fusion_lat": 0.0, "type": "electric_scooter", "lat": 38.927049333333336, "is_reserved": 0, "is_disabled": 0, "fusion_lon": 0.0, "bike_id": "7b067181510cd89d40195630f96068d6", "lon": -77.03728133333334, "rental_uris": {"ios": "https://dc.lft.to/lastmile_qr_scan", "android": "https://dc.lft.to/lastmile_qr_scan"}}, {"name": "f6a5ad64986d433e28a5e49c86751e5b", "fusion_lat": 0.0, "type": "electric_bike", "lat": 38.883465, "is_reserved": 0, "is_disabled": 0, "fusion_lon": 0.0, "bike_id": "f6a5ad64986d433e28a5e49c86751e5b", "lon": -77.18294666666667, "rental_uris": {"ios": "https://dc.lft.to/lastmile_qr_scan", "android": "https://dc.lft.to/lastmile_qr_scan"}}, {"name": "6f8458a866ab62650ce91374117d2854", "fusion_lat": 0.0, "type": "electric_scooter", "lat": 38.885917166666665, "is_reserved": 0, "is_disabled": 0, "fusion_lon": 0.0, "bike_id": "6f8458a866ab62650ce91374117d2854", "lon": -77.02206916666667, "rental_uris": {"ios": "https://dc.lft.to/lastmile_qr_scan", "android": "https://dc.lft.to/lastmile_qr_scan"}}, {"name": "d0433b086cfee930f8b2bcadfd59cf51", "fusion_lat": 0.0, "type": "electric_scooter", "lat": 38.9272615, "is_reserved": 0, "is_disabled": 0, "fusion_lon": 0.0, "bike_id": "d0433b086cfee930f8b2bcadfd59cf51", "lon": -77.0714435, "rental_uris": {"ios": "https://dc.lft.to/lastmile_qr_scan", "android": "https://dc.lft.to/lastmile_qr_scan"}}, {"name": "f28ddcf5405482b3474550b875a8a558", "fusion_lat": 0.0, "type": "electric_scooter", "lat": 38.92889666666667, "is_reserved": 0, "is_disabled": 0, "fusion_lon": 0.0, "bike_id": "f28ddcf5405482b3474550b875a8a558", "lon": -77.0545, "rental_uris": {"ios": "https://dc.lft.to/lastmile_qr_scan", "android": "https://dc.lft.to/lastmile_qr_scan"}}, {"name": "880cdc48ccb7e51a4a5e04e23aa03bef", "fusion_lat": 0.0, "type": "electric_scooter", "lat": 38.9200795, "is_reserved": 0, "is_disabled": 0, "fusion_lon": 0.0, "bike_id": "880cdc48ccb7e51a4a5e04e23aa03bef", "lon": -77.08186333333333, "rental_uris": {"ios": "https://dc.lft.to/lastmile_qr_scan", "android": "https://dc.lft.to/lastmile_qr_scan"}}, {"name": "de70d978f2fbcb1f2f9f43915a2412b3", "fusion_lat": 0.0, "type": "electric_bike", "lat": 38.8972275, "is_reserved": 0, "is_disabled": 0, "fusion_lon": 0.0, "bike_id": "de70d978f2fbcb1f2f9f43915a2412b3", "lon": -77.019139, "rental_uris": {"ios": "https://dc.lft.to/lastmile_qr_scan", "android": "https://dc.lft.to/lastmile_qr_scan"}}, {"name": "3c6b40c45ac09b93ed7588f677c89a00", "fusion_lat": 0.0, "type": "electric_scooter", "lat": 38.893756, "is_reserved": 0, "is_disabled": 0, "fusion_lon": 0.0, "bike_id": "3c6b40c45ac09b93ed7588f677c89a00", "lon": -76.9499815, "rental_uris": {"ios": "https://dc.lft.to/lastmile_qr_scan", "android": "https://dc.lft.to/lastmile_qr_scan"}}, {"name": "dc2e65999ee811008fc3450524c6ba3d", "fusion_lat": 0.0, "type": "electric_scooter", "lat": 38.8960965, "is_reserved": 0, "is_disabled": 0, "fusion_lon": 0.0, "bike_id": "dc2e65999ee811008fc3450524c6ba3d", "lon": -77.04465866666666, "rental_uris": {"ios": "https://dc.lft.to/lastmile_qr_scan", "android": "https://dc.lft.to/lastmile_qr_scan"}}, {"name": "34d51d68cbc91d1934ff9049c1fc77b0", "fusion_lat": 0.0, "type": "electric_scooter", "lat": 38.902544166666665, "is_reserved": 0, "is_disabled": 0, "fusion_lon": 0.0, "bike_id": "34d51d68cbc91d1934ff9049c1fc77b0", "lon": -76.977072, "rental_uris": {"ios": "https://dc.lft.to/lastmile_qr_scan", "android": "https://dc.lft.to/lastmile_qr_scan"}}, {"name": "7c62cbcfdd7155c6784ac026abd13d3d", "fusion_lat": 0.0, "type": "electric_scooter", "lat": 38.911107666666666, "is_reserved": 0, "is_disabled": 0, "fusion_lon": 0.0, "bike_id": "7c62cbcfdd7155c6784ac026abd13d3d", "lon": -77.02463616666667, "rental_uris": {"ios": "https://dc.lft.to/lastmile_qr_scan", "android": "https://dc.lft.to/lastmile_qr_scan"}}, {"name": "5de2ea250ae2ce9f77a6091b970a4cc7", "fusion_lat": 0.0, "type": "electric_scooter", "lat": 38.90799716666667, "is_reserved": 0, "is_disabled": 0, "fusion_lon": 0.0, "bike_id": "5de2ea250ae2ce9f77a6091b970a4cc7", "lon": -77.01817983333333, "rental_uris": {"ios": "https://dc.lft.to/lastmile_qr_scan", "android": "https://dc.lft.to/lastmile_qr_scan"}}, {"name": "2b1e665f43f6bd11fa27702a0c71f527", "fusion_lat": 0.0, "type": "electric_scooter", "lat": 38.91143233333333, "is_reserved": 0, "is_disabled": 0, "fusion_lon": 0.0, "bike_id": "2b1e665f43f6bd11fa27702a0c71f527", "lon": -77.01687583333333, "rental_uris": {"ios": "https://dc.lft.to/lastmile_qr_scan", "android": "https://dc.lft.to/lastmile_qr_scan"}}, {"name": "f0a8404244b89c5273d36387c2b1f5b4", "fusion_lat": 0.0, "type": "electric_bike", "lat": 38.893473, "is_reserved": 0, "is_disabled": 0, "fusion_lon": 0.0, "bike_id": "f0a8404244b89c5273d36387c2b1f5b4", "lon": -76.99143716666667, "rental_uris": {"ios": "https://dc.lft.to/lastmile_qr_scan", "android": "https://dc.lft.to/lastmile_qr_scan"}}, {"name": "4579c56d612be69acaf14405a6138948", "fusion_lat": 0.0, "type": "electric_scooter", "lat": 38.928257333333335, "is_reserved": 0, "is_disabled": 0, "fusion_lon": 0.0, "bike_id": "4579c56d612be69acaf14405a6138948", "lon": -77.02254483333333, "rental_uris": {"ios": "https://dc.lft.to/lastmile_qr_scan", "android": "https://dc.lft.to/lastmile_qr_scan"}}, {"name": "9dd076d3c76cc98ad90a887f8b063c7d", "fusion_lat": 0.0, "type": "electric_scooter", "lat": 38.875780166666665, "is_reserved": 0, "is_disabled": 0, "fusion_lon": 0.0, "bike_id": "9dd076d3c76cc98ad90a887f8b063c7d", "lon": -77.0105725, "rental_uris": {"ios": "https://dc.lft.to/lastmile_qr_scan", "android": "https://dc.lft.to/lastmile_qr_scan"}}, {"name": "daaf5842b55517fa3c7d78ed74201197", "fusion_lat": 0.0, "type": "electric_scooter", "lat": 38.9128865, "is_reserved": 0, "is_disabled": 0, "fusion_lon": 0.0, "bike_id": "daaf5842b55517fa3c7d78ed74201197", "lon": -76.937466, "rental_uris": {"ios": "https://dc.lft.to/lastmile_qr_scan", "android": "https://dc.lft.to/lastmile_qr_scan"}}, {"name": "ec801be04a7dd0c5588d98d46fdc6ed4", "fusion_lat": 0.0, "type": "electric_scooter", "lat": 38.9296215, "is_reserved": 0, "is_disabled": 0, "fusion_lon": 0.0, "bike_id": "ec801be04a7dd0c5588d98d46fdc6ed4", "lon": -77.04109666666666, "rental_uris": {"ios": "https://dc.lft.to/lastmile_qr_scan", "android": "https://dc.lft.to/lastmile_qr_scan"}}, {"name": "a9d48415a25e8f7cd22294253d18524a", "fusion_lat": 0.0, "type": "electric_scooter", "lat": 38.914072, "is_reserved": 0, "is_disabled": 0, "fusion_lon": 0.0, "bike_id": "a9d48415a25e8f7cd22294253d18524a", "lon": -77.03951833333333, "rental_uris": {"ios": "https://dc.lft.to/lastmile_qr_scan", "android": "https://dc.lft.to/lastmile_qr_scan"}}, {"name": "19edfb1723a9d1f272b6f593c3820c1c", "fusion_lat": 0.0, "type": "electric_scooter", "lat": 38.9176725, "is_reserved": 0, "is_disabled": 0, "fusion_lon": 0.0, "bike_id": "19edfb1723a9d1f272b6f593c3820c1c", "lon": -77.096754, "rental_uris": {"ios": "https://dc.lft.to/lastmile_qr_scan", "android": "https://dc.lft.to/lastmile_qr_scan"}}, {"name": "ab406099853f9a52de4f1ae43a53fa65", "fusion_lat": 0.0, "type": "electric_scooter", "lat": 38.91991566666667, "is_reserved": 0, "is_disabled": 0, "fusion_lon": 0.0, "bike_id": "ab406099853f9a52de4f1ae43a53fa65", "lon": -77.02353933333333, "rental_uris": {"ios": "https://dc.lft.to/lastmile_qr_scan", "android": "https://dc.lft.to/lastmile_qr_scan"}}, {"name": "a0eed0b28a1d25370b46f6741a7080e0", "fusion_lat": 0.0, "type": "electric_scooter", "lat": 38.86661433333333, "is_reserved": 0, "is_disabled": 0, "fusion_lon": 0.0, "bike_id": "a0eed0b28a1d25370b46f6741a7080e0", "lon": -76.98880583333333, "rental_uris": {"ios": "https://dc.lft.to/lastmile_qr_scan", "android": "https://dc.lft.to/lastmile_qr_scan"}}, {"name": "bcd4eac2dc72ef4446427f731a87c9d4", "fusion_lat": 0.0, "type": "electric_scooter", "lat": 38.89988116666667, "is_reserved": 0, "is_disabled": 0, "fusion_lon": 0.0, "bike_id": "bcd4eac2dc72ef4446427f731a87c9d4", "lon": -77.03133966666667, "rental_uris": {"ios": "https://dc.lft.to/lastmile_qr_scan", "android": "https://dc.lft.to/lastmile_qr_scan"}}, {"name": "477ff611e98d063ad33c7a1daa5f6995", "fusion_lat": 0.0, "type": "electric_scooter", "lat": 38.930636166666666, "is_reserved": 0, "is_disabled": 0, "fusion_lon": 0.0, "bike_id": "477ff611e98d063ad33c7a1daa5f6995", "lon": -77.0395585, "rental_uris": {"ios": "https://dc.lft.to/lastmile_qr_scan", "android": "https://dc.lft.to/lastmile_qr_scan"}}, {"name": "dd7e116bce74a9f4be9e193ada29a997", "fusion_lat": 0.0, "type": "electric_scooter", "lat": 38.90326116666667, "is_reserved": 0, "is_disabled": 0, "fusion_lon": 0.0, "bike_id": "dd7e116bce74a9f4be9e193ada29a997", "lon": -77.04160266666666, "rental_uris": {"ios": "https://dc.lft.to/lastmile_qr_scan", "android": "https://dc.lft.to/lastmile_qr_scan"}}, {"name": "be292c31a2b4255d20a6a6f6da4c87c6", "fusion_lat": 0.0, "type": "electric_scooter", "lat": 38.89607733333333, "is_reserved": 0, "is_disabled": 0, "fusion_lon": 0.0, "bike_id": "be292c31a2b4255d20a6a6f6da4c87c6", "lon": -77.04684533333334, "rental_uris": {"ios": "https://dc.lft.to/lastmile_qr_scan", "android": "https://dc.lft.to/lastmile_qr_scan"}}, {"name": "911fbf929b71da1aaec4ff5a1fd77950", "fusion_lat": 0.0, "type": "electric_scooter", "lat": 38.91351916666667, "is_reserved": 0, "is_disabled": 0, "fusion_lon": 0.0, "bike_id": "911fbf929b71da1aaec4ff5a1fd77950", "lon": -77.03115883333334, "rental_uris": {"ios": "https://dc.lft.to/lastmile_qr_scan", "android": "https://dc.lft.to/lastmile_qr_scan"}}, {"name": "5af1dca758b4c68ecf67c5be758e96f2", "fusion_lat": 0.0, "type": "electric_bike", "lat": 38.968341833333334, "is_reserved": 0, "is_disabled": 0, "fusion_lon": 0.0, "bike_id": "5af1dca758b4c68ecf67c5be758e96f2", "lon": -77.033353, "rental_uris": {"ios": "https://dc.lft.to/lastmile_qr_scan", "android": "https://dc.lft.to/lastmile_qr_scan"}}, {"name": "81c56667ed60f86cdbff31eb4f1fd1f5", "fusion_lat": 0.0, "type": "electric_scooter", "lat": 38.90076766666667, "is_reserved": 0, "is_disabled": 0, "fusion_lon": 0.0, "bike_id": "81c56667ed60f86cdbff31eb4f1fd1f5", "lon": -77.05202266666667, "rental_uris": {"ios": "https://dc.lft.to/lastmile_qr_scan", "android": "https://dc.lft.to/lastmile_qr_scan"}}, {"name": "3a7dd4b878a81cb40489f7001064ac4d", "fusion_lat": 0.0, "type": "electric_scooter", "lat": 38.93211083333333, "is_reserved": 0, "is_disabled": 0, "fusion_lon": 0.0, "bike_id": "3a7dd4b878a81cb40489f7001064ac4d", "lon": -77.02731316666667, "rental_uris": {"ios": "https://dc.lft.to/lastmile_qr_scan", "android": "https://dc.lft.to/lastmile_qr_scan"}}, {"name": "bcb0f7da342bb8d4801f80583637a62f", "fusion_lat": 0.0, "type": "electric_scooter", "lat": 38.917753, "is_reserved": 0, "is_disabled": 0, "fusion_lon": 0.0, "bike_id": "bcb0f7da342bb8d4801f80583637a62f", "lon": -77.02960183333333, "rental_uris": {"ios": "https://dc.lft.to/lastmile_qr_scan", "android": "https://dc.lft.to/lastmile_qr_scan"}}, {"name": "6466a97da1172dbac2b3f478031876e9", "fusion_lat": 0.0, "type": "electric_scooter", "lat": 38.895468, "is_reserved": 0, "is_disabled": 0, "fusion_lon": 0.0, "bike_id": "6466a97da1172dbac2b3f478031876e9", "lon": -77.01110133333333, "rental_uris": {"ios": "https://dc.lft.to/lastmile_qr_scan", "android": "https://dc.lft.to/lastmile_qr_scan"}}, {"name": "af72eeabb885eff90cbd68a6b7b9fa58", "fusion_lat": 0.0, "type": "electric_scooter", "lat": 38.8992775, "is_reserved": 0, "is_disabled": 0, "fusion_lon": 0.0, "bike_id": "af72eeabb885eff90cbd68a6b7b9fa58", "lon": -77.03912316666667, "rental_uris": {"ios": "https://dc.lft.to/lastmile_qr_scan", "android": "https://dc.lft.to/lastmile_qr_scan"}}, {"name": "ae55269be01afe41be97cd5f7f8965ac", "fusion_lat": 0.0, "type": "electric_scooter", "lat": 38.87493416666667, "is_reserved": 0, "is_disabled": 0, "fusion_lon": 0.0, "bike_id": "ae55269be01afe41be97cd5f7f8965ac", "lon": -77.00175366666667, "rental_uris": {"ios": "https://dc.lft.to/lastmile_qr_scan", "android": "https://dc.lft.to/lastmile_qr_scan"}}, {"name": "ef303d286ce330beabc9bfe6bdd7f7d3", "fusion_lat": 0.0, "type": "electric_scooter", "lat": 38.912130833333336, "is_reserved": 0, "is_disabled": 0, "fusion_lon": 0.0, "bike_id": "ef303d286ce330beabc9bfe6bdd7f7d3", "lon": -77.04502716666667, "rental_uris": {"ios": "https://dc.lft.to/lastmile_qr_scan", "android": "https://dc.lft.to/lastmile_qr_scan"}}, {"name": "e616915c8b6073e9c28e806f80c0907a", "fusion_lat": 0.0, "type": "electric_bike", "lat": 38.8443175, "is_reserved": 0, "is_disabled": 0, "fusion_lon": 0.0, "bike_id": "e616915c8b6073e9c28e806f80c0907a", "lon": -77.1126265, "rental_uris": {"ios": "https://dc.lft.to/lastmile_qr_scan", "android": "https://dc.lft.to/lastmile_qr_scan"}}, {"name": "a9a96f63240f327857d98c50a4f8d408", "fusion_lat": 0.0, "type": "electric_scooter", "lat": 38.91711466666667, "is_reserved": 0, "is_disabled": 0, "fusion_lon": 0.0, "bike_id": "a9a96f63240f327857d98c50a4f8d408", "lon": -77.03866516666666, "rental_uris": {"ios": "https://dc.lft.to/lastmile_qr_scan", "android": "https://dc.lft.to/lastmile_qr_scan"}}, {"name": "d3299b9944383b25fe723a445f72dc89", "fusion_lat": 0.0, "type": "electric_scooter", "lat": 38.908497, "is_reserved": 0, "is_disabled": 0, "fusion_lon": 0.0, "bike_id": "d3299b9944383b25fe723a445f72dc89", "lon": -77.0259115, "rental_uris": {"ios": "https://dc.lft.to/lastmile_qr_scan", "android": "https://dc.lft.to/lastmile_qr_scan"}}, {"name": "5d6f7d972075ee2ea03d10416e6921fe", "fusion_lat": 0.0, "type": "electric_scooter", "lat": 38.93390633333333, "is_reserved": 0, "is_disabled": 0, "fusion_lon": 0.0, "bike_id": "5d6f7d972075ee2ea03d10416e6921fe", "lon": -77.073857, "rental_uris": {"ios": "https://dc.lft.to/lastmile_qr_scan", "android": "https://dc.lft.to/lastmile_qr_scan"}}, {"name": "71e8ac954e0f7aeb146b57b75d5b9f36", "fusion_lat": 0.0, "type": "electric_scooter", "lat": 38.86268883333334, "is_reserved": 0, "is_disabled": 0, "fusion_lon": 0.0, "bike_id": "71e8ac954e0f7aeb146b57b75d5b9f36", "lon": -76.98719083333333, "rental_uris": {"ios": "https://dc.lft.to/lastmile_qr_scan", "android": "https://dc.lft.to/lastmile_qr_scan"}}, {"name": "7b7fb626c8b42283d49be4eaa3dae67f", "fusion_lat": 0.0, "type": "electric_bike", "lat": 38.886196, "is_reserved": 0, "is_disabled": 0, "fusion_lon": 0.0, "bike_id": "7b7fb626c8b42283d49be4eaa3dae67f", "lon": -77.10753316666667, "rental_uris": {"ios": "https://dc.lft.to/lastmile_qr_scan", "android": "https://dc.lft.to/lastmile_qr_scan"}}, {"name": "974f483dd9f4d52768c1238931f16968", "fusion_lat": 0.0, "type": "electric_bike", "lat": 39.0534805, "is_reserved": 0, "is_disabled": 0, "fusion_lon": 0.0, "bike_id": "974f483dd9f4d52768c1238931f16968", "lon": -77.13594933333333, "rental_uris": {"ios": "https://dc.lft.to/lastmile_qr_scan", "android": "https://dc.lft.to/lastmile_qr_scan"}}, {"name": "4a0cd779afd3743da6cb5cd60ebf856b", "fusion_lat": 0.0, "type": "electric_scooter", "lat": 38.9166605, "is_reserved": 0, "is_disabled": 0, "fusion_lon": 0.0, "bike_id": "4a0cd779afd3743da6cb5cd60ebf856b", "lon": -77.02893866666666, "rental_uris": {"ios": "https://dc.lft.to/lastmile_qr_scan", "android": "https://dc.lft.to/lastmile_qr_scan"}}, {"name": "f5b0f0f98ab324b29b7ac3e07b805079", "fusion_lat": 0.0, "type": "electric_scooter", "lat": 38.894939, "is_reserved": 0, "is_disabled": 0, "fusion_lon": 0.0, "bike_id": "f5b0f0f98ab324b29b7ac3e07b805079", "lon": -77.01020266666667, "rental_uris": {"ios": "https://dc.lft.to/lastmile_qr_scan", "android": "https://dc.lft.to/lastmile_qr_scan"}}, {"name": "08c3a3db970133f3e55283a3a346a659", "fusion_lat": 0.0, "type": "electric_scooter", "lat": 38.909863333333334, "is_reserved": 0, "is_disabled": 0, "fusion_lon": 0.0, "bike_id": "08c3a3db970133f3e55283a3a346a659", "lon": -77.038376, "rental_uris": {"ios": "https://dc.lft.to/lastmile_qr_scan", "android": "https://dc.lft.to/lastmile_qr_scan"}}, {"name": "c2ac340e3959412184be3b75945f2690", "fusion_lat": 0.0, "type": "electric_scooter", "lat": 38.904438999999996, "is_reserved": 0, "is_disabled": 0, "fusion_lon": 0.0, "bike_id": "c2ac340e3959412184be3b75945f2690", "lon": -77.0311015, "rental_uris": {"ios": "https://dc.lft.to/lastmile_qr_scan", "android": "https://dc.lft.to/lastmile_qr_scan"}}, {"name": "73785d3862944e17a2a0e7034b3a26d5", "fusion_lat": 0.0, "type": "electric_scooter", "lat": 38.90432216666667, "is_reserved": 0, "is_disabled": 0, "fusion_lon": 0.0, "bike_id": "73785d3862944e17a2a0e7034b3a26d5", "lon": -77.02902483333334, "rental_uris": {"ios": "https://dc.lft.to/lastmile_qr_scan", "android": "https://dc.lft.to/lastmile_qr_scan"}}, {"name": "8e923d9ced4c6269bfe89660970152fd", "fusion_lat": 0.0, "type": "electric_bike", "lat": 38.872365, "is_reserved": 0, "is_disabled": 0, "fusion_lon": 0.0, "bike_id": "8e923d9ced4c6269bfe89660970152fd", "lon": -77.01161783333333, "rental_uris": {"ios": "https://dc.lft.to/lastmile_qr_scan", "android": "https://dc.lft.to/lastmile_qr_scan"}}, {"name": "853536d423e30410ee7e2591060fc934", "fusion_lat": 0.0, "type": "electric_scooter", "lat": 38.92416516666667, "is_reserved": 0, "is_disabled": 0, "fusion_lon": 0.0, "bike_id": "853536d423e30410ee7e2591060fc934", "lon": -77.02266466666667, "rental_uris": {"ios": "https://dc.lft.to/lastmile_qr_scan", "android": "https://dc.lft.to/lastmile_qr_scan"}}, {"name": "78f5a834bbdac4c6e3a4231206ff157d", "fusion_lat": 0.0, "type": "electric_scooter", "lat": 38.90502733333334, "is_reserved": 0, "is_disabled": 0, "fusion_lon": 0.0, "bike_id": "78f5a834bbdac4c6e3a4231206ff157d", "lon": -77.02763, "rental_uris": {"ios": "https://dc.lft.to/lastmile_qr_scan", "android": "https://dc.lft.to/lastmile_qr_scan"}}, {"name": "d54546e79fd46b6ae580e94e842ebf43", "fusion_lat": 0.0, "type": "electric_scooter", "lat": 38.90509733333333, "is_reserved": 0, "is_disabled": 0, "fusion_lon": 0.0, "bike_id": "d54546e79fd46b6ae580e94e842ebf43", "lon": -77.05147566666666, "rental_uris": {"ios": "https://dc.lft.to/lastmile_qr_scan", "android": "https://dc.lft.to/lastmile_qr_scan"}}, {"name": "87ef1f69aec1707a4873f2225f034605", "fusion_lat": 0.0, "type": "electric_bike", "lat": 38.99456833333333, "is_reserved": 0, "is_disabled": 0, "fusion_lon": 0.0, "bike_id": "87ef1f69aec1707a4873f2225f034605", "lon": -76.9081285, "rental_uris": {"ios": "https://dc.lft.to/lastmile_qr_scan", "android": "https://dc.lft.to/lastmile_qr_scan"}}, {"name": "d7d095e2e7148aa3b7ab2eb7f95218aa", "fusion_lat": 0.0, "type": "electric_scooter", "lat": 38.9004855, "is_reserved": 0, "is_disabled": 0, "fusion_lon": 0.0, "bike_id": "d7d095e2e7148aa3b7ab2eb7f95218aa", "lon": -77.00184583333333, "rental_uris": {"ios": "https://dc.lft.to/lastmile_qr_scan", "android": "https://dc.lft.to/lastmile_qr_scan"}}, {"name": "23fbe3a75ccb3b84f830a811a006344a", "fusion_lat": 0.0, "type": "electric_scooter", "lat": 38.908644, "is_reserved": 0, "is_disabled": 0, "fusion_lon": 0.0, "bike_id": "23fbe3a75ccb3b84f830a811a006344a", "lon": -76.99956933333333, "rental_uris": {"ios": "https://dc.lft.to/lastmile_qr_scan", "android": "https://dc.lft.to/lastmile_qr_scan"}}, {"name": "dfb9339f59aa1ea29d649f82751686c7", "fusion_lat": 0.0, "type": "electric_scooter", "lat": 38.925791833333335, "is_reserved": 0, "is_disabled": 0, "fusion_lon": 0.0, "bike_id": "dfb9339f59aa1ea29d649f82751686c7", "lon": -77.0378145, "rental_uris": {"ios": "https://dc.lft.to/lastmile_qr_scan", "android": "https://dc.lft.to/lastmile_qr_scan"}}, {"name": "54533d9739a504ad22c0e5ac78967d8a", "fusion_lat": 0.0, "type": "electric_scooter", "lat": 38.908698, "is_reserved": 0, "is_disabled": 0, "fusion_lon": 0.0, "bike_id": "54533d9739a504ad22c0e5ac78967d8a", "lon": -77.02390766666667, "rental_uris": {"ios": "https://dc.lft.to/lastmile_qr_scan", "android": "https://dc.lft.to/lastmile_qr_scan"}}, {"name": "6bd37a53205d31e9649777e6dbc871f1", "fusion_lat": 0.0, "type": "electric_scooter", "lat": 38.8732615, "is_reserved": 0, "is_disabled": 0, "fusion_lon": 0.0, "bike_id": "6bd37a53205d31e9649777e6dbc871f1", "lon": -77.001046, "rental_uris": {"ios": "https://dc.lft.to/lastmile_qr_scan", "android": "https://dc.lft.to/lastmile_qr_scan"}}, {"name": "c501038f1931b072ad9d1c2ce549cfaf", "fusion_lat": 0.0, "type": "electric_scooter", "lat": 38.903771166666665, "is_reserved": 0, "is_disabled": 0, "fusion_lon": 0.0, "bike_id": "c501038f1931b072ad9d1c2ce549cfaf", "lon": -77.04822916666667, "rental_uris": {"ios": "https://dc.lft.to/lastmile_qr_scan", "android": "https://dc.lft.to/lastmile_qr_scan"}}, {"name": "14ab3cec3a502d3a8ad4926bd28475cb", "fusion_lat": 0.0, "type": "electric_scooter", "lat": 38.923784, "is_reserved": 0, "is_disabled": 0, "fusion_lon": 0.0, "bike_id": "14ab3cec3a502d3a8ad4926bd28475cb", "lon": -77.031306, "rental_uris": {"ios": "https://dc.lft.to/lastmile_qr_scan", "android": "https://dc.lft.to/lastmile_qr_scan"}}, {"name": "03eefdd15cb3358540183d7cb8d3cf50", "fusion_lat": 0.0, "type": "electric_scooter", "lat": 38.90482633333333, "is_reserved": 0, "is_disabled": 0, "fusion_lon": 0.0, "bike_id": "03eefdd15cb3358540183d7cb8d3cf50", "lon": -76.97335166666667, "rental_uris": {"ios": "https://dc.lft.to/lastmile_qr_scan", "android": "https://dc.lft.to/lastmile_qr_scan"}}, {"name": "71118755f904ed85387b0d183c7136be", "fusion_lat": 0.0, "type": "electric_bike", "lat": 38.99994933333333, "is_reserved": 0, "is_disabled": 0, "fusion_lon": 0.0, "bike_id": "71118755f904ed85387b0d183c7136be", "lon": -76.99524316666667, "rental_uris": {"ios": "https://dc.lft.to/lastmile_qr_scan", "android": "https://dc.lft.to/lastmile_qr_scan"}}, {"name": "e76fa0c3ccd35cf2c2099b2fcb305cb8", "fusion_lat": 0.0, "type": "electric_bike", "lat": 38.95186233333333, "is_reserved": 0, "is_disabled": 0, "fusion_lon": 0.0, "bike_id": "e76fa0c3ccd35cf2c2099b2fcb305cb8", "lon": -76.93543633333333, "rental_uris": {"ios": "https://dc.lft.to/lastmile_qr_scan", "android": "https://dc.lft.to/lastmile_qr_scan"}}, {"name": "75bf2e3606ca59034175376426a84a69", "fusion_lat": 0.0, "type": "electric_scooter", "lat": 38.91273533333333, "is_reserved": 0, "is_disabled": 0, "fusion_lon": 0.0, "bike_id": "75bf2e3606ca59034175376426a84a69", "lon": -77.02693066666667, "rental_uris": {"ios": "https://dc.lft.to/lastmile_qr_scan", "android": "https://dc.lft.to/lastmile_qr_scan"}}, {"name": "0cd108afe71385e754bdef61cfb4d986", "fusion_lat": 0.0, "type": "electric_scooter", "lat": 38.937028, "is_reserved": 0, "is_disabled": 0, "fusion_lon": 0.0, "bike_id": "0cd108afe71385e754bdef61cfb4d986", "lon": -77.056877, "rental_uris": {"ios": "https://dc.lft.to/lastmile_qr_scan", "android": "https://dc.lft.to/lastmile_qr_scan"}}, {"name": "985a93b0a6189ecffb17d97512347112", "fusion_lat": 0.0, "type": "electric_scooter", "lat": 38.909439666666664, "is_reserved": 0, "is_disabled": 0, "fusion_lon": 0.0, "bike_id": "985a93b0a6189ecffb17d97512347112", "lon": -76.984897, "rental_uris": {"ios": "https://dc.lft.to/lastmile_qr_scan", "android": "https://dc.lft.to/lastmile_qr_scan"}}, {"name": "d90c26607a8669a00c179fe71e25b294", "fusion_lat": 0.0, "type": "electric_scooter", "lat": 38.909750833333334, "is_reserved": 0, "is_disabled": 0, "fusion_lon": 0.0, "bike_id": "d90c26607a8669a00c179fe71e25b294", "lon": -77.02175283333334, "rental_uris": {"ios": "https://dc.lft.to/lastmile_qr_scan", "android": "https://dc.lft.to/lastmile_qr_scan"}}, {"name": "e65a1290146430323ea816d212631135", "fusion_lat": 0.0, "type": "electric_scooter", "lat": 38.92585233333333, "is_reserved": 0, "is_disabled": 0, "fusion_lon": 0.0, "bike_id": "e65a1290146430323ea816d212631135", "lon": -77.05303966666666, "rental_uris": {"ios": "https://dc.lft.to/lastmile_qr_scan", "android": "https://dc.lft.to/lastmile_qr_scan"}}, {"name": "0993b139b200ddf89bf175bf723c8ee5", "fusion_lat": 0.0, "type": "electric_scooter", "lat": 38.894986833333334, "is_reserved": 0, "is_disabled": 0, "fusion_lon": 0.0, "bike_id": "0993b139b200ddf89bf175bf723c8ee5", "lon": -77.024081, "rental_uris": {"ios": "https://dc.lft.to/lastmile_qr_scan", "android": "https://dc.lft.to/lastmile_qr_scan"}}, {"name": "8c4149b56e420753f00339c41222c1e5", "fusion_lat": 0.0, "type": "electric_scooter", "lat": 38.90135433333333, "is_reserved": 0, "is_disabled": 0, "fusion_lon": 0.0, "bike_id": "8c4149b56e420753f00339c41222c1e5", "lon": -77.03343583333333, "rental_uris": {"ios": "https://dc.lft.to/lastmile_qr_scan", "android": "https://dc.lft.to/lastmile_qr_scan"}}, {"name": "5553dc74dd08508841627c7c932686de", "fusion_lat": 0.0, "type": "electric_scooter", "lat": 38.88676016666667, "is_reserved": 0, "is_disabled": 0, "fusion_lon": 0.0, "bike_id": "5553dc74dd08508841627c7c932686de", "lon": -76.936144, "rental_uris": {"ios": "https://dc.lft.to/lastmile_qr_scan", "android": "https://dc.lft.to/lastmile_qr_scan"}}, {"name": "ee6db8582c2d805a7ae18e1d4dfa0fa7", "fusion_lat": 0.0, "type": "electric_scooter", "lat": 38.923214333333334, "is_reserved": 0, "is_disabled": 0, "fusion_lon": 0.0, "bike_id": "ee6db8582c2d805a7ae18e1d4dfa0fa7", "lon": -77.05435466666667, "rental_uris": {"ios": "https://dc.lft.to/lastmile_qr_scan", "android": "https://dc.lft.to/lastmile_qr_scan"}}, {"name": "e50fb26c6f8283939b78c716cb503262", "fusion_lat": 0.0, "type": "electric_scooter", "lat": 38.9027155, "is_reserved": 0, "is_disabled": 0, "fusion_lon": 0.0, "bike_id": "e50fb26c6f8283939b78c716cb503262", "lon": -77.01755366666667, "rental_uris": {"ios": "https://dc.lft.to/lastmile_qr_scan", "android": "https://dc.lft.to/lastmile_qr_scan"}}, {"name": "73e088aff180d187d2a92545436f49f4", "fusion_lat": 0.0, "type": "electric_scooter", "lat": 38.92268216666667, "is_reserved": 0, "is_disabled": 0, "fusion_lon": 0.0, "bike_id": "73e088aff180d187d2a92545436f49f4", "lon": -77.0340545, "rental_uris": {"ios": "https://dc.lft.to/lastmile_qr_scan", "android": "https://dc.lft.to/lastmile_qr_scan"}}, {"name": "21b02b4350ad1b6f4aef13af9a82ba1f", "fusion_lat": 0.0, "type": "electric_bike", "lat": 38.827319, "is_reserved": 0, "is_disabled": 0, "fusion_lon": 0.0, "bike_id": "21b02b4350ad1b6f4aef13af9a82ba1f", "lon": -77.008665, "rental_uris": {"ios": "https://dc.lft.to/lastmile_qr_scan", "android": "https://dc.lft.to/lastmile_qr_scan"}}, {"name": "922affca0744a715c36611cde5cc4dfd", "fusion_lat": 0.0, "type": "electric_scooter", "lat": 38.9522215, "is_reserved": 0, "is_disabled": 0, "fusion_lon": 0.0, "bike_id": "922affca0744a715c36611cde5cc4dfd", "lon": -77.07065583333333, "rental_uris": {"ios": "https://dc.lft.to/lastmile_qr_scan", "android": "https://dc.lft.to/lastmile_qr_scan"}}, {"name": "d5376f1a984d7be2d72a12a7c51367d6", "fusion_lat": 0.0, "type": "electric_scooter", "lat": 38.91060916666667, "is_reserved": 0, "is_disabled": 0, "fusion_lon": 0.0, "bike_id": "d5376f1a984d7be2d72a12a7c51367d6", "lon": -77.0457085, "rental_uris": {"ios": "https://dc.lft.to/lastmile_qr_scan", "android": "https://dc.lft.to/lastmile_qr_scan"}}, {"name": "64cde6e447af3339e03492e0e348d2ad", "fusion_lat": 0.0, "type": "electric_scooter", "lat": 38.894846333333334, "is_reserved": 0, "is_disabled": 0, "fusion_lon": 0.0, "bike_id": "64cde6e447af3339e03492e0e348d2ad", "lon": -76.9487575, "rental_uris": {"ios": "https://dc.lft.to/lastmile_qr_scan", "android": "https://dc.lft.to/lastmile_qr_scan"}}, {"name": "5142da0d3a03c427ba6d05b38c255950", "fusion_lat": 0.0, "type": "electric_scooter", "lat": 38.8650245, "is_reserved": 0, "is_disabled": 0, "fusion_lon": 0.0, "bike_id": "5142da0d3a03c427ba6d05b38c255950", "lon": -76.9900145, "rental_uris": {"ios": "https://dc.lft.to/lastmile_qr_scan", "android": "https://dc.lft.to/lastmile_qr_scan"}}, {"name": "2186e24c8d1573b4448940088177e0a1", "fusion_lat": 0.0, "type": "electric_scooter", "lat": 38.918920666666665, "is_reserved": 0, "is_disabled": 0, "fusion_lon": 0.0, "bike_id": "2186e24c8d1573b4448940088177e0a1", "lon": -77.052878, "rental_uris": {"ios": "https://dc.lft.to/lastmile_qr_scan", "android": "https://dc.lft.to/lastmile_qr_scan"}}, {"name": "be011d4eceb7f33066aac021de8141a2", "fusion_lat": 0.0, "type": "electric_scooter", "lat": 38.91770666666667, "is_reserved": 0, "is_disabled": 0, "fusion_lon": 0.0, "bike_id": "be011d4eceb7f33066aac021de8141a2", "lon": -77.0474115, "rental_uris": {"ios": "https://dc.lft.to/lastmile_qr_scan", "android": "https://dc.lft.to/lastmile_qr_scan"}}, {"name": "95e58150ed0a65b1670aecaf1ed5c886", "fusion_lat": 0.0, "type": "electric_scooter", "lat": 38.92238283333333, "is_reserved": 0, "is_disabled": 0, "fusion_lon": 0.0, "bike_id": "95e58150ed0a65b1670aecaf1ed5c886", "lon": -77.029823, "rental_uris": {"ios": "https://dc.lft.to/lastmile_qr_scan", "android": "https://dc.lft.to/lastmile_qr_scan"}}, {"name": "82abd750e25419d32c47ed58254dd415", "fusion_lat": 0.0, "type": "electric_scooter", "lat": 38.89221583333333, "is_reserved": 0, "is_disabled": 0, "fusion_lon": 0.0, "bike_id": "82abd750e25419d32c47ed58254dd415", "lon": -77.01370483333334, "rental_uris": {"ios": "https://dc.lft.to/lastmile_qr_scan", "android": "https://dc.lft.to/lastmile_qr_scan"}}, {"name": "3dd73dc8cde1aeffa4c0a015ac200724", "fusion_lat": 0.0, "type": "electric_scooter", "lat": 38.87808533333333, "is_reserved": 0, "is_disabled": 0, "fusion_lon": 0.0, "bike_id": "3dd73dc8cde1aeffa4c0a015ac200724", "lon": -77.00358533333333, "rental_uris": {"ios": "https://dc.lft.to/lastmile_qr_scan", "android": "https://dc.lft.to/lastmile_qr_scan"}}, {"name": "9e590543362c6a9188e75ba818b0491f", "fusion_lat": 0.0, "type": "electric_scooter", "lat": 38.918042666666665, "is_reserved": 0, "is_disabled": 0, "fusion_lon": 0.0, "bike_id": "9e590543362c6a9188e75ba818b0491f", "lon": -77.0368585, "rental_uris": {"ios": "https://dc.lft.to/lastmile_qr_scan", "android": "https://dc.lft.to/lastmile_qr_scan"}}, {"name": "be1121007bbf6269529d97b61ad2fa0b", "fusion_lat": 0.0, "type": "electric_scooter", "lat": 38.90517633333333, "is_reserved": 0, "is_disabled": 0, "fusion_lon": 0.0, "bike_id": "be1121007bbf6269529d97b61ad2fa0b", "lon": -77.06892083333334, "rental_uris": {"ios": "https://dc.lft.to/lastmile_qr_scan", "android": "https://dc.lft.to/lastmile_qr_scan"}}, {"name": "96e241a70a5bf1f64e89cb78ad3b7d31", "fusion_lat": 0.0, "type": "electric_bike", "lat": 38.85379566666667, "is_reserved": 0, "is_disabled": 0, "fusion_lon": 0.0, "bike_id": "96e241a70a5bf1f64e89cb78ad3b7d31", "lon": -77.09863, "rental_uris": {"ios": "https://dc.lft.to/lastmile_qr_scan", "android": "https://dc.lft.to/lastmile_qr_scan"}}, {"name": "4f95f45a9c882e2d2a3f32e2e2401b10", "fusion_lat": 0.0, "type": "electric_scooter", "lat": 38.910217333333335, "is_reserved": 0, "is_disabled": 0, "fusion_lon": 0.0, "bike_id": "4f95f45a9c882e2d2a3f32e2e2401b10", "lon": -77.044477, "rental_uris": {"ios": "https://dc.lft.to/lastmile_qr_scan", "android": "https://dc.lft.to/lastmile_qr_scan"}}, {"name": "841af8f4141435697e676bb376d71bd2", "fusion_lat": 0.0, "type": "electric_scooter", "lat": 38.936642166666665, "is_reserved": 0, "is_disabled": 0, "fusion_lon": 0.0, "bike_id": "841af8f4141435697e676bb376d71bd2", "lon": -77.032616, "rental_uris": {"ios": "https://dc.lft.to/lastmile_qr_scan", "android": "https://dc.lft.to/lastmile_qr_scan"}}, {"name": "4c560594d34a71adcb7e452c7ba4b663", "fusion_lat": 0.0, "type": "electric_scooter", "lat": 38.90739966666667, "is_reserved": 0, "is_disabled": 0, "fusion_lon": 0.0, "bike_id": "4c560594d34a71adcb7e452c7ba4b663", "lon": -77.0269345, "rental_uris": {"ios": "https://dc.lft.to/lastmile_qr_scan", "android": "https://dc.lft.to/lastmile_qr_scan"}}, {"name": "cf175c1170ec80ffe04215b1bd9a29e5", "fusion_lat": 0.0, "type": "electric_scooter", "lat": 38.905648166666666, "is_reserved": 0, "is_disabled": 0, "fusion_lon": 0.0, "bike_id": "cf175c1170ec80ffe04215b1bd9a29e5", "lon": -77.02423433333334, "rental_uris": {"ios": "https://dc.lft.to/lastmile_qr_scan", "android": "https://dc.lft.to/lastmile_qr_scan"}}, {"name": "7fd1e7d838ea3a666baa52eee8b0a759", "fusion_lat": 0.0, "type": "electric_scooter", "lat": 38.91715133333334, "is_reserved": 0, "is_disabled": 0, "fusion_lon": 0.0, "bike_id": "7fd1e7d838ea3a666baa52eee8b0a759", "lon": -77.03550933333334, "rental_uris": {"ios": "https://dc.lft.to/lastmile_qr_scan", "android": "https://dc.lft.to/lastmile_qr_scan"}}, {"name": "812a494b6ba66d6a1d568447c2f81942", "fusion_lat": 0.0, "type": "electric_scooter", "lat": 38.93821766666667, "is_reserved": 0, "is_disabled": 0, "fusion_lon": 0.0, "bike_id": "812a494b6ba66d6a1d568447c2f81942", "lon": -77.02485716666666, "rental_uris": {"ios": "https://dc.lft.to/lastmile_qr_scan", "android": "https://dc.lft.to/lastmile_qr_scan"}}, {"name": "2827f061d58ca10d59e5d9d2e8635fe8", "fusion_lat": 0.0, "type": "electric_scooter", "lat": 38.90651233333333, "is_reserved": 0, "is_disabled": 0, "fusion_lon": 0.0, "bike_id": "2827f061d58ca10d59e5d9d2e8635fe8", "lon": -77.00591516666667, "rental_uris": {"ios": "https://dc.lft.to/lastmile_qr_scan", "android": "https://dc.lft.to/lastmile_qr_scan"}}, {"name": "6f08e8bc55541bdcf245b7fe87c2ef25", "fusion_lat": 0.0, "type": "electric_scooter", "lat": 38.931007666666666, "is_reserved": 0, "is_disabled": 0, "fusion_lon": 0.0, "bike_id": "6f08e8bc55541bdcf245b7fe87c2ef25", "lon": -77.02409016666667, "rental_uris": {"ios": "https://dc.lft.to/lastmile_qr_scan", "android": "https://dc.lft.to/lastmile_qr_scan"}}, {"name": "e73dbe00d8b23eeaa2f34720579927e9", "fusion_lat": 0.0, "type": "electric_scooter", "lat": 38.906529166666665, "is_reserved": 0, "is_disabled": 0, "fusion_lon": 0.0, "bike_id": "e73dbe00d8b23eeaa2f34720579927e9", "lon": -77.02959833333334, "rental_uris": {"ios": "https://dc.lft.to/lastmile_qr_scan", "android": "https://dc.lft.to/lastmile_qr_scan"}}, {"name": "7f8b5daafcfc18fe285f93a85bdee230", "fusion_lat": 0.0, "type": "electric_scooter", "lat": 38.909624, "is_reserved": 0, "is_disabled": 0, "fusion_lon": 0.0, "bike_id": "7f8b5daafcfc18fe285f93a85bdee230", "lon": -77.01140316666667, "rental_uris": {"ios": "https://dc.lft.to/lastmile_qr_scan", "android": "https://dc.lft.to/lastmile_qr_scan"}}, {"name": "8e85e035b63e5b1999f75109309323b4", "fusion_lat": 0.0, "type": "electric_scooter", "lat": 38.876695, "is_reserved": 0, "is_disabled": 0, "fusion_lon": 0.0, "bike_id": "8e85e035b63e5b1999f75109309323b4", "lon": -77.00406783333334, "rental_uris": {"ios": "https://dc.lft.to/lastmile_qr_scan", "android": "https://dc.lft.to/lastmile_qr_scan"}}, {"name": "9d775b922bd13bff157c90899e6388b8", "fusion_lat": 0.0, "type": "electric_scooter", "lat": 38.901253, "is_reserved": 0, "is_disabled": 0, "fusion_lon": 0.0, "bike_id": "9d775b922bd13bff157c90899e6388b8", "lon": -76.99182666666667, "rental_uris": {"ios": "https://dc.lft.to/lastmile_qr_scan", "android": "https://dc.lft.to/lastmile_qr_scan"}}, {"name": "2eab09cd65869c38fad9d07d5be1aa45", "fusion_lat": 0.0, "type": "electric_scooter", "lat": 38.909631166666664, "is_reserved": 0, "is_disabled": 0, "fusion_lon": 0.0, "bike_id": "2eab09cd65869c38fad9d07d5be1aa45", "lon": -77.02379566666667, "rental_uris": {"ios": "https://dc.lft.to/lastmile_qr_scan", "android": "https://dc.lft.to/lastmile_qr_scan"}}, {"name": "d6d5ce59fe891a57bd85c9af5ac32268", "fusion_lat": 0.0, "type": "electric_scooter", "lat": 38.89842016666667, "is_reserved": 0, "is_disabled": 0, "fusion_lon": 0.0, "bike_id": "d6d5ce59fe891a57bd85c9af5ac32268", "lon": -77.033103, "rental_uris": {"ios": "https://dc.lft.to/lastmile_qr_scan", "android": "https://dc.lft.to/lastmile_qr_scan"}}, {"name": "3aae75efe82733d661b1d312b7f85546", "fusion_lat": 0.0, "type": "electric_scooter", "lat": 38.90096166666667, "is_reserved": 0, "is_disabled": 0, "fusion_lon": 0.0, "bike_id": "3aae75efe82733d661b1d312b7f85546", "lon": -77.05058916666667, "rental_uris": {"ios": "https://dc.lft.to/lastmile_qr_scan", "android": "https://dc.lft.to/lastmile_qr_scan"}}, {"name": "339a1b31517d8ac3636a62e8e3bf1345", "fusion_lat": 0.0, "type": "electric_scooter", "lat": 38.91563216666667, "is_reserved": 0, "is_disabled": 0, "fusion_lon": 0.0, "bike_id": "339a1b31517d8ac3636a62e8e3bf1345", "lon": -77.0141415, "rental_uris": {"ios": "https://dc.lft.to/lastmile_qr_scan", "android": "https://dc.lft.to/lastmile_qr_scan"}}, {"name": "1e0051454ca6be7296a11c70591756d3", "fusion_lat": 0.0, "type": "electric_bike", "lat": 38.862812166666664, "is_reserved": 0, "is_disabled": 0, "fusion_lon": 0.0, "bike_id": "1e0051454ca6be7296a11c70591756d3", "lon": -76.98010383333333, "rental_uris": {"ios": "https://dc.lft.to/lastmile_qr_scan", "android": "https://dc.lft.to/lastmile_qr_scan"}}, {"name": "95ad46ac50e31554a20cfd215bfcde6b", "fusion_lat": 0.0, "type": "electric_scooter", "lat": 38.91651016666667, "is_reserved": 0, "is_disabled": 0, "fusion_lon": 0.0, "bike_id": "95ad46ac50e31554a20cfd215bfcde6b", "lon": -77.01587483333333, "rental_uris": {"ios": "https://dc.lft.to/lastmile_qr_scan", "android": "https://dc.lft.to/lastmile_qr_scan"}}, {"name": "59d26d37e022681c27b6d0d7b2b0df9b", "fusion_lat": 0.0, "type": "electric_scooter", "lat": 38.897406, "is_reserved": 0, "is_disabled": 0, "fusion_lon": 0.0, "bike_id": "59d26d37e022681c27b6d0d7b2b0df9b", "lon": -77.047291, "rental_uris": {"ios": "https://dc.lft.to/lastmile_qr_scan", "android": "https://dc.lft.to/lastmile_qr_scan"}}, {"name": "24d45f0c96fb79263e0bd1396d7287a4", "fusion_lat": 0.0, "type": "electric_scooter", "lat": 38.8775285, "is_reserved": 0, "is_disabled": 0, "fusion_lon": 0.0, "bike_id": "24d45f0c96fb79263e0bd1396d7287a4", "lon": -76.9724005, "rental_uris": {"ios": "https://dc.lft.to/lastmile_qr_scan", "android": "https://dc.lft.to/lastmile_qr_scan"}}, {"name": "0e6e4c4ab17019017b57dab018bbbb5a", "fusion_lat": 0.0, "type": "electric_scooter", "lat": 38.88987983333333, "is_reserved": 0, "is_disabled": 0, "fusion_lon": 0.0, "bike_id": "0e6e4c4ab17019017b57dab018bbbb5a", "lon": -77.00113583333334, "rental_uris": {"ios": "https://dc.lft.to/lastmile_qr_scan", "android": "https://dc.lft.to/lastmile_qr_scan"}}, {"name": "10dcf8087b9439142e1692a82f2d21eb", "fusion_lat": 0.0, "type": "electric_scooter", "lat": 38.948359833333335, "is_reserved": 0, "is_disabled": 0, "fusion_lon": 0.0, "bike_id": "10dcf8087b9439142e1692a82f2d21eb", "lon": -77.02555183333334, "rental_uris": {"ios": "https://dc.lft.to/lastmile_qr_scan", "android": "https://dc.lft.to/lastmile_qr_scan"}}, {"name": "4dbcb4aa38ad770473a9ae4285b6b6ed", "fusion_lat": 0.0, "type": "electric_scooter", "lat": 38.91866066666667, "is_reserved": 0, "is_disabled": 0, "fusion_lon": 0.0, "bike_id": "4dbcb4aa38ad770473a9ae4285b6b6ed", "lon": -77.073473, "rental_uris": {"ios": "https://dc.lft.to/lastmile_qr_scan", "android": "https://dc.lft.to/lastmile_qr_scan"}}, {"name": "618ba543dc4107d940e96ee298a8958f", "fusion_lat": 0.0, "type": "electric_bike", "lat": 38.906887166666664, "is_reserved": 0, "is_disabled": 0, "fusion_lon": 0.0, "bike_id": "618ba543dc4107d940e96ee298a8958f", "lon": -77.06371833333333, "rental_uris": {"ios": "https://dc.lft.to/lastmile_qr_scan", "android": "https://dc.lft.to/lastmile_qr_scan"}}, {"name": "1f474a95c00c57578d5c8f85727c984a", "fusion_lat": 0.0, "type": "electric_scooter", "lat": 38.926444333333336, "is_reserved": 0, "is_disabled": 0, "fusion_lon": 0.0, "bike_id": "1f474a95c00c57578d5c8f85727c984a", "lon": -77.0332035, "rental_uris": {"ios": "https://dc.lft.to/lastmile_qr_scan", "android": "https://dc.lft.to/lastmile_qr_scan"}}, {"name": "2338c0603f01c57c2ebb28c530c75a6b", "fusion_lat": 0.0, "type": "electric_scooter", "lat": 38.91565633333333, "is_reserved": 0, "is_disabled": 0, "fusion_lon": 0.0, "bike_id": "2338c0603f01c57c2ebb28c530c75a6b", "lon": -77.03235416666666, "rental_uris": {"ios": "https://dc.lft.to/lastmile_qr_scan", "android": "https://dc.lft.to/lastmile_qr_scan"}}, {"name": "4e7fe055995f487bebee33398ad3455f", "fusion_lat": 0.0, "type": "electric_bike", "lat": 38.87083116666667, "is_reserved": 0, "is_disabled": 0, "fusion_lon": 0.0, "bike_id": "4e7fe055995f487bebee33398ad3455f", "lon": -77.11044483333333, "rental_uris": {"ios": "https://dc.lft.to/lastmile_qr_scan", "android": "https://dc.lft.to/lastmile_qr_scan"}}, {"name": "91be47a6ed335cd0c32ab6cc13f6b1e1", "fusion_lat": 0.0, "type": "electric_scooter", "lat": 38.887658, "is_reserved": 0, "is_disabled": 0, "fusion_lon": 0.0, "bike_id": "91be47a6ed335cd0c32ab6cc13f6b1e1", "lon": -76.98021833333334, "rental_uris": {"ios": "https://dc.lft.to/lastmile_qr_scan", "android": "https://dc.lft.to/lastmile_qr_scan"}}, {"name": "b47cbcb3c5dbde1150464069ff20f18d", "fusion_lat": 0.0, "type": "electric_scooter", "lat": 38.9098035, "is_reserved": 0, "is_disabled": 0, "fusion_lon": 0.0, "bike_id": "b47cbcb3c5dbde1150464069ff20f18d", "lon": -77.03832316666667, "rental_uris": {"ios": "https://dc.lft.to/lastmile_qr_scan", "android": "https://dc.lft.to/lastmile_qr_scan"}}, {"name": "8d944bba0d322c4cba8fc3e0bb5f9a47", "fusion_lat": 0.0, "type": "electric_bike", "lat": 38.915508833333334, "is_reserved": 0, "is_disabled": 0, "fusion_lon": 0.0, "bike_id": "8d944bba0d322c4cba8fc3e0bb5f9a47", "lon": -76.98354366666666, "rental_uris": {"ios": "https://dc.lft.to/lastmile_qr_scan", "android": "https://dc.lft.to/lastmile_qr_scan"}}, {"name": "0a7589b381a9df760a9687227c6b54ae", "fusion_lat": 0.0, "type": "electric_bike", "lat": 38.96504683333333, "is_reserved": 0, "is_disabled": 0, "fusion_lon": 0.0, "bike_id": "0a7589b381a9df760a9687227c6b54ae", "lon": -77.02811916666667, "rental_uris": {"ios": "https://dc.lft.to/lastmile_qr_scan", "android": "https://dc.lft.to/lastmile_qr_scan"}}, {"name": "2220866f5cd02af88f80a24d01863fc0", "fusion_lat": 0.0, "type": "electric_scooter", "lat": 38.917679, "is_reserved": 0, "is_disabled": 0, "fusion_lon": 0.0, "bike_id": "2220866f5cd02af88f80a24d01863fc0", "lon": -77.01749783333334, "rental_uris": {"ios": "https://dc.lft.to/lastmile_qr_scan", "android": "https://dc.lft.to/lastmile_qr_scan"}}, {"name": "d48bdcdc41c370c63ce290f648384c03", "fusion_lat": 0.0, "type": "electric_scooter", "lat": 38.905771666666666, "is_reserved": 0, "is_disabled": 0, "fusion_lon": 0.0, "bike_id": "d48bdcdc41c370c63ce290f648384c03", "lon": -77.03426316666666, "rental_uris": {"ios": "https://dc.lft.to/lastmile_qr_scan", "android": "https://dc.lft.to/lastmile_qr_scan"}}, {"name": "23d99b882078fc0863771b57c0bc1bdc", "fusion_lat": 0.0, "type": "electric_scooter", "lat": 38.88600066666667, "is_reserved": 0, "is_disabled": 0, "fusion_lon": 0.0, "bike_id": "23d99b882078fc0863771b57c0bc1bdc", "lon": -77.02205666666667, "rental_uris": {"ios": "https://dc.lft.to/lastmile_qr_scan", "android": "https://dc.lft.to/lastmile_qr_scan"}}, {"name": "9e42b38adb5c23a3dc1f2aa18b9cd4b8", "fusion_lat": 0.0, "type": "electric_scooter", "lat": 38.934593, "is_reserved": 0, "is_disabled": 0, "fusion_lon": 0.0, "bike_id": "9e42b38adb5c23a3dc1f2aa18b9cd4b8", "lon": -77.02912833333333, "rental_uris": {"ios": "https://dc.lft.to/lastmile_qr_scan", "android": "https://dc.lft.to/lastmile_qr_scan"}}, {"name": "cbb49ff375d5098ceba4e2cf4e1eb14d", "fusion_lat": 0.0, "type": "electric_scooter", "lat": 38.902458, "is_reserved": 0, "is_disabled": 0, "fusion_lon": 0.0, "bike_id": "cbb49ff375d5098ceba4e2cf4e1eb14d", "lon": -77.043458, "rental_uris": {"ios": "https://dc.lft.to/lastmile_qr_scan", "android": "https://dc.lft.to/lastmile_qr_scan"}}, {"name": "46f4f370dd6385b8682f08658b4c6670", "fusion_lat": 0.0, "type": "electric_scooter", "lat": 38.923654666666664, "is_reserved": 0, "is_disabled": 0, "fusion_lon": 0.0, "bike_id": "46f4f370dd6385b8682f08658b4c6670", "lon": -77.051267, "rental_uris": {"ios": "https://dc.lft.to/lastmile_qr_scan", "android": "https://dc.lft.to/lastmile_qr_scan"}}, {"name": "0b7b29178f6db11b6f2de72a5402c34d", "fusion_lat": 0.0, "type": "electric_scooter", "lat": 38.8606945, "is_reserved": 0, "is_disabled": 0, "fusion_lon": 0.0, "bike_id": "0b7b29178f6db11b6f2de72a5402c34d", "lon": -76.96763916666667, "rental_uris": {"ios": "https://dc.lft.to/lastmile_qr_scan", "android": "https://dc.lft.to/lastmile_qr_scan"}}, {"name": "ddc99e85873e135ebcdec4b8fb5b53cb", "fusion_lat": 0.0, "type": "electric_scooter", "lat": 38.914033333333336, "is_reserved": 0, "is_disabled": 0, "fusion_lon": 0.0, "bike_id": "ddc99e85873e135ebcdec4b8fb5b53cb", "lon": -77.01320733333333, "rental_uris": {"ios": "https://dc.lft.to/lastmile_qr_scan", "android": "https://dc.lft.to/lastmile_qr_scan"}}, {"name": "e4344ba445b8f183e3b777046d18e262", "fusion_lat": 0.0, "type": "electric_scooter", "lat": 38.92209033333334, "is_reserved": 0, "is_disabled": 0, "fusion_lon": 0.0, "bike_id": "e4344ba445b8f183e3b777046d18e262", "lon": -77.04317033333334, "rental_uris": {"ios": "https://dc.lft.to/lastmile_qr_scan", "android": "https://dc.lft.to/lastmile_qr_scan"}}, {"name": "99baf769af6baa7486edd9c73f50dd83", "fusion_lat": 0.0, "type": "electric_scooter", "lat": 38.91709683333333, "is_reserved": 0, "is_disabled": 0, "fusion_lon": 0.0, "bike_id": "99baf769af6baa7486edd9c73f50dd83", "lon": -77.03141233333334, "rental_uris": {"ios": "https://dc.lft.to/lastmile_qr_scan", "android": "https://dc.lft.to/lastmile_qr_scan"}}, {"name": "48288ad6b8715c6d344d973a04551d8f", "fusion_lat": 0.0, "type": "electric_scooter", "lat": 38.93248166666667, "is_reserved": 0, "is_disabled": 0, "fusion_lon": 0.0, "bike_id": "48288ad6b8715c6d344d973a04551d8f", "lon": -77.02024716666666, "rental_uris": {"ios": "https://dc.lft.to/lastmile_qr_scan", "android": "https://dc.lft.to/lastmile_qr_scan"}}, {"name": "3f5e65b05a8855524a42d8e1442e888c", "fusion_lat": 0.0, "type": "electric_bike", "lat": 38.845939333333334, "is_reserved": 0, "is_disabled": 0, "fusion_lon": 0.0, "bike_id": "3f5e65b05a8855524a42d8e1442e888c", "lon": -76.96883933333334, "rental_uris": {"ios": "https://dc.lft.to/lastmile_qr_scan", "android": "https://dc.lft.to/lastmile_qr_scan"}}, {"name": "7ac491cdcebe763ee28125ee96303c95", "fusion_lat": 0.0, "type": "electric_bike", "lat": 38.8775435, "is_reserved": 0, "is_disabled": 0, "fusion_lon": 0.0, "bike_id": "7ac491cdcebe763ee28125ee96303c95", "lon": -76.97982483333334, "rental_uris": {"ios": "https://dc.lft.to/lastmile_qr_scan", "android": "https://dc.lft.to/lastmile_qr_scan"}}, {"name": "fb335394568a40b2ac30b67e07e30b88", "fusion_lat": 0.0, "type": "electric_scooter", "lat": 38.92826816666667, "is_reserved": 0, "is_disabled": 0, "fusion_lon": 0.0, "bike_id": "fb335394568a40b2ac30b67e07e30b88", "lon": -77.0225915, "rental_uris": {"ios": "https://dc.lft.to/lastmile_qr_scan", "android": "https://dc.lft.to/lastmile_qr_scan"}}, {"name": "c3ec6ef91971ee96d2457aa2e36cb9fd", "fusion_lat": 0.0, "type": "electric_scooter", "lat": 38.9359195, "is_reserved": 0, "is_disabled": 0, "fusion_lon": 0.0, "bike_id": "c3ec6ef91971ee96d2457aa2e36cb9fd", "lon": -77.05635166666667, "rental_uris": {"ios": "https://dc.lft.to/lastmile_qr_scan", "android": "https://dc.lft.to/lastmile_qr_scan"}}, {"name": "f46f5dbfdafe2ed4126275b3516a1246", "fusion_lat": 0.0, "type": "electric_scooter", "lat": 38.923602333333335, "is_reserved": 0, "is_disabled": 0, "fusion_lon": 0.0, "bike_id": "f46f5dbfdafe2ed4126275b3516a1246", "lon": -77.05061666666667, "rental_uris": {"ios": "https://dc.lft.to/lastmile_qr_scan", "android": "https://dc.lft.to/lastmile_qr_scan"}}, {"name": "8ac9d09c45ba5e8826619cc59165ac62", "fusion_lat": 0.0, "type": "electric_scooter", "lat": 38.878296, "is_reserved": 0, "is_disabled": 0, "fusion_lon": 0.0, "bike_id": "8ac9d09c45ba5e8826619cc59165ac62", "lon": -77.00576833333334, "rental_uris": {"ios": "https://dc.lft.to/lastmile_qr_scan", "android": "https://dc.lft.to/lastmile_qr_scan"}}, {"name": "8feed2e3458ebd5db9abbff8fc78ce08", "fusion_lat": 0.0, "type": "electric_scooter", "lat": 38.929702, "is_reserved": 0, "is_disabled": 0, "fusion_lon": 0.0, "bike_id": "8feed2e3458ebd5db9abbff8fc78ce08", "lon": -77.027921, "rental_uris": {"ios": "https://dc.lft.to/lastmile_qr_scan", "android": "https://dc.lft.to/lastmile_qr_scan"}}, {"name": "1f13beaa856dcd46d4d811d90fb47ca7", "fusion_lat": 0.0, "type": "electric_scooter", "lat": 38.89978383333333, "is_reserved": 0, "is_disabled": 0, "fusion_lon": 0.0, "bike_id": "1f13beaa856dcd46d4d811d90fb47ca7", "lon": -77.05566366666666, "rental_uris": {"ios": "https://dc.lft.to/lastmile_qr_scan", "android": "https://dc.lft.to/lastmile_qr_scan"}}, {"name": "fa18dec79f6fc1517ec0417c2190f230", "fusion_lat": 0.0, "type": "electric_scooter", "lat": 38.9028655, "is_reserved": 0, "is_disabled": 0, "fusion_lon": 0.0, "bike_id": "fa18dec79f6fc1517ec0417c2190f230", "lon": -77.03642016666667, "rental_uris": {"ios": "https://dc.lft.to/lastmile_qr_scan", "android": "https://dc.lft.to/lastmile_qr_scan"}}, {"name": "ac8e8bd129591ceb1610989dab3105a3", "fusion_lat": 0.0, "type": "electric_scooter", "lat": 38.913269666666665, "is_reserved": 0, "is_disabled": 0, "fusion_lon": 0.0, "bike_id": "ac8e8bd129591ceb1610989dab3105a3", "lon": -77.03185483333333, "rental_uris": {"ios": "https://dc.lft.to/lastmile_qr_scan", "android": "https://dc.lft.to/lastmile_qr_scan"}}, {"name": "6781fd1789db9776e327ee4c7b585a81", "fusion_lat": 0.0, "type": "electric_scooter", "lat": 38.9026355, "is_reserved": 0, "is_disabled": 0, "fusion_lon": 0.0, "bike_id": "6781fd1789db9776e327ee4c7b585a81", "lon": -77.01744166666667, "rental_uris": {"ios": "https://dc.lft.to/lastmile_qr_scan", "android": "https://dc.lft.to/lastmile_qr_scan"}}, {"name": "d25f023884cda2ada4e9d876a18735dc", "fusion_lat": 0.0, "type": "electric_bike", "lat": 38.93954983333333, "is_reserved": 0, "is_disabled": 0, "fusion_lon": 0.0, "bike_id": "d25f023884cda2ada4e9d876a18735dc", "lon": -77.36094783333333, "rental_uris": {"ios": "https://dc.lft.to/lastmile_qr_scan", "android": "https://dc.lft.to/lastmile_qr_scan"}}, {"name": "c34e387cdc735343d90be33d69678c1e", "fusion_lat": 0.0, "type": "electric_scooter", "lat": 38.909720166666666, "is_reserved": 0, "is_disabled": 0, "fusion_lon": 0.0, "bike_id": "c34e387cdc735343d90be33d69678c1e", "lon": -77.02176666666666, "rental_uris": {"ios": "https://dc.lft.to/lastmile_qr_scan", "android": "https://dc.lft.to/lastmile_qr_scan"}}, {"name": "30571d0be43db51c9dea1022384b028a", "fusion_lat": 0.0, "type": "electric_bike", "lat": 38.95931366666667, "is_reserved": 0, "is_disabled": 0, "fusion_lon": 0.0, "bike_id": "30571d0be43db51c9dea1022384b028a", "lon": -76.9253545, "rental_uris": {"ios": "https://dc.lft.to/lastmile_qr_scan", "android": "https://dc.lft.to/lastmile_qr_scan"}}, {"name": "610b3954f6930137bf82380e753732d8", "fusion_lat": 0.0, "type": "electric_scooter", "lat": 38.8768695, "is_reserved": 0, "is_disabled": 0, "fusion_lon": 0.0, "bike_id": "610b3954f6930137bf82380e753732d8", "lon": -77.01749916666667, "rental_uris": {"ios": "https://dc.lft.to/lastmile_qr_scan", "android": "https://dc.lft.to/lastmile_qr_scan"}}, {"name": "86021eb6fce838e26c5f8e3e69cfe3da", "fusion_lat": 0.0, "type": "electric_scooter", "lat": 38.91486666666667, "is_reserved": 0, "is_disabled": 0, "fusion_lon": 0.0, "bike_id": "86021eb6fce838e26c5f8e3e69cfe3da", "lon": -77.040907, "rental_uris": {"ios": "https://dc.lft.to/lastmile_qr_scan", "android": "https://dc.lft.to/lastmile_qr_scan"}}, {"name": "882d03bfef3ff4bc7cf9064c2fa29964", "fusion_lat": 0.0, "type": "electric_bike", "lat": 38.9269115, "is_reserved": 0, "is_disabled": 0, "fusion_lon": 0.0, "bike_id": "882d03bfef3ff4bc7cf9064c2fa29964", "lon": -77.007877, "rental_uris": {"ios": "https://dc.lft.to/lastmile_qr_scan", "android": "https://dc.lft.to/lastmile_qr_scan"}}, {"name": "1371b23b67786a0d568ca0d34d82b9fe", "fusion_lat": 0.0, "type": "electric_scooter", "lat": 38.90026016666667, "is_reserved": 0, "is_disabled": 0, "fusion_lon": 0.0, "bike_id": "1371b23b67786a0d568ca0d34d82b9fe", "lon": -77.05319433333334, "rental_uris": {"ios": "https://dc.lft.to/lastmile_qr_scan", "android": "https://dc.lft.to/lastmile_qr_scan"}}, {"name": "4a789489349dc5c0ad329e3236af60ba", "fusion_lat": 0.0, "type": "electric_scooter", "lat": 38.90167566666667, "is_reserved": 0, "is_disabled": 0, "fusion_lon": 0.0, "bike_id": "4a789489349dc5c0ad329e3236af60ba", "lon": -77.01608316666666, "rental_uris": {"ios": "https://dc.lft.to/lastmile_qr_scan", "android": "https://dc.lft.to/lastmile_qr_scan"}}, {"name": "cd905f157597735f00e5c156da8203bd", "fusion_lat": 0.0, "type": "electric_scooter", "lat": 38.894186166666664, "is_reserved": 0, "is_disabled": 0, "fusion_lon": 0.0, "bike_id": "cd905f157597735f00e5c156da8203bd", "lon": -76.93961916666666, "rental_uris": {"ios": "https://dc.lft.to/lastmile_qr_scan", "android": "https://dc.lft.to/lastmile_qr_scan"}}, {"name": "917ea61caf0e9d26cbc86e4f22095cea", "fusion_lat": 0.0, "type": "electric_bike", "lat": 38.956856333333334, "is_reserved": 0, "is_disabled": 0, "fusion_lon": 0.0, "bike_id": "917ea61caf0e9d26cbc86e4f22095cea", "lon": -77.02225966666667, "rental_uris": {"ios": "https://dc.lft.to/lastmile_qr_scan", "android": "https://dc.lft.to/lastmile_qr_scan"}}, {"name": "40895ce6028ae3921649edb3b769ca89", "fusion_lat": 0.0, "type": "electric_scooter", "lat": 38.89639716666667, "is_reserved": 0, "is_disabled": 0, "fusion_lon": 0.0, "bike_id": "40895ce6028ae3921649edb3b769ca89", "lon": -77.00920216666667, "rental_uris": {"ios": "https://dc.lft.to/lastmile_qr_scan", "android": "https://dc.lft.to/lastmile_qr_scan"}}, {"name": "39fff845702cb6310efd102b97b13950", "fusion_lat": 0.0, "type": "electric_scooter", "lat": 38.9177895, "is_reserved": 0, "is_disabled": 0, "fusion_lon": 0.0, "bike_id": "39fff845702cb6310efd102b97b13950", "lon": -77.02310783333333, "rental_uris": {"ios": "https://dc.lft.to/lastmile_qr_scan", "android": "https://dc.lft.to/lastmile_qr_scan"}}, {"name": "b701dd5f16e000a115a6f104a00a2b9c", "fusion_lat": 0.0, "type": "electric_scooter", "lat": 38.912696, "is_reserved": 0, "is_disabled": 0, "fusion_lon": 0.0, "bike_id": "b701dd5f16e000a115a6f104a00a2b9c", "lon": -77.02212216666666, "rental_uris": {"ios": "https://dc.lft.to/lastmile_qr_scan", "android": "https://dc.lft.to/lastmile_qr_scan"}}, {"name": "4dd463ca93d3b9089e610753775f77d8", "fusion_lat": 0.0, "type": "electric_scooter", "lat": 38.874723833333334, "is_reserved": 0, "is_disabled": 0, "fusion_lon": 0.0, "bike_id": "4dd463ca93d3b9089e610753775f77d8", "lon": -77.00617583333333, "rental_uris": {"ios": "https://dc.lft.to/lastmile_qr_scan", "android": "https://dc.lft.to/lastmile_qr_scan"}}, {"name": "1cbc4c9520916d6b10733d88e03927fa", "fusion_lat": 0.0, "type": "electric_bike", "lat": 38.887988, "is_reserved": 0, "is_disabled": 0, "fusion_lon": 0.0, "bike_id": "1cbc4c9520916d6b10733d88e03927fa", "lon": -76.929987, "rental_uris": {"ios": "https://dc.lft.to/lastmile_qr_scan", "android": "https://dc.lft.to/lastmile_qr_scan"}}, {"name": "fb05b6d80db772ef043ec0b32c54d49d", "fusion_lat": 0.0, "type": "electric_scooter", "lat": 38.87109016666667, "is_reserved": 0, "is_disabled": 0, "fusion_lon": 0.0, "bike_id": "fb05b6d80db772ef043ec0b32c54d49d", "lon": -76.96592233333334, "rental_uris": {"ios": "https://dc.lft.to/lastmile_qr_scan", "android": "https://dc.lft.to/lastmile_qr_scan"}}, {"name": "8c483bbc4b8db2f18ed735bfe221a26b", "fusion_lat": 0.0, "type": "electric_bike", "lat": 38.936735, "is_reserved": 0, "is_disabled": 0, "fusion_lon": 0.0, "bike_id": "8c483bbc4b8db2f18ed735bfe221a26b", "lon": -76.95207633333334, "rental_uris": {"ios": "https://dc.lft.to/lastmile_qr_scan", "android": "https://dc.lft.to/lastmile_qr_scan"}}, {"name": "f7846c57b8b7ce0882a26b1d0282d19a", "fusion_lat": 0.0, "type": "electric_scooter", "lat": 38.9033285, "is_reserved": 0, "is_disabled": 0, "fusion_lon": 0.0, "bike_id": "f7846c57b8b7ce0882a26b1d0282d19a", "lon": -77.02879316666667, "rental_uris": {"ios": "https://dc.lft.to/lastmile_qr_scan", "android": "https://dc.lft.to/lastmile_qr_scan"}}, {"name": "002defc2420776b8df2329b225f2ee32", "fusion_lat": 0.0, "type": "electric_scooter", "lat": 38.9068385, "is_reserved": 0, "is_disabled": 0, "fusion_lon": 0.0, "bike_id": "002defc2420776b8df2329b225f2ee32", "lon": -76.98001533333333, "rental_uris": {"ios": "https://dc.lft.to/lastmile_qr_scan", "android": "https://dc.lft.to/lastmile_qr_scan"}}, {"name": "c52c32fb32a3a963c177ee4712948556", "fusion_lat": 0.0, "type": "electric_scooter", "lat": 38.91191283333333, "is_reserved": 0, "is_disabled": 0, "fusion_lon": 0.0, "bike_id": "c52c32fb32a3a963c177ee4712948556", "lon": -77.00721866666666, "rental_uris": {"ios": "https://dc.lft.to/lastmile_qr_scan", "android": "https://dc.lft.to/lastmile_qr_scan"}}, {"name": "e1d9d5bbbd01e39c5316a3e7b0d75574", "fusion_lat": 0.0, "type": "electric_scooter", "lat": 38.91048216666667, "is_reserved": 0, "is_disabled": 0, "fusion_lon": 0.0, "bike_id": "e1d9d5bbbd01e39c5316a3e7b0d75574", "lon": -77.041289, "rental_uris": {"ios": "https://dc.lft.to/lastmile_qr_scan", "android": "https://dc.lft.to/lastmile_qr_scan"}}, {"name": "731c9676631d853682b8b8761969bdab", "fusion_lat": 0.0, "type": "electric_scooter", "lat": 38.91155583333333, "is_reserved": 0, "is_disabled": 0, "fusion_lon": 0.0, "bike_id": "731c9676631d853682b8b8761969bdab", "lon": -77.02002933333333, "rental_uris": {"ios": "https://dc.lft.to/lastmile_qr_scan", "android": "https://dc.lft.to/lastmile_qr_scan"}}, {"name": "03d576dc0656d092441a0db3ee9bd80a", "fusion_lat": 0.0, "type": "electric_scooter", "lat": 38.905216833333334, "is_reserved": 0, "is_disabled": 0, "fusion_lon": 0.0, "bike_id": "03d576dc0656d092441a0db3ee9bd80a", "lon": -77.06938633333333, "rental_uris": {"ios": "https://dc.lft.to/lastmile_qr_scan", "android": "https://dc.lft.to/lastmile_qr_scan"}}, {"name": "c59db42016ef4ab3d9315bcdd8ad1b2c", "fusion_lat": 0.0, "type": "electric_scooter", "lat": 38.898502666666666, "is_reserved": 0, "is_disabled": 0, "fusion_lon": 0.0, "bike_id": "c59db42016ef4ab3d9315bcdd8ad1b2c", "lon": -77.03315, "rental_uris": {"ios": "https://dc.lft.to/lastmile_qr_scan", "android": "https://dc.lft.to/lastmile_qr_scan"}}, {"name": "dba740eb35989da81b9a8970a454a8b9", "fusion_lat": 0.0, "type": "electric_bike", "lat": 38.93547016666667, "is_reserved": 0, "is_disabled": 0, "fusion_lon": 0.0, "bike_id": "dba740eb35989da81b9a8970a454a8b9", "lon": -77.08240016666667, "rental_uris": {"ios": "https://dc.lft.to/lastmile_qr_scan", "android": "https://dc.lft.to/lastmile_qr_scan"}}, {"name": "b434cd7d074a47dd8fa7fb41891c6924", "fusion_lat": 0.0, "type": "electric_scooter", "lat": 38.9052155, "is_reserved": 0, "is_disabled": 0, "fusion_lon": 0.0, "bike_id": "b434cd7d074a47dd8fa7fb41891c6924", "lon": -77.029486, "rental_uris": {"ios": "https://dc.lft.to/lastmile_qr_scan", "android": "https://dc.lft.to/lastmile_qr_scan"}}, {"name": "8890311be61108cf78b553de92ef5870", "fusion_lat": 0.0, "type": "electric_scooter", "lat": 38.931077, "is_reserved": 0, "is_disabled": 0, "fusion_lon": 0.0, "bike_id": "8890311be61108cf78b553de92ef5870", "lon": -77.03838866666666, "rental_uris": {"ios": "https://dc.lft.to/lastmile_qr_scan", "android": "https://dc.lft.to/lastmile_qr_scan"}}, {"name": "502ca9b51044371c6875e9d722c57860", "fusion_lat": 0.0, "type": "electric_scooter", "lat": 38.91781666666667, "is_reserved": 0, "is_disabled": 0, "fusion_lon": 0.0, "bike_id": "502ca9b51044371c6875e9d722c57860", "lon": -77.02341066666666, "rental_uris": {"ios": "https://dc.lft.to/lastmile_qr_scan", "android": "https://dc.lft.to/lastmile_qr_scan"}}, {"name": "b9e4f9fe6ba86e60f6fc3fdde04f85b9", "fusion_lat": 0.0, "type": "electric_scooter", "lat": 38.911086166666664, "is_reserved": 0, "is_disabled": 0, "fusion_lon": 0.0, "bike_id": "b9e4f9fe6ba86e60f6fc3fdde04f85b9", "lon": -77.01059416666666, "rental_uris": {"ios": "https://dc.lft.to/lastmile_qr_scan", "android": "https://dc.lft.to/lastmile_qr_scan"}}, {"name": "83be1636301f91540f488b3ba1a5bcf8", "fusion_lat": 0.0, "type": "electric_bike", "lat": 38.88591066666667, "is_reserved": 0, "is_disabled": 0, "fusion_lon": 0.0, "bike_id": "83be1636301f91540f488b3ba1a5bcf8", "lon": -77.00067283333334, "rental_uris": {"ios": "https://dc.lft.to/lastmile_qr_scan", "android": "https://dc.lft.to/lastmile_qr_scan"}}, {"name": "b4b0ce19f60809bf9d01a8fe9ab6ee22", "fusion_lat": 0.0, "type": "electric_scooter", "lat": 38.9394135, "is_reserved": 0, "is_disabled": 0, "fusion_lon": 0.0, "bike_id": "b4b0ce19f60809bf9d01a8fe9ab6ee22", "lon": -77.03624783333333, "rental_uris": {"ios": "https://dc.lft.to/lastmile_qr_scan", "android": "https://dc.lft.to/lastmile_qr_scan"}}, {"name": "17c600e167fc921edbb7bf63a14bbc3f", "fusion_lat": 0.0, "type": "electric_scooter", "lat": 38.89964666666667, "is_reserved": 0, "is_disabled": 0, "fusion_lon": 0.0, "bike_id": "17c600e167fc921edbb7bf63a14bbc3f", "lon": -77.01600916666666, "rental_uris": {"ios": "https://dc.lft.to/lastmile_qr_scan", "android": "https://dc.lft.to/lastmile_qr_scan"}}, {"name": "6f99e9b5d8371ae9b575fd831449fb1b", "fusion_lat": 0.0, "type": "electric_scooter", "lat": 38.92552366666666, "is_reserved": 0, "is_disabled": 0, "fusion_lon": 0.0, "bike_id": "6f99e9b5d8371ae9b575fd831449fb1b", "lon": -77.03226233333334, "rental_uris": {"ios": "https://dc.lft.to/lastmile_qr_scan", "android": "https://dc.lft.to/lastmile_qr_scan"}}, {"name": "10e508fe1f00014ef79c618d9b6212f5", "fusion_lat": 0.0, "type": "electric_scooter", "lat": 38.90582233333333, "is_reserved": 0, "is_disabled": 0, "fusion_lon": 0.0, "bike_id": "10e508fe1f00014ef79c618d9b6212f5", "lon": -77.0487275, "rental_uris": {"ios": "https://dc.lft.to/lastmile_qr_scan", "android": "https://dc.lft.to/lastmile_qr_scan"}}, {"name": "5e9f038cae573260ce70451b7d81cb55", "fusion_lat": 0.0, "type": "electric_scooter", "lat": 38.91136733333333, "is_reserved": 0, "is_disabled": 0, "fusion_lon": 0.0, "bike_id": "5e9f038cae573260ce70451b7d81cb55", "lon": -77.04195116666666, "rental_uris": {"ios": "https://dc.lft.to/lastmile_qr_scan", "android": "https://dc.lft.to/lastmile_qr_scan"}}, {"name": "0f288921784b0f1ab382c55fc8895ae0", "fusion_lat": 0.0, "type": "electric_scooter", "lat": 38.8611605, "is_reserved": 0, "is_disabled": 0, "fusion_lon": 0.0, "bike_id": "0f288921784b0f1ab382c55fc8895ae0", "lon": -76.98882983333333, "rental_uris": {"ios": "https://dc.lft.to/lastmile_qr_scan", "android": "https://dc.lft.to/lastmile_qr_scan"}}, {"name": "f677c2f75eabe8df87192ff23339910f", "fusion_lat": 0.0, "type": "electric_scooter", "lat": 38.93873416666667, "is_reserved": 0, "is_disabled": 0, "fusion_lon": 0.0, "bike_id": "f677c2f75eabe8df87192ff23339910f", "lon": -77.03254783333334, "rental_uris": {"ios": "https://dc.lft.to/lastmile_qr_scan", "android": "https://dc.lft.to/lastmile_qr_scan"}}, {"name": "4673810c9d875f803ff1cbc40abb5c16", "fusion_lat": 0.0, "type": "electric_scooter", "lat": 38.8803475, "is_reserved": 0, "is_disabled": 0, "fusion_lon": 0.0, "bike_id": "4673810c9d875f803ff1cbc40abb5c16", "lon": -77.03078383333333, "rental_uris": {"ios": "https://dc.lft.to/lastmile_qr_scan", "android": "https://dc.lft.to/lastmile_qr_scan"}}, {"name": "104ae8659ddd5efda557f4b52576f865", "fusion_lat": 0.0, "type": "electric_scooter", "lat": 38.900543666666664, "is_reserved": 0, "is_disabled": 0, "fusion_lon": 0.0, "bike_id": "104ae8659ddd5efda557f4b52576f865", "lon": -77.02607533333334, "rental_uris": {"ios": "https://dc.lft.to/lastmile_qr_scan", "android": "https://dc.lft.to/lastmile_qr_scan"}}, {"name": "7ae7b340888da218208e4ef3cd580af7", "fusion_lat": 0.0, "type": "electric_scooter", "lat": 38.919191, "is_reserved": 0, "is_disabled": 0, "fusion_lon": 0.0, "bike_id": "7ae7b340888da218208e4ef3cd580af7", "lon": -77.03623666666667, "rental_uris": {"ios": "https://dc.lft.to/lastmile_qr_scan", "android": "https://dc.lft.to/lastmile_qr_scan"}}, {"name": "9bb38df83e40425ad835f524dceef944", "fusion_lat": 0.0, "type": "electric_bike", "lat": 38.90629066666666, "is_reserved": 0, "is_disabled": 0, "fusion_lon": 0.0, "bike_id": "9bb38df83e40425ad835f524dceef944", "lon": -76.98606233333334, "rental_uris": {"ios": "https://dc.lft.to/lastmile_qr_scan", "android": "https://dc.lft.to/lastmile_qr_scan"}}, {"name": "1cf39a7c9600ca68d744ac0a4d3d377e", "fusion_lat": 0.0, "type": "electric_bike", "lat": 38.960115333333334, "is_reserved": 0, "is_disabled": 0, "fusion_lon": 0.0, "bike_id": "1cf39a7c9600ca68d744ac0a4d3d377e", "lon": -76.99873183333334, "rental_uris": {"ios": "https://dc.lft.to/lastmile_qr_scan", "android": "https://dc.lft.to/lastmile_qr_scan"}}, {"name": "680906ded52cd3707318c8daa03cd4a7", "fusion_lat": 0.0, "type": "electric_scooter", "lat": 38.934665, "is_reserved": 0, "is_disabled": 0, "fusion_lon": 0.0, "bike_id": "680906ded52cd3707318c8daa03cd4a7", "lon": -77.03519233333333, "rental_uris": {"ios": "https://dc.lft.to/lastmile_qr_scan", "android": "https://dc.lft.to/lastmile_qr_scan"}}, {"name": "0396e41280d4d286c8745b35cefdd38c", "fusion_lat": 0.0, "type": "electric_scooter", "lat": 38.928246, "is_reserved": 0, "is_disabled": 0, "fusion_lon": 0.0, "bike_id": "0396e41280d4d286c8745b35cefdd38c", "lon": -77.02256316666667, "rental_uris": {"ios": "https://dc.lft.to/lastmile_qr_scan", "android": "https://dc.lft.to/lastmile_qr_scan"}}, {"name": "6a027898b8965ec18bb46beff744f41d", "fusion_lat": 0.0, "type": "electric_scooter", "lat": 38.909766833333336, "is_reserved": 0, "is_disabled": 0, "fusion_lon": 0.0, "bike_id": "6a027898b8965ec18bb46beff744f41d", "lon": -77.04869416666666, "rental_uris": {"ios": "https://dc.lft.to/lastmile_qr_scan", "android": "https://dc.lft.to/lastmile_qr_scan"}}, {"name": "4abc422cd8ea1294205ba6ff69ef4c74", "fusion_lat": 0.0, "type": "electric_scooter", "lat": 38.962326833333336, "is_reserved": 0, "is_disabled": 0, "fusion_lon": 0.0, "bike_id": "4abc422cd8ea1294205ba6ff69ef4c74", "lon": -77.029781, "rental_uris": {"ios": "https://dc.lft.to/lastmile_qr_scan", "android": "https://dc.lft.to/lastmile_qr_scan"}}, {"name": "02434aeb4019ac03856a77c09b75dc43", "fusion_lat": 0.0, "type": "electric_scooter", "lat": 38.922352833333335, "is_reserved": 0, "is_disabled": 0, "fusion_lon": 0.0, "bike_id": "02434aeb4019ac03856a77c09b75dc43", "lon": -77.04714416666667, "rental_uris": {"ios": "https://dc.lft.to/lastmile_qr_scan", "android": "https://dc.lft.to/lastmile_qr_scan"}}, {"name": "31e18411169735adbcefb487479390af", "fusion_lat": 0.0, "type": "electric_scooter", "lat": 38.882323, "is_reserved": 0, "is_disabled": 0, "fusion_lon": 0.0, "bike_id": "31e18411169735adbcefb487479390af", "lon": -77.02581133333334, "rental_uris": {"ios": "https://dc.lft.to/lastmile_qr_scan", "android": "https://dc.lft.to/lastmile_qr_scan"}}, {"name": "ef0328ddc75696eab3cc71a8d10f8bb3", "fusion_lat": 0.0, "type": "electric_scooter", "lat": 38.925808833333335, "is_reserved": 0, "is_disabled": 0, "fusion_lon": 0.0, "bike_id": "ef0328ddc75696eab3cc71a8d10f8bb3", "lon": -76.99490716666666, "rental_uris": {"ios": "https://dc.lft.to/lastmile_qr_scan", "android": "https://dc.lft.to/lastmile_qr_scan"}}, {"name": "0fef89adeb745e1ce0206277c252abf5", "fusion_lat": 0.0, "type": "electric_scooter", "lat": 38.917429166666665, "is_reserved": 0, "is_disabled": 0, "fusion_lon": 0.0, "bike_id": "0fef89adeb745e1ce0206277c252abf5", "lon": -77.03638183333334, "rental_uris": {"ios": "https://dc.lft.to/lastmile_qr_scan", "android": "https://dc.lft.to/lastmile_qr_scan"}}, {"name": "d40b3f3a47d6fa8629ed0100e02b297a", "fusion_lat": 0.0, "type": "electric_scooter", "lat": 38.9133855, "is_reserved": 0, "is_disabled": 0, "fusion_lon": 0.0, "bike_id": "d40b3f3a47d6fa8629ed0100e02b297a", "lon": -77.00223833333334, "rental_uris": {"ios": "https://dc.lft.to/lastmile_qr_scan", "android": "https://dc.lft.to/lastmile_qr_scan"}}, {"name": "b34c18341f11247d4dc64beece2d67a7", "fusion_lat": 0.0, "type": "electric_scooter", "lat": 38.91408416666667, "is_reserved": 0, "is_disabled": 0, "fusion_lon": 0.0, "bike_id": "b34c18341f11247d4dc64beece2d67a7", "lon": -77.00807383333333, "rental_uris": {"ios": "https://dc.lft.to/lastmile_qr_scan", "android": "https://dc.lft.to/lastmile_qr_scan"}}, {"name": "987799d76830ebc6be646750cde618ac", "fusion_lat": 0.0, "type": "electric_scooter", "lat": 38.876545666666665, "is_reserved": 0, "is_disabled": 0, "fusion_lon": 0.0, "bike_id": "987799d76830ebc6be646750cde618ac", "lon": -77.00832316666667, "rental_uris": {"ios": "https://dc.lft.to/lastmile_qr_scan", "android": "https://dc.lft.to/lastmile_qr_scan"}}, {"name": "dab5b252e0853f8a934d79e793caf408", "fusion_lat": 0.0, "type": "electric_scooter", "lat": 38.905624, "is_reserved": 0, "is_disabled": 0, "fusion_lon": 0.0, "bike_id": "dab5b252e0853f8a934d79e793caf408", "lon": -77.01812166666667, "rental_uris": {"ios": "https://dc.lft.to/lastmile_qr_scan", "android": "https://dc.lft.to/lastmile_qr_scan"}}, {"name": "63292fce169b88f0f302c283f891f453", "fusion_lat": 0.0, "type": "electric_scooter", "lat": 38.9024225, "is_reserved": 0, "is_disabled": 0, "fusion_lon": 0.0, "bike_id": "63292fce169b88f0f302c283f891f453", "lon": -76.97407966666667, "rental_uris": {"ios": "https://dc.lft.to/lastmile_qr_scan", "android": "https://dc.lft.to/lastmile_qr_scan"}}, {"name": "619a154ea873dd298ade99d85e46f6cd", "fusion_lat": 0.0, "type": "electric_scooter", "lat": 38.88345416666667, "is_reserved": 0, "is_disabled": 0, "fusion_lon": 0.0, "bike_id": "619a154ea873dd298ade99d85e46f6cd", "lon": -77.02302883333333, "rental_uris": {"ios": "https://dc.lft.to/lastmile_qr_scan", "android": "https://dc.lft.to/lastmile_qr_scan"}}, {"name": "a1b3c212a0641d9cca08f31030f723df", "fusion_lat": 0.0, "type": "electric_bike", "lat": 38.967566833333336, "is_reserved": 0, "is_disabled": 0, "fusion_lon": 0.0, "bike_id": "a1b3c212a0641d9cca08f31030f723df", "lon": -77.09167116666667, "rental_uris": {"ios": "https://dc.lft.to/lastmile_qr_scan", "android": "https://dc.lft.to/lastmile_qr_scan"}}, {"name": "3096572b60a5587f3567491d55c93789", "fusion_lat": 0.0, "type": "electric_scooter", "lat": 38.909636166666665, "is_reserved": 0, "is_disabled": 0, "fusion_lon": 0.0, "bike_id": "3096572b60a5587f3567491d55c93789", "lon": -77.02743516666666, "rental_uris": {"ios": "https://dc.lft.to/lastmile_qr_scan", "android": "https://dc.lft.to/lastmile_qr_scan"}}, {"name": "54f44d976242f604876d990f665d7fdf", "fusion_lat": 0.0, "type": "electric_scooter", "lat": 38.90579066666667, "is_reserved": 0, "is_disabled": 0, "fusion_lon": 0.0, "bike_id": "54f44d976242f604876d990f665d7fdf", "lon": -77.03423916666667, "rental_uris": {"ios": "https://dc.lft.to/lastmile_qr_scan", "android": "https://dc.lft.to/lastmile_qr_scan"}}, {"name": "53cdf91aa6904fcc4a3afc3c8452cbc9", "fusion_lat": 0.0, "type": "electric_bike", "lat": 38.86162366666667, "is_reserved": 0, "is_disabled": 0, "fusion_lon": 0.0, "bike_id": "53cdf91aa6904fcc4a3afc3c8452cbc9", "lon": -77.13093966666666, "rental_uris": {"ios": "https://dc.lft.to/lastmile_qr_scan", "android": "https://dc.lft.to/lastmile_qr_scan"}}, {"name": "23ee2fa253487ba132eecae653c2caf8", "fusion_lat": 0.0, "type": "electric_scooter", "lat": 38.921785, "is_reserved": 0, "is_disabled": 0, "fusion_lon": 0.0, "bike_id": "23ee2fa253487ba132eecae653c2caf8", "lon": -77.02667033333333, "rental_uris": {"ios": "https://dc.lft.to/lastmile_qr_scan", "android": "https://dc.lft.to/lastmile_qr_scan"}}, {"name": "fbd87cab7131a670c5bcb1ab090c76b8", "fusion_lat": 0.0, "type": "electric_scooter", "lat": 38.90135633333333, "is_reserved": 0, "is_disabled": 0, "fusion_lon": 0.0, "bike_id": "fbd87cab7131a670c5bcb1ab090c76b8", "lon": -77.03960566666667, "rental_uris": {"ios": "https://dc.lft.to/lastmile_qr_scan", "android": "https://dc.lft.to/lastmile_qr_scan"}}, {"name": "4c964af86054662443276cdacdb62fdf", "fusion_lat": 0.0, "type": "electric_scooter", "lat": 38.922562166666665, "is_reserved": 0, "is_disabled": 0, "fusion_lon": 0.0, "bike_id": "4c964af86054662443276cdacdb62fdf", "lon": -77.028088, "rental_uris": {"ios": "https://dc.lft.to/lastmile_qr_scan", "android": "https://dc.lft.to/lastmile_qr_scan"}}, {"name": "d2b5b2eaa59af98103fc5f109c0e1dde", "fusion_lat": 0.0, "type": "electric_scooter", "lat": 38.914951, "is_reserved": 0, "is_disabled": 0, "fusion_lon": 0.0, "bike_id": "d2b5b2eaa59af98103fc5f109c0e1dde", "lon": -77.0749435, "rental_uris": {"ios": "https://dc.lft.to/lastmile_qr_scan", "android": "https://dc.lft.to/lastmile_qr_scan"}}, {"name": "e40e29b39dd633edabb7941d43c12847", "fusion_lat": 0.0, "type": "electric_scooter", "lat": 38.91264283333334, "is_reserved": 0, "is_disabled": 0, "fusion_lon": 0.0, "bike_id": "e40e29b39dd633edabb7941d43c12847", "lon": -77.03864616666667, "rental_uris": {"ios": "https://dc.lft.to/lastmile_qr_scan", "android": "https://dc.lft.to/lastmile_qr_scan"}}, {"name": "b47bd99c85c11f0b4f11e212799bbd43", "fusion_lat": 0.0, "type": "electric_scooter", "lat": 38.91710583333333, "is_reserved": 0, "is_disabled": 0, "fusion_lon": 0.0, "bike_id": "b47bd99c85c11f0b4f11e212799bbd43", "lon": -77.031446, "rental_uris": {"ios": "https://dc.lft.to/lastmile_qr_scan", "android": "https://dc.lft.to/lastmile_qr_scan"}}, {"name": "a590249efe320e95785cee12ea9776f6", "fusion_lat": 0.0, "type": "electric_bike", "lat": 38.852501, "is_reserved": 0, "is_disabled": 0, "fusion_lon": 0.0, "bike_id": "a590249efe320e95785cee12ea9776f6", "lon": -77.11422566666667, "rental_uris": {"ios": "https://dc.lft.to/lastmile_qr_scan", "android": "https://dc.lft.to/lastmile_qr_scan"}}, {"name": "1d9756cec224bcefdf876f1b46016453", "fusion_lat": 0.0, "type": "electric_scooter", "lat": 38.92224016666667, "is_reserved": 0, "is_disabled": 0, "fusion_lon": 0.0, "bike_id": "1d9756cec224bcefdf876f1b46016453", "lon": -77.02114166666667, "rental_uris": {"ios": "https://dc.lft.to/lastmile_qr_scan", "android": "https://dc.lft.to/lastmile_qr_scan"}}, {"name": "254e477bc6f79a22d3205621e0e89d70", "fusion_lat": 0.0, "type": "electric_scooter", "lat": 38.911922, "is_reserved": 0, "is_disabled": 0, "fusion_lon": 0.0, "bike_id": "254e477bc6f79a22d3205621e0e89d70", "lon": -77.03215916666667, "rental_uris": {"ios": "https://dc.lft.to/lastmile_qr_scan", "android": "https://dc.lft.to/lastmile_qr_scan"}}, {"name": "d0ed15e5d807c0bda9e0446298fe677a", "fusion_lat": 0.0, "type": "electric_scooter", "lat": 38.91802233333333, "is_reserved": 0, "is_disabled": 0, "fusion_lon": 0.0, "bike_id": "d0ed15e5d807c0bda9e0446298fe677a", "lon": -77.04015783333334, "rental_uris": {"ios": "https://dc.lft.to/lastmile_qr_scan", "android": "https://dc.lft.to/lastmile_qr_scan"}},