{"data": {"bikes": [{"fusion_lon": 0.0, "name": "1903eecf2845df4597757a9df04984bf", "rental_uris": {"android": "https://dc.lft.to/lastmile_qr_scan", "ios": "https://dc.lft.to/lastmile_qr_scan"}, "lat": 38.896972, "bike_id": "1903eecf2845df4597757a9df04984bf", "is_disabled": 0, "lon": -77.0433895, "is_reserved": 0, "fusion_lat": 0.0, "type": "electric_scooter"}, {"fusion_lon": 0.0, "name": "1431a5336b734d789d0064ddd6542239", "rental_uris": {"android": "https://dc.lft.to/lastmile_qr_scan", "ios": "https://dc.lft.to/lastmile_qr_scan"}, "lat": 38.950609, "bike_id": "1431a5336b734d789d0064ddd6542239", "is_disabled": 0, "lon": -77.06637033333334, "is_reserved": 0, "fusion_lat": 0.0, "type": "electric_bike"}, {"fusion_lon": 0.0, "name": "32127d8f172bbd656db674ca3568a6f2", "rental_uris": {"android": "https://dc.lft.to/lastmile_qr_scan", "ios": "https://dc.lft.to/lastmile_qr_scan"}, "lat": 38.91412066666667, "bike_id": "32127d8f172bbd656db674ca3568a6f2", "is_disabled": 0, "lon": -77.01840866666667, "is_reserved": 0, "fusion_lat": 0.0, "type": "electric_scooter"}, {"fusion_lon": 0.0, "name": "d106e2c983ec096bbaa187e47017a896", "rental_uris": {"android": "https://dc.lft.to/lastmile_qr_scan", "ios": "https://dc.lft.to/lastmile_qr_scan"}, "lat": 38.94447066666667, "bike_id": "d106e2c983ec096bbaa187e47017a896", "is_disabled": 0, "lon": -77.02339716666667, "is_reserved": 0, "fusion_lat": 0.0, "type": "electric_scooter"}, {"fusion_lon": 0.0, "name": "6e8e87d2042b23fa09b064afff9a9e71", "rental_uris": {"android": "https://dc.lft.to/lastmile_qr_scan", "ios": "https://dc.lft.to/lastmile_qr_scan"}, "lat": 38.9182175, "bike_id": "6e8e87d2042b23fa09b064afff9a9e71", "is_disabled": 0, "lon": -77.03725816666666, "is_reserved": 0, "fusion_lat": 0.0, "type": "electric_scooter"}, {"fusion_lon": 0.0, "name": "8cf1cc20398109869f4a64b02538e7f1", "rental_uris": {"android": "https://dc.lft.to/lastmile_qr_scan", "ios": "https://dc.lft.to/lastmile_qr_scan"}, "lat": 38.9048485, "bike_id": "8cf1cc20398109869f4a64b02538e7f1", "is_disabled": 0, "lon": -77.04858933333334, "is_reserved": 0, "fusion_lat": 0.0, "type": "electric_scooter"}, {"fusion_lon": 0.0, "name": "7ea0b21a11a072311bf90763e48c8ac3", "rental_uris": {"android": "https://dc.lft.to/lastmile_qr_scan", "ios": "https://dc.lft.to/lastmile_qr_scan"}, "lat": 38.9034975, "bike_id": "7ea0b21a11a072311bf90763e48c8ac3", "is_disabled": 0, "lon": -77.0619765, "is_reserved": 0, "fusion_lat": 0.0, "type": "electric_scooter"}, {"fusion_lon": 0.0, "name": "1ec63e1796e48fea4bdc8a15a5ecf5ea", "rental_uris": {"android": "https://dc.lft.to/lastmile_qr_scan", "ios": "https://dc.lft.to/lastmile_qr_scan"}, "lat": 38.905769166666666, "bike_id": "1ec63e1796e48fea4bdc8a15a5ecf5ea", "is_disabled": 0, "lon": -77.02178016666667, "is_reserved": 0, "fusion_lat": 0.0, "type": "electric_scooter"}, {"fusion_lon": 0.0, "name": "55cafe055deedb9f66b569ffcf955b70", "rental_uris": {"android": "https://dc.lft.to/lastmile_qr_scan", "ios": "https://dc.lft.to/lastmile_qr_scan"}, "lat": 38.92890883333333, "bike_id": "55cafe055deedb9f66b569ffcf955b70", "is_disabled": 0, "lon": -77.03474433333334, "is_reserved": 0, "fusion_lat": 0.0, "type": "electric_scooter"}, {"fusion_lon": 0.0, "name": "1d9fdd2643a2ccb537d9a494d938ba1e", "rental_uris": {"android": "https://dc.lft.to/lastmile_qr_scan", "ios": "https://dc.lft.to/lastmile_qr_scan"}, "lat": 38.9002845, "bike_id": "1d9fdd2643a2ccb537d9a494d938ba1e", "is_disabled": 0, "lon": -76.98684, "is_reserved": 0, "fusion_lat": 0.0, "type": "electric_scooter"}, {"fusion_lon": 0.0, "name": "8f96041e2fd1ca704b7e566b42399143", "rental_uris": {"android": "https://dc.lft.to/lastmile_qr_scan", "ios": "https://dc.lft.to/lastmile_qr_scan"}, "lat": 38.901639833333334, "bike_id": "8f96041e2fd1ca704b7e566b42399143", "is_disabled": 0, "lon": -77.04687333333334, "is_reserved": 0, "fusion_lat": 0.0, "type": "electric_scooter"}, {"fusion_lon": 0.0, "name": "1445bb3baaa7c355a522356b3714b715", "rental_uris": {"android": "https://dc.lft.to/lastmile_qr_scan", "ios": "https://dc.lft.to/lastmile_qr_scan"}, "lat": 38.90436716666667, "bike_id": "1445bb3baaa7c355a522356b3714b715", "is_disabled": 0, "lon": -77.05321883333333, "is_reserved": 0, "fusion_lat": 0.0, "type": "electric_scooter"}, {"fusion_lon": 0.0, "name": "f3d29b0a368842f54eacd7d556e1cc1f", "rental_uris": {"android": "https://dc.lft.to/lastmile_qr_scan", "ios": "https://dc.lft.to/lastmile_qr_scan"}, "lat": 38.932576, "bike_id": "f3d29b0a368842f54eacd7d556e1cc1f", "is_disabled": 0, "lon": -77.03873816666666, "is_reserved": 0, "fusion_lat": 0.0, "type": "electric_scooter"}, {"fusion_lon": 0.0, "name": "6f7e566282d227008578475bc81b8d60", "rental_uris": {"android": "https://dc.lft.to/lastmile_qr_scan", "ios": "https://dc.lft.to/lastmile_qr_scan"}, "lat": 38.93354633333333, "bike_id": "6f7e566282d227008578475bc81b8d60", "is_disabled": 0, "lon": -77.08577016666666, "is_reserved": 0, "fusion_lat": 0.0, "type": "electric_scooter"}, {"fusion_lon": 0.0, "name": "80794f7358d3e29eaa5517ab5be6efd3", "rental_uris": {"android": "https://dc.lft.to/lastmile_qr_scan", "ios": "https://dc.lft.to/lastmile_qr_scan"}, "lat": 38.89909, "bike_id": "80794f7358d3e29eaa5517ab5be6efd3", "is_disabled": 0, "lon": -76.93387716666666, "is_reserved": 0, "fusion_lat": 0.0, "type": "electric_scooter"}, {"fusion_lon": 0.0, "name": "8ca067550fd253e49a16afe14aa50883", "rental_uris": {"android": "https://dc.lft.to/lastmile_qr_scan", "ios": "https://dc.lft.to/lastmile_qr_scan"}, "lat": 38.90272233333334, "bike_id": "8ca067550fd253e49a16afe14aa50883", "is_disabled": 0, "lon": -77.01370483333334, "is_reserved": 0, "fusion_lat": 0.0, "type": "electric_scooter"}, {"fusion_lon": 0.0, "name": "e97ee6e9001771054b574263396358e0", "rental_uris": {"android": "https://dc.lft.to/lastmile_qr_scan", "ios": "https://dc.lft.to/lastmile_qr_scan"}, "lat": 38.909637833333335, "bike_id": "e97ee6e9001771054b574263396358e0", "is_disabled": 0, "lon": -77.04616983333334, "is_reserved": 0, "fusion_lat": 0.0, "type": "electric_scooter"}, {"fusion_lon": 0.0, "name": "ac68952e42b37cadc0ed8f31f6cab45f", "rental_uris": {"android": "https://dc.lft.to/lastmile_qr_scan", "ios": "https://dc.lft.to/lastmile_qr_scan"}, "lat": 38.9079075, "bike_id": "ac68952e42b37cadc0ed8f31f6cab45f", "is_disabled": 0, "lon": -76.99411116666667, "is_reserved": 0, "fusion_lat": 0.0, "type": "electric_scooter"}, {"fusion_lon": 0.0, "name": "2e74e83331f4e167a7f48f7c498cb272", "rental_uris": {"android": "https://dc.lft.to/lastmile_qr_scan", "ios": "https://dc.lft.to/lastmile_qr_scan"}, "lat": 38.90037216666666, "bike_id": "2e74e83331f4e167a7f48f7c498cb272", "is_disabled": 0, "lon": -77.01776133333334, "is_reserved": 0, "fusion_lat": 0.0, "type": "electric_scooter"}, {"fusion_lon": 0.0, "name": "eaed81bf55587bf3d6cbbed786a0c31d", "rental_uris": {"android": "https://dc.lft.to/lastmile_qr_scan", "ios": "https://dc.lft.to/lastmile_qr_scan"}, "lat": 38.9057625, "bike_id": "eaed81bf55587bf3d6cbbed786a0c31d", "is_disabled": 0, "lon": -77.04186883333334, "is_reserved": 0, "fusion_lat": 0.0, "type": "electric_scooter"}, {"fusion_lon": 0.0, "name": "62f21805667a0f9d100667a302e9d6b5", "rental_uris": {"android": "https://dc.lft.to/lastmile_qr_scan", "ios": "https://dc.lft.to/lastmile_qr_scan"}, "lat": 38.92053033333333, "bike_id": "62f21805667a0f9d100667a302e9d6b5", "is_disabled": 0, "lon": -77.01766933333333, "is_reserved": 0, "fusion_lat": 0.0, "type": "electric_scooter"}, {"fusion_lon": 0.0, "name": "573321b85b0ca7cec5ca337b4d4e97cb", "rental_uris": {"android": "https://dc.lft.to/lastmile_qr_scan", "ios": "https://dc.lft.to/lastmile_qr_scan"}, "lat": 38.92142, "bike_id": "573321b85b0ca7cec5ca337b4d4e97cb", "is_disabled": 0, "lon": -77.018277, "is_reserved": 0, "fusion_lat": 0.0, "type": "electric_scooter"}, {"fusion_lon": 0.0, "name": "409f3d37bad17782008dc4594f907ad7", "rental_uris": {"android": "https://dc.lft.to/lastmile_qr_scan", "ios": "https://dc.lft.to/lastmile_qr_scan"}, "lat": 38.8961475, "bike_id": "409f3d37bad17782008dc4594f907ad7", "is_disabled": 0, "lon": -77.02682616666667, "is_reserved": 0, "fusion_lat": 0.0, "type": "electric_scooter"}, {"fusion_lon": 0.0, "name": "2e9c7bc25e5dba230d60d5ea12f89c69", "rental_uris": {"android": "https://dc.lft.to/lastmile_qr_scan", "ios": "https://dc.lft.to/lastmile_qr_scan"}, "lat": 38.946532166666664, "bike_id": "2e9c7bc25e5dba230d60d5ea12f89c69", "is_disabled": 0, "lon": -77.06484366666666, "is_reserved": 0, "fusion_lat": 0.0, "type": "electric_scooter"}, {"fusion_lon": 0.0, "name": "59898d04fb73cffac58f684ce3cffd24", "rental_uris": {"android": "https://dc.lft.to/lastmile_qr_scan", "ios": "https://dc.lft.to/lastmile_qr_scan"}, "lat": 38.84895783333333, "bike_id": "59898d04fb73cffac58f684ce3cffd24", "is_disabled": 0, "lon": -77.0781165, "is_reserved": 0, "fusion_lat": 0.0, "type": "electric_bike"}, {"fusion_lon": 0.0, "name": "51decd95f3e8ccbcabe0bae0a8d35ff8", "rental_uris": {"android": "https://dc.lft.to/lastmile_qr_scan", "ios": "https://dc.lft.to/lastmile_qr_scan"}, "lat": 38.91926683333333, "bike_id": "51decd95f3e8ccbcabe0bae0a8d35ff8", "is_disabled": 0, "lon": -77.04628583333333, "is_reserved": 0, "fusion_lat": 0.0, "type": "electric_scooter"}, {"fusion_lon": 0.0, "name": "a0ff9d0e469d7f745eba5fabad870a67", "rental_uris": {"android": "https://dc.lft.to/lastmile_qr_scan", "ios": "https://dc.lft.to/lastmile_qr_scan"}, "lat": 39.007171666666665, "bike_id": "a0ff9d0e469d7f745eba5fabad870a67", "is_disabled": 0, "lon": -76.98138083333333, "is_reserved": 0, "fusion_lat": 0.0, "type": "electric_bike"}, {"fusion_lon": 0.0, "name": "a41027f367667dc7bc96f6faf8bae955", "rental_uris": {"android": "https://dc.lft.to/lastmile_qr_scan", "ios": "https://dc.lft.to/lastmile_qr_scan"}, "lat": 38.915936, "bike_id": "a41027f367667dc7bc96f6faf8bae955", "is_disabled": 0, "lon": -77.02289533333334, "is_reserved": 0, "fusion_lat": 0.0, "type": "electric_scooter"}, {"fusion_lon": 0.0, "name": "c0f7ff95290fa2f2882414ecef12afaf", "rental_uris": {"android": "https://dc.lft.to/lastmile_qr_scan", "ios": "https://dc.lft.to/lastmile_qr_scan"}, "lat": 38.922498833333336, "bike_id": "c0f7ff95290fa2f2882414ecef12afaf", "is_disabled": 0, "lon": -77.01948533333334, "is_reserved": 0, "fusion_lat": 0.0, "type": "electric_scooter"}, {"fusion_lon": 0.0, "name": "f940714a60935a80d8d533d9f61f110e", "rental_uris": {"android": "https://dc.lft.to/lastmile_qr_scan", "ios": "https://dc.lft.to/lastmile_qr_scan"}, "lat": 38.8963785, "bike_id": "f940714a60935a80d8d533d9f61f110e", "is_disabled": 0, "lon": -77.04009283333333, "is_reserved": 0, "fusion_lat": 0.0, "type": "electric_scooter"}, {"fusion_lon": 0.0, "name": "306feb62b12c78f911e18c0b94ad7009", "rental_uris": {"android": "https://dc.lft.to/lastmile_qr_scan", "ios": "https://dc.lft.to/lastmile_qr_scan"}, "lat": 38.8765835, "bike_id": "306feb62b12c78f911e18c0b94ad7009", "is_disabled": 0, "lon": -76.9931875, "is_reserved": 0, "fusion_lat": 0.0, "type": "electric_scooter"}, {"fusion_lon": 0.0, "name": "83c89d39ee28bab85dc1b260633e15ff", "rental_uris": {"android": "https://dc.lft.to/lastmile_qr_scan", "ios": "https://dc.lft.to/lastmile_qr_scan"}, "lat": 38.923407, "bike_id": "83c89d39ee28bab85dc1b260633e15ff", "is_disabled": 0, "lon": -77.04852366666667, "is_reserved": 0, "fusion_lat": 0.0, "type": "electric_scooter"}, {"fusion_lon": 0.0, "name": "6754ce7c97bdf500b41d0f016cdb801c", "rental_uris": {"android": "https://dc.lft.to/lastmile_qr_scan", "ios": "https://dc.lft.to/lastmile_qr_scan"}, "lat": 38.913299333333335, "bike_id": "6754ce7c97bdf500b41d0f016cdb801c", "is_disabled": 0, "lon": -77.04526633333333, "is_reserved": 0, "fusion_lat": 0.0, "type": "electric_scooter"}, {"fusion_lon": 0.0, "name": "35aa96d7c5a911474a5fcbf76f8311b8", "rental_uris": {"android": "https://dc.lft.to/lastmile_qr_scan", "ios": "https://dc.lft.to/lastmile_qr_scan"}, "lat": 38.93077783333333, "bike_id": "35aa96d7c5a911474a5fcbf76f8311b8", "is_disabled": 0, "lon": -77.0277075, "is_reserved": 0, "fusion_lat": 0.0, "type": "electric_scooter"}, {"fusion_lon": 0.0, "name": "f79078b42fd89c679b10ee12a611ef2f", "rental_uris": {"android": "https://dc.lft.to/lastmile_qr_scan", "ios": "https://dc.lft.to/lastmile_qr_scan"}, "lat": 38.90382316666667, "bike_id": "f79078b42fd89c679b10ee12a611ef2f", "is_disabled": 0, "lon": -77.037345, "is_reserved": 0, "fusion_lat": 0.0, "type": "electric_scooter"}, {"fusion_lon": 0.0, "name": "a37c582e7bd51ca6c81de7156f70d2b9", "rental_uris": {"android": "https://dc.lft.to/lastmile_qr_scan", "ios": "https://dc.lft.to/lastmile_qr_scan"}, "lat": 38.920797, "bike_id": "a37c582e7bd51ca6c81de7156f70d2b9", "is_disabled": 0, "lon": -77.03563966666667, "is_reserved": 0, "fusion_lat": 0.0, "type": "electric_scooter"}, {"fusion_lon": 0.0, "name": "c6035e0fee69089b306730424cffe9cb", "rental_uris": {"android": "https://dc.lft.to/lastmile_qr_scan", "ios": "https://dc.lft.to/lastmile_qr_scan"}, "lat": 38.906780833333336, "bike_id": "c6035e0fee69089b306730424cffe9cb", "is_disabled": 0, "lon": -77.0268985, "is_reserved": 0, "fusion_lat": 0.0, "type": "electric_scooter"}, {"fusion_lon": 0.0, "name": "04fb7653e424d46f23ca78267458988b", "rental_uris": {"android": "https://dc.lft.to/lastmile_qr_scan", "ios": "https://dc.lft.to/lastmile_qr_scan"}, "lat": 38.882297333333334, "bike_id": "04fb7653e424d46f23ca78267458988b", "is_disabled": 0, "lon": -76.99092816666666, "is_reserved": 0, "fusion_lat": 0.0, "type": "electric_scooter"}, {"fusion_lon": 0.0, "name": "8a8a2a1928cfdd18ca036abd903bfd00", "rental_uris": {"android": "https://dc.lft.to/lastmile_qr_scan", "ios": "https://dc.lft.to/lastmile_qr_scan"}, "lat": 38.930448166666665, "bike_id": "8a8a2a1928cfdd18ca036abd903bfd00", "is_disabled": 0, "lon": -76.95838783333333, "is_reserved": 0, "fusion_lat": 0.0, "type": "electric_scooter"}, {"fusion_lon": 0.0, "name": "587e8ca111f4d14d8075c434efebc454", "rental_uris": {"android": "https://dc.lft.to/lastmile_qr_scan", "ios": "https://dc.lft.to/lastmile_qr_scan"}, "lat": 38.916812666666665, "bike_id": "587e8ca111f4d14d8075c434efebc454", "is_disabled": 0, "lon": -77.03197366666667, "is_reserved": 0, "fusion_lat": 0.0, "type": "electric_scooter"}, {"fusion_lon": 0.0, "name": "622b50c2f345ee0efc71439909c292e8", "rental_uris": {"android": "https://dc.lft.to/lastmile_qr_scan", "ios": "https://dc.lft.to/lastmile_qr_scan"}, "lat": 38.95550683333333, "bike_id": "622b50c2f345ee0efc71439909c292e8", "is_disabled": 0, "lon": -77.069276, "is_reserved": 0, "fusion_lat": 0.0, "type": "electric_bike"}, {"fusion_lon": 0.0, "name": "b2069c74e657a681fe98b5ca62ea033e", "rental_uris": {"android": "https://dc.lft.to/lastmile_qr_scan", "ios": "https://dc.lft.to/lastmile_qr_scan"}, "lat": 38.846762166666664, "bike_id": "b2069c74e657a681fe98b5ca62ea033e", "is_disabled": 0, "lon": -77.1392, "is_reserved": 0, "fusion_lat": 0.0, "type": "electric_bike"}, {"fusion_lon": 0.0, "name": "e4ac21546f8cd9e82c8ecb1af1f25ba9", "rental_uris": {"android": "https://dc.lft.to/lastmile_qr_scan", "ios": "https://dc.lft.to/lastmile_qr_scan"}, "lat": 38.930291, "bike_id": "e4ac21546f8cd9e82c8ecb1af1f25ba9", "is_disabled": 0, "lon": -77.01299216666666, "is_reserved": 0, "fusion_lat": 0.0, "type": "electric_scooter"}, {"fusion_lon": 0.0, "name": "a3e9c37961d1a948e7e5839ab89e8ff9", "rental_uris": {"android": "https://dc.lft.to/lastmile_qr_scan", "ios": "https://dc.lft.to/lastmile_qr_scan"}, "lat": 38.92640133333333, "bike_id": "a3e9c37961d1a948e7e5839ab89e8ff9", "is_disabled": 0, "lon": -77.02508416666667, "is_reserved": 0, "fusion_lat": 0.0, "type": "electric_scooter"}, {"fusion_lon": 0.0, "name": "4f6099f0b74536daffc7c37a1128ae49", "rental_uris": {"android": "https://dc.lft.to/lastmile_qr_scan", "ios": "https://dc.lft.to/lastmile_qr_scan"}, "lat": 38.915337, "bike_id": "4f6099f0b74536daffc7c37a1128ae49", "is_disabled": 0, "lon": -77.04464416666667, "is_reserved": 0, "fusion_lat": 0.0, "type": "electric_scooter"}, {"fusion_lon": 0.0, "name": "ef6e2fcc2678f8237793296a116e8b35", "rental_uris": {"android": "https://dc.lft.to/lastmile_qr_scan", "ios": "https://dc.lft.to/lastmile_qr_scan"}, "lat": 38.904154, "bike_id": "ef6e2fcc2678f8237793296a116e8b35", "is_disabled": 0, "lon": -77.0534115, "is_reserved": 0, "fusion_lat": 0.0, "type": "electric_scooter"}, {"fusion_lon": 0.0, "name": "9768e294c8a4c037669e81d9c56becd4", "rental_uris": {"android": "https://dc.lft.to/lastmile_qr_scan", "ios": "https://dc.lft.to/lastmile_qr_scan"}, "lat": 38.930331333333335, "bike_id": "9768e294c8a4c037669e81d9c56becd4", "is_disabled": 0, "lon": -77.02964733333333, "is_reserved": 0, "fusion_lat": 0.0, "type": "electric_scooter"}, {"fusion_lon": 0.0, "name": "aee3e8fdc45d5df34d16db192ac1afff", "rental_uris": {"android": "https://dc.lft.to/lastmile_qr_scan", "ios": "https://dc.lft.to/lastmile_qr_scan"}, "lat": 38.90037, "bike_id": "aee3e8fdc45d5df34d16db192ac1afff", "is_disabled": 0, "lon": -77.040828, "is_reserved": 0, "fusion_lat": 0.0, "type": "electric_scooter"}, {"fusion_lon": 0.0, "name": "e0fd37bd5a045917c6de73b5219452ae", "rental_uris": {"android": "https://dc.lft.to/lastmile_qr_scan", "ios": "https://dc.lft.to/lastmile_qr_scan"}, "lat": 38.9058445, "bike_id": "e0fd37bd5a045917c6de73b5219452ae", "is_disabled": 0, "lon": -77.04043616666667, "is_reserved": 0, "fusion_lat": 0.0, "type": "electric_scooter"}, {"fusion_lon": 0.0, "name": "b6bf946251a18a27f8a7ee14f9c5cf3c", "rental_uris": {"android": "https://dc.lft.to/lastmile_qr_scan", "ios": "https://dc.lft.to/lastmile_qr_scan"}, "lat": 38.926027500000004, "bike_id": "b6bf946251a18a27f8a7ee14f9c5cf3c", "is_disabled": 0, "lon": -77.021546, "is_reserved": 0, "fusion_lat": 0.0, "type": "electric_scooter"}, {"fusion_lon": 0.0, "name": "321888f67357e47eea6cae6472c29245", "rental_uris": {"android": "https://dc.lft.to/lastmile_qr_scan", "ios": "https://dc.lft.to/lastmile_qr_scan"}, "lat": 38.936830666666665, "bike_id": "321888f67357e47eea6cae6472c29245", "is_disabled": 0, "lon": -77.05994133333333, "is_reserved": 0, "fusion_lat": 0.0, "type": "electric_scooter"}, {"fusion_lon": 0.0, "name": "397a21c0ff3d88827aa4bab3df8216a2", "rental_uris": {"android": "https://dc.lft.to/lastmile_qr_scan", "ios": "https://dc.lft.to/lastmile_qr_scan"}, "lat": 38.92974366666667, "bike_id": "397a21c0ff3d88827aa4bab3df8216a2", "is_disabled": 0, "lon": -77.04203816666667, "is_reserved": 0, "fusion_lat": 0.0, "type": "electric_scooter"}, {"fusion_lon": 0.0, "name": "8e608690f36ab236e6695574669b354a", "rental_uris": {"android": "https://dc.lft.to/lastmile_qr_scan", "ios": "https://dc.lft.to/lastmile_qr_scan"}, "lat": 38.944738666666666, "bike_id": "8e608690f36ab236e6695574669b354a", "is_disabled": 0, "lon": -76.98686833333333, "is_reserved": 0, "fusion_lat": 0.0, "type": "electric_bike"}, {"fusion_lon": 0.0, "name": "a42f84d02b7eb388c6e1f778dba98487", "rental_uris": {"android": "https://dc.lft.to/lastmile_qr_scan", "ios": "https://dc.lft.to/lastmile_qr_scan"}, "lat": 38.883855833333335, "bike_id": "a42f84d02b7eb388c6e1f778dba98487", "is_disabled": 0, "lon": -77.01972966666666, "is_reserved": 0, "fusion_lat": 0.0, "type": "electric_scooter"}, {"fusion_lon": 0.0, "name": "6405a9d32668c61edf5c27a9399904bd", "rental_uris": {"android": "https://dc.lft.to/lastmile_qr_scan", "ios": "https://dc.lft.to/lastmile_qr_scan"}, "lat": 38.994148333333335, "bike_id": "6405a9d32668c61edf5c27a9399904bd", "is_disabled": 0, "lon": -77.01799766666667, "is_reserved": 0, "fusion_lat": 0.0, "type": "electric_bike"}, {"fusion_lon": 0.0, "name": "810e092b7caf50234c76860f5af1766a", "rental_uris": {"android": "https://dc.lft.to/lastmile_qr_scan", "ios": "https://dc.lft.to/lastmile_qr_scan"}, "lat": 38.891938, "bike_id": "810e092b7caf50234c76860f5af1766a", "is_disabled": 0, "lon": -76.9882205, "is_reserved": 0, "fusion_lat": 0.0, "type": "electric_scooter"}, {"fusion_lon": 0.0, "name": "6dffffb14e1e0e1bc749b1ae5474f0e6", "rental_uris": {"android": "https://dc.lft.to/lastmile_qr_scan", "ios": "https://dc.lft.to/lastmile_qr_scan"}, "lat": 38.907446666666665, "bike_id": "6dffffb14e1e0e1bc749b1ae5474f0e6", "is_disabled": 0, "lon": -77.01531866666667, "is_reserved": 0, "fusion_lat": 0.0, "type": "electric_scooter"}, {"fusion_lon": 0.0, "name": "328cfe86f4992c47332ad699aa1f9704", "rental_uris": {"android": "https://dc.lft.to/lastmile_qr_scan", "ios": "https://dc.lft.to/lastmile_qr_scan"}, "lat": 38.925037, "bike_id": "328cfe86f4992c47332ad699aa1f9704", "is_disabled": 0, "lon": -77.024003, "is_reserved": 0, "fusion_lat": 0.0, "type": "electric_scooter"}, {"fusion_lon": 0.0, "name": "81c0b5206d0be694fa3de2efbd0657b8", "rental_uris": {"android": "https://dc.lft.to/lastmile_qr_scan", "ios": "https://dc.lft.to/lastmile_qr_scan"}, "lat": 38.83866166666667, "bike_id": "81c0b5206d0be694fa3de2efbd0657b8", "is_disabled": 0, "lon": -76.99532966666666, "is_reserved": 0, "fusion_lat": 0.0, "type": "electric_bike"}, {"fusion_lon": 0.0, "name": "29663fd838dcacc913cbb045b71081b4", "rental_uris": {"android": "https://dc.lft.to/lastmile_qr_scan", "ios": "https://dc.lft.to/lastmile_qr_scan"}, "lat": 38.90151766666666, "bike_id": "29663fd838dcacc913cbb045b71081b4", "is_disabled": 0, "lon": -77.03361083333333, "is_reserved": 0, "fusion_lat": 0.0, "type": "electric_scooter"}, {"fusion_lon": 0.0, "name": "bd4cc2e0a90ba473bc5858bcec54a4ef", "rental_uris": {"android": "https://dc.lft.to/lastmile_qr_scan", "ios": "https://dc.lft.to/lastmile_qr_scan"}, "lat": 38.89698633333333, "bike_id": "bd4cc2e0a90ba473bc5858bcec54a4ef", "is_disabled": 0, "lon": -77.01314216666667, "is_reserved": 0, "fusion_lat": 0.0, "type": "electric_scooter"}, {"fusion_lon": 0.0, "name": "30fabdcbc18bc40266d65e1c7e421ad3", "rental_uris": {"android": "https://dc.lft.to/lastmile_qr_scan", "ios": "https://dc.lft.to/lastmile_qr_scan"}, "lat": 38.90598816666667, "bike_id": "30fabdcbc18bc40266d65e1c7e421ad3", "is_disabled": 0, "lon": -77.04355766666667, "is_reserved": 0, "fusion_lat": 0.0, "type": "electric_scooter"}, {"fusion_lon": 0.0, "name": "606cdeab3ffbbb9831cdc9925e8da044", "rental_uris": {"android": "https://dc.lft.to/lastmile_qr_scan", "ios": "https://dc.lft.to/lastmile_qr_scan"}, "lat": 38.92373633333333, "bike_id": "606cdeab3ffbbb9831cdc9925e8da044", "is_disabled": 0, "lon": -77.0195545, "is_reserved": 0, "fusion_lat": 0.0, "type": "electric_scooter"}, {"fusion_lon": 0.0, "name": "3ac0361cec0625beed747eb90a4c2dfe", "rental_uris": {"android": "https://dc.lft.to/lastmile_qr_scan", "ios": "https://dc.lft.to/lastmile_qr_scan"}, "lat": 38.900525333333334, "bike_id": "3ac0361cec0625beed747eb90a4c2dfe", "is_disabled": 0, "lon": -76.98490183333334, "is_reserved": 0, "fusion_lat": 0.0, "type": "electric_scooter"}, {"fusion_lon": 0.0, "name": "5ffa74070b012323733e3dc3ffb59d3b", "rental_uris": {"android": "https://dc.lft.to/lastmile_qr_scan", "ios": "https://dc.lft.to/lastmile_qr_scan"}, "lat": 38.891758, "bike_id": "5ffa74070b012323733e3dc3ffb59d3b", "is_disabled": 0, "lon": -76.94256066666667, "is_reserved": 0, "fusion_lat": 0.0, "type": "electric_scooter"}, {"fusion_lon": 0.0, "name": "307f031647c2827d0adfee3203827dd2", "rental_uris": {"android": "https://dc.lft.to/lastmile_qr_scan", "ios": "https://dc.lft.to/lastmile_qr_scan"}, "lat": 38.9352655, "bike_id": "307f031647c2827d0adfee3203827dd2", "is_disabled": 0, "lon": -77.03259166666666, "is_reserved": 0, "fusion_lat": 0.0, "type": "electric_scooter"}, {"fusion_lon": 0.0, "name": "86702dd4340e19fb01e5e357a07342b7", "rental_uris": {"android": "https://dc.lft.to/lastmile_qr_scan", "ios": "https://dc.lft.to/lastmile_qr_scan"}, "lat": 38.89728866666667, "bike_id": "86702dd4340e19fb01e5e357a07342b7", "is_disabled": 0, "lon": -77.0263845, "is_reserved": 0, "fusion_lat": 0.0, "type": "electric_scooter"}, {"fusion_lon": 0.0, "name": "711a5e84d9319d13bc4d7c1613e90a6f", "rental_uris": {"android": "https://dc.lft.to/lastmile_qr_scan", "ios": "https://dc.lft.to/lastmile_qr_scan"}, "lat": 38.89225183333333, "bike_id": "711a5e84d9319d13bc4d7c1613e90a6f", "is_disabled": 0, "lon": -77.01722066666666, "is_reserved": 0, "fusion_lat": 0.0, "type": "electric_scooter"}, {"fusion_lon": 0.0, "name": "864ed7b1ee43f92654e21b2112e7dbd9", "rental_uris": {"android": "https://dc.lft.to/lastmile_qr_scan", "ios": "https://dc.lft.to/lastmile_qr_scan"}, "lat": 38.87712166666667, "bike_id": "864ed7b1ee43f92654e21b2112e7dbd9", "is_disabled": 0, "lon": -77.0176385, "is_reserved": 0, "fusion_lat": 0.0, "type": "electric_scooter"}, {"fusion_lon": 0.0, "name": "ee70d3b39c7273a43856b8dff50b8a86", "rental_uris": {"android": "https://dc.lft.to/lastmile_qr_scan", "ios": "https://dc.lft.to/lastmile_qr_scan"}, "lat": 38.90680866666667, "bike_id": "ee70d3b39c7273a43856b8dff50b8a86", "is_disabled": 0, "lon": -77.0269135, "is_reserved": 0, "fusion_lat": 0.0, "type": "electric_scooter"}, {"fusion_lon": 0.0, "name": "43adf1c4a727641cb13953f2aeb070da", "rental_uris": {"android": "https://dc.lft.to/lastmile_qr_scan", "ios": "https://dc.lft.to/lastmile_qr_scan"}, "lat": 38.938961666666664, "bike_id": "43adf1c4a727641cb13953f2aeb070da", "is_disabled": 0, "lon": -77.017654, "is_reserved": 0, "fusion_lat": 0.0, "type": "electric_scooter"}, {"fusion_lon": 0.0, "name": "69892958b945857e4d96f78d36e21001", "rental_uris": {"android": "https://dc.lft.to/lastmile_qr_scan", "ios": "https://dc.lft.to/lastmile_qr_scan"}, "lat": 38.943183833333336, "bike_id": "69892958b945857e4d96f78d36e21001", "is_disabled": 0, "lon": -76.99017966666666, "is_reserved": 0, "fusion_lat": 0.0, "type": "electric_bike"}, {"fusion_lon": 0.0, "name": "522ebf2aebf23cd9af9ba457ded0fd20", "rental_uris": {"android": "https://dc.lft.to/lastmile_qr_scan", "ios": "https://dc.lft.to/lastmile_qr_scan"}, "lat": 38.9004775, "bike_id": "522ebf2aebf23cd9af9ba457ded0fd20", "is_disabled": 0, "lon": -77.04338183333333, "is_reserved": 0, "fusion_lat": 0.0, "type": "electric_scooter"}, {"fusion_lon": 0.0, "name": "9b93de55f20ec34e439f7776632c8e50", "rental_uris": {"android": "https://dc.lft.to/lastmile_qr_scan", "ios": "https://dc.lft.to/lastmile_qr_scan"}, "lat": 38.8774665, "bike_id": "9b93de55f20ec34e439f7776632c8e50", "is_disabled": 0, "lon": -77.0059075, "is_reserved": 0, "fusion_lat": 0.0, "type": "electric_scooter"}, {"fusion_lon": 0.0, "name": "af595719d01fc381506e584df12b0792", "rental_uris": {"android": "https://dc.lft.to/lastmile_qr_scan", "ios": "https://dc.lft.to/lastmile_qr_scan"}, "lat": 38.92807583333333, "bike_id": "af595719d01fc381506e584df12b0792", "is_disabled": 0, "lon": -77.02429, "is_reserved": 0, "fusion_lat": 0.0, "type": "electric_scooter"}, {"fusion_lon": 0.0, "name": "13808872a39cc4c80ef1be2f30ec0eed", "rental_uris": {"android": "https://dc.lft.to/lastmile_qr_scan", "ios": "https://dc.lft.to/lastmile_qr_scan"}, "lat": 38.88815266666667, "bike_id": "13808872a39cc4c80ef1be2f30ec0eed", "is_disabled": 0, "lon": -76.97707383333334, "is_reserved": 0, "fusion_lat": 0.0, "type": "electric_scooter"}, {"fusion_lon": 0.0, "name": "a934120bfe35f0e44d8d3550141b22d7", "rental_uris": {"android": "https://dc.lft.to/lastmile_qr_scan", "ios": "https://dc.lft.to/lastmile_qr_scan"}, "lat": 38.89858366666667, "bike_id": "a934120bfe35f0e44d8d3550141b22d7", "is_disabled": 0, "lon": -77.04874, "is_reserved": 0, "fusion_lat": 0.0, "type": "electric_scooter"}, {"fusion_lon": 0.0, "name": "d7d1dff78fef918d122d0f1046eb39d7", "rental_uris": {"android": "https://dc.lft.to/lastmile_qr_scan", "ios": "https://dc.lft.to/lastmile_qr_scan"}, "lat": 38.931446, "bike_id": "d7d1dff78fef918d122d0f1046eb39d7", "is_disabled": 0, "lon": -77.05696183333333, "is_reserved": 0, "fusion_lat": 0.0, "type": "electric_scooter"}, {"fusion_lon": 0.0, "name": "1b742bdcef9ef6f80f8b54a695b625ed", "rental_uris": {"android": "https://dc.lft.to/lastmile_qr_scan", "ios": "https://dc.lft.to/lastmile_qr_scan"}, "lat": 38.96027633333333, "bike_id": "1b742bdcef9ef6f80f8b54a695b625ed", "is_disabled": 0, "lon": -77.02423716666667, "is_reserved": 0, "fusion_lat": 0.0, "type": "electric_scooter"}, {"fusion_lon": 0.0, "name": "dea46c264d3ff3e9a553c1f7c2834515", "rental_uris": {"android": "https://dc.lft.to/lastmile_qr_scan", "ios": "https://dc.lft.to/lastmile_qr_scan"}, "lat": 38.91246366666667, "bike_id": "dea46c264d3ff3e9a553c1f7c2834515", "is_disabled": 0, "lon": -76.98666066666667, "is_reserved": 0, "fusion_lat": 0.0, "type": "electric_scooter"}, {"fusion_lon": 0.0, "name": "ac62276232f73c82266d8a9348622a64", "rental_uris": {"android": "https://dc.lft.to/lastmile_qr_scan", "ios": "https://dc.lft.to/lastmile_qr_scan"}, "lat": 38.90395016666667, "bike_id": "ac62276232f73c82266d8a9348622a64", "is_disabled": 0, "lon": -77.03508366666667, "is_reserved": 0, "fusion_lat": 0.0, "type": "electric_scooter"}, {"fusion_lon": 0.0, "name": "f774f9df9cd022b08da0487d861b464c", "rental_uris": {"android": "https://dc.lft.to/lastmile_qr_scan", "ios": "https://dc.lft.to/lastmile_qr_scan"}, "lat": 38.8964955, "bike_id": "f774f9df9cd022b08da0487d861b464c", "is_disabled": 0, "lon": -77.02374483333334, "is_reserved": 0, "fusion_lat": 0.0, "type": "electric_scooter"}, {"fusion_lon": 0.0, "name": "c20d5ee73cdad772e36af6e6fb63b15c", "rental_uris": {"android": "https://dc.lft.to/lastmile_qr_scan", "ios": "https://dc.lft.to/lastmile_qr_scan"}, "lat": 38.904696666666666, "bike_id": "c20d5ee73cdad772e36af6e6fb63b15c", "is_disabled": 0, "lon": -77.04869966666666, "is_reserved": 0, "fusion_lat": 0.0, "type": "electric_scooter"}, {"fusion_lon": 0.0, "name": "6663cc982313996c5c2fc1508c9900ce", "rental_uris": {"android": "https://dc.lft.to/lastmile_qr_scan", "ios": "https://dc.lft.to/lastmile_qr_scan"}, "lat": 38.930561166666664, "bike_id": "6663cc982313996c5c2fc1508c9900ce", "is_disabled": 0, "lon": -77.055794, "is_reserved": 0, "fusion_lat": 0.0, "type": "electric_scooter"}, {"fusion_lon": 0.0, "name": "22092c97175900f46db065fd462588d6", "rental_uris": {"android": "https://dc.lft.to/lastmile_qr_scan", "ios": "https://dc.lft.to/lastmile_qr_scan"}, "lat": 38.881886333333334, "bike_id": "22092c97175900f46db065fd462588d6", "is_disabled": 0, "lon": -77.02848683333333, "is_reserved": 0, "fusion_lat": 0.0, "type": "electric_scooter"}, {"fusion_lon": 0.0, "name": "e4e23c0306ceebc1aa4c12e1599018f5", "rental_uris": {"android": "https://dc.lft.to/lastmile_qr_scan", "ios": "https://dc.lft.to/lastmile_qr_scan"}, "lat": 38.842777833333336, "bike_id": "e4e23c0306ceebc1aa4c12e1599018f5", "is_disabled": 0, "lon": -76.98839116666667, "is_reserved": 0, "fusion_lat": 0.0, "type": "electric_bike"}, {"fusion_lon": 0.0, "name": "3cd6d070c826bc9ea4b25d33c49f21f2", "rental_uris": {"android": "https://dc.lft.to/lastmile_qr_scan", "ios": "https://dc.lft.to/lastmile_qr_scan"}, "lat": 38.90602033333333, "bike_id": "3cd6d070c826bc9ea4b25d33c49f21f2", "is_disabled": 0, "lon": -77.04035083333333, "is_reserved": 0, "fusion_lat": 0.0, "type": "electric_scooter"}, {"fusion_lon": 0.0, "name": "7d51fb2db2c66c7d4670e6cda99345f9", "rental_uris": {"android": "https://dc.lft.to/lastmile_qr_scan", "ios": "https://dc.lft.to/lastmile_qr_scan"}, "lat": 38.806552, "bike_id": "7d51fb2db2c66c7d4670e6cda99345f9", "is_disabled": 0, "lon": -77.08755216666667, "is_reserved": 0, "fusion_lat": 0.0, "type": "electric_bike"}, {"fusion_lon": 0.0, "name": "30f1484eee3a38dc92f87c31544ca551", "rental_uris": {"android": "https://dc.lft.to/lastmile_qr_scan", "ios": "https://dc.lft.to/lastmile_qr_scan"}, "lat": 38.90310616666667, "bike_id": "30f1484eee3a38dc92f87c31544ca551", "is_disabled": 0, "lon": -77.023648, "is_reserved": 0, "fusion_lat": 0.0, "type": "electric_scooter"}, {"fusion_lon": 0.0, "name": "be15830e791e6c1200a2b8cff1db763b", "rental_uris": {"android": "https://dc.lft.to/lastmile_qr_scan", "ios": "https://dc.lft.to/lastmile_qr_scan"}, "lat": 38.921506666666666, "bike_id": "be15830e791e6c1200a2b8cff1db763b", "is_disabled": 0, "lon": -77.03532083333333, "is_reserved": 0, "fusion_lat": 0.0, "type": "electric_scooter"}, {"fusion_lon": 0.0, "name": "9ed26d9dccb6a11164cbcf75657b8491", "rental_uris": {"android": "https://dc.lft.to/lastmile_qr_scan", "ios": "https://dc.lft.to/lastmile_qr_scan"}, "lat": 38.94182433333334, "bike_id": "9ed26d9dccb6a11164cbcf75657b8491", "is_disabled": 0, "lon": -77.02492783333334, "is_reserved": 0, "fusion_lat": 0.0, "type": "electric_scooter"}, {"fusion_lon": 0.0, "name": "6cf968751cd34967b89de1019e2f8ed0", "rental_uris": {"android": "https://dc.lft.to/lastmile_qr_scan", "ios": "https://dc.lft.to/lastmile_qr_scan"}, "lat": 38.878411166666666, "bike_id": "6cf968751cd34967b89de1019e2f8ed0", "is_disabled": 0, "lon": -77.0196285, "is_reserved": 0, "fusion_lat": 0.0, "type": "electric_scooter"}, {"fusion_lon": 0.0, "name": "bf6db350bea7df852110b4ac60190a99", "rental_uris": {"android": "https://dc.lft.to/lastmile_qr_scan", "ios": "https://dc.lft.to/lastmile_qr_scan"}, "lat": 38.906451, "bike_id": "bf6db350bea7df852110b4ac60190a99", "is_disabled": 0, "lon": -77.01429783333333, "is_reserved": 0, "fusion_lat": 0.0, "type": "electric_scooter"}, {"fusion_lon": 0.0, "name": "11fefda18e66d77a6d38f26d88eead0b", "rental_uris": {"android": "https://dc.lft.to/lastmile_qr_scan", "ios": "https://dc.lft.to/lastmile_qr_scan"}, "lat": 38.937375833333334, "bike_id": "11fefda18e66d77a6d38f26d88eead0b", "is_disabled": 0, "lon": -77.0325935, "is_reserved": 0, "fusion_lat": 0.0, "type": "electric_scooter"}, {"fusion_lon": 0.0, "name": "859471eebbd46a69c4b2d98dbaaf2d79", "rental_uris": {"android": "https://dc.lft.to/lastmile_qr_scan", "ios": "https://dc.lft.to/lastmile_qr_scan"}, "lat": 38.892345, "bike_id": "859471eebbd46a69c4b2d98dbaaf2d79", "is_disabled": 0, "lon": -77.0487425, "is_reserved": 0, "fusion_lat": 0.0, "type": "electric_scooter"}, {"fusion_lon": 0.0, "name": "bc74b92973bf4d48f28051c3022f62d1", "rental_uris": {"android": "https://dc.lft.to/lastmile_qr_scan", "ios": "https://dc.lft.to/lastmile_qr_scan"}, "lat": 38.9369475, "bike_id": "bc74b92973bf4d48f28051c3022f62d1", "is_disabled": 0, "lon": -77.02713083333333, "is_reserved": 0, "fusion_lat": 0.0, "type": "electric_scooter"}, {"fusion_lon": 0.0, "name": "970f9f068e09d193b3e5f725ac3e66fe", "rental_uris": {"android": "https://dc.lft.to/lastmile_qr_scan", "ios": "https://dc.lft.to/lastmile_qr_scan"}, "lat": 38.90173466666667, "bike_id": "970f9f068e09d193b3e5f725ac3e66fe", "is_disabled": 0, "lon": -77.03653083333333, "is_reserved": 0, "fusion_lat": 0.0, "type": "electric_scooter"}, {"fusion_lon": 0.0, "name": "d6842e0375070dfbf192ebe4c46747eb", "rental_uris": {"android": "https://dc.lft.to/lastmile_qr_scan", "ios": "https://dc.lft.to/lastmile_qr_scan"}, "lat": 38.90265316666667, "bike_id": "d6842e0375070dfbf192ebe4c46747eb", "is_disabled": 0, "lon": -77.03073316666666, "is_reserved": 0, "fusion_lat": 0.0, "type": "electric_scooter"}, {"fusion_lon": 0.0, "name": "2d96ba1c45456f1df9c66ce97a7c78c1", "rental_uris": {"android": "https://dc.lft.to/lastmile_qr_scan", "ios": "https://dc.lft.to/lastmile_qr_scan"}, "lat": 38.915873, "bike_id": "2d96ba1c45456f1df9c66ce97a7c78c1", "is_disabled": 0, "lon": -77.0416995, "is_reserved": 0, "fusion_lat": 0.0, "type": "electric_scooter"}, {"fusion_lon": 0.0, "name": "c692a4e055afa66f87291f22fa4666a1", "rental_uris": {"android": "https://dc.lft.to/lastmile_qr_scan", "ios": "https://dc.lft.to/lastmile_qr_scan"}, "lat": 38.893515666666666, "bike_id": "c692a4e055afa66f87291f22fa4666a1", "is_disabled": 0, "lon": -77.00332933333334, "is_reserved": 0, "fusion_lat": 0.0, "type": "electric_scooter"}, {"fusion_lon": 0.0, "name": "e5f44074e30bcfb351215e6eff747919", "rental_uris": {"android": "https://dc.lft.to/lastmile_qr_scan", "ios": "https://dc.lft.to/lastmile_qr_scan"}, "lat": 38.885876833333334, "bike_id": "e5f44074e30bcfb351215e6eff747919", "is_disabled": 0, "lon": -76.99146583333334, "is_reserved": 0, "fusion_lat": 0.0, "type": "electric_bike"}, {"fusion_lon": 0.0, "name": "2eb46840f1de0d34c4ffe4fb6e84879e", "rental_uris": {"android": "https://dc.lft.to/lastmile_qr_scan", "ios": "https://dc.lft.to/lastmile_qr_scan"}, "lat": 38.8766195, "bike_id": "2eb46840f1de0d34c4ffe4fb6e84879e", "is_disabled": 0, "lon": -77.003884, "is_reserved": 0, "fusion_lat": 0.0, "type": "electric_scooter"}, {"fusion_lon": 0.0, "name": "359708a7f6d2f52890d166953b8fc087", "rental_uris": {"android": "https://dc.lft.to/lastmile_qr_scan", "ios": "https://dc.lft.to/lastmile_qr_scan"}, "lat": 39.0254435, "bike_id": "359708a7f6d2f52890d166953b8fc087", "is_disabled": 0, "lon": -77.044448, "is_reserved": 0, "fusion_lat": 0.0, "type": "electric_bike"}, {"fusion_lon": 0.0, "name": "756b1951a9d2ab3e04a12e5b393ab1d0", "rental_uris": {"android": "https://dc.lft.to/lastmile_qr_scan", "ios": "https://dc.lft.to/lastmile_qr_scan"}, "lat": 38.880761666666665, "bike_id": "756b1951a9d2ab3e04a12e5b393ab1d0", "is_disabled": 0, "lon": -77.01178333333333, "is_reserved": 0, "fusion_lat": 0.0, "type": "electric_scooter"}, {"fusion_lon": 0.0, "name": "d134c90c51b29e27ba0508b21cb87c3f", "rental_uris": {"android": "https://dc.lft.to/lastmile_qr_scan", "ios": "https://dc.lft.to/lastmile_qr_scan"}, "lat": 38.90563066666667, "bike_id": "d134c90c51b29e27ba0508b21cb87c3f", "is_disabled": 0, "lon": -77.0346815, "is_reserved": 0, "fusion_lat": 0.0, "type": "electric_scooter"}, {"fusion_lon": 0.0, "name": "4a57d0524942e7535bc46da2e8f5b4ab", "rental_uris": {"android": "https://dc.lft.to/lastmile_qr_scan", "ios": "https://dc.lft.to/lastmile_qr_scan"}, "lat": 38.900606333333336, "bike_id": "4a57d0524942e7535bc46da2e8f5b4ab", "is_disabled": 0, "lon": -76.98703766666667, "is_reserved": 0, "fusion_lat": 0.0, "type": "electric_scooter"}, {"fusion_lon": 0.0, "name": "256dabb1eb4efeba74e6e534f06ffd4e", "rental_uris": {"android": "https://dc.lft.to/lastmile_qr_scan", "ios": "https://dc.lft.to/lastmile_qr_scan"}, "lat": 38.90030866666667, "bike_id": "256dabb1eb4efeba74e6e534f06ffd4e", "is_disabled": 0, "lon": -77.01194, "is_reserved": 0, "fusion_lat": 0.0, "type": "electric_scooter"}, {"fusion_lon": 0.0, "name": "a998902fe48a334782befe6225ef01b2", "rental_uris": {"android": "https://dc.lft.to/lastmile_qr_scan", "ios": "https://dc.lft.to/lastmile_qr_scan"}, "lat": 38.8581345, "bike_id": "a998902fe48a334782befe6225ef01b2", "is_disabled": 0, "lon": -76.98909316666666, "is_reserved": 0, "fusion_lat": 0.0, "type": "electric_scooter"}, {"fusion_lon": 0.0, "name": "24d6e0bb5c987fecc6e77fa9c16be9be", "rental_uris": {"android": "https://dc.lft.to/lastmile_qr_scan", "ios": "https://dc.lft.to/lastmile_qr_scan"}, "lat": 38.90573766666667, "bike_id": "24d6e0bb5c987fecc6e77fa9c16be9be", "is_disabled": 0, "lon": -77.04481933333334, "is_reserved": 0, "fusion_lat": 0.0, "type": "electric_bike"}, {"fusion_lon": 0.0, "name": "d44feeafb048be7fa38b70038a7f942b", "rental_uris": {"android": "https://dc.lft.to/lastmile_qr_scan", "ios": "https://dc.lft.to/lastmile_qr_scan"}, "lat": 38.9085335, "bike_id": "d44feeafb048be7fa38b70038a7f942b", "is_disabled": 0, "lon": -77.03991016666667, "is_reserved": 0, "fusion_lat": 0.0, "type": "electric_scooter"}, {"fusion_lon": 0.0, "name": "6cd8ba78e344ae8995dd74bd24f481a7", "rental_uris": {"android": "https://dc.lft.to/lastmile_qr_scan", "ios": "https://dc.lft.to/lastmile_qr_scan"}, "lat": 38.90605983333333, "bike_id": "6cd8ba78e344ae8995dd74bd24f481a7", "is_disabled": 0, "lon": -77.12883683333334, "is_reserved": 0, "fusion_lat": 0.0, "type": "electric_bike"}, {"fusion_lon": 0.0, "name": "ea7106c00134bd320557685e2c428436", "rental_uris": {"android": "https://dc.lft.to/lastmile_qr_scan", "ios": "https://dc.lft.to/lastmile_qr_scan"}, "lat": 38.91579483333334, "bike_id": "ea7106c00134bd320557685e2c428436", "is_disabled": 0, "lon": -77.05023566666667, "is_reserved": 0, "fusion_lat": 0.0, "type": "electric_scooter"}, {"fusion_lon": 0.0, "name": "f506f0d3182d823899071d78f2a8affd", "rental_uris": {"android": "https://dc.lft.to/lastmile_qr_scan", "ios": "https://dc.lft.to/lastmile_qr_scan"}, "lat": 38.90189433333333, "bike_id": "f506f0d3182d823899071d78f2a8affd", "is_disabled": 0, "lon": -77.0591005, "is_reserved": 0, "fusion_lat": 0.0, "type": "electric_scooter"}, {"fusion_lon": 0.0, "name": "259d77da2d73d4a473a38b96a77f7840", "rental_uris": {"android": "https://dc.lft.to/lastmile_qr_scan", "ios": "https://dc.lft.to/lastmile_qr_scan"}, "lat": 38.924328333333335, "bike_id": "259d77da2d73d4a473a38b96a77f7840", "is_disabled": 0, "lon": -77.037848, "is_reserved": 0, "fusion_lat": 0.0, "type": "electric_scooter"}, {"fusion_lon": 0.0, "name": "40713977190b674e3e0ddd5b38a96eec", "rental_uris": {"android": "https://dc.lft.to/lastmile_qr_scan", "ios": "https://dc.lft.to/lastmile_qr_scan"}, "lat": 38.896259, "bike_id": "40713977190b674e3e0ddd5b38a96eec", "is_disabled": 0, "lon": -77.0322685, "is_reserved": 0, "fusion_lat": 0.0, "type": "electric_scooter"}, {"fusion_lon": 0.0, "name": "5e00951408043c7d2ed06358e17778d7", "rental_uris": {"android": "https://dc.lft.to/lastmile_qr_scan", "ios": "https://dc.lft.to/lastmile_qr_scan"}, "lat": 38.902455, "bike_id": "5e00951408043c7d2ed06358e17778d7", "is_disabled": 0, "lon": -77.01519166666667, "is_reserved": 0, "fusion_lat": 0.0, "type": "electric_scooter"}, {"fusion_lon": 0.0, "name": "f04c69712993056f4d1bfe499a235b69", "rental_uris": {"android": "https://dc.lft.to/lastmile_qr_scan", "ios": "https://dc.lft.to/lastmile_qr_scan"}, "lat": 38.92567283333333, "bike_id": "f04c69712993056f4d1bfe499a235b69", "is_disabled": 0, "lon": -76.99957983333333, "is_reserved": 0, "fusion_lat": 0.0, "type": "electric_scooter"}, {"fusion_lon": 0.0, "name": "fea29bbaa9d46735810f6ea74cfb386b", "rental_uris": {"android": "https://dc.lft.to/lastmile_qr_scan", "ios": "https://dc.lft.to/lastmile_qr_scan"}, "lat": 38.920041833333336, "bike_id": "fea29bbaa9d46735810f6ea74cfb386b", "is_disabled": 0, "lon": -77.0217115, "is_reserved": 0, "fusion_lat": 0.0, "type": "electric_scooter"}, {"fusion_lon": 0.0, "name": "7b58ef11fc590816689d4b3a7278c3ad", "rental_uris": {"android": "https://dc.lft.to/lastmile_qr_scan", "ios": "https://dc.lft.to/lastmile_qr_scan"}, "lat": 38.883194333333336, "bike_id": "7b58ef11fc590816689d4b3a7278c3ad", "is_disabled": 0, "lon": -77.0259095, "is_reserved": 0, "fusion_lat": 0.0, "type": "electric_scooter"}, {"fusion_lon": 0.0, "name": "d55e4f0364c96879900549361aa664ee", "rental_uris": {"android": "https://dc.lft.to/lastmile_qr_scan", "ios": "https://dc.lft.to/lastmile_qr_scan"}, "lat": 38.90110116666666, "bike_id": "d55e4f0364c96879900549361aa664ee", "is_disabled": 0, "lon": -77.049924, "is_reserved": 0, "fusion_lat": 0.0, "type": "electric_scooter"}, {"fusion_lon": 0.0, "name": "8b5d8d530dbe8738f12302daefa5c4c0", "rental_uris": {"android": "https://dc.lft.to/lastmile_qr_scan", "ios": "https://dc.lft.to/lastmile_qr_scan"}, "lat": 38.8996145, "bike_id": "8b5d8d530dbe8738f12302daefa5c4c0", "is_disabled": 0, "lon": -77.05026633333334, "is_reserved": 0, "fusion_lat": 0.0, "type": "electric_scooter"}, {"fusion_lon": 0.0, "name": "6f9ec64f8d294f9c7e9997eb906a746a", "rental_uris": {"android": "https://dc.lft.to/lastmile_qr_scan", "ios": "https://dc.lft.to/lastmile_qr_scan"}, "lat": 38.94153, "bike_id": "6f9ec64f8d294f9c7e9997eb906a746a", "is_disabled": 0, "lon": -77.00204133333334, "is_reserved": 0, "fusion_lat": 0.0, "type": "electric_bike"}, {"fusion_lon": 0.0, "name": "9647a0096e4e9ef7e9909bca30397c42", "rental_uris": {"android": "https://dc.lft.to/lastmile_qr_scan", "ios": "https://dc.lft.to/lastmile_qr_scan"}, "lat": 38.92672816666666, "bike_id": "9647a0096e4e9ef7e9909bca30397c42", "is_disabled": 0, "lon": -77.029874, "is_reserved": 0, "fusion_lat": 0.0, "type": "electric_scooter"}, {"fusion_lon": 0.0, "name": "097d89ef349ea474794ddf4308c19af7", "rental_uris": {"android": "https://dc.lft.to/lastmile_qr_scan", "ios": "https://dc.lft.to/lastmile_qr_scan"}, "lat": 38.90571083333333, "bike_id": "097d89ef349ea474794ddf4308c19af7", "is_disabled": 0, "lon": -77.034774, "is_reserved": 0, "fusion_lat": 0.0, "type": "electric_scooter"}, {"fusion_lon": 0.0, "name": "ae88cb1b6a9bf7d191293574c2764ff7", "rental_uris": {"android": "https://dc.lft.to/lastmile_qr_scan", "ios": "https://dc.lft.to/lastmile_qr_scan"}, "lat": 38.9155435, "bike_id": "ae88cb1b6a9bf7d191293574c2764ff7", "is_disabled": 0, "lon": -77.0365895, "is_reserved": 0, "fusion_lat": 0.0, "type": "electric_scooter"}, {"fusion_lon": 0.0, "name": "a859875b22478ba5f7e59e14beb06471", "rental_uris": {"android": "https://dc.lft.to/lastmile_qr_scan", "ios": "https://dc.lft.to/lastmile_qr_scan"}, "lat": 38.91919033333333, "bike_id": "a859875b22478ba5f7e59e14beb06471", "is_disabled": 0, "lon": -77.03204583333333, "is_reserved": 0, "fusion_lat": 0.0, "type": "electric_scooter"}, {"fusion_lon": 0.0, "name": "67f8722525a32ebf24a6631ebb983cb3", "rental_uris": {"android": "https://dc.lft.to/lastmile_qr_scan", "ios": "https://dc.lft.to/lastmile_qr_scan"}, "lat": 38.94926916666667, "bike_id": "67f8722525a32ebf24a6631ebb983cb3", "is_disabled": 0, "lon": -76.95916333333334, "is_reserved": 0, "fusion_lat": 0.0, "type": "electric_bike"}, {"fusion_lon": 0.0, "name": "8be9f864588d071f7da84d4e6f5989fe", "rental_uris": {"android": "https://dc.lft.to/lastmile_qr_scan", "ios": "https://dc.lft.to/lastmile_qr_scan"}, "lat": 38.90191133333333, "bike_id": "8be9f864588d071f7da84d4e6f5989fe", "is_disabled": 0, "lon": -77.02183933333333, "is_reserved": 0, "fusion_lat": 0.0, "type": "electric_scooter"}, {"fusion_lon": 0.0, "name": "9c7805acfe9673e3d7761b6e35c10dd4", "rental_uris": {"android": "https://dc.lft.to/lastmile_qr_scan", "ios": "https://dc.lft.to/lastmile_qr_scan"}, "lat": 38.926217, "bike_id": "9c7805acfe9673e3d7761b6e35c10dd4", "is_disabled": 0, "lon": -77.00592316666666, "is_reserved": 0, "fusion_lat": 0.0, "type": "electric_bike"}, {"fusion_lon": 0.0, "name": "3caff3af115a6e2b5ac444740a8df437", "rental_uris": {"android": "https://dc.lft.to/lastmile_qr_scan", "ios": "https://dc.lft.to/lastmile_qr_scan"}, "lat": 38.956314, "bike_id": "3caff3af115a6e2b5ac444740a8df437", "is_disabled": 0, "lon": -77.02954816666667, "is_reserved": 0, "fusion_lat": 0.0, "type": "electric_scooter"}, {"fusion_lon": 0.0, "name": "3c31203f93561b0235ccd6e04d45522b", "rental_uris": {"android": "https://dc.lft.to/lastmile_qr_scan", "ios": "https://dc.lft.to/lastmile_qr_scan"}, "lat": 38.90202266666667, "bike_id": "3c31203f93561b0235ccd6e04d45522b", "is_disabled": 0, "lon": -77.06121183333333, "is_reserved": 0, "fusion_lat": 0.0, "type": "electric_scooter"}, {"fusion_lon": 0.0, "name": "afd5981d43b873325780441e9ae5e6fb", "rental_uris": {"android": "https://dc.lft.to/lastmile_qr_scan", "ios": "https://dc.lft.to/lastmile_qr_scan"}, "lat": 38.873141, "bike_id": "afd5981d43b873325780441e9ae5e6fb", "is_disabled": 0, "lon": -77.01391116666667, "is_reserved": 0, "fusion_lat": 0.0, "type": "electric_scooter"}, {"fusion_lon": 0.0, "name": "04284927c80e08fa8f9d89d514af3974", "rental_uris": {"android": "https://dc.lft.to/lastmile_qr_scan", "ios": "https://dc.lft.to/lastmile_qr_scan"}, "lat": 38.911251, "bike_id": "04284927c80e08fa8f9d89d514af3974", "is_disabled": 0, "lon": -77.04364716666667, "is_reserved": 0, "fusion_lat": 0.0, "type": "electric_scooter"}, {"fusion_lon": 0.0, "name": "6d4620923dd886665910bb57c4874a17", "rental_uris": {"android": "https://dc.lft.to/lastmile_qr_scan", "ios": "https://dc.lft.to/lastmile_qr_scan"}, "lat": 38.893632333333336, "bike_id": "6d4620923dd886665910bb57c4874a17", "is_disabled": 0, "lon": -76.9845965, "is_reserved": 0, "fusion_lat": 0.0, "type": "electric_scooter"}, {"fusion_lon": 0.0, "name": "3e8adbd58cdf5db984c59e999f4dde81", "rental_uris": {"android": "https://dc.lft.to/lastmile_qr_scan", "ios": "https://dc.lft.to/lastmile_qr_scan"}, "lat": 38.89615383333334, "bike_id": "3e8adbd58cdf5db984c59e999f4dde81", "is_disabled": 0, "lon": -76.92972166666667, "is_reserved": 0, "fusion_lat": 0.0, "type": "electric_scooter"}, {"fusion_lon": 0.0, "name": "a69348da63f6b313f6c4e34d63376241", "rental_uris": {"android": "https://dc.lft.to/lastmile_qr_scan", "ios": "https://dc.lft.to/lastmile_qr_scan"}, "lat": 38.8807695, "bike_id": "a69348da63f6b313f6c4e34d63376241", "is_disabled": 0, "lon": -77.037214, "is_reserved": 0, "fusion_lat": 0.0, "type": "electric_scooter"}, {"fusion_lon": 0.0, "name": "4dfc8fe4b15acabbebc4fe992053c1e6", "rental_uris": {"android": "https://dc.lft.to/lastmile_qr_scan", "ios": "https://dc.lft.to/lastmile_qr_scan"}, "lat": 38.902671833333336, "bike_id": "4dfc8fe4b15acabbebc4fe992053c1e6", "is_disabled": 0, "lon": -77.03069983333333, "is_reserved": 0, "fusion_lat": 0.0, "type": "electric_scooter"}, {"fusion_lon": 0.0, "name": "c071a28bf28a6413847a5857f9e51a6b", "rental_uris": {"android": "https://dc.lft.to/lastmile_qr_scan", "ios": "https://dc.lft.to/lastmile_qr_scan"}, "lat": 38.895584, "bike_id": "c071a28bf28a6413847a5857f9e51a6b", "is_disabled": 0, "lon": -77.12732183333334, "is_reserved": 0, "fusion_lat": 0.0, "type": "electric_bike"}, {"fusion_lon": 0.0, "name": "cdaba359a64b053c50f9d1e0cfc1543a", "rental_uris": {"android": "https://dc.lft.to/lastmile_qr_scan", "ios": "https://dc.lft.to/lastmile_qr_scan"}, "lat": 38.9077405, "bike_id": "cdaba359a64b053c50f9d1e0cfc1543a", "is_disabled": 0, "lon": -77.02453966666667, "is_reserved": 0, "fusion_lat": 0.0, "type": "electric_scooter"}, {"fusion_lon": 0.0, "name": "cb58b39d229dbd2ec8002df7fd4dca4a", "rental_uris": {"android": "https://dc.lft.to/lastmile_qr_scan", "ios": "https://dc.lft.to/lastmile_qr_scan"}, "lat": 38.903891, "bike_id": "cb58b39d229dbd2ec8002df7fd4dca4a", "is_disabled": 0, "lon": -76.98102283333333, "is_reserved": 0, "fusion_lat": 0.0, "type": "electric_scooter"}, {"fusion_lon": 0.0, "name": "00a1e4105e371f9989867d998dd84843", "rental_uris": {"android": "https://dc.lft.to/lastmile_qr_scan", "ios": "https://dc.lft.to/lastmile_qr_scan"}, "lat": 38.92124716666667, "bike_id": "00a1e4105e371f9989867d998dd84843", "is_disabled": 0, "lon": -77.02084333333333, "is_reserved": 0, "fusion_lat": 0.0, "type": "electric_scooter"}, {"fusion_lon": 0.0, "name": "44100422c1708173dd1084db8f6028d8", "rental_uris": {"android": "https://dc.lft.to/lastmile_qr_scan", "ios": "https://dc.lft.to/lastmile_qr_scan"}, "lat": 38.90033833333333, "bike_id": "44100422c1708173dd1084db8f6028d8", "is_disabled": 0, "lon": -77.03292183333333, "is_reserved": 0, "fusion_lat": 0.0, "type": "electric_scooter"}, {"fusion_lon": 0.0, "name": "258931ec3b1dc6ca8d8326cbed4255df", "rental_uris": {"android": "https://dc.lft.to/lastmile_qr_scan", "ios": "https://dc.lft.to/lastmile_qr_scan"}, "lat": 38.92796883333333, "bike_id": "258931ec3b1dc6ca8d8326cbed4255df", "is_disabled": 0, "lon": -77.05530616666667, "is_reserved": 0, "fusion_lat": 0.0, "type": "electric_scooter"}, {"fusion_lon": 0.0, "name": "98c759b3499bb23aa0ff6276f07feb48", "rental_uris": {"android": "https://dc.lft.to/lastmile_qr_scan", "ios": "https://dc.lft.to/lastmile_qr_scan"}, "lat": 38.90854433333333, "bike_id": "98c759b3499bb23aa0ff6276f07feb48", "is_disabled": 0, "lon": -77.01014683333334, "is_reserved": 0, "fusion_lat": 0.0, "type": "electric_scooter"}, {"fusion_lon": 0.0, "name": "29da2111256abada731c76b75a990bda", "rental_uris": {"android": "https://dc.lft.to/lastmile_qr_scan", "ios": "https://dc.lft.to/lastmile_qr_scan"}, "lat": 38.89385133333333, "bike_id": "29da2111256abada731c76b75a990bda", "is_disabled": 0, "lon": -76.86845066666666, "is_reserved": 0, "fusion_lat": 0.0, "type": "electric_bike"}, {"fusion_lon": 0.0, "name": "1ffc5ddecb8c9399f16563589dd22778", "rental_uris": {"android": "https://dc.lft.to/lastmile_qr_scan", "ios": "https://dc.lft.to/lastmile_qr_scan"}, "lat": 38.91985666666667, "bike_id": "1ffc5ddecb8c9399f16563589dd22778", "is_disabled": 0, "lon": -77.04066983333334, "is_reserved": 0, "fusion_lat": 0.0, "type": "electric_scooter"}, {"fusion_lon": 0.0, "name": "d2eb0329c441e25f91398011279bcfd2", "rental_uris": {"android": "https://dc.lft.to/lastmile_qr_scan", "ios": "https://dc.lft.to/lastmile_qr_scan"}, "lat": 38.911085, "bike_id": "d2eb0329c441e25f91398011279bcfd2", "is_disabled": 0, "lon": -77.04452583333334, "is_reserved": 0, "fusion_lat": 0.0, "type": "electric_scooter"}, {"fusion_lon": 0.0, "name": "9ea92a0afeaafe9051da8d8e541afa01", "rental_uris": {"android": "https://dc.lft.to/lastmile_qr_scan", "ios": "https://dc.lft.to/lastmile_qr_scan"}, "lat": 38.87667716666667, "bike_id": "9ea92a0afeaafe9051da8d8e541afa01", "is_disabled": 0, "lon": -77.02000616666666, "is_reserved": 0, "fusion_lat": 0.0, "type": "electric_scooter"}, {"fusion_lon": 0.0, "name": "66c914099693d7679bb6d5fc61183ac0", "rental_uris": {"android": "https://dc.lft.to/lastmile_qr_scan", "ios": "https://dc.lft.to/lastmile_qr_scan"}, "lat": 38.906720666666665, "bike_id": "66c914099693d7679bb6d5fc61183ac0", "is_disabled": 0, "lon": -77.02707316666667, "is_reserved": 0, "fusion_lat": 0.0, "type": "electric_scooter"}, {"fusion_lon": 0.0, "name": "8b1de0e93907136695e2f91bb6d6f265", "rental_uris": {"android": "https://dc.lft.to/lastmile_qr_scan", "ios": "https://dc.lft.to/lastmile_qr_scan"}, "lat": 38.9205785, "bike_id": "8b1de0e93907136695e2f91bb6d6f265", "is_disabled": 0, "lon": -77.0230715, "is_reserved": 0, "fusion_lat": 0.0, "type": "electric_scooter"}, {"fusion_lon": 0.0, "name": "1796058445dcb6d6c096069b84df2c23", "rental_uris": {"android": "https://dc.lft.to/lastmile_qr_scan", "ios": "https://dc.lft.to/lastmile_qr_scan"}, "lat": 38.92654433333333, "bike_id": "1796058445dcb6d6c096069b84df2c23", "is_disabled": 0, "lon": -77.04077783333334, "is_reserved": 0, "fusion_lat": 0.0, "type": "electric_scooter"}, {"fusion_lon": 0.0, "name": "62c3db5a6839c78ff0b5cb7564c4874a", "rental_uris": {"android": "https://dc.lft.to/lastmile_qr_scan", "ios": "https://dc.lft.to/lastmile_qr_scan"}, "lat": 38.922468, "bike_id": "62c3db5a6839c78ff0b5cb7564c4874a", "is_disabled": 0, "lon": -77.01954283333333, "is_reserved": 0, "fusion_lat": 0.0, "type": "electric_scooter"}, {"fusion_lon": 0.0, "name": "f53205ee9665296ef2efba851c36ceff", "rental_uris": {"android": "https://dc.lft.to/lastmile_qr_scan", "ios": "https://dc.lft.to/lastmile_qr_scan"}, "lat": 38.90154016666666, "bike_id": "f53205ee9665296ef2efba851c36ceff", "is_disabled": 0, "lon": -77.04034183333333, "is_reserved": 0, "fusion_lat": 0.0, "type": "electric_scooter"}, {"fusion_lon": 0.0, "name": "62b945de3f6852791572105cea9ff1f0", "rental_uris": {"android": "https://dc.lft.to/lastmile_qr_scan", "ios": "https://dc.lft.to/lastmile_qr_scan"}, "lat": 38.895784666666664, "bike_id": "62b945de3f6852791572105cea9ff1f0", "is_disabled": 0, "lon": -77.04141016666667, "is_reserved": 0, "fusion_lat": 0.0, "type": "electric_scooter"}, {"fusion_lon": 0.0, "name": "91c7047fddc217d770bdeb1b9543129e", "rental_uris": {"android": "https://dc.lft.to/lastmile_qr_scan", "ios": "https://dc.lft.to/lastmile_qr_scan"}, "lat": 38.926702666666664, "bike_id": "91c7047fddc217d770bdeb1b9543129e", "is_disabled": 0, "lon": -77.014962, "is_reserved": 0, "fusion_lat": 0.0, "type": "electric_scooter"}, {"fusion_lon": 0.0, "name": "1ee5cda9804678bb26221a4db0e58215", "rental_uris": {"android": "https://dc.lft.to/lastmile_qr_scan", "ios": "https://dc.lft.to/lastmile_qr_scan"}, "lat": 38.9174025, "bike_id": "1ee5cda9804678bb26221a4db0e58215", "is_disabled": 0, "lon": -77.02115516666667, "is_reserved": 0, "fusion_lat": 0.0, "type": "electric_scooter"}, {"fusion_lon": 0.0, "name": "41953c308d9e3731435adb6d5fff273f", "rental_uris": {"android": "https://dc.lft.to/lastmile_qr_scan", "ios": "https://dc.lft.to/lastmile_qr_scan"}, "lat": 38.9015015, "bike_id": "41953c308d9e3731435adb6d5fff273f", "is_disabled": 0, "lon": -76.97419966666666, "is_reserved": 0, "fusion_lat": 0.0, "type": "electric_scooter"}, {"fusion_lon": 0.0, "name": "5c898742c7c214cb955d383b23f04b52", "rental_uris": {"android": "https://dc.lft.to/lastmile_qr_scan", "ios": "https://dc.lft.to/lastmile_qr_scan"}, "lat": 38.901539166666666, "bike_id": "5c898742c7c214cb955d383b23f04b52", "is_disabled": 0, "lon": -77.05332366666667, "is_reserved": 0, "fusion_lat": 0.0, "type": "electric_scooter"}, {"fusion_lon": 0.0, "name": "d8b2554bb876ba2e4687d8684605526b", "rental_uris": {"android": "https://dc.lft.to/lastmile_qr_scan", "ios": "https://dc.lft.to/lastmile_qr_scan"}, "lat": 38.9150905, "bike_id": "d8b2554bb876ba2e4687d8684605526b", "is_disabled": 0, "lon": -77.03210266666666, "is_reserved": 0, "fusion_lat": 0.0, "type": "electric_scooter"}, {"fusion_lon": 0.0, "name": "727c2357bbb0f4b806bdc8e07aa28a1f", "rental_uris": {"android": "https://dc.lft.to/lastmile_qr_scan", "ios": "https://dc.lft.to/lastmile_qr_scan"}, "lat": 38.900181333333336, "bike_id": "727c2357bbb0f4b806bdc8e07aa28a1f", "is_disabled": 0, "lon": -77.04128766666666, "is_reserved": 0, "fusion_lat": 0.0, "type": "electric_scooter"}, {"fusion_lon": 0.0, "name": "ce7c72d708b5f800a0daff3854378a6f", "rental_uris": {"android": "https://dc.lft.to/lastmile_qr_scan", "ios": "https://dc.lft.to/lastmile_qr_scan"}, "lat": 38.8872715, "bike_id": "ce7c72d708b5f800a0daff3854378a6f", "is_disabled": 0, "lon": -76.9837705, "is_reserved": 0, "fusion_lat": 0.0, "type": "electric_scooter"}, {"fusion_lon": 0.0, "name": "5e35d2f1716c16ea119909c982459476", "rental_uris": {"android": "https://dc.lft.to/lastmile_qr_scan", "ios": "https://dc.lft.to/lastmile_qr_scan"}, "lat": 38.92082633333333, "bike_id": "5e35d2f1716c16ea119909c982459476", "is_disabled": 0, "lon": -77.02305616666666, "is_reserved": 0, "fusion_lat": 0.0, "type": "electric_scooter"}, {"fusion_lon": 0.0, "name": "afec32e95da65b3da5cf1fa348306f2b", "rental_uris": {"android": "https://dc.lft.to/lastmile_qr_scan", "ios": "https://dc.lft.to/lastmile_qr_scan"}, "lat": 38.901145666666665, "bike_id": "afec32e95da65b3da5cf1fa348306f2b", "is_disabled": 0, "lon": -77.04995433333333, "is_reserved": 0, "fusion_lat": 0.0, "type": "electric_scooter"}, {"fusion_lon": 0.0, "name": "1e127b9140d59b10ff3fa27e32888526", "rental_uris": {"android": "https://dc.lft.to/lastmile_qr_scan", "ios": "https://dc.lft.to/lastmile_qr_scan"}, "lat": 38.91857666666667, "bike_id": "1e127b9140d59b10ff3fa27e32888526", "is_disabled": 0, "lon": -76.960861, "is_reserved": 0, "fusion_lat": 0.0, "type": "electric_bike"}, {"fusion_lon": 0.0, "name": "5180190cb1ee3c764850f3832666a371", "rental_uris": {"android": "https://dc.lft.to/lastmile_qr_scan", "ios": "https://dc.lft.to/lastmile_qr_scan"}, "lat": 38.917583666666665, "bike_id": "5180190cb1ee3c764850f3832666a371", "is_disabled": 0, "lon": -77.028095, "is_reserved": 0, "fusion_lat": 0.0, "type": "electric_scooter"}, {"fusion_lon": 0.0, "name": "4fca2ab4b05afa5437b14b7b2af278f6", "rental_uris": {"android": "https://dc.lft.to/lastmile_qr_scan", "ios": "https://dc.lft.to/lastmile_qr_scan"}, "lat": 38.92471033333333, "bike_id": "4fca2ab4b05afa5437b14b7b2af278f6", "is_disabled": 0, "lon": -77.03823183333333, "is_reserved": 0, "fusion_lat": 0.0, "type": "electric_scooter"}, {"fusion_lon": 0.0, "name": "4c458d8df756df4c0540ff5d851d1d5e", "rental_uris": {"android": "https://dc.lft.to/lastmile_qr_scan", "ios": "https://dc.lft.to/lastmile_qr_scan"}, "lat": 38.904767, "bike_id": "4c458d8df756df4c0540ff5d851d1d5e", "is_disabled": 0, "lon": -77.03555483333334, "is_reserved": 0, "fusion_lat": 0.0, "type": "electric_scooter"}, {"fusion_lon": 0.0, "name": "0d13e7f475affbb2ab4eea897b6cd620", "rental_uris": {"android": "https://dc.lft.to/lastmile_qr_scan", "ios": "https://dc.lft.to/lastmile_qr_scan"}, "lat": 38.9010085, "bike_id": "0d13e7f475affbb2ab4eea897b6cd620", "is_disabled": 0, "lon": -77.0491985, "is_reserved": 0, "fusion_lat": 0.0, "type": "electric_scooter"}, {"fusion_lon": 0.0, "name": "d3c03bee70bf6edd7e8fe2d6f567be46", "rental_uris": {"android": "https://dc.lft.to/lastmile_qr_scan", "ios": "https://dc.lft.to/lastmile_qr_scan"}, "lat": 38.894701166666664, "bike_id": "d3c03bee70bf6edd7e8fe2d6f567be46", "is_disabled": 0, "lon": -77.021997, "is_reserved": 0, "fusion_lat": 0.0, "type": "electric_scooter"}, {"fusion_lon": 0.0, "name": "e6a8dd7fc5657cc3e9ed9791903be6e5", "rental_uris": {"android": "https://dc.lft.to/lastmile_qr_scan", "ios": "https://dc.lft.to/lastmile_qr_scan"}, "lat": 38.903666, "bike_id": "e6a8dd7fc5657cc3e9ed9791903be6e5", "is_disabled": 0, "lon": -77.0434595, "is_reserved": 0, "fusion_lat": 0.0, "type": "electric_scooter"}, {"fusion_lon": 0.0, "name": "af411f4184152563e45dc1ae3fc6d4f7", "rental_uris": {"android": "https://dc.lft.to/lastmile_qr_scan", "ios": "https://dc.lft.to/lastmile_qr_scan"}, "lat": 38.903584, "bike_id": "af411f4184152563e45dc1ae3fc6d4f7", "is_disabled": 0, "lon": -77.02616233333333, "is_reserved": 0, "fusion_lat": 0.0, "type": "electric_scooter"}, {"fusion_lon": 0.0, "name": "82a6f1b6056d470b83bc50c1527e979e", "rental_uris": {"android": "https://dc.lft.to/lastmile_qr_scan", "ios": "https://dc.lft.to/lastmile_qr_scan"}, "lat": 38.92334816666666, "bike_id": "82a6f1b6056d470b83bc50c1527e979e", "is_disabled": 0, "lon": -77.0567755, "is_reserved": 0, "fusion_lat": 0.0, "type": "electric_scooter"}, {"fusion_lon": 0.0, "name": "9161af14d6ce5b269760cf323ef44832", "rental_uris": {"android": "https://dc.lft.to/lastmile_qr_scan", "ios": "https://dc.lft.to/lastmile_qr_scan"}, "lat": 38.891274333333335, "bike_id": "9161af14d6ce5b269760cf323ef44832", "is_disabled": 0, "lon": -76.94059383333334, "is_reserved": 0, "fusion_lat": 0.0, "type": "electric_bike"}, {"fusion_lon": 0.0, "name": "9f610973a1d0da528fedac45fb3d3d3f", "rental_uris": {"android": "https://dc.lft.to/lastmile_qr_scan", "ios": "https://dc.lft.to/lastmile_qr_scan"}, "lat": 38.91350216666667, "bike_id": "9f610973a1d0da528fedac45fb3d3d3f", "is_disabled": 0, "lon": -77.033492, "is_reserved": 0, "fusion_lat": 0.0, "type": "electric_scooter"}, {"fusion_lon": 0.0, "name": "1acf2aded0c7b6811e8903077c9bd94e", "rental_uris": {"android": "https://dc.lft.to/lastmile_qr_scan", "ios": "https://dc.lft.to/lastmile_qr_scan"}, "lat": 38.89344366666667, "bike_id": "1acf2aded0c7b6811e8903077c9bd94e", "is_disabled": 0, "lon": -77.015116, "is_reserved": 0, "fusion_lat": 0.0, "type": "electric_scooter"}, {"fusion_lon": 0.0, "name": "52c636f49b15c0ef4b43145a40ce183e", "rental_uris": {"android": "https://dc.lft.to/lastmile_qr_scan", "ios": "https://dc.lft.to/lastmile_qr_scan"}, "lat": 38.91621683333334, "bike_id": "52c636f49b15c0ef4b43145a40ce183e", "is_disabled": 0, "lon": -77.04859066666667, "is_reserved": 0, "fusion_lat": 0.0, "type": "electric_scooter"}, {"fusion_lon": 0.0, "name": "de8b7dd34923d37f77215d0d2fd0ac18", "rental_uris": {"android": "https://dc.lft.to/lastmile_qr_scan", "ios": "https://dc.lft.to/lastmile_qr_scan"}, "lat": 38.915608, "bike_id": "de8b7dd34923d37f77215d0d2fd0ac18", "is_disabled": 0, "lon": -77.00680266666667, "is_reserved": 0, "fusion_lat": 0.0, "type": "electric_scooter"}, {"fusion_lon": 0.0, "name": "0f3308cb8d44e8a080bec988ffa25da9", "rental_uris": {"android": "https://dc.lft.to/lastmile_qr_scan", "ios": "https://dc.lft.to/lastmile_qr_scan"}, "lat": 38.905576333333336, "bike_id": "0f3308cb8d44e8a080bec988ffa25da9", "is_disabled": 0, "lon": -77.04332466666666, "is_reserved": 0, "fusion_lat": 0.0, "type": "electric_scooter"}, {"fusion_lon": 0.0, "name": "1e49919d8cb75b3cb962da4fd0053379", "rental_uris": {"android": "https://dc.lft.to/lastmile_qr_scan", "ios": "https://dc.lft.to/lastmile_qr_scan"}, "lat": 38.886733, "bike_id": "1e49919d8cb75b3cb962da4fd0053379", "is_disabled": 0, "lon": -77.0317835, "is_reserved": 0, "fusion_lat": 0.0, "type": "electric_scooter"}, {"fusion_lon": 0.0, "name": "426afb4bc174b7a15f220ca70d5bcc68", "rental_uris": {"android": "https://dc.lft.to/lastmile_qr_scan", "ios": "https://dc.lft.to/lastmile_qr_scan"}, "lat": 38.95718183333334, "bike_id": "426afb4bc174b7a15f220ca70d5bcc68", "is_disabled": 0, "lon": -77.00231916666667, "is_reserved": 0, "fusion_lat": 0.0, "type": "electric_scooter"}, {"fusion_lon": 0.0, "name": "c2d63da9e34567928707cbaeb2df1a3f", "rental_uris": {"android": "https://dc.lft.to/lastmile_qr_scan", "ios": "https://dc.lft.to/lastmile_qr_scan"}, "lat": 38.9472395, "bike_id": "c2d63da9e34567928707cbaeb2df1a3f", "is_disabled": 0, "lon": -77.0330145, "is_reserved": 0, "fusion_lat": 0.0, "type": "electric_scooter"}, {"fusion_lon": 0.0, "name": "150de63a8a01bb775a13af755a207731", "rental_uris": {"android": "https://dc.lft.to/lastmile_qr_scan", "ios": "https://dc.lft.to/lastmile_qr_scan"}, "lat": 38.89541933333334, "bike_id": "150de63a8a01bb775a13af755a207731", "is_disabled": 0, "lon": -76.98336983333333, "is_reserved": 0, "fusion_lat": 0.0, "type": "electric_scooter"}, {"fusion_lon": 0.0, "name": "110962ea50c440567bed10078819f6d1", "rental_uris": {"android": "https://dc.lft.to/lastmile_qr_scan", "ios": "https://dc.lft.to/lastmile_qr_scan"}, "lat": 38.904042833333335, "bike_id": "110962ea50c440567bed10078819f6d1", "is_disabled": 0, "lon": -76.973485, "is_reserved": 0, "fusion_lat": 0.0, "type": "electric_scooter"}, {"fusion_lon": 0.0, "name": "9d743af2e81f56b53e3f2a2aaa6bfb5b", "rental_uris": {"android": "https://dc.lft.to/lastmile_qr_scan", "ios": "https://dc.lft.to/lastmile_qr_scan"}, "lat": 38.902522166666664, "bike_id": "9d743af2e81f56b53e3f2a2aaa6bfb5b", "is_disabled": 0, "lon": -77.04202033333334, "is_reserved": 0, "fusion_lat": 0.0, "type": "electric_scooter"}, {"fusion_lon": 0.0, "name": "1832be8de223f0fa9fceb48350c4eb39", "rental_uris": {"android": "https://dc.lft.to/lastmile_qr_scan", "ios": "https://dc.lft.to/lastmile_qr_scan"}, "lat": 38.918413666666666, "bike_id": "1832be8de223f0fa9fceb48350c4eb39", "is_disabled": 0, "lon": -77.02520483333333, "is_reserved": 0, "fusion_lat": 0.0, "type": "electric_scooter"}, {"fusion_lon": 0.0, "name": "00d55e8e9d8a7e459b072f37e8dba97e", "rental_uris": {"android": "https://dc.lft.to/lastmile_qr_scan", "ios": "https://dc.lft.to/lastmile_qr_scan"}, "lat": 38.896425666666666, "bike_id": "00d55e8e9d8a7e459b072f37e8dba97e", "is_disabled": 0, "lon": -76.9479985, "is_reserved": 0, "fusion_lat": 0.0, "type": "electric_scooter"}, {"fusion_lon": 0.0, "name": "d33d2d100d78e0183f55c3c0e5c29d69", "rental_uris": {"android": "https://dc.lft.to/lastmile_qr_scan", "ios": "https://dc.lft.to/lastmile_qr_scan"}, "lat": 38.896871833333336, "bike_id": "d33d2d100d78e0183f55c3c0e5c29d69", "is_disabled": 0, "lon": -76.92790883333333, "is_reserved": 0, "fusion_lat": 0.0, "type": "electric_scooter"}, {"fusion_lon": 0.0, "name": "94a074f5abe74860fd4732c9803a7117", "rental_uris": {"android": "https://dc.lft.to/lastmile_qr_scan", "ios": "https://dc.lft.to/lastmile_qr_scan"}, "lat": 38.966765333333335, "bike_id": "94a074f5abe74860fd4732c9803a7117", "is_disabled": 0, "lon": -77.0361045, "is_reserved": 0, "fusion_lat": 0.0, "type": "electric_scooter"}, {"fusion_lon": 0.0, "name": "fa7a88ebc46ff34532dee043b4de3ca0", "rental_uris": {"android": "https://dc.lft.to/lastmile_qr_scan", "ios": "https://dc.lft.to/lastmile_qr_scan"}, "lat": 38.9534625, "bike_id": "fa7a88ebc46ff34532dee043b4de3ca0", "is_disabled": 0, "lon": -77.00764416666667, "is_reserved": 0, "fusion_lat": 0.0, "type": "electric_scooter"}, {"fusion_lon": 0.0, "name": "68222740be386b1e4d05ab578c779f7b", "rental_uris": {"android": "https://dc.lft.to/lastmile_qr_scan", "ios": "https://dc.lft.to/lastmile_qr_scan"}, "lat": 38.892313333333334, "bike_id": "68222740be386b1e4d05ab578c779f7b", "is_disabled": 0, "lon": -77.0238365, "is_reserved": 0, "fusion_lat": 0.0, "type": "electric_scooter"}, {"fusion_lon": 0.0, "name": "7377838a03eb9becb63af01340f5d859", "rental_uris": {"android": "https://dc.lft.to/lastmile_qr_scan", "ios": "https://dc.lft.to/lastmile_qr_scan"}, "lat": 38.8381105, "bike_id": "7377838a03eb9becb63af01340f5d859", "is_disabled": 0, "lon": -77.09520533333334, "is_reserved": 0, "fusion_lat": 0.0, "type": "electric_bike"}, {"fusion_lon": 0.0, "name": "d850e0f9e24f35e18196bfb660f5ebdd", "rental_uris": {"android": "https://dc.lft.to/lastmile_qr_scan", "ios": "https://dc.lft.to/lastmile_qr_scan"}, "lat": 38.9565105, "bike_id": "d850e0f9e24f35e18196bfb660f5ebdd", "is_disabled": 0, "lon": -77.01271033333333, "is_reserved": 0, "fusion_lat": 0.0, "type": "electric_scooter"}, {"fusion_lon": 0.0, "name": "687e6c144e1b90b4c671ce241648e768", "rental_uris": {"android": "https://dc.lft.to/lastmile_qr_scan", "ios": "https://dc.lft.to/lastmile_qr_scan"}, "lat": 38.90151383333333, "bike_id": "687e6c144e1b90b4c671ce241648e768", "is_disabled": 0, "lon": -77.02845883333333, "is_reserved": 0, "fusion_lat": 0.0, "type": "electric_scooter"}, {"fusion_lon": 0.0, "name": "72dbe730b6300572629f659ef22b1e9c", "rental_uris": {"android": "https://dc.lft.to/lastmile_qr_scan", "ios": "https://dc.lft.to/lastmile_qr_scan"}, "lat": 38.8995055, "bike_id": "72dbe730b6300572629f659ef22b1e9c", "is_disabled": 0, "lon": -77.02732183333333, "is_reserved": 0, "fusion_lat": 0.0, "type": "electric_scooter"}, {"fusion_lon": 0.0, "name": "e1c6193f02f9b389ae9d337136dca054", "rental_uris": {"android": "https://dc.lft.to/lastmile_qr_scan", "ios": "https://dc.lft.to/lastmile_qr_scan"}, "lat": 38.8624655, "bike_id": "e1c6193f02f9b389ae9d337136dca054", "is_disabled": 0, "lon": -76.99499083333333, "is_reserved": 0, "fusion_lat": 0.0, "type": "electric_scooter"}, {"fusion_lon": 0.0, "name": "d4ca4d88cba9faac7073160d8b72c0a0", "rental_uris": {"android": "https://dc.lft.to/lastmile_qr_scan", "ios": "https://dc.lft.to/lastmile_qr_scan"}, "lat": 38.8647765, "bike_id": "d4ca4d88cba9faac7073160d8b72c0a0", "is_disabled": 0, "lon": -76.9823135, "is_reserved": 0, "fusion_lat": 0.0, "type": "electric_scooter"}, {"fusion_lon": 0.0, "name": "e04bc95866aa5dd582e5e0bc280d2582", "rental_uris": {"android": "https://dc.lft.to/lastmile_qr_scan", "ios": "https://dc.lft.to/lastmile_qr_scan"}, "lat": 38.8650845, "bike_id": "e04bc95866aa5dd582e5e0bc280d2582", "is_disabled": 0, "lon": -76.96898016666667, "is_reserved": 0, "fusion_lat": 0.0, "type": "electric_scooter"}, {"fusion_lon": 0.0, "name": "eaffe47808f7f4f74a7b2222fc066266", "rental_uris": {"android": "https://dc.lft.to/lastmile_qr_scan", "ios": "https://dc.lft.to/lastmile_qr_scan"}, "lat": 38.89728183333333, "bike_id": "eaffe47808f7f4f74a7b2222fc066266", "is_disabled": 0, "lon": -77.02147133333334, "is_reserved": 0, "fusion_lat": 0.0, "type": "electric_scooter"}, {"fusion_lon": 0.0, "name": "bd7b32f4efcacfca5a232d32bde55372", "rental_uris": {"android": "https://dc.lft.to/lastmile_qr_scan", "ios": "https://dc.lft.to/lastmile_qr_scan"}, "lat": 38.89415483333333, "bike_id": "bd7b32f4efcacfca5a232d32bde55372", "is_disabled": 0, "lon": -77.04980383333333, "is_reserved": 0, "fusion_lat": 0.0, "type": "electric_scooter"}, {"fusion_lon": 0.0, "name": "6592b78e25e56f0ee3f8ee27be3ef4ed", "rental_uris": {"android": "https://dc.lft.to/lastmile_qr_scan", "ios": "https://dc.lft.to/lastmile_qr_scan"}, "lat": 38.93189, "bike_id": "6592b78e25e56f0ee3f8ee27be3ef4ed", "is_disabled": 0, "lon": -77.02834566666667, "is_reserved": 0, "fusion_lat": 0.0, "type": "electric_scooter"}, {"fusion_lon": 0.0, "name": "507cf3fe47dc76831542f31cf3272068", "rental_uris": {"android": "https://dc.lft.to/lastmile_qr_scan", "ios": "https://dc.lft.to/lastmile_qr_scan"}, "lat": 38.92253683333333, "bike_id": "507cf3fe47dc76831542f31cf3272068", "is_disabled": 0, "lon": -77.03043733333334, "is_reserved": 0, "fusion_lat": 0.0, "type": "electric_scooter"}, {"fusion_lon": 0.0, "name": "e33e7c9290c9c07db1992c5d3cc03332", "rental_uris": {"android": "https://dc.lft.to/lastmile_qr_scan", "ios": "https://dc.lft.to/lastmile_qr_scan"}, "lat": 38.90182433333333, "bike_id": "e33e7c9290c9c07db1992c5d3cc03332", "is_disabled": 0, "lon": -76.98072016666667, "is_reserved": 0, "fusion_lat": 0.0, "type": "electric_scooter"}, {"fusion_lon": 0.0, "name": "22e318f7693d851c53d13fb3ff9b5a53", "rental_uris": {"android": "https://dc.lft.to/lastmile_qr_scan", "ios": "https://dc.lft.to/lastmile_qr_scan"}, "lat": 38.928614833333334, "bike_id": "22e318f7693d851c53d13fb3ff9b5a53", "is_disabled": 0, "lon": -77.05442966666666, "is_reserved": 0, "fusion_lat": 0.0, "type": "electric_scooter"}, {"fusion_lon": 0.0, "name": "b2d11f8f18bf0a5345f6afad3a501531", "rental_uris": {"android": "https://dc.lft.to/lastmile_qr_scan", "ios": "https://dc.lft.to/lastmile_qr_scan"}, "lat": 38.89834333333334, "bike_id": "b2d11f8f18bf0a5345f6afad3a501531", "is_disabled": 0, "lon": -77.02813216666667, "is_reserved": 0, "fusion_lat": 0.0, "type": "electric_scooter"}, {"fusion_lon": 0.0, "name": "b8d3c3af5d5481053f35929d9ea3b70f", "rental_uris": {"android": "https://dc.lft.to/lastmile_qr_scan", "ios": "https://dc.lft.to/lastmile_qr_scan"}, "lat": 38.875638, "bike_id": "b8d3c3af5d5481053f35929d9ea3b70f", "is_disabled": 0, "lon": -77.0060155, "is_reserved": 0, "fusion_lat": 0.0, "type": "electric_scooter"}, {"fusion_lon": 0.0, "name": "b813190d874dd0884ad8a7f8a0ed50a4", "rental_uris": {"android": "https://dc.lft.to/lastmile_qr_scan", "ios": "https://dc.lft.to/lastmile_qr_scan"}, "lat": 38.857056, "bike_id": "b813190d874dd0884ad8a7f8a0ed50a4", "is_disabled": 0, "lon": -76.9813425, "is_reserved": 0, "fusion_lat": 0.0, "type": "electric_scooter"}, {"fusion_lon": 0.0, "name": "46150d706c8d645221e79fac6352fb8e", "rental_uris": {"android": "https://dc.lft.to/lastmile_qr_scan", "ios": "https://dc.lft.to/lastmile_qr_scan"}, "lat": 38.91881566666667, "bike_id": "46150d706c8d645221e79fac6352fb8e", "is_disabled": 0, "lon": -77.01894883333334, "is_reserved": 0, "fusion_lat": 0.0, "type": "electric_scooter"}, {"fusion_lon": 0.0, "name": "a5e3174c438f077f2ce05f02cd8bc6fc", "rental_uris": {"android": "https://dc.lft.to/lastmile_qr_scan", "ios": "https://dc.lft.to/lastmile_qr_scan"}, "lat": 38.92604216666667, "bike_id": "a5e3174c438f077f2ce05f02cd8bc6fc", "is_disabled": 0, "lon": -77.02489483333333, "is_reserved": 0, "fusion_lat": 0.0, "type": "electric_scooter"}, {"fusion_lon": 0.0, "name": "54bae0cc8d8cd888d882c326e12c946c", "rental_uris": {"android": "https://dc.lft.to/lastmile_qr_scan", "ios": "https://dc.lft.to/lastmile_qr_scan"}, "lat": 38.88072416666667, "bike_id": "54bae0cc8d8cd888d882c326e12c946c", "is_disabled": 0, "lon": -76.991627, "is_reserved": 0, "fusion_lat": 0.0, "type": "electric_scooter"}, {"fusion_lon": 0.0, "name": "5e67fbacd07295ff995b9fcc479cb00c", "rental_uris": {"android": "https://dc.lft.to/lastmile_qr_scan", "ios": "https://dc.lft.to/lastmile_qr_scan"}, "lat": 38.9207385, "bike_id": "5e67fbacd07295ff995b9fcc479cb00c", "is_disabled": 0, "lon": -77.02319283333334, "is_reserved": 0, "fusion_lat": 0.0, "type": "electric_scooter"}, {"fusion_lon": 0.0, "name": "160aca98f5c3d47a41372ebc473fa7ea", "rental_uris": {"android": "https://dc.lft.to/lastmile_qr_scan", "ios": "https://dc.lft.to/lastmile_qr_scan"}, "lat": 38.922259, "bike_id": "160aca98f5c3d47a41372ebc473fa7ea", "is_disabled": 0, "lon": -77.02831533333334, "is_reserved": 0, "fusion_lat": 0.0, "type": "electric_bike"}, {"fusion_lon": 0.0, "name": "29c7a2fe8820be4a19019ec61c4f9568", "rental_uris": {"android": "https://dc.lft.to/lastmile_qr_scan", "ios": "https://dc.lft.to/lastmile_qr_scan"}, "lat": 38.931728666666665, "bike_id": "29c7a2fe8820be4a19019ec61c4f9568", "is_disabled": 0, "lon": -77.03668383333333, "is_reserved": 0, "fusion_lat": 0.0, "type": "electric_scooter"}, {"fusion_lon": 0.0, "name": "a3f2376de676d007ba86eeb98a6413c7", "rental_uris": {"android": "https://dc.lft.to/lastmile_qr_scan", "ios": "https://dc.lft.to/lastmile_qr_scan"}, "lat": 38.89468083333333, "bike_id": "a3f2376de676d007ba86eeb98a6413c7", "is_disabled": 0, "lon": -77.01864616666667, "is_reserved": 0, "fusion_lat": 0.0, "type": "electric_scooter"}, {"fusion_lon": 0.0, "name": "9032699fadc9d0dd33994694329587a8", "rental_uris": {"android": "https://dc.lft.to/lastmile_qr_scan", "ios": "https://dc.lft.to/lastmile_qr_scan"}, "lat": 38.94313416666667, "bike_id": "9032699fadc9d0dd33994694329587a8", "is_disabled": 0, "lon": -77.01725916666666, "is_reserved": 0, "fusion_lat": 0.0, "type": "electric_scooter"}, {"fusion_lon": 0.0, "name": "269771b12656bdf62ccc5f4e6536e7df", "rental_uris": {"android": "https://dc.lft.to/lastmile_qr_scan", "ios": "https://dc.lft.to/lastmile_qr_scan"}, "lat": 38.929813, "bike_id": "269771b12656bdf62ccc5f4e6536e7df", "is_disabled": 0, "lon": -77.032362, "is_reserved": 0, "fusion_lat": 0.0, "type": "electric_scooter"}, {"fusion_lon": 0.0, "name": "3af93a62c0d205bcb8da8bd8300d36ef", "rental_uris": {"android": "https://dc.lft.to/lastmile_qr_scan", "ios": "https://dc.lft.to/lastmile_qr_scan"}, "lat": 38.932251, "bike_id": "3af93a62c0d205bcb8da8bd8300d36ef", "is_disabled": 0, "lon": -77.0269515, "is_reserved": 0, "fusion_lat": 0.0, "type": "electric_scooter"}, {"fusion_lon": 0.0, "name": "2a56dea4ce5e85d0890278d39d700e3e", "rental_uris": {"android": "https://dc.lft.to/lastmile_qr_scan", "ios": "https://dc.lft.to/lastmile_qr_scan"}, "lat": 38.93738416666667, "bike_id": "2a56dea4ce5e85d0890278d39d700e3e", "is_disabled": 0, "lon": -77.02434216666667, "is_reserved": 0, "fusion_lat": 0.0, "type": "electric_scooter"}, {"fusion_lon": 0.0, "name": "370b326012e748baa71b7f3690f6cdb5", "rental_uris": {"android": "https://dc.lft.to/lastmile_qr_scan", "ios": "https://dc.lft.to/lastmile_qr_scan"}, "lat": 38.887439, "bike_id": "370b326012e748baa71b7f3690f6cdb5", "is_disabled": 0, "lon": -77.02571433333334, "is_reserved": 0, "fusion_lat": 0.0, "type": "electric_scooter"}, {"fusion_lon": 0.0, "name": "298cd962511ea73f1fd107e514d33bf1", "rental_uris": {"android": "https://dc.lft.to/lastmile_qr_scan", "ios": "https://dc.lft.to/lastmile_qr_scan"}, "lat": 38.951121, "bike_id": "298cd962511ea73f1fd107e514d33bf1", "is_disabled": 0, "lon": -77.0130895, "is_reserved": 0, "fusion_lat": 0.0, "type": "electric_scooter"}, {"fusion_lon": 0.0, "name": "55af227deb62066f61c0a5ec1eb35568", "rental_uris": {"android": "https://dc.lft.to/lastmile_qr_scan", "ios": "https://dc.lft.to/lastmile_qr_scan"}, "lat": 38.90672416666666, "bike_id": "55af227deb62066f61c0a5ec1eb35568", "is_disabled": 0, "lon": -77.05031466666667, "is_reserved": 0, "fusion_lat": 0.0, "type": "electric_scooter"}, {"fusion_lon": 0.0, "name": "18adce1b5e14d2d25049ffa758504250", "rental_uris": {"android": "https://dc.lft.to/lastmile_qr_scan", "ios": "https://dc.lft.to/lastmile_qr_scan"}, "lat": 38.902668166666665, "bike_id": "18adce1b5e14d2d25049ffa758504250", "is_disabled": 0, "lon": -77.045538, "is_reserved": 0, "fusion_lat": 0.0, "type": "electric_scooter"}, {"fusion_lon": 0.0, "name": "7297f59efbf1dbca45ea86ccf7ff4798", "rental_uris": {"android": "https://dc.lft.to/lastmile_qr_scan", "ios": "https://dc.lft.to/lastmile_qr_scan"}, "lat": 38.87658116666667, "bike_id": "7297f59efbf1dbca45ea86ccf7ff4798", "is_disabled": 0, "lon": -77.00388183333334, "is_reserved": 0, "fusion_lat": 0.0, "type": "electric_scooter"}, {"fusion_lon": 0.0, "name": "2fc0eee502a0307fa9ac3e010193c85a", "rental_uris": {"android": "https://dc.lft.to/lastmile_qr_scan", "ios": "https://dc.lft.to/lastmile_qr_scan"}, "lat": 38.875613, "bike_id": "2fc0eee502a0307fa9ac3e010193c85a", "is_disabled": 0, "lon": -77.006072, "is_reserved": 0, "fusion_lat": 0.0, "type": "electric_scooter"}, {"fusion_lon": 0.0, "name": "8da9f2ae76837f4eb51c88972cd5e339", "rental_uris": {"android": "https://dc.lft.to/lastmile_qr_scan", "ios": "https://dc.lft.to/lastmile_qr_scan"}, "lat": 38.9148935, "bike_id": "8da9f2ae76837f4eb51c88972cd5e339", "is_disabled": 0, "lon": -77.00218816666667, "is_reserved": 0, "fusion_lat": 0.0, "type": "electric_scooter"}, {"fusion_lon": 0.0, "name": "d6a9f73f0f60d1b90d8c85696c3ca5b6", "rental_uris": {"android": "https://dc.lft.to/lastmile_qr_scan", "ios": "https://dc.lft.to/lastmile_qr_scan"}, "lat": 38.88866383333333, "bike_id": "d6a9f73f0f60d1b90d8c85696c3ca5b6", "is_disabled": 0, "lon": -77.04000533333334, "is_reserved": 0, "fusion_lat": 0.0, "type": "electric_scooter"}, {"fusion_lon": 0.0, "name": "dd276d93b50eeed8d40c6eb36afbb01a", "rental_uris": {"android": "https://dc.lft.to/lastmile_qr_scan", "ios": "https://dc.lft.to/lastmile_qr_scan"}, "lat": 38.905606666666664, "bike_id": "dd276d93b50eeed8d40c6eb36afbb01a", "is_disabled": 0, "lon": -77.00542216666666, "is_reserved": 0, "fusion_lat": 0.0, "type": "electric_scooter"}, {"fusion_lon": 0.0, "name": "22b347b25032f0b954d358849440547e", "rental_uris": {"android": "https://dc.lft.to/lastmile_qr_scan", "ios": "https://dc.lft.to/lastmile_qr_scan"}, "lat": 38.89026583333333, "bike_id": "22b347b25032f0b954d358849440547e", "is_disabled": 0, "lon": -76.937137, "is_reserved": 0, "fusion_lat": 0.0, "type": "electric_scooter"}, {"fusion_lon": 0.0, "name": "b104c15d417adca4d62f77879502973a", "rental_uris": {"android": "https://dc.lft.to/lastmile_qr_scan", "ios": "https://dc.lft.to/lastmile_qr_scan"}, "lat": 38.91864416666667, "bike_id": "b104c15d417adca4d62f77879502973a", "is_disabled": 0, "lon": -77.0483505, "is_reserved": 0, "fusion_lat": 0.0, "type": "electric_scooter"}, {"fusion_lon": 0.0, "name": "273a5a41cf53b0e1f147c3f71e5ecbbf", "rental_uris": {"android": "https://dc.lft.to/lastmile_qr_scan", "ios": "https://dc.lft.to/lastmile_qr_scan"}, "lat": 38.793294833333334, "bike_id": "273a5a41cf53b0e1f147c3f71e5ecbbf", "is_disabled": 0, "lon": -77.0005045, "is_reserved": 0, "fusion_lat": 0.0, "type": "electric_bike"}, {"fusion_lon": 0.0, "name": "388b9ce7af52bd7a405c143d69a8b025", "rental_uris": {"android": "https://dc.lft.to/lastmile_qr_scan", "ios": "https://dc.lft.to/lastmile_qr_scan"}, "lat": 38.90385533333333, "bike_id": "388b9ce7af52bd7a405c143d69a8b025", "is_disabled": 0, "lon": -77.04343666666666, "is_reserved": 0, "fusion_lat": 0.0, "type": "electric_scooter"}, {"fusion_lon": 0.0, "name": "78ef46873d2e4ce72dc8d147367dac2c", "rental_uris": {"android": "https://dc.lft.to/lastmile_qr_scan", "ios": "https://dc.lft.to/lastmile_qr_scan"}, "lat": 38.923626, "bike_id": "78ef46873d2e4ce72dc8d147367dac2c", "is_disabled": 0, "lon": -77.05028233333333, "is_reserved": 0, "fusion_lat": 0.0, "type": "electric_scooter"}, {"fusion_lon": 0.0, "name": "d5b530c3a7769086d2605bee33632867", "rental_uris": {"android": "https://dc.lft.to/lastmile_qr_scan", "ios": "https://dc.lft.to/lastmile_qr_scan"}, "lat": 38.93124183333333, "bike_id": "d5b530c3a7769086d2605bee33632867", "is_disabled": 0, "lon": -77.02067066666666, "is_reserved": 0, "fusion_lat": 0.0, "type": "electric_scooter"}, {"fusion_lon": 0.0, "name": "7f9f0d4542e64c0759fcf220d1bdbf38", "rental_uris": {"android": "https://dc.lft.to/lastmile_qr_scan", "ios": "https://dc.lft.to/lastmile_qr_scan"}, "lat": 38.90208583333333, "bike_id": "7f9f0d4542e64c0759fcf220d1bdbf38", "is_disabled": 0, "lon": -77.03374816666667, "is_reserved": 0, "fusion_lat": 0.0, "type": "electric_scooter"}, {"fusion_lon": 0.0, "name": "32649a46ae64d317390d1203811764ea", "rental_uris": {"android": "https://dc.lft.to/lastmile_qr_scan", "ios": "https://dc.lft.to/lastmile_qr_scan"}, "lat": 38.90333583333334, "bike_id": "32649a46ae64d317390d1203811764ea", "is_disabled": 0, "lon": -76.933696, "is_reserved": 0, "fusion_lat": 0.0, "type": "electric_bike"}, {"fusion_lon": 0.0, "name": "cefebc5654252ecbedbe862df9d7cb48", "rental_uris": {"android": "https://dc.lft.to/lastmile_qr_scan", "ios": "https://dc.lft.to/lastmile_qr_scan"}, "lat": 38.959142666666665, "bike_id": "cefebc5654252ecbedbe862df9d7cb48", "is_disabled": 0, "lon": -77.000162, "is_reserved": 0, "fusion_lat": 0.0, "type": "electric_scooter"}, {"fusion_lon": 0.0, "name": "b2e5497ceba9d5553e1952423b2086a3", "rental_uris": {"android": "https://dc.lft.to/lastmile_qr_scan", "ios": "https://dc.lft.to/lastmile_qr_scan"}, "lat": 38.904978166666666, "bike_id": "b2e5497ceba9d5553e1952423b2086a3", "is_disabled": 0, "lon": -76.97738616666666, "is_reserved": 0, "fusion_lat": 0.0, "type": "electric_scooter"}, {"fusion_lon": 0.0, "name": "e2a248be4c5d28e14890c9a3df788c52", "rental_uris": {"android": "https://dc.lft.to/lastmile_qr_scan", "ios": "https://dc.lft.to/lastmile_qr_scan"}, "lat": 38.900810666666665, "bike_id": "e2a248be4c5d28e14890c9a3df788c52", "is_disabled": 0, "lon": -77.047446, "is_reserved": 0, "fusion_lat": 0.0, "type": "electric_scooter"}, {"fusion_lon": 0.0, "name": "963878fd1bbd5b988ca0d7c67d444417", "rental_uris": {"android": "https://dc.lft.to/lastmile_qr_scan", "ios": "https://dc.lft.to/lastmile_qr_scan"}, "lat": 38.957091166666665, "bike_id": "963878fd1bbd5b988ca0d7c67d444417", "is_disabled": 0, "lon": -77.00279366666666, "is_reserved": 0, "fusion_lat": 0.0, "type": "electric_bike"}, {"fusion_lon": 0.0, "name": "0713adf990d7bc4b1d30ec22c655fd71", "rental_uris": {"android": "https://dc.lft.to/lastmile_qr_scan", "ios": "https://dc.lft.to/lastmile_qr_scan"}, "lat": 38.92470216666667, "bike_id": "0713adf990d7bc4b1d30ec22c655fd71", "is_disabled": 0, "lon": -77.05237, "is_reserved": 0, "fusion_lat": 0.0, "type": "electric_scooter"}, {"fusion_lon": 0.0, "name": "04d30f03ff8b7effc7ec12920fb0d624", "rental_uris": {"android": "https://dc.lft.to/lastmile_qr_scan", "ios": "https://dc.lft.to/lastmile_qr_scan"}, "lat": 38.85256783333333, "bike_id": "04d30f03ff8b7effc7ec12920fb0d624", "is_disabled": 0, "lon": -77.0530445, "is_reserved": 0, "fusion_lat": 0.0, "type": "electric_bike"}, {"fusion_lon": 0.0, "name": "f07d17b2083900a0cf37f8d26ca5706a", "rental_uris": {"android": "https://dc.lft.to/lastmile_qr_scan", "ios": "https://dc.lft.to/lastmile_qr_scan"}, "lat": 38.9034035, "bike_id": "f07d17b2083900a0cf37f8d26ca5706a", "is_disabled": 0, "lon": -76.98212033333333, "is_reserved": 0, "fusion_lat": 0.0, "type": "electric_scooter"}, {"fusion_lon": 0.0, "name": "84b4dc40dd1d988947118a91702477b1", "rental_uris": {"android": "https://dc.lft.to/lastmile_qr_scan", "ios": "https://dc.lft.to/lastmile_qr_scan"}, "lat": 38.894685, "bike_id": "84b4dc40dd1d988947118a91702477b1", "is_disabled": 0, "lon": -76.99713083333333, "is_reserved": 0, "fusion_lat": 0.0, "type": "electric_scooter"}, {"fusion_lon": 0.0, "name": "143f2f41721e0e008cc2c8957ae8ae75", "rental_uris": {"android": "https://dc.lft.to/lastmile_qr_scan", "ios": "https://dc.lft.to/lastmile_qr_scan"}, "lat": 38.912052, "bike_id": "143f2f41721e0e008cc2c8957ae8ae75", "is_disabled": 0, "lon": -77.0320725, "is_reserved": 0, "fusion_lat": 0.0, "type": "electric_scooter"}, {"fusion_lon": 0.0, "name": "9a54c91ace40f329e53b08a69c358e78", "rental_uris": {"android": "https://dc.lft.to/lastmile_qr_scan", "ios": "https://dc.lft.to/lastmile_qr_scan"}, "lat": 38.89355783333333, "bike_id": "9a54c91ace40f329e53b08a69c358e78", "is_disabled": 0, "lon": -77.00336216666666, "is_reserved": 0, "fusion_lat": 0.0, "type": "electric_scooter"}, {"fusion_lon": 0.0, "name": "103636a07aeb0b8d2ffca2a3bb45eeed", "rental_uris": {"android": "https://dc.lft.to/lastmile_qr_scan", "ios": "https://dc.lft.to/lastmile_qr_scan"}, "lat": 38.876617333333336, "bike_id": "103636a07aeb0b8d2ffca2a3bb45eeed", "is_disabled": 0, "lon": -77.00259616666666, "is_reserved": 0, "fusion_lat": 0.0, "type": "electric_scooter"}, {"fusion_lon": 0.0, "name": "432188d4466632a40a75100c8d07aeb9", "rental_uris": {"android": "https://dc.lft.to/lastmile_qr_scan", "ios": "https://dc.lft.to/lastmile_qr_scan"}, "lat": 38.92345733333333, "bike_id": "432188d4466632a40a75100c8d07aeb9", "is_disabled": 0, "lon": -77.01902666666666, "is_reserved": 0, "fusion_lat": 0.0, "type": "electric_scooter"}, {"fusion_lon": 0.0, "name": "7f3d20c1b01df3986c3970d94b207591", "rental_uris": {"android": "https://dc.lft.to/lastmile_qr_scan", "ios": "https://dc.lft.to/lastmile_qr_scan"}, "lat": 38.8997945, "bike_id": "7f3d20c1b01df3986c3970d94b207591", "is_disabled": 0, "lon": -76.93751166666667, "is_reserved": 0, "fusion_lat": 0.0, "type": "electric_scooter"}, {"fusion_lon": 0.0, "name": "6a382d344faad1b93fca264d8647ffe5", "rental_uris": {"android": "https://dc.lft.to/lastmile_qr_scan", "ios": "https://dc.lft.to/lastmile_qr_scan"}, "lat": 38.88375033333333, "bike_id": "6a382d344faad1b93fca264d8647ffe5", "is_disabled": 0, "lon": -76.92417233333333, "is_reserved": 0, "fusion_lat": 0.0, "type": "electric_scooter"}, {"fusion_lon": 0.0, "name": "fdacd5040852ba52a2c01f3f6eb10791", "rental_uris": {"android": "https://dc.lft.to/lastmile_qr_scan", "ios": "https://dc.lft.to/lastmile_qr_scan"}, "lat": 38.922382166666665, "bike_id": "fdacd5040852ba52a2c01f3f6eb10791", "is_disabled": 0, "lon": -77.021496, "is_reserved": 0, "fusion_lat": 0.0, "type": "electric_scooter"}, {"fusion_lon": 0.0, "name": "50b05de10523738947e1785933c3e406", "rental_uris": {"android": "https://dc.lft.to/lastmile_qr_scan", "ios": "https://dc.lft.to/lastmile_qr_scan"}, "lat": 38.884136833333336, "bike_id": "50b05de10523738947e1785933c3e406", "is_disabled": 0, "lon": -77.017389, "is_reserved": 0, "fusion_lat": 0.0, "type": "electric_scooter"}, {"fusion_lon": 0.0, "name": "6bef87834f898a5ea38b7e79f2af8d8c", "rental_uris": {"android": "https://dc.lft.to/lastmile_qr_scan", "ios": "https://dc.lft.to/lastmile_qr_scan"}, "lat": 38.934281, "bike_id": "6bef87834f898a5ea38b7e79f2af8d8c", "is_disabled": 0, "lon": -77.03997416666667, "is_reserved": 0, "fusion_lat": 0.0, "type": "electric_scooter"}, {"fusion_lon": 0.0, "name": "42840787d1d7cba6907f7faebfb146f6", "rental_uris": {"android": "https://dc.lft.to/lastmile_qr_scan", "ios": "https://dc.lft.to/lastmile_qr_scan"}, "lat": 38.911208333333335, "bike_id": "42840787d1d7cba6907f7faebfb146f6", "is_disabled": 0, "lon": -77.04229166666667, "is_reserved": 0, "fusion_lat": 0.0, "type": "electric_scooter"}, {"fusion_lon": 0.0, "name": "2a2a496a2d1b6fbd1b21a24029b5b73d", "rental_uris": {"android": "https://dc.lft.to/lastmile_qr_scan", "ios": "https://dc.lft.to/lastmile_qr_scan"}, "lat": 38.92053333333333, "bike_id": "2a2a496a2d1b6fbd1b21a24029b5b73d", "is_disabled": 0, "lon": -77.04185833333334, "is_reserved": 0, "fusion_lat": 0.0, "type": "electric_scooter"}, {"fusion_lon": 0.0, "name": "7ce52fb9ed265cbde5ab1ea8537cf8b7", "rental_uris": {"android": "https://dc.lft.to/lastmile_qr_scan", "ios": "https://dc.lft.to/lastmile_qr_scan"}, "lat": 38.905759833333335, "bike_id": "7ce52fb9ed265cbde5ab1ea8537cf8b7", "is_disabled": 0, "lon": -77.04502966666666, "is_reserved": 0, "fusion_lat": 0.0, "type": "electric_scooter"}, {"fusion_lon": 0.0, "name": "00d739824bb61cecbe02d9e6655313b6", "rental_uris": {"android": "https://dc.lft.to/lastmile_qr_scan", "ios": "https://dc.lft.to/lastmile_qr_scan"}, "lat": 38.89902883333333, "bike_id": "00d739824bb61cecbe02d9e6655313b6", "is_disabled": 0, "lon": -77.03296, "is_reserved": 0, "fusion_lat": 0.0, "type": "electric_scooter"}, {"fusion_lon": 0.0, "name": "e3fed7596a1ac0cbfb32f4266f3effe8", "rental_uris": {"android": "https://dc.lft.to/lastmile_qr_scan", "ios": "https://dc.lft.to/lastmile_qr_scan"}, "lat": 38.89228716666667, "bike_id": "e3fed7596a1ac0cbfb32f4266f3effe8", "is_disabled": 0, "lon": -77.05002316666666, "is_reserved": 0, "fusion_lat": 0.0, "type": "electric_scooter"}, {"fusion_lon": 0.0, "name": "191b7bcbc2e146750221a9dac0317713", "rental_uris": {"android": "https://dc.lft.to/lastmile_qr_scan", "ios": "https://dc.lft.to/lastmile_qr_scan"}, "lat": 38.908380666666666, "bike_id": "191b7bcbc2e146750221a9dac0317713", "is_disabled": 0, "lon": -77.0730335, "is_reserved": 0, "fusion_lat": 0.0, "type": "electric_scooter"}, {"fusion_lon": 0.0, "name": "62797021958e768b66fd9dc3969b773d", "rental_uris": {"android": "https://dc.lft.to/lastmile_qr_scan", "ios": "https://dc.lft.to/lastmile_qr_scan"}, "lat": 38.923617666666665, "bike_id": "62797021958e768b66fd9dc3969b773d", "is_disabled": 0, "lon": -77.050498, "is_reserved": 0, "fusion_lat": 0.0, "type": "electric_scooter"}, {"fusion_lon": 0.0, "name": "069d7392a467b55e68c8ec4afb7242b7", "rental_uris": {"android": "https://dc.lft.to/lastmile_qr_scan", "ios": "https://dc.lft.to/lastmile_qr_scan"}, "lat": 38.91908683333333, "bike_id": "069d7392a467b55e68c8ec4afb7242b7", "is_disabled": 0, "lon": -77.02138816666667, "is_reserved": 0, "fusion_lat": 0.0, "type": "electric_scooter"}, {"fusion_lon": 0.0, "name": "26acc21d2d64469b05808ac8324b7e7c", "rental_uris": {"android": "https://dc.lft.to/lastmile_qr_scan", "ios": "https://dc.lft.to/lastmile_qr_scan"}, "lat": 38.89891716666666, "bike_id": "26acc21d2d64469b05808ac8324b7e7c", "is_disabled": 0, "lon": -77.03177616666666, "is_reserved": 0, "fusion_lat": 0.0, "type": "electric_scooter"}, {"fusion_lon": 0.0, "name": "7a21d90b3ff83f3f7f91cd560639a26e", "rental_uris": {"android": "https://dc.lft.to/lastmile_qr_scan", "ios": "https://dc.lft.to/lastmile_qr_scan"}, "lat": 38.873415333333334, "bike_id": "7a21d90b3ff83f3f7f91cd560639a26e", "is_disabled": 0, "lon": -76.99168216666666, "is_reserved": 0, "fusion_lat": 0.0, "type": "electric_scooter"}, {"fusion_lon": 0.0, "name": "b1a3e82fb3b6eb8766346fc3744d1fa8", "rental_uris": {"android": "https://dc.lft.to/lastmile_qr_scan", "ios": "https://dc.lft.to/lastmile_qr_scan"}, "lat": 38.897539, "bike_id": "b1a3e82fb3b6eb8766346fc3744d1fa8", "is_disabled": 0, "lon": -77.025586, "is_reserved": 0, "fusion_lat": 0.0, "type": "electric_scooter"}, {"fusion_lon": 0.0, "name": "cd40d9e8ce86d54583be10ae2f44421c", "rental_uris": {"android": "https://dc.lft.to/lastmile_qr_scan", "ios": "https://dc.lft.to/lastmile_qr_scan"}, "lat": 38.90272683333333, "bike_id": "cd40d9e8ce86d54583be10ae2f44421c", "is_disabled": 0, "lon": -77.04325783333333, "is_reserved": 0, "fusion_lat": 0.0, "type": "electric_scooter"}, {"fusion_lon": 0.0, "name": "131d0fd667c77ce6f3ee7ebb885ffd0b", "rental_uris": {"android": "https://dc.lft.to/lastmile_qr_scan", "ios": "https://dc.lft.to/lastmile_qr_scan"}, "lat": 38.922031, "bike_id": "131d0fd667c77ce6f3ee7ebb885ffd0b", "is_disabled": 0, "lon": -76.9836995, "is_reserved": 0, "fusion_lat": 0.0, "type": "electric_scooter"}, {"fusion_lon": 0.0, "name": "1a7c73af8126b282c58918b2617be298", "rental_uris": {"android": "https://dc.lft.to/lastmile_qr_scan", "ios": "https://dc.lft.to/lastmile_qr_scan"}, "lat": 38.94183666666667, "bike_id": "1a7c73af8126b282c58918b2617be298", "is_disabled": 0, "lon": -77.02494, "is_reserved": 0, "fusion_lat": 0.0, "type": "electric_scooter"}, {"fusion_lon": 0.0, "name": "56ca92a4a1877e4bee62c4e0e4381feb", "rental_uris": {"android": "https://dc.lft.to/lastmile_qr_scan", "ios": "https://dc.lft.to/lastmile_qr_scan"}, "lat": 38.88725433333333, "bike_id": "56ca92a4a1877e4bee62c4e0e4381feb", "is_disabled": 0, "lon": -76.98358916666666, "is_reserved": 0, "fusion_lat": 0.0, "type": "electric_scooter"}, {"fusion_lon": 0.0, "name": "5a2023bec26a53d26e2d5c48d8b7e3a6", "rental_uris": {"android": "https://dc.lft.to/lastmile_qr_scan", "ios": "https://dc.lft.to/lastmile_qr_scan"}, "lat": 38.88732566666667, "bike_id": "5a2023bec26a53d26e2d5c48d8b7e3a6", "is_disabled": 0, "lon": -77.01387483333333, "is_reserved": 0, "fusion_lat": 0.0, "type": "electric_scooter"}, {"fusion_lon": 0.0, "name": "f02190d463aaa320260f429af415e148", "rental_uris": {"android": "https://dc.lft.to/lastmile_qr_scan", "ios": "https://dc.lft.to/lastmile_qr_scan"}, "lat": 38.880607166666664, "bike_id": "f02190d463aaa320260f429af415e148", "is_disabled": 0, "lon": -77.005228, "is_reserved": 0, "fusion_lat": 0.0, "type": "electric_scooter"}, {"fusion_lon": 0.0, "name": "ed648b95f898629199b3176e3cfe4608", "rental_uris": {"android": "https://dc.lft.to/lastmile_qr_scan", "ios": "https://dc.lft.to/lastmile_qr_scan"}, "lat": 38.87853716666667, "bike_id": "ed648b95f898629199b3176e3cfe4608", "is_disabled": 0, "lon": -77.02223866666667, "is_reserved": 0, "fusion_lat": 0.0, "type": "electric_scooter"}, {"fusion_lon": 0.0, "name": "97997b0382ce89156b7735979af45175", "rental_uris": {"android": "https://dc.lft.to/lastmile_qr_scan", "ios": "https://dc.lft.to/lastmile_qr_scan"}, "lat": 38.90382016666667, "bike_id": "97997b0382ce89156b7735979af45175", "is_disabled": 0, "lon": -77.03209483333333, "is_reserved": 0, "fusion_lat": 0.0, "type": "electric_scooter"}, {"fusion_lon": 0.0, "name": "6617f7d87c329c178835a9e394c71f0a", "rental_uris": {"android": "https://dc.lft.to/lastmile_qr_scan", "ios": "https://dc.lft.to/lastmile_qr_scan"}, "lat": 38.8991, "bike_id": "6617f7d87c329c178835a9e394c71f0a", "is_disabled": 0, "lon": -76.97997283333333, "is_reserved": 0, "fusion_lat": 0.0, "type": "electric_scooter"}, {"fusion_lon": 0.0, "name": "1f883d40051bf0ac871adfcf9d6647a6", "rental_uris": {"android": "https://dc.lft.to/lastmile_qr_scan", "ios": "https://dc.lft.to/lastmile_qr_scan"}, "lat": 38.937693, "bike_id": "1f883d40051bf0ac871adfcf9d6647a6", "is_disabled": 0, "lon": -77.03247433333334, "is_reserved": 0, "fusion_lat": 0.0, "type": "electric_scooter"}, {"fusion_lon": 0.0, "name": "30bfc2c490bdab0a84237056fabbeb13", "rental_uris": {"android": "https://dc.lft.to/lastmile_qr_scan", "ios": "https://dc.lft.to/lastmile_qr_scan"}, "lat": 38.864846166666666, "bike_id": "30bfc2c490bdab0a84237056fabbeb13", "is_disabled": 0, "lon": -76.977443, "is_reserved": 0, "fusion_lat": 0.0, "type": "electric_bike"}, {"fusion_lon": 0.0, "name": "c2b45bab204bdc05f99891d51518f6db", "rental_uris": {"android": "https://dc.lft.to/lastmile_qr_scan", "ios": "https://dc.lft.to/lastmile_qr_scan"}, "lat": 38.92151583333333, "bike_id": "c2b45bab204bdc05f99891d51518f6db", "is_disabled": 0, "lon": -77.02091983333334, "is_reserved": 0, "fusion_lat": 0.0, "type": "electric_scooter"}, {"fusion_lon": 0.0, "name": "d34bf291abeeb72f1e0a94eff6cc934a", "rental_uris": {"android": "https://dc.lft.to/lastmile_qr_scan", "ios": "https://dc.lft.to/lastmile_qr_scan"}, "lat": 38.91561433333333, "bike_id": "d34bf291abeeb72f1e0a94eff6cc934a", "is_disabled": 0, "lon": -77.02274416666667, "is_reserved": 0, "fusion_lat": 0.0, "type": "electric_scooter"}, {"fusion_lon": 0.0, "name": "4fda439196c6dfecb53ee6265739d3a3", "rental_uris": {"android": "https://dc.lft.to/lastmile_qr_scan", "ios": "https://dc.lft.to/lastmile_qr_scan"}, "lat": 38.89221333333333, "bike_id": "4fda439196c6dfecb53ee6265739d3a3", "is_disabled": 0, "lon": -77.04506216666667, "is_reserved": 0, "fusion_lat": 0.0, "type": "electric_scooter"}, {"fusion_lon": 0.0, "name": "02a62ea97b4c9250398f62380725bb9a", "rental_uris": {"android": "https://dc.lft.to/lastmile_qr_scan", "ios": "https://dc.lft.to/lastmile_qr_scan"}, "lat": 38.922909, "bike_id": "02a62ea97b4c9250398f62380725bb9a", "is_disabled": 0, "lon": -76.9977815, "is_reserved": 0, "fusion_lat": 0.0, "type": "electric_scooter"}, {"fusion_lon": 0.0, "name": "739187235ba4ed9ffb1f419a12d39992", "rental_uris": {"android": "https://dc.lft.to/lastmile_qr_scan", "ios": "https://dc.lft.to/lastmile_qr_scan"}, "lat": 38.90178383333333, "bike_id": "739187235ba4ed9ffb1f419a12d39992", "is_disabled": 0, "lon": -77.023958, "is_reserved": 0, "fusion_lat": 0.0, "type": "electric_scooter"}, {"fusion_lon": 0.0, "name": "2b0e72b9a20290ce2c8b22f5f0e20848", "rental_uris": {"android": "https://dc.lft.to/lastmile_qr_scan", "ios": "https://dc.lft.to/lastmile_qr_scan"}, "lat": 38.920587833333336, "bike_id": "2b0e72b9a20290ce2c8b22f5f0e20848", "is_disabled": 0, "lon": -77.02308783333334, "is_reserved": 0, "fusion_lat": 0.0, "type": "electric_scooter"}, {"fusion_lon": 0.0, "name": "e245cb12524ba0d098f96460335613b0", "rental_uris": {"android": "https://dc.lft.to/lastmile_qr_scan", "ios": "https://dc.lft.to/lastmile_qr_scan"}, "lat": 38.8842125, "bike_id": "e245cb12524ba0d098f96460335613b0", "is_disabled": 0, "lon": -76.9969305, "is_reserved": 0, "fusion_lat": 0.0, "type": "electric_scooter"}, {"fusion_lon": 0.0, "name": "775a3c89f9d3d019dd89006d6250e377", "rental_uris": {"android": "https://dc.lft.to/lastmile_qr_scan", "ios": "https://dc.lft.to/lastmile_qr_scan"}, "lat": 38.92724166666667, "bike_id": "775a3c89f9d3d019dd89006d6250e377", "is_disabled": 0, "lon": -77.03551466666667, "is_reserved": 0, "fusion_lat": 0.0, "type": "electric_scooter"}, {"fusion_lon": 0.0, "name": "89fd3a1eb62e72c9cf1fdc4cc2223d64", "rental_uris": {"android": "https://dc.lft.to/lastmile_qr_scan", "ios": "https://dc.lft.to/lastmile_qr_scan"}, "lat": 38.951875, "bike_id": "89fd3a1eb62e72c9cf1fdc4cc2223d64", "is_disabled": 0, "lon": -76.991743, "is_reserved": 0, "fusion_lat": 0.0, "type": "electric_scooter"}, {"fusion_lon": 0.0, "name": "e5f0d03249e764818cb8aae46b922f44", "rental_uris": {"android": "https://dc.lft.to/lastmile_qr_scan", "ios": "https://dc.lft.to/lastmile_qr_scan"},