{"data": {"bikes": [{"lat": 38.927694, "fusion_lon": 0.0, "lon": -77.0278415, "is_disabled": 0, "type": "electric_scooter", "name": "ba6b8fa7001124a608bb51f069f28d3c", "fusion_lat": 0.0, "rental_uris": {"android": "https://dc.lft.to/lastmile_qr_scan", "ios": "https://dc.lft.to/lastmile_qr_scan"}, "bike_id": "ba6b8fa7001124a608bb51f069f28d3c", "is_reserved": 0}, {"lat": 38.873566333333336, "fusion_lon": 0.0, "lon": -77.00619116666667, "is_disabled": 0, "type": "electric_scooter", "name": "407a6a16c74a8a4d1ef3a37384334972", "fusion_lat": 0.0, "rental_uris": {"android": "https://dc.lft.to/lastmile_qr_scan", "ios": "https://dc.lft.to/lastmile_qr_scan"}, "bike_id": "407a6a16c74a8a4d1ef3a37384334972", "is_reserved": 0}, {"lat": 38.889614333333334, "fusion_lon": 0.0, "lon": -76.93707933333333, "is_disabled": 0, "type": "electric_scooter", "name": "462083d437bd9d9a5932b53a3ea0d146", "fusion_lat": 0.0, "rental_uris": {"android": "https://dc.lft.to/lastmile_qr_scan", "ios": "https://dc.lft.to/lastmile_qr_scan"}, "bike_id": "462083d437bd9d9a5932b53a3ea0d146", "is_reserved": 0}, {"lat": 38.864099833333334, "fusion_lon": 0.0, "lon": -77.01230066666666, "is_disabled": 0, "type": "electric_scooter", "name": "0edf2a668d4da937ac526c45433f2ade", "fusion_lat": 0.0, "rental_uris": {"android": "https://dc.lft.to/lastmile_qr_scan", "ios": "https://dc.lft.to/lastmile_qr_scan"}, "bike_id": "0edf2a668d4da937ac526c45433f2ade", "is_reserved": 0}, {"lat": 38.89805366666667, "fusion_lon": 0.0, "lon": -76.99163083333333, "is_disabled": 0, "type": "electric_scooter", "name": "6d0c3ab9884af1757ca1d6d80f73e22f", "fusion_lat": 0.0, "rental_uris": {"android": "https://dc.lft.to/lastmile_qr_scan", "ios": "https://dc.lft.to/lastmile_qr_scan"}, "bike_id": "6d0c3ab9884af1757ca1d6d80f73e22f", "is_reserved": 0}, {"lat": 38.87633616666667, "fusion_lon": 0.0, "lon": -76.98872866666666, "is_disabled": 0, "type": "electric_bike", "name": "7eb42fc866a78a8d4fd56f8c21407c85", "fusion_lat": 0.0, "rental_uris": {"android": "https://dc.lft.to/lastmile_qr_scan", "ios": "https://dc.lft.to/lastmile_qr_scan"}, "bike_id": "7eb42fc866a78a8d4fd56f8c21407c85", "is_reserved": 0}, {"lat": 38.89221533333333, "fusion_lon": 0.0, "lon": -77.03342416666666, "is_disabled": 0, "type": "electric_scooter", "name": "2893c71e597723e9b48b97c26cb8820e", "fusion_lat": 0.0, "rental_uris": {"android": "https://dc.lft.to/lastmile_qr_scan", "ios": "https://dc.lft.to/lastmile_qr_scan"}, "bike_id": "2893c71e597723e9b48b97c26cb8820e", "is_reserved": 0}, {"lat": 38.90071483333333, "fusion_lon": 0.0, "lon": -77.0483475, "is_disabled": 0, "type": "electric_scooter", "name": "3ba182015dc80417ef45fbec12b9d6cb", "fusion_lat": 0.0, "rental_uris": {"android": "https://dc.lft.to/lastmile_qr_scan", "ios": "https://dc.lft.to/lastmile_qr_scan"}, "bike_id": "3ba182015dc80417ef45fbec12b9d6cb", "is_reserved": 0}, {"lat": 38.9027835, "fusion_lon": 0.0, "lon": -77.0383745, "is_disabled": 0, "type": "electric_scooter", "name": "c43536bd406b95b7fb63a135981ce4fa", "fusion_lat": 0.0, "rental_uris": {"android": "https://dc.lft.to/lastmile_qr_scan", "ios": "https://dc.lft.to/lastmile_qr_scan"}, "bike_id": "c43536bd406b95b7fb63a135981ce4fa", "is_reserved": 0}, {"lat": 38.923331166666664, "fusion_lon": 0.0, "lon": -76.9989755, "is_disabled": 0, "type": "electric_scooter", "name": "b97e6760332f74d40d058e55bb06497f", "fusion_lat": 0.0, "rental_uris": {"android": "https://dc.lft.to/lastmile_qr_scan", "ios": "https://dc.lft.to/lastmile_qr_scan"}, "bike_id": "b97e6760332f74d40d058e55bb06497f", "is_reserved": 0}, {"lat": 38.903740666666664, "fusion_lon": 0.0, "lon": -77.04191333333333, "is_disabled": 0, "type": "electric_scooter", "name": "d0dc4b8f1f5b52d3937ecbdb6a55fe27", "fusion_lat": 0.0, "rental_uris": {"android": "https://dc.lft.to/lastmile_qr_scan", "ios": "https://dc.lft.to/lastmile_qr_scan"}, "bike_id": "d0dc4b8f1f5b52d3937ecbdb6a55fe27", "is_reserved": 0}, {"lat": 38.936789166666664, "fusion_lon": 0.0, "lon": -77.036265, "is_disabled": 0, "type": "electric_scooter", "name": "c464a98b2a89640898b034e1a49eaa57", "fusion_lat": 0.0, "rental_uris": {"android": "https://dc.lft.to/lastmile_qr_scan", "ios": "https://dc.lft.to/lastmile_qr_scan"}, "bike_id": "c464a98b2a89640898b034e1a49eaa57", "is_reserved": 0}, {"lat": 38.96115316666667, "fusion_lon": 0.0, "lon": -77.0094635, "is_disabled": 0, "type": "electric_scooter", "name": "b82681a19a786549518e169f0b504759", "fusion_lat": 0.0, "rental_uris": {"android": "https://dc.lft.to/lastmile_qr_scan", "ios": "https://dc.lft.to/lastmile_qr_scan"}, "bike_id": "b82681a19a786549518e169f0b504759", "is_reserved": 0}, {"lat": 38.905592166666665, "fusion_lon": 0.0, "lon": -77.03249066666666, "is_disabled": 0, "type": "electric_scooter", "name": "e3f98eb1516a3af448ca855f0f9ff53d", "fusion_lat": 0.0, "rental_uris": {"android": "https://dc.lft.to/lastmile_qr_scan", "ios": "https://dc.lft.to/lastmile_qr_scan"}, "bike_id": "e3f98eb1516a3af448ca855f0f9ff53d", "is_reserved": 0}, {"lat": 38.918944833333335, "fusion_lon": 0.0, "lon": -77.04825066666666, "is_disabled": 0, "type": "electric_scooter", "name": "3d02256f362b50ed57d2ff5a548e2bc6", "fusion_lat": 0.0, "rental_uris": {"android": "https://dc.lft.to/lastmile_qr_scan", "ios": "https://dc.lft.to/lastmile_qr_scan"}, "bike_id": "3d02256f362b50ed57d2ff5a548e2bc6", "is_reserved": 0}, {"lat": 38.914223166666666, "fusion_lon": 0.0, "lon": -77.02597983333334, "is_disabled": 0, "type": "electric_scooter", "name": "6330d8305394f150f1024753deef60d2", "fusion_lat": 0.0, "rental_uris": {"android": "https://dc.lft.to/lastmile_qr_scan", "ios": "https://dc.lft.to/lastmile_qr_scan"}, "bike_id": "6330d8305394f150f1024753deef60d2", "is_reserved": 0}, {"lat": 38.905093666666666, "fusion_lon": 0.0, "lon": -77.02599333333333, "is_disabled": 0, "type": "electric_scooter", "name": "74df2203846d47df3083df73b4cf33b6", "fusion_lat": 0.0, "rental_uris": {"android": "https://dc.lft.to/lastmile_qr_scan", "ios": "https://dc.lft.to/lastmile_qr_scan"}, "bike_id": "74df2203846d47df3083df73b4cf33b6", "is_reserved": 0}, {"lat": 38.8861915, "fusion_lon": 0.0, "lon": -77.0006485, "is_disabled": 0, "type": "electric_scooter", "name": "43b25e9ef42331f7b77ff8403c9f6908", "fusion_lat": 0.0, "rental_uris": {"android": "https://dc.lft.to/lastmile_qr_scan", "ios": "https://dc.lft.to/lastmile_qr_scan"}, "bike_id": "43b25e9ef42331f7b77ff8403c9f6908", "is_reserved": 0}, {"lat": 38.879461666666664, "fusion_lon": 0.0, "lon": -76.91622166666667, "is_disabled": 0, "type": "electric_bike", "name": "ca7cad431c00f8fa1837699863b8d799", "fusion_lat": 0.0, "rental_uris": {"android": "https://dc.lft.to/lastmile_qr_scan", "ios": "https://dc.lft.to/lastmile_qr_scan"}, "bike_id": "ca7cad431c00f8fa1837699863b8d799", "is_reserved": 0}, {"lat": 38.9041195, "fusion_lon": 0.0, "lon": -77.02954583333333, "is_disabled": 0, "type": "electric_scooter", "name": "0f4a18a0111fffab7ce569d3785d499a", "fusion_lat": 0.0, "rental_uris": {"android": "https://dc.lft.to/lastmile_qr_scan", "ios": "https://dc.lft.to/lastmile_qr_scan"}, "bike_id": "0f4a18a0111fffab7ce569d3785d499a", "is_reserved": 0}, {"lat": 38.883158333333334, "fusion_lon": 0.0, "lon": -77.0176425, "is_disabled": 0, "type": "electric_scooter", "name": "8db7ff2735808674d146127170e777c4", "fusion_lat": 0.0, "rental_uris": {"android": "https://dc.lft.to/lastmile_qr_scan", "ios": "https://dc.lft.to/lastmile_qr_scan"}, "bike_id": "8db7ff2735808674d146127170e777c4", "is_reserved": 0}, {"lat": 38.924764, "fusion_lon": 0.0, "lon": -77.02828083333333, "is_disabled": 0, "type": "electric_scooter", "name": "3d0e39fe27f623aa7508b799e1bb30db", "fusion_lat": 0.0, "rental_uris": {"android": "https://dc.lft.to/lastmile_qr_scan", "ios": "https://dc.lft.to/lastmile_qr_scan"}, "bike_id": "3d0e39fe27f623aa7508b799e1bb30db", "is_reserved": 0}, {"lat": 38.870105333333335, "fusion_lon": 0.0, "lon": -76.95975083333333, "is_disabled": 0, "type": "electric_scooter", "name": "bf19416a98b37e7cc66f2199e0826ddf", "fusion_lat": 0.0, "rental_uris": {"android": "https://dc.lft.to/lastmile_qr_scan", "ios": "https://dc.lft.to/lastmile_qr_scan"}, "bike_id": "bf19416a98b37e7cc66f2199e0826ddf", "is_reserved": 0}, {"lat": 38.85323733333333, "fusion_lon": 0.0, "lon": -76.98018416666666, "is_disabled": 0, "type": "electric_bike", "name": "dc1bd8a0bce67205a17545a7394705a2", "fusion_lat": 0.0, "rental_uris": {"android": "https://dc.lft.to/lastmile_qr_scan", "ios": "https://dc.lft.to/lastmile_qr_scan"}, "bike_id": "dc1bd8a0bce67205a17545a7394705a2", "is_reserved": 0}, {"lat": 38.89849516666666, "fusion_lon": 0.0, "lon": -76.98174116666667, "is_disabled": 0, "type": "electric_scooter", "name": "df699d9555f5246671e7e6afd6161f5c", "fusion_lat": 0.0, "rental_uris": {"android": "https://dc.lft.to/lastmile_qr_scan", "ios": "https://dc.lft.to/lastmile_qr_scan"}, "bike_id": "df699d9555f5246671e7e6afd6161f5c", "is_reserved": 0}, {"lat": 38.90522133333333, "fusion_lon": 0.0, "lon": -77.05002633333334, "is_disabled": 0, "type": "electric_scooter", "name": "08a661d7e1ab84a64428cbccec5d96cf", "fusion_lat": 0.0, "rental_uris": {"android": "https://dc.lft.to/lastmile_qr_scan", "ios": "https://dc.lft.to/lastmile_qr_scan"}, "bike_id": "08a661d7e1ab84a64428cbccec5d96cf", "is_reserved": 0}, {"lat": 38.90262766666667, "fusion_lon": 0.0, "lon": -77.01758516666666, "is_disabled": 0, "type": "electric_scooter", "name": "470957c71abbdcfcfab3b42285fb1828", "fusion_lat": 0.0, "rental_uris": {"android": "https://dc.lft.to/lastmile_qr_scan", "ios": "https://dc.lft.to/lastmile_qr_scan"}, "bike_id": "470957c71abbdcfcfab3b42285fb1828", "is_reserved": 0}, {"lat": 38.8075415, "fusion_lon": 0.0, "lon": -77.09457116666667, "is_disabled": 0, "type": "electric_bike", "name": "1820576188bec8ec1817bb71129e85b2", "fusion_lat": 0.0, "rental_uris": {"android": "https://dc.lft.to/lastmile_qr_scan", "ios": "https://dc.lft.to/lastmile_qr_scan"}, "bike_id": "1820576188bec8ec1817bb71129e85b2", "is_reserved": 0}, {"lat": 38.883127333333334, "fusion_lon": 0.0, "lon": -77.01678866666667, "is_disabled": 0, "type": "electric_scooter", "name": "a4d3a936bbbd973caa2604fa8ee3ffb5", "fusion_lat": 0.0, "rental_uris": {"android": "https://dc.lft.to/lastmile_qr_scan", "ios": "https://dc.lft.to/lastmile_qr_scan"}, "bike_id": "a4d3a936bbbd973caa2604fa8ee3ffb5", "is_reserved": 0}, {"lat": 38.943155, "fusion_lon": 0.0, "lon": -77.0592535, "is_disabled": 0, "type": "electric_scooter", "name": "ad525d2d852d0c719195d8f8a15157d7", "fusion_lat": 0.0, "rental_uris": {"android": "https://dc.lft.to/lastmile_qr_scan", "ios": "https://dc.lft.to/lastmile_qr_scan"}, "bike_id": "ad525d2d852d0c719195d8f8a15157d7", "is_reserved": 0}, {"lat": 38.898296333333334, "fusion_lon": 0.0, "lon": -77.04645583333334, "is_disabled": 0, "type": "electric_scooter", "name": "fae526dfdb081f9f59fd28af0ef51797", "fusion_lat": 0.0, "rental_uris": {"android": "https://dc.lft.to/lastmile_qr_scan", "ios": "https://dc.lft.to/lastmile_qr_scan"}, "bike_id": "fae526dfdb081f9f59fd28af0ef51797", "is_reserved": 0}, {"lat": 38.91144383333334, "fusion_lon": 0.0, "lon": -77.00458516666667, "is_disabled": 0, "type": "electric_scooter", "name": "9b8351552cd8e3be2b8f193fdb40a01c", "fusion_lat": 0.0, "rental_uris": {"android": "https://dc.lft.to/lastmile_qr_scan", "ios": "https://dc.lft.to/lastmile_qr_scan"}, "bike_id": "9b8351552cd8e3be2b8f193fdb40a01c", "is_reserved": 0}, {"lat": 38.95259216666667, "fusion_lon": 0.0, "lon": -77.00790883333333, "is_disabled": 0, "type": "electric_bike", "name": "c3a4dc5fd92e5b6bc1636dc3f236f191", "fusion_lat": 0.0, "rental_uris": {"android": "https://dc.lft.to/lastmile_qr_scan", "ios": "https://dc.lft.to/lastmile_qr_scan"}, "bike_id": "c3a4dc5fd92e5b6bc1636dc3f236f191", "is_reserved": 0}, {"lat": 38.928379, "fusion_lon": 0.0, "lon": -77.01420333333333, "is_disabled": 0, "type": "electric_scooter", "name": "b3505bef1391a059cd5a847592c1869e", "fusion_lat": 0.0, "rental_uris": {"android": "https://dc.lft.to/lastmile_qr_scan", "ios": "https://dc.lft.to/lastmile_qr_scan"}, "bike_id": "b3505bef1391a059cd5a847592c1869e", "is_reserved": 0}, {"lat": 38.9000405, "fusion_lon": 0.0, "lon": -77.03354816666666, "is_disabled": 0, "type": "electric_scooter", "name": "46789f190bb60a400fc6da7a1131db03", "fusion_lat": 0.0, "rental_uris": {"android": "https://dc.lft.to/lastmile_qr_scan", "ios": "https://dc.lft.to/lastmile_qr_scan"}, "bike_id": "46789f190bb60a400fc6da7a1131db03", "is_reserved": 0}, {"lat": 38.921760166666665, "fusion_lon": 0.0, "lon": -77.04225183333334, "is_disabled": 0, "type": "electric_scooter", "name": "230cde15c9000356cd66c5f45ec5ee00", "fusion_lat": 0.0, "rental_uris": {"android": "https://dc.lft.to/lastmile_qr_scan", "ios": "https://dc.lft.to/lastmile_qr_scan"}, "bike_id": "230cde15c9000356cd66c5f45ec5ee00", "is_reserved": 0}, {"lat": 38.900775, "fusion_lon": 0.0, "lon": -77.01327566666667, "is_disabled": 0, "type": "electric_scooter", "name": "4057cc4fe7e25e47223635e8795d606a", "fusion_lat": 0.0, "rental_uris": {"android": "https://dc.lft.to/lastmile_qr_scan", "ios": "https://dc.lft.to/lastmile_qr_scan"}, "bike_id": "4057cc4fe7e25e47223635e8795d606a", "is_reserved": 0}, {"lat": 38.876445333333336, "fusion_lon": 0.0, "lon": -77.00549683333334, "is_disabled": 0, "type": "electric_scooter", "name": "c769d390b8b9299b2811f0dc3634946b", "fusion_lat": 0.0, "rental_uris": {"android": "https://dc.lft.to/lastmile_qr_scan", "ios": "https://dc.lft.to/lastmile_qr_scan"}, "bike_id": "c769d390b8b9299b2811f0dc3634946b", "is_reserved": 0}, {"lat": 38.886181666666666, "fusion_lon": 0.0, "lon": -76.955847, "is_disabled": 0, "type": "electric_scooter", "name": "0803cee00514d81ed0d121812da81aec", "fusion_lat": 0.0, "rental_uris": {"android": "https://dc.lft.to/lastmile_qr_scan", "ios": "https://dc.lft.to/lastmile_qr_scan"}, "bike_id": "0803cee00514d81ed0d121812da81aec", "is_reserved": 0}, {"lat": 38.910822333333336, "fusion_lon": 0.0, "lon": -77.06548716666667, "is_disabled": 0, "type": "electric_scooter", "name": "77ab661bc2a739166e94da67e75a1528", "fusion_lat": 0.0, "rental_uris": {"android": "https://dc.lft.to/lastmile_qr_scan", "ios": "https://dc.lft.to/lastmile_qr_scan"}, "bike_id": "77ab661bc2a739166e94da67e75a1528", "is_reserved": 0}, {"lat": 38.86701816666667, "fusion_lon": 0.0, "lon": -76.98594666666666, "is_disabled": 0, "type": "electric_scooter", "name": "cd4c53a8d084de07eb907b400d0699d3", "fusion_lat": 0.0, "rental_uris": {"android": "https://dc.lft.to/lastmile_qr_scan", "ios": "https://dc.lft.to/lastmile_qr_scan"}, "bike_id": "cd4c53a8d084de07eb907b400d0699d3", "is_reserved": 0}, {"lat": 38.9053365, "fusion_lon": 0.0, "lon": -77.03473933333333, "is_disabled": 0, "type": "electric_scooter", "name": "64525df2c13dd487b84d47406b63a39f", "fusion_lat": 0.0, "rental_uris": {"android": "https://dc.lft.to/lastmile_qr_scan", "ios": "https://dc.lft.to/lastmile_qr_scan"}, "bike_id": "64525df2c13dd487b84d47406b63a39f", "is_reserved": 0}, {"lat": 38.8873485, "fusion_lon": 0.0, "lon": -77.02831666666667, "is_disabled": 0, "type": "electric_scooter", "name": "7c3cdaa140e80d61ab1640f309820a0e", "fusion_lat": 0.0, "rental_uris": {"android": "https://dc.lft.to/lastmile_qr_scan", "ios": "https://dc.lft.to/lastmile_qr_scan"}, "bike_id": "7c3cdaa140e80d61ab1640f309820a0e", "is_reserved": 0}, {"lat": 38.89544, "fusion_lon": 0.0, "lon": -77.03260166666666, "is_disabled": 0, "type": "electric_scooter", "name": "c443070fce58d1d5469ba334e1732ad8", "fusion_lat": 0.0, "rental_uris": {"android": "https://dc.lft.to/lastmile_qr_scan", "ios": "https://dc.lft.to/lastmile_qr_scan"}, "bike_id": "c443070fce58d1d5469ba334e1732ad8", "is_reserved": 0}, {"lat": 38.881797, "fusion_lon": 0.0, "lon": -77.03572866666667, "is_disabled": 0, "type": "electric_scooter", "name": "a0f72d646b98e75d7e723aae366b8e91", "fusion_lat": 0.0, "rental_uris": {"android": "https://dc.lft.to/lastmile_qr_scan", "ios": "https://dc.lft.to/lastmile_qr_scan"}, "bike_id": "a0f72d646b98e75d7e723aae366b8e91", "is_reserved": 0}, {"lat": 38.900179, "fusion_lon": 0.0, "lon": -76.98694983333333, "is_disabled": 0, "type": "electric_scooter", "name": "cdad2e1b4d0b6288bffb08d0c658e735", "fusion_lat": 0.0, "rental_uris": {"android": "https://dc.lft.to/lastmile_qr_scan", "ios": "https://dc.lft.to/lastmile_qr_scan"}, "bike_id": "cdad2e1b4d0b6288bffb08d0c658e735", "is_reserved": 0}, {"lat": 38.888318, "fusion_lon": 0.0, "lon": -76.99364983333334, "is_disabled": 0, "type": "electric_scooter", "name": "e920e2ddb17450e6e5a804215c94b0dd", "fusion_lat": 0.0, "rental_uris": {"android": "https://dc.lft.to/lastmile_qr_scan", "ios": "https://dc.lft.to/lastmile_qr_scan"}, "bike_id": "e920e2ddb17450e6e5a804215c94b0dd", "is_reserved": 0}, {"lat": 38.91628083333333, "fusion_lon": 0.0, "lon": -77.03207366666666, "is_disabled": 0, "type": "electric_scooter", "name": "315db1806094ce57b019f4bb4955573c", "fusion_lat": 0.0, "rental_uris": {"android": "https://dc.lft.to/lastmile_qr_scan", "ios": "https://dc.lft.to/lastmile_qr_scan"}, "bike_id": "315db1806094ce57b019f4bb4955573c", "is_reserved": 0}, {"lat": 38.962301833333335, "fusion_lon": 0.0, "lon": -77.0262745, "is_disabled": 0, "type": "electric_bike", "name": "43c804be18e677f52f2f0754c298b29a", "fusion_lat": 0.0, "rental_uris": {"android": "https://dc.lft.to/lastmile_qr_scan", "ios": "https://dc.lft.to/lastmile_qr_scan"}, "bike_id": "43c804be18e677f52f2f0754c298b29a", "is_reserved": 0}, {"lat": 38.9370865, "fusion_lon": 0.0, "lon": -77.06102833333334, "is_disabled": 0, "type": "electric_scooter", "name": "3929732fa0809e4f169fc772067979f8", "fusion_lat": 0.0, "rental_uris": {"android": "https://dc.lft.to/lastmile_qr_scan", "ios": "https://dc.lft.to/lastmile_qr_scan"}, "bike_id": "3929732fa0809e4f169fc772067979f8", "is_reserved": 0}, {"lat": 38.86693616666667, "fusion_lon": 0.0, "lon": -76.98606566666666, "is_disabled": 0, "type": "electric_scooter", "name": "0f99bc4c0b6365924f48b8277b7ed416", "fusion_lat": 0.0, "rental_uris": {"android": "https://dc.lft.to/lastmile_qr_scan", "ios": "https://dc.lft.to/lastmile_qr_scan"}, "bike_id": "0f99bc4c0b6365924f48b8277b7ed416", "is_reserved": 0}, {"lat": 38.92737283333334, "fusion_lon": 0.0, "lon": -77.03246283333333, "is_disabled": 0, "type": "electric_scooter", "name": "cc9079d2400799d10dfcc2e00b69cb82", "fusion_lat": 0.0, "rental_uris": {"android": "https://dc.lft.to/lastmile_qr_scan", "ios": "https://dc.lft.to/lastmile_qr_scan"}, "bike_id": "cc9079d2400799d10dfcc2e00b69cb82", "is_reserved": 0}, {"lat": 38.9275205, "fusion_lon": 0.0, "lon": -77.025326, "is_disabled": 0, "type": "electric_scooter", "name": "10815067c749f84fc757dabad6f51ca6", "fusion_lat": 0.0, "rental_uris": {"android": "https://dc.lft.to/lastmile_qr_scan", "ios": "https://dc.lft.to/lastmile_qr_scan"}, "bike_id": "10815067c749f84fc757dabad6f51ca6", "is_reserved": 0}, {"lat": 38.90574983333333, "fusion_lon": 0.0, "lon": -77.0592055, "is_disabled": 0, "type": "electric_scooter", "name": "60b978c49c4c969af1068630a48a9c93", "fusion_lat": 0.0, "rental_uris": {"android": "https://dc.lft.to/lastmile_qr_scan", "ios": "https://dc.lft.to/lastmile_qr_scan"}, "bike_id": "60b978c49c4c969af1068630a48a9c93", "is_reserved": 0}, {"lat": 38.89497983333333, "fusion_lon": 0.0, "lon": -77.00946866666666, "is_disabled": 0, "type": "electric_scooter", "name": "a13fe718ff73515d496afd994641dc7c", "fusion_lat": 0.0, "rental_uris": {"android": "https://dc.lft.to/lastmile_qr_scan", "ios": "https://dc.lft.to/lastmile_qr_scan"}, "bike_id": "a13fe718ff73515d496afd994641dc7c", "is_reserved": 0}, {"lat": 38.88583666666667, "fusion_lon": 0.0, "lon": -77.02001516666667, "is_disabled": 0, "type": "electric_scooter", "name": "89811550a0be9686eaed2abc18de77fc", "fusion_lat": 0.0, "rental_uris": {"android": "https://dc.lft.to/lastmile_qr_scan", "ios": "https://dc.lft.to/lastmile_qr_scan"}, "bike_id": "89811550a0be9686eaed2abc18de77fc", "is_reserved": 0}, {"lat": 38.90568733333333, "fusion_lon": 0.0, "lon": -77.042829, "is_disabled": 0, "type": "electric_scooter", "name": "9803fce7b795c03011c112c264395359", "fusion_lat": 0.0, "rental_uris": {"android": "https://dc.lft.to/lastmile_qr_scan", "ios": "https://dc.lft.to/lastmile_qr_scan"}, "bike_id": "9803fce7b795c03011c112c264395359", "is_reserved": 0}, {"lat": 38.88768566666667, "fusion_lon": 0.0, "lon": -76.95577366666667, "is_disabled": 0, "type": "electric_scooter", "name": "8b227c2f461f64cbd2b5335e667d049c", "fusion_lat": 0.0, "rental_uris": {"android": "https://dc.lft.to/lastmile_qr_scan", "ios": "https://dc.lft.to/lastmile_qr_scan"}, "bike_id": "8b227c2f461f64cbd2b5335e667d049c", "is_reserved": 0}, {"lat": 38.92517216666667, "fusion_lon": 0.0, "lon": -77.023602, "is_disabled": 0, "type": "electric_scooter", "name": "fd9dd4fbd251ca7495542d88a5afb7ce", "fusion_lat": 0.0, "rental_uris": {"android": "https://dc.lft.to/lastmile_qr_scan", "ios": "https://dc.lft.to/lastmile_qr_scan"}, "bike_id": "fd9dd4fbd251ca7495542d88a5afb7ce", "is_reserved": 0}, {"lat": 38.90081716666667, "fusion_lon": 0.0, "lon": -76.99361533333334, "is_disabled": 0, "type": "electric_scooter", "name": "c6c1777dc71e9f1ff86dea0360d2a203", "fusion_lat": 0.0, "rental_uris": {"android": "https://dc.lft.to/lastmile_qr_scan", "ios": "https://dc.lft.to/lastmile_qr_scan"}, "bike_id": "c6c1777dc71e9f1ff86dea0360d2a203", "is_reserved": 0}, {"lat": 38.941842666666666, "fusion_lon": 0.0, "lon": -77.02535966666666, "is_disabled": 0, "type": "electric_scooter", "name": "5783417c7bd630e8dc1f6c8c5c95a616", "fusion_lat": 0.0, "rental_uris": {"android": "https://dc.lft.to/lastmile_qr_scan", "ios": "https://dc.lft.to/lastmile_qr_scan"}, "bike_id": "5783417c7bd630e8dc1f6c8c5c95a616", "is_reserved": 0}, {"lat": 38.926129, "fusion_lon": 0.0, "lon": -77.021653, "is_disabled": 0, "type": "electric_scooter", "name": "5395d934f87c86a5d475c2942b3dcf2c", "fusion_lat": 0.0, "rental_uris": {"android": "https://dc.lft.to/lastmile_qr_scan", "ios": "https://dc.lft.to/lastmile_qr_scan"}, "bike_id": "5395d934f87c86a5d475c2942b3dcf2c", "is_reserved": 0}, {"lat": 38.90116166666667, "fusion_lon": 0.0, "lon": -77.0398335, "is_disabled": 0, "type": "electric_scooter", "name": "fc8aeb89ccf144d744898629587258fe", "fusion_lat": 0.0, "rental_uris": {"android": "https://dc.lft.to/lastmile_qr_scan", "ios": "https://dc.lft.to/lastmile_qr_scan"}, "bike_id": "fc8aeb89ccf144d744898629587258fe", "is_reserved": 0}, {"lat": 38.917290666666666, "fusion_lon": 0.0, "lon": -77.02973, "is_disabled": 0, "type": "electric_scooter", "name": "cb597f60a93b64c91776d0be21bf4778", "fusion_lat": 0.0, "rental_uris": {"android": "https://dc.lft.to/lastmile_qr_scan", "ios": "https://dc.lft.to/lastmile_qr_scan"}, "bike_id": "cb597f60a93b64c91776d0be21bf4778", "is_reserved": 0}, {"lat": 38.92366616666666, "fusion_lon": 0.0, "lon": -77.0192305, "is_disabled": 0, "type": "electric_scooter", "name": "c0e6aed2754cfb734da9a9c335d99eff", "fusion_lat": 0.0, "rental_uris": {"android": "https://dc.lft.to/lastmile_qr_scan", "ios": "https://dc.lft.to/lastmile_qr_scan"}, "bike_id": "c0e6aed2754cfb734da9a9c335d99eff", "is_reserved": 0}, {"lat": 38.903893333333336, "fusion_lon": 0.0, "lon": -77.03000916666667, "is_disabled": 0, "type": "electric_scooter", "name": "c70d9c0c2990ce441d606253675c7803", "fusion_lat": 0.0, "rental_uris": {"android": "https://dc.lft.to/lastmile_qr_scan", "ios": "https://dc.lft.to/lastmile_qr_scan"}, "bike_id": "c70d9c0c2990ce441d606253675c7803", "is_reserved": 0}, {"lat": 38.89712816666667, "fusion_lon": 0.0, "lon": -77.0216705, "is_disabled": 0, "type": "electric_scooter", "name": "30b58e409887b9c82e775ab1b2876ce3", "fusion_lat": 0.0, "rental_uris": {"android": "https://dc.lft.to/lastmile_qr_scan", "ios": "https://dc.lft.to/lastmile_qr_scan"}, "bike_id": "30b58e409887b9c82e775ab1b2876ce3", "is_reserved": 0}, {"lat": 38.91240616666666, "fusion_lon": 0.0, "lon": -77.00920383333333, "is_disabled": 0, "type": "electric_scooter", "name": "5e6e2d5cd7db7f0d58a82b11436bcba6", "fusion_lat": 0.0, "rental_uris": {"android": "https://dc.lft.to/lastmile_qr_scan", "ios": "https://dc.lft.to/lastmile_qr_scan"}, "bike_id": "5e6e2d5cd7db7f0d58a82b11436bcba6", "is_reserved": 0}, {"lat": 38.918470166666665, "fusion_lon": 0.0, "lon": -76.96550083333334, "is_disabled": 0, "type": "electric_scooter", "name": "c939f99ba58c8f6793d7f1be3b0e3e72", "fusion_lat": 0.0, "rental_uris": {"android": "https://dc.lft.to/lastmile_qr_scan", "ios": "https://dc.lft.to/lastmile_qr_scan"}, "bike_id": "c939f99ba58c8f6793d7f1be3b0e3e72", "is_reserved": 0}, {"lat": 38.924841, "fusion_lon": 0.0, "lon": -77.02232566666666, "is_disabled": 0, "type": "electric_scooter", "name": "56fecb2f5d3f7d326d4694d0ab89495b", "fusion_lat": 0.0, "rental_uris": {"android": "https://dc.lft.to/lastmile_qr_scan", "ios": "https://dc.lft.to/lastmile_qr_scan"}, "bike_id": "56fecb2f5d3f7d326d4694d0ab89495b", "is_reserved": 0}, {"lat": 38.90498383333333, "fusion_lon": 0.0, "lon": -76.97446, "is_disabled": 0, "type": "electric_scooter", "name": "78ad48432ff3c0e026e8cbca121312e5", "fusion_lat": 0.0, "rental_uris": {"android": "https://dc.lft.to/lastmile_qr_scan", "ios": "https://dc.lft.to/lastmile_qr_scan"}, "bike_id": "78ad48432ff3c0e026e8cbca121312e5", "is_reserved": 0}, {"lat": 38.921733333333336, "fusion_lon": 0.0, "lon": -77.02681433333333, "is_disabled": 0, "type": "electric_scooter", "name": "e2d3bef11046ccaec41c25ddffa7ae4a", "fusion_lat": 0.0, "rental_uris": {"android": "https://dc.lft.to/lastmile_qr_scan", "ios": "https://dc.lft.to/lastmile_qr_scan"}, "bike_id": "e2d3bef11046ccaec41c25ddffa7ae4a", "is_reserved": 0}, {"lat": 38.91821566666667, "fusion_lon": 0.0, "lon": -77.034525, "is_disabled": 0, "type": "electric_scooter", "name": "79fb95029a10731f25a9d9b619de8536", "fusion_lat": 0.0, "rental_uris": {"android": "https://dc.lft.to/lastmile_qr_scan", "ios": "https://dc.lft.to/lastmile_qr_scan"}, "bike_id": "79fb95029a10731f25a9d9b619de8536", "is_reserved": 0}, {"lat": 38.908993, "fusion_lon": 0.0, "lon": -76.99621883333333, "is_disabled": 0, "type": "electric_scooter", "name": "4c2282f0efe798726e4b8ee5038af93b", "fusion_lat": 0.0, "rental_uris": {"android": "https://dc.lft.to/lastmile_qr_scan", "ios": "https://dc.lft.to/lastmile_qr_scan"}, "bike_id": "4c2282f0efe798726e4b8ee5038af93b", "is_reserved": 0}, {"lat": 38.896162333333336, "fusion_lon": 0.0, "lon": -76.90745416666667, "is_disabled": 0, "type": "electric_bike", "name": "1a8c5b51fae32ef307e59805f5edeb5e", "fusion_lat": 0.0, "rental_uris": {"android": "https://dc.lft.to/lastmile_qr_scan", "ios": "https://dc.lft.to/lastmile_qr_scan"}, "bike_id": "1a8c5b51fae32ef307e59805f5edeb5e", "is_reserved": 0}, {"lat": 38.8666315, "fusion_lon": 0.0, "lon": -76.98513616666666, "is_disabled": 0, "type": "electric_scooter", "name": "96000f5a0e114a2cfb001d7b8a5e4e97", "fusion_lat": 0.0, "rental_uris": {"android": "https://dc.lft.to/lastmile_qr_scan", "ios": "https://dc.lft.to/lastmile_qr_scan"}, "bike_id": "96000f5a0e114a2cfb001d7b8a5e4e97", "is_reserved": 0}, {"lat": 38.90241783333333, "fusion_lon": 0.0, "lon": -77.042831, "is_disabled": 0, "type": "electric_scooter", "name": "e82874e35eac7c793c0ea1fe34bc2535", "fusion_lat": 0.0, "rental_uris": {"android": "https://dc.lft.to/lastmile_qr_scan", "ios": "https://dc.lft.to/lastmile_qr_scan"}, "bike_id": "e82874e35eac7c793c0ea1fe34bc2535", "is_reserved": 0}, {"lat": 38.91908566666667, "fusion_lon": 0.0, "lon": -77.0311165, "is_disabled": 0, "type": "electric_scooter", "name": "bc390f6f9adb6bea35a1da9784b8e048", "fusion_lat": 0.0, "rental_uris": {"android": "https://dc.lft.to/lastmile_qr_scan", "ios": "https://dc.lft.to/lastmile_qr_scan"}, "bike_id": "bc390f6f9adb6bea35a1da9784b8e048", "is_reserved": 0}, {"lat": 38.897326166666666, "fusion_lon": 0.0, "lon": -77.05575833333333, "is_disabled": 0, "type": "electric_scooter", "name": "35951a71dc301ebb135fa970b278e546", "fusion_lat": 0.0, "rental_uris": {"android": "https://dc.lft.to/lastmile_qr_scan", "ios": "https://dc.lft.to/lastmile_qr_scan"}, "bike_id": "35951a71dc301ebb135fa970b278e546", "is_reserved": 0}, {"lat": 38.921308833333335, "fusion_lon": 0.0, "lon": -77.03665666666667, "is_disabled": 0, "type": "electric_scooter", "name": "1b4499804b0c3e44464841f14bc5c637", "fusion_lat": 0.0, "rental_uris": {"android": "https://dc.lft.to/lastmile_qr_scan", "ios": "https://dc.lft.to/lastmile_qr_scan"}, "bike_id": "1b4499804b0c3e44464841f14bc5c637", "is_reserved": 0}, {"lat": 38.89989683333334, "fusion_lon": 0.0, "lon": -77.04830116666666, "is_disabled": 0, "type": "electric_scooter", "name": "909ffe093362509b58dca6cd067e82c0", "fusion_lat": 0.0, "rental_uris": {"android": "https://dc.lft.to/lastmile_qr_scan", "ios": "https://dc.lft.to/lastmile_qr_scan"}, "bike_id": "909ffe093362509b58dca6cd067e82c0", "is_reserved": 0}, {"lat": 38.874612666666664, "fusion_lon": 0.0, "lon": -77.00558033333333, "is_disabled": 0, "type": "electric_scooter", "name": "79d36b6773568ffb6c5b10cbfd103748", "fusion_lat": 0.0, "rental_uris": {"android": "https://dc.lft.to/lastmile_qr_scan", "ios": "https://dc.lft.to/lastmile_qr_scan"}, "bike_id": "79d36b6773568ffb6c5b10cbfd103748", "is_reserved": 0}, {"lat": 38.881628166666665, "fusion_lon": 0.0, "lon": -76.929713, "is_disabled": 0, "type": "electric_scooter", "name": "c9a32a8b5ced813564f67ed0fe0a5eec", "fusion_lat": 0.0, "rental_uris": {"android": "https://dc.lft.to/lastmile_qr_scan", "ios": "https://dc.lft.to/lastmile_qr_scan"}, "bike_id": "c9a32a8b5ced813564f67ed0fe0a5eec", "is_reserved": 0}, {"lat": 38.888012, "fusion_lon": 0.0, "lon": -76.93356616666667, "is_disabled": 0, "type": "electric_scooter", "name": "7fe788be5639ff585aab1df973ae148e", "fusion_lat": 0.0, "rental_uris": {"android": "https://dc.lft.to/lastmile_qr_scan", "ios": "https://dc.lft.to/lastmile_qr_scan"}, "bike_id": "7fe788be5639ff585aab1df973ae148e", "is_reserved": 0}, {"lat": 38.91555533333333, "fusion_lon": 0.0, "lon": -77.02552933333334, "is_disabled": 0, "type": "electric_scooter", "name": "59f8e54627305bee137e56235bdb8bd4", "fusion_lat": 0.0, "rental_uris": {"android": "https://dc.lft.to/lastmile_qr_scan", "ios": "https://dc.lft.to/lastmile_qr_scan"}, "bike_id": "59f8e54627305bee137e56235bdb8bd4", "is_reserved": 0}, {"lat": 38.916991333333335, "fusion_lon": 0.0, "lon": -77.03717416666667, "is_disabled": 0, "type": "electric_scooter", "name": "5821b1f5bcdc950d0dd047011e9ca8a5", "fusion_lat": 0.0, "rental_uris": {"android": "https://dc.lft.to/lastmile_qr_scan", "ios": "https://dc.lft.to/lastmile_qr_scan"}, "bike_id": "5821b1f5bcdc950d0dd047011e9ca8a5", "is_reserved": 0}, {"lat": 38.92434433333333, "fusion_lon": 0.0, "lon": -77.05215016666666, "is_disabled": 0, "type": "electric_scooter", "name": "927abf6c57d6f4cd74a4b19e26597a70", "fusion_lat": 0.0, "rental_uris": {"android": "https://dc.lft.to/lastmile_qr_scan", "ios": "https://dc.lft.to/lastmile_qr_scan"}, "bike_id": "927abf6c57d6f4cd74a4b19e26597a70", "is_reserved": 0}, {"lat": 38.947139666666665, "fusion_lon": 0.0, "lon": -77.03351033333334, "is_disabled": 0, "type": "electric_scooter", "name": "6aacea8f05eb0d7f0cf71a9a85238030", "fusion_lat": 0.0, "rental_uris": {"android": "https://dc.lft.to/lastmile_qr_scan", "ios": "https://dc.lft.to/lastmile_qr_scan"}, "bike_id": "6aacea8f05eb0d7f0cf71a9a85238030", "is_reserved": 0}, {"lat": 38.835664333333334, "fusion_lon": 0.0, "lon": -76.99495983333334, "is_disabled": 0, "type": "electric_scooter", "name": "59bc8a707db6dedd9737b2587ad29939", "fusion_lat": 0.0, "rental_uris": {"android": "https://dc.lft.to/lastmile_qr_scan", "ios": "https://dc.lft.to/lastmile_qr_scan"}, "bike_id": "59bc8a707db6dedd9737b2587ad29939", "is_reserved": 0}, {"lat": 38.89582, "fusion_lon": 0.0, "lon": -76.98180266666667, "is_disabled": 0, "type": "electric_scooter", "name": "4a16c49efe1c12fcd441fa95a80bf23c", "fusion_lat": 0.0, "rental_uris": {"android": "https://dc.lft.to/lastmile_qr_scan", "ios": "https://dc.lft.to/lastmile_qr_scan"}, "bike_id": "4a16c49efe1c12fcd441fa95a80bf23c", "is_reserved": 0}, {"lat": 38.9229705, "fusion_lon": 0.0, "lon": -77.04148183333334, "is_disabled": 0, "type": "electric_scooter", "name": "e3fd1ebbdf4c93a855c114525ef3a772", "fusion_lat": 0.0, "rental_uris": {"android": "https://dc.lft.to/lastmile_qr_scan", "ios": "https://dc.lft.to/lastmile_qr_scan"}, "bike_id": "e3fd1ebbdf4c93a855c114525ef3a772", "is_reserved": 0}, {"lat": 38.906919, "fusion_lon": 0.0, "lon": -77.034798, "is_disabled": 0, "type": "electric_scooter", "name": "e6c1c9c8575618357162d00777a662f3", "fusion_lat": 0.0, "rental_uris": {"android": "https://dc.lft.to/lastmile_qr_scan", "ios": "https://dc.lft.to/lastmile_qr_scan"}, "bike_id": "e6c1c9c8575618357162d00777a662f3", "is_reserved": 0}, {"lat": 38.8995985, "fusion_lon": 0.0, "lon": -77.04215566666667, "is_disabled": 0, "type": "electric_scooter", "name": "05460a1863c43a13740526f2689cbcb1", "fusion_lat": 0.0, "rental_uris": {"android": "https://dc.lft.to/lastmile_qr_scan", "ios": "https://dc.lft.to/lastmile_qr_scan"}, "bike_id": "05460a1863c43a13740526f2689cbcb1", "is_reserved": 0}, {"lat": 38.93416216666667, "fusion_lon": 0.0, "lon": -77.04412733333334, "is_disabled": 0, "type": "electric_scooter", "name": "700d27245f8f767343892a3e7a98ac4f", "fusion_lat": 0.0, "rental_uris": {"android": "https://dc.lft.to/lastmile_qr_scan", "ios": "https://dc.lft.to/lastmile_qr_scan"}, "bike_id": "700d27245f8f767343892a3e7a98ac4f", "is_reserved": 0}, {"lat": 38.892301, "fusion_lon": 0.0, "lon": -77.03379133333334, "is_disabled": 0, "type": "electric_scooter", "name": "d6c2fd5104bf43990bc7be547a7c0d0d", "fusion_lat": 0.0, "rental_uris": {"android": "https://dc.lft.to/lastmile_qr_scan", "ios": "https://dc.lft.to/lastmile_qr_scan"}, "bike_id": "d6c2fd5104bf43990bc7be547a7c0d0d", "is_reserved": 0}, {"lat": 38.9001075, "fusion_lon": 0.0, "lon": -77.04401033333333, "is_disabled": 0, "type": "electric_scooter", "name": "326e522c8879d1dd5ca6a2d57f92af4f", "fusion_lat": 0.0, "rental_uris": {"android": "https://dc.lft.to/lastmile_qr_scan", "ios": "https://dc.lft.to/lastmile_qr_scan"}, "bike_id": "326e522c8879d1dd5ca6a2d57f92af4f", "is_reserved": 0}, {"lat": 38.829119166666665, "fusion_lon": 0.0, "lon": -76.99783783333334, "is_disabled": 0, "type": "electric_bike", "name": "508d4469c75f18c0527a1558de2dd0b0", "fusion_lat": 0.0, "rental_uris": {"android": "https://dc.lft.to/lastmile_qr_scan", "ios": "https://dc.lft.to/lastmile_qr_scan"}, "bike_id": "508d4469c75f18c0527a1558de2dd0b0", "is_reserved": 0}, {"lat": 38.94122, "fusion_lon": 0.0, "lon": -77.0155205, "is_disabled": 0, "type": "electric_scooter", "name": "4f7d4d0ea1079a66e8ed14a90acdba21", "fusion_lat": 0.0, "rental_uris": {"android": "https://dc.lft.to/lastmile_qr_scan", "ios": "https://dc.lft.to/lastmile_qr_scan"}, "bike_id": "4f7d4d0ea1079a66e8ed14a90acdba21", "is_reserved": 0}, {"lat": 38.903972333333336, "fusion_lon": 0.0, "lon": -77.06302466666666, "is_disabled": 0, "type": "electric_scooter", "name": "1f2b50e929cfcc7da7dc0adc8ed35513", "fusion_lat": 0.0, "rental_uris": {"android": "https://dc.lft.to/lastmile_qr_scan", "ios": "https://dc.lft.to/lastmile_qr_scan"}, "bike_id": "1f2b50e929cfcc7da7dc0adc8ed35513", "is_reserved": 0}, {"lat": 38.89745583333333, "fusion_lon": 0.0, "lon": -77.03159133333334, "is_disabled": 0, "type": "electric_bike", "name": "fb0921f06904a22e59ce8ea31cf5d29d", "fusion_lat": 0.0, "rental_uris": {"android": "https://dc.lft.to/lastmile_qr_scan", "ios": "https://dc.lft.to/lastmile_qr_scan"}, "bike_id": "fb0921f06904a22e59ce8ea31cf5d29d", "is_reserved": 0}, {"lat": 38.893703, "fusion_lon": 0.0, "lon": -76.94999466666667, "is_disabled": 0, "type": "electric_scooter", "name": "3f7f9f4c7749c6066c87f7181c75ccb8", "fusion_lat": 0.0, "rental_uris": {"android": "https://dc.lft.to/lastmile_qr_scan", "ios": "https://dc.lft.to/lastmile_qr_scan"}, "bike_id": "3f7f9f4c7749c6066c87f7181c75ccb8", "is_reserved": 0}, {"lat": 38.89907816666667, "fusion_lon": 0.0, "lon": -77.03232466666667, "is_disabled": 0, "type": "electric_scooter", "name": "78fb6d8a223a1ddf3ae5b8091354dc67", "fusion_lat": 0.0, "rental_uris": {"android": "https://dc.lft.to/lastmile_qr_scan", "ios": "https://dc.lft.to/lastmile_qr_scan"}, "bike_id": "78fb6d8a223a1ddf3ae5b8091354dc67", "is_reserved": 0}, {"lat": 38.89951633333333, "fusion_lon": 0.0, "lon": -77.0451075, "is_disabled": 0, "type": "electric_scooter", "name": "b9c44c8dd297c9d89f13d14c9489c3b2", "fusion_lat": 0.0, "rental_uris": {"android": "https://dc.lft.to/lastmile_qr_scan", "ios": "https://dc.lft.to/lastmile_qr_scan"}, "bike_id": "b9c44c8dd297c9d89f13d14c9489c3b2", "is_reserved": 0}, {"lat": 38.9342625, "fusion_lon": 0.0, "lon": -77.0284975, "is_disabled": 0, "type": "electric_scooter", "name": "2cdfaa5e9ac7e5ca97d3f4292653b3bd", "fusion_lat": 0.0, "rental_uris": {"android": "https://dc.lft.to/lastmile_qr_scan", "ios": "https://dc.lft.to/lastmile_qr_scan"}, "bike_id": "2cdfaa5e9ac7e5ca97d3f4292653b3bd", "is_reserved": 0}, {"lat": 38.921205666666665, "fusion_lon": 0.0, "lon": -77.0203015, "is_disabled": 0, "type": "electric_scooter", "name": "e8734cc87b535d5e2473e152a6f9e435", "fusion_lat": 0.0, "rental_uris": {"android": "https://dc.lft.to/lastmile_qr_scan", "ios": "https://dc.lft.to/lastmile_qr_scan"}, "bike_id": "e8734cc87b535d5e2473e152a6f9e435", "is_reserved": 0}, {"lat": 38.9041205, "fusion_lon": 0.0, "lon": -77.04325483333334, "is_disabled": 0, "type": "electric_scooter", "name": "f2d8b2c7a40bf9b5b1c1d54777a65edb", "fusion_lat": 0.0, "rental_uris": {"android": "https://dc.lft.to/lastmile_qr_scan", "ios": "https://dc.lft.to/lastmile_qr_scan"}, "bike_id": "f2d8b2c7a40bf9b5b1c1d54777a65edb", "is_reserved": 0}, {"lat": 38.90319483333333, "fusion_lon": 0.0, "lon": -77.0317505, "is_disabled": 0, "type": "electric_scooter", "name": "2418deacebe9f96dbc8d6d839245ec45", "fusion_lat": 0.0, "rental_uris": {"android": "https://dc.lft.to/lastmile_qr_scan", "ios": "https://dc.lft.to/lastmile_qr_scan"}, "bike_id": "2418deacebe9f96dbc8d6d839245ec45", "is_reserved": 0}, {"lat": 38.8764635, "fusion_lon": 0.0, "lon": -76.96505416666666, "is_disabled": 0, "type": "electric_scooter", "name": "4737661a8305df5c641b256ed2c8234b", "fusion_lat": 0.0, "rental_uris": {"android": "https://dc.lft.to/lastmile_qr_scan", "ios": "https://dc.lft.to/lastmile_qr_scan"}, "bike_id": "4737661a8305df5c641b256ed2c8234b", "is_reserved": 0}, {"lat": 38.95505383333333, "fusion_lon": 0.0, "lon": -76.99355533333333, "is_disabled": 0, "type": "electric_bike", "name": "3559364771332a326538ea5203f172a2", "fusion_lat": 0.0, "rental_uris": {"android": "https://dc.lft.to/lastmile_qr_scan", "ios": "https://dc.lft.to/lastmile_qr_scan"}, "bike_id": "3559364771332a326538ea5203f172a2", "is_reserved": 0}, {"lat": 38.916706166666664, "fusion_lon": 0.0, "lon": -77.0295375, "is_disabled": 0, "type": "electric_scooter", "name": "1bfa098ff4b8e81d5ea6e8e2d2786b38", "fusion_lat": 0.0, "rental_uris": {"android": "https://dc.lft.to/lastmile_qr_scan", "ios": "https://dc.lft.to/lastmile_qr_scan"}, "bike_id": "1bfa098ff4b8e81d5ea6e8e2d2786b38", "is_reserved": 0}, {"lat": 38.909712666666664, "fusion_lon": 0.0, "lon": -77.02079916666666, "is_disabled": 0, "type": "electric_scooter", "name": "f03d44028e7dec6ffe780ae5cbd3c682", "fusion_lat": 0.0, "rental_uris": {"android": "https://dc.lft.to/lastmile_qr_scan", "ios": "https://dc.lft.to/lastmile_qr_scan"}, "bike_id": "f03d44028e7dec6ffe780ae5cbd3c682", "is_reserved": 0}, {"lat": 38.892231833333334, "fusion_lon": 0.0, "lon": -77.043086, "is_disabled": 0, "type": "electric_scooter", "name": "0cac908ca02131a1394555daf16b5924", "fusion_lat": 0.0, "rental_uris": {"android": "https://dc.lft.to/lastmile_qr_scan", "ios": "https://dc.lft.to/lastmile_qr_scan"}, "bike_id": "0cac908ca02131a1394555daf16b5924", "is_reserved": 0}, {"lat": 38.92534666666667, "fusion_lon": 0.0, "lon": -77.038434, "is_disabled": 0, "type": "electric_scooter", "name": "081c1cbd1031e4b96d106a560324a715", "fusion_lat": 0.0, "rental_uris": {"android": "https://dc.lft.to/lastmile_qr_scan", "ios": "https://dc.lft.to/lastmile_qr_scan"}, "bike_id": "081c1cbd1031e4b96d106a560324a715", "is_reserved": 0}, {"lat": 38.924885333333336, "fusion_lon": 0.0, "lon": -77.02699, "is_disabled": 0, "type": "electric_scooter", "name": "ef4a82ad59abd14378bd193bd15281d1", "fusion_lat": 0.0, "rental_uris": {"android": "https://dc.lft.to/lastmile_qr_scan", "ios": "https://dc.lft.to/lastmile_qr_scan"}, "bike_id": "ef4a82ad59abd14378bd193bd15281d1", "is_reserved": 0}, {"lat": 38.92404716666667, "fusion_lon": 0.0, "lon": -77.02569583333333, "is_disabled": 0, "type": "electric_scooter", "name": "1d070cca0639c9348b6c712f808fe185", "fusion_lat": 0.0, "rental_uris": {"android": "https://dc.lft.to/lastmile_qr_scan", "ios": "https://dc.lft.to/lastmile_qr_scan"}, "bike_id": "1d070cca0639c9348b6c712f808fe185", "is_reserved": 0}, {"lat": 38.88743433333333, "fusion_lon": 0.0, "lon": -77.01723616666666, "is_disabled": 0, "type": "electric_scooter", "name": "e1d38ed7ac20649bdb554e487d2cb903", "fusion_lat": 0.0, "rental_uris": {"android": "https://dc.lft.to/lastmile_qr_scan", "ios": "https://dc.lft.to/lastmile_qr_scan"}, "bike_id": "e1d38ed7ac20649bdb554e487d2cb903", "is_reserved": 0}, {"lat": 38.92072116666667, "fusion_lon": 0.0, "lon": -77.02836066666667, "is_disabled": 0, "type": "electric_scooter", "name": "04ef3e9a5b1a863e13e3e5cf2419f706", "fusion_lat": 0.0, "rental_uris": {"android": "https://dc.lft.to/lastmile_qr_scan", "ios": "https://dc.lft.to/lastmile_qr_scan"}, "bike_id": "04ef3e9a5b1a863e13e3e5cf2419f706", "is_reserved": 0}, {"lat": 38.89747283333333, "fusion_lon": 0.0, "lon": -77.01360766666667, "is_disabled": 0, "type": "electric_scooter", "name": "c3a06ffb33d272f11e9e872592752f0d", "fusion_lat": 0.0, "rental_uris": {"android": "https://dc.lft.to/lastmile_qr_scan", "ios": "https://dc.lft.to/lastmile_qr_scan"}, "bike_id": "c3a06ffb33d272f11e9e872592752f0d", "is_reserved": 0}, {"lat": 38.94205733333333, "fusion_lon": 0.0, "lon": -77.02515516666666, "is_disabled": 0, "type": "electric_scooter", "name": "f64054139a666b39760762e4ed8452ed", "fusion_lat": 0.0, "rental_uris": {"android": "https://dc.lft.to/lastmile_qr_scan", "ios": "https://dc.lft.to/lastmile_qr_scan"}, "bike_id": "f64054139a666b39760762e4ed8452ed", "is_reserved": 0}, {"lat": 38.914458333333336, "fusion_lon": 0.0, "lon": -77.02041733333333, "is_disabled": 0, "type": "electric_scooter", "name": "b49a3889822d9bf3a002d32e7c12587d", "fusion_lat": 0.0, "rental_uris": {"android": "https://dc.lft.to/lastmile_qr_scan", "ios": "https://dc.lft.to/lastmile_qr_scan"}, "bike_id": "b49a3889822d9bf3a002d32e7c12587d", "is_reserved": 0}, {"lat": 38.915563166666665, "fusion_lon": 0.0, "lon": -77.041868, "is_disabled": 0, "type": "electric_scooter", "name": "ad1d4b8bcc0bbf1ce3521ae9b2cdf975", "fusion_lat": 0.0, "rental_uris": {"android": "https://dc.lft.to/lastmile_qr_scan", "ios": "https://dc.lft.to/lastmile_qr_scan"}, "bike_id": "ad1d4b8bcc0bbf1ce3521ae9b2cdf975", "is_reserved": 0}, {"lat": 38.91657883333333, "fusion_lon": 0.0, "lon": -77.04394266666667, "is_disabled": 0, "type": "electric_scooter", "name": "881febdf708717817407d190a0b7a334", "fusion_lat": 0.0, "rental_uris": {"android": "https://dc.lft.to/lastmile_qr_scan", "ios": "https://dc.lft.to/lastmile_qr_scan"}, "bike_id": "881febdf708717817407d190a0b7a334", "is_reserved": 0}, {"lat": 39.042329, "fusion_lon": 0.0, "lon": -77.030753, "is_disabled": 0, "type": "electric_bike", "name": "9d81da3584ce4fbd389f348f752b121c", "fusion_lat": 0.0, "rental_uris": {"android": "https://dc.lft.to/lastmile_qr_scan", "ios": "https://dc.lft.to/lastmile_qr_scan"}, "bike_id": "9d81da3584ce4fbd389f348f752b121c", "is_reserved": 0}, {"lat": 38.9583775, "fusion_lon": 0.0, "lon": -77.01514483333334, "is_disabled": 0, "type": "electric_scooter", "name": "2c135013bbb37c64ed1cdcf8f5385742", "fusion_lat": 0.0, "rental_uris": {"android": "https://dc.lft.to/lastmile_qr_scan", "ios": "https://dc.lft.to/lastmile_qr_scan"}, "bike_id": "2c135013bbb37c64ed1cdcf8f5385742", "is_reserved": 0}, {"lat": 38.928797333333335, "fusion_lon": 0.0, "lon": -77.03259133333333, "is_disabled": 0, "type": "electric_scooter", "name": "8b94c593c1223a040398c419a643a742", "fusion_lat": 0.0, "rental_uris": {"android": "https://dc.lft.to/lastmile_qr_scan", "ios": "https://dc.lft.to/lastmile_qr_scan"}, "bike_id": "8b94c593c1223a040398c419a643a742", "is_reserved": 0}, {"lat": 38.8669995, "fusion_lon": 0.0, "lon": -76.98592466666666, "is_disabled": 0, "type": "electric_scooter", "name": "6179692b282d8b45b22d62b1980965c5", "fusion_lat": 0.0, "rental_uris": {"android": "https://dc.lft.to/lastmile_qr_scan", "ios": "https://dc.lft.to/lastmile_qr_scan"}, "bike_id": "6179692b282d8b45b22d62b1980965c5", "is_reserved": 0}, {"lat": 38.91859316666667, "fusion_lon": 0.0, "lon": -77.02456383333333, "is_disabled": 0, "type": "electric_scooter", "name": "3b3eae4475cd148b1bf2b83770d56b71", "fusion_lat": 0.0, "rental_uris": {"android": "https://dc.lft.to/lastmile_qr_scan", "ios": "https://dc.lft.to/lastmile_qr_scan"}, "bike_id": "3b3eae4475cd148b1bf2b83770d56b71", "is_reserved": 0}, {"lat": 38.9001225, "fusion_lon": 0.0, "lon": -76.93029816666666, "is_disabled": 0, "type": "electric_scooter", "name": "9f2f576e5eafe98d7ca50e3d7ff96968", "fusion_lat": 0.0, "rental_uris": {"android": "https://dc.lft.to/lastmile_qr_scan", "ios": "https://dc.lft.to/lastmile_qr_scan"}, "bike_id": "9f2f576e5eafe98d7ca50e3d7ff96968", "is_reserved": 0}, {"lat": 38.892386333333334, "fusion_lon": 0.0, "lon": -77.01321216666666, "is_disabled": 0, "type": "electric_scooter", "name": "5afa7082dbe36cd3b273c6b421e77556", "fusion_lat": 0.0, "rental_uris": {"android": "https://dc.lft.to/lastmile_qr_scan", "ios": "https://dc.lft.to/lastmile_qr_scan"}, "bike_id": "5afa7082dbe36cd3b273c6b421e77556", "is_reserved": 0}, {"lat": 38.91575916666667, "fusion_lon": 0.0, "lon": -77.0318725, "is_disabled": 0, "type": "electric_scooter", "name": "7f5ba9693d2400557742316a7044e584", "fusion_lat": 0.0, "rental_uris": {"android": "https://dc.lft.to/lastmile_qr_scan", "ios": "https://dc.lft.to/lastmile_qr_scan"}, "bike_id": "7f5ba9693d2400557742316a7044e584", "is_reserved": 0}, {"lat": 38.924437166666664, "fusion_lon": 0.0, "lon": -77.03402783333334, "is_disabled": 0, "type": "electric_scooter", "name": "024d9de3882c1cb005b0b4776772c9f3", "fusion_lat": 0.0, "rental_uris": {"android": "https://dc.lft.to/lastmile_qr_scan", "ios": "https://dc.lft.to/lastmile_qr_scan"}, "bike_id": "024d9de3882c1cb005b0b4776772c9f3", "is_reserved": 0}, {"lat": 38.9181835, "fusion_lon": 0.0, "lon": -77.03451866666667, "is_disabled": 0, "type": "electric_scooter", "name": "d993dd76c9c147f0b319c6764998e321", "fusion_lat": 0.0, "rental_uris": {"android": "https://dc.lft.to/lastmile_qr_scan", "ios": "https://dc.lft.to/lastmile_qr_scan"}, "bike_id": "d993dd76c9c147f0b319c6764998e321", "is_reserved": 0}, {"lat": 38.91835733333333, "fusion_lon": 0.0, "lon": -77.03530116666667, "is_disabled": 0, "type": "electric_scooter", "name": "7c354eaaa886027560e59e75e6fc09db", "fusion_lat": 0.0, "rental_uris": {"android": "https://dc.lft.to/lastmile_qr_scan", "ios": "https://dc.lft.to/lastmile_qr_scan"}, "bike_id": "7c354eaaa886027560e59e75e6fc09db", "is_reserved": 0}, {"lat": 38.89234366666667, "fusion_lon": 0.0, "lon": -77.02385283333334, "is_disabled": 0, "type": "electric_scooter", "name": "3c3b06fb47cfdcf0c84169742e4e87e5", "fusion_lat": 0.0, "rental_uris": {"android": "https://dc.lft.to/lastmile_qr_scan", "ios": "https://dc.lft.to/lastmile_qr_scan"}, "bike_id": "3c3b06fb47cfdcf0c84169742e4e87e5", "is_reserved": 0}, {"lat": 38.93409233333333, "fusion_lon": 0.0, "lon": -77.07253433333334, "is_disabled": 0, "type": "electric_scooter", "name": "8f2e5091c4f720ed26ab39fe97094a97", "fusion_lat": 0.0, "rental_uris": {"android": "https://dc.lft.to/lastmile_qr_scan", "ios": "https://dc.lft.to/lastmile_qr_scan"}, "bike_id": "8f2e5091c4f720ed26ab39fe97094a97", "is_reserved": 0}, {"lat": 38.907358333333335, "fusion_lon": 0.0, "lon": -77.0453555, "is_disabled": 0, "type": "electric_scooter", "name": "6d6192f2479a0b163f60bcbb5a1a412d", "fusion_lat": 0.0, "rental_uris": {"android": "https://dc.lft.to/lastmile_qr_scan", "ios": "https://dc.lft.to/lastmile_qr_scan"}, "bike_id": "6d6192f2479a0b163f60bcbb5a1a412d", "is_reserved": 0}, {"lat": 38.9253865, "fusion_lon": 0.0, "lon": -76.9722295, "is_disabled": 0, "type": "electric_scooter", "name": "25555fbafe6e28d4b090fc0f9c71ecd1", "fusion_lat": 0.0, "rental_uris": {"android": "https://dc.lft.to/lastmile_qr_scan", "ios": "https://dc.lft.to/lastmile_qr_scan"}, "bike_id": "25555fbafe6e28d4b090fc0f9c71ecd1", "is_reserved": 0}, {"lat": 38.90988216666667, "fusion_lon": 0.0, "lon": -77.02187183333334, "is_disabled": 0, "type": "electric_scooter", "name": "7c6db64cf7777b376b8db23e30a8e624", "fusion_lat": 0.0, "rental_uris": {"android": "https://dc.lft.to/lastmile_qr_scan", "ios": "https://dc.lft.to/lastmile_qr_scan"}, "bike_id": "7c6db64cf7777b376b8db23e30a8e624", "is_reserved": 0}, {"lat": 38.90411483333333, "fusion_lon": 0.0, "lon": -76.97336133333333, "is_disabled": 0, "type": "electric_scooter", "name": "56f1bbe100a942c841e623489ac7eeaf", "fusion_lat": 0.0, "rental_uris": {"android": "https://dc.lft.to/lastmile_qr_scan", "ios": "https://dc.lft.to/lastmile_qr_scan"}, "bike_id": "56f1bbe100a942c841e623489ac7eeaf", "is_reserved": 0}, {"lat": 38.89621283333334, "fusion_lon": 0.0, "lon": -77.021906, "is_disabled": 0, "type": "electric_scooter", "name": "7bbce20cf501fd8db519f4c16273c172", "fusion_lat": 0.0, "rental_uris": {"android": "https://dc.lft.to/lastmile_qr_scan", "ios": "https://dc.lft.to/lastmile_qr_scan"}, "bike_id": "7bbce20cf501fd8db519f4c16273c172", "is_reserved": 0}, {"lat": 38.87681516666667, "fusion_lon": 0.0, "lon": -77.004192, "is_disabled": 0, "type": "electric_scooter", "name": "3fea74af87ff9efa5f73a2dd0e087ae8", "fusion_lat": 0.0, "rental_uris": {"android": "https://dc.lft.to/lastmile_qr_scan", "ios": "https://dc.lft.to/lastmile_qr_scan"}, "bike_id": "3fea74af87ff9efa5f73a2dd0e087ae8", "is_reserved": 0}, {"lat": 38.91251283333333, "fusion_lon": 0.0, "lon": -77.03197666666667, "is_disabled": 0, "type": "electric_scooter", "name": "cd1244f2f185549ccfa1032cd5a41ae6", "fusion_lat": 0.0, "rental_uris": {"android": "https://dc.lft.to/lastmile_qr_scan", "ios": "https://dc.lft.to/lastmile_qr_scan"}, "bike_id": "cd1244f2f185549ccfa1032cd5a41ae6", "is_reserved": 0}, {"lat": 38.90211433333333, "fusion_lon": 0.0, "lon": -77.0482185, "is_disabled": 0, "type": "electric_scooter", "name": "12b4cbd08240dac34c0b6ccd681e0b1e", "fusion_lat": 0.0, "rental_uris": {"android": "https://dc.lft.to/lastmile_qr_scan", "ios": "https://dc.lft.to/lastmile_qr_scan"}, "bike_id": "12b4cbd08240dac34c0b6ccd681e0b1e", "is_reserved": 0}, {"lat": 38.93370083333333, "fusion_lon": 0.0, "lon": -77.05741616666667, "is_disabled": 0, "type": "electric_scooter", "name": "7f8cc8aa6131d30deba76d59af1e1442", "fusion_lat": 0.0, "rental_uris": {"android": "https://dc.lft.to/lastmile_qr_scan", "ios": "https://dc.lft.to/lastmile_qr_scan"}, "bike_id": "7f8cc8aa6131d30deba76d59af1e1442", "is_reserved": 0}, {"lat": 38.917146833333334, "fusion_lon": 0.0, "lon": -77.03661866666667, "is_disabled": 0, "type": "electric_scooter", "name": "991f060e815a9ef9f4032d75154b8d52", "fusion_lat": 0.0, "rental_uris": {"android": "https://dc.lft.to/lastmile_qr_scan", "ios": "https://dc.lft.to/lastmile_qr_scan"}, "bike_id": "991f060e815a9ef9f4032d75154b8d52", "is_reserved": 0}, {"lat": 38.8996415, "fusion_lon": 0.0, "lon": -77.04577916666666, "is_disabled": 0, "type": "electric_scooter", "name": "abef2306ab6bfe3740069b5a9428599f", "fusion_lat": 0.0, "rental_uris": {"android": "https://dc.lft.to/lastmile_qr_scan", "ios": "https://dc.lft.to/lastmile_qr_scan"}, "bike_id": "abef2306ab6bfe3740069b5a9428599f", "is_reserved": 0}, {"lat": 38.88560316666667, "fusion_lon": 0.0, "lon": -76.99793883333334, "is_disabled": 0, "type": "electric_scooter", "name": "a3f442baf47f6bb2e44e70f108435b1b", "fusion_lat": 0.0, "rental_uris": {"android": "https://dc.lft.to/lastmile_qr_scan", "ios": "https://dc.lft.to/lastmile_qr_scan"}, "bike_id": "a3f442baf47f6bb2e44e70f108435b1b", "is_reserved": 0}, {"lat": 38.912956666666666, "fusion_lon": 0.0, "lon": -77.04551966666666, "is_disabled": 0, "type": "electric_scooter", "name": "34555dcc32be12a71f4417c269871fa2", "fusion_lat": 0.0, "rental_uris": {"android": "https://dc.lft.to/lastmile_qr_scan", "ios": "https://dc.lft.to/lastmile_qr_scan"}, "bike_id": "34555dcc32be12a71f4417c269871fa2", "is_reserved": 0}, {"lat": 38.910428833333334, "fusion_lon": 0.0, "lon": -77.02815066666666, "is_disabled": 0, "type": "electric_scooter", "name": "786f6d68960a80013209f04b264031d0", "fusion_lat": 0.0, "rental_uris": {"android": "https://dc.lft.to/lastmile_qr_scan", "ios": "https://dc.lft.to/lastmile_qr_scan"}, "bike_id": "786f6d68960a80013209f04b264031d0", "is_reserved": 0}, {"lat": 38.9175655, "fusion_lon": 0.0, "lon": -77.03202083333333, "is_disabled": 0, "type": "electric_scooter", "name": "6e9272059d3b26443a2a294e2dbd1779", "fusion_lat": 0.0, "rental_uris": {"android": "https://dc.lft.to/lastmile_qr_scan", "ios": "https://dc.lft.to/lastmile_qr_scan"}, "bike_id": "6e9272059d3b26443a2a294e2dbd1779", "is_reserved": 0}, {"lat": 38.85375116666667, "fusion_lon": 0.0, "lon": -77.12467333333333, "is_disabled": 0, "type": "electric_bike", "name": "d5edacf6546d62076168cf4dbff646bb", "fusion_lat": 0.0, "rental_uris": {"android": "https://dc.lft.to/lastmile_qr_scan", "ios": "https://dc.lft.to/lastmile_qr_scan"}, "bike_id": "d5edacf6546d62076168cf4dbff646bb", "is_reserved": 0}, {"lat": 38.92452516666667, "fusion_lon": 0.0, "lon": -77.00212, "is_disabled": 0, "type": "electric_scooter", "name": "04bf1879b8bc1cad3ed96b346b118cac", "fusion_lat": 0.0, "rental_uris": {"android": "https://dc.lft.to/lastmile_qr_scan", "ios": "https://dc.lft.to/lastmile_qr_scan"}, "bike_id": "04bf1879b8bc1cad3ed96b346b118cac", "is_reserved": 0}, {"lat": 38.91963, "fusion_lon": 0.0, "lon": -77.03201083333333, "is_disabled": 0, "type": "electric_scooter", "name": "01e4df138b2602963a88501bca66cc4f", "fusion_lat": 0.0, "rental_uris": {"android": "https://dc.lft.to/lastmile_qr_scan", "ios": "https://dc.lft.to/lastmile_qr_scan"}, "bike_id": "01e4df138b2602963a88501bca66cc4f", "is_reserved": 0}, {"lat": 38.904545, "fusion_lon": 0.0, "lon": -77.03561466666666, "is_disabled": 0, "type": "electric_scooter", "name": "6117b91f33f1c238fb37cb9a00e1e5e1", "fusion_lat": 0.0, "rental_uris": {"android": "https://dc.lft.to/lastmile_qr_scan", "ios": "https://dc.lft.to/lastmile_qr_scan"}, "bike_id": "6117b91f33f1c238fb37cb9a00e1e5e1", "is_reserved": 0}, {"lat": 38.92698766666667, "fusion_lon": 0.0, "lon": -77.02061883333333, "is_disabled": 0, "type": "electric_scooter", "name": "1519f7d50f0b73eaea587775174ec10d", "fusion_lat": 0.0, "rental_uris": {"android": "https://dc.lft.to/lastmile_qr_scan", "ios": "https://dc.lft.to/lastmile_qr_scan"}, "bike_id": "1519f7d50f0b73eaea587775174ec10d", "is_reserved": 0}, {"lat": 38.9148875, "fusion_lon": 0.0, "lon": -77.0415325, "is_disabled": 0, "type": "electric_scooter", "name": "3080bf6574fe8f99f05c244f77f4f9e3", "fusion_lat": 0.0, "rental_uris": {"android": "https://dc.lft.to/lastmile_qr_scan", "ios": "https://dc.lft.to/lastmile_qr_scan"}, "bike_id": "3080bf6574fe8f99f05c244f77f4f9e3", "is_reserved": 0}, {"lat": 38.8924045, "fusion_lon": 0.0, "lon": -77.041623, "is_disabled": 0, "type": "electric_scooter", "name": "9559f4622cadc0c4eadbfb99e7b9f8e9", "fusion_lat": 0.0, "rental_uris": {"android": "https://dc.lft.to/lastmile_qr_scan", "ios": "https://dc.lft.to/lastmile_qr_scan"}, "bike_id": "9559f4622cadc0c4eadbfb99e7b9f8e9", "is_reserved": 0}, {"lat": 38.9215215, "fusion_lon": 0.0, "lon": -77.03880516666666, "is_disabled": 0, "type": "electric_scooter", "name": "7e960c1f2952d59af25dafddeaa9a848", "fusion_lat": 0.0, "rental_uris": {"android": "https://dc.lft.to/lastmile_qr_scan", "ios": "https://dc.lft.to/lastmile_qr_scan"}, "bike_id": "7e960c1f2952d59af25dafddeaa9a848", "is_reserved": 0}, {"lat": 38.950232166666666, "fusion_lon": 0.0, "lon": -77.06726916666666, "is_disabled": 0, "type": "electric_scooter", "name": "b08970f8305fc7e73bba287bc7866ed7", "fusion_lat": 0.0, "rental_uris": {"android": "https://dc.lft.to/lastmile_qr_scan", "ios": "https://dc.lft.to/lastmile_qr_scan"}, "bike_id": "b08970f8305fc7e73bba287bc7866ed7", "is_reserved": 0}, {"lat": 38.872999666666665, "fusion_lon": 0.0, "lon": -77.139269, "is_disabled": 0, "type": "electric_bike", "name": "6f0588c03bf0089a607676baa1f5c731", "fusion_lat": 0.0, "rental_uris": {"android": "https://dc.lft.to/lastmile_qr_scan", "ios": "https://dc.lft.to/lastmile_qr_scan"}, "bike_id": "6f0588c03bf0089a607676baa1f5c731", "is_reserved": 0}, {"lat": 38.925923166666664, "fusion_lon": 0.0, "lon": -77.03642766666667, "is_disabled": 0, "type": "electric_scooter", "name": "1896d66bc6816291b5d7f6d2e183dc7e", "fusion_lat": 0.0, "rental_uris": {"android": "https://dc.lft.to/lastmile_qr_scan", "ios": "https://dc.lft.to/lastmile_qr_scan"}, "bike_id": "1896d66bc6816291b5d7f6d2e183dc7e", "is_reserved": 0}, {"lat": 38.898778166666666, "fusion_lon": 0.0, "lon": -77.03956916666667, "is_disabled": 0, "type": "electric_scooter", "name": "1b559f8b62d494b81a00914f4fd6dafa", "fusion_lat": 0.0, "rental_uris": {"android": "https://dc.lft.to/lastmile_qr_scan", "ios": "https://dc.lft.to/lastmile_qr_scan"}, "bike_id": "1b559f8b62d494b81a00914f4fd6dafa", "is_reserved": 0}, {"lat": 38.93183483333333, "fusion_lon": 0.0, "lon": -77.03659683333333, "is_disabled": 0, "type": "electric_scooter", "name": "ae2974cd4221de6868956816513db1a2", "fusion_lat": 0.0, "rental_uris": {"android": "https://dc.lft.to/lastmile_qr_scan", "ios": "https://dc.lft.to/lastmile_qr_scan"}, "bike_id": "ae2974cd4221de6868956816513db1a2", "is_reserved": 0}, {"lat": 38.8950055, "fusion_lon": 0.0, "lon": -77.01089916666666, "is_disabled": 0, "type": "electric_scooter", "name": "06c83cffcc0eaceb07258b4847483598", "fusion_lat": 0.0, "rental_uris": {"android": "https://dc.lft.to/lastmile_qr_scan", "ios": "https://dc.lft.to/lastmile_qr_scan"}, "bike_id": "06c83cffcc0eaceb07258b4847483598", "is_reserved": 0}, {"lat": 38.837877166666665, "fusion_lon": 0.0, "lon": -76.99762333333334, "is_disabled": 0, "type": "electric_bike", "name": "4acf1db003cc39ff50b56e5128a248c0", "fusion_lat": 0.0, "rental_uris": {"android": "https://dc.lft.to/lastmile_qr_scan", "ios": "https://dc.lft.to/lastmile_qr_scan"}, "bike_id": "4acf1db003cc39ff50b56e5128a248c0", "is_reserved": 0}, {"lat": 38.83496133333333, "fusion_lon": 0.0, "lon": -77.00679983333333, "is_disabled": 0, "type": "electric_scooter", "name": "6eed99fe91d613412b8371a0bc3c2aa3", "fusion_lat": 0.0, "rental_uris": {"android": "https://dc.lft.to/lastmile_qr_scan", "ios": "https://dc.lft.to/lastmile_qr_scan"}, "bike_id": "6eed99fe91d613412b8371a0bc3c2aa3", "is_reserved": 0}, {"lat": 38.88147083333333, "fusion_lon": 0.0, "lon": -76.99486166666667, "is_disabled": 0, "type": "electric_scooter", "name": "0fd1f07e571b244ee7d5ebe1e172b276", "fusion_lat": 0.0, "rental_uris": {"android": "https://dc.lft.to/lastmile_qr_scan", "ios": "https://dc.lft.to/lastmile_qr_scan"}, "bike_id": "0fd1f07e571b244ee7d5ebe1e172b276", "is_reserved": 0}, {"lat": 38.919580833333335, "fusion_lon": 0.0, "lon": -77.01782716666666, "is_disabled": 0, "type": "electric_scooter", "name": "df99b1ed97ac1836c4fdaf5b5d143f6f", "fusion_lat": 0.0, "rental_uris": {"android": "https://dc.lft.to/lastmile_qr_scan", "ios": "https://dc.lft.to/lastmile_qr_scan"}, "bike_id": "df99b1ed97ac1836c4fdaf5b5d143f6f", "is_reserved": 0}, {"lat": 38.928918333333336, "fusion_lon": 0.0, "lon": -77.03234816666667, "is_disabled": 0, "type": "electric_scooter", "name": "7419a1282ae28ec1d6d8dad67b336bf3", "fusion_lat": 0.0, "rental_uris": {"android": "https://dc.lft.to/lastmile_qr_scan", "ios": "https://dc.lft.to/lastmile_qr_scan"}, "bike_id": "7419a1282ae28ec1d6d8dad67b336bf3", "is_reserved": 0}, {"lat": 38.89504183333333, "fusion_lon": 0.0, "lon": -76.9347925, "is_disabled": 0, "type": "electric_scooter", "name": "f0ce993eff255a0627df2ab31019e00d", "fusion_lat": 0.0, "rental_uris": {"android": "https://dc.lft.to/lastmile_qr_scan", "ios": "https://dc.lft.to/lastmile_qr_scan"}, "bike_id": "f0ce993eff255a0627df2ab31019e00d", "is_reserved": 0}, {"lat": 38.900923, "fusion_lon": 0.0, "lon": -77.05738433333333, "is_disabled": 0, "type": "electric_scooter", "name": "469eaff063a9c13ee2819c10261cf8a1", "fusion_lat": 0.0, "rental_uris": {"android": "https://dc.lft.to/lastmile_qr_scan", "ios": "https://dc.lft.to/lastmile_qr_scan"}, "bike_id": "469eaff063a9c13ee2819c10261cf8a1", "is_reserved": 0}, {"lat": 38.89222633333333, "fusion_lon": 0.0, "lon": -77.02784733333333, "is_disabled": 0, "type": "electric_scooter", "name": "f39153cb7acdaa4de670506eaf43acd7", "fusion_lat": 0.0, "rental_uris": {"android": "https://dc.lft.to/lastmile_qr_scan", "ios": "https://dc.lft.to/lastmile_qr_scan"}, "bike_id": "f39153cb7acdaa4de670506eaf43acd7", "is_reserved": 0}, {"lat": 38.9262405, "fusion_lon": 0.0, "lon": -77.0432175, "is_disabled": 0, "type": "electric_scooter", "name": "5e143df636d027c149d5fd479f188b53", "fusion_lat": 0.0, "rental_uris": {"android": "https://dc.lft.to/lastmile_qr_scan", "ios": "https://dc.lft.to/lastmile_qr_scan"}, "bike_id": "5e143df636d027c149d5fd479f188b53", "is_reserved": 0}, {"lat": 38.9086585, "fusion_lon": 0.0, "lon": -77.08593716666667, "is_disabled": 0, "type": "electric_scooter", "name": "87dec78bf118a5f598d04dfe0a6b40e2", "fusion_lat": 0.0, "rental_uris": {"android": "https://dc.lft.to/lastmile_qr_scan", "ios": "https://dc.lft.to/lastmile_qr_scan"}, "bike_id": "87dec78bf118a5f598d04dfe0a6b40e2", "is_reserved": 0}, {"lat": 38.931801, "fusion_lon": 0.0, "lon": -77.02353183333334, "is_disabled": 0, "type": "electric_scooter", "name": "2f81c8ab7b0d75688a7f13d9f4518f95", "fusion_lat": 0.0, "rental_uris": {"android": "https://dc.lft.to/lastmile_qr_scan", "ios": "https://dc.lft.to/lastmile_qr_scan"}, "bike_id": "2f81c8ab7b0d75688a7f13d9f4518f95", "is_reserved": 0}, {"lat": 38.924894333333334, "fusion_lon": 0.0, "lon": -77.026995, "is_disabled": 0, "type": "electric_scooter", "name": "fe88dd07ae1df26071122c17553f575a", "fusion_lat": 0.0, "rental_uris": {"android": "https://dc.lft.to/lastmile_qr_scan", "ios": "https://dc.lft.to/lastmile_qr_scan"}, "bike_id": "fe88dd07ae1df26071122c17553f575a", "is_reserved": 0}, {"lat": 38.963314, "fusion_lon": 0.0, "lon": -76.97365183333334, "is_disabled": 0, "type": "electric_bike", "name": "f71cb0d9396ba95acda54fd69a5cad60", "fusion_lat": 0.0, "rental_uris": {"android": "https://dc.lft.to/lastmile_qr_scan", "ios": "https://dc.lft.to/lastmile_qr_scan"}, "bike_id": "f71cb0d9396ba95acda54fd69a5cad60", "is_reserved": 0}, {"lat": 38.8626375, "fusion_lon": 0.0, "lon": -76.98355616666667, "is_disabled": 0, "type": "electric_bike", "name": "1c4ad50263f02c0386036025011396fd", "fusion_lat": 0.0, "rental_uris": {"android": "https://dc.lft.to/lastmile_qr_scan", "ios": "https://dc.lft.to/lastmile_qr_scan"}, "bike_id": "1c4ad50263f02c0386036025011396fd", "is_reserved": 0}, {"lat": 38.91823816666667, "fusion_lon": 0.0, "lon": -77.02420533333333, "is_disabled": 0, "type": "electric_scooter", "name": "a7c5b7c02b7095c146791d27350747ae", "fusion_lat": 0.0, "rental_uris": {"android": "https://dc.lft.to/lastmile_qr_scan", "ios": "https://dc.lft.to/lastmile_qr_scan"}, "bike_id": "a7c5b7c02b7095c146791d27350747ae", "is_reserved": 0}, {"lat": 38.92880016666667, "fusion_lon": 0.0, "lon": -77.03652966666667, "is_disabled": 0, "type": "electric_scooter", "name": "0ea4a407c4fb1456a5643e2f47e78a94", "fusion_lat": 0.0, "rental_uris": {"android": "https://dc.lft.to/lastmile_qr_scan", "ios": "https://dc.lft.to/lastmile_qr_scan"}, "bike_id": "0ea4a407c4fb1456a5643e2f47e78a94", "is_reserved": 0}, {"lat": 38.92442666666667, "fusion_lon": 0.0, "lon": -77.0215005, "is_disabled": 0, "type": "electric_scooter", "name": "dc66383882ae09054d0205667d4ed594", "fusion_lat": 0.0, "rental_uris": {"android": "https://dc.lft.to/lastmile_qr_scan", "ios": "https://dc.lft.to/lastmile_qr_scan"}, "bike_id": "dc66383882ae09054d0205667d4ed594", "is_reserved": 0}, {"lat": 38.9162735, "fusion_lon": 0.0, "lon": -77.03157783333333, "is_disabled": 0, "type": "electric_scooter", "name": "daa437dbb16418e26a6800400a848506", "fusion_lat": 0.0, "rental_uris": {"android": "https://dc.lft.to/lastmile_qr_scan", "ios": "https://dc.lft.to/lastmile_qr_scan"}, "bike_id": "daa437dbb16418e26a6800400a848506", "is_reserved": 0}, {"lat": 38.9242845, "fusion_lon": 0.0, "lon": -77.05181666666667, "is_disabled": 0, "type": "electric_scooter", "name": "e81c9b15483a9761b14eb220768b313d", "fusion_lat": 0.0, "rental_uris": {"android": "https://dc.lft.to/lastmile_qr_scan", "ios": "https://dc.lft.to/lastmile_qr_scan"}, "bike_id": "e81c9b15483a9761b14eb220768b313d", "is_reserved": 0}, {"lat": 38.92173533333333, "fusion_lon": 0.0, "lon": -77.0193265, "is_disabled": 0, "type": "electric_scooter", "name": "c811b9f17e29a0692a11c56fa69eafe0", "fusion_lat": 0.0, "rental_uris": {"android": "https://dc.lft.to/lastmile_qr_scan", "ios": "https://dc.lft.to/lastmile_qr_scan"}, "bike_id": "c811b9f17e29a0692a11c56fa69eafe0", "is_reserved": 0}, {"lat": 38.930670666666664, "fusion_lon": 0.0, "lon": -77.03179833333333, "is_disabled": 0, "type": "electric_scooter", "name": "d378d13aabdfcd0e223c6937a3faf400", "fusion_lat": 0.0, "rental_uris": {"android": "https://dc.lft.to/lastmile_qr_scan", "ios": "https://dc.lft.to/lastmile_qr_scan"}, "bike_id": "d378d13aabdfcd0e223c6937a3faf400", "is_reserved": 0}, {"lat": 38.91813066666667, "fusion_lon": 0.0, "lon": -77.089504, "is_disabled": 0, "type": "electric_scooter", "name": "14dc4afae5f6f745c6a889997c8b7fbf", "fusion_lat": 0.0, "rental_uris": {"android": "https://dc.lft.to/lastmile_qr_scan", "ios": "https://dc.lft.to/lastmile_qr_scan"}, "bike_id": "14dc4afae5f6f745c6a889997c8b7fbf", "is_reserved": 0}, {"lat": 38.969071666666665, "fusion_lon": 0.0, "lon": -76.994948, "is_disabled": 0, "type": "electric_bike", "name": "5fed58114936ddc3c676ccaca65db3cc", "fusion_lat": 0.0, "rental_uris": {"android": "https://dc.lft.to/lastmile_qr_scan", "ios": "https://dc.lft.to/lastmile_qr_scan"}, "bike_id": "5fed58114936ddc3c676ccaca65db3cc", "is_reserved": 0}, {"lat": 38.86657266666667, "fusion_lon": 0.0, "lon": -76.988835, "is_disabled": 0, "type": "electric_scooter", "name": "066eb134f199469a04aa17e846a96f2e", "fusion_lat": 0.0, "rental_uris": {"android": "https://dc.lft.to/lastmile_qr_scan", "ios": "https://dc.lft.to/lastmile_qr_scan"}, "bike_id": "066eb134f199469a04aa17e846a96f2e", "is_reserved": 0}, {"lat": 38.993407833333336, "fusion_lon": 0.0, "lon": -77.115801, "is_disabled": 0, "type": "electric_bike", "name": "3ac91f9b3cb76e711ee41efc6d002267", "fusion_lat": 0.0, "rental_uris": {"android": "https://dc.lft.to/lastmile_qr_scan", "ios": "https://dc.lft.to/lastmile_qr_scan"}, "bike_id": "3ac91f9b3cb76e711ee41efc6d002267", "is_reserved": 0}, {"lat": 38.93021433333333, "fusion_lon": 0.0, "lon": -77.055221, "is_disabled": 0, "type": "electric_scooter", "name": "71a3e0fee79cb048fc4165e8be0252b9", "fusion_lat": 0.0, "rental_uris": {"android": "https://dc.lft.to/lastmile_qr_scan", "ios": "https://dc.lft.to/lastmile_qr_scan"}, "bike_id": "71a3e0fee79cb048fc4165e8be0252b9", "is_reserved": 0}, {"lat": 38.927340666666666, "fusion_lon": 0.0, "lon": -77.036939, "is_disabled": 0, "type": "electric_scooter", "name": "a548da19b1145c1bd1546c858b6e6637", "fusion_lat": 0.0, "rental_uris": {"android": "https://dc.lft.to/lastmile_qr_scan", "ios": "https://dc.lft.to/lastmile_qr_scan"}, "bike_id": "a548da19b1145c1bd1546c858b6e6637", "is_reserved": 0}, {"lat": 38.922242, "fusion_lon": 0.0, "lon": -77.04245266666666, "is_disabled": 0, "type": "electric_scooter", "name": "0c142618dcea1d7189251b481d3e4da1", "fusion_lat": 0.0, "rental_uris": {"android": "https://dc.lft.to/lastmile_qr_scan", "ios": "https://dc.lft.to/lastmile_qr_scan"}, "bike_id": "0c142618dcea1d7189251b481d3e4da1", "is_reserved": 0}, {"lat": 38.89640383333333, "fusion_lon": 0.0, "lon": -77.02194516666667, "is_disabled": 0, "type": "electric_scooter", "name": "dae36a2bcf6cab6ad5265e40abd0e0f0", "fusion_lat": 0.0, "rental_uris": {"android": "https://dc.lft.to/lastmile_qr_scan", "ios": "https://dc.lft.to/lastmile_qr_scan"}, "bike_id": "dae36a2bcf6cab6ad5265e40abd0e0f0", "is_reserved": 0}, {"lat": 38.90008666666667, "fusion_lon": 0.0, "lon": -77.03180316666666, "is_disabled": 0, "type": "electric_scooter", "name": "062b445ab573369bc033512b5f1a7909", "fusion_lat": 0.0, "rental_uris": {"android": "https://dc.lft.to/lastmile_qr_scan", "ios": "https://dc.lft.to/lastmile_qr_scan"}, "bike_id": "062b445ab573369bc033512b5f1a7909", "is_reserved": 0}, {"lat": 38.8665955, "fusion_lon": 0.0, "lon": -76.9851705, "is_disabled": 0, "type": "electric_scooter", "name": "baec266e3d4bc4f0e7b19b6118cb2be4", "fusion_lat": 0.0, "rental_uris": {"android": "https://dc.lft.to/lastmile_qr_scan", "ios": "https://dc.lft.to/lastmile_qr_scan"}, "bike_id": "baec266e3d4bc4f0e7b19b6118cb2be4", "is_reserved": 0}, {"lat": 38.845604333333334, "fusion_lon": 0.0, "lon": -77.06690316666666, "is_disabled": 0, "type": "electric_bike", "name": "7c3cc947e3f3a6f347b1f8265bb31165", "fusion_lat": 0.0, "rental_uris": {"android": "https://dc.lft.to/lastmile_qr_scan", "ios": "https://dc.lft.to/lastmile_qr_scan"}, "bike_id": "7c3cc947e3f3a6f347b1f8265bb31165", "is_reserved": 0}, {"lat": 38.9420705, "fusion_lon": 0.0, "lon": -77.02517016666667, "is_disabled": 0, "type": "electric_scooter", "name": "b53e9a9a3aac4242d1ab7441822eb4d6", "fusion_lat": 0.0, "rental_uris": {"android": "https://dc.lft.to/lastmile_qr_scan", "ios": "https://dc.lft.to/lastmile_qr_scan"}, "bike_id": "b53e9a9a3aac4242d1ab7441822eb4d6", "is_reserved": 0}, {"lat": 38.92454766666667, "fusion_lon": 0.0, "lon": -77.04099866666667, "is_disabled": 0, "type": "electric_scooter", "name": "bc0279754a24347ec30b60f0e8e9c676", "fusion_lat": 0.0, "rental_uris": {"android": "https://dc.lft.to/lastmile_qr_scan", "ios": "https://dc.lft.to/lastmile_qr_scan"}, "bike_id": "bc0279754a24347ec30b60f0e8e9c676", "is_reserved": 0}, {"lat": 38.90435466666667, "fusion_lon": 0.0, "lon": -77.05325, "is_disabled": 0, "type": "electric_scooter", "name": "ff36f6eb84b5b47bfcfffcce888e0721", "fusion_lat": 0.0, "rental_uris": {"android": "https://dc.lft.to/lastmile_qr_scan", "ios": "https://dc.lft.to/lastmile_qr_scan"}, "bike_id": "ff36f6eb84b5b47bfcfffcce888e0721", "is_reserved": 0}, {"lat": 38.90682316666667, "fusion_lon": 0.0, "lon": -77.00189083333333, "is_disabled": 0, "type": "electric_scooter", "name": "73f2eb71919367e2ec3d9f7183cb9310", "fusion_lat": 0.0, "rental_uris": {"android": "https://dc.lft.to/lastmile_qr_scan", "ios": "https://dc.lft.to/lastmile_qr_scan"}, "bike_id": "73f2eb71919367e2ec3d9f7183cb9310", "is_reserved": 0}, {"lat": 38.905673166666666, "fusion_lon": 0.0, "lon": -77.03736866666667, "is_disabled": 0, "type": "electric_scooter", "name": "6c75c44d3a20662d026b49ae0bbd52ea", "fusion_lat": 0.0, "rental_uris": {"android": "https://dc.lft.to/lastmile_qr_scan", "ios": "https://dc.lft.to/lastmile_qr_scan"}, "bike_id": "6c75c44d3a20662d026b49ae0bbd52ea", "is_reserved": 0}, {"lat": 38.905107, "fusion_lon": 0.0, "lon": -77.0346055, "is_disabled": 0, "type": "electric_scooter", "name": "8d6fd7f6a59ee04103bb70809349499d", "fusion_lat": 0.0, "rental_uris": {"android": "https://dc.lft.to/lastmile_qr_scan", "ios": "https://dc.lft.to/lastmile_qr_scan"}, "bike_id": "8d6fd7f6a59ee04103bb70809349499d", "is_reserved": 0}, {"lat": 38.8801005, "fusion_lon": 0.0, "lon": -77.02482016666667, "is_disabled": 0, "type": "electric_scooter", "name": "989798b7a8673f0df5169dc88db7a270", "fusion_lat": 0.0, "rental_uris": {"android": "https://dc.lft.to/lastmile_qr_scan", "ios": "https://dc.lft.to/lastmile_qr_scan"}, "bike_id": "989798b7a8673f0df5169dc88db7a270", "is_reserved": 0}, {"lat": 38.9422825, "fusion_lon": 0.0, "lon": -76.9662275, "is_disabled": 0, "type": "electric_bike", "name": "9d60b640cf070519c1961166f0dd18a5", "fusion_lat": 0.0, "rental_uris": {"android": "https://dc.lft.to/lastmile_qr_scan", "ios": "https://dc.lft.to/lastmile_qr_scan"}, "bike_id": "9d60b640cf070519c1961166f0dd18a5", "is_reserved": 0}, {"lat": 38.903706166666666, "fusion_lon": 0.0, "lon": -77.044851, "is_disabled": 0, "type": "electric_scooter", "name": "80ae3638af24685ad006e2c3ba7a1708", "fusion_lat": 0.0, "rental_uris": {"android": "https://dc.lft.to/lastmile_qr_scan", "ios": "https://dc.lft.to/lastmile_qr_scan"}, "bike_id": "80ae3638af24685ad006e2c3ba7a1708", "is_reserved": 0}, {"lat": 38.872775, "fusion_lon": 0.0, "lon": -77.2331975, "is_disabled": 0, "type": "electric_bike", "name": "94cfe080a37bdc3cbc71a3f9f70fcb9b", "fusion_lat": 0.0, "rental_uris": {"android": "https://dc.lft.to/lastmile_qr_scan", "ios": "https://dc.lft.to/lastmile_qr_scan"}, "bike_id": "94cfe080a37bdc3cbc71a3f9f70fcb9b", "is_reserved": 0}, {"lat": 38.8669815, "fusion_lon": 0.0, "lon": -76.98591816666666, "is_disabled": 0, "type": "electric_scooter", "name": "5fc252e81f82867bf72a003c24cb1790", "fusion_lat": 0.0, "rental_uris": {"android": "https://dc.lft.to/lastmile_qr_scan", "ios": "https://dc.lft.to/lastmile_qr_scan"}, "bike_id": "5fc252e81f82867bf72a003c24cb1790", "is_reserved": 0}, {"lat": 38.86538, "fusion_lon": 0.0, "lon": -76.9870645, "is_disabled": 0, "type": "electric_scooter", "name": "bf22856491ca9548b70c2d4400fa4758", "fusion_lat": 0.0, "rental_uris": {"android": "https://dc.lft.to/lastmile_qr_scan", "ios": "https://dc.lft.to/lastmile_qr_scan"}, "bike_id": "bf22856491ca9548b70c2d4400fa4758", "is_reserved": 0}, {"lat": 38.91018316666667, "fusion_lon": 0.0, "lon": -77.228007, "is_disabled": 0, "type": "electric_bike", "name": "8cbbc04c63a16b7c9cc1ee06361e8ab6", "fusion_lat": 0.0, "rental_uris": {"android": "https://dc.lft.to/lastmile_qr_scan", "ios": "https://dc.lft.to/lastmile_qr_scan"}, "bike_id": "8cbbc04c63a16b7c9cc1ee06361e8ab6", "is_reserved": 0}, {"lat": 38.90253583333333, "fusion_lon": 0.0, "lon": -77.01690233333333, "is_disabled": 0, "type": "electric_scooter", "name": "2a8e300388e2c316b3d63b94e5070de0", "fusion_lat": 0.0, "rental_uris": {"android": "https://dc.lft.to/lastmile_qr_scan", "ios": "https://dc.lft.to/lastmile_qr_scan"}, "bike_id": "2a8e300388e2c316b3d63b94e5070de0", "is_reserved": 0}, {"lat": 38.961433, "fusion_lon": 0.0, "lon": -77.02293233333333, "is_disabled": 0, "type": "electric_bike", "name": "d0eb20fe9bafcb4de5f1d991b1e6ad54", "fusion_lat": 0.0, "rental_uris": {"android": "https://dc.lft.to/lastmile_qr_scan", "ios": "https://dc.lft.to/lastmile_qr_scan"}, "bike_id": "d0eb20fe9bafcb4de5f1d991b1e6ad54", "is_reserved": 0}, {"lat": 38.8922525, "fusion_lon": 0.0, "lon": -77.02340483333333, "is_disabled": 0, "type": "electric_scooter", "name": "18e55b6e1ba155225e156b763a8a8eb2", "fusion_lat": 0.0, "rental_uris": {"android": "https://dc.lft.to/lastmile_qr_scan", "ios": "https://dc.lft.to/lastmile_qr_scan"}, "bike_id": "18e55b6e1ba155225e156b763a8a8eb2", "is_reserved": 0}, {"lat": 38.90791866666667, "fusion_lon": 0.0, "lon": -76.99964416666667, "is_disabled": 0, "type": "electric_scooter", "name": "4ef3f7a5777f09edad0118430377965a", "fusion_lat": 0.0, "rental_uris": {"android": "https://dc.lft.to/lastmile_qr_scan", "ios": "https://dc.lft.to/lastmile_qr_scan"}, "bike_id": "4ef3f7a5777f09edad0118430377965a", "is_reserved": 0}, {"lat": 38.920551833333334, "fusion_lon": 0.0, "lon": -77.0244815, "is_disabled": 0, "type": "electric_scooter", "name": "38b8f646a70a808b90966d6d8fc50c9d", "fusion_lat": 0.0, "rental_uris": {"android": "https://dc.lft.to/lastmile_qr_scan", "ios": "https://dc.lft.to/lastmile_qr_scan"}, "bike_id": "38b8f646a70a808b90966d6d8fc50c9d", "is_reserved": 0}, {"lat": 38.93677183333333, "fusion_lon": 0.0, "lon": -77.03627116666667, "is_disabled": 0, "type": "electric_scooter", "name": "5b09c77fc1075fbda250f7164a04790a", "fusion_lat": 0.0, "rental_uris": {"android": "https://dc.lft.to/lastmile_qr_scan", "ios": "https://dc.lft.to/lastmile_qr_scan"}, "bike_id": "5b09c77fc1075fbda250f7164a04790a", "is_reserved": 0}, {"lat": 38.935849, "fusion_lon": 0.0, "lon": -77.05854666666667, "is_disabled": 0, "type": "electric_scooter", "name": "864ada4c31ce69d6a1ccbdf67525d76e", "fusion_lat": 0.0, "rental_uris": {"android": "https://dc.lft.to/lastmile_qr_scan", "ios": "https://dc.lft.to/lastmile_qr_scan"}, "bike_id": "864ada4c31ce69d6a1ccbdf67525d76e", "is_reserved": 0}, {"lat": 38.91693183333334, "fusion_lon": 0.0, "lon": -77.0317445, "is_disabled": 0, "type": "electric_scooter", "name": "36c30504bb00d1aa49ff0ad0af6eec26", "fusion_lat": 0.0, "rental_uris": {"android": "https://dc.lft.to/lastmile_qr_scan", "ios": "https://dc.lft.to/lastmile_qr_scan"}, "bike_id": "36c30504bb00d1aa49ff0ad0af6eec26", "is_reserved": 0}, {"lat": 38.8706785, "fusion_lon": 0.0, "lon": -76.98925166666666, "is_disabled": 0, "type": "electric_scooter", "name": "1e042dca4f0541c234107ed814734a01", "fusion_lat": 0.0, "rental_uris": {"android": "https://dc.lft.to/lastmile_qr_scan", "ios": "https://dc.lft.to/lastmile_qr_scan"}, "bike_id": "1e042dca4f0541c234107ed814734a01", "is_reserved": 0}, {"lat": 38.917168, "fusion_lon": 0.0, "lon": -77.03660966666666, "is_disabled": 0, "type": "electric_scooter", "name": "9bc9fdb8bdf6eb35098cc54666785df0", "fusion_lat": 0.0, "rental_uris": {"android": "https://dc.lft.to/lastmile_qr_scan", "ios": "https://dc.lft.to/lastmile_qr_scan"}, "bike_id": "9bc9fdb8bdf6eb35098cc54666785df0", "is_reserved": 0}, {"lat": 38.914890666666665, "fusion_lon": 0.0, "lon": -77.02584166666666, "is_disabled": 0, "type": "electric_scooter", "name": "c1ad2c573625f8a85ad3b5c17d8e1328", "fusion_lat": 0.0, "rental_uris": {"android": "https://dc.lft.to/lastmile_qr_scan", "ios": "https://dc.lft.to/lastmile_qr_scan"}, "bike_id": "c1ad2c573625f8a85ad3b5c17d8e1328", "is_reserved": 0}, {"lat": 38.91951366666667, "fusion_lon": 0.0, "lon": -77.01401433333334, "is_disabled": 0, "type": "electric_scooter", "name": "6bf06f5b68df89b29e6e011decb0b5b3", "fusion_lat": 0.0, "rental_uris": {"android": "https://dc.lft.to/lastmile_qr_scan", "ios": "https://dc.lft.to/lastmile_qr_scan"}, "bike_id": "6bf06f5b68df89b29e6e011decb0b5b3", "is_reserved": 0}, {"lat": 38.898721, "fusion_lon": 0.0, "lon": -77.01381983333333, "is_disabled": 0, "type": "electric_scooter", "name": "0dc9eb3fb7bcc7f3cafe294b0cef5eab", "fusion_lat": 0.0, "rental_uris": {"android": "https://dc.lft.to/lastmile_qr_scan", "ios": "https://dc.lft.to/lastmile_qr_scan"}, "bike_id": "0dc9eb3fb7bcc7f3cafe294b0cef5eab", "is_reserved": 0}, {"lat": 38.902620166666665, "fusion_lon": 0.0, "lon": -77.03965066666666, "is_disabled": 0, "type": "electric_scooter", "name": "d574e865540ffec69fe61ed82df728f5", "fusion_lat": 0.0, "rental_uris": {"android": "https://dc.lft.to/lastmile_qr_scan", "ios": "https://dc.lft.to/lastmile_qr_scan"}, "bike_id": "d574e865540ffec69fe61ed82df728f5", "is_reserved": 0}, {"lat": 38.97372333333333, "fusion_lon": 0.0, "lon": -77.01863066666667, "is_disabled": 0, "type": "electric_scooter", "name": "8d8d21b79d4e8fdeee2efdf6eaba9b42", "fusion_lat": 0.0, "rental_uris": {"android": "https://dc.lft.to/lastmile_qr_scan", "ios": "https://dc.lft.to/lastmile_qr_scan"}, "bike_id": "8d8d21b79d4e8fdeee2efdf6eaba9b42", "is_reserved": 0}, {"lat": 38.919151, "fusion_lon": 0.0, "lon": -77.0417475, "is_disabled": 0, "type": "electric_scooter", "name": "3b4b1ece56e98b232fb42de059fa18ea", "fusion_lat": 0.0, "rental_uris": {"android": "https://dc.lft.to/lastmile_qr_scan", "ios": "https://dc.lft.to/lastmile_qr_scan"}, "bike_id": "3b4b1ece56e98b232fb42de059fa18ea", "is_reserved": 0}, {"lat": 38.8924125, "fusion_lon": 0.0, "lon": -77.0416115, "is_disabled": 0, "type": "electric_scooter", "name": "92a9e79139f4a9b69cd9cc8dc678cd37", "fusion_lat": 0.0, "rental_uris": {"android": "https://dc.lft.to/lastmile_qr_scan", "ios": "https://dc.lft.to/lastmile_qr_scan"}, "bike_id": "92a9e79139f4a9b69cd9cc8dc678cd37", "is_reserved": 0}, {"lat": 38.88816116666667, "fusion_lon": 0.0, "lon": -77.0384195, "is_disabled": 0, "type": "electric_bike", "name": "8c2b9c8ad2254a4a6a2303903d461d9d", "fusion_lat": 0.0, "rental_uris": {"android": "https://dc.lft.to/lastmile_qr_scan", "ios": "https://dc.lft.to/lastmile_qr_scan"}, "bike_id": "8c2b9c8ad2254a4a6a2303903d461d9d", "is_reserved": 0}, {"lat": 38.88316, "fusion_lon": 0.0, "lon": -77.017507, "is_disabled": 0, "type": "electric_scooter", "name": "ab926ab74f76e87ead059a058b338737", "fusion_lat": 0.0, "rental_uris": {"android": "https://dc.lft.to/lastmile_qr_scan", "ios": "https://dc.lft.to/lastmile_qr_scan"}, "bike_id": "ab926ab74f76e87ead059a058b338737", "is_reserved": 0}, {"lat": 38.909893333333336, "fusion_lon": 0.0, "lon": -77.03333766666667, "is_disabled": 0, "type": "electric_scooter", "name": "6667a3739ab492807c8c1fd4e9310568", "fusion_lat": 0.0, "rental_uris": {"android": "https://dc.lft.to/lastmile_qr_scan", "ios": "https://dc.lft.to/lastmile_qr_scan"}, "bike_id": "6667a3739ab492807c8c1fd4e9310568", "is_reserved": 0}, {"lat": 38.927216, "fusion_lon": 0.0, "lon": -77.0367215, "is_disabled": 0, "type": "electric_scooter", "name": "fa36f80bcd9cbbb5a555619d7622bf03", "fusion_lat": 0.0, "rental_uris": {"android": "https://dc.lft.to/lastmile_qr_scan", "ios": "https://dc.lft.to/lastmile_qr_scan"}, "bike_id": "fa36f80bcd9cbbb5a555619d7622bf03", "is_reserved": 0}, {"lat": 38.915563, "fusion_lon": 0.0, "lon": -77.03134883333334, "is_disabled": 0, "type": "electric_scooter", "name": "7cd821c95e5dac0901d92656b1e07820", "fusion_lat": 0.0, "rental_uris": {"android": "https://dc.lft.to/lastmile_qr_scan", "ios": "https://dc.lft.to/lastmile_qr_scan"}, "bike_id": "7cd821c95e5dac0901d92656b1e07820", "is_reserved": 0}, {"lat": 38.90018, "fusion_lon": 0.0, "lon": -76.95202766666667, "is_disabled": 0, "type": "electric_scooter", "name": "1fc05675de788993eb9055e6bda99d14", "fusion_lat": 0.0, "rental_uris": {"android": "https://dc.lft.to/lastmile_qr_scan", "ios": "https://dc.lft.to/lastmile_qr_scan"}, "bike_id": "1fc05675de788993eb9055e6bda99d14", "is_reserved": 0}, {"lat": 38.9000785, "fusion_lon": 0.0, "lon": -77.02592183333333, "is_disabled": 0, "type": "electric_scooter", "name": "a11664aaee5baca1798ed92dc65f3e14", "fusion_lat": 0.0, "rental_uris": {"android": "https://dc.lft.to/lastmile_qr_scan", "ios": "https://dc.lft.to/lastmile_qr_scan"}, "bike_id": "a11664aaee5baca1798ed92dc65f3e14", "is_reserved": 0}, {"lat": 38.902234, "fusion_lon": 0.0, "lon": -77.04589166666666, "is_disabled": 0, "type": "electric_scooter", "name": "175ba40e3e0a644ebe3fefa65cda7cb5", "fusion_lat": 0.0, "rental_uris": {"android": "https://dc.lft.to/lastmile_qr_scan", "ios": "https://dc.lft.to/lastmile_qr_scan"}, "bike_id": "175ba40e3e0a644ebe3fefa65cda7cb5", "is_reserved": 0}, {"lat": 38.9290045, "fusion_lon": 0.0, "lon": -77.03258916666667, "is_disabled": 0, "type": "electric_scooter", "name": "a6e19e769fd410910dd9849d49309b42", "fusion_lat": 0.0, "rental_uris": {"android": "https://dc.lft.to/lastmile_qr_scan", "ios": "https://dc.lft.to/lastmile_qr_scan"}, "bike_id": "a6e19e769fd410910dd9849d49309b42", "is_reserved": 0}, {"lat": 38.91693733333334, "fusion_lon": 0.0, "lon": -77.02599683333334, "is_disabled": 0, "type": "electric_scooter", "name": "83c3f617184bcc9b7f3900a6fabbe621", "fusion_lat": 0.0, "rental_uris": {"android": "https://dc.lft.to/lastmile_qr_scan", "ios": "https://dc.lft.to/lastmile_qr_scan"}, "bike_id": "83c3f617184bcc9b7f3900a6fabbe621", "is_reserved": 0}, {"lat": 38.9172085, "fusion_lon": 0.0, "lon": -77.02601616666666, "is_disabled": 0, "type": "electric_scooter", "name": "0211ba20ae38abe9aeed26ae022fc053", "fusion_lat": 0.0, "rental_uris": {"android": "https://dc.lft.to/lastmile_qr_scan", "ios": "https://dc.lft.to/lastmile_qr_scan"}, "bike_id": "0211ba20ae38abe9aeed26ae022fc053", "is_reserved": 0}, {"lat": 38.9098195, "fusion_lon": 0.0, "lon": -77.034424, "is_disabled": 0, "type": "electric_scooter", "name": "b524b9a0c502c92a1809558403cbb39c", "fusion_lat": 0.0, "rental_uris": {"android": "https://dc.lft.to/lastmile_qr_scan", "ios": "https://dc.lft.to/lastmile_qr_scan"}, "bike_id": "b524b9a0c502c92a1809558403cbb39c", "is_reserved": 0}, {"lat": 38.9072925, "fusion_lon": 0.0, "lon": -77.0326655, "is_disabled": 0, "type": "electric_scooter", "name": "78f35de0c1712b83d81e6f4181b7d1b8", "fusion_lat": 0.0, "rental_uris": {"android": "https://dc.lft.to/lastmile_qr_scan", "ios": "https://dc.lft.to/lastmile_qr_scan"}, "bike_id": "78f35de0c1712b83d81e6f4181b7d1b8", "is_reserved": 0}, {"lat": 38.896051666666665, "fusion_lon": 0.0, "lon": -77.013152, "is_disabled": 0, "type": "electric_scooter", "name": "e558689cd101f758c11b85126d488592", "fusion_lat": 0.0, "rental_uris": {"android": "https://dc.lft.to/lastmile_qr_scan", "ios": "https://dc.lft.to/lastmile_qr_scan"}, "bike_id": "e558689cd101f758c11b85126d488592", "is_reserved": 0}, {"lat": 38.871837666666664, "fusion_lon": 0.0, "lon": -77.00607266666667, "is_disabled": 0, "type": "electric_scooter", "name": "10b7ceae5b4e3707e91d943720d2aa5a", "fusion_lat": 0.0, "rental_uris": {"android": "https://dc.lft.to/lastmile_qr_scan", "ios": "https://dc.lft.to/lastmile_qr_scan"}, "bike_id": "10b7ceae5b4e3707e91d943720d2aa5a", "is_reserved": 0}, {"lat": 38.899626833333336, "fusion_lon": 0.0, "lon": -77.05560183333333, "is_disabled": 0, "type": "electric_scooter", "name": "87252884559733b4e1a1655561a553a0", "fusion_lat": 0.0, "rental_uris": {"android": "https://dc.lft.to/lastmile_qr_scan", "ios": "https://dc.lft.to/lastmile_qr_scan"}, "bike_id": "87252884559733b4e1a1655561a553a0", "is_reserved": 0}, {"lat": 38.89946333333333, "fusion_lon": 0.0, "lon": -77.01449216666667, "is_disabled": 0, "type": "electric_scooter", "name": "fa64591a0798c753a067b0827738d8cc", "fusion_lat": 0.0, "rental_uris": {"android": "https://dc.lft.to/lastmile_qr_scan", "ios": "https://dc.lft.to/lastmile_qr_scan"}, "bike_id": "fa64591a0798c753a067b0827738d8cc", "is_reserved": 0}, {"lat": 38.92085266666667, "fusion_lon": 0.0, "lon": -77.0469435, "is_disabled": 0, "type": "electric_scooter", "name": "b6755e95c0b0751a9bc3eb7c0ae29e7a", "fusion_lat": 0.0, "rental_uris": {"android": "https://dc.lft.to/lastmile_qr_scan", "ios": "https://dc.lft.to/lastmile_qr_scan"}, "bike_id": "b6755e95c0b0751a9bc3eb7c0ae29e7a", "is_reserved": 0}, {"lat": 38.93995733333333, "fusion_lon": 0.0, "lon": -77.03262, "is_disabled": 0, "type": "electric_scooter", "name": "7c489e48c97bdea6d778bfb89f1ecb33", "fusion_lat": 0.0, "rental_uris": {"android": "https://dc.lft.to/lastmile_qr_scan", "ios": "https://dc.lft.to/lastmile_qr_scan"}, "bike_id": "7c489e48c97bdea6d778bfb89f1ecb33", "is_reserved": 0}, {"lat": 38.900067666666665, "fusion_lon": 0.0, "lon": -77.00676916666667, "is_disabled": 0, "type": "electric_scooter", "name": "527fbbe9a4ed07c54b94397c92eb5149", "fusion_lat": 0.0, "rental_uris": {"android": "https://dc.lft.to/lastmile_qr_scan", "ios": "https://dc.lft.to/lastmile_qr_scan"}, "bike_id": "527fbbe9a4ed07c54b94397c92eb5149", "is_reserved": 0}, {"lat": 38.894079166666664, "fusion_lon": 0.0, "lon": -77.04418516666667, "is_disabled": 0, "type": "electric_scooter", "name": "442c66b644472026ca0a4ef3b8d50688", "fusion_lat": 0.0, "rental_uris": {"android": "https://dc.lft.to/lastmile_qr_scan", "ios": "https://dc.lft.to/lastmile_qr_scan"}, "bike_id": "442c66b644472026ca0a4ef3b8d50688", "is_reserved": 0}, {"lat": 38.916935333333335, "fusion_lon": 0.0, "lon": -77.02712333333334, "is_disabled": 0, "type": "electric_scooter", "name": "524a7ba6a7573d1d3b416b8340a63889", "fusion_lat": 0.0, "rental_uris": {"android": "https://dc.lft.to/lastmile_qr_scan", "ios": "https://dc.lft.to/lastmile_qr_scan"}, "bike_id": "524a7ba6a7573d1d3b416b8340a63889", "is_reserved": 0}, {"lat": 38.89023866666667, "fusion_lon": 0.0, "lon": -76.936984, "is_disabled": 0, "type": "electric_scooter", "name": "ebe39c558070aca50191e510e526b6d0", "fusion_lat": 0.0, "rental_uris": {"android": "https://dc.lft.to/lastmile_qr_scan", "ios": "https://dc.lft.to/lastmile_qr_scan"}, "bike_id": "ebe39c558070aca50191e510e526b6d0", "is_reserved": 0}, {"lat": 38.90156, "fusion_lon": 0.0, "lon": -77.031847, "is_disabled": 0, "type": "electric_scooter", "name": "4aad73938eddd1d2acb47bf4a7d2b451", "fusion_lat": 0.0, "rental_uris": {"android": "https://dc.lft.to/lastmile_qr_scan", "ios": "https://dc.lft.to/lastmile_qr_scan"}, "bike_id": "4aad73938eddd1d2acb47bf4a7d2b451", "is_reserved": 0}, {"lat": 38.8929175, "fusion_lon": 0.0, "lon": -77.03190183333334, "is_disabled": 0, "type": "electric_scooter", "name": "1e51fc486be1b2246823c92359236982", "fusion_lat": 0.0, "rental_uris": {"android": "https://dc.lft.to/lastmile_qr_scan", "ios": "https://dc.lft.to/lastmile_qr_scan"}, "bike_id": "1e51fc486be1b2246823c92359236982", "is_reserved": 0}, {"lat": 38.91691383333333, "fusion_lon": 0.0, "lon": -77.025992, "is_disabled": 0, "type": "electric_scooter", "name": "9d03bd386d4db018020796829747ef8b", "fusion_lat": 0.0, "rental_uris": {"android": "https://dc.lft.to/lastmile_qr_scan", "ios": "https://dc.lft.to/lastmile_qr_scan"}, "bike_id": "9d03bd386d4db018020796829747ef8b", "is_reserved": 0}, {"lat": 38.893184, "fusion_lon": 0.0, "lon": -77.04999566666666, "is_disabled": 0, "type": "electric_scooter", "name": "8f6993041ccc52a69a3e693fbb36bc6b", "fusion_lat": 0.0, "rental_uris": {"android": "https://dc.lft.to/lastmile_qr_scan", "ios": "https://dc.lft.to/lastmile_qr_scan"}, "bike_id": "8f6993041ccc52a69a3e693fbb36bc6b", "is_reserved": 0}, {"lat": 38.8693675, "fusion_lon": 0.0, "lon": -77.09468016666666, "is_disabled": 0, "type": "electric_bike", "name": "ddc681bf2f0d05370cb724d100560a2f", "fusion_lat": 0.0, "rental_uris": {"android": "https://dc.lft.to/lastmile_qr_scan", "ios": "https://dc.lft.to/lastmile_qr_scan"}, "bike_id": "ddc681bf2f0d05370cb724d100560a2f", "is_reserved": 0}, {"lat": 38.939741833333336, "fusion_lon": 0.0, "lon": -76.98615083333334, "is_disabled": 0, "type": "electric_bike", "name": "acc9b4135a6ba1410ded3ac5a5aee538", "fusion_lat": 0.0, "rental_uris": {"android": "https://dc.lft.to/lastmile_qr_scan", "ios": "https://dc.lft.to/lastmile_qr_scan"}, "bike_id": "acc9b4135a6ba1410ded3ac5a5aee538", "is_reserved": 0}, {"lat": 38.91976783333333, "fusion_lon": 0.0, "lon": -77.02505433333333, "is_disabled": 0, "type": "electric_scooter", "name": "b4f98eaf1ac7cbacadae8586ccb91d6a", "fusion_lat": 0.0, "rental_uris": {"android": "https://dc.lft.to/lastmile_qr_scan", "ios": "https://dc.lft.to/lastmile_qr_scan"}, "bike_id": "b4f98eaf1ac7cbacadae8586ccb91d6a", "is_reserved": 0}, {"lat": 38.87197833333333, "fusion_lon": 0.0, "lon": -77.00572416666667, "is_disabled": 0, "type": "electric_scooter", "name": "147f049bd1cc6be084e0086b60380f54", "fusion_lat": 0.0, "rental_uris": {"android": "https://dc.lft.to/lastmile_qr_scan", "ios": "https://dc.lft.to/lastmile_qr_scan"}, "bike_id": "147f049bd1cc6be084e0086b60380f54", "is_reserved": 0}, {"lat": 38.920507, "fusion_lon": 0.0, "lon": -77.041917, "is_disabled": 0, "type": "electric_scooter", "name": "7d7f4799f396cd4ae8e4159ce2ab4b6c", "fusion_lat": 0.0, "rental_uris": {"android": "https://dc.lft.to/lastmile_qr_scan", "ios": "https://dc.lft.to/lastmile_qr_scan"}, "bike_id": "7d7f4799f396cd4ae8e4159ce2ab4b6c", "is_reserved": 0}, {"lat": 38.902773833333335, "fusion_lon": 0.0, "lon": -77.01743616666667, "is_disabled": 0, "type": "electric_scooter", "name": "9ac8febcea84448369dbb94a528679a5", "fusion_lat": 0.0, "rental_uris": {"android": "https://dc.lft.to/lastmile_qr_scan", "ios": "https://dc.lft.to/lastmile_qr_scan"}, "bike_id": "9ac8febcea84448369dbb94a528679a5", "is_reserved": 0}, {"lat": 38.90912733333333, "fusion_lon": 0.0, "lon": -77.03121466666667, "is_disabled": 0, "type": "electric_scooter", "name": "48edbb26ea58014f90538e23b83c7551", "fusion_lat": 0.0, "rental_uris": {"android": "https://dc.lft.to/lastmile_qr_scan", "ios": "https://dc.lft.to/lastmile_qr_scan"}, "bike_id": "48edbb26ea58014f90538e23b83c7551", "is_reserved": 0}, {"lat": 38.9116345, "fusion_lon": 0.0, "lon": -77.07268066666667, "is_disabled": 0, "type": "electric_scooter", "name": "fbd4cf9fb66249bf17a9e3cb994e5655", "fusion_lat": 0.0, "rental_uris": {"android": "https://dc.lft.to/lastmile_qr_scan", "ios": "https://dc.lft.to/lastmile_qr_scan"}, "bike_id": "fbd4cf9fb66249bf17a9e3cb994e5655", "is_reserved": 0}, {"lat": 38.90712166666667, "fusion_lon": 0.0, "lon": -77.00048033333333, "is_disabled": 0, "type": "electric_scooter", "name": "6e390bfeff1f6896481041dc6d5b45c1", "fusion_lat": 0.0, "rental_uris": {"android": "https://dc.lft.to/lastmile_qr_scan", "ios": "https://dc.lft.to/lastmile_qr_scan"}, "bike_id": "6e390bfeff1f6896481041dc6d5b45c1", "is_reserved": 0}, {"lat": 38.905206666666665, "fusion_lon": 0.0, "lon": -77.05001716666666, "is_disabled": 0, "type": "electric_scooter", "name": "df39424b972fb36cc59f20f985d26e48", "fusion_lat": 0.0, "rental_uris": {"android": "https://dc.lft.to/lastmile_qr_scan", "ios": "https://dc.lft.to/lastmile_qr_scan"}, "bike_id": "df39424b972fb36cc59f20f985d26e48", "is_reserved": 0}, {"lat": 38.919435666666665, "fusion_lon": 0.0, "lon": -77.017982, "is_disabled": 0, "type": "electric_scooter", "name": "d62ab5e61f2567faf9c3d1095da139b6", "fusion_lat": 0.0, "rental_uris": {"android": "https://dc.lft.to/lastmile_qr_scan", "ios": "https://dc.lft.to/lastmile_qr_scan"}, "bike_id": "d62ab5e61f2567faf9c3d1095da139b6", "is_reserved": 0}, {"lat": 38.89221666666667, "fusion_lon": 0.0, "lon": -77.0450505, "is_disabled": 0, "type": "electric_scooter", "name": "9afb3a4c396d2357e093a706a15a4c24", "fusion_lat": 0.0, "rental_uris": {"android": "https://dc.lft.to/lastmile_qr_scan", "ios": "https://dc.lft.to/lastmile_qr_scan"}, "bike_id": "9afb3a4c396d2357e093a706a15a4c24", "is_reserved": 0}, {"lat": 38.87282616666667, "fusion_lon": 0.0, "lon": -76.97732466666666, "is_disabled": 0, "type": "electric_scooter", "name": "2bf00e1ff8deceabba2ef2498d4ce512", "fusion_lat": 0.0, "rental_uris": {"android": "https://dc.lft.to/lastmile_qr_scan", "ios": "https://dc.lft.to/lastmile_qr_scan"}, "bike_id": "2bf00e1ff8deceabba2ef2498d4ce512", "is_reserved": 0}, {"lat": 38.887682, "fusion_lon": 0.0, "lon": -77.0177285, "is_disabled": 0, "type": "electric_scooter", "name": "a7891a89bce123e3a6b4a76dbc93e270", "fusion_lat": 0.0, "rental_uris": {"android": "https://dc.lft.to/lastmile_qr_scan", "ios": "https://dc.lft.to/lastmile_qr_scan"}, "bike_id": "a7891a89bce123e3a6b4a76dbc93e270", "is_reserved": 0}, {"lat": 38.908570833333336, "fusion_lon": 0.0, "lon": -77.04862916666667, "is_disabled": 0, "type": "electric_scooter", "name": "024d8b2d4305c741cfa984ede18e62d3", "fusion_lat": 0.0, "rental_uris": {"android": "https://dc.lft.to/lastmile_qr_scan", "ios": "https://dc.lft.to/lastmile_qr_scan"}, "bike_id": "024d8b2d4305c741cfa984ede18e62d3", "is_reserved": 0}, {"lat": 38.89222783333334, "fusion_lon": 0.0, "lon": -77.0334115, "is_disabled": 0, "type": "electric_scooter", "name": "7e7f598c7cb71842c45e7b3bc199c579", "fusion_lat": 0.0, "rental_uris": {"android": "https://dc.lft.to/lastmile_qr_scan", "ios": "https://dc.lft.to/lastmile_qr_scan"}, "bike_id": "7e7f598c7cb71842c45e7b3bc199c579", "is_reserved": 0}, {"lat": 38.922552833333334, "fusion_lon": 0.0, "lon": -77.07037466666667, "is_disabled": 0, "type": "electric_scooter", "name": "d63f6bff28845529c34744ab37d94abd", "fusion_lat": 0.0, "rental_uris": {"android": "https://dc.lft.to/lastmile_qr_scan", "ios": "https://dc.lft.to/lastmile_qr_scan"}, "bike_id": "d63f6bff28845529c34744ab37d94abd", "is_reserved": 0}, {"lat": 38.919282333333335, "fusion_lon": 0.0, "lon": -77.03425833333333, "is_disabled": 0, "type": "electric_scooter", "name": "c877e5cf82dd5d87b0bc74e21d764302", "fusion_lat": 0.0, "rental_uris": {"android": "https://dc.lft.to/lastmile_qr_scan", "ios": "https://dc.lft.to/lastmile_qr_scan"}, "bike_id": "c877e5cf82dd5d87b0bc74e21d764302", "is_reserved": 0}, {"lat": 38.887113166666666, "fusion_lon": 0.0, "lon": -77.0221, "is_disabled": 0, "type": "electric_scooter", "name": "604b7e713b66e139ba4db8709ff71b05", "fusion_lat": 0.0, "rental_uris": {"android": "https://dc.lft.to/lastmile_qr_scan", "ios": "https://dc.lft.to/lastmile_qr_scan"}, "bike_id": "604b7e713b66e139ba4db8709ff71b05", "is_reserved": 0}, {"lat": 38.886088, "fusion_lon": 0.0, "lon": -77.0013865, "is_disabled": 0, "type": "electric_scooter", "name": "cb8d95766399ee32b62e328df60ca6fe", "fusion_lat": 0.0, "rental_uris": {"android": "https://dc.lft.to/lastmile_qr_scan", "ios": "https://dc.lft.to/lastmile_qr_scan"}, "bike_id": "cb8d95766399ee32b62e328df60ca6fe", "is_reserved": 0}, {"lat": 38.956228833333334, "fusion_lon": 0.0, "lon": -77.02782266666667, "is_disabled": 0, "type": "electric_scooter", "name": "c92222ac9022c6e6b6ec628717a25275", "fusion_lat": 0.0, "rental_uris": {"android": "https://dc.lft.to/lastmile_qr_scan", "ios": "https://dc.lft.to/lastmile_qr_scan"}, "bike_id": "c92222ac9022c6e6b6ec628717a25275", "is_reserved": 0}, {"lat": 38.85937216666667, "fusion_lon": 0.0, "lon": -77.11830116666667, "is_disabled": 0, "type": "electric_bike", "name": "2edb906e5b01269144aab091481276c7", "fusion_lat": 0.0, "rental_uris": {"android": "https://dc.lft.to/lastmile_qr_scan", "ios": "https://dc.lft.to/lastmile_qr_scan"}, "bike_id": "2edb906e5b01269144aab091481276c7", "is_reserved": 0}, {"lat": 38.86480016666667, "fusion_lon": 0.0, "lon": -76.9822365, "is_disabled": 0, "type": "electric_scooter", "name": "4345ab7a5830d6561850c5ac0e9d5aa3", "fusion_lat": 0.0, "rental_uris": {"android": "https://dc.lft.to/lastmile_qr_scan", "ios": "https://dc.lft.to/lastmile_qr_scan"}, "bike_id": "4345ab7a5830d6561850c5ac0e9d5aa3", "is_reserved": 0}, {"lat": 38.96385716666666, "fusion_lon": 0.0, "lon": -77.02699183333333, "is_disabled": 0, "type": "electric_bike", "name": "12fd38c7a4621ec5660b03a1e3e6cad6", "fusion_lat": 0.0, "rental_uris": {"android": "https://dc.lft.to/lastmile_qr_scan", "ios": "https://dc.lft.to/lastmile_qr_scan"}, "bike_id": "12fd38c7a4621ec5660b03a1e3e6cad6", "is_reserved": 0}, {"lat": 38.917631666666665, "fusion_lon": 0.0, "lon": -77.01926416666667, "is_disabled": 0, "type": "electric_scooter", "name": "dc4c23d90cd721d80fa5295c22711c97", "fusion_lat": 0.0, "rental_uris": {"android": "https://dc.lft.to/lastmile_qr_scan", "ios": "https://dc.lft.to/lastmile_qr_scan"}, "bike_id": "dc4c23d90cd721d80fa5295c22711c97", "is_reserved": 0}, {"lat": 38.918152, "fusion_lon": 0.0, "lon": -77.03439666666667, "is_disabled": 0, "type": "electric_scooter", "name": "0b0ee1dec8a4d3c7f4d676ad10ab0027", "fusion_lat": 0.0, "rental_uris": {"android": "https://dc.lft.to/lastmile_qr_scan", "ios": "https://dc.lft.to/lastmile_qr_scan"}, "bike_id": "0b0ee1dec8a4d3c7f4d676ad10ab0027", "is_reserved": 0}, {"lat": 38.922809, "fusion_lon": 0.0, "lon": -77.04243033333333, "is_disabled": 0, "type": "electric_scooter", "name": "3ae1470f5e3b1058fb691abe16d33f57", "fusion_lat": 0.0, "rental_uris": {"android": "https://dc.lft.to/lastmile_qr_scan", "ios": "https://dc.lft.to/lastmile_qr_scan"}, "bike_id": "3ae1470f5e3b1058fb691abe16d33f57", "is_reserved": 0}, {"lat": 38.9234155, "fusion_lon": 0.0, "lon": -77.0350165, "is_disabled": 0, "type": "electric_scooter", "name": "5053589e7933bc4b0b3d3b058a617573", "fusion_lat": 0.0, "rental_uris": {"android": "https://dc.lft.to/lastmile_qr_scan", "ios": "https://dc.lft.to/lastmile_qr_scan"}, "bike_id": "5053589e7933bc4b0b3d3b058a617573", "is_reserved": 0}, {"lat": 38.888337, "fusion_lon": 0.0, "lon": -77.04844816666666, "is_disabled": 0, "type": "electric_scooter", "name": "d4436dab85ff79531e6d1cfb7f6495e3", "fusion_lat": 0.0, "rental_uris": {"android": "https://dc.lft.to/lastmile_qr_scan", "ios": "https://dc.lft.to/lastmile_qr_scan"}, "bike_id": "d4436dab85ff79531e6d1cfb7f6495e3", "is_reserved": 0},