{"data": {"bikes": [{"bike_id": "bc1414d788db5666912069250ae0a1f1", "type": "electric_scooter", "is_disabled": 0, "lat": 38.90975233333333, "rental_uris": {"ios": "https://dc.lft.to/lastmile_qr_scan", "android": "https://dc.lft.to/lastmile_qr_scan"}, "is_reserved": 0, "fusion_lon": 0.0, "fusion_lat": 0.0, "lon": -77.02194066666667, "name": "bc1414d788db5666912069250ae0a1f1"}, {"bike_id": "137c72a7ae6d2420d1c9ee65a1683671", "type": "electric_scooter", "is_disabled": 0, "lat": 38.909469333333334, "rental_uris": {"ios": "https://dc.lft.to/lastmile_qr_scan", "android": "https://dc.lft.to/lastmile_qr_scan"}, "is_reserved": 0, "fusion_lon": 0.0, "fusion_lat": 0.0, "lon": -77.05563766666667, "name": "137c72a7ae6d2420d1c9ee65a1683671"}, {"bike_id": "dee547789cb743778759ba0174578c2f", "type": "electric_scooter", "is_disabled": 0, "lat": 38.8662985, "rental_uris": {"ios": "https://dc.lft.to/lastmile_qr_scan", "android": "https://dc.lft.to/lastmile_qr_scan"}, "is_reserved": 0, "fusion_lon": 0.0, "fusion_lat": 0.0, "lon": -76.98712466666667, "name": "dee547789cb743778759ba0174578c2f"}, {"bike_id": "2e00bb520209eea3114bace743388e4a", "type": "electric_scooter", "is_disabled": 0, "lat": 38.922863, "rental_uris": {"ios": "https://dc.lft.to/lastmile_qr_scan", "android": "https://dc.lft.to/lastmile_qr_scan"}, "is_reserved": 0, "fusion_lon": 0.0, "fusion_lat": 0.0, "lon": -77.04469666666667, "name": "2e00bb520209eea3114bace743388e4a"}, {"bike_id": "308a8a60f0b3be224f08b2b15e6dd588", "type": "electric_scooter", "is_disabled": 0, "lat": 38.906866, "rental_uris": {"ios": "https://dc.lft.to/lastmile_qr_scan", "android": "https://dc.lft.to/lastmile_qr_scan"}, "is_reserved": 0, "fusion_lon": 0.0, "fusion_lat": 0.0, "lon": -77.02693466666666, "name": "308a8a60f0b3be224f08b2b15e6dd588"}, {"bike_id": "e392fe67058377a5c8d415cd99e9cf2d", "type": "electric_scooter", "is_disabled": 0, "lat": 38.89639316666667, "rental_uris": {"ios": "https://dc.lft.to/lastmile_qr_scan", "android": "https://dc.lft.to/lastmile_qr_scan"}, "is_reserved": 0, "fusion_lon": 0.0, "fusion_lat": 0.0, "lon": -77.07094416666666, "name": "e392fe67058377a5c8d415cd99e9cf2d"}, {"bike_id": "668961d8a39be0d736df796129cf7bbc", "type": "electric_scooter", "is_disabled": 0, "lat": 38.91029616666667, "rental_uris": {"ios": "https://dc.lft.to/lastmile_qr_scan", "android": "https://dc.lft.to/lastmile_qr_scan"}, "is_reserved": 0, "fusion_lon": 0.0, "fusion_lat": 0.0, "lon": -77.031759, "name": "668961d8a39be0d736df796129cf7bbc"}, {"bike_id": "1aca5e7d98d71a1bbc8829676a8c39ba", "type": "electric_scooter", "is_disabled": 0, "lat": 38.902431166666666, "rental_uris": {"ios": "https://dc.lft.to/lastmile_qr_scan", "android": "https://dc.lft.to/lastmile_qr_scan"}, "is_reserved": 0, "fusion_lon": 0.0, "fusion_lat": 0.0, "lon": -77.03356533333333, "name": "1aca5e7d98d71a1bbc8829676a8c39ba"}, {"bike_id": "d0a4ff18adf8bc8c05df519373cb0f93", "type": "electric_scooter", "is_disabled": 0, "lat": 38.91968116666666, "rental_uris": {"ios": "https://dc.lft.to/lastmile_qr_scan", "android": "https://dc.lft.to/lastmile_qr_scan"}, "is_reserved": 0, "fusion_lon": 0.0, "fusion_lat": 0.0, "lon": -77.03956, "name": "d0a4ff18adf8bc8c05df519373cb0f93"}, {"bike_id": "d68e7ef19524a83490fbd5348d2d9aca", "type": "electric_bike", "is_disabled": 0, "lat": 38.9314545, "rental_uris": {"ios": "https://dc.lft.to/lastmile_qr_scan", "android": "https://dc.lft.to/lastmile_qr_scan"}, "is_reserved": 0, "fusion_lon": 0.0, "fusion_lat": 0.0, "lon": -77.07849066666667, "name": "d68e7ef19524a83490fbd5348d2d9aca"}, {"bike_id": "b6f3280b71fdb617b4fbbae33c59a8cb", "type": "electric_scooter", "is_disabled": 0, "lat": 38.88780033333333, "rental_uris": {"ios": "https://dc.lft.to/lastmile_qr_scan", "android": "https://dc.lft.to/lastmile_qr_scan"}, "is_reserved": 0, "fusion_lon": 0.0, "fusion_lat": 0.0, "lon": -76.9552915, "name": "b6f3280b71fdb617b4fbbae33c59a8cb"}, {"bike_id": "19f8ce4157ec1f6514870cab828de6f8", "type": "electric_scooter", "is_disabled": 0, "lat": 38.907966, "rental_uris": {"ios": "https://dc.lft.to/lastmile_qr_scan", "android": "https://dc.lft.to/lastmile_qr_scan"}, "is_reserved": 0, "fusion_lon": 0.0, "fusion_lat": 0.0, "lon": -77.04822133333333, "name": "19f8ce4157ec1f6514870cab828de6f8"}, {"bike_id": "c1bceeedbe9635b851bfe15b1e4bba6e", "type": "electric_scooter", "is_disabled": 0, "lat": 38.915610666666666, "rental_uris": {"ios": "https://dc.lft.to/lastmile_qr_scan", "android": "https://dc.lft.to/lastmile_qr_scan"}, "is_reserved": 0, "fusion_lon": 0.0, "fusion_lat": 0.0, "lon": -77.03258766666667, "name": "c1bceeedbe9635b851bfe15b1e4bba6e"}, {"bike_id": "8baabc50ea7a8d14e6e2700534801564", "type": "electric_scooter", "is_disabled": 0, "lat": 38.908764833333336, "rental_uris": {"ios": "https://dc.lft.to/lastmile_qr_scan", "android": "https://dc.lft.to/lastmile_qr_scan"}, "is_reserved": 0, "fusion_lon": 0.0, "fusion_lat": 0.0, "lon": -76.99769466666666, "name": "8baabc50ea7a8d14e6e2700534801564"}, {"bike_id": "f17f15b4a09e3dfc2967e862f79fd892", "type": "electric_scooter", "is_disabled": 0, "lat": 38.90961866666667, "rental_uris": {"ios": "https://dc.lft.to/lastmile_qr_scan", "android": "https://dc.lft.to/lastmile_qr_scan"}, "is_reserved": 0, "fusion_lon": 0.0, "fusion_lat": 0.0, "lon": -77.0346795, "name": "f17f15b4a09e3dfc2967e862f79fd892"}, {"bike_id": "e46d8fbb3eb3a05c07444b34827a3b44", "type": "electric_scooter", "is_disabled": 0, "lat": 38.94315316666667, "rental_uris": {"ios": "https://dc.lft.to/lastmile_qr_scan", "android": "https://dc.lft.to/lastmile_qr_scan"}, "is_reserved": 0, "fusion_lon": 0.0, "fusion_lat": 0.0, "lon": -77.06207483333333, "name": "e46d8fbb3eb3a05c07444b34827a3b44"}, {"bike_id": "126f97030c6820e7974925ec747df2f5", "type": "electric_scooter", "is_disabled": 0, "lat": 38.892232166666666, "rental_uris": {"ios": "https://dc.lft.to/lastmile_qr_scan", "android": "https://dc.lft.to/lastmile_qr_scan"}, "is_reserved": 0, "fusion_lon": 0.0, "fusion_lat": 0.0, "lon": -77.04366416666667, "name": "126f97030c6820e7974925ec747df2f5"}, {"bike_id": "ab04c3cd42bae26e908bed14e8f5fc00", "type": "electric_scooter", "is_disabled": 0, "lat": 38.92192683333333, "rental_uris": {"ios": "https://dc.lft.to/lastmile_qr_scan", "android": "https://dc.lft.to/lastmile_qr_scan"}, "is_reserved": 0, "fusion_lon": 0.0, "fusion_lat": 0.0, "lon": -77.0197135, "name": "ab04c3cd42bae26e908bed14e8f5fc00"}, {"bike_id": "feb328157ed2f2c0cfd0bcfe5a7c2012", "type": "electric_scooter", "is_disabled": 0, "lat": 38.91851, "rental_uris": {"ios": "https://dc.lft.to/lastmile_qr_scan", "android": "https://dc.lft.to/lastmile_qr_scan"}, "is_reserved": 0, "fusion_lon": 0.0, "fusion_lat": 0.0, "lon": -76.96552866666667, "name": "feb328157ed2f2c0cfd0bcfe5a7c2012"}, {"bike_id": "4c040009165b153f021515f9b3e037b8", "type": "electric_scooter", "is_disabled": 0, "lat": 38.92221116666666, "rental_uris": {"ios": "https://dc.lft.to/lastmile_qr_scan", "android": "https://dc.lft.to/lastmile_qr_scan"}, "is_reserved": 0, "fusion_lon": 0.0, "fusion_lat": 0.0, "lon": -77.03294716666667, "name": "4c040009165b153f021515f9b3e037b8"}, {"bike_id": "6aaedd0b8ef8977581bee4a07e122eae", "type": "electric_scooter", "is_disabled": 0, "lat": 38.897309, "rental_uris": {"ios": "https://dc.lft.to/lastmile_qr_scan", "android": "https://dc.lft.to/lastmile_qr_scan"}, "is_reserved": 0, "fusion_lon": 0.0, "fusion_lat": 0.0, "lon": -77.0244555, "name": "6aaedd0b8ef8977581bee4a07e122eae"}, {"bike_id": "a10632280a96a583cd737f7ef1ac7bff", "type": "electric_scooter", "is_disabled": 0, "lat": 38.903232333333335, "rental_uris": {"ios": "https://dc.lft.to/lastmile_qr_scan", "android": "https://dc.lft.to/lastmile_qr_scan"}, "is_reserved": 0, "fusion_lon": 0.0, "fusion_lat": 0.0, "lon": -77.0516715, "name": "a10632280a96a583cd737f7ef1ac7bff"}, {"bike_id": "5b4e01dac4c682ef0cb3c6aade0e512f", "type": "electric_scooter", "is_disabled": 0, "lat": 38.911314833333336, "rental_uris": {"ios": "https://dc.lft.to/lastmile_qr_scan", "android": "https://dc.lft.to/lastmile_qr_scan"}, "is_reserved": 0, "fusion_lon": 0.0, "fusion_lat": 0.0, "lon": -77.03779016666667, "name": "5b4e01dac4c682ef0cb3c6aade0e512f"}, {"bike_id": "54cfbb61cbe350de6562ed15280fbe98", "type": "electric_scooter", "is_disabled": 0, "lat": 38.9187465, "rental_uris": {"ios": "https://dc.lft.to/lastmile_qr_scan", "android": "https://dc.lft.to/lastmile_qr_scan"}, "is_reserved": 0, "fusion_lon": 0.0, "fusion_lat": 0.0, "lon": -77.03568533333333, "name": "54cfbb61cbe350de6562ed15280fbe98"}, {"bike_id": "e1062ddc3288a561168a8a5b1d3cf218", "type": "electric_bike", "is_disabled": 0, "lat": 38.8974525, "rental_uris": {"ios": "https://dc.lft.to/lastmile_qr_scan", "android": "https://dc.lft.to/lastmile_qr_scan"}, "is_reserved": 0, "fusion_lon": 0.0, "fusion_lat": 0.0, "lon": -76.92040283333333, "name": "e1062ddc3288a561168a8a5b1d3cf218"}, {"bike_id": "cc10c3ef04881feddcb5067e8a2b6109", "type": "electric_scooter", "is_disabled": 0, "lat": 38.91763066666667, "rental_uris": {"ios": "https://dc.lft.to/lastmile_qr_scan", "android": "https://dc.lft.to/lastmile_qr_scan"}, "is_reserved": 0, "fusion_lon": 0.0, "fusion_lat": 0.0, "lon": -77.038625, "name": "cc10c3ef04881feddcb5067e8a2b6109"}, {"bike_id": "1c55fa86b1e8d98794fd8e10e88f9bd1", "type": "electric_scooter", "is_disabled": 0, "lat": 38.91177283333333, "rental_uris": {"ios": "https://dc.lft.to/lastmile_qr_scan", "android": "https://dc.lft.to/lastmile_qr_scan"}, "is_reserved": 0, "fusion_lon": 0.0, "fusion_lat": 0.0, "lon": -77.03182983333333, "name": "1c55fa86b1e8d98794fd8e10e88f9bd1"}, {"bike_id": "3bf588c3478d908fa43258aeba583dc9", "type": "electric_scooter", "is_disabled": 0, "lat": 38.89203466666667, "rental_uris": {"ios": "https://dc.lft.to/lastmile_qr_scan", "android": "https://dc.lft.to/lastmile_qr_scan"}, "is_reserved": 0, "fusion_lon": 0.0, "fusion_lat": 0.0, "lon": -77.025011, "name": "3bf588c3478d908fa43258aeba583dc9"}, {"bike_id": "922a1cba90128afd160cbaa7557f7806", "type": "electric_scooter", "is_disabled": 0, "lat": 38.9280355, "rental_uris": {"ios": "https://dc.lft.to/lastmile_qr_scan", "android": "https://dc.lft.to/lastmile_qr_scan"}, "is_reserved": 0, "fusion_lon": 0.0, "fusion_lat": 0.0, "lon": -77.0432575, "name": "922a1cba90128afd160cbaa7557f7806"}, {"bike_id": "c4fc401422fc3f455dec6bf55e81cfc1", "type": "electric_scooter", "is_disabled": 0, "lat": 38.91430533333333, "rental_uris": {"ios": "https://dc.lft.to/lastmile_qr_scan", "android": "https://dc.lft.to/lastmile_qr_scan"}, "is_reserved": 0, "fusion_lon": 0.0, "fusion_lat": 0.0, "lon": -77.0219275, "name": "c4fc401422fc3f455dec6bf55e81cfc1"}, {"bike_id": "c9d3f44c8a4c0702953c0bd80a0fe255", "type": "electric_scooter", "is_disabled": 0, "lat": 38.91574333333333, "rental_uris": {"ios": "https://dc.lft.to/lastmile_qr_scan", "android": "https://dc.lft.to/lastmile_qr_scan"}, "is_reserved": 0, "fusion_lon": 0.0, "fusion_lat": 0.0, "lon": -77.04460566666667, "name": "c9d3f44c8a4c0702953c0bd80a0fe255"}, {"bike_id": "e3f6e8e75f6cd20704370e971698dfd0", "type": "electric_scooter", "is_disabled": 0, "lat": 38.91826783333333, "rental_uris": {"ios": "https://dc.lft.to/lastmile_qr_scan", "android": "https://dc.lft.to/lastmile_qr_scan"}, "is_reserved": 0, "fusion_lon": 0.0, "fusion_lat": 0.0, "lon": -77.04942733333333, "name": "e3f6e8e75f6cd20704370e971698dfd0"}, {"bike_id": "d7b819e4324d1d9023fb59e293a7ca79", "type": "electric_scooter", "is_disabled": 0, "lat": 38.90068483333334, "rental_uris": {"ios": "https://dc.lft.to/lastmile_qr_scan", "android": "https://dc.lft.to/lastmile_qr_scan"}, "is_reserved": 0, "fusion_lon": 0.0, "fusion_lat": 0.0, "lon": -76.9273875, "name": "d7b819e4324d1d9023fb59e293a7ca79"}, {"bike_id": "fa6c85df59bbbd62d4baa081cd8ec2dd", "type": "electric_scooter", "is_disabled": 0, "lat": 38.9500765, "rental_uris": {"ios": "https://dc.lft.to/lastmile_qr_scan", "android": "https://dc.lft.to/lastmile_qr_scan"}, "is_reserved": 0, "fusion_lon": 0.0, "fusion_lat": 0.0, "lon": -77.01831983333334, "name": "fa6c85df59bbbd62d4baa081cd8ec2dd"}, {"bike_id": "fb5639beccfde1d4c65c51b98cb91ffe", "type": "electric_scooter", "is_disabled": 0, "lat": 38.917116, "rental_uris": {"ios": "https://dc.lft.to/lastmile_qr_scan", "android": "https://dc.lft.to/lastmile_qr_scan"}, "is_reserved": 0, "fusion_lon": 0.0, "fusion_lat": 0.0, "lon": -77.03483783333333, "name": "fb5639beccfde1d4c65c51b98cb91ffe"}, {"bike_id": "18d89197ce409d8ddf419cb073648393", "type": "electric_scooter", "is_disabled": 0, "lat": 38.90503183333333, "rental_uris": {"ios": "https://dc.lft.to/lastmile_qr_scan", "android": "https://dc.lft.to/lastmile_qr_scan"}, "is_reserved": 0, "fusion_lon": 0.0, "fusion_lat": 0.0, "lon": -77.068813, "name": "18d89197ce409d8ddf419cb073648393"}, {"bike_id": "8f1a039fb1befae180e61d5b86ffaf63", "type": "electric_scooter", "is_disabled": 0, "lat": 38.91649, "rental_uris": {"ios": "https://dc.lft.to/lastmile_qr_scan", "android": "https://dc.lft.to/lastmile_qr_scan"}, "is_reserved": 0, "fusion_lon": 0.0, "fusion_lat": 0.0, "lon": -77.03208233333334, "name": "8f1a039fb1befae180e61d5b86ffaf63"}, {"bike_id": "af289c3604920be614271582cfde3b49", "type": "electric_scooter", "is_disabled": 0, "lat": 38.87634333333333, "rental_uris": {"ios": "https://dc.lft.to/lastmile_qr_scan", "android": "https://dc.lft.to/lastmile_qr_scan"}, "is_reserved": 0, "fusion_lon": 0.0, "fusion_lat": 0.0, "lon": -76.9652525, "name": "af289c3604920be614271582cfde3b49"}, {"bike_id": "bf313fba2d0f726ada9be38bdae8c2bd", "type": "electric_scooter", "is_disabled": 0, "lat": 38.9393715, "rental_uris": {"ios": "https://dc.lft.to/lastmile_qr_scan", "android": "https://dc.lft.to/lastmile_qr_scan"}, "is_reserved": 0, "fusion_lon": 0.0, "fusion_lat": 0.0, "lon": -77.03681183333333, "name": "bf313fba2d0f726ada9be38bdae8c2bd"}, {"bike_id": "9a5b35212ad8fc5c0fdee6521cc65bc3", "type": "electric_scooter", "is_disabled": 0, "lat": 38.906007833333334, "rental_uris": {"ios": "https://dc.lft.to/lastmile_qr_scan", "android": "https://dc.lft.to/lastmile_qr_scan"}, "is_reserved": 0, "fusion_lon": 0.0, "fusion_lat": 0.0, "lon": -77.007237, "name": "9a5b35212ad8fc5c0fdee6521cc65bc3"}, {"bike_id": "0dc0ec26f8a794e59865c68201558d52", "type": "electric_scooter", "is_disabled": 0, "lat": 38.900400166666664, "rental_uris": {"ios": "https://dc.lft.to/lastmile_qr_scan", "android": "https://dc.lft.to/lastmile_qr_scan"}, "is_reserved": 0, "fusion_lon": 0.0, "fusion_lat": 0.0, "lon": -77.0131595, "name": "0dc0ec26f8a794e59865c68201558d52"}, {"bike_id": "80638bd4af75baeac932fa72110068bd", "type": "electric_bike", "is_disabled": 0, "lat": 38.908325166666664, "rental_uris": {"ios": "https://dc.lft.to/lastmile_qr_scan", "android": "https://dc.lft.to/lastmile_qr_scan"}, "is_reserved": 0, "fusion_lon": 0.0, "fusion_lat": 0.0, "lon": -76.941583, "name": "80638bd4af75baeac932fa72110068bd"}, {"bike_id": "b504998c452fb8dc21e3e62ba3a4f9a0", "type": "electric_scooter", "is_disabled": 0, "lat": 38.908340333333335, "rental_uris": {"ios": "https://dc.lft.to/lastmile_qr_scan", "android": "https://dc.lft.to/lastmile_qr_scan"}, "is_reserved": 0, "fusion_lon": 0.0, "fusion_lat": 0.0, "lon": -77.02202416666667, "name": "b504998c452fb8dc21e3e62ba3a4f9a0"}, {"bike_id": "e68f7af61ac854f6f4aa5b74da87b344", "type": "electric_scooter", "is_disabled": 0, "lat": 38.89345983333333, "rental_uris": {"ios": "https://dc.lft.to/lastmile_qr_scan", "android": "https://dc.lft.to/lastmile_qr_scan"}, "is_reserved": 0, "fusion_lon": 0.0, "fusion_lat": 0.0, "lon": -76.99265316666667, "name": "e68f7af61ac854f6f4aa5b74da87b344"}, {"bike_id": "97e4fa0d29f3cc9376d88b1a93e18dc2", "type": "electric_bike", "is_disabled": 0, "lat": 38.8813595, "rental_uris": {"ios": "https://dc.lft.to/lastmile_qr_scan", "android": "https://dc.lft.to/lastmile_qr_scan"}, "is_reserved": 0, "fusion_lon": 0.0, "fusion_lat": 0.0, "lon": -77.09346283333333, "name": "97e4fa0d29f3cc9376d88b1a93e18dc2"}, {"bike_id": "78ab4e13dc95e3482890175bd9fc8a28", "type": "electric_bike", "is_disabled": 0, "lat": 39.0549915, "rental_uris": {"ios": "https://dc.lft.to/lastmile_qr_scan", "android": "https://dc.lft.to/lastmile_qr_scan"}, "is_reserved": 0, "fusion_lon": 0.0, "fusion_lat": 0.0, "lon": -77.11783166666666, "name": "78ab4e13dc95e3482890175bd9fc8a28"}, {"bike_id": "7338bd53cc8ddd9f698454953df84a43", "type": "electric_bike", "is_disabled": 0, "lat": 39.03742033333333, "rental_uris": {"ios": "https://dc.lft.to/lastmile_qr_scan", "android": "https://dc.lft.to/lastmile_qr_scan"}, "is_reserved": 0, "fusion_lon": 0.0, "fusion_lat": 0.0, "lon": -77.05481016666667, "name": "7338bd53cc8ddd9f698454953df84a43"}, {"bike_id": "ffe3d37a91201a635d82e9f1a27f783a", "type": "electric_scooter", "is_disabled": 0, "lat": 38.87757633333333, "rental_uris": {"ios": "https://dc.lft.to/lastmile_qr_scan", "android": "https://dc.lft.to/lastmile_qr_scan"}, "is_reserved": 0, "fusion_lon": 0.0, "fusion_lat": 0.0, "lon": -76.9972595, "name": "ffe3d37a91201a635d82e9f1a27f783a"}, {"bike_id": "2d76ddcf2f700b5c34659f920fec031c", "type": "electric_scooter", "is_disabled": 0, "lat": 38.920186666666666, "rental_uris": {"ios": "https://dc.lft.to/lastmile_qr_scan", "android": "https://dc.lft.to/lastmile_qr_scan"}, "is_reserved": 0, "fusion_lon": 0.0, "fusion_lat": 0.0, "lon": -77.04193616666667, "name": "2d76ddcf2f700b5c34659f920fec031c"}, {"bike_id": "dab071216c87359471ba2ff7fb93cebb", "type": "electric_scooter", "is_disabled": 0, "lat": 38.868315333333335, "rental_uris": {"ios": "https://dc.lft.to/lastmile_qr_scan", "android": "https://dc.lft.to/lastmile_qr_scan"}, "is_reserved": 0, "fusion_lon": 0.0, "fusion_lat": 0.0, "lon": -77.01148266666667, "name": "dab071216c87359471ba2ff7fb93cebb"}, {"bike_id": "78062d3bb3f2dd93107d22c288f867ef", "type": "electric_scooter", "is_disabled": 0, "lat": 38.91709816666667, "rental_uris": {"ios": "https://dc.lft.to/lastmile_qr_scan", "android": "https://dc.lft.to/lastmile_qr_scan"}, "is_reserved": 0, "fusion_lon": 0.0, "fusion_lat": 0.0, "lon": -77.023475, "name": "78062d3bb3f2dd93107d22c288f867ef"}, {"bike_id": "5fa1cf1c40649eb59980b5ab9304909b", "type": "electric_scooter", "is_disabled": 0, "lat": 38.90980616666667, "rental_uris": {"ios": "https://dc.lft.to/lastmile_qr_scan", "android": "https://dc.lft.to/lastmile_qr_scan"}, "is_reserved": 0, "fusion_lon": 0.0, "fusion_lat": 0.0, "lon": -77.03232933333334, "name": "5fa1cf1c40649eb59980b5ab9304909b"}, {"bike_id": "25a80041e6597c1562853f0743093152", "type": "electric_scooter", "is_disabled": 0, "lat": 38.907168166666665, "rental_uris": {"ios": "https://dc.lft.to/lastmile_qr_scan", "android": "https://dc.lft.to/lastmile_qr_scan"}, "is_reserved": 0, "fusion_lon": 0.0, "fusion_lat": 0.0, "lon": -77.043516, "name": "25a80041e6597c1562853f0743093152"}, {"bike_id": "c0d57467f4b745bac200c092d1c31719", "type": "electric_scooter", "is_disabled": 0, "lat": 38.95710283333333, "rental_uris": {"ios": "https://dc.lft.to/lastmile_qr_scan", "android": "https://dc.lft.to/lastmile_qr_scan"}, "is_reserved": 0, "fusion_lon": 0.0, "fusion_lat": 0.0, "lon": -77.0773855, "name": "c0d57467f4b745bac200c092d1c31719"}, {"bike_id": "0991b533ac0021feb5dac5a1c8b6bf43", "type": "electric_scooter", "is_disabled": 0, "lat": 38.8842565, "rental_uris": {"ios": "https://dc.lft.to/lastmile_qr_scan", "android": "https://dc.lft.to/lastmile_qr_scan"}, "is_reserved": 0, "fusion_lon": 0.0, "fusion_lat": 0.0, "lon": -76.95750866666667, "name": "0991b533ac0021feb5dac5a1c8b6bf43"}, {"bike_id": "f1eec4c9f127098d3635c9fab987e24e", "type": "electric_scooter", "is_disabled": 0, "lat": 38.887385333333334, "rental_uris": {"ios": "https://dc.lft.to/lastmile_qr_scan", "android": "https://dc.lft.to/lastmile_qr_scan"}, "is_reserved": 0, "fusion_lon": 0.0, "fusion_lat": 0.0, "lon": -77.03159166666667, "name": "f1eec4c9f127098d3635c9fab987e24e"}, {"bike_id": "f04593e16aa13f2f9c03c5ec592d8625", "type": "electric_scooter", "is_disabled": 0, "lat": 38.92270833333333, "rental_uris": {"ios": "https://dc.lft.to/lastmile_qr_scan", "android": "https://dc.lft.to/lastmile_qr_scan"}, "is_reserved": 0, "fusion_lon": 0.0, "fusion_lat": 0.0, "lon": -76.994799, "name": "f04593e16aa13f2f9c03c5ec592d8625"}, {"bike_id": "18d3c8f3f59a15f8b469617dc2590266", "type": "electric_bike", "is_disabled": 0, "lat": 38.90013283333333, "rental_uris": {"ios": "https://dc.lft.to/lastmile_qr_scan", "android": "https://dc.lft.to/lastmile_qr_scan"}, "is_reserved": 0, "fusion_lon": 0.0, "fusion_lat": 0.0, "lon": -77.075449, "name": "18d3c8f3f59a15f8b469617dc2590266"}, {"bike_id": "858db4834953b26df628b3e59dff2646", "type": "electric_scooter", "is_disabled": 0, "lat": 38.894698166666664, "rental_uris": {"ios": "https://dc.lft.to/lastmile_qr_scan", "android": "https://dc.lft.to/lastmile_qr_scan"}, "is_reserved": 0, "fusion_lon": 0.0, "fusion_lat": 0.0, "lon": -77.02799416666667, "name": "858db4834953b26df628b3e59dff2646"}, {"bike_id": "8df8cb38e611c8ebaadfff30941bba69", "type": "electric_scooter", "is_disabled": 0, "lat": 38.905687666666665, "rental_uris": {"ios": "https://dc.lft.to/lastmile_qr_scan", "android": "https://dc.lft.to/lastmile_qr_scan"}, "is_reserved": 0, "fusion_lon": 0.0, "fusion_lat": 0.0, "lon": -77.00566616666667, "name": "8df8cb38e611c8ebaadfff30941bba69"}, {"bike_id": "15715ea0f78adc89acb69d3c6aee6e4b", "type": "electric_bike", "is_disabled": 0, "lat": 38.804139, "rental_uris": {"ios": "https://dc.lft.to/lastmile_qr_scan", "android": "https://dc.lft.to/lastmile_qr_scan"}, "is_reserved": 0, "fusion_lon": 0.0, "fusion_lat": 0.0, "lon": -77.05553583333334, "name": "15715ea0f78adc89acb69d3c6aee6e4b"}, {"bike_id": "9aff22c0dee3c0b3a2e04101b13d6be9", "type": "electric_scooter", "is_disabled": 0, "lat": 38.9339825, "rental_uris": {"ios": "https://dc.lft.to/lastmile_qr_scan", "android": "https://dc.lft.to/lastmile_qr_scan"}, "is_reserved": 0, "fusion_lon": 0.0, "fusion_lat": 0.0, "lon": -77.03217883333333, "name": "9aff22c0dee3c0b3a2e04101b13d6be9"}, {"bike_id": "c97b32df66df031e7161d5e941f6a827", "type": "electric_scooter", "is_disabled": 0, "lat": 38.917108999999996, "rental_uris": {"ios": "https://dc.lft.to/lastmile_qr_scan", "android": "https://dc.lft.to/lastmile_qr_scan"}, "is_reserved": 0, "fusion_lon": 0.0, "fusion_lat": 0.0, "lon": -77.03489433333333, "name": "c97b32df66df031e7161d5e941f6a827"}, {"bike_id": "c7e25342b4657d8ac12f4323726157fc", "type": "electric_scooter", "is_disabled": 0, "lat": 38.919874166666666, "rental_uris": {"ios": "https://dc.lft.to/lastmile_qr_scan", "android": "https://dc.lft.to/lastmile_qr_scan"}, "is_reserved": 0, "fusion_lon": 0.0, "fusion_lat": 0.0, "lon": -77.01202866666667, "name": "c7e25342b4657d8ac12f4323726157fc"}, {"bike_id": "21e1e57ac8de17598d5f6c4c3db44059", "type": "electric_scooter", "is_disabled": 0, "lat": 38.91974783333333, "rental_uris": {"ios": "https://dc.lft.to/lastmile_qr_scan", "android": "https://dc.lft.to/lastmile_qr_scan"}, "is_reserved": 0, "fusion_lon": 0.0, "fusion_lat": 0.0, "lon": -77.04220333333333, "name": "21e1e57ac8de17598d5f6c4c3db44059"}, {"bike_id": "6a61a21f83c1f5cfafc31340fe095425", "type": "electric_bike", "is_disabled": 0, "lat": 38.955353333333335, "rental_uris": {"ios": "https://dc.lft.to/lastmile_qr_scan", "android": "https://dc.lft.to/lastmile_qr_scan"}, "is_reserved": 0, "fusion_lon": 0.0, "fusion_lat": 0.0, "lon": -76.96819433333333, "name": "6a61a21f83c1f5cfafc31340fe095425"}, {"bike_id": "999c7791416c7b405d7cc518526e564c", "type": "electric_scooter", "is_disabled": 0, "lat": 38.906363, "rental_uris": {"ios": "https://dc.lft.to/lastmile_qr_scan", "android": "https://dc.lft.to/lastmile_qr_scan"}, "is_reserved": 0, "fusion_lon": 0.0, "fusion_lat": 0.0, "lon": -77.06902283333334, "name": "999c7791416c7b405d7cc518526e564c"}, {"bike_id": "649479dbf1fd98cf00582432c4652ace", "type": "electric_bike", "is_disabled": 0, "lat": 38.81166533333333, "rental_uris": {"ios": "https://dc.lft.to/lastmile_qr_scan", "android": "https://dc.lft.to/lastmile_qr_scan"}, "is_reserved": 0, "fusion_lon": 0.0, "fusion_lat": 0.0, "lon": -77.0695615, "name": "649479dbf1fd98cf00582432c4652ace"}, {"bike_id": "0d5bf0bfd1ccf7af9858ad386e72efd8", "type": "electric_scooter", "is_disabled": 0, "lat": 38.905531333333336, "rental_uris": {"ios": "https://dc.lft.to/lastmile_qr_scan", "android": "https://dc.lft.to/lastmile_qr_scan"}, "is_reserved": 0, "fusion_lon": 0.0, "fusion_lat": 0.0, "lon": -76.99620916666667, "name": "0d5bf0bfd1ccf7af9858ad386e72efd8"}, {"bike_id": "703adf9330a751bc206361d13ae7a585", "type": "electric_scooter", "is_disabled": 0, "lat": 38.917198666666664, "rental_uris": {"ios": "https://dc.lft.to/lastmile_qr_scan", "android": "https://dc.lft.to/lastmile_qr_scan"}, "is_reserved": 0, "fusion_lon": 0.0, "fusion_lat": 0.0, "lon": -77.02899716666667, "name": "703adf9330a751bc206361d13ae7a585"}, {"bike_id": "6401ad69ccfa760f819511ee81b80623", "type": "electric_scooter", "is_disabled": 0, "lat": 38.91591533333333, "rental_uris": {"ios": "https://dc.lft.to/lastmile_qr_scan", "android": "https://dc.lft.to/lastmile_qr_scan"}, "is_reserved": 0, "fusion_lon": 0.0, "fusion_lat": 0.0, "lon": -77.0019775, "name": "6401ad69ccfa760f819511ee81b80623"}, {"bike_id": "a54a55c6f428d391069b557744fb2b55", "type": "electric_scooter", "is_disabled": 0, "lat": 38.90951666666667, "rental_uris": {"ios": "https://dc.lft.to/lastmile_qr_scan", "android": "https://dc.lft.to/lastmile_qr_scan"}, "is_reserved": 0, "fusion_lon": 0.0, "fusion_lat": 0.0, "lon": -77.03450266666667, "name": "a54a55c6f428d391069b557744fb2b55"}, {"bike_id": "2d9845bc35d45ac30306d27906013018", "type": "electric_scooter", "is_disabled": 0, "lat": 38.899731833333334, "rental_uris": {"ios": "https://dc.lft.to/lastmile_qr_scan", "android": "https://dc.lft.to/lastmile_qr_scan"}, "is_reserved": 0, "fusion_lon": 0.0, "fusion_lat": 0.0, "lon": -76.98308466666667, "name": "2d9845bc35d45ac30306d27906013018"}, {"bike_id": "edcaffadbdd75c13cb5b627975aed6de", "type": "electric_scooter", "is_disabled": 0, "lat": 38.89739516666667, "rental_uris": {"ios": "https://dc.lft.to/lastmile_qr_scan", "android": "https://dc.lft.to/lastmile_qr_scan"}, "is_reserved": 0, "fusion_lon": 0.0, "fusion_lat": 0.0, "lon": -76.947304, "name": "edcaffadbdd75c13cb5b627975aed6de"}, {"bike_id": "4cbe2db1affd75a41103533375bf7187", "type": "electric_bike", "is_disabled": 0, "lat": 38.85892783333333, "rental_uris": {"ios": "https://dc.lft.to/lastmile_qr_scan", "android": "https://dc.lft.to/lastmile_qr_scan"}, "is_reserved": 0, "fusion_lon": 0.0, "fusion_lat": 0.0, "lon": -77.11855416666667, "name": "4cbe2db1affd75a41103533375bf7187"}, {"bike_id": "e17e4cd70d17dbacebdec0aebaa592b3", "type": "electric_scooter", "is_disabled": 0, "lat": 38.90472166666667, "rental_uris": {"ios": "https://dc.lft.to/lastmile_qr_scan", "android": "https://dc.lft.to/lastmile_qr_scan"}, "is_reserved": 0, "fusion_lon": 0.0, "fusion_lat": 0.0, "lon": -77.009186, "name": "e17e4cd70d17dbacebdec0aebaa592b3"}, {"bike_id": "e2e444d80b9bc46f178e725e15f740ae", "type": "electric_scooter", "is_disabled": 0, "lat": 38.90876983333333, "rental_uris": {"ios": "https://dc.lft.to/lastmile_qr_scan", "android": "https://dc.lft.to/lastmile_qr_scan"}, "is_reserved": 0, "fusion_lon": 0.0, "fusion_lat": 0.0, "lon": -77.02332066666666, "name": "e2e444d80b9bc46f178e725e15f740ae"}, {"bike_id": "af4f0860183356f63bc9dabc469eed62", "type": "electric_scooter", "is_disabled": 0, "lat": 38.945635333333335, "rental_uris": {"ios": "https://dc.lft.to/lastmile_qr_scan", "android": "https://dc.lft.to/lastmile_qr_scan"}, "is_reserved": 0, "fusion_lon": 0.0, "fusion_lat": 0.0, "lon": -77.071244, "name": "af4f0860183356f63bc9dabc469eed62"}, {"bike_id": "d236aa98c82b8e19ccdef28dd31cc14e", "type": "electric_scooter", "is_disabled": 0, "lat": 38.88062883333333, "rental_uris": {"ios": "https://dc.lft.to/lastmile_qr_scan", "android": "https://dc.lft.to/lastmile_qr_scan"}, "is_reserved": 0, "fusion_lon": 0.0, "fusion_lat": 0.0, "lon": -77.02565933333334, "name": "d236aa98c82b8e19ccdef28dd31cc14e"}, {"bike_id": "f02f61da6d98e22aaf22e2c7fa7e4993", "type": "electric_scooter", "is_disabled": 0, "lat": 38.897141, "rental_uris": {"ios": "https://dc.lft.to/lastmile_qr_scan", "android": "https://dc.lft.to/lastmile_qr_scan"}, "is_reserved": 0, "fusion_lon": 0.0, "fusion_lat": 0.0, "lon": -77.02687316666666, "name": "f02f61da6d98e22aaf22e2c7fa7e4993"}, {"bike_id": "d710cca0dda61860d82e1a329ee383ca", "type": "electric_scooter", "is_disabled": 0, "lat": 38.897442833333336, "rental_uris": {"ios": "https://dc.lft.to/lastmile_qr_scan", "android": "https://dc.lft.to/lastmile_qr_scan"}, "is_reserved": 0, "fusion_lon": 0.0, "fusion_lat": 0.0, "lon": -77.0460875, "name": "d710cca0dda61860d82e1a329ee383ca"}, {"bike_id": "61771516d26e1f99677f326dcf57bb9f", "type": "electric_scooter", "is_disabled": 0, "lat": 38.934541, "rental_uris": {"ios": "https://dc.lft.to/lastmile_qr_scan", "android": "https://dc.lft.to/lastmile_qr_scan"}, "is_reserved": 0, "fusion_lon": 0.0, "fusion_lat": 0.0, "lon": -77.027663, "name": "61771516d26e1f99677f326dcf57bb9f"}, {"bike_id": "d7c787fab3f7a19fcfe8ed26147d0190", "type": "electric_scooter", "is_disabled": 0, "lat": 38.952609833333334, "rental_uris": {"ios": "https://dc.lft.to/lastmile_qr_scan", "android": "https://dc.lft.to/lastmile_qr_scan"}, "is_reserved": 0, "fusion_lon": 0.0, "fusion_lat": 0.0, "lon": -77.01960766666667, "name": "d7c787fab3f7a19fcfe8ed26147d0190"}, {"bike_id": "2154f9fa8811c23a011daa6f531845ea", "type": "electric_bike", "is_disabled": 0, "lat": 38.93729733333333, "rental_uris": {"ios": "https://dc.lft.to/lastmile_qr_scan", "android": "https://dc.lft.to/lastmile_qr_scan"}, "is_reserved": 0, "fusion_lon": 0.0, "fusion_lat": 0.0, "lon": -76.99144366666667, "name": "2154f9fa8811c23a011daa6f531845ea"}, {"bike_id": "c1c0b405898a190600a15cf21d4fd72f", "type": "electric_scooter", "is_disabled": 0, "lat": 38.866946, "rental_uris": {"ios": "https://dc.lft.to/lastmile_qr_scan", "android": "https://dc.lft.to/lastmile_qr_scan"}, "is_reserved": 0, "fusion_lon": 0.0, "fusion_lat": 0.0, "lon": -76.98574916666666, "name": "c1c0b405898a190600a15cf21d4fd72f"}, {"bike_id": "788907ace04f0a92c40329a57b79a4ff", "type": "electric_scooter", "is_disabled": 0, "lat": 38.907739666666664, "rental_uris": {"ios": "https://dc.lft.to/lastmile_qr_scan", "android": "https://dc.lft.to/lastmile_qr_scan"}, "is_reserved": 0, "fusion_lon": 0.0, "fusion_lat": 0.0, "lon": -77.031995, "name": "788907ace04f0a92c40329a57b79a4ff"}, {"bike_id": "82f59b6a2c0b95d7831556c6aa88ab78", "type": "electric_scooter", "is_disabled": 0, "lat": 38.86655566666667, "rental_uris": {"ios": "https://dc.lft.to/lastmile_qr_scan", "android": "https://dc.lft.to/lastmile_qr_scan"}, "is_reserved": 0, "fusion_lon": 0.0, "fusion_lat": 0.0, "lon": -76.98814383333334, "name": "82f59b6a2c0b95d7831556c6aa88ab78"}, {"bike_id": "760c56d007d3283645b8ecfe3b18da49", "type": "electric_scooter", "is_disabled": 0, "lat": 38.92750733333333, "rental_uris": {"ios": "https://dc.lft.to/lastmile_qr_scan", "android": "https://dc.lft.to/lastmile_qr_scan"}, "is_reserved": 0, "fusion_lon": 0.0, "fusion_lat": 0.0, "lon": -77.02537733333334, "name": "760c56d007d3283645b8ecfe3b18da49"}, {"bike_id": "f752dc062ce0c2d33a14a5ee625a0128", "type": "electric_scooter", "is_disabled": 0, "lat": 38.907111, "rental_uris": {"ios": "https://dc.lft.to/lastmile_qr_scan", "android": "https://dc.lft.to/lastmile_qr_scan"}, "is_reserved": 0, "fusion_lon": 0.0, "fusion_lat": 0.0, "lon": -77.02398766666667, "name": "f752dc062ce0c2d33a14a5ee625a0128"}, {"bike_id": "63291476eb5aacded346c0f123393122", "type": "electric_scooter", "is_disabled": 0, "lat": 38.903034, "rental_uris": {"ios": "https://dc.lft.to/lastmile_qr_scan", "android": "https://dc.lft.to/lastmile_qr_scan"}, "is_reserved": 0, "fusion_lon": 0.0, "fusion_lat": 0.0, "lon": -77.02306833333333, "name": "63291476eb5aacded346c0f123393122"}, {"bike_id": "4d74aef9bc051accd137da18241e4562", "type": "electric_bike", "is_disabled": 0, "lat": 38.983739, "rental_uris": {"ios": "https://dc.lft.to/lastmile_qr_scan", "android": "https://dc.lft.to/lastmile_qr_scan"}, "is_reserved": 0, "fusion_lon": 0.0, "fusion_lat": 0.0, "lon": -76.97208583333334, "name": "4d74aef9bc051accd137da18241e4562"}, {"bike_id": "cac6f135622dd11181e7afbb88763b4a", "type": "electric_scooter", "is_disabled": 0, "lat": 38.906505833333334, "rental_uris": {"ios": "https://dc.lft.to/lastmile_qr_scan", "android": "https://dc.lft.to/lastmile_qr_scan"}, "is_reserved": 0, "fusion_lon": 0.0, "fusion_lat": 0.0, "lon": -77.01459583333333, "name": "cac6f135622dd11181e7afbb88763b4a"}, {"bike_id": "e45112f6980a3c83349823f0c54462df", "type": "electric_scooter", "is_disabled": 0, "lat": 38.9061845, "rental_uris": {"ios": "https://dc.lft.to/lastmile_qr_scan", "android": "https://dc.lft.to/lastmile_qr_scan"}, "is_reserved": 0, "fusion_lon": 0.0, "fusion_lat": 0.0, "lon": -77.04739216666667, "name": "e45112f6980a3c83349823f0c54462df"}, {"bike_id": "e268aadf612892b27b68a960af4e9079", "type": "electric_scooter", "is_disabled": 0, "lat": 38.86690183333333, "rental_uris": {"ios": "https://dc.lft.to/lastmile_qr_scan", "android": "https://dc.lft.to/lastmile_qr_scan"}, "is_reserved": 0, "fusion_lon": 0.0, "fusion_lat": 0.0, "lon": -76.98572833333333, "name": "e268aadf612892b27b68a960af4e9079"}, {"bike_id": "8b515ccb9b2dd9a2c9c86f4f54e86c2b", "type": "electric_scooter", "is_disabled": 0, "lat": 38.918590333333334, "rental_uris": {"ios": "https://dc.lft.to/lastmile_qr_scan", "android": "https://dc.lft.to/lastmile_qr_scan"}, "is_reserved": 0, "fusion_lon": 0.0, "fusion_lat": 0.0, "lon": -77.0418345, "name": "8b515ccb9b2dd9a2c9c86f4f54e86c2b"}, {"bike_id": "53d71461d494ee952afba691c2dd12ea", "type": "electric_scooter", "is_disabled": 0, "lat": 38.8987275, "rental_uris": {"ios": "https://dc.lft.to/lastmile_qr_scan", "android": "https://dc.lft.to/lastmile_qr_scan"}, "is_reserved": 0, "fusion_lon": 0.0, "fusion_lat": 0.0, "lon": -77.0268115, "name": "53d71461d494ee952afba691c2dd12ea"}, {"bike_id": "8183eeee6b83f43617175c27d11c8191", "type": "electric_scooter", "is_disabled": 0, "lat": 38.88852383333333, "rental_uris": {"ios": "https://dc.lft.to/lastmile_qr_scan", "android": "https://dc.lft.to/lastmile_qr_scan"}, "is_reserved": 0, "fusion_lon": 0.0, "fusion_lat": 0.0, "lon": -76.92674016666666, "name": "8183eeee6b83f43617175c27d11c8191"}, {"bike_id": "2dbe573ae02446645467dce8a120599e", "type": "electric_scooter", "is_disabled": 0, "lat": 38.942725, "rental_uris": {"ios": "https://dc.lft.to/lastmile_qr_scan", "android": "https://dc.lft.to/lastmile_qr_scan"}, "is_reserved": 0, "fusion_lon": 0.0, "fusion_lat": 0.0, "lon": -77.0325285, "name": "2dbe573ae02446645467dce8a120599e"}, {"bike_id": "b6f259e79a2392234466fe395bc53c49", "type": "electric_scooter", "is_disabled": 0, "lat": 38.8787365, "rental_uris": {"ios": "https://dc.lft.to/lastmile_qr_scan", "android": "https://dc.lft.to/lastmile_qr_scan"}, "is_reserved": 0, "fusion_lon": 0.0, "fusion_lat": 0.0, "lon": -76.96980116666667, "name": "b6f259e79a2392234466fe395bc53c49"}, {"bike_id": "78dac210224c14f2248d1a0cfdf46ef7", "type": "electric_scooter", "is_disabled": 0, "lat": 38.892313333333334, "rental_uris": {"ios": "https://dc.lft.to/lastmile_qr_scan", "android": "https://dc.lft.to/lastmile_qr_scan"}, "is_reserved": 0, "fusion_lon": 0.0, "fusion_lat": 0.0, "lon": -77.0337965, "name": "78dac210224c14f2248d1a0cfdf46ef7"}, {"bike_id": "632fe37e0c6e2b425688698d47bc6fab", "type": "electric_scooter", "is_disabled": 0, "lat": 38.929226666666665, "rental_uris": {"ios": "https://dc.lft.to/lastmile_qr_scan", "android": "https://dc.lft.to/lastmile_qr_scan"}, "is_reserved": 0, "fusion_lon": 0.0, "fusion_lat": 0.0, "lon": -77.020965, "name": "632fe37e0c6e2b425688698d47bc6fab"}, {"bike_id": "bf433376c33235dd2f5e0300fe708f36", "type": "electric_scooter", "is_disabled": 0, "lat": 38.924864, "rental_uris": {"ios": "https://dc.lft.to/lastmile_qr_scan", "android": "https://dc.lft.to/lastmile_qr_scan"}, "is_reserved": 0, "fusion_lon": 0.0, "fusion_lat": 0.0, "lon": -77.028341, "name": "bf433376c33235dd2f5e0300fe708f36"}, {"bike_id": "1acaabeb2c89d892e0fc727d13386cad", "type": "electric_scooter", "is_disabled": 0, "lat": 38.902733833333336, "rental_uris": {"ios": "https://dc.lft.to/lastmile_qr_scan", "android": "https://dc.lft.to/lastmile_qr_scan"}, "is_reserved": 0, "fusion_lon": 0.0, "fusion_lat": 0.0, "lon": -77.04338583333333, "name": "1acaabeb2c89d892e0fc727d13386cad"}, {"bike_id": "1e537965b1154ffe57fab8e42e3a2bd4", "type": "electric_scooter", "is_disabled": 0, "lat": 38.874279333333334, "rental_uris": {"ios": "https://dc.lft.to/lastmile_qr_scan", "android": "https://dc.lft.to/lastmile_qr_scan"}, "is_reserved": 0, "fusion_lon": 0.0, "fusion_lat": 0.0, "lon": -76.9690715, "name": "1e537965b1154ffe57fab8e42e3a2bd4"}, {"bike_id": "d8d444870cee885fa737514a7986ba18", "type": "electric_scooter", "is_disabled": 0, "lat": 38.90751916666667, "rental_uris": {"ios": "https://dc.lft.to/lastmile_qr_scan", "android": "https://dc.lft.to/lastmile_qr_scan"}, "is_reserved": 0, "fusion_lon": 0.0, "fusion_lat": 0.0, "lon": -77.0239845, "name": "d8d444870cee885fa737514a7986ba18"}, {"bike_id": "0892210276ed223cccd366c6d41bbc7e", "type": "electric_bike", "is_disabled": 0, "lat": 38.81990116666667, "rental_uris": {"ios": "https://dc.lft.to/lastmile_qr_scan", "android": "https://dc.lft.to/lastmile_qr_scan"}, "is_reserved": 0, "fusion_lon": 0.0, "fusion_lat": 0.0, "lon": -76.9981495, "name": "0892210276ed223cccd366c6d41bbc7e"}, {"bike_id": "27f1bb537f716731c1fb7e5fe44b7127", "type": "electric_scooter", "is_disabled": 0, "lat": 38.907199166666665, "rental_uris": {"ios": "https://dc.lft.to/lastmile_qr_scan", "android": "https://dc.lft.to/lastmile_qr_scan"}, "is_reserved": 0, "fusion_lon": 0.0, "fusion_lat": 0.0, "lon": -77.0435325, "name": "27f1bb537f716731c1fb7e5fe44b7127"}, {"bike_id": "b5750cc220fd729f983c4fbfd57d4b07", "type": "electric_scooter", "is_disabled": 0, "lat": 38.902948, "rental_uris": {"ios": "https://dc.lft.to/lastmile_qr_scan", "android": "https://dc.lft.to/lastmile_qr_scan"}, "is_reserved": 0, "fusion_lon": 0.0, "fusion_lat": 0.0, "lon": -77.04860216666667, "name": "b5750cc220fd729f983c4fbfd57d4b07"}, {"bike_id": "1b097f965a26f79f67f9e6d822c15a43", "type": "electric_bike", "is_disabled": 0, "lat": 39.057869333333336, "rental_uris": {"ios": "https://dc.lft.to/lastmile_qr_scan", "android": "https://dc.lft.to/lastmile_qr_scan"}, "is_reserved": 0, "fusion_lon": 0.0, "fusion_lat": 0.0, "lon": -77.15019733333334, "name": "1b097f965a26f79f67f9e6d822c15a43"}, {"bike_id": "db7b8527eb0ec8852880ffc1bc260c4e", "type": "electric_scooter", "is_disabled": 0, "lat": 38.8924345, "rental_uris": {"ios": "https://dc.lft.to/lastmile_qr_scan", "android": "https://dc.lft.to/lastmile_qr_scan"}, "is_reserved": 0, "fusion_lon": 0.0, "fusion_lat": 0.0, "lon": -77.03348066666666, "name": "db7b8527eb0ec8852880ffc1bc260c4e"}, {"bike_id": "d346184870cb323d1ea390570efdc3bb", "type": "electric_scooter", "is_disabled": 0, "lat": 38.91650816666667, "rental_uris": {"ios": "https://dc.lft.to/lastmile_qr_scan", "android": "https://dc.lft.to/lastmile_qr_scan"}, "is_reserved": 0, "fusion_lon": 0.0, "fusion_lat": 0.0, "lon": -77.02392133333333, "name": "d346184870cb323d1ea390570efdc3bb"}, {"bike_id": "245dc6390bd273064ecf1b3a95d327b5", "type": "electric_scooter", "is_disabled": 0, "lat": 38.917078, "rental_uris": {"ios": "https://dc.lft.to/lastmile_qr_scan", "android": "https://dc.lft.to/lastmile_qr_scan"}, "is_reserved": 0, "fusion_lon": 0.0, "fusion_lat": 0.0, "lon": -77.03488383333334, "name": "245dc6390bd273064ecf1b3a95d327b5"}, {"bike_id": "f0b03747abdaf4b1e555a39d81170800", "type": "electric_scooter", "is_disabled": 0, "lat": 38.90801733333333, "rental_uris": {"ios": "https://dc.lft.to/lastmile_qr_scan", "android": "https://dc.lft.to/lastmile_qr_scan"}, "is_reserved": 0, "fusion_lon": 0.0, "fusion_lat": 0.0, "lon": -77.01861466666666, "name": "f0b03747abdaf4b1e555a39d81170800"}, {"bike_id": "7f6e5891a2a51d565cfc6f22e588a8c8", "type": "electric_scooter", "is_disabled": 0, "lat": 38.90553233333333, "rental_uris": {"ios": "https://dc.lft.to/lastmile_qr_scan", "android": "https://dc.lft.to/lastmile_qr_scan"}, "is_reserved": 0, "fusion_lon": 0.0, "fusion_lat": 0.0, "lon": -77.003059, "name": "7f6e5891a2a51d565cfc6f22e588a8c8"}, {"bike_id": "51db6d71d80e6111d91f87b371c5c76e", "type": "electric_scooter", "is_disabled": 0, "lat": 38.857009, "rental_uris": {"ios": "https://dc.lft.to/lastmile_qr_scan", "android": "https://dc.lft.to/lastmile_qr_scan"}, "is_reserved": 0, "fusion_lon": 0.0, "fusion_lat": 0.0, "lon": -76.98966666666666, "name": "51db6d71d80e6111d91f87b371c5c76e"}, {"bike_id": "e14ff13aeb10d115a726e464904b4014", "type": "electric_scooter", "is_disabled": 0, "lat": 38.9010785, "rental_uris": {"ios": "https://dc.lft.to/lastmile_qr_scan", "android": "https://dc.lft.to/lastmile_qr_scan"}, "is_reserved": 0, "fusion_lon": 0.0, "fusion_lat": 0.0, "lon": -77.02800166666667, "name": "e14ff13aeb10d115a726e464904b4014"}, {"bike_id": "d2bb33dfd78e0a7fdbc1d3c018510512", "type": "electric_scooter", "is_disabled": 0, "lat": 38.9014395, "rental_uris": {"ios": "https://dc.lft.to/lastmile_qr_scan", "android": "https://dc.lft.to/lastmile_qr_scan"}, "is_reserved": 0, "fusion_lon": 0.0, "fusion_lat": 0.0, "lon": -77.04379033333333, "name": "d2bb33dfd78e0a7fdbc1d3c018510512"}, {"bike_id": "8b5279cfb212cc5801f70b4e0a50f3d1", "type": "electric_scooter", "is_disabled": 0, "lat": 38.90552783333333, "rental_uris": {"ios": "https://dc.lft.to/lastmile_qr_scan", "android": "https://dc.lft.to/lastmile_qr_scan"}, "is_reserved": 0, "fusion_lon": 0.0, "fusion_lat": 0.0, "lon": -77.05019366666667, "name": "8b5279cfb212cc5801f70b4e0a50f3d1"}, {"bike_id": "29cb429c9a37e92ab5cdd6c8f91c3b57", "type": "electric_scooter", "is_disabled": 0, "lat": 38.8521495, "rental_uris": {"ios": "https://dc.lft.to/lastmile_qr_scan", "android": "https://dc.lft.to/lastmile_qr_scan"}, "is_reserved": 0, "fusion_lon": 0.0, "fusion_lat": 0.0, "lon": -76.98554566666667, "name": "29cb429c9a37e92ab5cdd6c8f91c3b57"}, {"bike_id": "152cfc6c484c46091ebdca0f7592f09a", "type": "electric_scooter", "is_disabled": 0, "lat": 38.871226166666666, "rental_uris": {"ios": "https://dc.lft.to/lastmile_qr_scan", "android": "https://dc.lft.to/lastmile_qr_scan"}, "is_reserved": 0, "fusion_lon": 0.0, "fusion_lat": 0.0, "lon": -76.98244683333333, "name": "152cfc6c484c46091ebdca0f7592f09a"}, {"bike_id": "074c1fd564bae4a63674820993a5c49f", "type": "electric_scooter", "is_disabled": 0, "lat": 38.90266716666667, "rental_uris": {"ios": "https://dc.lft.to/lastmile_qr_scan", "android": "https://dc.lft.to/lastmile_qr_scan"}, "is_reserved": 0, "fusion_lon": 0.0, "fusion_lat": 0.0, "lon": -77.0060575, "name": "074c1fd564bae4a63674820993a5c49f"}, {"bike_id": "0c92efbc53fd9a3a8e27b53e496cc789", "type": "electric_scooter", "is_disabled": 0, "lat": 38.892237333333334, "rental_uris": {"ios": "https://dc.lft.to/lastmile_qr_scan", "android": "https://dc.lft.to/lastmile_qr_scan"}, "is_reserved": 0, "fusion_lon": 0.0, "fusion_lat": 0.0, "lon": -77.03164516666666, "name": "0c92efbc53fd9a3a8e27b53e496cc789"}, {"bike_id": "07f356815698660823e9ea5f934966ef", "type": "electric_bike", "is_disabled": 0, "lat": 38.809778333333334, "rental_uris": {"ios": "https://dc.lft.to/lastmile_qr_scan", "android": "https://dc.lft.to/lastmile_qr_scan"}, "is_reserved": 0, "fusion_lon": 0.0, "fusion_lat": 0.0, "lon": -77.08623916666667, "name": "07f356815698660823e9ea5f934966ef"}, {"bike_id": "700504089e32e3a1ed2d08f442a98538", "type": "electric_scooter", "is_disabled": 0, "lat": 38.912618333333334, "rental_uris": {"ios": "https://dc.lft.to/lastmile_qr_scan", "android": "https://dc.lft.to/lastmile_qr_scan"}, "is_reserved": 0, "fusion_lon": 0.0, "fusion_lat": 0.0, "lon": -77.04176416666667, "name": "700504089e32e3a1ed2d08f442a98538"}, {"bike_id": "b0c105b2ca680d236effab502b4d37b8", "type": "electric_scooter", "is_disabled": 0, "lat": 38.9176895, "rental_uris": {"ios": "https://dc.lft.to/lastmile_qr_scan", "android": "https://dc.lft.to/lastmile_qr_scan"}, "is_reserved": 0, "fusion_lon": 0.0, "fusion_lat": 0.0, "lon": -77.04767766666667, "name": "b0c105b2ca680d236effab502b4d37b8"}, {"bike_id": "d76ae6eb318c2701a0c4001a8034b734", "type": "electric_scooter", "is_disabled": 0, "lat": 38.88657933333333, "rental_uris": {"ios": "https://dc.lft.to/lastmile_qr_scan", "android": "https://dc.lft.to/lastmile_qr_scan"}, "is_reserved": 0, "fusion_lon": 0.0, "fusion_lat": 0.0, "lon": -77.02828283333334, "name": "d76ae6eb318c2701a0c4001a8034b734"}, {"bike_id": "d537d8d3e3595ed8e9ada0cabe7beebd", "type": "electric_scooter", "is_disabled": 0, "lat": 38.9159225, "rental_uris": {"ios": "https://dc.lft.to/lastmile_qr_scan", "android": "https://dc.lft.to/lastmile_qr_scan"}, "is_reserved": 0, "fusion_lon": 0.0, "fusion_lat": 0.0, "lon": -77.04648383333334, "name": "d537d8d3e3595ed8e9ada0cabe7beebd"}, {"bike_id": "5e0c81797d6d8069036c6b8bcd585b53", "type": "electric_bike", "is_disabled": 0, "lat": 38.95523583333333, "rental_uris": {"ios": "https://dc.lft.to/lastmile_qr_scan", "android": "https://dc.lft.to/lastmile_qr_scan"}, "is_reserved": 0, "fusion_lon": 0.0, "fusion_lat": 0.0, "lon": -76.93911766666666, "name": "5e0c81797d6d8069036c6b8bcd585b53"}, {"bike_id": "cbfd3d8a43dcd7433b05189a74ef5590", "type": "electric_scooter", "is_disabled": 0, "lat": 38.95583, "rental_uris": {"ios": "https://dc.lft.to/lastmile_qr_scan", "android": "https://dc.lft.to/lastmile_qr_scan"}, "is_reserved": 0, "fusion_lon": 0.0, "fusion_lat": 0.0, "lon": -77.08031, "name": "cbfd3d8a43dcd7433b05189a74ef5590"}, {"bike_id": "f0075109081d5c7cef6f30e08b6da82e", "type": "electric_scooter", "is_disabled": 0, "lat": 38.89711, "rental_uris": {"ios": "https://dc.lft.to/lastmile_qr_scan", "android": "https://dc.lft.to/lastmile_qr_scan"}, "is_reserved": 0, "fusion_lon": 0.0, "fusion_lat": 0.0, "lon": -77.02285733333333, "name": "f0075109081d5c7cef6f30e08b6da82e"}, {"bike_id": "ab05fe44bc8f7313dc678e03e3b5bd3b", "type": "electric_scooter", "is_disabled": 0, "lat": 38.903326666666665, "rental_uris": {"ios": "https://dc.lft.to/lastmile_qr_scan", "android": "https://dc.lft.to/lastmile_qr_scan"}, "is_reserved": 0, "fusion_lon": 0.0, "fusion_lat": 0.0, "lon": -76.99128966666666, "name": "ab05fe44bc8f7313dc678e03e3b5bd3b"}, {"bike_id": "d25e6e861ae2a0ba0de4f49b58821628", "type": "electric_scooter", "is_disabled": 0, "lat": 38.88158516666667, "rental_uris": {"ios": "https://dc.lft.to/lastmile_qr_scan", "android": "https://dc.lft.to/lastmile_qr_scan"}, "is_reserved": 0, "fusion_lon": 0.0, "fusion_lat": 0.0, "lon": -77.02764733333333, "name": "d25e6e861ae2a0ba0de4f49b58821628"}, {"bike_id": "47201c38787ea5a6ec77c75711120c75", "type": "electric_scooter", "is_disabled": 0, "lat": 38.91179566666667, "rental_uris": {"ios": "https://dc.lft.to/lastmile_qr_scan", "android": "https://dc.lft.to/lastmile_qr_scan"}, "is_reserved": 0, "fusion_lon": 0.0, "fusion_lat": 0.0, "lon": -77.03180816666666, "name": "47201c38787ea5a6ec77c75711120c75"}, {"bike_id": "bfafa56f06f3bf99e63646b90005dd58", "type": "electric_scooter", "is_disabled": 0, "lat": 38.92716016666667, "rental_uris": {"ios": "https://dc.lft.to/lastmile_qr_scan", "android": "https://dc.lft.to/lastmile_qr_scan"}, "is_reserved": 0, "fusion_lon": 0.0, "fusion_lat": 0.0, "lon": -77.02075933333333, "name": "bfafa56f06f3bf99e63646b90005dd58"}, {"bike_id": "7636b7224d9e740ee3b6553622a3748f", "type": "electric_scooter", "is_disabled": 0, "lat": 38.92865883333333, "rental_uris": {"ios": "https://dc.lft.to/lastmile_qr_scan", "android": "https://dc.lft.to/lastmile_qr_scan"}, "is_reserved": 0, "fusion_lon": 0.0, "fusion_lat": 0.0, "lon": -77.03711666666666, "name": "7636b7224d9e740ee3b6553622a3748f"}, {"bike_id": "df02b471ca2341f47ba9a9114796cef2", "type": "electric_scooter", "is_disabled": 0, "lat": 38.863772833333336, "rental_uris": {"ios": "https://dc.lft.to/lastmile_qr_scan", "android": "https://dc.lft.to/lastmile_qr_scan"}, "is_reserved": 0, "fusion_lon": 0.0, "fusion_lat": 0.0, "lon": -76.9905925, "name": "df02b471ca2341f47ba9a9114796cef2"}, {"bike_id": "d9a12ce337e51db1749c6d53ef6135a8", "type": "electric_scooter", "is_disabled": 0, "lat": 38.9014485, "rental_uris": {"ios": "https://dc.lft.to/lastmile_qr_scan", "android": "https://dc.lft.to/lastmile_qr_scan"}, "is_reserved": 0, "fusion_lon": 0.0, "fusion_lat": 0.0, "lon": -77.03868283333334, "name": "d9a12ce337e51db1749c6d53ef6135a8"}, {"bike_id": "dc6ce98445a0934069410a089c068769", "type": "electric_scooter", "is_disabled": 0, "lat": 38.928626333333334, "rental_uris": {"ios": "https://dc.lft.to/lastmile_qr_scan", "android": "https://dc.lft.to/lastmile_qr_scan"}, "is_reserved": 0, "fusion_lon": 0.0, "fusion_lat": 0.0, "lon": -77.035959, "name": "dc6ce98445a0934069410a089c068769"}, {"bike_id": "1b5d8695722ce32dd84aed1a0857677b", "type": "electric_scooter", "is_disabled": 0, "lat": 38.914745, "rental_uris": {"ios": "https://dc.lft.to/lastmile_qr_scan", "android": "https://dc.lft.to/lastmile_qr_scan"}, "is_reserved": 0, "fusion_lon": 0.0, "fusion_lat": 0.0, "lon": -77.03213066666666, "name": "1b5d8695722ce32dd84aed1a0857677b"}, {"bike_id": "8edc91b52da85fbeeaff1f1f9fa7dc1d", "type": "electric_scooter", "is_disabled": 0, "lat": 38.912018833333335, "rental_uris": {"ios": "https://dc.lft.to/lastmile_qr_scan", "android": "https://dc.lft.to/lastmile_qr_scan"}, "is_reserved": 0, "fusion_lon": 0.0, "fusion_lat": 0.0, "lon": -77.02810283333334, "name": "8edc91b52da85fbeeaff1f1f9fa7dc1d"}, {"bike_id": "2e9c0f994f0130ece2ffce8acc55aba9", "type": "electric_scooter", "is_disabled": 0, "lat": 38.91532083333333, "rental_uris": {"ios": "https://dc.lft.to/lastmile_qr_scan", "android": "https://dc.lft.to/lastmile_qr_scan"}, "is_reserved": 0, "fusion_lon": 0.0, "fusion_lat": 0.0, "lon": -77.02002583333334, "name": "2e9c0f994f0130ece2ffce8acc55aba9"}, {"bike_id": "69ed740411bb36b8cf950d14fa254638", "type": "electric_scooter", "is_disabled": 0, "lat": 38.89039533333333, "rental_uris": {"ios": "https://dc.lft.to/lastmile_qr_scan", "android": "https://dc.lft.to/lastmile_qr_scan"}, "is_reserved": 0, "fusion_lon": 0.0, "fusion_lat": 0.0, "lon": -76.93753383333333, "name": "69ed740411bb36b8cf950d14fa254638"}, {"bike_id": "213a00e131b3f8df3209e905f6231bad", "type": "electric_scooter", "is_disabled": 0, "lat": 38.923162166666664, "rental_uris": {"ios": "https://dc.lft.to/lastmile_qr_scan", "android": "https://dc.lft.to/lastmile_qr_scan"}, "is_reserved": 0, "fusion_lon": 0.0, "fusion_lat": 0.0, "lon": -77.0417575, "name": "213a00e131b3f8df3209e905f6231bad"}, {"bike_id": "38aaff72d763ce8e2acafbad4888215b", "type": "electric_scooter", "is_disabled": 0, "lat": 38.9095795, "rental_uris": {"ios": "https://dc.lft.to/lastmile_qr_scan", "android": "https://dc.lft.to/lastmile_qr_scan"}, "is_reserved": 0, "fusion_lon": 0.0, "fusion_lat": 0.0, "lon": -77.0486205, "name": "38aaff72d763ce8e2acafbad4888215b"}, {"bike_id": "aae2a527897f48d9b89e2c7eb970faf2", "type": "electric_scooter", "is_disabled": 0, "lat": 38.91840533333333, "rental_uris": {"ios": "https://dc.lft.to/lastmile_qr_scan", "android": "https://dc.lft.to/lastmile_qr_scan"}, "is_reserved": 0, "fusion_lon": 0.0, "fusion_lat": 0.0, "lon": -76.96558333333333, "name": "aae2a527897f48d9b89e2c7eb970faf2"}, {"bike_id": "15c5134efe59c3c356974cb7845bb35a", "type": "electric_scooter", "is_disabled": 0, "lat": 38.9097965, "rental_uris": {"ios": "https://dc.lft.to/lastmile_qr_scan", "android": "https://dc.lft.to/lastmile_qr_scan"}, "is_reserved": 0, "fusion_lon": 0.0, "fusion_lat": 0.0, "lon": -77.0324295, "name": "15c5134efe59c3c356974cb7845bb35a"}, {"bike_id": "fe7c452d72343d5b2d59028e374ef286", "type": "electric_scooter", "is_disabled": 0, "lat": 38.9163995, "rental_uris": {"ios": "https://dc.lft.to/lastmile_qr_scan", "android": "https://dc.lft.to/lastmile_qr_scan"}, "is_reserved": 0, "fusion_lon": 0.0, "fusion_lat": 0.0, "lon": -77.00047133333334, "name": "fe7c452d72343d5b2d59028e374ef286"}, {"bike_id": "eaaa463bcdf278e3e6873b17717f24f8", "type": "electric_scooter", "is_disabled": 0, "lat": 38.91914933333334, "rental_uris": {"ios": "https://dc.lft.to/lastmile_qr_scan", "android": "https://dc.lft.to/lastmile_qr_scan"}, "is_reserved": 0, "fusion_lon": 0.0, "fusion_lat": 0.0, "lon": -77.0318585, "name": "eaaa463bcdf278e3e6873b17717f24f8"}, {"bike_id": "9b96a2efc280bd17202cbd9e825138d5", "type": "electric_scooter", "is_disabled": 0, "lat": 38.898049666666665, "rental_uris": {"ios": "https://dc.lft.to/lastmile_qr_scan", "android": "https://dc.lft.to/lastmile_qr_scan"}, "is_reserved": 0, "fusion_lon": 0.0, "fusion_lat": 0.0, "lon": -77.02469483333333, "name": "9b96a2efc280bd17202cbd9e825138d5"}, {"bike_id": "18de4a5ab34bec9cb77b4839b5b3063e", "type": "electric_scooter", "is_disabled": 0, "lat": 38.904205833333336, "rental_uris": {"ios": "https://dc.lft.to/lastmile_qr_scan", "android": "https://dc.lft.to/lastmile_qr_scan"}, "is_reserved": 0, "fusion_lon": 0.0, "fusion_lat": 0.0, "lon": -76.99063466666666, "name": "18de4a5ab34bec9cb77b4839b5b3063e"}, {"bike_id": "ba4f049fa909516ebafad3699d362640", "type": "electric_scooter", "is_disabled": 0, "lat": 38.8919895, "rental_uris": {"ios": "https://dc.lft.to/lastmile_qr_scan", "android": "https://dc.lft.to/lastmile_qr_scan"}, "is_reserved": 0, "fusion_lon": 0.0, "fusion_lat": 0.0, "lon": -76.99941366666667, "name": "ba4f049fa909516ebafad3699d362640"}, {"bike_id": "e6eb561fce3bce960b855beff1772e33", "type": "electric_scooter", "is_disabled": 0, "lat": 38.90410583333333, "rental_uris": {"ios": "https://dc.lft.to/lastmile_qr_scan", "android": "https://dc.lft.to/lastmile_qr_scan"}, "is_reserved": 0, "fusion_lon": 0.0, "fusion_lat": 0.0, "lon": -77.06766983333333, "name": "e6eb561fce3bce960b855beff1772e33"}, {"bike_id": "1ea1aa59d3c79df5afd078d3b4a5f2c1", "type": "electric_scooter", "is_disabled": 0, "lat": 38.95652883333333, "rental_uris": {"ios": "https://dc.lft.to/lastmile_qr_scan", "android": "https://dc.lft.to/lastmile_qr_scan"}, "is_reserved": 0, "fusion_lon": 0.0, "fusion_lat": 0.0, "lon": -77.01960766666667, "name": "1ea1aa59d3c79df5afd078d3b4a5f2c1"}, {"bike_id": "0822dae0106bbb78b504a4a4eabfc715", "type": "electric_scooter", "is_disabled": 0, "lat": 38.862108666666664, "rental_uris": {"ios": "https://dc.lft.to/lastmile_qr_scan", "android": "https://dc.lft.to/lastmile_qr_scan"}, "is_reserved": 0, "fusion_lon": 0.0, "fusion_lat": 0.0, "lon": -76.9947275, "name": "0822dae0106bbb78b504a4a4eabfc715"}, {"bike_id": "912b66c97ded5965814be8a9457c22b5", "type": "electric_scooter", "is_disabled": 0, "lat": 38.9061105, "rental_uris": {"ios": "https://dc.lft.to/lastmile_qr_scan", "android": "https://dc.lft.to/lastmile_qr_scan"}, "is_reserved": 0, "fusion_lon": 0.0, "fusion_lat": 0.0, "lon": -77.01624683333333, "name": "912b66c97ded5965814be8a9457c22b5"}, {"bike_id": "8a769984a052ac00e66b87e657e2b352", "type": "electric_scooter", "is_disabled": 0, "lat": 38.906795, "rental_uris": {"ios": "https://dc.lft.to/lastmile_qr_scan", "android": "https://dc.lft.to/lastmile_qr_scan"}, "is_reserved": 0, "fusion_lon": 0.0, "fusion_lat": 0.0, "lon": -77.02377583333333, "name": "8a769984a052ac00e66b87e657e2b352"}, {"bike_id": "e578aba03590fe7b2a20ba78100e635e", "type": "electric_scooter", "is_disabled": 0, "lat": 38.903626833333334, "rental_uris": {"ios": "https://dc.lft.to/lastmile_qr_scan", "android": "https://dc.lft.to/lastmile_qr_scan"}, "is_reserved": 0, "fusion_lon": 0.0, "fusion_lat": 0.0, "lon": -77.02945183333334, "name": "e578aba03590fe7b2a20ba78100e635e"}, {"bike_id": "ef80dcd9729c98ea76f8a71a42dc4d2e", "type": "electric_scooter", "is_disabled": 0, "lat": 38.91687616666667, "rental_uris": {"ios": "https://dc.lft.to/lastmile_qr_scan", "android": "https://dc.lft.to/lastmile_qr_scan"}, "is_reserved": 0, "fusion_lon": 0.0, "fusion_lat": 0.0, "lon": -77.02951433333334, "name": "ef80dcd9729c98ea76f8a71a42dc4d2e"}, {"bike_id": "e3290e5bd903de9765d7ae095231bb42", "type": "electric_bike", "is_disabled": 0, "lat": 38.926504, "rental_uris": {"ios": "https://dc.lft.to/lastmile_qr_scan", "android": "https://dc.lft.to/lastmile_qr_scan"}, "is_reserved": 0, "fusion_lon": 0.0, "fusion_lat": 0.0, "lon": -76.98423066666666, "name": "e3290e5bd903de9765d7ae095231bb42"}, {"bike_id": "b041698ff970a8a2be458844f1bdbca5", "type": "electric_scooter", "is_disabled": 0, "lat": 38.914664, "rental_uris": {"ios": "https://dc.lft.to/lastmile_qr_scan", "android": "https://dc.lft.to/lastmile_qr_scan"}, "is_reserved": 0, "fusion_lon": 0.0, "fusion_lat": 0.0, "lon": -77.022833, "name": "b041698ff970a8a2be458844f1bdbca5"}, {"bike_id": "73f122ef9368ef0724a44b8ffa825806", "type": "electric_scooter", "is_disabled": 0, "lat": 38.89848633333333, "rental_uris": {"ios": "https://dc.lft.to/lastmile_qr_scan", "android": "https://dc.lft.to/lastmile_qr_scan"}, "is_reserved": 0, "fusion_lon": 0.0, "fusion_lat": 0.0, "lon": -76.9463275, "name": "73f122ef9368ef0724a44b8ffa825806"}, {"bike_id": "a356e590edcea763a7d7f53f24429c7b", "type": "electric_scooter", "is_disabled": 0, "lat": 38.906567333333335, "rental_uris": {"ios": "https://dc.lft.to/lastmile_qr_scan", "android": "https://dc.lft.to/lastmile_qr_scan"}, "is_reserved": 0, "fusion_lon": 0.0, "fusion_lat": 0.0, "lon": -77.009918, "name": "a356e590edcea763a7d7f53f24429c7b"}, {"bike_id": "3a4b3b0f9560e24241311a316bd05314", "type": "electric_bike", "is_disabled": 0, "lat": 38.924479, "rental_uris": {"ios": "https://dc.lft.to/lastmile_qr_scan", "android": "https://dc.lft.to/lastmile_qr_scan"}, "is_reserved": 0, "fusion_lon": 0.0, "fusion_lat": 0.0, "lon": -77.22549083333334, "name": "3a4b3b0f9560e24241311a316bd05314"}, {"bike_id": "0c8b8d868ce145ebe23d4e638b350eba", "type": "electric_bike", "is_disabled": 0, "lat": 38.954102, "rental_uris": {"ios": "https://dc.lft.to/lastmile_qr_scan", "android": "https://dc.lft.to/lastmile_qr_scan"}, "is_reserved": 0, "fusion_lon": 0.0, "fusion_lat": 0.0, "lon": -76.959303, "name": "0c8b8d868ce145ebe23d4e638b350eba"}, {"bike_id": "93cfec4abbbaed3fde1df4aaf1d54439", "type": "electric_scooter", "is_disabled": 0, "lat": 38.942007833333335, "rental_uris": {"ios": "https://dc.lft.to/lastmile_qr_scan", "android": "https://dc.lft.to/lastmile_qr_scan"}, "is_reserved": 0, "fusion_lon": 0.0, "fusion_lat": 0.0, "lon": -77.02437, "name": "93cfec4abbbaed3fde1df4aaf1d54439"}, {"bike_id": "1530b0665c680ff00e7b3da72e08e905", "type": "electric_bike", "is_disabled": 0, "lat": 38.8552805, "rental_uris": {"ios": "https://dc.lft.to/lastmile_qr_scan", "android": "https://dc.lft.to/lastmile_qr_scan"}, "is_reserved": 0, "fusion_lon": 0.0, "fusion_lat": 0.0, "lon": -77.12025666666666, "name": "1530b0665c680ff00e7b3da72e08e905"}, {"bike_id": "d889f44f281428dad32dc2d32713c7a8", "type": "electric_scooter", "is_disabled": 0, "lat": 38.907377, "rental_uris": {"ios": "https://dc.lft.to/lastmile_qr_scan", "android": "https://dc.lft.to/lastmile_qr_scan"}, "is_reserved": 0, "fusion_lon": 0.0, "fusion_lat": 0.0, "lon": -77.02562883333333, "name": "d889f44f281428dad32dc2d32713c7a8"}, {"bike_id": "6c6f822992bd472d8ddbd02daf8b617e", "type": "electric_scooter", "is_disabled": 0, "lat": 38.90574133333333, "rental_uris": {"ios": "https://dc.lft.to/lastmile_qr_scan", "android": "https://dc.lft.to/lastmile_qr_scan"}, "is_reserved": 0, "fusion_lon": 0.0, "fusion_lat": 0.0, "lon": -77.02193566666666, "name": "6c6f822992bd472d8ddbd02daf8b617e"}, {"bike_id": "61e4209fd4aba7932d663801290eeecc", "type": "electric_scooter", "is_disabled": 0, "lat": 38.933545, "rental_uris": {"ios": "https://dc.lft.to/lastmile_qr_scan", "android": "https://dc.lft.to/lastmile_qr_scan"}, "is_reserved": 0, "fusion_lon": 0.0, "fusion_lat": 0.0, "lon": -77.073576, "name": "61e4209fd4aba7932d663801290eeecc"}, {"bike_id": "e32ca79629506613ca8b968a94041d5f", "type": "electric_scooter", "is_disabled": 0, "lat": 38.903112666666665, "rental_uris": {"ios": "https://dc.lft.to/lastmile_qr_scan", "android": "https://dc.lft.to/lastmile_qr_scan"}, "is_reserved": 0, "fusion_lon": 0.0, "fusion_lat": 0.0, "lon": -77.02317233333333, "name": "e32ca79629506613ca8b968a94041d5f"}, {"bike_id": "275e718c3028080d39b1144db749d2a8", "type": "electric_scooter", "is_disabled": 0, "lat": 38.9298275, "rental_uris": {"ios": "https://dc.lft.to/lastmile_qr_scan", "android": "https://dc.lft.to/lastmile_qr_scan"}, "is_reserved": 0, "fusion_lon": 0.0, "fusion_lat": 0.0, "lon": -77.03663266666666, "name": "275e718c3028080d39b1144db749d2a8"}, {"bike_id": "1d320f322353fa84e3187f14225a73db", "type": "electric_bike", "is_disabled": 0, "lat": 38.99231566666667, "rental_uris": {"ios": "https://dc.lft.to/lastmile_qr_scan", "android": "https://dc.lft.to/lastmile_qr_scan"}, "is_reserved": 0, "fusion_lon": 0.0, "fusion_lat": 0.0, "lon": -76.94415433333333, "name": "1d320f322353fa84e3187f14225a73db"}, {"bike_id": "bb45932af349e5a629ea0f10fe5c7842", "type": "electric_scooter", "is_disabled": 0, "lat": 38.90283383333333, "rental_uris": {"ios": "https://dc.lft.to/lastmile_qr_scan", "android": "https://dc.lft.to/lastmile_qr_scan"}, "is_reserved": 0, "fusion_lon": 0.0, "fusion_lat": 0.0, "lon": -77.05808866666666, "name": "bb45932af349e5a629ea0f10fe5c7842"}, {"bike_id": "873575438b84eb747879971d23c1efac", "type": "electric_bike", "is_disabled": 0, "lat": 38.854984333333334, "rental_uris": {"ios": "https://dc.lft.to/lastmile_qr_scan", "android": "https://dc.lft.to/lastmile_qr_scan"}, "is_reserved": 0, "fusion_lon": 0.0, "fusion_lat": 0.0, "lon": -77.11617833333334, "name": "873575438b84eb747879971d23c1efac"}, {"bike_id": "8cb55168b5ae026b721afdffbe6f45e4", "type": "electric_scooter", "is_disabled": 0, "lat": 38.8873695, "rental_uris": {"ios": "https://dc.lft.to/lastmile_qr_scan", "android": "https://dc.lft.to/lastmile_qr_scan"}, "is_reserved": 0, "fusion_lon": 0.0, "fusion_lat": 0.0, "lon": -77.02432583333334, "name": "8cb55168b5ae026b721afdffbe6f45e4"}, {"bike_id": "df39c83195041594696058c0ff80e32e", "type": "electric_scooter", "is_disabled": 0, "lat": 38.892406333333334, "rental_uris": {"ios": "https://dc.lft.to/lastmile_qr_scan", "android": "https://dc.lft.to/lastmile_qr_scan"}, "is_reserved": 0, "fusion_lon": 0.0, "fusion_lat": 0.0, "lon": -77.02610466666667, "name": "df39c83195041594696058c0ff80e32e"}, {"bike_id": "938471c818026292a83a61d7def8e630", "type": "electric_scooter", "is_disabled": 0, "lat": 38.9164725, "rental_uris": {"ios": "https://dc.lft.to/lastmile_qr_scan", "android": "https://dc.lft.to/lastmile_qr_scan"}, "is_reserved": 0, "fusion_lon": 0.0, "fusion_lat": 0.0, "lon": -77.0217305, "name": "938471c818026292a83a61d7def8e630"}, {"bike_id": "9733c9aeb8e8a8614a29b4e3ba82dcfe", "type": "electric_scooter", "is_disabled": 0, "lat": 38.913346833333335, "rental_uris": {"ios": "https://dc.lft.to/lastmile_qr_scan", "android": "https://dc.lft.to/lastmile_qr_scan"}, "is_reserved": 0, "fusion_lon": 0.0, "fusion_lat": 0.0, "lon": -77.04525133333334, "name": "9733c9aeb8e8a8614a29b4e3ba82dcfe"}, {"bike_id": "f5afad4dfbaf5ae243ee6d18537560df", "type": "electric_bike", "is_disabled": 0, "lat": 38.8237485, "rental_uris": {"ios": "https://dc.lft.to/lastmile_qr_scan", "android": "https://dc.lft.to/lastmile_qr_scan"}, "is_reserved": 0, "fusion_lon": 0.0, "fusion_lat": 0.0, "lon": -77.00211983333334, "name": "f5afad4dfbaf5ae243ee6d18537560df"}, {"bike_id": "fda5da4f3072668a0977db8c87dd3df9", "type": "electric_bike", "is_disabled": 0, "lat": 38.859419, "rental_uris": {"ios": "https://dc.lft.to/lastmile_qr_scan", "android": "https://dc.lft.to/lastmile_qr_scan"}, "is_reserved": 0, "fusion_lon": 0.0, "fusion_lat": 0.0, "lon": -77.11827883333333, "name": "fda5da4f3072668a0977db8c87dd3df9"}, {"bike_id": "0f5badd48bcee8ad6dcd290613c07cba", "type": "electric_scooter", "is_disabled": 0, "lat": 38.933745333333334, "rental_uris": {"ios": "https://dc.lft.to/lastmile_qr_scan", "android": "https://dc.lft.to/lastmile_qr_scan"}, "is_reserved": 0, "fusion_lon": 0.0, "fusion_lat": 0.0, "lon": -77.05729016666666, "name": "0f5badd48bcee8ad6dcd290613c07cba"}, {"bike_id": "6cac80304576cf7c83accd22174a8239", "type": "electric_scooter", "is_disabled": 0, "lat": 38.90531, "rental_uris": {"ios": "https://dc.lft.to/lastmile_qr_scan", "android": "https://dc.lft.to/lastmile_qr_scan"}, "is_reserved": 0, "fusion_lon": 0.0, "fusion_lat": 0.0, "lon": -76.9862685, "name": "6cac80304576cf7c83accd22174a8239"}, {"bike_id": "a4cc0274c0b019c26984f1c2b9f438f0", "type": "electric_scooter", "is_disabled": 0, "lat": 38.866982666666665, "rental_uris": {"ios": "https://dc.lft.to/lastmile_qr_scan", "android": "https://dc.lft.to/lastmile_qr_scan"}, "is_reserved": 0, "fusion_lon": 0.0, "fusion_lat": 0.0, "lon": -76.987148, "name": "a4cc0274c0b019c26984f1c2b9f438f0"}, {"bike_id": "c1e8feaf22d42d257d019cf7dd7dba85", "type": "electric_bike", "is_disabled": 0, "lat": 38.8294735, "rental_uris": {"ios": "https://dc.lft.to/lastmile_qr_scan", "android": "https://dc.lft.to/lastmile_qr_scan"}, "is_reserved": 0, "fusion_lon": 0.0, "fusion_lat": 0.0, "lon": -77.12349833333333, "name": "c1e8feaf22d42d257d019cf7dd7dba85"}, {"bike_id": "53e8e2c314c315f1d52b720315ac6262", "type": "electric_scooter", "is_disabled": 0, "lat": 38.9216225, "rental_uris": {"ios": "https://dc.lft.to/lastmile_qr_scan", "android": "https://dc.lft.to/lastmile_qr_scan"}, "is_reserved": 0, "fusion_lon": 0.0, "fusion_lat": 0.0, "lon": -77.038472, "name": "53e8e2c314c315f1d52b720315ac6262"}, {"bike_id": "503365cbcdd9bb2cde079c98d5bdcfdb", "type": "electric_scooter", "is_disabled": 0, "lat": 38.862169, "rental_uris": {"ios": "https://dc.lft.to/lastmile_qr_scan", "android": "https://dc.lft.to/lastmile_qr_scan"}, "is_reserved": 0, "fusion_lon": 0.0, "fusion_lat": 0.0, "lon": -76.99468416666667, "name": "503365cbcdd9bb2cde079c98d5bdcfdb"}, {"bike_id": "56e9a513e00c2879bee8e13a9601bcc6", "type": "electric_scooter", "is_disabled": 0, "lat": 38.915664666666665, "rental_uris": {"ios": "https://dc.lft.to/lastmile_qr_scan", "android": "https://dc.lft.to/lastmile_qr_scan"}, "is_reserved": 0, "fusion_lon": 0.0, "fusion_lat": 0.0, "lon": -77.03937966666666, "name": "56e9a513e00c2879bee8e13a9601bcc6"}, {"bike_id": "782c4253e12ff8d5a1b5b6f14d9e20df", "type": "electric_scooter", "is_disabled": 0, "lat": 38.8576255, "rental_uris": {"ios": "https://dc.lft.to/lastmile_qr_scan", "android": "https://dc.lft.to/lastmile_qr_scan"}, "is_reserved": 0, "fusion_lon": 0.0, "fusion_lat": 0.0, "lon": -76.99305133333333, "name": "782c4253e12ff8d5a1b5b6f14d9e20df"}, {"bike_id": "ea19423b1112d49776cf6c4e0deda553", "type": "electric_scooter", "is_disabled": 0, "lat": 38.916948833333336, "rental_uris": {"ios": "https://dc.lft.to/lastmile_qr_scan", "android": "https://dc.lft.to/lastmile_qr_scan"}, "is_reserved": 0, "fusion_lon": 0.0, "fusion_lat": 0.0, "lon": -77.0259755, "name": "ea19423b1112d49776cf6c4e0deda553"}, {"bike_id": "bcf94f9336a462ec564c0668b6842d32", "type": "electric_bike", "is_disabled": 0, "lat": 38.9321825, "rental_uris": {"ios": "https://dc.lft.to/lastmile_qr_scan", "android": "https://dc.lft.to/lastmile_qr_scan"}, "is_reserved": 0, "fusion_lon": 0.0, "fusion_lat": 0.0, "lon": -76.99473633333334, "name": "bcf94f9336a462ec564c0668b6842d32"}, {"bike_id": "6267a777f2409b7f9e7f67224ee2737f", "type": "electric_scooter", "is_disabled": 0, "lat": 38.938231333333334, "rental_uris": {"ios": "https://dc.lft.to/lastmile_qr_scan", "android": "https://dc.lft.to/lastmile_qr_scan"}, "is_reserved": 0, "fusion_lon": 0.0, "fusion_lat": 0.0, "lon": -77.02706916666666, "name": "6267a777f2409b7f9e7f67224ee2737f"}, {"bike_id": "a4800b2b1be66cc1446cda02fdaf7745", "type": "electric_scooter", "is_disabled": 0, "lat": 38.937538333333336, "rental_uris": {"ios": "https://dc.lft.to/lastmile_qr_scan", "android": "https://dc.lft.to/lastmile_qr_scan"}, "is_reserved": 0, "fusion_lon": 0.0, "fusion_lat": 0.0, "lon": -77.02443633333333, "name": "a4800b2b1be66cc1446cda02fdaf7745"}, {"bike_id": "3fa8a7016ecf9982bc642ac749b6ea16", "type": "electric_scooter", "is_disabled": 0, "lat": 38.92261416666667, "rental_uris": {"ios": "https://dc.lft.to/lastmile_qr_scan", "android": "https://dc.lft.to/lastmile_qr_scan"}, "is_reserved": 0, "fusion_lon": 0.0, "fusion_lat": 0.0, "lon": -77.01971333333333, "name": "3fa8a7016ecf9982bc642ac749b6ea16"}, {"bike_id": "6075f4e65b3b2120063b2f4058062591", "type": "electric_scooter", "is_disabled": 0, "lat": 38.89483383333334, "rental_uris": {"ios": "https://dc.lft.to/lastmile_qr_scan", "android": "https://dc.lft.to/lastmile_qr_scan"}, "is_reserved": 0, "fusion_lon": 0.0, "fusion_lat": 0.0, "lon": -76.9951995, "name": "6075f4e65b3b2120063b2f4058062591"}, {"bike_id": "39724c7df6fe4bc194757ceda0b09fec", "type": "electric_bike", "is_disabled": 0, "lat": 38.922850833333335, "rental_uris": {"ios": "https://dc.lft.to/lastmile_qr_scan", "android": "https://dc.lft.to/lastmile_qr_scan"}, "is_reserved": 0, "fusion_lon": 0.0, "fusion_lat": 0.0, "lon": -77.02236883333333, "name": "39724c7df6fe4bc194757ceda0b09fec"}, {"bike_id": "1980b9c8ff56f61fd305dd28db318a50", "type": "electric_scooter", "is_disabled": 0, "lat": 38.89721866666667, "rental_uris": {"ios": "https://dc.lft.to/lastmile_qr_scan", "android": "https://dc.lft.to/lastmile_qr_scan"}, "is_reserved": 0, "fusion_lon": 0.0, "fusion_lat": 0.0, "lon": -76.9883675, "name": "1980b9c8ff56f61fd305dd28db318a50"}, {"bike_id": "2333431ad82f771aae8e778c54baec08", "type": "electric_bike", "is_disabled": 0, "lat": 38.92961733333333, "rental_uris": {"ios": "https://dc.lft.to/lastmile_qr_scan", "android": "https://dc.lft.to/lastmile_qr_scan"}, "is_reserved": 0, "fusion_lon": 0.0, "fusion_lat": 0.0, "lon": -77.02340283333334, "name": "2333431ad82f771aae8e778c54baec08"}, {"bike_id": "06f6a6d1bd0886026d0b947558886f91", "type": "electric_scooter", "is_disabled": 0, "lat": 38.941886, "rental_uris": {"ios": "https://dc.lft.to/lastmile_qr_scan", "android": "https://dc.lft.to/lastmile_qr_scan"}, "is_reserved": 0, "fusion_lon": 0.0, "fusion_lat": 0.0, "lon": -77.02528733333334, "name": "06f6a6d1bd0886026d0b947558886f91"}, {"bike_id": "b318cab24e8a70b6081140ff0be2f4c0", "type": "electric_bike", "is_disabled": 0, "lat": 38.807564166666666, "rental_uris": {"ios": "https://dc.lft.to/lastmile_qr_scan", "android": "https://dc.lft.to/lastmile_qr_scan"}, "is_reserved": 0, "fusion_lon": 0.0, "fusion_lat": 0.0, "lon": -77.09454683333334, "name": "b318cab24e8a70b6081140ff0be2f4c0"}, {"bike_id": "42e63978bb142d77801dcbf86a088385", "type": "electric_bike", "is_disabled": 0, "lat": 38.943685, "rental_uris": {"ios": "https://dc.lft.to/lastmile_qr_scan", "android": "https://dc.lft.to/lastmile_qr_scan"}, "is_reserved": 0, "fusion_lon": 0.0, "fusion_lat": 0.0, "lon": -77.00351516666667, "name": "42e63978bb142d77801dcbf86a088385"}, {"bike_id": "7e1ec27fb5dfa19f9d1a09c98cd2463b", "type": "electric_scooter", "is_disabled": 0, "lat": 38.91705316666667, "rental_uris": {"ios": "https://dc.lft.to/lastmile_qr_scan", "android": "https://dc.lft.to/lastmile_qr_scan"}, "is_reserved": 0, "fusion_lon": 0.0, "fusion_lat": 0.0, "lon": -77.028859, "name": "7e1ec27fb5dfa19f9d1a09c98cd2463b"}, {"bike_id": "9cb18a17172368248a762b64ba8145e6", "type": "electric_scooter", "is_disabled": 0, "lat": 38.93320416666667, "rental_uris": {"ios": "https://dc.lft.to/lastmile_qr_scan", "android": "https://dc.lft.to/lastmile_qr_scan"}, "is_reserved": 0, "fusion_lon": 0.0, "fusion_lat": 0.0, "lon": -77.02393883333333, "name": "9cb18a17172368248a762b64ba8145e6"}, {"bike_id": "fb470fd9db1a79607799ab9eee9500ea", "type": "electric_scooter", "is_disabled": 0, "lat": 38.89970483333333, "rental_uris": {"ios": "https://dc.lft.to/lastmile_qr_scan", "android": "https://dc.lft.to/lastmile_qr_scan"}, "is_reserved": 0, "fusion_lon": 0.0, "fusion_lat": 0.0, "lon": -76.98305283333333, "name": "fb470fd9db1a79607799ab9eee9500ea"}, {"bike_id": "47bdd78a9d4fa57cb8f89ad4b2fc0d65", "type": "electric_scooter", "is_disabled": 0, "lat": 38.91605633333333, "rental_uris": {"ios": "https://dc.lft.to/lastmile_qr_scan", "android": "https://dc.lft.to/lastmile_qr_scan"}, "is_reserved": 0, "fusion_lon": 0.0, "fusion_lat": 0.0, "lon": -77.03986483333334, "name": "47bdd78a9d4fa57cb8f89ad4b2fc0d65"}, {"bike_id": "e50a1d4f10a6c3e87acb23e0b5df1570", "type": "electric_scooter", "is_disabled": 0, "lat": 38.90798783333334, "rental_uris": {"ios": "https://dc.lft.to/lastmile_qr_scan", "android": "https://dc.lft.to/lastmile_qr_scan"}, "is_reserved": 0, "fusion_lon": 0.0, "fusion_lat": 0.0, "lon": -76.99407233333334, "name": "e50a1d4f10a6c3e87acb23e0b5df1570"}, {"bike_id": "ab08af415f1022bea810e4770d87510b", "type": "electric_scooter", "is_disabled": 0, "lat": 38.94616516666667, "rental_uris": {"ios": "https://dc.lft.to/lastmile_qr_scan", "android": "https://dc.lft.to/lastmile_qr_scan"}, "is_reserved": 0, "fusion_lon": 0.0, "fusion_lat": 0.0, "lon": -77.02264616666666, "name": "ab08af415f1022bea810e4770d87510b"}, {"bike_id": "6a47e4f2229b6ff80a9626062554fda0", "type": "electric_scooter", "is_disabled": 0, "lat": 38.927050333333334, "rental_uris": {"ios": "https://dc.lft.to/lastmile_qr_scan", "android": "https://dc.lft.to/lastmile_qr_scan"}, "is_reserved": 0, "fusion_lon": 0.0, "fusion_lat": 0.0, "lon": -77.020651, "name": "6a47e4f2229b6ff80a9626062554fda0"}, {"bike_id": "20eb3d91e292a2fb1f524cbfd45f135b", "type": "electric_scooter", "is_disabled": 0, "lat": 38.939802, "rental_uris": {"ios": "https://dc.lft.to/lastmile_qr_scan", "android": "https://dc.lft.to/lastmile_qr_scan"}, "is_reserved": 0, "fusion_lon": 0.0, "fusion_lat": 0.0, "lon": -77.02870683333333, "name": "20eb3d91e292a2fb1f524cbfd45f135b"}, {"bike_id": "4b053cb6a6f2ab867626dbcb367ef189", "type": "electric_scooter", "is_disabled": 0, "lat": 38.9233665, "rental_uris": {"ios": "https://dc.lft.to/lastmile_qr_scan", "android": "https://dc.lft.to/lastmile_qr_scan"}, "is_reserved": 0, "fusion_lon": 0.0, "fusion_lat": 0.0, "lon": -77.000378, "name": "4b053cb6a6f2ab867626dbcb367ef189"}, {"bike_id": "31028abe230d6ff5b58bf3ab3bc47ccf", "type": "electric_scooter", "is_disabled": 0, "lat": 38.8663115, "rental_uris": {"ios": "https://dc.lft.to/lastmile_qr_scan", "android": "https://dc.lft.to/lastmile_qr_scan"}, "is_reserved": 0, "fusion_lon": 0.0, "fusion_lat": 0.0, "lon": -76.98716183333333, "name": "31028abe230d6ff5b58bf3ab3bc47ccf"}, {"bike_id": "bb0658f6c4c78f8ceae1774e543952c2", "type": "electric_scooter", "is_disabled": 0, "lat": 38.89483766666667, "rental_uris": {"ios": "https://dc.lft.to/lastmile_qr_scan", "android": "https://dc.lft.to/lastmile_qr_scan"}, "is_reserved": 0, "fusion_lon": 0.0, "fusion_lat": 0.0, "lon": -77.01102916666666, "name": "bb0658f6c4c78f8ceae1774e543952c2"}, {"bike_id": "fda53848b85404838aa117ad43617e99", "type": "electric_scooter", "is_disabled": 0, "lat": 38.89484266666667, "rental_uris": {"ios": "https://dc.lft.to/lastmile_qr_scan", "android": "https://dc.lft.to/lastmile_qr_scan"}, "is_reserved": 0, "fusion_lon": 0.0, "fusion_lat": 0.0, "lon": -76.98783433333334, "name": "fda53848b85404838aa117ad43617e99"}, {"bike_id": "974f401f9085331824b7d958a1a33940", "type": "electric_scooter", "is_disabled": 0, "lat": 38.905641833333334, "rental_uris": {"ios": "https://dc.lft.to/lastmile_qr_scan", "android": "https://dc.lft.to/lastmile_qr_scan"}, "is_reserved": 0, "fusion_lon": 0.0, "fusion_lat": 0.0, "lon": -77.02187016666667, "name": "974f401f9085331824b7d958a1a33940"}, {"bike_id": "b3a7d80a1c3281a5d0cf8fac2b79dea7", "type": "electric_scooter", "is_disabled": 0, "lat": 38.892928166666664, "rental_uris": {"ios": "https://dc.lft.to/lastmile_qr_scan", "android": "https://dc.lft.to/lastmile_qr_scan"}, "is_reserved": 0, "fusion_lon": 0.0, "fusion_lat": 0.0, "lon": -77.02019666666666, "name": "b3a7d80a1c3281a5d0cf8fac2b79dea7"}, {"bike_id": "5bce3aa475cf33d5794f3f1efbba1a9c", "type": "electric_scooter", "is_disabled": 0, "lat": 38.917082, "rental_uris": {"ios": "https://dc.lft.to/lastmile_qr_scan", "android": "https://dc.lft.to/lastmile_qr_scan"}, "is_reserved": 0, "fusion_lon": 0.0, "fusion_lat": 0.0, "lon": -77.031813, "name": "5bce3aa475cf33d5794f3f1efbba1a9c"}, {"bike_id": "a6df27d1d347fb6e4a91216fde55e821", "type": "electric_scooter", "is_disabled": 0, "lat": 38.87078316666667, "rental_uris": {"ios": "https://dc.lft.to/lastmile_qr_scan", "android": "https://dc.lft.to/lastmile_qr_scan"}, "is_reserved": 0, "fusion_lon": 0.0, "fusion_lat": 0.0, "lon": -76.981309, "name": "a6df27d1d347fb6e4a91216fde55e821"}, {"bike_id": "cd05e5ba27e470b78c5045d35112ade3", "type": "electric_scooter", "is_disabled": 0, "lat": 38.85809416666667, "rental_uris": {"ios": "https://dc.lft.to/lastmile_qr_scan", "android": "https://dc.lft.to/lastmile_qr_scan"}, "is_reserved": 0, "fusion_lon": 0.0, "fusion_lat": 0.0, "lon": -76.98924366666667, "name": "cd05e5ba27e470b78c5045d35112ade3"}, {"bike_id": "6ac7712a41e9ac1f059d985b55e82d3e", "type": "electric_scooter", "is_disabled": 0, "lat": 38.88638383333333, "rental_uris": {"ios": "https://dc.lft.to/lastmile_qr_scan", "android": "https://dc.lft.to/lastmile_qr_scan"}, "is_reserved": 0, "fusion_lon": 0.0, "fusion_lat": 0.0, "lon": -77.01373283333334, "name": "6ac7712a41e9ac1f059d985b55e82d3e"}, {"bike_id": "01a822f90fbb921c51b7225be8f19aa0", "type": "electric_scooter", "is_disabled": 0, "lat": 38.8972155, "rental_uris": {"ios": "https://dc.lft.to/lastmile_qr_scan", "android": "https://dc.lft.to/lastmile_qr_scan"}, "is_reserved": 0, "fusion_lon": 0.0, "fusion_lat": 0.0, "lon": -77.02689366666667, "name": "01a822f90fbb921c51b7225be8f19aa0"}, {"bike_id": "e9ae4960942d1855d2f06ddd69ab7d62", "type": "electric_scooter", "is_disabled": 0, "lat": 38.89201533333333, "rental_uris": {"ios": "https://dc.lft.to/lastmile_qr_scan", "android": "https://dc.lft.to/lastmile_qr_scan"}, "is_reserved": 0, "fusion_lon": 0.0, "fusion_lat": 0.0, "lon": -77.02505333333333, "name": "e9ae4960942d1855d2f06ddd69ab7d62"}, {"bike_id": "25b87fcde69618b2b9c224abd679267f", "type": "electric_scooter", "is_disabled": 0, "lat": 38.908436333333334, "rental_uris": {"ios": "https://dc.lft.to/lastmile_qr_scan", "android": "https://dc.lft.to/lastmile_qr_scan"}, "is_reserved": 0, "fusion_lon": 0.0, "fusion_lat": 0.0, "lon": -77.0320925, "name": "25b87fcde69618b2b9c224abd679267f"}, {"bike_id": "9c7e2a1a8749ec0d08ebaf46c4670ff1", "type": "electric_scooter", "is_disabled": 0, "lat": 38.91198933333333, "rental_uris": {"ios": "https://dc.lft.to/lastmile_qr_scan", "android": "https://dc.lft.to/lastmile_qr_scan"}, "is_reserved": 0, "fusion_lon": 0.0, "fusion_lat": 0.0, "lon": -77.04035666666667, "name": "9c7e2a1a8749ec0d08ebaf46c4670ff1"}, {"bike_id": "2af24f2befaeaed08918fcc3e1a1fc2e", "type": "electric_scooter", "is_disabled": 0, "lat": 38.90772916666667, "rental_uris": {"ios": "https://dc.lft.to/lastmile_qr_scan", "android": "https://dc.lft.to/lastmile_qr_scan"}, "is_reserved": 0, "fusion_lon": 0.0, "fusion_lat": 0.0, "lon": -77.016967, "name": "2af24f2befaeaed08918fcc3e1a1fc2e"}, {"bike_id": "f65ac77a170b6042cf10fc0e5c249532", "type": "electric_scooter", "is_disabled": 0, "lat": 38.90770333333333, "rental_uris": {"ios": "https://dc.lft.to/lastmile_qr_scan", "android": "https://dc.lft.to/lastmile_qr_scan"}, "is_reserved": 0, "fusion_lon": 0.0, "fusion_lat": 0.0, "lon": -77.07142716666667, "name": "f65ac77a170b6042cf10fc0e5c249532"}, {"bike_id": "e97de0d4cedf9fd8cd9dbdf29c031fa6", "type": "electric_scooter", "is_disabled": 0, "lat": 38.9051185, "rental_uris": {"ios": "https://dc.lft.to/lastmile_qr_scan", "android": "https://dc.lft.to/lastmile_qr_scan"}, "is_reserved": 0, "fusion_lon": 0.0, "fusion_lat": 0.0, "lon": -77.017153, "name": "e97de0d4cedf9fd8cd9dbdf29c031fa6"}, {"bike_id": "cec07c354732a6f6ea74fa6e7c1bf888", "type": "electric_scooter", "is_disabled": 0, "lat": 38.910589333333334, "rental_uris": {"ios": "https://dc.lft.to/lastmile_qr_scan", "android": "https://dc.lft.to/lastmile_qr_scan"}, "is_reserved": 0, "fusion_lon": 0.0, "fusion_lat": 0.0, "lon": -77.0383735, "name": "cec07c354732a6f6ea74fa6e7c1bf888"}, {"bike_id": "1d59d6ba9bd4ce713bb9c2e561ab4d24", "type": "electric_scooter", "is_disabled": 0, "lat": 38.89708916666667, "rental_uris": {"ios": "https://dc.lft.to/lastmile_qr_scan", "android": "https://dc.lft.to/lastmile_qr_scan"}, "is_reserved": 0, "fusion_lon": 0.0, "fusion_lat": 0.0, "lon": -77.00828266666667, "name": "1d59d6ba9bd4ce713bb9c2e561ab4d24"}, {"bike_id": "f0d66e0fb19bf1a6352d630fe7f4d2fe", "type": "electric_scooter", "is_disabled": 0, "lat": 38.907265, "rental_uris": {"ios": "https://dc.lft.to/lastmile_qr_scan", "android": "https://dc.lft.to/lastmile_qr_scan"}, "is_reserved": 0, "fusion_lon": 0.0, "fusion_lat": 0.0, "lon": -77.03186166666667, "name": "f0d66e0fb19bf1a6352d630fe7f4d2fe"}, {"bike_id": "e825e829d309f7e798e1ee6c17d6ca6a", "type": "electric_scooter", "is_disabled": 0, "lat": 38.898462333333335, "rental_uris": {"ios": "https://dc.lft.to/lastmile_qr_scan", "android": "https://dc.lft.to/lastmile_qr_scan"}, "is_reserved": 0, "fusion_lon": 0.0, "fusion_lat": 0.0, "lon": -76.94629583333334, "name": "e825e829d309f7e798e1ee6c17d6ca6a"}, {"bike_id": "030f6f901586c076e72ba2d3ea4067b5", "type": "electric_scooter", "is_disabled": 0, "lat": 38.91933233333334, "rental_uris": {"ios": "https://dc.lft.to/lastmile_qr_scan", "android": "https://dc.lft.to/lastmile_qr_scan"}, "is_reserved": 0, "fusion_lon": 0.0, "fusion_lat": 0.0, "lon": -77.04501833333333, "name": "030f6f901586c076e72ba2d3ea4067b5"}, {"bike_id": "885ab3df5acdc6b1d92a4bf9403d0eb4", "type": "electric_scooter", "is_disabled": 0, "lat": 38.9013325, "rental_uris": {"ios": "https://dc.lft.to/lastmile_qr_scan", "android": "https://dc.lft.to/lastmile_qr_scan"}, "is_reserved": 0, "fusion_lon": 0.0, "fusion_lat": 0.0, "lon": -77.00316566666666, "name": "885ab3df5acdc6b1d92a4bf9403d0eb4"}, {"bike_id": "c80395aa70b99709f143091c5c00c966", "type": "electric_scooter", "is_disabled": 0, "lat": 38.90269283333333, "rental_uris": {"ios": "https://dc.lft.to/lastmile_qr_scan", "android": "https://dc.lft.to/lastmile_qr_scan"}, "is_reserved": 0, "fusion_lon": 0.0, "fusion_lat": 0.0, "lon": -77.05477266666666, "name": "c80395aa70b99709f143091c5c00c966"}, {"bike_id": "310000c18ff3546de8956ecabe319b05", "type": "electric_scooter", "is_disabled": 0, "lat": 38.896193833333335, "rental_uris": {"ios": "https://dc.lft.to/lastmile_qr_scan", "android": "https://dc.lft.to/lastmile_qr_scan"}, "is_reserved": 0, "fusion_lon": 0.0, "fusion_lat": 0.0, "lon": -76.985682, "name": "310000c18ff3546de8956ecabe319b05"}, {"bike_id": "3328c8879d60eb4893be27a5514c83bd", "type": "electric_scooter", "is_disabled": 0, "lat": 38.92162033333334, "rental_uris": {"ios": "https://dc.lft.to/lastmile_qr_scan", "android": "https://dc.lft.to/lastmile_qr_scan"}, "is_reserved": 0, "fusion_lon": 0.0, "fusion_lat": 0.0, "lon": -77.0351035, "name": "3328c8879d60eb4893be27a5514c83bd"}, {"bike_id": "e9f01a54193bff24c3eb9155a89d5b5d", "type": "electric_scooter", "is_disabled": 0, "lat": 38.9132585, "rental_uris": {"ios": "https://dc.lft.to/lastmile_qr_scan", "android": "https://dc.lft.to/lastmile_qr_scan"}, "is_reserved": 0, "fusion_lon": 0.0, "fusion_lat": 0.0, "lon": -77.03185366666666, "name": "e9f01a54193bff24c3eb9155a89d5b5d"}, {"bike_id": "93cada5db32c0be36238bd7160cbdaa1", "type": "electric_scooter", "is_disabled": 0, "lat": 38.894799, "rental_uris": {"ios": "https://dc.lft.to/lastmile_qr_scan", "android": "https://dc.lft.to/lastmile_qr_scan"}, "is_reserved": 0, "fusion_lon": 0.0, "fusion_lat": 0.0, "lon": -76.94863533333333, "name": "93cada5db32c0be36238bd7160cbdaa1"}, {"bike_id": "2a60d95faea47f4fcf9680e3cbb7d2ff", "type": "electric_scooter", "is_disabled": 0, "lat": 38.89232483333333, "rental_uris": {"ios": "https://dc.lft.to/lastmile_qr_scan", "android": "https://dc.lft.to/lastmile_qr_scan"}, "is_reserved": 0, "fusion_lon": 0.0, "fusion_lat": 0.0, "lon": -77.05004116666667, "name": "2a60d95faea47f4fcf9680e3cbb7d2ff"}, {"bike_id": "cbe36b0d377538eac50b5dd489074ee9", "type": "electric_scooter", "is_disabled": 0, "lat": 38.93074466666667, "rental_uris": {"ios": "https://dc.lft.to/lastmile_qr_scan", "android": "https://dc.lft.to/lastmile_qr_scan"}, "is_reserved": 0, "fusion_lon": 0.0, "fusion_lat": 0.0, "lon": -77.01978166666666, "name": "cbe36b0d377538eac50b5dd489074ee9"}, {"bike_id": "36a207385f652ba9ccd8eeb004e807f9", "type": "electric_scooter", "is_disabled": 0, "lat": 38.880137166666664, "rental_uris": {"ios": "https://dc.lft.to/lastmile_qr_scan", "android": "https://dc.lft.to/lastmile_qr_scan"}, "is_reserved": 0, "fusion_lon": 0.0, "fusion_lat": 0.0, "lon": -77.00506383333334, "name": "36a207385f652ba9ccd8eeb004e807f9"}, {"bike_id": "29cc3429b3f9ae86add4fc493190fff9", "type": "electric_scooter", "is_disabled": 0, "lat": 38.942076, "rental_uris": {"ios": "https://dc.lft.to/lastmile_qr_scan", "android": "https://dc.lft.to/lastmile_qr_scan"}, "is_reserved": 0, "fusion_lon": 0.0, "fusion_lat": 0.0, "lon": -77.025901, "name": "29cc3429b3f9ae86add4fc493190fff9"}, {"bike_id": "bbb0247e33915f6c05bcf02ef6052b59", "type": "electric_scooter", "is_disabled": 0, "lat": 38.90608116666667, "rental_uris": {"ios": "https://dc.lft.to/lastmile_qr_scan", "android": "https://dc.lft.to/lastmile_qr_scan"}, "is_reserved": 0, "fusion_lon": 0.0, "fusion_lat": 0.0, "lon": -77.06123166666667, "name": "bbb0247e33915f6c05bcf02ef6052b59"}, {"bike_id": "d695cc8ce8275ce094e5dcfeff6e75fb", "type": "electric_scooter", "is_disabled": 0, "lat": 38.901856, "rental_uris": {"ios": "https://dc.lft.to/lastmile_qr_scan", "android": "https://dc.lft.to/lastmile_qr_scan"}, "is_reserved": 0, "fusion_lon": 0.0, "fusion_lat": 0.0, "lon": -77.0200795, "name": "d695cc8ce8275ce094e5dcfeff6e75fb"}, {"bike_id": "76b4db54bb45315086b8ad8adcfa83a6", "type": "electric_scooter", "is_disabled": 0, "lat": 38.909645833333336, "rental_uris": {"ios": "https://dc.lft.to/lastmile_qr_scan", "android": "https://dc.lft.to/lastmile_qr_scan"}, "is_reserved": 0, "fusion_lon": 0.0, "fusion_lat": 0.0, "lon": -77.03063116666667, "name": "76b4db54bb45315086b8ad8adcfa83a6"}, {"bike_id": "463328b6a35e309784ae99399dd4bd2c", "type": "electric_scooter", "is_disabled": 0, "lat": 38.915073666666665, "rental_uris": {"ios": "https://dc.lft.to/lastmile_qr_scan", "android": "https://dc.lft.to/lastmile_qr_scan"}, "is_reserved": 0, "fusion_lon": 0.0, "fusion_lat": 0.0, "lon": -77.01774716666667, "name": "463328b6a35e309784ae99399dd4bd2c"}, {"bike_id": "9eed6742fba7d9d51f607d5bf557b654", "type": "electric_scooter", "is_disabled": 0, "lat": 38.90126766666667, "rental_uris": {"ios": "https://dc.lft.to/lastmile_qr_scan", "android": "https://dc.lft.to/lastmile_qr_scan"}, "is_reserved": 0, "fusion_lon": 0.0, "fusion_lat": 0.0, "lon": -77.0181505, "name": "9eed6742fba7d9d51f607d5bf557b654"}, {"bike_id": "2418a970fc7613567376c489d926fd83", "type": "electric_scooter", "is_disabled": 0, "lat": 38.91121233333333, "rental_uris": {"ios": "https://dc.lft.to/lastmile_qr_scan", "android": "https://dc.lft.to/lastmile_qr_scan"}, "is_reserved": 0, "fusion_lon": 0.0, "fusion_lat": 0.0, "lon": -77.0114305, "name": "2418a970fc7613567376c489d926fd83"}, {"bike_id": "ddfd8c28b314ef653d1b864524e93704", "type": "electric_scooter", "is_disabled": 0, "lat": 38.91286483333333, "rental_uris": {"ios": "https://dc.lft.to/lastmile_qr_scan", "android": "https://dc.lft.to/lastmile_qr_scan"}, "is_reserved": 0, "fusion_lon": 0.0, "fusion_lat": 0.0, "lon": -77.03209383333333, "name": "ddfd8c28b314ef653d1b864524e93704"}, {"bike_id": "5683ab595478b6688b4181e685c8c49f", "type": "electric_scooter", "is_disabled": 0, "lat": 38.90504266666667, "rental_uris": {"ios": "https://dc.lft.to/lastmile_qr_scan", "android": "https://dc.lft.to/lastmile_qr_scan"}, "is_reserved": 0, "fusion_lon": 0.0, "fusion_lat": 0.0, "lon": -77.0691, "name": "5683ab595478b6688b4181e685c8c49f"}, {"bike_id": "a4507de7e9ab335683235e5ea4a8ea13", "type": "electric_scooter", "is_disabled": 0, "lat": 38.8827375, "rental_uris": {"ios": "https://dc.lft.to/lastmile_qr_scan", "android": "https://dc.lft.to/lastmile_qr_scan"}, "is_reserved": 0, "fusion_lon": 0.0, "fusion_lat": 0.0, "lon": -76.99362366666666, "name": "a4507de7e9ab335683235e5ea4a8ea13"}, {"bike_id": "843fdcb0232448157b9aa4c38f7783b2", "type": "electric_scooter", "is_disabled": 0, "lat": 38.923821333333336, "rental_uris": {"ios": "https://dc.lft.to/lastmile_qr_scan", "android": "https://dc.lft.to/lastmile_qr_scan"}, "is_reserved": 0, "fusion_lon": 0.0, "fusion_lat": 0.0, "lon": -77.0282305, "name": "843fdcb0232448157b9aa4c38f7783b2"}, {"bike_id": "585d1be9eae799d9c771adfadd0f448a", "type": "electric_scooter", "is_disabled": 0, "lat": 38.91972833333333, "rental_uris": {"ios": "https://dc.lft.to/lastmile_qr_scan", "android": "https://dc.lft.to/lastmile_qr_scan"}, "is_reserved": 0, "fusion_lon": 0.0, "fusion_lat": 0.0, "lon": -77.03951466666666, "name": "585d1be9eae799d9c771adfadd0f448a"}, {"bike_id": "5e9693a347c3c2f0578bbb33a8da826c", "type": "electric_scooter", "is_disabled": 0, "lat": 38.91409983333333, "rental_uris": {"ios": "https://dc.lft.to/lastmile_qr_scan", "android": "https://dc.lft.to/lastmile_qr_scan"}, "is_reserved": 0, "fusion_lon": 0.0, "fusion_lat": 0.0, "lon": -77.03167366666666, "name": "5e9693a347c3c2f0578bbb33a8da826c"}, {"bike_id": "91135fafe746a9c941d352369d8d66bf", "type": "electric_scooter", "is_disabled": 0, "lat": 38.9275605, "rental_uris": {"ios": "https://dc.lft.to/lastmile_qr_scan", "android": "https://dc.lft.to/lastmile_qr_scan"}, "is_reserved": 0, "fusion_lon": 0.0, "fusion_lat": 0.0, "lon": -77.02430366666667, "name": "91135fafe746a9c941d352369d8d66bf"}, {"bike_id": "13f3b93f315cd1ce74b2a769144be704", "type": "electric_scooter", "is_disabled": 0, "lat": 38.919623333333334, "rental_uris": {"ios": "https://dc.lft.to/lastmile_qr_scan", "android": "https://dc.lft.to/lastmile_qr_scan"}, "is_reserved": 0, "fusion_lon": 0.0, "fusion_lat": 0.0, "lon": -77.04144466666666, "name": "13f3b93f315cd1ce74b2a769144be704"}, {"bike_id": "18d12103f67a5574b68df55717a600d4", "type": "electric_scooter", "is_disabled": 0, "lat": 38.90535883333333, "rental_uris": {"ios": "https://dc.lft.to/lastmile_qr_scan", "android": "https://dc.lft.to/lastmile_qr_scan"}, "is_reserved": 0, "fusion_lon": 0.0, "fusion_lat": 0.0, "lon": -77.05026683333334, "name": "18d12103f67a5574b68df55717a600d4"}, {"bike_id": "0ab84c43b0201580f3ed5e7c8e735fd5", "type": "electric_scooter", "is_disabled": 0, "lat": 38.9030265, "rental_uris": {"ios": "https://dc.lft.to/lastmile_qr_scan", "android": "https://dc.lft.to/lastmile_qr_scan"}, "is_reserved": 0, "fusion_lon": 0.0, "fusion_lat": 0.0, "lon": -77.050521, "name": "0ab84c43b0201580f3ed5e7c8e735fd5"}, {"bike_id": "3fa82d64cd3ac378fc628fae63bc22d5", "type": "electric_scooter", "is_disabled": 0, "lat": 38.88191883333333, "rental_uris": {"ios": "https://dc.lft.to/lastmile_qr_scan", "android": "https://dc.lft.to/lastmile_qr_scan"}, "is_reserved": 0, "fusion_lon": 0.0, "fusion_lat": 0.0, "lon": -77.02815016666666, "name": "3fa82d64cd3ac378fc628fae63bc22d5"}, {"bike_id": "e48c2af52dd8d421bb0ff997828061d4", "type": "electric_scooter", "is_disabled": 0, "lat": 38.875738166666665, "rental_uris": {"ios": "https://dc.lft.to/lastmile_qr_scan", "android": "https://dc.lft.to/lastmile_qr_scan"}, "is_reserved": 0, "fusion_lon": 0.0, "fusion_lat": 0.0, "lon": -77.0127775, "name": "e48c2af52dd8d421bb0ff997828061d4"}, {"bike_id": "b76c19eac12d6e3f27006b840781d755", "type": "electric_scooter", "is_disabled": 0, "lat": 38.8922415, "rental_uris": {"ios": "https://dc.lft.to/lastmile_qr_scan", "android": "https://dc.lft.to/lastmile_qr_scan"}, "is_reserved": 0, "fusion_lon": 0.0, "fusion_lat": 0.0, "lon": -77.0451325, "name": "b76c19eac12d6e3f27006b840781d755"}, {"bike_id": "745eaf1f03735a8094e3dd3bd8e4611a", "type": "electric_scooter", "is_disabled": 0, "lat": 38.897437833333335, "rental_uris": {"ios": "https://dc.lft.to/lastmile_qr_scan", "android": "https://dc.lft.to/lastmile_qr_scan"}, "is_reserved": 0, "fusion_lon": 0.0, "fusion_lat": 0.0, "lon": -76.94727016666667, "name": "745eaf1f03735a8094e3dd3bd8e4611a"}, {"bike_id": "e8c2b38c752203c86966f59d7f73eb6a", "type": "electric_scooter", "is_disabled": 0, "lat": 38.8960585, "rental_uris": {"ios": "https://dc.lft.to/lastmile_qr_scan", "android": "https://dc.lft.to/lastmile_qr_scan"}, "is_reserved": 0, "fusion_lon": 0.0, "fusion_lat": 0.0, "lon": -77.0092675, "name": "e8c2b38c752203c86966f59d7f73eb6a"}, {"bike_id": "05f00c44e23cbbfb239e0ce397940478", "type": "electric_bike", "is_disabled": 0, "lat": 39.034001, "rental_uris": {"ios": "https://dc.lft.to/lastmile_qr_scan", "android": "https://dc.lft.to/lastmile_qr_scan"}, "is_reserved": 0, "fusion_lon": 0.0, "fusion_lat": 0.0, "lon": -77.04150116666666, "name": "05f00c44e23cbbfb239e0ce397940478"}, {"bike_id": "553478207e8f8f11209222629bdca515", "type": "electric_scooter", "is_disabled": 0, "lat": 38.928880166666666, "rental_uris": {"ios": "https://dc.lft.to/lastmile_qr_scan", "android": "https://dc.lft.to/lastmile_qr_scan"}, "is_reserved": 0, "fusion_lon": 0.0, "fusion_lat": 0.0, "lon": -77.03306416666666, "name": "553478207e8f8f11209222629bdca515"}, {"bike_id": "5879d54c8697c959ecb7f26d974e0467", "type": "electric_scooter", "is_disabled": 0, "lat": 38.8922625, "rental_uris": {"ios": "https://dc.lft.to/lastmile_qr_scan", "android": "https://dc.lft.to/lastmile_qr_scan"}, "is_reserved": 0, "fusion_lon": 0.0, "fusion_lat": 0.0, "lon": -77.03978666666667, "name": "5879d54c8697c959ecb7f26d974e0467"}, {"bike_id": "a9cfdee99cc254e47fd70119f3e3e4cc", "type": "electric_scooter", "is_disabled": 0, "lat": 38.90736016666666, "rental_uris": {"ios": "https://dc.lft.to/lastmile_qr_scan", "android": "https://dc.lft.to/lastmile_qr_scan"}, "is_reserved": 0, "fusion_lon": 0.0, "fusion_lat": 0.0, "lon": -77.04827283333333, "name": "a9cfdee99cc254e47fd70119f3e3e4cc"}, {"bike_id": "98b6fa52b6010ecf6fdd810024f47d28", "type": "electric_scooter", "is_disabled": 0, "lat": 38.892297, "rental_uris": {"ios": "https://dc.lft.to/lastmile_qr_scan", "android": "https://dc.lft.to/lastmile_qr_scan"}, "is_reserved": 0, "fusion_lon": 0.0, "fusion_lat": 0.0, "lon": -77.0464855, "name": "98b6fa52b6010ecf6fdd810024f47d28"}, {"bike_id": "2222836083715dfca4b456debe5d3dfe", "type": "electric_scooter", "is_disabled": 0, "lat": 38.911907166666666, "rental_uris": {"ios": "https://dc.lft.to/lastmile_qr_scan", "android": "https://dc.lft.to/lastmile_qr_scan"}, "is_reserved": 0, "fusion_lon": 0.0, "fusion_lat": 0.0, "lon": -77.038656, "name": "2222836083715dfca4b456debe5d3dfe"}, {"bike_id": "051fdfe9ea48ccd64e000c38698c6ac3", "type": "electric_scooter", "is_disabled": 0, "lat": 38.892342, "rental_uris": {"ios": "https://dc.lft.to/lastmile_qr_scan", "android": "https://dc.lft.to/lastmile_qr_scan"}, "is_reserved": 0, "fusion_lon": 0.0, "fusion_lat": 0.0, "lon": -77.04671583333334, "name": "051fdfe9ea48ccd64e000c38698c6ac3"}, {"bike_id": "39cc78c8cceb29024f37b051f14d6aff", "type": "electric_scooter", "is_disabled": 0, "lat": 38.91626683333333, "rental_uris": {"ios": "https://dc.lft.to/lastmile_qr_scan", "android": "https://dc.lft.to/lastmile_qr_scan"}, "is_reserved": 0, "fusion_lon": 0.0, "fusion_lat": 0.0, "lon": -77.02303833333333, "name": "39cc78c8cceb29024f37b051f14d6aff"}, {"bike_id": "bf03070b502d1a6861efe898d79127bc", "type": "electric_scooter", "is_disabled": 0, "lat": 38.9569075, "rental_uris": {"ios": "https://dc.lft.to/lastmile_qr_scan", "android": "https://dc.lft.to/lastmile_qr_scan"}, "is_reserved": 0, "fusion_lon": 0.0, "fusion_lat": 0.0, "lon": -77.02403833333334, "name": "bf03070b502d1a6861efe898d79127bc"}, {"bike_id": "87fc436d41cb084f35a56430ef2e12d6", "type": "electric_scooter", "is_disabled": 0, "lat": 38.917722499999996, "rental_uris": {"ios": "https://dc.lft.to/lastmile_qr_scan", "android": "https://dc.lft.to/lastmile_qr_scan"}, "is_reserved": 0, "fusion_lon": 0.0, "fusion_lat": 0.0, "lon": -77.04058266666667, "name": "87fc436d41cb084f35a56430ef2e12d6"}, {"bike_id": "48e0adf975e9cd8a6b529aa48c6c1841", "type": "electric_scooter", "is_disabled": 0, "lat": 38.8901645, "rental_uris": {"ios": "https://dc.lft.to/lastmile_qr_scan", "android": "https://dc.lft.to/lastmile_qr_scan"}, "is_reserved": 0, "fusion_lon": 0.0, "fusion_lat": 0.0, "lon": -76.937441, "name": "48e0adf975e9cd8a6b529aa48c6c1841"}, {"bike_id": "c97575633c420c61fe8b760557faf789", "type": "electric_scooter", "is_disabled": 0, "lat": 38.901321, "rental_uris": {"ios": "https://dc.lft.to/lastmile_qr_scan", "android": "https://dc.lft.to/lastmile_qr_scan"}, "is_reserved": 0, "fusion_lon": 0.0, "fusion_lat": 0.0, "lon": -77.03639266666667, "name": "c97575633c420c61fe8b760557faf789"}, {"bike_id": "a03af880ff5f66914eca0124271a212d", "type": "electric_scooter", "is_disabled": 0, "lat": 38.91926316666667, "rental_uris": {"ios": "https://dc.lft.to/lastmile_qr_scan", "android": "https://dc.lft.to/lastmile_qr_scan"}, "is_reserved": 0, "fusion_lon": 0.0, "fusion_lat": 0.0, "lon": -77.02580616666667, "name": "a03af880ff5f66914eca0124271a212d"}, {"bike_id": "9771e351a036cea03fd09f579f51139f", "type": "electric_scooter", "is_disabled": 0, "lat": 38.907312833333336, "rental_uris": {"ios": "https://dc.lft.to/lastmile_qr_scan", "android": "https://dc.lft.to/lastmile_qr_scan"}, "is_reserved": 0, "fusion_lon": 0.0, "fusion_lat": 0.0, "lon": -77.04651066666666, "name": "9771e351a036cea03fd09f579f51139f"}, {"bike_id": "ea26f9be1473d83f4f8c12800a8825ac", "type": "electric_scooter", "is_disabled": 0, "lat": 38.930135166666666, "rental_uris": {"ios": "https://dc.lft.to/lastmile_qr_scan", "android": "https://dc.lft.to/lastmile_qr_scan"}, "is_reserved": 0, "fusion_lon": 0.0, "fusion_lat": 0.0, "lon": -77.0323605, "name": "ea26f9be1473d83f4f8c12800a8825ac"}, {"bike_id": "230b967ee0e90cb132b56589e385b56a", "type": "electric_scooter", "is_disabled": 0, "lat": 38.90689016666666, "rental_uris": {"ios": "https://dc.lft.to/lastmile_qr_scan", "android": "https://dc.lft.to/lastmile_qr_scan"}, "is_reserved": 0, "fusion_lon": 0.0, "fusion_lat": 0.0, "lon": -77.02688266666667, "name": "230b967ee0e90cb132b56589e385b56a"}, {"bike_id": "089ec7b4b6f53654d7d1979118dc0333", "type": "electric_scooter", "is_disabled": 0, "lat": 38.87294283333333, "rental_uris": {"ios": "https://dc.lft.to/lastmile_qr_scan", "android": "https://dc.lft.to/lastmile_qr_scan"}, "is_reserved": 0, "fusion_lon": 0.0, "fusion_lat": 0.0, "lon": -77.0098525, "name": "089ec7b4b6f53654d7d1979118dc0333"}, {"bike_id": "d30bab8204360b81b6dfb7d2082eb72d", "type": "electric_scooter", "is_disabled": 0, "lat": 38.907203333333335, "rental_uris": {"ios": "https://dc.lft.to/lastmile_qr_scan", "android": "https://dc.lft.to/lastmile_qr_scan"}, "is_reserved": 0, "fusion_lon": 0.0, "fusion_lat": 0.0, "lon": -77.0501345, "name": "d30bab8204360b81b6dfb7d2082eb72d"}, {"bike_id": "d201ad89c6dfa21f668ed145643b396a", "type": "electric_scooter", "is_disabled": 0, "lat": 38.8922395, "rental_uris": {"ios": "https://dc.lft.to/lastmile_qr_scan", "android": "https://dc.lft.to/lastmile_qr_scan"}, "is_reserved": 0, "fusion_lon": 0.0, "fusion_lat": 0.0, "lon": -77.02835116666667, "name": "d201ad89c6dfa21f668ed145643b396a"}, {"bike_id": "ce9cbe86e8bd054e5892c4c7aa950a58", "type": "electric_scooter", "is_disabled": 0, "lat": 38.876486, "rental_uris": {"ios": "https://dc.lft.to/lastmile_qr_scan", "android": "https://dc.lft.to/lastmile_qr_scan"}, "is_reserved": 0, "fusion_lon": 0.0, "fusion_lat": 0.0, "lon": -76.965025, "name": "ce9cbe86e8bd054e5892c4c7aa950a58"}, {"bike_id": "4b27a61550b733e994993c2a1e9f4fe1", "type": "electric_scooter", "is_disabled": 0, "lat": 38.968548166666665, "rental_uris": {"ios": "https://dc.lft.to/lastmile_qr_scan", "android": "https://dc.lft.to/lastmile_qr_scan"}, "is_reserved": 0, "fusion_lon": 0.0, "fusion_lat": 0.0, "lon": -77.02725133333334, "name": "4b27a61550b733e994993c2a1e9f4fe1"},