{"data": {"bikes": [{"fusion_lat": 0.0, "lon": -76.99333816666666, "is_reserved": 0, "bike_id": "b1490a0aeb4701f6e37352292942cd3f", "fusion_lon": 0.0, "rental_uris": {"android": "https://dc.lft.to/lastmile_qr_scan", "ios": "https://dc.lft.to/lastmile_qr_scan"}, "name": "b1490a0aeb4701f6e37352292942cd3f", "type": "electric_scooter", "lat": 38.87142433333333, "is_disabled": 0}, {"fusion_lat": 0.0, "lon": -76.97908766666667, "is_reserved": 0, "bike_id": "07c49aedca8ec137e4959aadfc5d0768", "fusion_lon": 0.0, "rental_uris": {"android": "https://dc.lft.to/lastmile_qr_scan", "ios": "https://dc.lft.to/lastmile_qr_scan"}, "name": "07c49aedca8ec137e4959aadfc5d0768", "type": "electric_bike", "lat": 38.8725505, "is_disabled": 0}, {"fusion_lat": 0.0, "lon": -77.03206616666667, "is_reserved": 0, "bike_id": "6a6220386732d567b265126bf6e438ee", "fusion_lon": 0.0, "rental_uris": {"android": "https://dc.lft.to/lastmile_qr_scan", "ios": "https://dc.lft.to/lastmile_qr_scan"}, "name": "6a6220386732d567b265126bf6e438ee", "type": "electric_scooter", "lat": 38.914970833333335, "is_disabled": 0}, {"fusion_lat": 0.0, "lon": -77.03240633333333, "is_reserved": 0, "bike_id": "fadcccf1c06007a4aff0ec197f4aac7c", "fusion_lon": 0.0, "rental_uris": {"android": "https://dc.lft.to/lastmile_qr_scan", "ios": "https://dc.lft.to/lastmile_qr_scan"}, "name": "fadcccf1c06007a4aff0ec197f4aac7c", "type": "electric_bike", "lat": 38.928855166666665, "is_disabled": 0}, {"fusion_lat": 0.0, "lon": -76.960619, "is_reserved": 0, "bike_id": "dd894a3edd8b9c41f30223b5b68be01b", "fusion_lon": 0.0, "rental_uris": {"android": "https://dc.lft.to/lastmile_qr_scan", "ios": "https://dc.lft.to/lastmile_qr_scan"}, "name": "dd894a3edd8b9c41f30223b5b68be01b", "type": "electric_bike", "lat": 38.88401833333333, "is_disabled": 0}, {"fusion_lat": 0.0, "lon": -76.98859083333333, "is_reserved": 0, "bike_id": "0ef06d79fd2daa9b42ebef44650d560b", "fusion_lon": 0.0, "rental_uris": {"android": "https://dc.lft.to/lastmile_qr_scan", "ios": "https://dc.lft.to/lastmile_qr_scan"}, "name": "0ef06d79fd2daa9b42ebef44650d560b", "type": "electric_bike", "lat": 38.95482466666667, "is_disabled": 0}, {"fusion_lat": 0.0, "lon": -77.0322135, "is_reserved": 0, "bike_id": "b4ec6b0dbae5c8323c689638b2f00bd1", "fusion_lon": 0.0, "rental_uris": {"android": "https://dc.lft.to/lastmile_qr_scan", "ios": "https://dc.lft.to/lastmile_qr_scan"}, "name": "b4ec6b0dbae5c8323c689638b2f00bd1", "type": "electric_scooter", "lat": 38.9198885, "is_disabled": 0}, {"fusion_lat": 0.0, "lon": -77.05496466666666, "is_reserved": 0, "bike_id": "b6fc9b45e3788703f5a71366c03307fe", "fusion_lon": 0.0, "rental_uris": {"android": "https://dc.lft.to/lastmile_qr_scan", "ios": "https://dc.lft.to/lastmile_qr_scan"}, "name": "b6fc9b45e3788703f5a71366c03307fe", "type": "electric_scooter", "lat": 38.89991533333333, "is_disabled": 0}, {"fusion_lat": 0.0, "lon": -76.98658683333333, "is_reserved": 0, "bike_id": "a724538625469f90dc84639b76fc429b", "fusion_lon": 0.0, "rental_uris": {"android": "https://dc.lft.to/lastmile_qr_scan", "ios": "https://dc.lft.to/lastmile_qr_scan"}, "name": "a724538625469f90dc84639b76fc429b", "type": "electric_scooter", "lat": 38.898185, "is_disabled": 0}, {"fusion_lat": 0.0, "lon": -77.01858966666667, "is_reserved": 0, "bike_id": "64b0d46ec908dd5e9998b14c42bc1d68", "fusion_lon": 0.0, "rental_uris": {"android": "https://dc.lft.to/lastmile_qr_scan", "ios": "https://dc.lft.to/lastmile_qr_scan"}, "name": "64b0d46ec908dd5e9998b14c42bc1d68", "type": "electric_scooter", "lat": 38.973653, "is_disabled": 0}, {"fusion_lat": 0.0, "lon": -77.04464933333334, "is_reserved": 0, "bike_id": "7627df7652428be1f03ec37ea6e1b6b8", "fusion_lon": 0.0, "rental_uris": {"android": "https://dc.lft.to/lastmile_qr_scan", "ios": "https://dc.lft.to/lastmile_qr_scan"}, "name": "7627df7652428be1f03ec37ea6e1b6b8", "type": "electric_scooter", "lat": 38.9190875, "is_disabled": 0}, {"fusion_lat": 0.0, "lon": -77.0334195, "is_reserved": 0, "bike_id": "abf468cf5e98ee326fed7934ca2a34f6", "fusion_lon": 0.0, "rental_uris": {"android": "https://dc.lft.to/lastmile_qr_scan", "ios": "https://dc.lft.to/lastmile_qr_scan"}, "name": "abf468cf5e98ee326fed7934ca2a34f6", "type": "electric_scooter", "lat": 38.92056866666667, "is_disabled": 0}, {"fusion_lat": 0.0, "lon": -77.03183933333334, "is_reserved": 0, "bike_id": "1c103a01b383c87627634d7c4f31f41d", "fusion_lon": 0.0, "rental_uris": {"android": "https://dc.lft.to/lastmile_qr_scan", "ios": "https://dc.lft.to/lastmile_qr_scan"}, "name": "1c103a01b383c87627634d7c4f31f41d", "type": "electric_scooter", "lat": 38.903654833333334, "is_disabled": 0}, {"fusion_lat": 0.0, "lon": -76.9375155, "is_reserved": 0, "bike_id": "dfd5fb7acc17ee488897e1679cf284c8", "fusion_lon": 0.0, "rental_uris": {"android": "https://dc.lft.to/lastmile_qr_scan", "ios": "https://dc.lft.to/lastmile_qr_scan"}, "name": "dfd5fb7acc17ee488897e1679cf284c8", "type": "electric_scooter", "lat": 38.8904855, "is_disabled": 0}, {"fusion_lat": 0.0, "lon": -76.99854133333334, "is_reserved": 0, "bike_id": "bc8a3a4357793fea6214e35bc8465113", "fusion_lon": 0.0, "rental_uris": {"android": "https://dc.lft.to/lastmile_qr_scan", "ios": "https://dc.lft.to/lastmile_qr_scan"}, "name": "bc8a3a4357793fea6214e35bc8465113", "type": "electric_scooter", "lat": 38.90026233333333, "is_disabled": 0}, {"fusion_lat": 0.0, "lon": -77.07270283333334, "is_reserved": 0, "bike_id": "5022ac72e6f72b92540ef2882cb70285", "fusion_lon": 0.0, "rental_uris": {"android": "https://dc.lft.to/lastmile_qr_scan", "ios": "https://dc.lft.to/lastmile_qr_scan"}, "name": "5022ac72e6f72b92540ef2882cb70285", "type": "electric_scooter", "lat": 38.934797333333336, "is_disabled": 0}, {"fusion_lat": 0.0, "lon": -77.0481995, "is_reserved": 0, "bike_id": "4c4f6e53050241ed56721d4c37b84cc4", "fusion_lon": 0.0, "rental_uris": {"android": "https://dc.lft.to/lastmile_qr_scan", "ios": "https://dc.lft.to/lastmile_qr_scan"}, "name": "4c4f6e53050241ed56721d4c37b84cc4", "type": "electric_scooter", "lat": 38.907200333333336, "is_disabled": 0}, {"fusion_lat": 0.0, "lon": -77.02295883333333, "is_reserved": 0, "bike_id": "48310914effb5f2b6992ee1b267379f4", "fusion_lon": 0.0, "rental_uris": {"android": "https://dc.lft.to/lastmile_qr_scan", "ios": "https://dc.lft.to/lastmile_qr_scan"}, "name": "48310914effb5f2b6992ee1b267379f4", "type": "electric_scooter", "lat": 38.8996225, "is_disabled": 0}, {"fusion_lat": 0.0, "lon": -77.00224916666667, "is_reserved": 0, "bike_id": "262c658e54cbe5af2c1db072bb1efb89", "fusion_lon": 0.0, "rental_uris": {"android": "https://dc.lft.to/lastmile_qr_scan", "ios": "https://dc.lft.to/lastmile_qr_scan"}, "name": "262c658e54cbe5af2c1db072bb1efb89", "type": "electric_scooter", "lat": 38.894882, "is_disabled": 0}, {"fusion_lat": 0.0, "lon": -77.021764, "is_reserved": 0, "bike_id": "bf8b4fe1c411af3a418ec54aac3da6b6", "fusion_lon": 0.0, "rental_uris": {"android": "https://dc.lft.to/lastmile_qr_scan", "ios": "https://dc.lft.to/lastmile_qr_scan"}, "name": "bf8b4fe1c411af3a418ec54aac3da6b6", "type": "electric_scooter", "lat": 38.8996565, "is_disabled": 0}, {"fusion_lat": 0.0, "lon": -77.0581225, "is_reserved": 0, "bike_id": "d34c27545417694f2b78be38016995a3", "fusion_lon": 0.0, "rental_uris": {"android": "https://dc.lft.to/lastmile_qr_scan", "ios": "https://dc.lft.to/lastmile_qr_scan"}, "name": "d34c27545417694f2b78be38016995a3", "type": "electric_scooter", "lat": 38.935079, "is_disabled": 0}, {"fusion_lat": 0.0, "lon": -77.04841266666666, "is_reserved": 0, "bike_id": "f4b35b9d98dd994ab350ea1eecb42df9", "fusion_lon": 0.0, "rental_uris": {"android": "https://dc.lft.to/lastmile_qr_scan", "ios": "https://dc.lft.to/lastmile_qr_scan"}, "name": "f4b35b9d98dd994ab350ea1eecb42df9", "type": "electric_scooter", "lat": 38.90963283333333, "is_disabled": 0}, {"fusion_lat": 0.0, "lon": -77.02843266666666, "is_reserved": 0, "bike_id": "741658cbeeeb5e5c9b658b7df5233a29", "fusion_lon": 0.0, "rental_uris": {"android": "https://dc.lft.to/lastmile_qr_scan", "ios": "https://dc.lft.to/lastmile_qr_scan"}, "name": "741658cbeeeb5e5c9b658b7df5233a29", "type": "electric_scooter", "lat": 38.91264816666666, "is_disabled": 0}, {"fusion_lat": 0.0, "lon": -77.0195105, "is_reserved": 0, "bike_id": "3f4ec283c5bfa543f06319d60936e570", "fusion_lon": 0.0, "rental_uris": {"android": "https://dc.lft.to/lastmile_qr_scan", "ios": "https://dc.lft.to/lastmile_qr_scan"}, "name": "3f4ec283c5bfa543f06319d60936e570", "type": "electric_scooter", "lat": 38.923591333333334, "is_disabled": 0}, {"fusion_lat": 0.0, "lon": -77.03379, "is_reserved": 0, "bike_id": "97222c5b35fde78ed42654e70d4fc385", "fusion_lon": 0.0, "rental_uris": {"android": "https://dc.lft.to/lastmile_qr_scan", "ios": "https://dc.lft.to/lastmile_qr_scan"}, "name": "97222c5b35fde78ed42654e70d4fc385", "type": "electric_scooter", "lat": 38.9253535, "is_disabled": 0}, {"fusion_lat": 0.0, "lon": -77.0520165, "is_reserved": 0, "bike_id": "1c49b0ad1213a780be76216a0d7fb6f7", "fusion_lon": 0.0, "rental_uris": {"android": "https://dc.lft.to/lastmile_qr_scan", "ios": "https://dc.lft.to/lastmile_qr_scan"}, "name": "1c49b0ad1213a780be76216a0d7fb6f7", "type": "electric_scooter", "lat": 38.92464433333333, "is_disabled": 0}, {"fusion_lat": 0.0, "lon": -77.04208316666667, "is_reserved": 0, "bike_id": "9d51fc41978c8bffe0370b7036aff962", "fusion_lon": 0.0, "rental_uris": {"android": "https://dc.lft.to/lastmile_qr_scan", "ios": "https://dc.lft.to/lastmile_qr_scan"}, "name": "9d51fc41978c8bffe0370b7036aff962", "type": "electric_scooter", "lat": 38.923116666666665, "is_disabled": 0}, {"fusion_lat": 0.0, "lon": -77.0320485, "is_reserved": 0, "bike_id": "998bff0f8744881362c5ebbbb2859c7d", "fusion_lon": 0.0, "rental_uris": {"android": "https://dc.lft.to/lastmile_qr_scan", "ios": "https://dc.lft.to/lastmile_qr_scan"}, "name": "998bff0f8744881362c5ebbbb2859c7d", "type": "electric_scooter", "lat": 38.912919, "is_disabled": 0}, {"fusion_lat": 0.0, "lon": -77.0743395, "is_reserved": 0, "bike_id": "9c1930069e46480553b295a5940e6d25", "fusion_lon": 0.0, "rental_uris": {"android": "https://dc.lft.to/lastmile_qr_scan", "ios": "https://dc.lft.to/lastmile_qr_scan"}, "name": "9c1930069e46480553b295a5940e6d25", "type": "electric_bike", "lat": 38.999460166666665, "is_disabled": 0}, {"fusion_lat": 0.0, "lon": -77.0076415, "is_reserved": 0, "bike_id": "d237c281cb9e3acfa3f68005170e9a6a", "fusion_lon": 0.0, "rental_uris": {"android": "https://dc.lft.to/lastmile_qr_scan", "ios": "https://dc.lft.to/lastmile_qr_scan"}, "name": "d237c281cb9e3acfa3f68005170e9a6a", "type": "electric_scooter", "lat": 38.8259335, "is_disabled": 0}, {"fusion_lat": 0.0, "lon": -77.0243255, "is_reserved": 0, "bike_id": "e64ad0398a7b073b3ed149cd9ea1f8f3", "fusion_lon": 0.0, "rental_uris": {"android": "https://dc.lft.to/lastmile_qr_scan", "ios": "https://dc.lft.to/lastmile_qr_scan"}, "name": "e64ad0398a7b073b3ed149cd9ea1f8f3", "type": "electric_scooter", "lat": 38.927176333333335, "is_disabled": 0}, {"fusion_lat": 0.0, "lon": -77.0379915, "is_reserved": 0, "bike_id": "ff0306381290eacf4798687a01fcef7a", "fusion_lon": 0.0, "rental_uris": {"android": "https://dc.lft.to/lastmile_qr_scan", "ios": "https://dc.lft.to/lastmile_qr_scan"}, "name": "ff0306381290eacf4798687a01fcef7a", "type": "electric_scooter", "lat": 38.91034666666667, "is_disabled": 0}, {"fusion_lat": 0.0, "lon": -76.98715766666666, "is_reserved": 0, "bike_id": "91015fcb4114561291847c32224a5d3f", "fusion_lon": 0.0, "rental_uris": {"android": "https://dc.lft.to/lastmile_qr_scan", "ios": "https://dc.lft.to/lastmile_qr_scan"}, "name": "91015fcb4114561291847c32224a5d3f", "type": "electric_scooter", "lat": 38.866218, "is_disabled": 0}, {"fusion_lat": 0.0, "lon": -77.02309, "is_reserved": 0, "bike_id": "b1ffcf6c3c0f42e0c90345ae636c9ec9", "fusion_lon": 0.0, "rental_uris": {"android": "https://dc.lft.to/lastmile_qr_scan", "ios": "https://dc.lft.to/lastmile_qr_scan"}, "name": "b1ffcf6c3c0f42e0c90345ae636c9ec9", "type": "electric_scooter", "lat": 38.90863083333333, "is_disabled": 0}, {"fusion_lat": 0.0, "lon": -77.00055566666667, "is_reserved": 0, "bike_id": "d133896d27b240964015354910ce314c", "fusion_lon": 0.0, "rental_uris": {"android": "https://dc.lft.to/lastmile_qr_scan", "ios": "https://dc.lft.to/lastmile_qr_scan"}, "name": "d133896d27b240964015354910ce314c", "type": "electric_scooter", "lat": 38.89836066666667, "is_disabled": 0}, {"fusion_lat": 0.0, "lon": -77.02021483333333, "is_reserved": 0, "bike_id": "6905b7f88f3777d653581d66c664af90", "fusion_lon": 0.0, "rental_uris": {"android": "https://dc.lft.to/lastmile_qr_scan", "ios": "https://dc.lft.to/lastmile_qr_scan"}, "name": "6905b7f88f3777d653581d66c664af90", "type": "electric_scooter", "lat": 38.92249016666667, "is_disabled": 0}, {"fusion_lat": 0.0, "lon": -77.1170815, "is_reserved": 0, "bike_id": "89f3e2f8305f6378735246a30e788599", "fusion_lon": 0.0, "rental_uris": {"android": "https://dc.lft.to/lastmile_qr_scan", "ios": "https://dc.lft.to/lastmile_qr_scan"}, "name": "89f3e2f8305f6378735246a30e788599", "type": "electric_bike", "lat": 38.867442, "is_disabled": 0}, {"fusion_lat": 0.0, "lon": -76.984672, "is_reserved": 0, "bike_id": "9a317bddfd229ec5cdab3a459b47b66a", "fusion_lon": 0.0, "rental_uris": {"android": "https://dc.lft.to/lastmile_qr_scan", "ios": "https://dc.lft.to/lastmile_qr_scan"}, "name": "9a317bddfd229ec5cdab3a459b47b66a", "type": "electric_scooter", "lat": 38.903959666666665, "is_disabled": 0}, {"fusion_lat": 0.0, "lon": -77.019489, "is_reserved": 0, "bike_id": "0f43efb532c5d7c1508e75db6260f15e", "fusion_lon": 0.0, "rental_uris": {"android": "https://dc.lft.to/lastmile_qr_scan", "ios": "https://dc.lft.to/lastmile_qr_scan"}, "name": "0f43efb532c5d7c1508e75db6260f15e", "type": "electric_scooter", "lat": 38.922419, "is_disabled": 0}, {"fusion_lat": 0.0, "lon": -77.01139216666667, "is_reserved": 0, "bike_id": "c1e0d487a604d904143d2e3bbfe6e2cb", "fusion_lon": 0.0, "rental_uris": {"android": "https://dc.lft.to/lastmile_qr_scan", "ios": "https://dc.lft.to/lastmile_qr_scan"}, "name": "c1e0d487a604d904143d2e3bbfe6e2cb", "type": "electric_scooter", "lat": 38.89880266666667, "is_disabled": 0}, {"fusion_lat": 0.0, "lon": -77.04651533333333, "is_reserved": 0, "bike_id": "77b941efce9b14e9550ec1577db42028", "fusion_lon": 0.0, "rental_uris": {"android": "https://dc.lft.to/lastmile_qr_scan", "ios": "https://dc.lft.to/lastmile_qr_scan"}, "name": "77b941efce9b14e9550ec1577db42028", "type": "electric_scooter", "lat": 38.89222216666667, "is_disabled": 0}, {"fusion_lat": 0.0, "lon": -77.02155333333333, "is_reserved": 0, "bike_id": "0a70135a80c17cf8fd599c3fdc9071b2", "fusion_lon": 0.0, "rental_uris": {"android": "https://dc.lft.to/lastmile_qr_scan", "ios": "https://dc.lft.to/lastmile_qr_scan"}, "name": "0a70135a80c17cf8fd599c3fdc9071b2", "type": "electric_scooter", "lat": 38.89731883333333, "is_disabled": 0}, {"fusion_lat": 0.0, "lon": -77.10648966666666, "is_reserved": 0, "bike_id": "d988cc764923eb763be9716c33314164", "fusion_lon": 0.0, "rental_uris": {"android": "https://dc.lft.to/lastmile_qr_scan", "ios": "https://dc.lft.to/lastmile_qr_scan"}, "name": "d988cc764923eb763be9716c33314164", "type": "electric_bike", "lat": 38.8734945, "is_disabled": 0}, {"fusion_lat": 0.0, "lon": -77.0632415, "is_reserved": 0, "bike_id": "09644b03ae01eb79704b723ca4371941", "fusion_lon": 0.0, "rental_uris": {"android": "https://dc.lft.to/lastmile_qr_scan", "ios": "https://dc.lft.to/lastmile_qr_scan"}, "name": "09644b03ae01eb79704b723ca4371941", "type": "electric_scooter", "lat": 38.944205, "is_disabled": 0}, {"fusion_lat": 0.0, "lon": -77.01164033333333, "is_reserved": 0, "bike_id": "025992f303f0f3140c8d91fbc6d5296c", "fusion_lon": 0.0, "rental_uris": {"android": "https://dc.lft.to/lastmile_qr_scan", "ios": "https://dc.lft.to/lastmile_qr_scan"}, "name": "025992f303f0f3140c8d91fbc6d5296c", "type": "electric_scooter", "lat": 38.900361833333335, "is_disabled": 0}, {"fusion_lat": 0.0, "lon": -77.02708616666666, "is_reserved": 0, "bike_id": "2d8713e8063d0288bc9ef18159bea18b", "fusion_lon": 0.0, "rental_uris": {"android": "https://dc.lft.to/lastmile_qr_scan", "ios": "https://dc.lft.to/lastmile_qr_scan"}, "name": "2d8713e8063d0288bc9ef18159bea18b", "type": "electric_scooter", "lat": 38.90661083333333, "is_disabled": 0}, {"fusion_lat": 0.0, "lon": -77.06157433333334, "is_reserved": 0, "bike_id": "604cd0503c464edd9523ef9cfdfc4afe", "fusion_lon": 0.0, "rental_uris": {"android": "https://dc.lft.to/lastmile_qr_scan", "ios": "https://dc.lft.to/lastmile_qr_scan"}, "name": "604cd0503c464edd9523ef9cfdfc4afe", "type": "electric_scooter", "lat": 38.90250433333333, "is_disabled": 0}, {"fusion_lat": 0.0, "lon": -77.00719866666667, "is_reserved": 0, "bike_id": "e7a418b52e757b196ae37c1e44173015", "fusion_lon": 0.0, "rental_uris": {"android": "https://dc.lft.to/lastmile_qr_scan", "ios": "https://dc.lft.to/lastmile_qr_scan"}, "name": "e7a418b52e757b196ae37c1e44173015", "type": "electric_scooter", "lat": 38.8849135, "is_disabled": 0}, {"fusion_lat": 0.0, "lon": -77.00369566666667, "is_reserved": 0, "bike_id": "fac1583d377e41c5274bcc6433df8130", "fusion_lon": 0.0, "rental_uris": {"android": "https://dc.lft.to/lastmile_qr_scan", "ios": "https://dc.lft.to/lastmile_qr_scan"}, "name": "fac1583d377e41c5274bcc6433df8130", "type": "electric_scooter", "lat": 38.8826575, "is_disabled": 0}, {"fusion_lat": 0.0, "lon": -76.99127416666667, "is_reserved": 0, "bike_id": "f19bd015f8421c906dffc2ac7a6b7e11", "fusion_lon": 0.0, "rental_uris": {"android": "https://dc.lft.to/lastmile_qr_scan", "ios": "https://dc.lft.to/lastmile_qr_scan"}, "name": "f19bd015f8421c906dffc2ac7a6b7e11", "type": "electric_scooter", "lat": 38.920551333333336, "is_disabled": 0}, {"fusion_lat": 0.0, "lon": -76.9906575, "is_reserved": 0, "bike_id": "150843b0e9e5b387f1650a0b4bd6339b", "fusion_lon": 0.0, "rental_uris": {"android": "https://dc.lft.to/lastmile_qr_scan", "ios": "https://dc.lft.to/lastmile_qr_scan"}, "name": "150843b0e9e5b387f1650a0b4bd6339b", "type": "electric_scooter", "lat": 38.863633666666665, "is_disabled": 0}, {"fusion_lat": 0.0, "lon": -77.03866883333333, "is_reserved": 0, "bike_id": "943f4b043fa9216d671a43eba20ffa13", "fusion_lon": 0.0, "rental_uris": {"android": "https://dc.lft.to/lastmile_qr_scan", "ios": "https://dc.lft.to/lastmile_qr_scan"}, "name": "943f4b043fa9216d671a43eba20ffa13", "type": "electric_scooter", "lat": 38.945007333333336, "is_disabled": 0}, {"fusion_lat": 0.0, "lon": -76.99716716666667, "is_reserved": 0, "bike_id": "30581eb4cc73f871dd98bd9804a523be", "fusion_lon": 0.0, "rental_uris": {"android": "https://dc.lft.to/lastmile_qr_scan", "ios": "https://dc.lft.to/lastmile_qr_scan"}, "name": "30581eb4cc73f871dd98bd9804a523be", "type": "electric_scooter", "lat": 38.90776783333333, "is_disabled": 0}, {"fusion_lat": 0.0, "lon": -77.07003766666666, "is_reserved": 0, "bike_id": "81cbb82dbf6ed8fea3658c183932ad1f", "fusion_lon": 0.0, "rental_uris": {"android": "https://dc.lft.to/lastmile_qr_scan", "ios": "https://dc.lft.to/lastmile_qr_scan"}, "name": "81cbb82dbf6ed8fea3658c183932ad1f", "type": "electric_scooter", "lat": 38.95847216666667, "is_disabled": 0}, {"fusion_lat": 0.0, "lon": -77.00717, "is_reserved": 0, "bike_id": "c11e3b4da7968daebb4e31b927615630", "fusion_lon": 0.0, "rental_uris": {"android": "https://dc.lft.to/lastmile_qr_scan", "ios": "https://dc.lft.to/lastmile_qr_scan"}, "name": "c11e3b4da7968daebb4e31b927615630", "type": "electric_scooter", "lat": 38.87646866666667, "is_disabled": 0}, {"fusion_lat": 0.0, "lon": -76.98712766666667, "is_reserved": 0, "bike_id": "1e74829f468d3bd81904d2bc457b17d7", "fusion_lon": 0.0, "rental_uris": {"android": "https://dc.lft.to/lastmile_qr_scan", "ios": "https://dc.lft.to/lastmile_qr_scan"}, "name": "1e74829f468d3bd81904d2bc457b17d7", "type": "electric_scooter", "lat": 38.86704533333333, "is_disabled": 0}, {"fusion_lat": 0.0, "lon": -76.94875933333333, "is_reserved": 0, "bike_id": "2ef56d89db9ebe0b1c1ab8b96a75cf2b", "fusion_lon": 0.0, "rental_uris": {"android": "https://dc.lft.to/lastmile_qr_scan", "ios": "https://dc.lft.to/lastmile_qr_scan"}, "name": "2ef56d89db9ebe0b1c1ab8b96a75cf2b", "type": "electric_scooter", "lat": 38.895513, "is_disabled": 0}, {"fusion_lat": 0.0, "lon": -77.00213683333334, "is_reserved": 0, "bike_id": "276fc9b199578a7c2104aeb976ed373f", "fusion_lon": 0.0, "rental_uris": {"android": "https://dc.lft.to/lastmile_qr_scan", "ios": "https://dc.lft.to/lastmile_qr_scan"}, "name": "276fc9b199578a7c2104aeb976ed373f", "type": "electric_scooter", "lat": 38.900226833333335, "is_disabled": 0}, {"fusion_lat": 0.0, "lon": -76.950187, "is_reserved": 0, "bike_id": "81798d0b10fcea901656a4a1b94f7154", "fusion_lon": 0.0, "rental_uris": {"android": "https://dc.lft.to/lastmile_qr_scan", "ios": "https://dc.lft.to/lastmile_qr_scan"}, "name": "81798d0b10fcea901656a4a1b94f7154", "type": "electric_scooter", "lat": 38.89388433333333, "is_disabled": 0}, {"fusion_lat": 0.0, "lon": -77.01326283333333, "is_reserved": 0, "bike_id": "a41735afe857fddbe990ecc32ac70692", "fusion_lon": 0.0, "rental_uris": {"android": "https://dc.lft.to/lastmile_qr_scan", "ios": "https://dc.lft.to/lastmile_qr_scan"}, "name": "a41735afe857fddbe990ecc32ac70692", "type": "electric_scooter", "lat": 38.87921, "is_disabled": 0}, {"fusion_lat": 0.0, "lon": -77.0230245, "is_reserved": 0, "bike_id": "ef3b4de5219a645a220f0948b4f1f80f", "fusion_lon": 0.0, "rental_uris": {"android": "https://dc.lft.to/lastmile_qr_scan", "ios": "https://dc.lft.to/lastmile_qr_scan"}, "name": "ef3b4de5219a645a220f0948b4f1f80f", "type": "electric_scooter", "lat": 38.916404166666666, "is_disabled": 0}, {"fusion_lat": 0.0, "lon": -77.03182616666666, "is_reserved": 0, "bike_id": "bb39f1162b5052b20a6c2aafe3ba8fd8", "fusion_lon": 0.0, "rental_uris": {"android": "https://dc.lft.to/lastmile_qr_scan", "ios": "https://dc.lft.to/lastmile_qr_scan"}, "name": "bb39f1162b5052b20a6c2aafe3ba8fd8", "type": "electric_scooter", "lat": 38.93060283333333, "is_disabled": 0}, {"fusion_lat": 0.0, "lon": -77.03753966666666, "is_reserved": 0, "bike_id": "b06534eb5ab93bd0c75a4463e5f3524f", "fusion_lon": 0.0, "rental_uris": {"android": "https://dc.lft.to/lastmile_qr_scan", "ios": "https://dc.lft.to/lastmile_qr_scan"}, "name": "b06534eb5ab93bd0c75a4463e5f3524f", "type": "electric_scooter", "lat": 38.929426166666666, "is_disabled": 0}, {"fusion_lat": 0.0, "lon": -77.08458, "is_reserved": 0, "bike_id": "3ef0567e30e3428bded9ce5a840afdc4", "fusion_lon": 0.0, "rental_uris": {"android": "https://dc.lft.to/lastmile_qr_scan", "ios": "https://dc.lft.to/lastmile_qr_scan"}, "name": "3ef0567e30e3428bded9ce5a840afdc4", "type": "electric_bike", "lat": 38.848169666666664, "is_disabled": 0}, {"fusion_lat": 0.0, "lon": -77.02722516666667, "is_reserved": 0, "bike_id": "815ec1c9cc713d8f4e16bd8a173f57c1", "fusion_lon": 0.0, "rental_uris": {"android": "https://dc.lft.to/lastmile_qr_scan", "ios": "https://dc.lft.to/lastmile_qr_scan"}, "name": "815ec1c9cc713d8f4e16bd8a173f57c1", "type": "electric_scooter", "lat": 38.93692466666667, "is_disabled": 0}, {"fusion_lat": 0.0, "lon": -77.007707, "is_reserved": 0, "bike_id": "4a5d92067e417505f1bd0d6317bf0529", "fusion_lon": 0.0, "rental_uris": {"android": "https://dc.lft.to/lastmile_qr_scan", "ios": "https://dc.lft.to/lastmile_qr_scan"}, "name": "4a5d92067e417505f1bd0d6317bf0529", "type": "electric_scooter", "lat": 38.926751, "is_disabled": 0}, {"fusion_lat": 0.0, "lon": -76.9907005, "is_reserved": 0, "bike_id": "c52a528436e871d7b97c198bf24394a4", "fusion_lon": 0.0, "rental_uris": {"android": "https://dc.lft.to/lastmile_qr_scan", "ios": "https://dc.lft.to/lastmile_qr_scan"}, "name": "c52a528436e871d7b97c198bf24394a4", "type": "electric_bike", "lat": 38.898110833333334, "is_disabled": 0}, {"fusion_lat": 0.0, "lon": -77.02320216666666, "is_reserved": 0, "bike_id": "486f32f984d12eaada11f46503ece465", "fusion_lon": 0.0, "rental_uris": {"android": "https://dc.lft.to/lastmile_qr_scan", "ios": "https://dc.lft.to/lastmile_qr_scan"}, "name": "486f32f984d12eaada11f46503ece465", "type": "electric_scooter", "lat": 38.940900666666664, "is_disabled": 0}, {"fusion_lat": 0.0, "lon": -77.1072935, "is_reserved": 0, "bike_id": "c44bc95b9422140c543a56db86d60ceb", "fusion_lon": 0.0, "rental_uris": {"android": "https://dc.lft.to/lastmile_qr_scan", "ios": "https://dc.lft.to/lastmile_qr_scan"}, "name": "c44bc95b9422140c543a56db86d60ceb", "type": "electric_bike", "lat": 38.855264, "is_disabled": 0}, {"fusion_lat": 0.0, "lon": -77.1874165, "is_reserved": 0, "bike_id": "62b23f3acbf16a1baca9ea34263767b1", "fusion_lon": 0.0, "rental_uris": {"android": "https://dc.lft.to/lastmile_qr_scan", "ios": "https://dc.lft.to/lastmile_qr_scan"}, "name": "62b23f3acbf16a1baca9ea34263767b1", "type": "electric_bike", "lat": 38.89352983333333, "is_disabled": 0}, {"fusion_lat": 0.0, "lon": -77.024529, "is_reserved": 0, "bike_id": "d95c8273d323676bac89ffcc46d2618c", "fusion_lon": 0.0, "rental_uris": {"android": "https://dc.lft.to/lastmile_qr_scan", "ios": "https://dc.lft.to/lastmile_qr_scan"}, "name": "d95c8273d323676bac89ffcc46d2618c", "type": "electric_scooter", "lat": 38.937434333333336, "is_disabled": 0}, {"fusion_lat": 0.0, "lon": -77.030004, "is_reserved": 0, "bike_id": "64e6182fa5465bc3e15433ca73927fed", "fusion_lon": 0.0, "rental_uris": {"android": "https://dc.lft.to/lastmile_qr_scan", "ios": "https://dc.lft.to/lastmile_qr_scan"}, "name": "64e6182fa5465bc3e15433ca73927fed", "type": "electric_scooter", "lat": 38.907182166666665, "is_disabled": 0}, {"fusion_lat": 0.0, "lon": -77.037518, "is_reserved": 0, "bike_id": "a99bc6cc7205197ebea929f565eb8dfb", "fusion_lon": 0.0, "rental_uris": {"android": "https://dc.lft.to/lastmile_qr_scan", "ios": "https://dc.lft.to/lastmile_qr_scan"}, "name": "a99bc6cc7205197ebea929f565eb8dfb", "type": "electric_scooter", "lat": 38.91677266666667, "is_disabled": 0}, {"fusion_lat": 0.0, "lon": -77.00737966666667, "is_reserved": 0, "bike_id": "c20d96462051c1b8d99b976c2ebc5ad6", "fusion_lon": 0.0, "rental_uris": {"android": "https://dc.lft.to/lastmile_qr_scan", "ios": "https://dc.lft.to/lastmile_qr_scan"}, "name": "c20d96462051c1b8d99b976c2ebc5ad6", "type": "electric_scooter", "lat": 38.916938, "is_disabled": 0}, {"fusion_lat": 0.0, "lon": -77.01221183333334, "is_reserved": 0, "bike_id": "aa21c61d42113b4c48b638c25fd2a56f", "fusion_lon": 0.0, "rental_uris": {"android": "https://dc.lft.to/lastmile_qr_scan", "ios": "https://dc.lft.to/lastmile_qr_scan"}, "name": "aa21c61d42113b4c48b638c25fd2a56f", "type": "electric_scooter", "lat": 38.915223166666664, "is_disabled": 0}, {"fusion_lat": 0.0, "lon": -77.02817816666666, "is_reserved": 0, "bike_id": "c79e682be8181c61c7ae4701ecbb0297", "fusion_lon": 0.0, "rental_uris": {"android": "https://dc.lft.to/lastmile_qr_scan", "ios": "https://dc.lft.to/lastmile_qr_scan"}, "name": "c79e682be8181c61c7ae4701ecbb0297", "type": "electric_scooter", "lat": 38.960764166666664, "is_disabled": 0}, {"fusion_lat": 0.0, "lon": -77.043488, "is_reserved": 0, "bike_id": "b4e425172ba898240c5ddcffbd2a1f1e", "fusion_lon": 0.0, "rental_uris": {"android": "https://dc.lft.to/lastmile_qr_scan", "ios": "https://dc.lft.to/lastmile_qr_scan"}, "name": "b4e425172ba898240c5ddcffbd2a1f1e", "type": "electric_scooter", "lat": 38.907579166666665, "is_disabled": 0}, {"fusion_lat": 0.0, "lon": -77.0440235, "is_reserved": 0, "bike_id": "ec0f52c985a03214d6c09da86b8914ee", "fusion_lon": 0.0, "rental_uris": {"android": "https://dc.lft.to/lastmile_qr_scan", "ios": "https://dc.lft.to/lastmile_qr_scan"}, "name": "ec0f52c985a03214d6c09da86b8914ee", "type": "electric_scooter", "lat": 38.9202595, "is_disabled": 0}, {"fusion_lat": 0.0, "lon": -77.129528, "is_reserved": 0, "bike_id": "5956bf2b729d440d1aa6672154e816cd", "fusion_lon": 0.0, "rental_uris": {"android": "https://dc.lft.to/lastmile_qr_scan", "ios": "https://dc.lft.to/lastmile_qr_scan"}, "name": "5956bf2b729d440d1aa6672154e816cd", "type": "electric_bike", "lat": 38.852154166666665, "is_disabled": 0}, {"fusion_lat": 0.0, "lon": -76.99797816666667, "is_reserved": 0, "bike_id": "ff38de7deb6b5f5dcb377e37545f4754", "fusion_lon": 0.0, "rental_uris": {"android": "https://dc.lft.to/lastmile_qr_scan", "ios": "https://dc.lft.to/lastmile_qr_scan"}, "name": "ff38de7deb6b5f5dcb377e37545f4754", "type": "electric_scooter", "lat": 38.90851416666667, "is_disabled": 0}, {"fusion_lat": 0.0, "lon": -76.98366433333334, "is_reserved": 0, "bike_id": "b30d16819a0d6e161b81487139d0a1d4", "fusion_lon": 0.0, "rental_uris": {"android": "https://dc.lft.to/lastmile_qr_scan", "ios": "https://dc.lft.to/lastmile_qr_scan"}, "name": "b30d16819a0d6e161b81487139d0a1d4", "type": "electric_scooter", "lat": 38.91542966666667, "is_disabled": 0}, {"fusion_lat": 0.0, "lon": -77.05307383333333, "is_reserved": 0, "bike_id": "7cc77981ac4bdea03ec2206a9cd5f2bd", "fusion_lon": 0.0, "rental_uris": {"android": "https://dc.lft.to/lastmile_qr_scan", "ios": "https://dc.lft.to/lastmile_qr_scan"}, "name": "7cc77981ac4bdea03ec2206a9cd5f2bd", "type": "electric_scooter", "lat": 38.89850233333333, "is_disabled": 0}, {"fusion_lat": 0.0, "lon": -76.98556783333333, "is_reserved": 0, "bike_id": "7d3957ec1d6cd2045581757106f110f8", "fusion_lon": 0.0, "rental_uris": {"android": "https://dc.lft.to/lastmile_qr_scan", "ios": "https://dc.lft.to/lastmile_qr_scan"}, "name": "7d3957ec1d6cd2045581757106f110f8", "type": "electric_scooter", "lat": 38.910328666666665, "is_disabled": 0}, {"fusion_lat": 0.0, "lon": -77.00756483333333, "is_reserved": 0, "bike_id": "732e2af72986b53dd8dfab0c36f1c947", "fusion_lon": 0.0, "rental_uris": {"android": "https://dc.lft.to/lastmile_qr_scan", "ios": "https://dc.lft.to/lastmile_qr_scan"}, "name": "732e2af72986b53dd8dfab0c36f1c947", "type": "electric_scooter", "lat": 38.926719, "is_disabled": 0}, {"fusion_lat": 0.0, "lon": -77.03866933333333, "is_reserved": 0, "bike_id": "78fc65f6de1b25032126016b54966ec7", "fusion_lon": 0.0, "rental_uris": {"android": "https://dc.lft.to/lastmile_qr_scan", "ios": "https://dc.lft.to/lastmile_qr_scan"}, "name": "78fc65f6de1b25032126016b54966ec7", "type": "electric_scooter", "lat": 38.9103515, "is_disabled": 0}, {"fusion_lat": 0.0, "lon": -76.99545233333333, "is_reserved": 0, "bike_id": "4adfa44fa172a6900a9f51c2753a76f6", "fusion_lon": 0.0, "rental_uris": {"android": "https://dc.lft.to/lastmile_qr_scan", "ios": "https://dc.lft.to/lastmile_qr_scan"}, "name": "4adfa44fa172a6900a9f51c2753a76f6", "type": "electric_scooter", "lat": 38.862578, "is_disabled": 0}, {"fusion_lat": 0.0, "lon": -77.042608, "is_reserved": 0, "bike_id": "879f181ffdc429051b67ad9e7652abd9", "fusion_lon": 0.0, "rental_uris": {"android": "https://dc.lft.to/lastmile_qr_scan", "ios": "https://dc.lft.to/lastmile_qr_scan"}, "name": "879f181ffdc429051b67ad9e7652abd9", "type": "electric_scooter", "lat": 38.92225916666666, "is_disabled": 0}, {"fusion_lat": 0.0, "lon": -77.0290605, "is_reserved": 0, "bike_id": "d244413c39111579f4c387df8f295c00", "fusion_lon": 0.0, "rental_uris": {"android": "https://dc.lft.to/lastmile_qr_scan", "ios": "https://dc.lft.to/lastmile_qr_scan"}, "name": "d244413c39111579f4c387df8f295c00", "type": "electric_scooter", "lat": 38.91667783333333, "is_disabled": 0}, {"fusion_lat": 0.0, "lon": -76.9656205, "is_reserved": 0, "bike_id": "1113dcb621bf56b325d5fca6dbde542f", "fusion_lon": 0.0, "rental_uris": {"android": "https://dc.lft.to/lastmile_qr_scan", "ios": "https://dc.lft.to/lastmile_qr_scan"}, "name": "1113dcb621bf56b325d5fca6dbde542f", "type": "electric_bike", "lat": 38.8737015, "is_disabled": 0}, {"fusion_lat": 0.0, "lon": -77.033029, "is_reserved": 0, "bike_id": "19d48305e85821c024d3fd64806c5ac3", "fusion_lon": 0.0, "rental_uris": {"android": "https://dc.lft.to/lastmile_qr_scan", "ios": "https://dc.lft.to/lastmile_qr_scan"}, "name": "19d48305e85821c024d3fd64806c5ac3", "type": "electric_bike", "lat": 38.926248333333334, "is_disabled": 0}, {"fusion_lat": 0.0, "lon": -76.997102, "is_reserved": 0, "bike_id": "39b8458cbf0723d61f9a0cfe42991126", "fusion_lon": 0.0, "rental_uris": {"android": "https://dc.lft.to/lastmile_qr_scan", "ios": "https://dc.lft.to/lastmile_qr_scan"}, "name": "39b8458cbf0723d61f9a0cfe42991126", "type": "electric_scooter", "lat": 38.8442705, "is_disabled": 0}, {"fusion_lat": 0.0, "lon": -77.02108333333334, "is_reserved": 0, "bike_id": "71296c2b7400be83caf45190410a81ed", "fusion_lon": 0.0, "rental_uris": {"android": "https://dc.lft.to/lastmile_qr_scan", "ios": "https://dc.lft.to/lastmile_qr_scan"}, "name": "71296c2b7400be83caf45190410a81ed", "type": "electric_scooter", "lat": 38.9097615, "is_disabled": 0}, {"fusion_lat": 0.0, "lon": -77.021854, "is_reserved": 0, "bike_id": "9cb193195d3e3d409db570a1baa494ab", "fusion_lon": 0.0, "rental_uris": {"android": "https://dc.lft.to/lastmile_qr_scan", "ios": "https://dc.lft.to/lastmile_qr_scan"}, "name": "9cb193195d3e3d409db570a1baa494ab", "type": "electric_scooter", "lat": 38.920550166666665, "is_disabled": 0}, {"fusion_lat": 0.0, "lon": -77.00200666666667, "is_reserved": 0, "bike_id": "c6fa7e4540efc7c01985c917291dadb7", "fusion_lon": 0.0, "rental_uris": {"android": "https://dc.lft.to/lastmile_qr_scan", "ios": "https://dc.lft.to/lastmile_qr_scan"}, "name": "c6fa7e4540efc7c01985c917291dadb7", "type": "electric_scooter", "lat": 38.90045683333334, "is_disabled": 0}, {"fusion_lat": 0.0, "lon": -77.00339383333333, "is_reserved": 0, "bike_id": "9bdf0f7ed8abf2bf8edd1427f198dae0", "fusion_lon": 0.0, "rental_uris": {"android": "https://dc.lft.to/lastmile_qr_scan", "ios": "https://dc.lft.to/lastmile_qr_scan"}, "name": "9bdf0f7ed8abf2bf8edd1427f198dae0", "type": "electric_scooter", "lat": 38.889893666666666, "is_disabled": 0}, {"fusion_lat": 0.0, "lon": -77.03213966666667, "is_reserved": 0, "bike_id": "dd8bb12ae37afc42d73c5bb1e78c6e73", "fusion_lon": 0.0, "rental_uris": {"android": "https://dc.lft.to/lastmile_qr_scan", "ios": "https://dc.lft.to/lastmile_qr_scan"}, "name": "dd8bb12ae37afc42d73c5bb1e78c6e73", "type": "electric_scooter", "lat": 38.91692716666667, "is_disabled": 0}, {"fusion_lat": 0.0, "lon": -77.04456733333333, "is_reserved": 0, "bike_id": "48217d858b52b245f2ec22ac4449c821", "fusion_lon": 0.0, "rental_uris": {"android": "https://dc.lft.to/lastmile_qr_scan", "ios": "https://dc.lft.to/lastmile_qr_scan"}, "name": "48217d858b52b245f2ec22ac4449c821", "type": "electric_scooter", "lat": 38.910196166666665, "is_disabled": 0}, {"fusion_lat": 0.0, "lon": -77.062442, "is_reserved": 0, "bike_id": "52573396c1241a5bdbecd93fdbea7788", "fusion_lon": 0.0, "rental_uris": {"android": "https://dc.lft.to/lastmile_qr_scan", "ios": "https://dc.lft.to/lastmile_qr_scan"}, "name": "52573396c1241a5bdbecd93fdbea7788", "type": "electric_scooter", "lat": 38.90526, "is_disabled": 0}, {"fusion_lat": 0.0, "lon": -77.019833, "is_reserved": 0, "bike_id": "2b5004385596b59aae9e21bdcfba48e0", "fusion_lon": 0.0, "rental_uris": {"android": "https://dc.lft.to/lastmile_qr_scan", "ios": "https://dc.lft.to/lastmile_qr_scan"}, "name": "2b5004385596b59aae9e21bdcfba48e0", "type": "electric_scooter", "lat": 38.895551833333336, "is_disabled": 0}, {"fusion_lat": 0.0, "lon": -77.0061835, "is_reserved": 0, "bike_id": "0a91cb4067f0f12f6f247b9deefe8abf", "fusion_lon": 0.0, "rental_uris": {"android": "https://dc.lft.to/lastmile_qr_scan", "ios": "https://dc.lft.to/lastmile_qr_scan"}, "name": "0a91cb4067f0f12f6f247b9deefe8abf", "type": "electric_scooter", "lat": 38.8755255, "is_disabled": 0}, {"fusion_lat": 0.0, "lon": -76.99801766666667, "is_reserved": 0, "bike_id": "444c993a87f255e1283a779f5e99859a", "fusion_lon": 0.0, "rental_uris": {"android": "https://dc.lft.to/lastmile_qr_scan", "ios": "https://dc.lft.to/lastmile_qr_scan"}, "name": "444c993a87f255e1283a779f5e99859a", "type": "electric_scooter", "lat": 38.885661999999996, "is_disabled": 0}, {"fusion_lat": 0.0, "lon": -76.98762133333334, "is_reserved": 0, "bike_id": "596b18384becfd8203d18aea6b784edc", "fusion_lon": 0.0, "rental_uris": {"android": "https://dc.lft.to/lastmile_qr_scan", "ios": "https://dc.lft.to/lastmile_qr_scan"}, "name": "596b18384becfd8203d18aea6b784edc", "type": "electric_scooter", "lat": 38.9002225, "is_disabled": 0}, {"fusion_lat": 0.0, "lon": -76.99566416666667, "is_reserved": 0, "bike_id": "8c5c260216d61db481f07a52c493700f", "fusion_lon": 0.0, "rental_uris": {"android": "https://dc.lft.to/lastmile_qr_scan", "ios": "https://dc.lft.to/lastmile_qr_scan"}, "name": "8c5c260216d61db481f07a52c493700f", "type": "electric_scooter", "lat": 38.884239, "is_disabled": 0}, {"fusion_lat": 0.0, "lon": -77.0092685, "is_reserved": 0, "bike_id": "8c34c622410feef66390f71bc807d5dd", "fusion_lon": 0.0, "rental_uris": {"android": "https://dc.lft.to/lastmile_qr_scan", "ios": "https://dc.lft.to/lastmile_qr_scan"}, "name": "8c34c622410feef66390f71bc807d5dd", "type": "electric_scooter", "lat": 38.89606283333333, "is_disabled": 0}, {"fusion_lat": 0.0, "lon": -77.03172616666667, "is_reserved": 0, "bike_id": "0a43223ad1fa5a88a71923356f6c38e2", "fusion_lon": 0.0, "rental_uris": {"android": "https://dc.lft.to/lastmile_qr_scan", "ios": "https://dc.lft.to/lastmile_qr_scan"}, "name": "0a43223ad1fa5a88a71923356f6c38e2", "type": "electric_scooter", "lat": 38.91040866666667, "is_disabled": 0}, {"fusion_lat": 0.0, "lon": -77.03198533333334, "is_reserved": 0, "bike_id": "02f975be06ec01d23a135f8ee0092966", "fusion_lon": 0.0, "rental_uris": {"android": "https://dc.lft.to/lastmile_qr_scan", "ios": "https://dc.lft.to/lastmile_qr_scan"}, "name": "02f975be06ec01d23a135f8ee0092966", "type": "electric_scooter", "lat": 38.912181333333336, "is_disabled": 0}, {"fusion_lat": 0.0, "lon": -77.01691766666667, "is_reserved": 0, "bike_id": "aeaee8e03df460902f157a95425368d0", "fusion_lon": 0.0, "rental_uris": {"android": "https://dc.lft.to/lastmile_qr_scan", "ios": "https://dc.lft.to/lastmile_qr_scan"}, "name": "aeaee8e03df460902f157a95425368d0", "type": "electric_scooter", "lat": 38.97496683333333, "is_disabled": 0}, {"fusion_lat": 0.0, "lon": -77.008609, "is_reserved": 0, "bike_id": "bc9611625647ca458a71499ddd7e37cb", "fusion_lon": 0.0, "rental_uris": {"android": "https://dc.lft.to/lastmile_qr_scan", "ios": "https://dc.lft.to/lastmile_qr_scan"}, "name": "bc9611625647ca458a71499ddd7e37cb", "type": "electric_scooter", "lat": 38.897419666666664, "is_disabled": 0}, {"fusion_lat": 0.0, "lon": -77.04813016666667, "is_reserved": 0, "bike_id": "8721e530e397043d105d4980edc2b238", "fusion_lon": 0.0, "rental_uris": {"android": "https://dc.lft.to/lastmile_qr_scan", "ios": "https://dc.lft.to/lastmile_qr_scan"}, "name": "8721e530e397043d105d4980edc2b238", "type": "electric_scooter", "lat": 38.910374833333336, "is_disabled": 0}, {"fusion_lat": 0.0, "lon": -76.9982395, "is_reserved": 0, "bike_id": "fcc14b030620b4d8004eb0b527fd5cf0", "fusion_lon": 0.0, "rental_uris": {"android": "https://dc.lft.to/lastmile_qr_scan", "ios": "https://dc.lft.to/lastmile_qr_scan"}, "name": "fcc14b030620b4d8004eb0b527fd5cf0", "type": "electric_scooter", "lat": 38.90138016666667, "is_disabled": 0}, {"fusion_lat": 0.0, "lon": -77.05168766666667, "is_reserved": 0, "bike_id": "050211ac8017d74fefce60f5807c9d0d", "fusion_lon": 0.0, "rental_uris": {"android": "https://dc.lft.to/lastmile_qr_scan", "ios": "https://dc.lft.to/lastmile_qr_scan"}, "name": "050211ac8017d74fefce60f5807c9d0d", "type": "electric_scooter", "lat": 38.903224, "is_disabled": 0}, {"fusion_lat": 0.0, "lon": -77.0243255, "is_reserved": 0, "bike_id": "90d451f39220fb6f328b0cb689ddfd9f", "fusion_lon": 0.0, "rental_uris": {"android": "https://dc.lft.to/lastmile_qr_scan", "ios": "https://dc.lft.to/lastmile_qr_scan"}, "name": "90d451f39220fb6f328b0cb689ddfd9f", "type": "electric_scooter", "lat": 38.93585133333333, "is_disabled": 0}, {"fusion_lat": 0.0, "lon": -77.13148033333333, "is_reserved": 0, "bike_id": "98585fac09094373104ddef92a4558e6", "fusion_lon": 0.0, "rental_uris": {"android": "https://dc.lft.to/lastmile_qr_scan", "ios": "https://dc.lft.to/lastmile_qr_scan"}, "name": "98585fac09094373104ddef92a4558e6", "type": "electric_bike", "lat": 38.861687333333336, "is_disabled": 0}, {"fusion_lat": 0.0, "lon": -76.9718515, "is_reserved": 0, "bike_id": "b553898f9788ab5fa6bd9c4445d8766f", "fusion_lon": 0.0, "rental_uris": {"android": "https://dc.lft.to/lastmile_qr_scan", "ios": "https://dc.lft.to/lastmile_qr_scan"}, "name": "b553898f9788ab5fa6bd9c4445d8766f", "type": "electric_bike", "lat": 38.9178515, "is_disabled": 0}, {"fusion_lat": 0.0, "lon": -77.07326466666666, "is_reserved": 0, "bike_id": "7697129fb2b40e202974c720ca594586", "fusion_lon": 0.0, "rental_uris": {"android": "https://dc.lft.to/lastmile_qr_scan", "ios": "https://dc.lft.to/lastmile_qr_scan"}, "name": "7697129fb2b40e202974c720ca594586", "type": "electric_scooter", "lat": 38.93338083333333, "is_disabled": 0}, {"fusion_lat": 0.0, "lon": -77.031723, "is_reserved": 0, "bike_id": "7bb263cad3d677996535e762afb7475d", "fusion_lon": 0.0, "rental_uris": {"android": "https://dc.lft.to/lastmile_qr_scan", "ios": "https://dc.lft.to/lastmile_qr_scan"}, "name": "7bb263cad3d677996535e762afb7475d", "type": "electric_scooter", "lat": 38.9155525, "is_disabled": 0}, {"fusion_lat": 0.0, "lon": -77.03558866666667, "is_reserved": 0, "bike_id": "8490071d5f65b526e6f8078ccf2ba225", "fusion_lon": 0.0, "rental_uris": {"android": "https://dc.lft.to/lastmile_qr_scan", "ios": "https://dc.lft.to/lastmile_qr_scan"}, "name": "8490071d5f65b526e6f8078ccf2ba225", "type": "electric_scooter", "lat": 38.91709266666667, "is_disabled": 0}, {"fusion_lat": 0.0, "lon": -77.04003433333334, "is_reserved": 0, "bike_id": "223d1f8810e40102493eb1fd566f0433", "fusion_lon": 0.0, "rental_uris": {"android": "https://dc.lft.to/lastmile_qr_scan", "ios": "https://dc.lft.to/lastmile_qr_scan"}, "name": "223d1f8810e40102493eb1fd566f0433", "type": "electric_scooter", "lat": 38.888622, "is_disabled": 0}, {"fusion_lat": 0.0, "lon": -77.033462, "is_reserved": 0, "bike_id": "b82d00a354fab0afde9424e9852db5df", "fusion_lon": 0.0, "rental_uris": {"android": "https://dc.lft.to/lastmile_qr_scan", "ios": "https://dc.lft.to/lastmile_qr_scan"}, "name": "b82d00a354fab0afde9424e9852db5df", "type": "electric_scooter", "lat": 38.93218016666667, "is_disabled": 0}, {"fusion_lat": 0.0, "lon": -77.05508466666667, "is_reserved": 0, "bike_id": "76a8c91573ee4bab5d8d3b4ccde72e78", "fusion_lon": 0.0, "rental_uris": {"android": "https://dc.lft.to/lastmile_qr_scan", "ios": "https://dc.lft.to/lastmile_qr_scan"}, "name": "76a8c91573ee4bab5d8d3b4ccde72e78", "type": "electric_scooter", "lat": 38.93651833333333, "is_disabled": 0}, {"fusion_lat": 0.0, "lon": -77.00724933333333, "is_reserved": 0, "bike_id": "c251fd5af981cd0f75e2ad4ba0963112", "fusion_lon": 0.0, "rental_uris": {"android": "https://dc.lft.to/lastmile_qr_scan", "ios": "https://dc.lft.to/lastmile_qr_scan"}, "name": "c251fd5af981cd0f75e2ad4ba0963112", "type": "electric_scooter", "lat": 38.8849215, "is_disabled": 0}, {"fusion_lat": 0.0, "lon": -77.02980066666667, "is_reserved": 0, "bike_id": "fd4ab1bffd74f145f858464b37f986eb", "fusion_lon": 0.0, "rental_uris": {"android": "https://dc.lft.to/lastmile_qr_scan", "ios": "https://dc.lft.to/lastmile_qr_scan"}, "name": "fd4ab1bffd74f145f858464b37f986eb", "type": "electric_scooter", "lat": 38.914159, "is_disabled": 0}, {"fusion_lat": 0.0, "lon": -77.03091116666667, "is_reserved": 0, "bike_id": "b1640f4259f3c849ec3ab10a43b50cbb", "fusion_lon": 0.0, "rental_uris": {"android": "https://dc.lft.to/lastmile_qr_scan", "ios": "https://dc.lft.to/lastmile_qr_scan"}, "name": "b1640f4259f3c849ec3ab10a43b50cbb", "type": "electric_scooter", "lat": 38.93209816666667, "is_disabled": 0}, {"fusion_lat": 0.0, "lon": -77.044261, "is_reserved": 0, "bike_id": "5a8a41bacc3544449dc110dae7e0773e", "fusion_lon": 0.0, "rental_uris": {"android": "https://dc.lft.to/lastmile_qr_scan", "ios": "https://dc.lft.to/lastmile_qr_scan"}, "name": "5a8a41bacc3544449dc110dae7e0773e", "type": "electric_scooter", "lat": 38.921258333333334, "is_disabled": 0}, {"fusion_lat": 0.0, "lon": -76.967854, "is_reserved": 0, "bike_id": "2f96d1fa3ad500c53299ce55011ebd69", "fusion_lon": 0.0, "rental_uris": {"android": "https://dc.lft.to/lastmile_qr_scan", "ios": "https://dc.lft.to/lastmile_qr_scan"}, "name": "2f96d1fa3ad500c53299ce55011ebd69", "type": "electric_scooter", "lat": 38.873347333333335, "is_disabled": 0}, {"fusion_lat": 0.0, "lon": -77.02409683333333, "is_reserved": 0, "bike_id": "67e888496acd00c07bb6526132f4e110", "fusion_lon": 0.0, "rental_uris": {"android": "https://dc.lft.to/lastmile_qr_scan", "ios": "https://dc.lft.to/lastmile_qr_scan"}, "name": "67e888496acd00c07bb6526132f4e110", "type": "electric_scooter", "lat": 38.9061115, "is_disabled": 0}, {"fusion_lat": 0.0, "lon": -77.05112166666666, "is_reserved": 0, "bike_id": "0da2f5bd4407a4c6502cfe9645144e86", "fusion_lon": 0.0, "rental_uris": {"android": "https://dc.lft.to/lastmile_qr_scan", "ios": "https://dc.lft.to/lastmile_qr_scan"}, "name": "0da2f5bd4407a4c6502cfe9645144e86", "type": "electric_bike", "lat": 39.0366835, "is_disabled": 0}, {"fusion_lat": 0.0, "lon": -76.99819316666667, "is_reserved": 0, "bike_id": "0cd6719a85b63cfd27cb3837ee6f6dc4", "fusion_lon": 0.0, "rental_uris": {"android": "https://dc.lft.to/lastmile_qr_scan", "ios": "https://dc.lft.to/lastmile_qr_scan"}, "name": "0cd6719a85b63cfd27cb3837ee6f6dc4", "type": "electric_scooter", "lat": 38.90719966666666, "is_disabled": 0}, {"fusion_lat": 0.0, "lon": -77.03992666666667, "is_reserved": 0, "bike_id": "c018a2d98a09bb859b32fa5399db5b4c", "fusion_lon": 0.0, "rental_uris": {"android": "https://dc.lft.to/lastmile_qr_scan", "ios": "https://dc.lft.to/lastmile_qr_scan"}, "name": "c018a2d98a09bb859b32fa5399db5b4c", "type": "electric_scooter", "lat": 38.892213, "is_disabled": 0}, {"fusion_lat": 0.0, "lon": -77.03434266666666, "is_reserved": 0, "bike_id": "8bf01f4b9ea17150b74c657f4bb99777", "fusion_lon": 0.0, "rental_uris": {"android": "https://dc.lft.to/lastmile_qr_scan", "ios": "https://dc.lft.to/lastmile_qr_scan"}, "name": "8bf01f4b9ea17150b74c657f4bb99777", "type": "electric_scooter", "lat": 38.91804966666667, "is_disabled": 0}, {"fusion_lat": 0.0, "lon": -77.0043885, "is_reserved": 0, "bike_id": "3db88463a61abc70f5949daf96e0bdd5", "fusion_lon": 0.0, "rental_uris": {"android": "https://dc.lft.to/lastmile_qr_scan", "ios": "https://dc.lft.to/lastmile_qr_scan"}, "name": "3db88463a61abc70f5949daf96e0bdd5", "type": "electric_scooter", "lat": 38.8767375, "is_disabled": 0}, {"fusion_lat": 0.0, "lon": -77.04752183333333, "is_reserved": 0, "bike_id": "c818289d1f702c6872ed9ce329ee8847", "fusion_lon": 0.0, "rental_uris": {"android": "https://dc.lft.to/lastmile_qr_scan", "ios": "https://dc.lft.to/lastmile_qr_scan"}, "name": "c818289d1f702c6872ed9ce329ee8847", "type": "electric_scooter", "lat": 38.905375666666664, "is_disabled": 0}, {"fusion_lat": 0.0, "lon": -76.98272783333333, "is_reserved": 0, "bike_id": "96ef9488b846f75616bd23b8104cf681", "fusion_lon": 0.0, "rental_uris": {"android": "https://dc.lft.to/lastmile_qr_scan", "ios": "https://dc.lft.to/lastmile_qr_scan"}, "name": "96ef9488b846f75616bd23b8104cf681", "type": "electric_scooter", "lat": 38.899315666666666, "is_disabled": 0}, {"fusion_lat": 0.0, "lon": -77.032623, "is_reserved": 0, "bike_id": "07c7abba39164969b8d8ba18fe73b331", "fusion_lon": 0.0, "rental_uris": {"android": "https://dc.lft.to/lastmile_qr_scan", "ios": "https://dc.lft.to/lastmile_qr_scan"}, "name": "07c7abba39164969b8d8ba18fe73b331", "type": "electric_scooter", "lat": 38.941518333333335, "is_disabled": 0}, {"fusion_lat": 0.0, "lon": -77.0569035, "is_reserved": 0, "bike_id": "38663bc1cc66a04c7a3ec9b8dae73bd1", "fusion_lon": 0.0, "rental_uris": {"android": "https://dc.lft.to/lastmile_qr_scan", "ios": "https://dc.lft.to/lastmile_qr_scan"}, "name": "38663bc1cc66a04c7a3ec9b8dae73bd1", "type": "electric_scooter", "lat": 38.905994666666665, "is_disabled": 0}, {"fusion_lat": 0.0, "lon": -77.03199416666666, "is_reserved": 0, "bike_id": "3be91ebcf72e57ed9d6810aef739c198", "fusion_lon": 0.0, "rental_uris": {"android": "https://dc.lft.to/lastmile_qr_scan", "ios": "https://dc.lft.to/lastmile_qr_scan"}, "name": "3be91ebcf72e57ed9d6810aef739c198", "type": "electric_scooter", "lat": 38.917705, "is_disabled": 0}, {"fusion_lat": 0.0, "lon": -77.07960083333333, "is_reserved": 0, "bike_id": "2eb335afda60480c8104e2183a2ff476", "fusion_lon": 0.0, "rental_uris": {"android": "https://dc.lft.to/lastmile_qr_scan", "ios": "https://dc.lft.to/lastmile_qr_scan"}, "name": "2eb335afda60480c8104e2183a2ff476", "type": "electric_scooter", "lat": 38.9475345, "is_disabled": 0}, {"fusion_lat": 0.0, "lon": -77.04367533333334, "is_reserved": 0, "bike_id": "2c851417e31fb90a8448e3e0ff40dc41", "fusion_lon": 0.0, "rental_uris": {"android": "https://dc.lft.to/lastmile_qr_scan", "ios": "https://dc.lft.to/lastmile_qr_scan"}, "name": "2c851417e31fb90a8448e3e0ff40dc41", "type": "electric_scooter", "lat": 38.910385166666664, "is_disabled": 0}, {"fusion_lat": 0.0, "lon": -77.02870133333333, "is_reserved": 0, "bike_id": "a145beb3ee4e153bd2397d3b7d66f4b7", "fusion_lon": 0.0, "rental_uris": {"android": "https://dc.lft.to/lastmile_qr_scan", "ios": "https://dc.lft.to/lastmile_qr_scan"}, "name": "a145beb3ee4e153bd2397d3b7d66f4b7", "type": "electric_scooter", "lat": 38.92568083333333, "is_disabled": 0}, {"fusion_lat": 0.0, "lon": -77.0498695, "is_reserved": 0, "bike_id": "2328df4b22257d8f8307ae5ba1b45061", "fusion_lon": 0.0, "rental_uris": {"android": "https://dc.lft.to/lastmile_qr_scan", "ios": "https://dc.lft.to/lastmile_qr_scan"}, "name": "2328df4b22257d8f8307ae5ba1b45061", "type": "electric_scooter", "lat": 38.8972485, "is_disabled": 0}, {"fusion_lat": 0.0, "lon": -77.02163816666666, "is_reserved": 0, "bike_id": "c09ffc61db061c6d933a7848bb51bf9e", "fusion_lon": 0.0, "rental_uris": {"android": "https://dc.lft.to/lastmile_qr_scan", "ios": "https://dc.lft.to/lastmile_qr_scan"}, "name": "c09ffc61db061c6d933a7848bb51bf9e", "type": "electric_scooter", "lat": 38.90965216666667, "is_disabled": 0}, {"fusion_lat": 0.0, "lon": -77.04834866666667, "is_reserved": 0, "bike_id": "f6a9a793395da43763eaecd68a162e76", "fusion_lon": 0.0, "rental_uris": {"android": "https://dc.lft.to/lastmile_qr_scan", "ios": "https://dc.lft.to/lastmile_qr_scan"}, "name": "f6a9a793395da43763eaecd68a162e76", "type": "electric_scooter", "lat": 38.9104305, "is_disabled": 0}, {"fusion_lat": 0.0, "lon": -77.051219, "is_reserved": 0, "bike_id": "86fecb8a630858ba89fbaa7b87a40464", "fusion_lon": 0.0, "rental_uris": {"android": "https://dc.lft.to/lastmile_qr_scan", "ios": "https://dc.lft.to/lastmile_qr_scan"}, "name": "86fecb8a630858ba89fbaa7b87a40464", "type": "electric_scooter", "lat": 38.90499966666667, "is_disabled": 0}, {"fusion_lat": 0.0, "lon": -77.05538483333333, "is_reserved": 0, "bike_id": "883c0ee1a776b5f1e1722caffcd71679", "fusion_lon": 0.0, "rental_uris": {"android": "https://dc.lft.to/lastmile_qr_scan", "ios": "https://dc.lft.to/lastmile_qr_scan"}, "name": "883c0ee1a776b5f1e1722caffcd71679", "type": "electric_scooter", "lat": 38.9268815, "is_disabled": 0}, {"fusion_lat": 0.0, "lon": -77.0329995, "is_reserved": 0, "bike_id": "b557987421627acf04edd89b0bb6d85c", "fusion_lon": 0.0, "rental_uris": {"android": "https://dc.lft.to/lastmile_qr_scan", "ios": "https://dc.lft.to/lastmile_qr_scan"}, "name": "b557987421627acf04edd89b0bb6d85c", "type": "electric_scooter", "lat": 38.90981583333333, "is_disabled": 0}, {"fusion_lat": 0.0, "lon": -77.0298875, "is_reserved": 0, "bike_id": "954392612db127ee82da1ae73dbac17d", "fusion_lon": 0.0, "rental_uris": {"android": "https://dc.lft.to/lastmile_qr_scan", "ios": "https://dc.lft.to/lastmile_qr_scan"}, "name": "954392612db127ee82da1ae73dbac17d", "type": "electric_bike", "lat": 38.97438016666667, "is_disabled": 0}, {"fusion_lat": 0.0, "lon": -76.98862916666667, "is_reserved": 0, "bike_id": "e73311f97f4bb6250eddaa039d35d0f3", "fusion_lon": 0.0, "rental_uris": {"android": "https://dc.lft.to/lastmile_qr_scan", "ios": "https://dc.lft.to/lastmile_qr_scan"}, "name": "e73311f97f4bb6250eddaa039d35d0f3", "type": "electric_scooter", "lat": 38.895359, "is_disabled": 0}, {"fusion_lat": 0.0, "lon": -76.99769883333333, "is_reserved": 0, "bike_id": "61c3d3066fcfcc5e29203c1904eed67d", "fusion_lon": 0.0, "rental_uris": {"android": "https://dc.lft.to/lastmile_qr_scan", "ios": "https://dc.lft.to/lastmile_qr_scan"}, "name": "61c3d3066fcfcc5e29203c1904eed67d", "type": "electric_scooter", "lat": 38.92444033333334, "is_disabled": 0}, {"fusion_lat": 0.0, "lon": -76.97238566666667, "is_reserved": 0, "bike_id": "2289356ee633744700b7752660c9dfb6", "fusion_lon": 0.0, "rental_uris": {"android": "https://dc.lft.to/lastmile_qr_scan", "ios": "https://dc.lft.to/lastmile_qr_scan"}, "name": "2289356ee633744700b7752660c9dfb6", "type": "electric_bike", "lat": 38.85455316666667, "is_disabled": 0}, {"fusion_lat": 0.0, "lon": -77.0229025, "is_reserved": 0, "bike_id": "e8c8f3c08df5589889128f17faa29e3a", "fusion_lon": 0.0, "rental_uris": {"android": "https://dc.lft.to/lastmile_qr_scan", "ios": "https://dc.lft.to/lastmile_qr_scan"}, "name": "e8c8f3c08df5589889128f17faa29e3a", "type": "electric_scooter", "lat": 38.89704016666666, "is_disabled": 0}, {"fusion_lat": 0.0, "lon": -77.03486316666667, "is_reserved": 0, "bike_id": "257e213fd55157eaeee4a16574eec1de", "fusion_lon": 0.0, "rental_uris": {"android": "https://dc.lft.to/lastmile_qr_scan", "ios": "https://dc.lft.to/lastmile_qr_scan"}, "name": "257e213fd55157eaeee4a16574eec1de", "type": "electric_scooter", "lat": 38.923385833333334, "is_disabled": 0}, {"fusion_lat": 0.0, "lon": -76.99934916666666, "is_reserved": 0, "bike_id": "e180706e0cb0ad95c78590aca61e0a08", "fusion_lon": 0.0, "rental_uris": {"android": "https://dc.lft.to/lastmile_qr_scan", "ios": "https://dc.lft.to/lastmile_qr_scan"}, "name": "e180706e0cb0ad95c78590aca61e0a08", "type": "electric_scooter", "lat": 38.907545, "is_disabled": 0}, {"fusion_lat": 0.0, "lon": -77.07701966666667, "is_reserved": 0, "bike_id": "c526c484dd50d0ccb32101378b48158f", "fusion_lon": 0.0, "rental_uris": {"android": "https://dc.lft.to/lastmile_qr_scan", "ios": "https://dc.lft.to/lastmile_qr_scan"}, "name": "c526c484dd50d0ccb32101378b48158f", "type": "electric_bike", "lat": 38.84089316666667, "is_disabled": 0}, {"fusion_lat": 0.0, "lon": -76.99510116666667, "is_reserved": 0, "bike_id": "bdf0c9cd62b6ab246ecf9927c6821a38", "fusion_lon": 0.0, "rental_uris": {"android": "https://dc.lft.to/lastmile_qr_scan", "ios": "https://dc.lft.to/lastmile_qr_scan"}, "name": "bdf0c9cd62b6ab246ecf9927c6821a38", "type": "electric_scooter", "lat": 38.89729883333333, "is_disabled": 0}, {"fusion_lat": 0.0, "lon": -77.043371, "is_reserved": 0, "bike_id": "958fa185a4e5dec78d71c6eb914243bf", "fusion_lon": 0.0, "rental_uris": {"android": "https://dc.lft.to/lastmile_qr_scan", "ios": "https://dc.lft.to/lastmile_qr_scan"}, "name": "958fa185a4e5dec78d71c6eb914243bf", "type": "electric_scooter", "lat": 38.8921905, "is_disabled": 0}, {"fusion_lat": 0.0, "lon": -76.99507133333333, "is_reserved": 0, "bike_id": "2b582400afb81200140b3be97dad1e71", "fusion_lon": 0.0, "rental_uris": {"android": "https://dc.lft.to/lastmile_qr_scan", "ios": "https://dc.lft.to/lastmile_qr_scan"}, "name": "2b582400afb81200140b3be97dad1e71", "type": "electric_scooter", "lat": 38.882578333333335, "is_disabled": 0}, {"fusion_lat": 0.0, "lon": -77.02996266666666, "is_reserved": 0, "bike_id": "eaec059f6f4299ba3c5222f9e1dac7c9", "fusion_lon": 0.0, "rental_uris": {"android": "https://dc.lft.to/lastmile_qr_scan", "ios": "https://dc.lft.to/lastmile_qr_scan"}, "name": "eaec059f6f4299ba3c5222f9e1dac7c9", "type": "electric_scooter", "lat": 38.920208, "is_disabled": 0}, {"fusion_lat": 0.0, "lon": -77.05318116666666, "is_reserved": 0, "bike_id": "cac6a6173ea5e5139f477b8f1cb1befc", "fusion_lon": 0.0, "rental_uris": {"android": "https://dc.lft.to/lastmile_qr_scan", "ios": "https://dc.lft.to/lastmile_qr_scan"}, "name": "cac6a6173ea5e5139f477b8f1cb1befc", "type": "electric_scooter", "lat": 38.915522, "is_disabled": 0}, {"fusion_lat": 0.0, "lon": -77.04334433333334, "is_reserved": 0, "bike_id": "64a3592a809362f61a1148b5bf757d76", "fusion_lon": 0.0, "rental_uris": {"android": "https://dc.lft.to/lastmile_qr_scan", "ios": "https://dc.lft.to/lastmile_qr_scan"}, "name": "64a3592a809362f61a1148b5bf757d76", "type": "electric_scooter", "lat": 38.90235333333333, "is_disabled": 0}, {"fusion_lat": 0.0, "lon": -77.04172666666666, "is_reserved": 0, "bike_id": "ea03d4b3fe86376a46f2714a680c7282", "fusion_lon": 0.0, "rental_uris": {"android": "https://dc.lft.to/lastmile_qr_scan", "ios": "https://dc.lft.to/lastmile_qr_scan"}, "name": "ea03d4b3fe86376a46f2714a680c7282", "type": "electric_scooter", "lat": 38.917274666666664, "is_disabled": 0}, {"fusion_lat": 0.0, "lon": -77.04334166666666, "is_reserved": 0, "bike_id": "48e29cb0fc22dd3eb5a6c01425b1f036", "fusion_lon": 0.0, "rental_uris": {"android": "https://dc.lft.to/lastmile_qr_scan", "ios": "https://dc.lft.to/lastmile_qr_scan"}, "name": "48e29cb0fc22dd3eb5a6c01425b1f036", "type": "electric_scooter", "lat": 38.90338116666667, "is_disabled": 0}, {"fusion_lat": 0.0, "lon": -77.009261, "is_reserved": 0, "bike_id": "0312fa3a456411951f30c5b2a01bf4ea", "fusion_lon": 0.0, "rental_uris": {"android": "https://dc.lft.to/lastmile_qr_scan", "ios": "https://dc.lft.to/lastmile_qr_scan"}, "name": "0312fa3a456411951f30c5b2a01bf4ea", "type": "electric_scooter", "lat": 38.89602333333333, "is_disabled": 0}, {"fusion_lat": 0.0, "lon": -76.9951715, "is_reserved": 0, "bike_id": "14a5be4d05724add7d681d83d7d598ef", "fusion_lon": 0.0, "rental_uris": {"android": "https://dc.lft.to/lastmile_qr_scan", "ios": "https://dc.lft.to/lastmile_qr_scan"}, "name": "14a5be4d05724add7d681d83d7d598ef", "type": "electric_scooter", "lat": 38.883682666666665, "is_disabled": 0}, {"fusion_lat": 0.0, "lon": -77.03270333333333, "is_reserved": 0, "bike_id": "ffef6d0d7c17d41667f8c21782a8c763", "fusion_lon": 0.0, "rental_uris": {"android": "https://dc.lft.to/lastmile_qr_scan", "ios": "https://dc.lft.to/lastmile_qr_scan"}, "name": "ffef6d0d7c17d41667f8c21782a8c763", "type": "electric_scooter", "lat": 38.929389, "is_disabled": 0}, {"fusion_lat": 0.0, "lon": -76.98008266666666, "is_reserved": 0, "bike_id": "906305c5271671e079e5d46b2b53a923", "fusion_lon": 0.0, "rental_uris": {"android": "https://dc.lft.to/lastmile_qr_scan", "ios": "https://dc.lft.to/lastmile_qr_scan"}, "name": "906305c5271671e079e5d46b2b53a923", "type": "electric_bike", "lat": 38.853166, "is_disabled": 0}, {"fusion_lat": 0.0, "lon": -77.051156, "is_reserved": 0, "bike_id": "a06679d819eae65390d2d3ae871b382d", "fusion_lon": 0.0, "rental_uris": {"android": "https://dc.lft.to/lastmile_qr_scan", "ios": "https://dc.lft.to/lastmile_qr_scan"}, "name": "a06679d819eae65390d2d3ae871b382d", "type": "electric_scooter", "lat": 38.923428666666666, "is_disabled": 0}, {"fusion_lat": 0.0, "lon": -77.04435783333334, "is_reserved": 0, "bike_id": "00b2eb4f34e1b4e0a268608ac1a68ca2", "fusion_lon": 0.0, "rental_uris": {"android": "https://dc.lft.to/lastmile_qr_scan", "ios": "https://dc.lft.to/lastmile_qr_scan"}, "name": "00b2eb4f34e1b4e0a268608ac1a68ca2", "type": "electric_scooter", "lat": 38.918731333333334, "is_disabled": 0}, {"fusion_lat": 0.0, "lon": -77.02460533333333, "is_reserved": 0, "bike_id": "14fb1cbcbf0a2708bc49fd93ad9f65fe", "fusion_lon": 0.0, "rental_uris": {"android": "https://dc.lft.to/lastmile_qr_scan", "ios": "https://dc.lft.to/lastmile_qr_scan"}, "name": "14fb1cbcbf0a2708bc49fd93ad9f65fe", "type": "electric_scooter", "lat": 38.89718033333333, "is_disabled": 0}, {"fusion_lat": 0.0, "lon": -76.93267966666667, "is_reserved": 0, "bike_id": "5cdf4a7cab57722af1643c8f986d55a8", "fusion_lon": 0.0, "rental_uris": {"android": "https://dc.lft.to/lastmile_qr_scan", "ios": "https://dc.lft.to/lastmile_qr_scan"}, "name": "5cdf4a7cab57722af1643c8f986d55a8", "type": "electric_scooter", "lat": 38.898904333333334, "is_disabled": 0}, {"fusion_lat": 0.0, "lon": -77.02204133333333, "is_reserved": 0, "bike_id": "bf1e65f5bbb6b6de9c8efefaa5b04876", "fusion_lon": 0.0, "rental_uris": {"android": "https://dc.lft.to/lastmile_qr_scan", "ios": "https://dc.lft.to/lastmile_qr_scan"}, "name": "bf1e65f5bbb6b6de9c8efefaa5b04876", "type": "electric_scooter", "lat": 38.90947533333333, "is_disabled": 0}, {"fusion_lat": 0.0, "lon": -77.00615483333333, "is_reserved": 0, "bike_id": "66107d8e58365e541da810676ed706d2", "fusion_lon": 0.0, "rental_uris": {"android": "https://dc.lft.to/lastmile_qr_scan", "ios": "https://dc.lft.to/lastmile_qr_scan"}, "name": "66107d8e58365e541da810676ed706d2", "type": "electric_scooter", "lat": 38.908515, "is_disabled": 0}, {"fusion_lat": 0.0, "lon": -77.04497366666666, "is_reserved": 0, "bike_id": "09ccb7f18b3df11bc9be2a5d90526f2e", "fusion_lon": 0.0, "rental_uris": {"android": "https://dc.lft.to/lastmile_qr_scan", "ios": "https://dc.lft.to/lastmile_qr_scan"}, "name": "09ccb7f18b3df11bc9be2a5d90526f2e", "type": "electric_scooter", "lat": 38.90562533333333, "is_disabled": 0}, {"fusion_lat": 0.0, "lon": -77.03475, "is_reserved": 0, "bike_id": "fdc369d64eeed0dc6e475ec58b78fb71", "fusion_lon": 0.0, "rental_uris": {"android": "https://dc.lft.to/lastmile_qr_scan", "ios": "https://dc.lft.to/lastmile_qr_scan"}, "name": "fdc369d64eeed0dc6e475ec58b78fb71", "type": "electric_scooter", "lat": 38.92536, "is_disabled": 0}, {"fusion_lat": 0.0, "lon": -77.04462983333333, "is_reserved": 0, "bike_id": "9512b20aa9a4ed8d88b455999001f36f", "fusion_lon": 0.0, "rental_uris": {"android": "https://dc.lft.to/lastmile_qr_scan", "ios": "https://dc.lft.to/lastmile_qr_scan"}, "name": "9512b20aa9a4ed8d88b455999001f36f", "type": "electric_scooter", "lat": 38.9082795, "is_disabled": 0}, {"fusion_lat": 0.0, "lon": -77.05018216666667, "is_reserved": 0, "bike_id": "dbe05f58de930e68a863d5df10a03f29", "fusion_lon": 0.0, "rental_uris": {"android": "https://dc.lft.to/lastmile_qr_scan", "ios": "https://dc.lft.to/lastmile_qr_scan"}, "name": "dbe05f58de930e68a863d5df10a03f29", "type": "electric_scooter", "lat": 38.90070883333333, "is_disabled": 0}, {"fusion_lat": 0.0, "lon": -76.93183133333334, "is_reserved": 0, "bike_id": "0e3e94bc241294973ca5bf0d335dd17d", "fusion_lon": 0.0, "rental_uris": {"android": "https://dc.lft.to/lastmile_qr_scan", "ios": "https://dc.lft.to/lastmile_qr_scan"}, "name": "0e3e94bc241294973ca5bf0d335dd17d", "type": "electric_scooter", "lat": 38.89874233333333, "is_disabled": 0}, {"fusion_lat": 0.0, "lon": -77.03086333333333, "is_reserved": 0, "bike_id": "69f37caf52379b7a2a1844f6d2f45c3b", "fusion_lon": 0.0, "rental_uris": {"android": "https://dc.lft.to/lastmile_qr_scan", "ios": "https://dc.lft.to/lastmile_qr_scan"}, "name": "69f37caf52379b7a2a1844f6d2f45c3b", "type": "electric_scooter", "lat": 38.92246466666667, "is_disabled": 0}, {"fusion_lat": 0.0, "lon": -77.025245, "is_reserved": 0, "bike_id": "08f7867fe017e07c8c374c00dc1d3f7d", "fusion_lon": 0.0, "rental_uris": {"android": "https://dc.lft.to/lastmile_qr_scan", "ios": "https://dc.lft.to/lastmile_qr_scan"}, "name": "08f7867fe017e07c8c374c00dc1d3f7d", "type": "electric_scooter", "lat": 38.92977, "is_disabled": 0}, {"fusion_lat": 0.0, "lon": -77.05592983333334, "is_reserved": 0, "bike_id": "97ab6e2aea710b64cdfc7b7f2d9417a3", "fusion_lon": 0.0, "rental_uris": {"android": "https://dc.lft.to/lastmile_qr_scan", "ios": "https://dc.lft.to/lastmile_qr_scan"}, "name": "97ab6e2aea710b64cdfc7b7f2d9417a3", "type": "electric_scooter", "lat": 38.90761, "is_disabled": 0}, {"fusion_lat": 0.0, "lon": -77.01693233333333, "is_reserved": 0, "bike_id": "244ffe003782c8d412c2b5ac8978d728", "fusion_lon": 0.0, "rental_uris": {"android": "https://dc.lft.to/lastmile_qr_scan", "ios": "https://dc.lft.to/lastmile_qr_scan"}, "name": "244ffe003782c8d412c2b5ac8978d728", "type": "electric_scooter", "lat": 38.9750075, "is_disabled": 0}, {"fusion_lat": 0.0, "lon": -77.02726716666666, "is_reserved": 0, "bike_id": "ceff5340d7b03e17be0ded0ad35c99c4", "fusion_lon": 0.0, "rental_uris": {"android": "https://dc.lft.to/lastmile_qr_scan", "ios": "https://dc.lft.to/lastmile_qr_scan"}, "name": "ceff5340d7b03e17be0ded0ad35c99c4", "type": "electric_scooter", "lat": 38.950027, "is_disabled": 0}, {"fusion_lat": 0.0, "lon": -76.97327033333333, "is_reserved": 0, "bike_id": "2c3ae4c9405cf76ca6126206cc9afccc", "fusion_lon": 0.0, "rental_uris": {"android": "https://dc.lft.to/lastmile_qr_scan", "ios": "https://dc.lft.to/lastmile_qr_scan"}, "name": "2c3ae4c9405cf76ca6126206cc9afccc", "type": "electric_scooter", "lat": 38.904081, "is_disabled": 0}, {"fusion_lat": 0.0, "lon": -77.03204483333333, "is_reserved": 0, "bike_id": "8389e4459556ecb3134e714d34e81a84", "fusion_lon": 0.0, "rental_uris": {"android": "https://dc.lft.to/lastmile_qr_scan", "ios": "https://dc.lft.to/lastmile_qr_scan"}, "name": "8389e4459556ecb3134e714d34e81a84", "type": "electric_scooter", "lat": 38.900433166666666, "is_disabled": 0}, {"fusion_lat": 0.0, "lon": -77.02371616666667, "is_reserved": 0, "bike_id": "114b6cc4c3a54f2e3844df9317db7f63", "fusion_lon": 0.0, "rental_uris": {"android": "https://dc.lft.to/lastmile_qr_scan", "ios": "https://dc.lft.to/lastmile_qr_scan"}, "name": "114b6cc4c3a54f2e3844df9317db7f63", "type": "electric_scooter", "lat": 38.89220616666667, "is_disabled": 0}, {"fusion_lat": 0.0, "lon": -77.04366816666666, "is_reserved": 0, "bike_id": "b2ed2487b4019e14cac811c24fd2f26e", "fusion_lon": 0.0, "rental_uris": {"android": "https://dc.lft.to/lastmile_qr_scan", "ios": "https://dc.lft.to/lastmile_qr_scan"}, "name": "b2ed2487b4019e14cac811c24fd2f26e", "type": "electric_scooter", "lat": 38.910481, "is_disabled": 0}, {"fusion_lat": 0.0, "lon": -77.00381166666666, "is_reserved": 0, "bike_id": "86c14798b8af6df749cc19e095d02591", "fusion_lon": 0.0, "rental_uris": {"android": "https://dc.lft.to/lastmile_qr_scan", "ios": "https://dc.lft.to/lastmile_qr_scan"}, "name": "86c14798b8af6df749cc19e095d02591", "type": "electric_scooter", "lat": 38.923611, "is_disabled": 0}, {"fusion_lat": 0.0, "lon": -77.070747, "is_reserved": 0, "bike_id": "b248716f995ba050eae77b40486ef402", "fusion_lon": 0.0, "rental_uris": {"android": "https://dc.lft.to/lastmile_qr_scan", "ios": "https://dc.lft.to/lastmile_qr_scan"}, "name": "b248716f995ba050eae77b40486ef402", "type": "electric_scooter", "lat": 38.931697666666665, "is_disabled": 0}, {"fusion_lat": 0.0, "lon": -76.9375735, "is_reserved": 0, "bike_id": "4d59591fc5ce272bdf559b87739aabcc", "fusion_lon": 0.0, "rental_uris": {"android": "https://dc.lft.to/lastmile_qr_scan", "ios": "https://dc.lft.to/lastmile_qr_scan"}, "name": "4d59591fc5ce272bdf559b87739aabcc", "type": "electric_scooter", "lat": 38.890402333333334, "is_disabled": 0}, {"fusion_lat": 0.0, "lon": -77.0321875, "is_reserved": 0, "bike_id": "97798934e909a5d3648ee2c4144dd46e", "fusion_lon": 0.0, "rental_uris": {"android": "https://dc.lft.to/lastmile_qr_scan", "ios": "https://dc.lft.to/lastmile_qr_scan"}, "name": "97798934e909a5d3648ee2c4144dd46e", "type": "electric_scooter", "lat": 38.9286065, "is_disabled": 0}, {"fusion_lat": 0.0, "lon": -77.01477533333333, "is_reserved": 0, "bike_id": "e29298c3e78afc831e87b47e394dca1d", "fusion_lon": 0.0, "rental_uris": {"android": "https://dc.lft.to/lastmile_qr_scan", "ios": "https://dc.lft.to/lastmile_qr_scan"}, "name": "e29298c3e78afc831e87b47e394dca1d", "type": "electric_scooter", "lat": 38.8762715, "is_disabled": 0}, {"fusion_lat": 0.0, "lon": -77.027361, "is_reserved": 0, "bike_id": "58ccc244fc57ee1b3436fe80160ae68d", "fusion_lon": 0.0, "rental_uris": {"android": "https://dc.lft.to/lastmile_qr_scan", "ios": "https://dc.lft.to/lastmile_qr_scan"}, "name": "58ccc244fc57ee1b3436fe80160ae68d", "type": "electric_scooter", "lat": 38.92859983333334, "is_disabled": 0}, {"fusion_lat": 0.0, "lon": -77.03473183333334, "is_reserved": 0, "bike_id": "2563539e413fa584aea564089f54011e", "fusion_lon": 0.0, "rental_uris": {"android": "https://dc.lft.to/lastmile_qr_scan", "ios": "https://dc.lft.to/lastmile_qr_scan"}, "name": "2563539e413fa584aea564089f54011e", "type": "electric_scooter", "lat": 38.9180855, "is_disabled": 0}, {"fusion_lat": 0.0, "lon": -77.02792683333334, "is_reserved": 0, "bike_id": "a0e007e82613235dcde775b04237f60d", "fusion_lon": 0.0, "rental_uris": {"android": "https://dc.lft.to/lastmile_qr_scan", "ios": "https://dc.lft.to/lastmile_qr_scan"}, "name": "a0e007e82613235dcde775b04237f60d", "type": "electric_scooter", "lat": 38.930834833333336, "is_disabled": 0}, {"fusion_lat": 0.0, "lon": -77.02686683333333, "is_reserved": 0, "bike_id": "64fc1bcfb50ff9886f4289329c07b135", "fusion_lon": 0.0, "rental_uris": {"android": "https://dc.lft.to/lastmile_qr_scan", "ios": "https://dc.lft.to/lastmile_qr_scan"}, "name": "64fc1bcfb50ff9886f4289329c07b135", "type": "electric_scooter", "lat": 38.90663133333334, "is_disabled": 0}, {"fusion_lat": 0.0, "lon": -77.009683, "is_reserved": 0, "bike_id": "c50154bc6d0a08bba10d809a6b2804c4", "fusion_lon": 0.0, "rental_uris": {"android": "https://dc.lft.to/lastmile_qr_scan", "ios": "https://dc.lft.to/lastmile_qr_scan"}, "name": "c50154bc6d0a08bba10d809a6b2804c4", "type": "electric_scooter", "lat": 38.91406516666667, "is_disabled": 0}, {"fusion_lat": 0.0, "lon": -76.98111416666667, "is_reserved": 0, "bike_id": "5d9707da4cc98c517a4e14c545d45e41", "fusion_lon": 0.0, "rental_uris": {"android": "https://dc.lft.to/lastmile_qr_scan", "ios": "https://dc.lft.to/lastmile_qr_scan"}, "name": "5d9707da4cc98c517a4e14c545d45e41", "type": "electric_scooter", "lat": 38.904091666666666, "is_disabled": 0}, {"fusion_lat": 0.0, "lon": -76.98368466666666, "is_reserved": 0, "bike_id": "9e8c204236f7bbe4521d5d8b0aa7f540", "fusion_lon": 0.0, "rental_uris": {"android": "https://dc.lft.to/lastmile_qr_scan", "ios": "https://dc.lft.to/lastmile_qr_scan"}, "name": "9e8c204236f7bbe4521d5d8b0aa7f540", "type": "electric_scooter", "lat": 38.91544183333333, "is_disabled": 0}, {"fusion_lat": 0.0, "lon": -77.04882516666666, "is_reserved": 0, "bike_id": "e80e50258e9d00a4200fc4a9c54cc742", "fusion_lon": 0.0, "rental_uris": {"android": "https://dc.lft.to/lastmile_qr_scan", "ios": "https://dc.lft.to/lastmile_qr_scan"}, "name": "e80e50258e9d00a4200fc4a9c54cc742", "type": "electric_scooter", "lat": 38.90524966666667, "is_disabled": 0}, {"fusion_lat": 0.0, "lon": -77.03086566666667, "is_reserved": 0, "bike_id": "c18557ffb021166bdd021d1ad1b1b265", "fusion_lon": 0.0, "rental_uris": {"android": "https://dc.lft.to/lastmile_qr_scan", "ios": "https://dc.lft.to/lastmile_qr_scan"}, "name": "c18557ffb021166bdd021d1ad1b1b265", "type": "electric_scooter", "lat": 38.922439, "is_disabled": 0}, {"fusion_lat": 0.0, "lon": -77.03180466666667, "is_reserved": 0, "bike_id": "7dc939a4c9dea3309c5f67e5d99b0ccd", "fusion_lon": 0.0, "rental_uris": {"android": "https://dc.lft.to/lastmile_qr_scan", "ios": "https://dc.lft.to/lastmile_qr_scan"}, "name": "7dc939a4c9dea3309c5f67e5d99b0ccd", "type": "electric_scooter", "lat": 38.91651616666667, "is_disabled": 0}, {"fusion_lat": 0.0, "lon": -77.02084216666667, "is_reserved": 0, "bike_id": "f1e1bd21b3678704e6bc7f44af996be0", "fusion_lon": 0.0, "rental_uris": {"android": "https://dc.lft.to/lastmile_qr_scan", "ios": "https://dc.lft.to/lastmile_qr_scan"}, "name": "f1e1bd21b3678704e6bc7f44af996be0", "type": "electric_scooter", "lat": 38.927100833333334, "is_disabled": 0}, {"fusion_lat": 0.0, "lon": -77.0279255, "is_reserved": 0, "bike_id": "e11746bd9804fc843573128695d3715d", "fusion_lon": 0.0, "rental_uris": {"android": "https://dc.lft.to/lastmile_qr_scan", "ios": "https://dc.lft.to/lastmile_qr_scan"}, "name": "e11746bd9804fc843573128695d3715d", "type": "electric_scooter", "lat": 38.954028, "is_disabled": 0}, {"fusion_lat": 0.0, "lon": -77.03799516666666, "is_reserved": 0, "bike_id": "f2784b5aaed3eec6b15765a94fe8400d", "fusion_lon": 0.0, "rental_uris": {"android": "https://dc.lft.to/lastmile_qr_scan", "ios": "https://dc.lft.to/lastmile_qr_scan"}, "name": "f2784b5aaed3eec6b15765a94fe8400d", "type": "electric_scooter", "lat": 38.910345666666664, "is_disabled": 0}, {"fusion_lat": 0.0, "lon": -77.01165733333333, "is_reserved": 0, "bike_id": "5047d71d7272b6e4fa06c0dccaf5f3d4", "fusion_lon": 0.0, "rental_uris": {"android": "https://dc.lft.to/lastmile_qr_scan", "ios": "https://dc.lft.to/lastmile_qr_scan"}, "name": "5047d71d7272b6e4fa06c0dccaf5f3d4", "type": "electric_scooter", "lat": 38.9003405, "is_disabled": 0}, {"fusion_lat": 0.0, "lon": -77.023751, "is_reserved": 0, "bike_id": "899cf907e4ab047065114cb57a367004", "fusion_lon": 0.0, "rental_uris": {"android": "https://dc.lft.to/lastmile_qr_scan", "ios": "https://dc.lft.to/lastmile_qr_scan"}, "name": "899cf907e4ab047065114cb57a367004", "type": "electric_scooter", "lat": 38.93225783333333, "is_disabled": 0}, {"fusion_lat": 0.0, "lon": -76.9571935, "is_reserved": 0, "bike_id": "96a55c66f79a5a4a345d577ce1e5181a", "fusion_lon": 0.0, "rental_uris": {"android": "https://dc.lft.to/lastmile_qr_scan", "ios": "https://dc.lft.to/lastmile_qr_scan"}, "name": "96a55c66f79a5a4a345d577ce1e5181a", "type": "electric_scooter", "lat": 38.88872166666667, "is_disabled": 0}, {"fusion_lat": 0.0, "lon": -77.04271516666667, "is_reserved": 0, "bike_id": "25ff4326888519c70afa62e68269e1d5", "fusion_lon": 0.0, "rental_uris": {"android": "https://dc.lft.to/lastmile_qr_scan", "ios": "https://dc.lft.to/lastmile_qr_scan"}, "name": "25ff4326888519c70afa62e68269e1d5", "type": "electric_scooter", "lat": 38.9229715, "is_disabled": 0}, {"fusion_lat": 0.0, "lon": -76.93368433333333, "is_reserved": 0, "bike_id": "10689f9f21a9bb5093c4aa84089dd457", "fusion_lon": 0.0, "rental_uris": {"android": "https://dc.lft.to/lastmile_qr_scan", "ios": "https://dc.lft.to/lastmile_qr_scan"}, "name": "10689f9f21a9bb5093c4aa84089dd457", "type": "electric_scooter", "lat": 38.8991485, "is_disabled": 0}, {"fusion_lat": 0.0, "lon": -77.01669766666667, "is_reserved": 0, "bike_id": "020bc32eaec483aaa54825c4a774d8f8", "fusion_lon": 0.0, "rental_uris": {"android": "https://dc.lft.to/lastmile_qr_scan", "ios": "https://dc.lft.to/lastmile_qr_scan"}, "name": "020bc32eaec483aaa54825c4a774d8f8", "type": "electric_scooter", "lat": 38.88116133333333, "is_disabled": 0}, {"fusion_lat": 0.0, "lon": -77.02236083333334, "is_reserved": 0, "bike_id": "49ad17ee9e0b5e1288f58b7df7a67035", "fusion_lon": 0.0, "rental_uris": {"android": "https://dc.lft.to/lastmile_qr_scan", "ios": "https://dc.lft.to/lastmile_qr_scan"}, "name": "49ad17ee9e0b5e1288f58b7df7a67035", "type": "electric_scooter", "lat": 38.8947075, "is_disabled": 0}, {"fusion_lat": 0.0, "lon": -76.9983615, "is_reserved": 0, "bike_id": "33c9ddf02870b1f3775cf23326d601da", "fusion_lon": 0.0, "rental_uris": {"android": "https://dc.lft.to/lastmile_qr_scan", "ios": "https://dc.lft.to/lastmile_qr_scan"}, "name": "33c9ddf02870b1f3775cf23326d601da", "type": "electric_scooter", "lat": 38.900482, "is_disabled": 0}, {"fusion_lat": 0.0, "lon": -77.0272215, "is_reserved": 0, "bike_id": "2be445293d1cac0d7a3e42ec43224208", "fusion_lon": 0.0, "rental_uris": {"android": "https://dc.lft.to/lastmile_qr_scan", "ios": "https://dc.lft.to/lastmile_qr_scan"}, "name": "2be445293d1cac0d7a3e42ec43224208", "type": "electric_scooter", "lat": 38.94082516666667, "is_disabled": 0}, {"fusion_lat": 0.0, "lon": -77.10092383333334, "is_reserved": 0, "bike_id": "1a0ca28aa4debde8eed0005974b49f3a", "fusion_lon": 0.0, "rental_uris": {"android": "https://dc.lft.to/lastmile_qr_scan", "ios": "https://dc.lft.to/lastmile_qr_scan"}, "name": "1a0ca28aa4debde8eed0005974b49f3a", "type": "electric_bike", "lat": 38.959567166666666, "is_disabled": 0}, {"fusion_lat": 0.0, "lon": -77.0067405, "is_reserved": 0, "bike_id": "13bd84e2cb07c90113fd0b9f2ae349a0", "fusion_lon": 0.0, "rental_uris": {"android": "https://dc.lft.to/lastmile_qr_scan", "ios": "https://dc.lft.to/lastmile_qr_scan"}, "name": "13bd84e2cb07c90113fd0b9f2ae349a0", "type": "electric_scooter", "lat": 38.900063, "is_disabled": 0}, {"fusion_lat": 0.0, "lon": -77.02229183333333, "is_reserved": 0, "bike_id": "6a5dd71b5d10dc09334594b9e7fcfaac", "fusion_lon": 0.0, "rental_uris": {"android": "https://dc.lft.to/lastmile_qr_scan", "ios": "https://dc.lft.to/lastmile_qr_scan"}, "name": "6a5dd71b5d10dc09334594b9e7fcfaac", "type": "electric_scooter", "lat": 38.88742383333334, "is_disabled": 0}, {"fusion_lat": 0.0, "lon": -76.99229866666667, "is_reserved": 0, "bike_id": "5218684e4ea9829cb5bb686889a88c93", "fusion_lon": 0.0, "rental_uris": {"android": "https://dc.lft.to/lastmile_qr_scan", "ios": "https://dc.lft.to/lastmile_qr_scan"}, "name": "5218684e4ea9829cb5bb686889a88c93", "type": "electric_bike", "lat": 38.93861233333333, "is_disabled": 0}, {"fusion_lat": 0.0, "lon": -77.05740983333334, "is_reserved": 0, "bike_id": "f8ab73bcbb5a9a537bf887ad2040487a", "fusion_lon": 0.0, "rental_uris": {"android": "https://dc.lft.to/lastmile_qr_scan", "ios": "https://dc.lft.to/lastmile_qr_scan"}, "name": "f8ab73bcbb5a9a537bf887ad2040487a", "type": "electric_scooter", "lat": 38.93389766666667, "is_disabled": 0}, {"fusion_lat": 0.0, "lon": -77.034326, "is_reserved": 0, "bike_id": "5ab31685b2e13a768d9f02536306236c", "fusion_lon": 0.0, "rental_uris": {"android": "https://dc.lft.to/lastmile_qr_scan", "ios": "https://dc.lft.to/lastmile_qr_scan"}, "name": "5ab31685b2e13a768d9f02536306236c", "type": "electric_scooter", "lat": 38.91939516666667, "is_disabled": 0}, {"fusion_lat": 0.0, "lon": -77.04340683333334, "is_reserved": 0, "bike_id": "9e34b591e242971ccab76128993d15e5", "fusion_lon": 0.0, "rental_uris": {"android": "https://dc.lft.to/lastmile_qr_scan", "ios": "https://dc.lft.to/lastmile_qr_scan"}, "name": "9e34b591e242971ccab76128993d15e5", "type": "electric_scooter", "lat": 38.9030565, "is_disabled": 0}, {"fusion_lat": 0.0, "lon": -77.03487933333334, "is_reserved": 0, "bike_id": "7fbbb22aa3ad8c3827a4f8ed21809387", "fusion_lon": 0.0, "rental_uris": {"android": "https://dc.lft.to/lastmile_qr_scan", "ios": "https://dc.lft.to/lastmile_qr_scan"}, "name": "7fbbb22aa3ad8c3827a4f8ed21809387", "type": "electric_scooter", "lat": 38.92151233333333, "is_disabled": 0}, {"fusion_lat": 0.0, "lon": -77.0858925, "is_reserved": 0, "bike_id": "b78496e3790660f93807b43cdc1764a0", "fusion_lon": 0.0, "rental_uris": {"android": "https://dc.lft.to/lastmile_qr_scan", "ios": "https://dc.lft.to/lastmile_qr_scan"}, "name": "b78496e3790660f93807b43cdc1764a0", "type": "electric_bike", "lat": 38.844361, "is_disabled": 0}, {"fusion_lat": 0.0, "lon": -77.04304683333334, "is_reserved": 0, "bike_id": "e447e4804c4e5498f0ba42a5de663888", "fusion_lon": 0.0, "rental_uris": {"android": "https://dc.lft.to/lastmile_qr_scan", "ios": "https://dc.lft.to/lastmile_qr_scan"}, "name": "e447e4804c4e5498f0ba42a5de663888", "type": "electric_scooter", "lat": 38.9233505, "is_disabled": 0}, {"fusion_lat": 0.0, "lon": -76.9732475, "is_reserved": 0, "bike_id": "803eb0bea0cae545ad1224ec8be47a69", "fusion_lon": 0.0, "rental_uris": {"android": "https://dc.lft.to/lastmile_qr_scan", "ios": "https://dc.lft.to/lastmile_qr_scan"}, "name": "803eb0bea0cae545ad1224ec8be47a69", "type": "electric_scooter", "lat": 38.917713, "is_disabled": 0}, {"fusion_lat": 0.0, "lon": -76.97238816666666, "is_reserved": 0, "bike_id": "a12ddf72def824a26b175ea5000444a9", "fusion_lon": 0.0, "rental_uris": {"android": "https://dc.lft.to/lastmile_qr_scan", "ios": "https://dc.lft.to/lastmile_qr_scan"}, "name": "a12ddf72def824a26b175ea5000444a9", "type": "electric_bike", "lat": 38.94896383333333, "is_disabled": 0}, {"fusion_lat": 0.0, "lon": -76.98499533333333, "is_reserved": 0, "bike_id": "d11724cacb9847e5023f01a18d7f6bec", "fusion_lon": 0.0, "rental_uris": {"android": "https://dc.lft.to/lastmile_qr_scan", "ios": "https://dc.lft.to/lastmile_qr_scan"}, "name": "d11724cacb9847e5023f01a18d7f6bec", "type": "electric_scooter", "lat": 38.91508066666667, "is_disabled": 0}, {"fusion_lat": 0.0, "lon": -77.06092916666667, "is_reserved": 0, "bike_id": "97661f98a9fec96515b36ad03eaa3c52", "fusion_lon": 0.0, "rental_uris": {"android": "https://dc.lft.to/lastmile_qr_scan", "ios": "https://dc.lft.to/lastmile_qr_scan"}, "name": "97661f98a9fec96515b36ad03eaa3c52", "type": "electric_scooter", "lat": 38.9117015, "is_disabled": 0}, {"fusion_lat": 0.0, "lon": -76.99646783333333, "is_reserved": 0, "bike_id": "b35d2d7a663d19e8ef944a6335fc7358", "fusion_lon": 0.0, "rental_uris": {"android": "https://dc.lft.to/lastmile_qr_scan", "ios": "https://dc.lft.to/lastmile_qr_scan"}, "name": "b35d2d7a663d19e8ef944a6335fc7358", "type": "electric_scooter", "lat": 38.900465833333335, "is_disabled": 0}, {"fusion_lat": 0.0, "lon": -77.0187985, "is_reserved": 0, "bike_id": "6b694e685fd5f1b09c9929f11101acd4", "fusion_lon": 0.0, "rental_uris": {"android": "https://dc.lft.to/lastmile_qr_scan", "ios": "https://dc.lft.to/lastmile_qr_scan"}, "name": "6b694e685fd5f1b09c9929f11101acd4", "type": "electric_scooter", "lat": 38.902187, "is_disabled": 0}, {"fusion_lat": 0.0, "lon": -77.0222335, "is_reserved": 0, "bike_id": "83ad4e6acf88bf6978279250b73754ba", "fusion_lon": 0.0, "rental_uris": {"android": "https://dc.lft.to/lastmile_qr_scan", "ios": "https://dc.lft.to/lastmile_qr_scan"}, "name": "83ad4e6acf88bf6978279250b73754ba", "type": "electric_scooter", "lat": 38.892099333333334, "is_disabled": 0}, {"fusion_lat": 0.0, "lon": -77.031977, "is_reserved": 0, "bike_id": "f9293b0de90d5eb3ffcea13e7dc126ee", "fusion_lon": 0.0, "rental_uris": {"android": "https://dc.lft.to/lastmile_qr_scan", "ios": "https://dc.lft.to/lastmile_qr_scan"}, "name": "f9293b0de90d5eb3ffcea13e7dc126ee", "type": "electric_scooter", "lat": 38.9234585, "is_disabled": 0}, {"fusion_lat": 0.0, "lon": -77.03514216666666, "is_reserved": 0, "bike_id": "8f6492ca6cbc055376b7e54e00b3b6bb", "fusion_lon": 0.0, "rental_uris": {"android": "https://dc.lft.to/lastmile_qr_scan", "ios": "https://dc.lft.to/lastmile_qr_scan"}, "name": "8f6492ca6cbc055376b7e54e00b3b6bb", "type": "electric_scooter", "lat": 38.966225, "is_disabled": 0}, {"fusion_lat": 0.0, "lon": -76.98536166666666, "is_reserved": 0, "bike_id": "9454c4d8b30c73f642f8fc31cf4a1c63", "fusion_lon": 0.0, "rental_uris": {"android": "https://dc.lft.to/lastmile_qr_scan", "ios": "https://dc.lft.to/lastmile_qr_scan"}, "name": "9454c4d8b30c73f642f8fc31cf4a1c63", "type": "electric_scooter", "lat": 38.91026466666667, "is_disabled": 0}, {"fusion_lat": 0.0, "lon": -77.03974933333333, "is_reserved": 0, "bike_id": "ee97e12efde7ec666989a82cacc6c3b1", "fusion_lon": 0.0, "rental_uris": {"android": "https://dc.lft.to/lastmile_qr_scan", "ios": "https://dc.lft.to/lastmile_qr_scan"}, "name": "ee97e12efde7ec666989a82cacc6c3b1", "type": "electric_scooter", "lat": 38.89219033333333, "is_disabled": 0}, {"fusion_lat": 0.0, "lon": -77.06732833333334, "is_reserved": 0, "bike_id": "432345a478265d07fcb7da12b144c86a", "fusion_lon": 0.0, "rental_uris": {"android": "https://dc.lft.to/lastmile_qr_scan", "ios": "https://dc.lft.to/lastmile_qr_scan"}, "name": "432345a478265d07fcb7da12b144c86a", "type": "electric_scooter", "lat": 38.90677216666667, "is_disabled": 0}, {"fusion_lat": 0.0, "lon": -77.0483485, "is_reserved": 0, "bike_id": "4a3ea44c48e0b5414c50bce5399ea431", "fusion_lon": 0.0, "rental_uris": {"android": "https://dc.lft.to/lastmile_qr_scan", "ios": "https://dc.lft.to/lastmile_qr_scan"}, "name": "4a3ea44c48e0b5414c50bce5399ea431", "type": "electric_scooter", "lat": 38.90470933333334, "is_disabled": 0}, {"fusion_lat": 0.0, "lon": -77.039114, "is_reserved": 0, "bike_id": "45666b27ac6b3496a1d492d327adaac8", "fusion_lon": 0.0, "rental_uris": {"android": "https://dc.lft.to/lastmile_qr_scan", "ios": "https://dc.lft.to/lastmile_qr_scan"}, "name": "45666b27ac6b3496a1d492d327adaac8", "type": "electric_scooter", "lat": 38.918282833333336, "is_disabled": 0}, {"fusion_lat": 0.0, "lon": -77.03197583333333, "is_reserved": 0, "bike_id": "649151eb4fedbb2128f85938d68b143a", "fusion_lon": 0.0, "rental_uris": {"android": "https://dc.lft.to/lastmile_qr_scan", "ios": "https://dc.lft.to/lastmile_qr_scan"}, "name": "649151eb4fedbb2128f85938d68b143a", "type": "electric_scooter", "lat": 38.908265166666666, "is_disabled": 0}, {"fusion_lat": 0.0, "lon": -77.026852, "is_reserved": 0, "bike_id": "6614044b802fe712d645d4a2606ec9b2", "fusion_lon": 0.0, "rental_uris": {"android": "https://dc.lft.to/lastmile_qr_scan", "ios": "https://dc.lft.to/lastmile_qr_scan"}, "name": "6614044b802fe712d645d4a2606ec9b2", "type": "electric_scooter", "lat": 38.912675166666666, "is_disabled": 0}, {"fusion_lat": 0.0, "lon": -77.04505516666667, "is_reserved": 0, "bike_id": "ecd61517c7e1db93db46538dd2733cc2", "fusion_lon": 0.0, "rental_uris": {"android": "https://dc.lft.to/lastmile_qr_scan", "ios": "https://dc.lft.to/lastmile_qr_scan"}, "name": "ecd61517c7e1db93db46538dd2733cc2", "type": "electric_scooter", "lat": 38.89224466666667, "is_disabled": 0}, {"fusion_lat": 0.0, "lon": -77.02853333333333, "is_reserved": 0, "bike_id": "ba341eb3ab8c0ef84596c5c18d0fe12c", "fusion_lon": 0.0, "rental_uris": {"android": "https://dc.lft.to/lastmile_qr_scan", "ios": "https://dc.lft.to/lastmile_qr_scan"}, "name": "ba341eb3ab8c0ef84596c5c18d0fe12c", "type": "electric_scooter", "lat": 38.93176366666667, "is_disabled": 0}, {"fusion_lat": 0.0, "lon": -76.99648333333333, "is_reserved": 0, "bike_id": "e8226f2d33beade3a3a13d5d02bbf0a7", "fusion_lon": 0.0, "rental_uris": {"android": "https://dc.lft.to/lastmile_qr_scan", "ios": "https://dc.lft.to/lastmile_qr_scan"}, "name": "e8226f2d33beade3a3a13d5d02bbf0a7", "type": "electric_bike", "lat": 38.98823433333333, "is_disabled": 0}, {"fusion_lat": 0.0, "lon": -76.98366583333333, "is_reserved": 0, "bike_id": "f8d07032fa5345ea9603c12441ba3d34", "fusion_lon": 0.0, "rental_uris": {"android": "https://dc.lft.to/lastmile_qr_scan", "ios": "https://dc.lft.to/lastmile_qr_scan"}, "name": "f8d07032fa5345ea9603c12441ba3d34", "type": "electric_scooter", "lat": 38.91546616666667, "is_disabled": 0}, {"fusion_lat": 0.0, "lon": -77.0209425, "is_reserved": 0, "bike_id": "703f885d3a50247a5d9a88add4d1b8e7", "fusion_lon": 0.0, "rental_uris": {"android": "https://dc.lft.to/lastmile_qr_scan", "ios": "https://dc.lft.to/lastmile_qr_scan"}, "name": "703f885d3a50247a5d9a88add4d1b8e7", "type": "electric_scooter", "lat": 38.92189883333333, "is_disabled": 0}, {"fusion_lat": 0.0, "lon": -77.03689216666666, "is_reserved": 0, "bike_id": "4f037e5b26a91ecaa0f984ea8e751e15", "fusion_lon": 0.0, "rental_uris": {"android": "https://dc.lft.to/lastmile_qr_scan", "ios": "https://dc.lft.to/lastmile_qr_scan"}, "name": "4f037e5b26a91ecaa0f984ea8e751e15", "type": "electric_scooter", "lat": 38.91047616666667, "is_disabled": 0}, {"fusion_lat": 0.0, "lon": -77.125274, "is_reserved": 0, "bike_id": "428a41a61b6666c191d0fe16ad08be2e", "fusion_lon": 0.0, "rental_uris": {"android": "https://dc.lft.to/lastmile_qr_scan", "ios": "https://dc.lft.to/lastmile_qr_scan"}, "name": "428a41a61b6666c191d0fe16ad08be2e", "type": "electric_bike", "lat": 39.0563475, "is_disabled": 0}, {"fusion_lat": 0.0, "lon": -77.03528483333334, "is_reserved": 0, "bike_id": "904df5bfb2644c1b9bdd0de72f3a4f65", "fusion_lon": 0.0, "rental_uris": {"android": "https://dc.lft.to/lastmile_qr_scan", "ios": "https://dc.lft.to/lastmile_qr_scan"}, "name": "904df5bfb2644c1b9bdd0de72f3a4f65", "type": "electric_scooter", "lat": 38.900363166666665, "is_disabled": 0}, {"fusion_lat": 0.0, "lon": -77.03447283333334, "is_reserved": 0, "bike_id": "d9e82fec63929408bff722810680974e", "fusion_lon": 0.0, "rental_uris": {"android": "https://dc.lft.to/lastmile_qr_scan", "ios": "https://dc.lft.to/lastmile_qr_scan"}, "name": "d9e82fec63929408bff722810680974e", "type": "electric_scooter", "lat": 38.909443833333334, "is_disabled": 0}, {"fusion_lat": 0.0, "lon": -76.98552216666667, "is_reserved": 0, "bike_id": "7be6a8cca55010818598dbd943f6e87d", "fusion_lon": 0.0, "rental_uris": {"android": "https://dc.lft.to/lastmile_qr_scan", "ios": "https://dc.lft.to/lastmile_qr_scan"}, "name": "7be6a8cca55010818598dbd943f6e87d", "type": "electric_scooter", "lat": 38.91032083333333, "is_disabled": 0}, {"fusion_lat": 0.0, "lon": -77.0327615, "is_reserved": 0, "bike_id": "8772190746b0c905f6ce8552d4af41a9", "fusion_lon": 0.0, "rental_uris": {"android": "https://dc.lft.to/lastmile_qr_scan", "ios": "https://dc.lft.to/lastmile_qr_scan"}, "name": "8772190746b0c905f6ce8552d4af41a9", "type": "electric_scooter", "lat": 38.917023666666665, "is_disabled": 0}, {"fusion_lat": 0.0, "lon": -77.03309283333333, "is_reserved": 0, "bike_id": "82fb8243f2ff39bf1cf807a5b390cc56", "fusion_lon": 0.0, "rental_uris": {"android": "https://dc.lft.to/lastmile_qr_scan", "ios": "https://dc.lft.to/lastmile_qr_scan"}, "name": "82fb8243f2ff39bf1cf807a5b390cc56", "type": "electric_scooter", "lat": 38.956159166666666, "is_disabled": 0}, {"fusion_lat": 0.0, "lon": -76.98606366666667, "is_reserved": 0, "bike_id": "8c9081201d8470f70ce97cf96eef1a9f", "fusion_lon": 0.0, "rental_uris": {"android": "https://dc.lft.to/lastmile_qr_scan", "ios": "https://dc.lft.to/lastmile_qr_scan"}, "name": "8c9081201d8470f70ce97cf96eef1a9f", "type": "electric_scooter", "lat": 38.865271166666666, "is_disabled": 0}, {"fusion_lat": 0.0, "lon": -77.031994, "is_reserved": 0, "bike_id": "0f5ab6a840396fb2b19e67839520ca79", "fusion_lon": 0.0, "rental_uris": {"android": "https://dc.lft.to/lastmile_qr_scan", "ios": "https://dc.lft.to/lastmile_qr_scan"}, "name": "0f5ab6a840396fb2b19e67839520ca79", "type": "electric_scooter", "lat": 38.9098805, "is_disabled": 0}, {"fusion_lat": 0.0, "lon": -77.07501583333334, "is_reserved": 0, "bike_id": "877667459cd0db5ad00d84c77bcea208", "fusion_lon": 0.0, "rental_uris": {"android": "https://dc.lft.to/lastmile_qr_scan", "ios": "https://dc.lft.to/lastmile_qr_scan"}, "name": "877667459cd0db5ad00d84c77bcea208", "type": "electric_scooter", "lat": 38.89468016666667, "is_disabled": 0}, {"fusion_lat": 0.0, "lon": -77.02051666666667, "is_reserved": 0, "bike_id": "4a4421a7c2ad596374f83c581e62a6f6", "fusion_lon": 0.0, "rental_uris": {"android": "https://dc.lft.to/lastmile_qr_scan", "ios": "https://dc.lft.to/lastmile_qr_scan"}, "name": "4a4421a7c2ad596374f83c581e62a6f6", "type": "electric_scooter", "lat": 38.91550383333333, "is_disabled": 0}, {"fusion_lat": 0.0, "lon": -77.02374616666667, "is_reserved": 0, "bike_id": "c7d02bb38dc08181bcdad4e7fbabce16", "fusion_lon": 0.0, "rental_uris": {"android": "https://dc.lft.to/lastmile_qr_scan", "ios": "https://dc.lft.to/lastmile_qr_scan"}, "name": "c7d02bb38dc08181bcdad4e7fbabce16", "type": "electric_scooter", "lat": 38.920415166666665, "is_disabled": 0}, {"fusion_lat": 0.0, "lon": -77.01851283333333, "is_reserved": 0, "bike_id": "629a862320b1f53cca5a55fc5a1b58b5", "fusion_lon": 0.0, "rental_uris": {"android": "https://dc.lft.to/lastmile_qr_scan", "ios": "https://dc.lft.to/lastmile_qr_scan"}, "name": "629a862320b1f53cca5a55fc5a1b58b5", "type": "electric_scooter", "lat": 38.90263783333333, "is_disabled": 0}, {"fusion_lat": 0.0, "lon": -76.94637883333333, "is_reserved": 0, "bike_id": "eebbad4b461bd7081deb399a008d96b6", "fusion_lon": 0.0, "rental_uris": {"android": "https://dc.lft.to/lastmile_qr_scan", "ios": "https://dc.lft.to/lastmile_qr_scan"}, "name": "eebbad4b461bd7081deb399a008d96b6", "type": "electric_scooter", "lat": 38.898435, "is_disabled": 0}, {"fusion_lat": 0.0, "lon": -76.98836116666666, "is_reserved": 0, "bike_id": "118ffee81710ba120c58dc3642ef9b9c", "fusion_lon": 0.0, "rental_uris": {"android": "https://dc.lft.to/lastmile_qr_scan", "ios": "https://dc.lft.to/lastmile_qr_scan"}, "name": "118ffee81710ba120c58dc3642ef9b9c", "type": "electric_scooter", "lat": 38.900407666666666, "is_disabled": 0}, {"fusion_lat": 0.0, "lon": -77.049911, "is_reserved": 0, "bike_id": "37c3aaddfc14b68a47c23b8eb2ee782d", "fusion_lon": 0.0, "rental_uris": {"android": "https://dc.lft.to/lastmile_qr_scan", "ios": "https://dc.lft.to/lastmile_qr_scan"}, "name": "37c3aaddfc14b68a47c23b8eb2ee782d", "type": "electric_scooter", "lat": 38.89725983333334, "is_disabled": 0}, {"fusion_lat": 0.0, "lon": -76.97628983333334, "is_reserved": 0, "bike_id": "10a88e8b6eacb889c6574f9578dc5237", "fusion_lon": 0.0, "rental_uris": {"android": "https://dc.lft.to/lastmile_qr_scan", "ios": "https://dc.lft.to/lastmile_qr_scan"}, "name": "10a88e8b6eacb889c6574f9578dc5237", "type": "electric_scooter", "lat": 38.905667666666666, "is_disabled": 0}, {"fusion_lat": 0.0, "lon": -77.048541, "is_reserved": 0, "bike_id": "957d7ae88b6304d2ebaa12577c0baa13", "fusion_lon": 0.0, "rental_uris": {"android": "https://dc.lft.to/lastmile_qr_scan", "ios": "https://dc.lft.to/lastmile_qr_scan"}, "name": "957d7ae88b6304d2ebaa12577c0baa13", "type": "electric_scooter", "lat": 38.9196795, "is_disabled": 0}, {"fusion_lat": 0.0, "lon": -77.037811, "is_reserved": 0, "bike_id": "d1dd1197bcc10d9746c5fe0cfabb7d29", "fusion_lon": 0.0, "rental_uris": {"android": "https://dc.lft.to/lastmile_qr_scan", "ios": "https://dc.lft.to/lastmile_qr_scan"}, "name": "d1dd1197bcc10d9746c5fe0cfabb7d29", "type": "electric_scooter", "lat": 38.916869166666665, "is_disabled": 0}, {"fusion_lat": 0.0, "lon": -76.98881933333334, "is_reserved": 0, "bike_id": "4ebc515df3213d7dd7572d1f289de727", "fusion_lon": 0.0, "rental_uris": {"android": "https://dc.lft.to/lastmile_qr_scan", "ios": "https://dc.lft.to/lastmile_qr_scan"}, "name": "4ebc515df3213d7dd7572d1f289de727", "type": "electric_scooter", "lat": 38.86659866666667, "is_disabled": 0}, {"fusion_lat": 0.0, "lon": -77.039858, "is_reserved": 0, "bike_id": "f70c559e5bc6144a35cb3f9d39862f66", "fusion_lon": 0.0, "rental_uris": {"android": "https://dc.lft.to/lastmile_qr_scan", "ios": "https://dc.lft.to/lastmile_qr_scan"}, "name": "f70c559e5bc6144a35cb3f9d39862f66", "type": "electric_scooter", "lat": 38.892175, "is_disabled": 0}, {"fusion_lat": 0.0, "lon": -77.02528466666666, "is_reserved": 0, "bike_id": "b0ac511699392d54ce6ce1f03b78aacd", "fusion_lon": 0.0, "rental_uris": {"android": "https://dc.lft.to/lastmile_qr_scan", "ios": "https://dc.lft.to/lastmile_qr_scan"}, "name": "b0ac511699392d54ce6ce1f03b78aacd", "type": "electric_scooter", "lat": 38.94255866666666, "is_disabled": 0}, {"fusion_lat": 0.0, "lon": -77.01993683333333, "is_reserved": 0, "bike_id": "c0762435beb8f291bdfb8ea5002d47ae", "fusion_lon": 0.0, "rental_uris": {"android": "https://dc.lft.to/lastmile_qr_scan", "ios": "https://dc.lft.to/lastmile_qr_scan"}, "name": "c0762435beb8f291bdfb8ea5002d47ae", "type": "electric_scooter", "lat": 38.875939833333334, "is_disabled": 0}, {"fusion_lat": 0.0, "lon": -77.04374933333334, "is_reserved": 0, "bike_id": "2c94304f22bc7f92abb7071302b7c30a", "fusion_lon": 0.0, "rental_uris": {"android": "https://dc.lft.to/lastmile_qr_scan", "ios": "https://dc.lft.to/lastmile_qr_scan"}, "name": "2c94304f22bc7f92abb7071302b7c30a", "type": "electric_scooter", "lat": 38.9222615, "is_disabled": 0}, {"fusion_lat": 0.0, "lon": -77.02492483333333, "is_reserved": 0, "bike_id": "2abbd7f513da2c008a88155afc0576e3", "fusion_lon": 0.0, "rental_uris": {"android": "https://dc.lft.to/lastmile_qr_scan", "ios": "https://dc.lft.to/lastmile_qr_scan"}, "name": "2abbd7f513da2c008a88155afc0576e3", "type": "electric_scooter", "lat": 38.938553666666664, "is_disabled": 0}, {"fusion_lat": 0.0, "lon": -77.03768183333334, "is_reserved": 0, "bike_id": "ba5231d717f6c0911ff2ed6264143dac", "fusion_lon": 0.0, "rental_uris": {"android": "https://dc.lft.to/lastmile_qr_scan", "ios": "https://dc.lft.to/lastmile_qr_scan"}, "name": "ba5231d717f6c0911ff2ed6264143dac", "type": "electric_scooter", "lat": 38.916874666666665, "is_disabled": 0}, {"fusion_lat": 0.0, "lon": -77.019456, "is_reserved": 0, "bike_id": "f3672be4bafcdf5175da27bac4dde852", "fusion_lon": 0.0, "rental_uris": {"android": "https://dc.lft.to/lastmile_qr_scan", "ios": "https://dc.lft.to/lastmile_qr_scan"}, "name": "f3672be4bafcdf5175da27bac4dde852", "type": "electric_scooter", "lat": 38.924164166666664, "is_disabled": 0}, {"fusion_lat": 0.0, "lon": -77.02981483333333, "is_reserved": 0, "bike_id": "b25f9691512c75c9bffdc89ba3d3f2ce", "fusion_lon": 0.0, "rental_uris": {"android": "https://dc.lft.to/lastmile_qr_scan", "ios": "https://dc.lft.to/lastmile_qr_scan"}, "name": "b25f9691512c75c9bffdc89ba3d3f2ce", "type": "electric_scooter", "lat": 38.90729816666666, "is_disabled": 0}, {"fusion_lat": 0.0, "lon": -76.98745116666667, "is_reserved": 0, "bike_id": "ac4a154359994f1570d5e1f3f336dfb4", "fusion_lon": 0.0, "rental_uris": {"android": "https://dc.lft.to/lastmile_qr_scan", "ios": "https://dc.lft.to/lastmile_qr_scan"}, "name": "ac4a154359994f1570d5e1f3f336dfb4", "type": "electric_scooter", "lat": 38.886086, "is_disabled": 0}, {"fusion_lat": 0.0, "lon": -76.996966, "is_reserved": 0, "bike_id": "387ab6903fc622a60b711303fad70a6d", "fusion_lon": 0.0, "rental_uris": {"android": "https://dc.lft.to/lastmile_qr_scan", "ios": "https://dc.lft.to/lastmile_qr_scan"}, "name": "387ab6903fc622a60b711303fad70a6d", "type": "electric_scooter", "lat": 38.908022, "is_disabled": 0}, {"fusion_lat": 0.0, "lon": -77.11852033333334, "is_reserved": 0, "bike_id": "65f2b2e747a0bbd5aa0cba3b4bd26956", "fusion_lon": 0.0, "rental_uris": {"android": "https://dc.lft.to/lastmile_qr_scan", "ios": "https://dc.lft.to/lastmile_qr_scan"}, "name": "65f2b2e747a0bbd5aa0cba3b4bd26956", "type": "electric_bike", "lat": 38.8773185, "is_disabled": 0}, {"fusion_lat": 0.0, "lon": -77.01351516666666, "is_reserved": 0, "bike_id": "2f9a19b586c944478492f1c56f538ae4", "fusion_lon": 0.0, "rental_uris": {"android": "https://dc.lft.to/lastmile_qr_scan", "ios": "https://dc.lft.to/lastmile_qr_scan"}, "name": "2f9a19b586c944478492f1c56f538ae4", "type": "electric_scooter", "lat": 38.869683, "is_disabled": 0}, {"fusion_lat": 0.0, "lon": -77.007552, "is_reserved": 0, "bike_id": "eb0151e1effacb4fa5b1ac79114011ee", "fusion_lon": 0.0, "rental_uris": {"android": "https://dc.lft.to/lastmile_qr_scan", "ios": "https://dc.lft.to/lastmile_qr_scan"}, "name": "eb0151e1effacb4fa5b1ac79114011ee", "type": "electric_scooter", "lat": 38.92677066666667, "is_disabled": 0}, {"fusion_lat": 0.0, "lon": -77.0116335, "is_reserved": 0, "bike_id": "237f7afc9a83dba058fb497a376c181c", "fusion_lon": 0.0, "rental_uris": {"android": "https://dc.lft.to/lastmile_qr_scan", "ios": "https://dc.lft.to/lastmile_qr_scan"}, "name": "237f7afc9a83dba058fb497a376c181c", "type": "electric_bike", "lat": 38.91152316666667, "is_disabled": 0}, {"fusion_lat": 0.0, "lon": -77.0220225, "is_reserved": 0, "bike_id": "ea524c920796aaff94213a2ac99a4a97", "fusion_lon": 0.0, "rental_uris": {"android": "https://dc.lft.to/lastmile_qr_scan", "ios": "https://dc.lft.to/lastmile_qr_scan"}, "name": "ea524c920796aaff94213a2ac99a4a97", "type": "electric_scooter", "lat": 38.895035, "is_disabled": 0}, {"fusion_lat": 0.0, "lon": -77.03325616666666, "is_reserved": 0, "bike_id": "a00e780dfebd00afc186d1036fcb1904", "fusion_lon": 0.0, "rental_uris": {"android": "https://dc.lft.to/lastmile_qr_scan", "ios": "https://dc.lft.to/lastmile_qr_scan"}, "name": "a00e780dfebd00afc186d1036fcb1904", "type": "electric_scooter", "lat": 38.897351666666665, "is_disabled": 0}, {"fusion_lat": 0.0, "lon": -77.07145916666667, "is_reserved": 0, "bike_id": "369d1378d3851ecf78c75a00f8f7de31", "fusion_lon": 0.0, "rental_uris": {"android": "https://dc.lft.to/lastmile_qr_scan", "ios": "https://dc.lft.to/lastmile_qr_scan"}, "name": "369d1378d3851ecf78c75a00f8f7de31", "type": "electric_scooter", "lat": 38.9455385, "is_disabled": 0}, {"fusion_lat": 0.0, "lon": -77.0217025, "is_reserved": 0, "bike_id": "dfb0e5954be4b2754adc0b4b7364633c", "fusion_lon": 0.0, "rental_uris": {"android": "https://dc.lft.to/lastmile_qr_scan", "ios": "https://dc.lft.to/lastmile_qr_scan"}, "name": "dfb0e5954be4b2754adc0b4b7364633c", "type": "electric_scooter", "lat": 38.9428965, "is_disabled": 0}, {"fusion_lat": 0.0, "lon": -77.02625866666666, "is_reserved": 0, "bike_id": "cb54216a302d612353f92e4dda2e3d14", "fusion_lon": 0.0, "rental_uris": {"android": "https://dc.lft.to/lastmile_qr_scan", "ios": "https://dc.lft.to/lastmile_qr_scan"}, "name": "cb54216a302d612353f92e4dda2e3d14", "type": "electric_bike", "lat": 38.962240333333334, "is_disabled": 0}, {"fusion_lat": 0.0, "lon": -77.02770833333334, "is_reserved": 0, "bike_id": "332e85721deaecd19404c95a2972027e", "fusion_lon": 0.0, "rental_uris": {"android": "https://dc.lft.to/lastmile_qr_scan", "ios": "https://dc.lft.to/lastmile_qr_scan"},