{"data": {"bikes": [{"lat": 38.913113, "fusion_lat": 0.0, "type": "electric_scooter", "bike_id": "2230a13fc9e9d6b37f83d57113739189", "rental_uris": {"ios": "https://dc.lft.to/lastmile_qr_scan", "android": "https://dc.lft.to/lastmile_qr_scan"}, "fusion_lon": 0.0, "lon": -77.04564983333333, "name": "2230a13fc9e9d6b37f83d57113739189", "is_reserved": 0, "is_disabled": 0}, {"lat": 38.91552466666667, "fusion_lat": 0.0, "type": "electric_scooter", "bike_id": "1ed2bc634cb41c90f8abb743d5b64f6a", "rental_uris": {"ios": "https://dc.lft.to/lastmile_qr_scan", "android": "https://dc.lft.to/lastmile_qr_scan"}, "fusion_lon": 0.0, "lon": -77.02845283333333, "name": "1ed2bc634cb41c90f8abb743d5b64f6a", "is_reserved": 0, "is_disabled": 0}, {"lat": 38.86214183333333, "fusion_lat": 0.0, "type": "electric_scooter", "bike_id": "40de2125af0f7a4294e6b6e64b1fecc9", "rental_uris": {"ios": "https://dc.lft.to/lastmile_qr_scan", "android": "https://dc.lft.to/lastmile_qr_scan"}, "fusion_lon": 0.0, "lon": -76.99484766666667, "name": "40de2125af0f7a4294e6b6e64b1fecc9", "is_reserved": 0, "is_disabled": 0}, {"lat": 38.914036333333335, "fusion_lat": 0.0, "type": "electric_scooter", "bike_id": "997eb76d9c38507d0a5cce9c4d658a00", "rental_uris": {"ios": "https://dc.lft.to/lastmile_qr_scan", "android": "https://dc.lft.to/lastmile_qr_scan"}, "fusion_lon": 0.0, "lon": -77.0321135, "name": "997eb76d9c38507d0a5cce9c4d658a00", "is_reserved": 0, "is_disabled": 0}, {"lat": 38.90147416666667, "fusion_lat": 0.0, "type": "electric_scooter", "bike_id": "8a0b071c82de11aba2c4d73534cc3b02", "rental_uris": {"ios": "https://dc.lft.to/lastmile_qr_scan", "android": "https://dc.lft.to/lastmile_qr_scan"}, "fusion_lon": 0.0, "lon": -77.044273, "name": "8a0b071c82de11aba2c4d73534cc3b02", "is_reserved": 0, "is_disabled": 0}, {"lat": 38.87702616666667, "fusion_lat": 0.0, "type": "electric_scooter", "bike_id": "c86942d701cc391fb502168efe97e8c8", "rental_uris": {"ios": "https://dc.lft.to/lastmile_qr_scan", "android": "https://dc.lft.to/lastmile_qr_scan"}, "fusion_lon": 0.0, "lon": -77.00679, "name": "c86942d701cc391fb502168efe97e8c8", "is_reserved": 0, "is_disabled": 0}, {"lat": 38.881205333333334, "fusion_lat": 0.0, "type": "electric_scooter", "bike_id": "bf7457a190fa7e43260e94cd5bb0804d", "rental_uris": {"ios": "https://dc.lft.to/lastmile_qr_scan", "android": "https://dc.lft.to/lastmile_qr_scan"}, "fusion_lon": 0.0, "lon": -77.01741233333334, "name": "bf7457a190fa7e43260e94cd5bb0804d", "is_reserved": 0, "is_disabled": 0}, {"lat": 38.87451816666667, "fusion_lat": 0.0, "type": "electric_scooter", "bike_id": "7a8a43aead7d5945211556ff340e342b", "rental_uris": {"ios": "https://dc.lft.to/lastmile_qr_scan", "android": "https://dc.lft.to/lastmile_qr_scan"}, "fusion_lon": 0.0, "lon": -77.00544233333333, "name": "7a8a43aead7d5945211556ff340e342b", "is_reserved": 0, "is_disabled": 0}, {"lat": 38.95414533333334, "fusion_lat": 0.0, "type": "electric_scooter", "bike_id": "6122d0286cb7fac284ba24afd961ff6d", "rental_uris": {"ios": "https://dc.lft.to/lastmile_qr_scan", "android": "https://dc.lft.to/lastmile_qr_scan"}, "fusion_lon": 0.0, "lon": -77.027913, "name": "6122d0286cb7fac284ba24afd961ff6d", "is_reserved": 0, "is_disabled": 0}, {"lat": 38.9019855, "fusion_lat": 0.0, "type": "electric_scooter", "bike_id": "bcd589b3a1f8f74fef00f528ce3b0970", "rental_uris": {"ios": "https://dc.lft.to/lastmile_qr_scan", "android": "https://dc.lft.to/lastmile_qr_scan"}, "fusion_lon": 0.0, "lon": -77.02125316666667, "name": "bcd589b3a1f8f74fef00f528ce3b0970", "is_reserved": 0, "is_disabled": 0}, {"lat": 38.88769816666667, "fusion_lat": 0.0, "type": "electric_scooter", "bike_id": "4194beaca370812c5467af6daaa9e16a", "rental_uris": {"ios": "https://dc.lft.to/lastmile_qr_scan", "android": "https://dc.lft.to/lastmile_qr_scan"}, "fusion_lon": 0.0, "lon": -77.0224015, "name": "4194beaca370812c5467af6daaa9e16a", "is_reserved": 0, "is_disabled": 0}, {"lat": 38.914972666666664, "fusion_lat": 0.0, "type": "electric_scooter", "bike_id": "7ff494f5ccb0866252db5637f03e978a", "rental_uris": {"ios": "https://dc.lft.to/lastmile_qr_scan", "android": "https://dc.lft.to/lastmile_qr_scan"}, "fusion_lon": 0.0, "lon": -76.98370616666666, "name": "7ff494f5ccb0866252db5637f03e978a", "is_reserved": 0, "is_disabled": 0}, {"lat": 38.922629666666666, "fusion_lat": 0.0, "type": "electric_scooter", "bike_id": "0b5466a2134b4875bee184e238cfb21d", "rental_uris": {"ios": "https://dc.lft.to/lastmile_qr_scan", "android": "https://dc.lft.to/lastmile_qr_scan"}, "fusion_lon": 0.0, "lon": -77.0244035, "name": "0b5466a2134b4875bee184e238cfb21d", "is_reserved": 0, "is_disabled": 0}, {"lat": 38.874495833333334, "fusion_lat": 0.0, "type": "electric_scooter", "bike_id": "d88b9707156073b3bca1ee4a529ed58c", "rental_uris": {"ios": "https://dc.lft.to/lastmile_qr_scan", "android": "https://dc.lft.to/lastmile_qr_scan"}, "fusion_lon": 0.0, "lon": -77.00125883333334, "name": "d88b9707156073b3bca1ee4a529ed58c", "is_reserved": 0, "is_disabled": 0}, {"lat": 38.910740833333335, "fusion_lat": 0.0, "type": "electric_scooter", "bike_id": "eef0d5e944bdf6aa240e16f33a7599d0", "rental_uris": {"ios": "https://dc.lft.to/lastmile_qr_scan", "android": "https://dc.lft.to/lastmile_qr_scan"}, "fusion_lon": 0.0, "lon": -77.02727333333333, "name": "eef0d5e944bdf6aa240e16f33a7599d0", "is_reserved": 0, "is_disabled": 0}, {"lat": 38.91253533333333, "fusion_lat": 0.0, "type": "electric_scooter", "bike_id": "d4c3934012cdd50964f4a367642e9bb4", "rental_uris": {"ios": "https://dc.lft.to/lastmile_qr_scan", "android": "https://dc.lft.to/lastmile_qr_scan"}, "fusion_lon": 0.0, "lon": -77.03804316666667, "name": "d4c3934012cdd50964f4a367642e9bb4", "is_reserved": 0, "is_disabled": 0}, {"lat": 38.83103666666667, "fusion_lat": 0.0, "type": "electric_bike", "bike_id": "d88d6535abac74bcb9f45c33d60fd07b", "rental_uris": {"ios": "https://dc.lft.to/lastmile_qr_scan", "android": "https://dc.lft.to/lastmile_qr_scan"}, "fusion_lon": 0.0, "lon": -77.112852, "name": "d88d6535abac74bcb9f45c33d60fd07b", "is_reserved": 0, "is_disabled": 0}, {"lat": 38.918173, "fusion_lat": 0.0, "type": "electric_scooter", "bike_id": "1b47c8f93a88a52b829f80410268587b", "rental_uris": {"ios": "https://dc.lft.to/lastmile_qr_scan", "android": "https://dc.lft.to/lastmile_qr_scan"}, "fusion_lon": 0.0, "lon": -77.041838, "name": "1b47c8f93a88a52b829f80410268587b", "is_reserved": 0, "is_disabled": 0}, {"lat": 38.904098166666664, "fusion_lat": 0.0, "type": "electric_scooter", "bike_id": "99bd91c588092d5bd9589e6b6b37d3b8", "rental_uris": {"ios": "https://dc.lft.to/lastmile_qr_scan", "android": "https://dc.lft.to/lastmile_qr_scan"}, "fusion_lon": 0.0, "lon": -77.02058316666667, "name": "99bd91c588092d5bd9589e6b6b37d3b8", "is_reserved": 0, "is_disabled": 0}, {"lat": 38.8973815, "fusion_lat": 0.0, "type": "electric_scooter", "bike_id": "c232ff3246002ef8647f42cce3536e95", "rental_uris": {"ios": "https://dc.lft.to/lastmile_qr_scan", "android": "https://dc.lft.to/lastmile_qr_scan"}, "fusion_lon": 0.0, "lon": -77.00146383333333, "name": "c232ff3246002ef8647f42cce3536e95", "is_reserved": 0, "is_disabled": 0}, {"lat": 38.928763000000004, "fusion_lat": 0.0, "type": "electric_scooter", "bike_id": "4f9e216df7c7acb2cf3e1440f71d3c66", "rental_uris": {"ios": "https://dc.lft.to/lastmile_qr_scan", "android": "https://dc.lft.to/lastmile_qr_scan"}, "fusion_lon": 0.0, "lon": -77.03238516666667, "name": "4f9e216df7c7acb2cf3e1440f71d3c66", "is_reserved": 0, "is_disabled": 0}, {"lat": 38.906705, "fusion_lat": 0.0, "type": "electric_scooter", "bike_id": "d88048c7429a05da28a98e6fdbdffea0", "rental_uris": {"ios": "https://dc.lft.to/lastmile_qr_scan", "android": "https://dc.lft.to/lastmile_qr_scan"}, "fusion_lon": 0.0, "lon": -77.027118, "name": "d88048c7429a05da28a98e6fdbdffea0", "is_reserved": 0, "is_disabled": 0}, {"lat": 38.9155325, "fusion_lat": 0.0, "type": "electric_scooter", "bike_id": "e42df9d22ef24bf5fe21493fd032625f", "rental_uris": {"ios": "https://dc.lft.to/lastmile_qr_scan", "android": "https://dc.lft.to/lastmile_qr_scan"}, "fusion_lon": 0.0, "lon": -77.03174216666666, "name": "e42df9d22ef24bf5fe21493fd032625f", "is_reserved": 0, "is_disabled": 0}, {"lat": 38.92897716666667, "fusion_lat": 0.0, "type": "electric_scooter", "bike_id": "0e7e40f7f49c5833af5772a251ab38bf", "rental_uris": {"ios": "https://dc.lft.to/lastmile_qr_scan", "android": "https://dc.lft.to/lastmile_qr_scan"}, "fusion_lon": 0.0, "lon": -77.0580695, "name": "0e7e40f7f49c5833af5772a251ab38bf", "is_reserved": 0, "is_disabled": 0}, {"lat": 39.099603333333334, "fusion_lat": 0.0, "type": "electric_bike", "bike_id": "32e7f89a9ff6179db36dfd917eb8f5b4", "rental_uris": {"ios": "https://dc.lft.to/lastmile_qr_scan", "android": "https://dc.lft.to/lastmile_qr_scan"}, "fusion_lon": 0.0, "lon": -77.18305516666666, "name": "32e7f89a9ff6179db36dfd917eb8f5b4", "is_reserved": 0, "is_disabled": 0}, {"lat": 38.908643833333336, "fusion_lat": 0.0, "type": "electric_scooter", "bike_id": "e2e16ac53e9aef79da1cf53171f5b8d4", "rental_uris": {"ios": "https://dc.lft.to/lastmile_qr_scan", "android": "https://dc.lft.to/lastmile_qr_scan"}, "fusion_lon": 0.0, "lon": -77.01943633333333, "name": "e2e16ac53e9aef79da1cf53171f5b8d4", "is_reserved": 0, "is_disabled": 0}, {"lat": 38.92648783333333, "fusion_lat": 0.0, "type": "electric_scooter", "bike_id": "b2f544bc4a56d7bf203ec19dafbd82a7", "rental_uris": {"ios": "https://dc.lft.to/lastmile_qr_scan", "android": "https://dc.lft.to/lastmile_qr_scan"}, "fusion_lon": 0.0, "lon": -77.03842, "name": "b2f544bc4a56d7bf203ec19dafbd82a7", "is_reserved": 0, "is_disabled": 0}, {"lat": 38.896124666666665, "fusion_lat": 0.0, "type": "electric_scooter", "bike_id": "3e54873565c49e9d5e113591350e7b21", "rental_uris": {"ios": "https://dc.lft.to/lastmile_qr_scan", "android": "https://dc.lft.to/lastmile_qr_scan"}, "fusion_lon": 0.0, "lon": -77.03161633333333, "name": "3e54873565c49e9d5e113591350e7b21", "is_reserved": 0, "is_disabled": 0}, {"lat": 38.890149666666666, "fusion_lat": 0.0, "type": "electric_scooter", "bike_id": "348649bb9fe0f2bd0e57ba948e6c2737", "rental_uris": {"ios": "https://dc.lft.to/lastmile_qr_scan", "android": "https://dc.lft.to/lastmile_qr_scan"}, "fusion_lon": 0.0, "lon": -76.93742716666667, "name": "348649bb9fe0f2bd0e57ba948e6c2737", "is_reserved": 0, "is_disabled": 0}, {"lat": 38.9247095, "fusion_lat": 0.0, "type": "electric_scooter", "bike_id": "9592c5b4923248aaefd2fd43efe4ae5f", "rental_uris": {"ios": "https://dc.lft.to/lastmile_qr_scan", "android": "https://dc.lft.to/lastmile_qr_scan"}, "fusion_lon": 0.0, "lon": -77.039153, "name": "9592c5b4923248aaefd2fd43efe4ae5f", "is_reserved": 0, "is_disabled": 0}, {"lat": 38.91672166666667, "fusion_lat": 0.0, "type": "electric_scooter", "bike_id": "866d3c15292b39615ce934bad38cc922", "rental_uris": {"ios": "https://dc.lft.to/lastmile_qr_scan", "android": "https://dc.lft.to/lastmile_qr_scan"}, "fusion_lon": 0.0, "lon": -77.003484, "name": "866d3c15292b39615ce934bad38cc922", "is_reserved": 0, "is_disabled": 0}, {"lat": 38.89965383333333, "fusion_lat": 0.0, "type": "electric_scooter", "bike_id": "ed6316282bc55bd9faa591adf366c556", "rental_uris": {"ios": "https://dc.lft.to/lastmile_qr_scan", "android": "https://dc.lft.to/lastmile_qr_scan"}, "fusion_lon": 0.0, "lon": -77.02874516666667, "name": "ed6316282bc55bd9faa591adf366c556", "is_reserved": 0, "is_disabled": 0}, {"lat": 38.927338166666665, "fusion_lat": 0.0, "type": "electric_scooter", "bike_id": "876584c3055765acb7fa2dbe5fb78bd2", "rental_uris": {"ios": "https://dc.lft.to/lastmile_qr_scan", "android": "https://dc.lft.to/lastmile_qr_scan"}, "fusion_lon": 0.0, "lon": -77.03503616666667, "name": "876584c3055765acb7fa2dbe5fb78bd2", "is_reserved": 0, "is_disabled": 0}, {"lat": 38.902216333333335, "fusion_lat": 0.0, "type": "electric_scooter", "bike_id": "34ed7e4428e08f1ac7334817d3ac4c15", "rental_uris": {"ios": "https://dc.lft.to/lastmile_qr_scan", "android": "https://dc.lft.to/lastmile_qr_scan"}, "fusion_lon": 0.0, "lon": -76.98208116666666, "name": "34ed7e4428e08f1ac7334817d3ac4c15", "is_reserved": 0, "is_disabled": 0}, {"lat": 38.900264, "fusion_lat": 0.0, "type": "electric_scooter", "bike_id": "5fecb22af397f1f110aa4dddab3e7b39", "rental_uris": {"ios": "https://dc.lft.to/lastmile_qr_scan", "android": "https://dc.lft.to/lastmile_qr_scan"}, "fusion_lon": 0.0, "lon": -76.99820033333333, "name": "5fecb22af397f1f110aa4dddab3e7b39", "is_reserved": 0, "is_disabled": 0}, {"lat": 38.9360375, "fusion_lat": 0.0, "type": "electric_bike", "bike_id": "eb4e4c9b029dc45d1cfa5dd9d3db0890", "rental_uris": {"ios": "https://dc.lft.to/lastmile_qr_scan", "android": "https://dc.lft.to/lastmile_qr_scan"}, "fusion_lon": 0.0, "lon": -76.996313, "name": "eb4e4c9b029dc45d1cfa5dd9d3db0890", "is_reserved": 0, "is_disabled": 0}, {"lat": 38.89500733333333, "fusion_lat": 0.0, "type": "electric_scooter", "bike_id": "7c57a2e9e6c0036b58147be8b686ba95", "rental_uris": {"ios": "https://dc.lft.to/lastmile_qr_scan", "android": "https://dc.lft.to/lastmile_qr_scan"}, "fusion_lon": 0.0, "lon": -77.02738366666667, "name": "7c57a2e9e6c0036b58147be8b686ba95", "is_reserved": 0, "is_disabled": 0}, {"lat": 38.91010683333333, "fusion_lat": 0.0, "type": "electric_scooter", "bike_id": "6265b64710520c9cc6e354e3d8b5cfee", "rental_uris": {"ios": "https://dc.lft.to/lastmile_qr_scan", "android": "https://dc.lft.to/lastmile_qr_scan"}, "fusion_lon": 0.0, "lon": -77.02109983333334, "name": "6265b64710520c9cc6e354e3d8b5cfee", "is_reserved": 0, "is_disabled": 0}, {"lat": 38.92527833333333, "fusion_lat": 0.0, "type": "electric_scooter", "bike_id": "eb5da0973f69b6a8cdd5609347671c50", "rental_uris": {"ios": "https://dc.lft.to/lastmile_qr_scan", "android": "https://dc.lft.to/lastmile_qr_scan"}, "fusion_lon": 0.0, "lon": -77.021331, "name": "eb5da0973f69b6a8cdd5609347671c50", "is_reserved": 0, "is_disabled": 0}, {"lat": 38.90916433333334, "fusion_lat": 0.0, "type": "electric_scooter", "bike_id": "c57eab96be8cb5bcb41f95005de4165a", "rental_uris": {"ios": "https://dc.lft.to/lastmile_qr_scan", "android": "https://dc.lft.to/lastmile_qr_scan"}, "fusion_lon": 0.0, "lon": -77.03868266666667, "name": "c57eab96be8cb5bcb41f95005de4165a", "is_reserved": 0, "is_disabled": 0}, {"lat": 38.92465766666667, "fusion_lat": 0.0, "type": "electric_scooter", "bike_id": "364c04f08cd22a08abb6623053ea8b1a", "rental_uris": {"ios": "https://dc.lft.to/lastmile_qr_scan", "android": "https://dc.lft.to/lastmile_qr_scan"}, "fusion_lon": 0.0, "lon": -77.02245933333333, "name": "364c04f08cd22a08abb6623053ea8b1a", "is_reserved": 0, "is_disabled": 0}, {"lat": 38.83512266666666, "fusion_lat": 0.0, "type": "electric_bike", "bike_id": "188fe607e6bbf9284ff1482481590bac", "rental_uris": {"ios": "https://dc.lft.to/lastmile_qr_scan", "android": "https://dc.lft.to/lastmile_qr_scan"}, "fusion_lon": 0.0, "lon": -76.986752, "name": "188fe607e6bbf9284ff1482481590bac", "is_reserved": 0, "is_disabled": 0}, {"lat": 38.8064045, "fusion_lat": 0.0, "type": "electric_bike", "bike_id": "b396aa7c9fcccf162ffa13d687aaff6f", "rental_uris": {"ios": "https://dc.lft.to/lastmile_qr_scan", "android": "https://dc.lft.to/lastmile_qr_scan"}, "fusion_lon": 0.0, "lon": -77.06249383333333, "name": "b396aa7c9fcccf162ffa13d687aaff6f", "is_reserved": 0, "is_disabled": 0}, {"lat": 38.909683333333334, "fusion_lat": 0.0, "type": "electric_scooter", "bike_id": "bad0187e2f60cbe0c64e910e8566f0c0", "rental_uris": {"ios": "https://dc.lft.to/lastmile_qr_scan", "android": "https://dc.lft.to/lastmile_qr_scan"}, "fusion_lon": 0.0, "lon": -77.0386265, "name": "bad0187e2f60cbe0c64e910e8566f0c0", "is_reserved": 0, "is_disabled": 0}, {"lat": 38.934112166666665, "fusion_lat": 0.0, "type": "electric_scooter", "bike_id": "6d068c2e0a1789dd6fb318b0ffefa971", "rental_uris": {"ios": "https://dc.lft.to/lastmile_qr_scan", "android": "https://dc.lft.to/lastmile_qr_scan"}, "fusion_lon": 0.0, "lon": -77.019783, "name": "6d068c2e0a1789dd6fb318b0ffefa971", "is_reserved": 0, "is_disabled": 0}, {"lat": 38.914138333333334, "fusion_lat": 0.0, "type": "electric_scooter", "bike_id": "3c5ff0ce118130c632052f589d2a389c", "rental_uris": {"ios": "https://dc.lft.to/lastmile_qr_scan", "android": "https://dc.lft.to/lastmile_qr_scan"}, "fusion_lon": 0.0, "lon": -77.0317145, "name": "3c5ff0ce118130c632052f589d2a389c", "is_reserved": 0, "is_disabled": 0}, {"lat": 38.889971333333335, "fusion_lat": 0.0, "type": "electric_scooter", "bike_id": "5fc5c907723117fa86ada7bb61b51a7e", "rental_uris": {"ios": "https://dc.lft.to/lastmile_qr_scan", "android": "https://dc.lft.to/lastmile_qr_scan"}, "fusion_lon": 0.0, "lon": -76.95436383333333, "name": "5fc5c907723117fa86ada7bb61b51a7e", "is_reserved": 0, "is_disabled": 0}, {"lat": 38.93603816666667, "fusion_lat": 0.0, "type": "electric_scooter", "bike_id": "795d25b0a2c14597630ac07160ccc16c", "rental_uris": {"ios": "https://dc.lft.to/lastmile_qr_scan", "android": "https://dc.lft.to/lastmile_qr_scan"}, "fusion_lon": 0.0, "lon": -77.03784916666666, "name": "795d25b0a2c14597630ac07160ccc16c", "is_reserved": 0, "is_disabled": 0}, {"lat": 38.916895, "fusion_lat": 0.0, "type": "electric_scooter", "bike_id": "e48c18034617502be20d7e66a09a80a2", "rental_uris": {"ios": "https://dc.lft.to/lastmile_qr_scan", "android": "https://dc.lft.to/lastmile_qr_scan"}, "fusion_lon": 0.0, "lon": -77.00921616666666, "name": "e48c18034617502be20d7e66a09a80a2", "is_reserved": 0, "is_disabled": 0}, {"lat": 38.900074333333336, "fusion_lat": 0.0, "type": "electric_bike", "bike_id": "6ccf0a2655e25f79b86bcb46b70badd5", "rental_uris": {"ios": "https://dc.lft.to/lastmile_qr_scan", "android": "https://dc.lft.to/lastmile_qr_scan"}, "fusion_lon": 0.0, "lon": -76.99760033333334, "name": "6ccf0a2655e25f79b86bcb46b70badd5", "is_reserved": 0, "is_disabled": 0}, {"lat": 38.91553916666667, "fusion_lat": 0.0, "type": "electric_scooter", "bike_id": "90bf4b3a388d89b30f40ecb4020957e3", "rental_uris": {"ios": "https://dc.lft.to/lastmile_qr_scan", "android": "https://dc.lft.to/lastmile_qr_scan"}, "fusion_lon": 0.0, "lon": -77.03176533333334, "name": "90bf4b3a388d89b30f40ecb4020957e3", "is_reserved": 0, "is_disabled": 0}, {"lat": 38.88742833333333, "fusion_lat": 0.0, "type": "electric_scooter", "bike_id": "f565a77cbada4d925167141acbdd6c8e", "rental_uris": {"ios": "https://dc.lft.to/lastmile_qr_scan", "android": "https://dc.lft.to/lastmile_qr_scan"}, "fusion_lon": 0.0, "lon": -77.01781883333334, "name": "f565a77cbada4d925167141acbdd6c8e", "is_reserved": 0, "is_disabled": 0}, {"lat": 38.9160125, "fusion_lat": 0.0, "type": "electric_scooter", "bike_id": "a4786b4e1c15f7140eb7ca330b1760ec", "rental_uris": {"ios": "https://dc.lft.to/lastmile_qr_scan", "android": "https://dc.lft.to/lastmile_qr_scan"}, "fusion_lon": 0.0, "lon": -77.03941233333333, "name": "a4786b4e1c15f7140eb7ca330b1760ec", "is_reserved": 0, "is_disabled": 0}, {"lat": 38.8998625, "fusion_lat": 0.0, "type": "electric_scooter", "bike_id": "98e20b4e915894312512ff21b4f96d31", "rental_uris": {"ios": "https://dc.lft.to/lastmile_qr_scan", "android": "https://dc.lft.to/lastmile_qr_scan"}, "fusion_lon": 0.0, "lon": -77.02712633333333, "name": "98e20b4e915894312512ff21b4f96d31", "is_reserved": 0, "is_disabled": 0}, {"lat": 38.93437433333333, "fusion_lat": 0.0, "type": "electric_scooter", "bike_id": "8053375efbdf5dbb7a2f162abb585015", "rental_uris": {"ios": "https://dc.lft.to/lastmile_qr_scan", "android": "https://dc.lft.to/lastmile_qr_scan"}, "fusion_lon": 0.0, "lon": -77.072598, "name": "8053375efbdf5dbb7a2f162abb585015", "is_reserved": 0, "is_disabled": 0}, {"lat": 38.902818333333336, "fusion_lat": 0.0, "type": "electric_scooter", "bike_id": "1ee4fab4dbfa3ab693f5363507b63f15", "rental_uris": {"ios": "https://dc.lft.to/lastmile_qr_scan", "android": "https://dc.lft.to/lastmile_qr_scan"}, "fusion_lon": 0.0, "lon": -77.03355, "name": "1ee4fab4dbfa3ab693f5363507b63f15", "is_reserved": 0, "is_disabled": 0}, {"lat": 38.911079, "fusion_lat": 0.0, "type": "electric_scooter", "bike_id": "642ae0003387f5dd13d299d1595d6c02", "rental_uris": {"ios": "https://dc.lft.to/lastmile_qr_scan", "android": "https://dc.lft.to/lastmile_qr_scan"}, "fusion_lon": 0.0, "lon": -77.0375665, "name": "642ae0003387f5dd13d299d1595d6c02", "is_reserved": 0, "is_disabled": 0}, {"lat": 38.92031266666667, "fusion_lat": 0.0, "type": "electric_scooter", "bike_id": "fc182e94db3ed2b6579e416f0fb78a1d", "rental_uris": {"ios": "https://dc.lft.to/lastmile_qr_scan", "android": "https://dc.lft.to/lastmile_qr_scan"}, "fusion_lon": 0.0, "lon": -77.03671566666667, "name": "fc182e94db3ed2b6579e416f0fb78a1d", "is_reserved": 0, "is_disabled": 0}, {"lat": 38.922267, "fusion_lat": 0.0, "type": "electric_scooter", "bike_id": "14b5ac471fb21f9840bf85d20b6eb712", "rental_uris": {"ios": "https://dc.lft.to/lastmile_qr_scan", "android": "https://dc.lft.to/lastmile_qr_scan"}, "fusion_lon": 0.0, "lon": -77.0283165, "name": "14b5ac471fb21f9840bf85d20b6eb712", "is_reserved": 0, "is_disabled": 0}, {"lat": 38.921342, "fusion_lat": 0.0, "type": "electric_scooter", "bike_id": "a79ad5cc6f6cb6dd53d5541e518cbf08", "rental_uris": {"ios": "https://dc.lft.to/lastmile_qr_scan", "android": "https://dc.lft.to/lastmile_qr_scan"}, "fusion_lon": 0.0, "lon": -77.01806483333333, "name": "a79ad5cc6f6cb6dd53d5541e518cbf08", "is_reserved": 0, "is_disabled": 0}, {"lat": 38.900384333333335, "fusion_lat": 0.0, "type": "electric_scooter", "bike_id": "602fe3caa4b35c02eccdbad3c7b5adc0", "rental_uris": {"ios": "https://dc.lft.to/lastmile_qr_scan", "android": "https://dc.lft.to/lastmile_qr_scan"}, "fusion_lon": 0.0, "lon": -77.02413083333333, "name": "602fe3caa4b35c02eccdbad3c7b5adc0", "is_reserved": 0, "is_disabled": 0}, {"lat": 38.924217, "fusion_lat": 0.0, "type": "electric_scooter", "bike_id": "a2baacb4096002a67eca2e2c9e382c90", "rental_uris": {"ios": "https://dc.lft.to/lastmile_qr_scan", "android": "https://dc.lft.to/lastmile_qr_scan"}, "fusion_lon": 0.0, "lon": -77.05178866666667, "name": "a2baacb4096002a67eca2e2c9e382c90", "is_reserved": 0, "is_disabled": 0}, {"lat": 38.9309935, "fusion_lat": 0.0, "type": "electric_scooter", "bike_id": "a58c81d091968d8068420dba6ba2f813", "rental_uris": {"ios": "https://dc.lft.to/lastmile_qr_scan", "android": "https://dc.lft.to/lastmile_qr_scan"}, "fusion_lon": 0.0, "lon": -77.02483, "name": "a58c81d091968d8068420dba6ba2f813", "is_reserved": 0, "is_disabled": 0}, {"lat": 38.90511383333333, "fusion_lat": 0.0, "type": "electric_scooter", "bike_id": "367f2d1b3d292ee3b17d8c618a69ec48", "rental_uris": {"ios": "https://dc.lft.to/lastmile_qr_scan", "android": "https://dc.lft.to/lastmile_qr_scan"}, "fusion_lon": 0.0, "lon": -77.04828533333334, "name": "367f2d1b3d292ee3b17d8c618a69ec48", "is_reserved": 0, "is_disabled": 0}, {"lat": 38.97366533333334, "fusion_lat": 0.0, "type": "electric_scooter", "bike_id": "699dc443a0f858deb605be90c2533f79", "rental_uris": {"ios": "https://dc.lft.to/lastmile_qr_scan", "android": "https://dc.lft.to/lastmile_qr_scan"}, "fusion_lon": 0.0, "lon": -77.018652, "name": "699dc443a0f858deb605be90c2533f79", "is_reserved": 0, "is_disabled": 0}, {"lat": 38.8854095, "fusion_lat": 0.0, "type": "electric_scooter", "bike_id": "24d832b0eb19bf63e691cb0173bddf42", "rental_uris": {"ios": "https://dc.lft.to/lastmile_qr_scan", "android": "https://dc.lft.to/lastmile_qr_scan"}, "fusion_lon": 0.0, "lon": -76.97889733333334, "name": "24d832b0eb19bf63e691cb0173bddf42", "is_reserved": 0, "is_disabled": 0}, {"lat": 38.89981516666667, "fusion_lat": 0.0, "type": "electric_scooter", "bike_id": "5da006a185f44eeeccb81565718473ad", "rental_uris": {"ios": "https://dc.lft.to/lastmile_qr_scan", "android": "https://dc.lft.to/lastmile_qr_scan"}, "fusion_lon": 0.0, "lon": -76.985601, "name": "5da006a185f44eeeccb81565718473ad", "is_reserved": 0, "is_disabled": 0}, {"lat": 38.9090195, "fusion_lat": 0.0, "type": "electric_scooter", "bike_id": "a086c865c2fcacc9b5b2ee2f46c49d0c", "rental_uris": {"ios": "https://dc.lft.to/lastmile_qr_scan", "android": "https://dc.lft.to/lastmile_qr_scan"}, "fusion_lon": 0.0, "lon": -77.03972766666666, "name": "a086c865c2fcacc9b5b2ee2f46c49d0c", "is_reserved": 0, "is_disabled": 0}, {"lat": 38.922519666666666, "fusion_lat": 0.0, "type": "electric_scooter", "bike_id": "38b1ee2702af2d37fd5662f3da871a34", "rental_uris": {"ios": "https://dc.lft.to/lastmile_qr_scan", "android": "https://dc.lft.to/lastmile_qr_scan"}, "fusion_lon": 0.0, "lon": -77.02107316666667, "name": "38b1ee2702af2d37fd5662f3da871a34", "is_reserved": 0, "is_disabled": 0}, {"lat": 38.8901535, "fusion_lat": 0.0, "type": "electric_scooter", "bike_id": "e28a89b89ba8e87c3807fe7dc6bbcba5", "rental_uris": {"ios": "https://dc.lft.to/lastmile_qr_scan", "android": "https://dc.lft.to/lastmile_qr_scan"}, "fusion_lon": 0.0, "lon": -76.9374045, "name": "e28a89b89ba8e87c3807fe7dc6bbcba5", "is_reserved": 0, "is_disabled": 0}, {"lat": 38.897837, "fusion_lat": 0.0, "type": "electric_scooter", "bike_id": "7c6423e3554c34d646a8bb26831938c8", "rental_uris": {"ios": "https://dc.lft.to/lastmile_qr_scan", "android": "https://dc.lft.to/lastmile_qr_scan"}, "fusion_lon": 0.0, "lon": -77.00916766666667, "name": "7c6423e3554c34d646a8bb26831938c8", "is_reserved": 0, "is_disabled": 0}, {"lat": 38.9146955, "fusion_lat": 0.0, "type": "electric_scooter", "bike_id": "b83ec756de611582ac5056126634c0a4", "rental_uris": {"ios": "https://dc.lft.to/lastmile_qr_scan", "android": "https://dc.lft.to/lastmile_qr_scan"}, "fusion_lon": 0.0, "lon": -77.0321215, "name": "b83ec756de611582ac5056126634c0a4", "is_reserved": 0, "is_disabled": 0}, {"lat": 38.964664, "fusion_lat": 0.0, "type": "electric_bike", "bike_id": "1e59b645aa85552ed665432ed2420f0e", "rental_uris": {"ios": "https://dc.lft.to/lastmile_qr_scan", "android": "https://dc.lft.to/lastmile_qr_scan"}, "fusion_lon": 0.0, "lon": -77.03562233333334, "name": "1e59b645aa85552ed665432ed2420f0e", "is_reserved": 0, "is_disabled": 0}, {"lat": 38.92228, "fusion_lat": 0.0, "type": "electric_scooter", "bike_id": "f166a368ec5b026e284f2e7440bc5172", "rental_uris": {"ios": "https://dc.lft.to/lastmile_qr_scan", "android": "https://dc.lft.to/lastmile_qr_scan"}, "fusion_lon": 0.0, "lon": -77.02115233333333, "name": "f166a368ec5b026e284f2e7440bc5172", "is_reserved": 0, "is_disabled": 0}, {"lat": 38.90940833333333, "fusion_lat": 0.0, "type": "electric_scooter", "bike_id": "3ffd0d1cd75cf661d5beb92d514b922d", "rental_uris": {"ios": "https://dc.lft.to/lastmile_qr_scan", "android": "https://dc.lft.to/lastmile_qr_scan"}, "fusion_lon": 0.0, "lon": -77.04423566666667, "name": "3ffd0d1cd75cf661d5beb92d514b922d", "is_reserved": 0, "is_disabled": 0}, {"lat": 38.92256716666667, "fusion_lat": 0.0, "type": "electric_scooter", "bike_id": "87fa2daec54cb731dcf3c80cc1471f2f", "rental_uris": {"ios": "https://dc.lft.to/lastmile_qr_scan", "android": "https://dc.lft.to/lastmile_qr_scan"}, "fusion_lon": 0.0, "lon": -77.021046, "name": "87fa2daec54cb731dcf3c80cc1471f2f", "is_reserved": 0, "is_disabled": 0}, {"lat": 38.911105166666665, "fusion_lat": 0.0, "type": "electric_scooter", "bike_id": "889a863e93bdca2fa164016f0b72bb7d", "rental_uris": {"ios": "https://dc.lft.to/lastmile_qr_scan", "android": "https://dc.lft.to/lastmile_qr_scan"}, "fusion_lon": 0.0, "lon": -77.03757233333333, "name": "889a863e93bdca2fa164016f0b72bb7d", "is_reserved": 0, "is_disabled": 0}, {"lat": 38.886210166666665, "fusion_lat": 0.0, "type": "electric_scooter", "bike_id": "e848e0ec7146e283d9e39f61c995921f", "rental_uris": {"ios": "https://dc.lft.to/lastmile_qr_scan", "android": "https://dc.lft.to/lastmile_qr_scan"}, "fusion_lon": 0.0, "lon": -76.99610566666667, "name": "e848e0ec7146e283d9e39f61c995921f", "is_reserved": 0, "is_disabled": 0}, {"lat": 38.92755366666667, "fusion_lat": 0.0, "type": "electric_scooter", "bike_id": "84f68de3dfb7726a55c77f7d4aa28f0e", "rental_uris": {"ios": "https://dc.lft.to/lastmile_qr_scan", "android": "https://dc.lft.to/lastmile_qr_scan"}, "fusion_lon": 0.0, "lon": -77.03273966666667, "name": "84f68de3dfb7726a55c77f7d4aa28f0e", "is_reserved": 0, "is_disabled": 0}, {"lat": 38.926109333333336, "fusion_lat": 0.0, "type": "electric_scooter", "bike_id": "534165a09b1ba91459cf9b53038e240f", "rental_uris": {"ios": "https://dc.lft.to/lastmile_qr_scan", "android": "https://dc.lft.to/lastmile_qr_scan"}, "fusion_lon": 0.0, "lon": -77.0216805, "name": "534165a09b1ba91459cf9b53038e240f", "is_reserved": 0, "is_disabled": 0}, {"lat": 38.934229333333334, "fusion_lat": 0.0, "type": "electric_scooter", "bike_id": "09d712441b3d4a819334d136bc0bcb69", "rental_uris": {"ios": "https://dc.lft.to/lastmile_qr_scan", "android": "https://dc.lft.to/lastmile_qr_scan"}, "fusion_lon": 0.0, "lon": -77.042788, "name": "09d712441b3d4a819334d136bc0bcb69", "is_reserved": 0, "is_disabled": 0}, {"lat": 38.92282766666667, "fusion_lat": 0.0, "type": "electric_scooter", "bike_id": "89d7f4b7ad65a81427afb6b178a55192", "rental_uris": {"ios": "https://dc.lft.to/lastmile_qr_scan", "android": "https://dc.lft.to/lastmile_qr_scan"}, "fusion_lon": 0.0, "lon": -77.03660883333333, "name": "89d7f4b7ad65a81427afb6b178a55192", "is_reserved": 0, "is_disabled": 0}, {"lat": 38.93222683333333, "fusion_lat": 0.0, "type": "electric_scooter", "bike_id": "a94fd41dec88f32821e7a308064c4568", "rental_uris": {"ios": "https://dc.lft.to/lastmile_qr_scan", "android": "https://dc.lft.to/lastmile_qr_scan"}, "fusion_lon": 0.0, "lon": -77.02982266666666, "name": "a94fd41dec88f32821e7a308064c4568", "is_reserved": 0, "is_disabled": 0}, {"lat": 38.909682833333335, "fusion_lat": 0.0, "type": "electric_scooter", "bike_id": "e59e1c998badec61cf5d37d9ee4c16a0", "rental_uris": {"ios": "https://dc.lft.to/lastmile_qr_scan", "android": "https://dc.lft.to/lastmile_qr_scan"}, "fusion_lon": 0.0, "lon": -77.044371, "name": "e59e1c998badec61cf5d37d9ee4c16a0", "is_reserved": 0, "is_disabled": 0}, {"lat": 38.916290833333335, "fusion_lat": 0.0, "type": "electric_scooter", "bike_id": "50457583515d6e90edc3bbda1b85ef44", "rental_uris": {"ios": "https://dc.lft.to/lastmile_qr_scan", "android": "https://dc.lft.to/lastmile_qr_scan"}, "fusion_lon": 0.0, "lon": -77.04014583333333, "name": "50457583515d6e90edc3bbda1b85ef44", "is_reserved": 0, "is_disabled": 0}, {"lat": 38.9209665, "fusion_lat": 0.0, "type": "electric_scooter", "bike_id": "38438e2be91b8fb8742f12f2e7757716", "rental_uris": {"ios": "https://dc.lft.to/lastmile_qr_scan", "android": "https://dc.lft.to/lastmile_qr_scan"}, "fusion_lon": 0.0, "lon": -77.03663833333333, "name": "38438e2be91b8fb8742f12f2e7757716", "is_reserved": 0, "is_disabled": 0}, {"lat": 38.9153005, "fusion_lat": 0.0, "type": "electric_scooter", "bike_id": "3fbbb8ccd046fd2380d20e46e9f7a39c", "rental_uris": {"ios": "https://dc.lft.to/lastmile_qr_scan", "android": "https://dc.lft.to/lastmile_qr_scan"}, "fusion_lon": 0.0, "lon": -77.03201283333334, "name": "3fbbb8ccd046fd2380d20e46e9f7a39c", "is_reserved": 0, "is_disabled": 0}, {"lat": 38.90580216666667, "fusion_lat": 0.0, "type": "electric_scooter", "bike_id": "29bdbdae6b2e194c4a547d8c1095922b", "rental_uris": {"ios": "https://dc.lft.to/lastmile_qr_scan", "android": "https://dc.lft.to/lastmile_qr_scan"}, "fusion_lon": 0.0, "lon": -77.0384445, "name": "29bdbdae6b2e194c4a547d8c1095922b", "is_reserved": 0, "is_disabled": 0}, {"lat": 38.937075166666666, "fusion_lat": 0.0, "type": "electric_scooter", "bike_id": "1b4675b2dfd2bc373603ffe0a60f3ce9", "rental_uris": {"ios": "https://dc.lft.to/lastmile_qr_scan", "android": "https://dc.lft.to/lastmile_qr_scan"}, "fusion_lon": 0.0, "lon": -77.03517116666667, "name": "1b4675b2dfd2bc373603ffe0a60f3ce9", "is_reserved": 0, "is_disabled": 0}, {"lat": 38.895701833333334, "fusion_lat": 0.0, "type": "electric_scooter", "bike_id": "a06bafb108125a4d0e909b7e624322f5", "rental_uris": {"ios": "https://dc.lft.to/lastmile_qr_scan", "android": "https://dc.lft.to/lastmile_qr_scan"}, "fusion_lon": 0.0, "lon": -76.98320816666667, "name": "a06bafb108125a4d0e909b7e624322f5", "is_reserved": 0, "is_disabled": 0}, {"lat": 38.91759733333333, "fusion_lat": 0.0, "type": "electric_scooter", "bike_id": "155c6b41d5f1cc427b9afe25a68d3276", "rental_uris": {"ios": "https://dc.lft.to/lastmile_qr_scan", "android": "https://dc.lft.to/lastmile_qr_scan"}, "fusion_lon": 0.0, "lon": -77.0176255, "name": "155c6b41d5f1cc427b9afe25a68d3276", "is_reserved": 0, "is_disabled": 0}, {"lat": 38.87885, "fusion_lat": 0.0, "type": "electric_scooter", "bike_id": "f1ea570457b6c0cb5349fbb49ed339d5", "rental_uris": {"ios": "https://dc.lft.to/lastmile_qr_scan", "android": "https://dc.lft.to/lastmile_qr_scan"}, "fusion_lon": 0.0, "lon": -77.02307416666666, "name": "f1ea570457b6c0cb5349fbb49ed339d5", "is_reserved": 0, "is_disabled": 0}, {"lat": 38.915689666666665, "fusion_lat": 0.0, "type": "electric_scooter", "bike_id": "4096f078ea148bacdf02be7d8265b9d8", "rental_uris": {"ios": "https://dc.lft.to/lastmile_qr_scan", "android": "https://dc.lft.to/lastmile_qr_scan"}, "fusion_lon": 0.0, "lon": -77.01908433333334, "name": "4096f078ea148bacdf02be7d8265b9d8", "is_reserved": 0, "is_disabled": 0}, {"lat": 38.8997015, "fusion_lat": 0.0, "type": "electric_scooter", "bike_id": "952062a14275c8ce008e6f826125e59c", "rental_uris": {"ios": "https://dc.lft.to/lastmile_qr_scan", "android": "https://dc.lft.to/lastmile_qr_scan"}, "fusion_lon": 0.0, "lon": -76.985546, "name": "952062a14275c8ce008e6f826125e59c", "is_reserved": 0, "is_disabled": 0}, {"lat": 38.92224783333333, "fusion_lat": 0.0, "type": "electric_scooter", "bike_id": "dea775af5c0c4e2f42530ed243d36434", "rental_uris": {"ios": "https://dc.lft.to/lastmile_qr_scan", "android": "https://dc.lft.to/lastmile_qr_scan"}, "fusion_lon": 0.0, "lon": -77.02119566666667, "name": "dea775af5c0c4e2f42530ed243d36434", "is_reserved": 0, "is_disabled": 0}, {"lat": 38.9043745, "fusion_lat": 0.0, "type": "electric_scooter", "bike_id": "012af11e113679c260f44d2c9c74a345", "rental_uris": {"ios": "https://dc.lft.to/lastmile_qr_scan", "android": "https://dc.lft.to/lastmile_qr_scan"}, "fusion_lon": 0.0, "lon": -76.99834466666667, "name": "012af11e113679c260f44d2c9c74a345", "is_reserved": 0, "is_disabled": 0}, {"lat": 38.994321666666664, "fusion_lat": 0.0, "type": "electric_bike", "bike_id": "a61817fd2d4cc4c593c6fe978c10da08", "rental_uris": {"ios": "https://dc.lft.to/lastmile_qr_scan", "android": "https://dc.lft.to/lastmile_qr_scan"}, "fusion_lon": 0.0, "lon": -77.026598, "name": "a61817fd2d4cc4c593c6fe978c10da08", "is_reserved": 0, "is_disabled": 0}, {"lat": 38.91031066666667, "fusion_lat": 0.0, "type": "electric_scooter", "bike_id": "70062c264ac39eb489facd97ed43f2b1", "rental_uris": {"ios": "https://dc.lft.to/lastmile_qr_scan", "android": "https://dc.lft.to/lastmile_qr_scan"}, "fusion_lon": 0.0, "lon": -77.02696116666667, "name": "70062c264ac39eb489facd97ed43f2b1", "is_reserved": 0, "is_disabled": 0}, {"lat": 39.0525115, "fusion_lat": 0.0, "type": "electric_bike", "bike_id": "c2fac48be77e149784279f235f03d41d", "rental_uris": {"ios": "https://dc.lft.to/lastmile_qr_scan", "android": "https://dc.lft.to/lastmile_qr_scan"}, "fusion_lon": 0.0, "lon": -77.08067366666667, "name": "c2fac48be77e149784279f235f03d41d", "is_reserved": 0, "is_disabled": 0}, {"lat": 38.86889816666667, "fusion_lat": 0.0, "type": "electric_bike", "bike_id": "70ea25da065f048a0d07d1e35cc39c92", "rental_uris": {"ios": "https://dc.lft.to/lastmile_qr_scan", "android": "https://dc.lft.to/lastmile_qr_scan"}, "fusion_lon": 0.0, "lon": -76.9852095, "name": "70ea25da065f048a0d07d1e35cc39c92", "is_reserved": 0, "is_disabled": 0}, {"lat": 38.9057265, "fusion_lat": 0.0, "type": "electric_scooter", "bike_id": "da24badab9daadc3e519de30c2a48813", "rental_uris": {"ios": "https://dc.lft.to/lastmile_qr_scan", "android": "https://dc.lft.to/lastmile_qr_scan"}, "fusion_lon": 0.0, "lon": -77.018563, "name": "da24badab9daadc3e519de30c2a48813", "is_reserved": 0, "is_disabled": 0}, {"lat": 38.893102999999996, "fusion_lat": 0.0, "type": "electric_scooter", "bike_id": "a7e9f915ac46c19a24e461e77c0a885a", "rental_uris": {"ios": "https://dc.lft.to/lastmile_qr_scan", "android": "https://dc.lft.to/lastmile_qr_scan"}, "fusion_lon": 0.0, "lon": -77.078741, "name": "a7e9f915ac46c19a24e461e77c0a885a", "is_reserved": 0, "is_disabled": 0}, {"lat": 38.8938595, "fusion_lat": 0.0, "type": "electric_scooter", "bike_id": "a9d7b033efa13db19a25c9a5a72f83a6", "rental_uris": {"ios": "https://dc.lft.to/lastmile_qr_scan", "android": "https://dc.lft.to/lastmile_qr_scan"}, "fusion_lon": 0.0, "lon": -76.92310633333334, "name": "a9d7b033efa13db19a25c9a5a72f83a6", "is_reserved": 0, "is_disabled": 0}, {"lat": 38.89241333333333, "fusion_lat": 0.0, "type": "electric_scooter", "bike_id": "e1b97e63f947733e13c089fca8d6df53", "rental_uris": {"ios": "https://dc.lft.to/lastmile_qr_scan", "android": "https://dc.lft.to/lastmile_qr_scan"}, "fusion_lon": 0.0, "lon": -77.04654066666667, "name": "e1b97e63f947733e13c089fca8d6df53", "is_reserved": 0, "is_disabled": 0}, {"lat": 38.950035666666665, "fusion_lat": 0.0, "type": "electric_scooter", "bike_id": "3b0e45998b9655e4a2762928e7acaa5d", "rental_uris": {"ios": "https://dc.lft.to/lastmile_qr_scan", "android": "https://dc.lft.to/lastmile_qr_scan"}, "fusion_lon": 0.0, "lon": -77.0807145, "name": "3b0e45998b9655e4a2762928e7acaa5d", "is_reserved": 0, "is_disabled": 0}, {"lat": 38.89625916666667, "fusion_lat": 0.0, "type": "electric_scooter", "bike_id": "8c858e56be12c9d33738be419e6cf950", "rental_uris": {"ios": "https://dc.lft.to/lastmile_qr_scan", "android": "https://dc.lft.to/lastmile_qr_scan"}, "fusion_lon": 0.0, "lon": -77.023919, "name": "8c858e56be12c9d33738be419e6cf950", "is_reserved": 0, "is_disabled": 0}, {"lat": 38.84755116666667, "fusion_lat": 0.0, "type": "electric_scooter", "bike_id": "ac1212a412ae60aa5541259e1c046801", "rental_uris": {"ios": "https://dc.lft.to/lastmile_qr_scan", "android": "https://dc.lft.to/lastmile_qr_scan"}, "fusion_lon": 0.0, "lon": -76.99499283333333, "name": "ac1212a412ae60aa5541259e1c046801", "is_reserved": 0, "is_disabled": 0}, {"lat": 38.89355183333333, "fusion_lat": 0.0, "type": "electric_scooter", "bike_id": "4a071a8c0fc38b60567be2fed7c360d7", "rental_uris": {"ios": "https://dc.lft.to/lastmile_qr_scan", "android": "https://dc.lft.to/lastmile_qr_scan"}, "fusion_lon": 0.0, "lon": -77.0034335, "name": "4a071a8c0fc38b60567be2fed7c360d7", "is_reserved": 0, "is_disabled": 0}, {"lat": 38.918005666666666, "fusion_lat": 0.0, "type": "electric_scooter", "bike_id": "489000482b9015bad863b181c59ce205", "rental_uris": {"ios": "https://dc.lft.to/lastmile_qr_scan", "android": "https://dc.lft.to/lastmile_qr_scan"}, "fusion_lon": 0.0, "lon": -77.0248885, "name": "489000482b9015bad863b181c59ce205", "is_reserved": 0, "is_disabled": 0}, {"lat": 38.90758533333333, "fusion_lat": 0.0, "type": "electric_scooter", "bike_id": "0d19e9278291f477d433dee4c9be73e4", "rental_uris": {"ios": "https://dc.lft.to/lastmile_qr_scan", "android": "https://dc.lft.to/lastmile_qr_scan"}, "fusion_lon": 0.0, "lon": -77.009223, "name": "0d19e9278291f477d433dee4c9be73e4", "is_reserved": 0, "is_disabled": 0}, {"lat": 38.841916, "fusion_lat": 0.0, "type": "electric_bike", "bike_id": "d06a4131af3c9ebf56e93778d7cc0a62", "rental_uris": {"ios": "https://dc.lft.to/lastmile_qr_scan", "android": "https://dc.lft.to/lastmile_qr_scan"}, "fusion_lon": 0.0, "lon": -77.06758533333333, "name": "d06a4131af3c9ebf56e93778d7cc0a62", "is_reserved": 0, "is_disabled": 0}, {"lat": 38.91705816666666, "fusion_lat": 0.0, "type": "electric_bike", "bike_id": "5f77e72ba5bf5d8f206e90e5d0c164c8", "rental_uris": {"ios": "https://dc.lft.to/lastmile_qr_scan", "android": "https://dc.lft.to/lastmile_qr_scan"}, "fusion_lon": 0.0, "lon": -77.03764016666666, "name": "5f77e72ba5bf5d8f206e90e5d0c164c8", "is_reserved": 0, "is_disabled": 0}, {"lat": 38.92422083333334, "fusion_lat": 0.0, "type": "electric_scooter", "bike_id": "f17e0e0eb39bc9d157a26206c10d6242", "rental_uris": {"ios": "https://dc.lft.to/lastmile_qr_scan", "android": "https://dc.lft.to/lastmile_qr_scan"}, "fusion_lon": 0.0, "lon": -76.9973125, "name": "f17e0e0eb39bc9d157a26206c10d6242", "is_reserved": 0, "is_disabled": 0}, {"lat": 38.90966433333333, "fusion_lat": 0.0, "type": "electric_scooter", "bike_id": "29442ff07e55ddbda0061e3eb3dc9b51", "rental_uris": {"ios": "https://dc.lft.to/lastmile_qr_scan", "android": "https://dc.lft.to/lastmile_qr_scan"}, "fusion_lon": 0.0, "lon": -77.05195683333334, "name": "29442ff07e55ddbda0061e3eb3dc9b51", "is_reserved": 0, "is_disabled": 0}, {"lat": 38.973501166666665, "fusion_lat": 0.0, "type": "electric_scooter", "bike_id": "1b9e9b670e89927bbeade5f2637f0685", "rental_uris": {"ios": "https://dc.lft.to/lastmile_qr_scan", "android": "https://dc.lft.to/lastmile_qr_scan"}, "fusion_lon": 0.0, "lon": -77.02786716666667, "name": "1b9e9b670e89927bbeade5f2637f0685", "is_reserved": 0, "is_disabled": 0}, {"lat": 38.88531066666667, "fusion_lat": 0.0, "type": "electric_scooter", "bike_id": "fe46f80c5bf1b0fcb53b9275ed7a1488", "rental_uris": {"ios": "https://dc.lft.to/lastmile_qr_scan", "android": "https://dc.lft.to/lastmile_qr_scan"}, "fusion_lon": 0.0, "lon": -77.0220275, "name": "fe46f80c5bf1b0fcb53b9275ed7a1488", "is_reserved": 0, "is_disabled": 0}, {"lat": 38.921135, "fusion_lat": 0.0, "type": "electric_scooter", "bike_id": "81475656f6f4bc048dd1fb31d7896d6d", "rental_uris": {"ios": "https://dc.lft.to/lastmile_qr_scan", "android": "https://dc.lft.to/lastmile_qr_scan"}, "fusion_lon": 0.0, "lon": -77.03188816666666, "name": "81475656f6f4bc048dd1fb31d7896d6d", "is_reserved": 0, "is_disabled": 0}, {"lat": 38.924667166666666, "fusion_lat": 0.0, "type": "electric_scooter", "bike_id": "bb10f76a26fd3e3455d7c89e8a790d70", "rental_uris": {"ios": "https://dc.lft.to/lastmile_qr_scan", "android": "https://dc.lft.to/lastmile_qr_scan"}, "fusion_lon": 0.0, "lon": -77.03539666666667, "name": "bb10f76a26fd3e3455d7c89e8a790d70", "is_reserved": 0, "is_disabled": 0}, {"lat": 38.863912, "fusion_lat": 0.0, "type": "electric_bike", "bike_id": "ae6379f981d7c690f1b106e34fa158fc", "rental_uris": {"ios": "https://dc.lft.to/lastmile_qr_scan", "android": "https://dc.lft.to/lastmile_qr_scan"}, "fusion_lon": 0.0, "lon": -77.201115, "name": "ae6379f981d7c690f1b106e34fa158fc", "is_reserved": 0, "is_disabled": 0}, {"lat": 38.92230516666667, "fusion_lat": 0.0, "type": "electric_scooter", "bike_id": "bab671e4b1bfbbace36d6ff09f478981", "rental_uris": {"ios": "https://dc.lft.to/lastmile_qr_scan", "android": "https://dc.lft.to/lastmile_qr_scan"}, "fusion_lon": 0.0, "lon": -77.02330716666667, "name": "bab671e4b1bfbbace36d6ff09f478981", "is_reserved": 0, "is_disabled": 0}, {"lat": 38.89827716666667, "fusion_lat": 0.0, "type": "electric_scooter", "bike_id": "5e9c98bcbb2512d9f52e024c6abcac61", "rental_uris": {"ios": "https://dc.lft.to/lastmile_qr_scan", "android": "https://dc.lft.to/lastmile_qr_scan"}, "fusion_lon": 0.0, "lon": -77.033527, "name": "5e9c98bcbb2512d9f52e024c6abcac61", "is_reserved": 0, "is_disabled": 0}, {"lat": 38.918319, "fusion_lat": 0.0, "type": "electric_scooter", "bike_id": "7baa5908772d9216c4c6f5e04548e077", "rental_uris": {"ios": "https://dc.lft.to/lastmile_qr_scan", "android": "https://dc.lft.to/lastmile_qr_scan"}, "fusion_lon": 0.0, "lon": -77.05880166666667, "name": "7baa5908772d9216c4c6f5e04548e077", "is_reserved": 0, "is_disabled": 0}, {"lat": 38.909955, "fusion_lat": 0.0, "type": "electric_scooter", "bike_id": "cf450cf41b6fd3ea1b5787c9f7f05694", "rental_uris": {"ios": "https://dc.lft.to/lastmile_qr_scan", "android": "https://dc.lft.to/lastmile_qr_scan"}, "fusion_lon": 0.0, "lon": -76.98621966666667, "name": "cf450cf41b6fd3ea1b5787c9f7f05694", "is_reserved": 0, "is_disabled": 0}, {"lat": 38.943281999999996, "fusion_lat": 0.0, "type": "electric_scooter", "bike_id": "802468ce275a7231e64b234b6752f94c", "rental_uris": {"ios": "https://dc.lft.to/lastmile_qr_scan", "android": "https://dc.lft.to/lastmile_qr_scan"}, "fusion_lon": 0.0, "lon": -77.0646945, "name": "802468ce275a7231e64b234b6752f94c", "is_reserved": 0, "is_disabled": 0}, {"lat": 38.9234775, "fusion_lat": 0.0, "type": "electric_scooter", "bike_id": "a06118080e9c19ff48f8e07830edba0b", "rental_uris": {"ios": "https://dc.lft.to/lastmile_qr_scan", "android": "https://dc.lft.to/lastmile_qr_scan"}, "fusion_lon": 0.0, "lon": -77.054277, "name": "a06118080e9c19ff48f8e07830edba0b", "is_reserved": 0, "is_disabled": 0}, {"lat": 38.914862, "fusion_lat": 0.0, "type": "electric_scooter", "bike_id": "7ecc0a1a93df65f1b50e4fbde1c26568", "rental_uris": {"ios": "https://dc.lft.to/lastmile_qr_scan", "android": "https://dc.lft.to/lastmile_qr_scan"}, "fusion_lon": 0.0, "lon": -77.0425165, "name": "7ecc0a1a93df65f1b50e4fbde1c26568", "is_reserved": 0, "is_disabled": 0}, {"lat": 38.923337, "fusion_lat": 0.0, "type": "electric_scooter", "bike_id": "394d5d0096b81e1a5e3b92f29a9d30a9", "rental_uris": {"ios": "https://dc.lft.to/lastmile_qr_scan", "android": "https://dc.lft.to/lastmile_qr_scan"}, "fusion_lon": 0.0, "lon": -77.04739266666667, "name": "394d5d0096b81e1a5e3b92f29a9d30a9", "is_reserved": 0, "is_disabled": 0}, {"lat": 38.9401815, "fusion_lat": 0.0, "type": "electric_bike", "bike_id": "b3680d80b7de47306b13481c7d7bfbcc", "rental_uris": {"ios": "https://dc.lft.to/lastmile_qr_scan", "android": "https://dc.lft.to/lastmile_qr_scan"}, "fusion_lon": 0.0, "lon": -76.97618333333334, "name": "b3680d80b7de47306b13481c7d7bfbcc", "is_reserved": 0, "is_disabled": 0}, {"lat": 38.784567333333335, "fusion_lat": 0.0, "type": "electric_bike", "bike_id": "c1763a7b0859b06ac453554360590f40", "rental_uris": {"ios": "https://dc.lft.to/lastmile_qr_scan", "android": "https://dc.lft.to/lastmile_qr_scan"}, "fusion_lon": 0.0, "lon": -77.01634916666667, "name": "c1763a7b0859b06ac453554360590f40", "is_reserved": 0, "is_disabled": 0}, {"lat": 38.89177083333333, "fusion_lat": 0.0, "type": "electric_scooter", "bike_id": "c3ab7d230e1ed0b0a4a9a777afd830cd", "rental_uris": {"ios": "https://dc.lft.to/lastmile_qr_scan", "android": "https://dc.lft.to/lastmile_qr_scan"}, "fusion_lon": 0.0, "lon": -77.0033855, "name": "c3ab7d230e1ed0b0a4a9a777afd830cd", "is_reserved": 0, "is_disabled": 0}, {"lat": 38.90498766666666, "fusion_lat": 0.0, "type": "electric_bike", "bike_id": "6099019534676b3bd2405a391f5979d6", "rental_uris": {"ios": "https://dc.lft.to/lastmile_qr_scan", "android": "https://dc.lft.to/lastmile_qr_scan"}, "fusion_lon": 0.0, "lon": -76.97448616666667, "name": "6099019534676b3bd2405a391f5979d6", "is_reserved": 0, "is_disabled": 0}, {"lat": 38.95624316666667, "fusion_lat": 0.0, "type": "electric_scooter", "bike_id": "af9504506d70b2ca92a6cb0dce302a64", "rental_uris": {"ios": "https://dc.lft.to/lastmile_qr_scan", "android": "https://dc.lft.to/lastmile_qr_scan"}, "fusion_lon": 0.0, "lon": -77.0283725, "name": "af9504506d70b2ca92a6cb0dce302a64", "is_reserved": 0, "is_disabled": 0}, {"lat": 38.874931, "fusion_lat": 0.0, "type": "electric_scooter", "bike_id": "2c586c3d676dbb713e384ebb496962af", "rental_uris": {"ios": "https://dc.lft.to/lastmile_qr_scan", "android": "https://dc.lft.to/lastmile_qr_scan"}, "fusion_lon": 0.0, "lon": -76.99972216666667, "name": "2c586c3d676dbb713e384ebb496962af", "is_reserved": 0, "is_disabled": 0}, {"lat": 38.908624333333336, "fusion_lat": 0.0, "type": "electric_scooter", "bike_id": "5858cd8b28aa5e95a05fbd7b2f257ab4", "rental_uris": {"ios": "https://dc.lft.to/lastmile_qr_scan", "android": "https://dc.lft.to/lastmile_qr_scan"}, "fusion_lon": 0.0, "lon": -77.01870983333333, "name": "5858cd8b28aa5e95a05fbd7b2f257ab4", "is_reserved": 0, "is_disabled": 0}, {"lat": 38.9024865, "fusion_lat": 0.0, "type": "electric_scooter", "bike_id": "33d83bd0e64698b66201f8c8652a2690", "rental_uris": {"ios": "https://dc.lft.to/lastmile_qr_scan", "android": "https://dc.lft.to/lastmile_qr_scan"}, "fusion_lon": 0.0, "lon": -77.03040033333333, "name": "33d83bd0e64698b66201f8c8652a2690", "is_reserved": 0, "is_disabled": 0}, {"lat": 38.949209, "fusion_lat": 0.0, "type": "electric_bike", "bike_id": "57a18563c4f026a0d2cc06ef35a59a72", "rental_uris": {"ios": "https://dc.lft.to/lastmile_qr_scan", "android": "https://dc.lft.to/lastmile_qr_scan"}, "fusion_lon": 0.0, "lon": -77.00794966666666, "name": "57a18563c4f026a0d2cc06ef35a59a72", "is_reserved": 0, "is_disabled": 0}, {"lat": 38.9191515, "fusion_lat": 0.0, "type": "electric_scooter", "bike_id": "9f43797c5d17af3cd0b7df28f8d78153", "rental_uris": {"ios": "https://dc.lft.to/lastmile_qr_scan", "android": "https://dc.lft.to/lastmile_qr_scan"}, "fusion_lon": 0.0, "lon": -77.033689, "name": "9f43797c5d17af3cd0b7df28f8d78153", "is_reserved": 0, "is_disabled": 0}, {"lat": 38.89891016666667, "fusion_lat": 0.0, "type": "electric_scooter", "bike_id": "8842362bfebb576874484beefe265a44", "rental_uris": {"ios": "https://dc.lft.to/lastmile_qr_scan", "android": "https://dc.lft.to/lastmile_qr_scan"}, "fusion_lon": 0.0, "lon": -77.02175516666667, "name": "8842362bfebb576874484beefe265a44", "is_reserved": 0, "is_disabled": 0}, {"lat": 38.97830316666666, "fusion_lat": 0.0, "type": "electric_bike", "bike_id": "c0e7ea925d4897d34a95571717d28129", "rental_uris": {"ios": "https://dc.lft.to/lastmile_qr_scan", "android": "https://dc.lft.to/lastmile_qr_scan"}, "fusion_lon": 0.0, "lon": -76.928936, "name": "c0e7ea925d4897d34a95571717d28129", "is_reserved": 0, "is_disabled": 0}, {"lat": 38.99223816666667, "fusion_lat": 0.0, "type": "electric_bike", "bike_id": "f3fe5496b20e4927422aedce0dea50e0", "rental_uris": {"ios": "https://dc.lft.to/lastmile_qr_scan", "android": "https://dc.lft.to/lastmile_qr_scan"}, "fusion_lon": 0.0, "lon": -77.03589666666667, "name": "f3fe5496b20e4927422aedce0dea50e0", "is_reserved": 0, "is_disabled": 0}, {"lat": 38.91890266666667, "fusion_lat": 0.0, "type": "electric_scooter", "bike_id": "7eeca5c5109d748c4e68317ee25e0d80", "rental_uris": {"ios": "https://dc.lft.to/lastmile_qr_scan", "android": "https://dc.lft.to/lastmile_qr_scan"}, "fusion_lon": 0.0, "lon": -77.0295415, "name": "7eeca5c5109d748c4e68317ee25e0d80", "is_reserved": 0, "is_disabled": 0}, {"lat": 38.8991435, "fusion_lat": 0.0, "type": "electric_scooter", "bike_id": "5114ba9a30ff5466e58219120bbe638b", "rental_uris": {"ios": "https://dc.lft.to/lastmile_qr_scan", "android": "https://dc.lft.to/lastmile_qr_scan"}, "fusion_lon": 0.0, "lon": -76.93382716666666, "name": "5114ba9a30ff5466e58219120bbe638b", "is_reserved": 0, "is_disabled": 0}, {"lat": 38.92671133333333, "fusion_lat": 0.0, "type": "electric_scooter", "bike_id": "fc6593a2f48fffdc905642595b1b818a", "rental_uris": {"ios": "https://dc.lft.to/lastmile_qr_scan", "android": "https://dc.lft.to/lastmile_qr_scan"}, "fusion_lon": 0.0, "lon": -77.01509666666666, "name": "fc6593a2f48fffdc905642595b1b818a", "is_reserved": 0, "is_disabled": 0}, {"lat": 38.9161405, "fusion_lat": 0.0, "type": "electric_scooter", "bike_id": "c8161c2e756fae434ab99df978d6464e", "rental_uris": {"ios": "https://dc.lft.to/lastmile_qr_scan", "android": "https://dc.lft.to/lastmile_qr_scan"}, "fusion_lon": 0.0, "lon": -77.0212835, "name": "c8161c2e756fae434ab99df978d6464e", "is_reserved": 0, "is_disabled": 0}, {"lat": 38.8846055, "fusion_lat": 0.0, "type": "electric_bike", "bike_id": "046cbf7f1bf2391fef54a5f628c968ac", "rental_uris": {"ios": "https://dc.lft.to/lastmile_qr_scan", "android": "https://dc.lft.to/lastmile_qr_scan"}, "fusion_lon": 0.0, "lon": -76.95237383333334, "name": "046cbf7f1bf2391fef54a5f628c968ac", "is_reserved": 0, "is_disabled": 0}, {"lat": 38.919126, "fusion_lat": 0.0, "type": "electric_scooter", "bike_id": "239a31c70ac2854789d2be49537d9810", "rental_uris": {"ios": "https://dc.lft.to/lastmile_qr_scan", "android": "https://dc.lft.to/lastmile_qr_scan"}, "fusion_lon": 0.0, "lon": -77.02489883333334, "name": "239a31c70ac2854789d2be49537d9810", "is_reserved": 0, "is_disabled": 0}, {"lat": 38.9168245, "fusion_lat": 0.0, "type": "electric_scooter", "bike_id": "5346b4e00d48acd568ccf5b5c37af747", "rental_uris": {"ios": "https://dc.lft.to/lastmile_qr_scan", "android": "https://dc.lft.to/lastmile_qr_scan"}, "fusion_lon": 0.0, "lon": -77.02953566666666, "name": "5346b4e00d48acd568ccf5b5c37af747", "is_reserved": 0, "is_disabled": 0}, {"lat": 38.91557233333333, "fusion_lat": 0.0, "type": "electric_scooter", "bike_id": "91bf48977d74af4b7a8e14e5c8bc814e", "rental_uris": {"ios": "https://dc.lft.to/lastmile_qr_scan", "android": "https://dc.lft.to/lastmile_qr_scan"}, "fusion_lon": 0.0, "lon": -77.03178633333333, "name": "91bf48977d74af4b7a8e14e5c8bc814e", "is_reserved": 0, "is_disabled": 0}, {"lat": 38.9217645, "fusion_lat": 0.0, "type": "electric_scooter", "bike_id": "f2297f67943612bac33aabd03d7b2931", "rental_uris": {"ios": "https://dc.lft.to/lastmile_qr_scan", "android": "https://dc.lft.to/lastmile_qr_scan"}, "fusion_lon": 0.0, "lon": -77.03840366666667, "name": "f2297f67943612bac33aabd03d7b2931", "is_reserved": 0, "is_disabled": 0}, {"lat": 38.90484566666667, "fusion_lat": 0.0, "type": "electric_scooter", "bike_id": "28c319dffdad04170521fb42c2ed4e6b", "rental_uris": {"ios": "https://dc.lft.to/lastmile_qr_scan", "android": "https://dc.lft.to/lastmile_qr_scan"}, "fusion_lon": 0.0, "lon": -77.02105516666667, "name": "28c319dffdad04170521fb42c2ed4e6b", "is_reserved": 0, "is_disabled": 0}, {"lat": 38.924176, "fusion_lat": 0.0, "type": "electric_scooter", "bike_id": "7d7216603473410694e5b6e2560b4c27", "rental_uris": {"ios": "https://dc.lft.to/lastmile_qr_scan", "android": "https://dc.lft.to/lastmile_qr_scan"}, "fusion_lon": 0.0, "lon": -77.05751883333333, "name": "7d7216603473410694e5b6e2560b4c27", "is_reserved": 0, "is_disabled": 0}, {"lat": 38.92386916666667, "fusion_lat": 0.0, "type": "electric_scooter", "bike_id": "3a78333e6e70a19078aa485ce5f7f2b9", "rental_uris": {"ios": "https://dc.lft.to/lastmile_qr_scan", "android": "https://dc.lft.to/lastmile_qr_scan"}, "fusion_lon": 0.0, "lon": -77.02978933333333, "name": "3a78333e6e70a19078aa485ce5f7f2b9", "is_reserved": 0, "is_disabled": 0}, {"lat": 38.92456983333334, "fusion_lat": 0.0, "type": "electric_scooter", "bike_id": "4ee9274114675b000fa7a3b87baf0e2c", "rental_uris": {"ios": "https://dc.lft.to/lastmile_qr_scan", "android": "https://dc.lft.to/lastmile_qr_scan"}, "fusion_lon": 0.0, "lon": -77.04038733333333, "name": "4ee9274114675b000fa7a3b87baf0e2c", "is_reserved": 0, "is_disabled": 0}, {"lat": 38.877150666666665, "fusion_lat": 0.0, "type": "electric_scooter", "bike_id": "bc5e2c1fd3ea90a0a37380b8cf850e57", "rental_uris": {"ios": "https://dc.lft.to/lastmile_qr_scan", "android": "https://dc.lft.to/lastmile_qr_scan"}, "fusion_lon": 0.0, "lon": -77.01833583333334, "name": "bc5e2c1fd3ea90a0a37380b8cf850e57", "is_reserved": 0, "is_disabled": 0}, {"lat": 38.9231335, "fusion_lat": 0.0, "type": "electric_scooter", "bike_id": "66d7c23c1fb000bf065cb707a977724b", "rental_uris": {"ios": "https://dc.lft.to/lastmile_qr_scan", "android": "https://dc.lft.to/lastmile_qr_scan"}, "fusion_lon": 0.0, "lon": -77.01957383333334, "name": "66d7c23c1fb000bf065cb707a977724b", "is_reserved": 0, "is_disabled": 0}, {"lat": 38.884970333333335, "fusion_lat": 0.0, "type": "electric_scooter", "bike_id": "7daa93885dc2397ef7843cb9df7ac09a", "rental_uris": {"ios": "https://dc.lft.to/lastmile_qr_scan", "android": "https://dc.lft.to/lastmile_qr_scan"}, "fusion_lon": 0.0, "lon": -76.98064866666667, "name": "7daa93885dc2397ef7843cb9df7ac09a", "is_reserved": 0, "is_disabled": 0}, {"lat": 38.92027216666666, "fusion_lat": 0.0, "type": "electric_scooter", "bike_id": "90f8548ba9327ef8cba1759308881475", "rental_uris": {"ios": "https://dc.lft.to/lastmile_qr_scan", "android": "https://dc.lft.to/lastmile_qr_scan"}, "fusion_lon": 0.0, "lon": -77.071502, "name": "90f8548ba9327ef8cba1759308881475", "is_reserved": 0, "is_disabled": 0}, {"lat": 38.943108, "fusion_lat": 0.0, "type": "electric_scooter", "bike_id": "61db4d2e276c7d3793993f2a4e8d411f", "rental_uris": {"ios": "https://dc.lft.to/lastmile_qr_scan", "android": "https://dc.lft.to/lastmile_qr_scan"}, "fusion_lon": 0.0, "lon": -77.02491983333333, "name": "61db4d2e276c7d3793993f2a4e8d411f", "is_reserved": 0, "is_disabled": 0}, {"lat": 38.91812633333333, "fusion_lat": 0.0, "type": "electric_scooter", "bike_id": "ef75f852c94bd98180a82b7f39bb9687", "rental_uris": {"ios": "https://dc.lft.to/lastmile_qr_scan", "android": "https://dc.lft.to/lastmile_qr_scan"}, "fusion_lon": 0.0, "lon": -77.03475916666666, "name": "ef75f852c94bd98180a82b7f39bb9687", "is_reserved": 0, "is_disabled": 0}, {"lat": 38.96182316666667, "fusion_lat": 0.0, "type": "electric_bike", "bike_id": "313b2d7728c987071bb4b43e0bd6d36c", "rental_uris": {"ios": "https://dc.lft.to/lastmile_qr_scan", "android": "https://dc.lft.to/lastmile_qr_scan"}, "fusion_lon": 0.0, "lon": -77.05266783333333, "name": "313b2d7728c987071bb4b43e0bd6d36c", "is_reserved": 0, "is_disabled": 0}, {"lat": 38.91720383333333, "fusion_lat": 0.0, "type": "electric_scooter", "bike_id": "66d8fd65cae93e6f9dcb489dec921076", "rental_uris": {"ios": "https://dc.lft.to/lastmile_qr_scan", "android": "https://dc.lft.to/lastmile_qr_scan"}, "fusion_lon": 0.0, "lon": -77.02706833333333, "name": "66d8fd65cae93e6f9dcb489dec921076", "is_reserved": 0, "is_disabled": 0}, {"lat": 38.932751, "fusion_lat": 0.0, "type": "electric_scooter", "bike_id": "10f8ba4aec76be5d18bd610618a3a8b9", "rental_uris": {"ios": "https://dc.lft.to/lastmile_qr_scan", "android": "https://dc.lft.to/lastmile_qr_scan"}, "fusion_lon": 0.0, "lon": -77.02837166666667, "name": "10f8ba4aec76be5d18bd610618a3a8b9", "is_reserved": 0, "is_disabled": 0}, {"lat": 38.920627, "fusion_lat": 0.0, "type": "electric_scooter", "bike_id": "b07fcf837e7e807dc512c2650c4efae2", "rental_uris": {"ios": "https://dc.lft.to/lastmile_qr_scan", "android": "https://dc.lft.to/lastmile_qr_scan"}, "fusion_lon": 0.0, "lon": -77.02498083333333, "name": "b07fcf837e7e807dc512c2650c4efae2", "is_reserved": 0, "is_disabled": 0}, {"lat": 38.9343675, "fusion_lat": 0.0, "type": "electric_scooter", "bike_id": "00aa054f20150f02427c723915f905e8", "rental_uris": {"ios": "https://dc.lft.to/lastmile_qr_scan", "android": "https://dc.lft.to/lastmile_qr_scan"}, "fusion_lon": 0.0, "lon": -76.99716333333333, "name": "00aa054f20150f02427c723915f905e8", "is_reserved": 0, "is_disabled": 0}, {"lat": 38.87832616666667, "fusion_lat": 0.0, "type": "electric_scooter", "bike_id": "70e9195ae74403a0751a688c76679705", "rental_uris": {"ios": "https://dc.lft.to/lastmile_qr_scan", "android": "https://dc.lft.to/lastmile_qr_scan"}, "fusion_lon": 0.0, "lon": -77.00824066666667, "name": "70e9195ae74403a0751a688c76679705", "is_reserved": 0, "is_disabled": 0}, {"lat": 38.904721, "fusion_lat": 0.0, "type": "electric_scooter", "bike_id": "2f42dee83a614077cc929121274fc767", "rental_uris": {"ios": "https://dc.lft.to/lastmile_qr_scan", "android": "https://dc.lft.to/lastmile_qr_scan"}, "fusion_lon": 0.0, "lon": -77.04860566666666, "name": "2f42dee83a614077cc929121274fc767", "is_reserved": 0, "is_disabled": 0}, {"lat": 38.88408866666666, "fusion_lat": 0.0, "type": "electric_scooter", "bike_id": "e4d722e42364f502c70092a03d3368d6", "rental_uris": {"ios": "https://dc.lft.to/lastmile_qr_scan", "android": "https://dc.lft.to/lastmile_qr_scan"}, "fusion_lon": 0.0, "lon": -77.0317105, "name": "e4d722e42364f502c70092a03d3368d6", "is_reserved": 0, "is_disabled": 0}, {"lat": 38.91475, "fusion_lat": 0.0, "type": "electric_scooter", "bike_id": "8f206cd789e691646b1d0398fcd095a2", "rental_uris": {"ios": "https://dc.lft.to/lastmile_qr_scan", "android": "https://dc.lft.to/lastmile_qr_scan"}, "fusion_lon": 0.0, "lon": -77.031987, "name": "8f206cd789e691646b1d0398fcd095a2", "is_reserved": 0, "is_disabled": 0}, {"lat": 38.88426666666667, "fusion_lat": 0.0, "type": "electric_scooter", "bike_id": "4c5e8cd79f9429717564893c3b6b5f3a", "rental_uris": {"ios": "https://dc.lft.to/lastmile_qr_scan", "android": "https://dc.lft.to/lastmile_qr_scan"}, "fusion_lon": 0.0, "lon": -76.957522, "name": "4c5e8cd79f9429717564893c3b6b5f3a", "is_reserved": 0, "is_disabled": 0}, {"lat": 38.936277, "fusion_lat": 0.0, "type": "electric_scooter", "bike_id": "5abb05556ef1987260dafae2ffc809e1", "rental_uris": {"ios": "https://dc.lft.to/lastmile_qr_scan", "android": "https://dc.lft.to/lastmile_qr_scan"}, "fusion_lon": 0.0, "lon": -77.02115866666666, "name": "5abb05556ef1987260dafae2ffc809e1", "is_reserved": 0, "is_disabled": 0}, {"lat": 38.832507666666665, "fusion_lat": 0.0, "type": "electric_bike", "bike_id": "102bbb4ae27ddbe35e826ce06a587b4b", "rental_uris": {"ios": "https://dc.lft.to/lastmile_qr_scan", "android": "https://dc.lft.to/lastmile_qr_scan"}, "fusion_lon": 0.0, "lon": -77.00735483333334, "name": "102bbb4ae27ddbe35e826ce06a587b4b", "is_reserved": 0, "is_disabled": 0}, {"lat": 38.9006535, "fusion_lat": 0.0, "type": "electric_scooter", "bike_id": "ecb58a609022361c7ac1bdb13ec8d5bc", "rental_uris": {"ios": "https://dc.lft.to/lastmile_qr_scan", "android": "https://dc.lft.to/lastmile_qr_scan"}, "fusion_lon": 0.0, "lon": -77.050242, "name": "ecb58a609022361c7ac1bdb13ec8d5bc", "is_reserved": 0, "is_disabled": 0}, {"lat": 38.93186383333333, "fusion_lat": 0.0, "type": "electric_scooter", "bike_id": "64cb15eabf9c1000d03f2dce33168d58", "rental_uris": {"ios": "https://dc.lft.to/lastmile_qr_scan", "android": "https://dc.lft.to/lastmile_qr_scan"}, "fusion_lon": 0.0, "lon": -77.01989666666667, "name": "64cb15eabf9c1000d03f2dce33168d58", "is_reserved": 0, "is_disabled": 0}, {"lat": 38.906085166666664, "fusion_lat": 0.0, "type": "electric_scooter", "bike_id": "9a919fe0296d5dc0b0299ac5f823c58d", "rental_uris": {"ios": "https://dc.lft.to/lastmile_qr_scan", "android": "https://dc.lft.to/lastmile_qr_scan"}, "fusion_lon": 0.0, "lon": -77.04050633333334, "name": "9a919fe0296d5dc0b0299ac5f823c58d", "is_reserved": 0, "is_disabled": 0}, {"lat": 38.837401166666666, "fusion_lat": 0.0, "type": "electric_bike", "bike_id": "7b3375559f627f915d2d6406fa48d71e", "rental_uris": {"ios": "https://dc.lft.to/lastmile_qr_scan", "android": "https://dc.lft.to/lastmile_qr_scan"}, "fusion_lon": 0.0, "lon": -76.99815283333334, "name": "7b3375559f627f915d2d6406fa48d71e", "is_reserved": 0, "is_disabled": 0}, {"lat": 38.895430166666664, "fusion_lat": 0.0, "type": "electric_scooter", "bike_id": "affd91881bbe287bb7c0afeca915ddad", "rental_uris": {"ios": "https://dc.lft.to/lastmile_qr_scan", "android": "https://dc.lft.to/lastmile_qr_scan"}, "fusion_lon": 0.0, "lon": -76.98340883333333, "name": "affd91881bbe287bb7c0afeca915ddad", "is_reserved": 0, "is_disabled": 0}, {"lat": 38.900851833333334, "fusion_lat": 0.0, "type": "electric_scooter", "bike_id": "aed42cac6d56b208724041a2212aafa4", "rental_uris": {"ios": "https://dc.lft.to/lastmile_qr_scan", "android": "https://dc.lft.to/lastmile_qr_scan"}, "fusion_lon": 0.0, "lon": -76.92958883333333, "name": "aed42cac6d56b208724041a2212aafa4", "is_reserved": 0, "is_disabled": 0}, {"lat": 38.93802316666667, "fusion_lat": 0.0, "type": "electric_bike", "bike_id": "9ee181fe88a0fcf09eca785d384112e7", "rental_uris": {"ios": "https://dc.lft.to/lastmile_qr_scan", "android": "https://dc.lft.to/lastmile_qr_scan"}, "fusion_lon": 0.0, "lon": -76.99317816666667, "name": "9ee181fe88a0fcf09eca785d384112e7", "is_reserved": 0, "is_disabled": 0}, {"lat": 38.96796283333333, "fusion_lat": 0.0, "type": "electric_scooter", "bike_id": "aa501da8993bec4a2168f660488e6aaf", "rental_uris": {"ios": "https://dc.lft.to/lastmile_qr_scan", "android": "https://dc.lft.to/lastmile_qr_scan"}, "fusion_lon": 0.0, "lon": -77.024275, "name": "aa501da8993bec4a2168f660488e6aaf", "is_reserved": 0, "is_disabled": 0}, {"lat": 39.01485733333333, "fusion_lat": 0.0, "type": "electric_bike", "bike_id": "3c587a42c7ee2bd2fbde416683efdaac", "rental_uris": {"ios": "https://dc.lft.to/lastmile_qr_scan", "android": "https://dc.lft.to/lastmile_qr_scan"}, "fusion_lon": 0.0, "lon": -77.09949666666667, "name": "3c587a42c7ee2bd2fbde416683efdaac", "is_reserved": 0, "is_disabled": 0}, {"lat": 38.8749455, "fusion_lat": 0.0, "type": "electric_scooter", "bike_id": "8e3c913a0eeca1831207a7c20e2e5b58", "rental_uris": {"ios": "https://dc.lft.to/lastmile_qr_scan", "android": "https://dc.lft.to/lastmile_qr_scan"}, "fusion_lon": 0.0, "lon": -76.99977183333333, "name": "8e3c913a0eeca1831207a7c20e2e5b58", "is_reserved": 0, "is_disabled": 0}, {"lat": 38.91938183333333, "fusion_lat": 0.0, "type": "electric_scooter", "bike_id": "836e359b021de8824e2a529fa9f05cb3", "rental_uris": {"ios": "https://dc.lft.to/lastmile_qr_scan", "android": "https://dc.lft.to/lastmile_qr_scan"}, "fusion_lon": 0.0, "lon": -77.04566766666667, "name": "836e359b021de8824e2a529fa9f05cb3", "is_reserved": 0, "is_disabled": 0}, {"lat": 38.90279566666667, "fusion_lat": 0.0, "type": "electric_scooter", "bike_id": "62a4d39faf37bd514bf90764728e843a", "rental_uris": {"ios": "https://dc.lft.to/lastmile_qr_scan", "android": "https://dc.lft.to/lastmile_qr_scan"}, "fusion_lon": 0.0, "lon": -77.03735083333333, "name": "62a4d39faf37bd514bf90764728e843a", "is_reserved": 0, "is_disabled": 0}, {"lat": 38.91021333333333, "fusion_lat": 0.0, "type": "electric_scooter", "bike_id": "ff8ef153b7afef914991ea8c7c5768e3", "rental_uris": {"ios": "https://dc.lft.to/lastmile_qr_scan", "android": "https://dc.lft.to/lastmile_qr_scan"}, "fusion_lon": 0.0, "lon": -76.9972895, "name": "ff8ef153b7afef914991ea8c7c5768e3", "is_reserved": 0, "is_disabled": 0}, {"lat": 38.909633666666664, "fusion_lat": 0.0, "type": "electric_scooter", "bike_id": "60bcfa67e4fe7c3d53c23bd4919e8f59", "rental_uris": {"ios": "https://dc.lft.to/lastmile_qr_scan", "android": "https://dc.lft.to/lastmile_qr_scan"}, "fusion_lon": 0.0, "lon": -77.03989666666666, "name": "60bcfa67e4fe7c3d53c23bd4919e8f59", "is_reserved": 0, "is_disabled": 0}, {"lat": 38.90761033333333, "fusion_lat": 0.0, "type": "electric_scooter", "bike_id": "21014c8e8791f208765a86086509ce3b", "rental_uris": {"ios": "https://dc.lft.to/lastmile_qr_scan", "android": "https://dc.lft.to/lastmile_qr_scan"}, "fusion_lon": 0.0, "lon": -76.9930225, "name": "21014c8e8791f208765a86086509ce3b", "is_reserved": 0, "is_disabled": 0}, {"lat": 38.904219833333336, "fusion_lat": 0.0, "type": "electric_scooter", "bike_id": "e02c3f7dc026b9206723b9a7667f24e4", "rental_uris": {"ios": "https://dc.lft.to/lastmile_qr_scan", "android": "https://dc.lft.to/lastmile_qr_scan"}, "fusion_lon": 0.0, "lon": -77.019707, "name": "e02c3f7dc026b9206723b9a7667f24e4", "is_reserved": 0, "is_disabled": 0}, {"lat": 38.91919, "fusion_lat": 0.0, "type": "electric_scooter", "bike_id": "bdc67011a584a818088877df1e5be057", "rental_uris": {"ios": "https://dc.lft.to/lastmile_qr_scan", "android": "https://dc.lft.to/lastmile_qr_scan"}, "fusion_lon": 0.0, "lon": -77.0251265, "name": "bdc67011a584a818088877df1e5be057", "is_reserved": 0, "is_disabled": 0}, {"lat": 38.91412916666667, "fusion_lat": 0.0, "type": "electric_scooter", "bike_id": "99c1bec88933a67ad5d3fc39feb7e97c", "rental_uris": {"ios": "https://dc.lft.to/lastmile_qr_scan", "android": "https://dc.lft.to/lastmile_qr_scan"}, "fusion_lon": 0.0, "lon": -77.03170716666666, "name": "99c1bec88933a67ad5d3fc39feb7e97c", "is_reserved": 0, "is_disabled": 0}, {"lat": 38.938204166666665, "fusion_lat": 0.0, "type": "electric_scooter", "bike_id": "faf397f6df8b68ff1e44a2fd465f64a2", "rental_uris": {"ios": "https://dc.lft.to/lastmile_qr_scan", "android": "https://dc.lft.to/lastmile_qr_scan"}, "fusion_lon": 0.0, "lon": -76.98925983333334, "name": "faf397f6df8b68ff1e44a2fd465f64a2", "is_reserved": 0, "is_disabled": 0}, {"lat": 38.913932, "fusion_lat": 0.0, "type": "electric_scooter", "bike_id": "bdea927a8d826660c40e474850c9d93d", "rental_uris": {"ios": "https://dc.lft.to/lastmile_qr_scan", "android": "https://dc.lft.to/lastmile_qr_scan"}, "fusion_lon": 0.0, "lon": -77.01655766666667, "name": "bdea927a8d826660c40e474850c9d93d", "is_reserved": 0, "is_disabled": 0}, {"lat": 38.90227733333333, "fusion_lat": 0.0, "type": "electric_scooter", "bike_id": "684c79521ed3ea32f5476581090777ca", "rental_uris": {"ios": "https://dc.lft.to/lastmile_qr_scan", "android": "https://dc.lft.to/lastmile_qr_scan"}, "fusion_lon": 0.0, "lon": -77.02255783333334, "name": "684c79521ed3ea32f5476581090777ca", "is_reserved": 0, "is_disabled": 0}, {"lat": 38.916315833333336, "fusion_lat": 0.0, "type": "electric_scooter", "bike_id": "0eed749fa169ae5a7467e5c96ce2613c", "rental_uris": {"ios": "https://dc.lft.to/lastmile_qr_scan", "android": "https://dc.lft.to/lastmile_qr_scan"}, "fusion_lon": 0.0, "lon": -77.01590166666666, "name": "0eed749fa169ae5a7467e5c96ce2613c", "is_reserved": 0, "is_disabled": 0}, {"lat": 38.89914533333334, "fusion_lat": 0.0, "type": "electric_scooter", "bike_id": "e8f89b972a06c2e080b907e58c55adac", "rental_uris": {"ios": "https://dc.lft.to/lastmile_qr_scan", "android": "https://dc.lft.to/lastmile_qr_scan"}, "fusion_lon": 0.0, "lon": -76.93381383333333, "name": "e8f89b972a06c2e080b907e58c55adac", "is_reserved": 0, "is_disabled": 0}, {"lat": 38.92102283333333, "fusion_lat": 0.0, "type": "electric_scooter", "bike_id": "7bed46906dc815e3d8cec07d7673161c", "rental_uris": {"ios": "https://dc.lft.to/lastmile_qr_scan", "android": "https://dc.lft.to/lastmile_qr_scan"}, "fusion_lon": 0.0, "lon": -77.04690416666666, "name": "7bed46906dc815e3d8cec07d7673161c", "is_reserved": 0, "is_disabled": 0}, {"lat": 38.957622666666666, "fusion_lat": 0.0, "type": "electric_scooter", "bike_id": "72c8a5a100b495c835e8a4e001a476ac", "rental_uris": {"ios": "https://dc.lft.to/lastmile_qr_scan", "android": "https://dc.lft.to/lastmile_qr_scan"}, "fusion_lon": 0.0, "lon": -77.01495133333333, "name": "72c8a5a100b495c835e8a4e001a476ac", "is_reserved": 0, "is_disabled": 0}, {"lat": 38.91742933333333, "fusion_lat": 0.0, "type": "electric_scooter", "bike_id": "9180fde235b30eddf1e12e2a576aa336", "rental_uris": {"ios": "https://dc.lft.to/lastmile_qr_scan", "android": "https://dc.lft.to/lastmile_qr_scan"}, "fusion_lon": 0.0, "lon": -77.06939283333334, "name": "9180fde235b30eddf1e12e2a576aa336", "is_reserved": 0, "is_disabled": 0}, {"lat": 38.919846166666666, "fusion_lat": 0.0, "type": "electric_scooter", "bike_id": "dd5955e1cece701e6e4a2c4fdf2fb4de", "rental_uris": {"ios": "https://dc.lft.to/lastmile_qr_scan", "android": "https://dc.lft.to/lastmile_qr_scan"}, "fusion_lon": 0.0, "lon": -77.04163366666667, "name": "dd5955e1cece701e6e4a2c4fdf2fb4de", "is_reserved": 0, "is_disabled": 0}, {"lat": 38.915760666666664, "fusion_lat": 0.0, "type": "electric_scooter", "bike_id": "0a78ae2f780a321434d40cea2c001bfd", "rental_uris": {"ios": "https://dc.lft.to/lastmile_qr_scan", "android": "https://dc.lft.to/lastmile_qr_scan"}, "fusion_lon": 0.0, "lon": -77.02181983333334, "name": "0a78ae2f780a321434d40cea2c001bfd", "is_reserved": 0, "is_disabled": 0}, {"lat": 38.88482416666667, "fusion_lat": 0.0, "type": "electric_scooter", "bike_id": "626d298e764cd245f5a55c3eef79652d", "rental_uris": {"ios": "https://dc.lft.to/lastmile_qr_scan", "android": "https://dc.lft.to/lastmile_qr_scan"}, "fusion_lon": 0.0, "lon": -76.99706816666666, "name": "626d298e764cd245f5a55c3eef79652d", "is_reserved": 0, "is_disabled": 0}, {"lat": 38.901406333333334, "fusion_lat": 0.0, "type": "electric_scooter", "bike_id": "5c5bbc9b6780d46ae13b90a49cd98758", "rental_uris": {"ios": "https://dc.lft.to/lastmile_qr_scan", "android": "https://dc.lft.to/lastmile_qr_scan"}, "fusion_lon": 0.0, "lon": -77.02222766666667, "name": "5c5bbc9b6780d46ae13b90a49cd98758", "is_reserved": 0, "is_disabled": 0}, {"lat": 38.89817933333333, "fusion_lat": 0.0, "type": "electric_bike", "bike_id": "48adfa27e6f7090c9881581786ad25e5", "rental_uris": {"ios": "https://dc.lft.to/lastmile_qr_scan", "android": "https://dc.lft.to/lastmile_qr_scan"}, "fusion_lon": 0.0, "lon": -77.00602683333334, "name": "48adfa27e6f7090c9881581786ad25e5", "is_reserved": 0, "is_disabled": 0}, {"lat": 38.9176985, "fusion_lat": 0.0, "type": "electric_scooter", "bike_id": "1f977a817045b15d91c5fe3cd908c170", "rental_uris": {"ios": "https://dc.lft.to/lastmile_qr_scan", "android": "https://dc.lft.to/lastmile_qr_scan"}, "fusion_lon": 0.0, "lon": -77.03201083333333, "name": "1f977a817045b15d91c5fe3cd908c170", "is_reserved": 0, "is_disabled": 0}, {"lat": 38.901711666666664, "fusion_lat": 0.0, "type": "electric_scooter", "bike_id": "a9f66963a8a9dc15ecf85ae71a9adb30", "rental_uris": {"ios": "https://dc.lft.to/lastmile_qr_scan", "android": "https://dc.lft.to/lastmile_qr_scan"}, "fusion_lon": 0.0, "lon": -77.046616, "name": "a9f66963a8a9dc15ecf85ae71a9adb30", "is_reserved": 0, "is_disabled": 0}, {"lat": 38.900227, "fusion_lat": 0.0, "type": "electric_scooter", "bike_id": "b682bf1dd1b9e45b3db4580b84464aac", "rental_uris": {"ios": "https://dc.lft.to/lastmile_qr_scan", "android": "https://dc.lft.to/lastmile_qr_scan"}, "fusion_lon": 0.0, "lon": -76.99187716666667, "name": "b682bf1dd1b9e45b3db4580b84464aac", "is_reserved": 0, "is_disabled": 0}, {"lat": 38.87494816666667, "fusion_lat": 0.0, "type": "electric_scooter", "bike_id": "5c87447ff0d36dda00529fb1b768d864", "rental_uris": {"ios": "https://dc.lft.to/lastmile_qr_scan", "android": "https://dc.lft.to/lastmile_qr_scan"}, "fusion_lon": 0.0, "lon": -77.0017575, "name": "5c87447ff0d36dda00529fb1b768d864", "is_reserved": 0, "is_disabled": 0}, {"lat": 38.903066833333334, "fusion_lat": 0.0, "type": "electric_scooter", "bike_id": "c6e6fe90c19aee7b045c48f60b62c49a", "rental_uris": {"ios": "https://dc.lft.to/lastmile_qr_scan", "android": "https://dc.lft.to/lastmile_qr_scan"}, "fusion_lon": 0.0, "lon": -77.06121183333333, "name": "c6e6fe90c19aee7b045c48f60b62c49a", "is_reserved": 0, "is_disabled": 0}, {"lat": 38.918426333333336, "fusion_lat": 0.0, "type": "electric_scooter", "bike_id": "d633083505673db940108bc5e50329ba", "rental_uris": {"ios": "https://dc.lft.to/lastmile_qr_scan", "android": "https://dc.lft.to/lastmile_qr_scan"}, "fusion_lon": 0.0, "lon": -77.04025416666667, "name": "d633083505673db940108bc5e50329ba", "is_reserved": 0, "is_disabled": 0}, {"lat": 38.909412333333336, "fusion_lat": 0.0, "type": "electric_scooter", "bike_id": "832d83948d43fbf3f041ee8f696f0e46", "rental_uris": {"ios": "https://dc.lft.to/lastmile_qr_scan", "android": "https://dc.lft.to/lastmile_qr_scan"}, "fusion_lon": 0.0, "lon": -77.034196, "name": "832d83948d43fbf3f041ee8f696f0e46", "is_reserved": 0, "is_disabled": 0}, {"lat": 38.87396566666666, "fusion_lat": 0.0, "type": "electric_scooter", "bike_id": "420bc7223a7dab95d592cc086e01b714", "rental_uris": {"ios": "https://dc.lft.to/lastmile_qr_scan", "android": "https://dc.lft.to/lastmile_qr_scan"}, "fusion_lon": 0.0, "lon": -77.00030683333334, "name": "420bc7223a7dab95d592cc086e01b714", "is_reserved": 0, "is_disabled": 0}, {"lat": 38.915719, "fusion_lat": 0.0, "type": "electric_scooter", "bike_id": "3dce226c9788d768a3c034a2c04a9450", "rental_uris": {"ios": "https://dc.lft.to/lastmile_qr_scan", "android": "https://dc.lft.to/lastmile_qr_scan"}, "fusion_lon": 0.0, "lon": -77.02180766666666, "name": "3dce226c9788d768a3c034a2c04a9450", "is_reserved": 0, "is_disabled": 0}, {"lat": 38.924927833333335, "fusion_lat": 0.0, "type": "electric_scooter", "bike_id": "229d8f62e7cab12a4cfc9ba94332dcf9", "rental_uris": {"ios": "https://dc.lft.to/lastmile_qr_scan", "android": "https://dc.lft.to/lastmile_qr_scan"}, "fusion_lon": 0.0, "lon": -77.02450766666666, "name": "229d8f62e7cab12a4cfc9ba94332dcf9", "is_reserved": 0, "is_disabled": 0}, {"lat": 38.911194, "fusion_lat": 0.0, "type": "electric_scooter", "bike_id": "4ee367e53f29e2ebc4c07ad2940e6488", "rental_uris": {"ios": "https://dc.lft.to/lastmile_qr_scan", "android": "https://dc.lft.to/lastmile_qr_scan"}, "fusion_lon": 0.0, "lon": -77.031877, "name": "4ee367e53f29e2ebc4c07ad2940e6488", "is_reserved": 0, "is_disabled": 0}, {"lat": 38.911772666666664, "fusion_lat": 0.0, "type": "electric_scooter", "bike_id": "3f0407cca62ea8d7619a7be7daffc775", "rental_uris": {"ios": "https://dc.lft.to/lastmile_qr_scan", "android": "https://dc.lft.to/lastmile_qr_scan"}, "fusion_lon": 0.0, "lon": -77.03508316666667, "name": "3f0407cca62ea8d7619a7be7daffc775", "is_reserved": 0, "is_disabled": 0}, {"lat": 38.91522916666667, "fusion_lat": 0.0, "type": "electric_scooter", "bike_id": "361aa8fcfd5745bac706b4f12c9372ef", "rental_uris": {"ios": "https://dc.lft.to/lastmile_qr_scan", "android": "https://dc.lft.to/lastmile_qr_scan"}, "fusion_lon": 0.0, "lon": -77.04865283333334, "name": "361aa8fcfd5745bac706b4f12c9372ef", "is_reserved": 0, "is_disabled": 0}, {"lat": 38.96162416666667, "fusion_lat": 0.0, "type": "electric_scooter", "bike_id": "4ac05c6f461a631e45f4f40531fd180b", "rental_uris": {"ios": "https://dc.lft.to/lastmile_qr_scan", "android": "https://dc.lft.to/lastmile_qr_scan"}, "fusion_lon": 0.0, "lon": -77.0736295, "name": "4ac05c6f461a631e45f4f40531fd180b", "is_reserved": 0, "is_disabled": 0}, {"lat": 38.90357683333333, "fusion_lat": 0.0, "type": "electric_bike", "bike_id": "c7f35cb608fc878d8dffb0aee9e7fdb1", "rental_uris": {"ios": "https://dc.lft.to/lastmile_qr_scan", "android": "https://dc.lft.to/lastmile_qr_scan"}, "fusion_lon": 0.0, "lon": -77.05062733333334, "name": "c7f35cb608fc878d8dffb0aee9e7fdb1", "is_reserved": 0, "is_disabled": 0}, {"lat": 38.899441333333336, "fusion_lat": 0.0, "type": "electric_scooter", "bike_id": "19c5fc8bab91078c33f53c35899fda20", "rental_uris": {"ios": "https://dc.lft.to/lastmile_qr_scan", "android": "https://dc.lft.to/lastmile_qr_scan"}, "fusion_lon": 0.0, "lon": -77.04119983333334, "name": "19c5fc8bab91078c33f53c35899fda20", "is_reserved": 0, "is_disabled": 0}, {"lat": 38.91060316666667, "fusion_lat": 0.0, "type": "electric_scooter", "bike_id": "16ff7265fd4d086273bedd5c57d6bfc9", "rental_uris": {"ios": "https://dc.lft.to/lastmile_qr_scan", "android": "https://dc.lft.to/lastmile_qr_scan"}, "fusion_lon": 0.0, "lon": -77.0343045, "name": "16ff7265fd4d086273bedd5c57d6bfc9", "is_reserved": 0, "is_disabled": 0}, {"lat": 38.896849, "fusion_lat": 0.0, "type": "electric_scooter", "bike_id": "9df239f151e354a50147921ad635dc58", "rental_uris": {"ios": "https://dc.lft.to/lastmile_qr_scan", "android": "https://dc.lft.to/lastmile_qr_scan"}, "fusion_lon": 0.0, "lon": -76.93710466666667, "name": "9df239f151e354a50147921ad635dc58", "is_reserved": 0, "is_disabled": 0}, {"lat": 38.91723616666667, "fusion_lat": 0.0, "type": "electric_scooter", "bike_id": "14bf68f7017839b68877678afac68571", "rental_uris": {"ios": "https://dc.lft.to/lastmile_qr_scan", "android": "https://dc.lft.to/lastmile_qr_scan"}, "fusion_lon": 0.0, "lon": -77.02595183333334, "name": "14bf68f7017839b68877678afac68571", "is_reserved": 0, "is_disabled": 0}, {"lat": 38.92351683333333, "fusion_lat": 0.0, "type": "electric_scooter", "bike_id": "d1ec95b6eef1833d26ce42719bf50a17", "rental_uris": {"ios": "https://dc.lft.to/lastmile_qr_scan", "android": "https://dc.lft.to/lastmile_qr_scan"}, "fusion_lon": 0.0, "lon": -77.0033245, "name": "d1ec95b6eef1833d26ce42719bf50a17", "is_reserved": 0, "is_disabled": 0}, {"lat": 38.892220333333334, "fusion_lat": 0.0, "type": "electric_scooter", "bike_id": "538e3de5f381887b235c9a3fc000ee8e", "rental_uris": {"ios": "https://dc.lft.to/lastmile_qr_scan", "android": "https://dc.lft.to/lastmile_qr_scan"}, "fusion_lon": 0.0, "lon": -77.02778533333333, "name": "538e3de5f381887b235c9a3fc000ee8e", "is_reserved": 0, "is_disabled": 0}, {"lat": 38.925858833333336, "fusion_lat": 0.0, "type": "electric_scooter", "bike_id": "d4e2b48bd9428c7c25816466aa02431f", "rental_uris": {"ios": "https://dc.lft.to/lastmile_qr_scan", "android": "https://dc.lft.to/lastmile_qr_scan"}, "fusion_lon": 0.0, "lon": -77.09688633333333, "name": "d4e2b48bd9428c7c25816466aa02431f", "is_reserved": 0, "is_disabled": 0}, {"lat": 38.91800466666667, "fusion_lat": 0.0, "type": "electric_scooter", "bike_id": "41b3102b2c5da53d079537f88a3c08e1", "rental_uris": {"ios": "https://dc.lft.to/lastmile_qr_scan", "android": "https://dc.lft.to/lastmile_qr_scan"}, "fusion_lon": 0.0, "lon": -77.02489883333334, "name": "41b3102b2c5da53d079537f88a3c08e1", "is_reserved": 0, "is_disabled": 0}, {"lat": 38.93442783333333, "fusion_lat": 0.0, "type": "electric_scooter", "bike_id": "9d3e00f5296dbcb53d4f3b9b97972d7d", "rental_uris": {"ios": "https://dc.lft.to/lastmile_qr_scan", "android": "https://dc.lft.to/lastmile_qr_scan"}, "fusion_lon": 0.0, "lon": -77.090601, "name": "9d3e00f5296dbcb53d4f3b9b97972d7d", "is_reserved": 0, "is_disabled": 0}, {"lat": 38.8757825, "fusion_lat": 0.0, "type": "electric_bike", "bike_id": "7b2cc769675f9e836384445f33083835", "rental_uris": {"ios": "https://dc.lft.to/lastmile_qr_scan", "android": "https://dc.lft.to/lastmile_qr_scan"}, "fusion_lon": 0.0, "lon": -77.23411983333334, "name": "7b2cc769675f9e836384445f33083835", "is_reserved": 0, "is_disabled": 0}, {"lat": 38.89901833333333, "fusion_lat": 0.0, "type": "electric_scooter", "bike_id": "9e2e0f7948ad9af7a1588e8a9961d346", "rental_uris": {"ios": "https://dc.lft.to/lastmile_qr_scan", "android": "https://dc.lft.to/lastmile_qr_scan"}, "fusion_lon": 0.0, "lon": -76.99960083333333, "name": "9e2e0f7948ad9af7a1588e8a9961d346", "is_reserved": 0, "is_disabled": 0}, {"lat": 38.91752, "fusion_lat": 0.0, "type": "electric_scooter", "bike_id": "55a05f7c69a3ed7e0a05c64162da27d7", "rental_uris": {"ios": "https://dc.lft.to/lastmile_qr_scan", "android": "https://dc.lft.to/lastmile_qr_scan"}, "fusion_lon": 0.0, "lon": -77.03643666666666, "name": "55a05f7c69a3ed7e0a05c64162da27d7", "is_reserved": 0, "is_disabled": 0}, {"lat": 38.90176966666667, "fusion_lat": 0.0, "type": "electric_scooter", "bike_id": "9078de3e1c9fcfd8a3bcc6ffa9c57470", "rental_uris": {"ios": "https://dc.lft.to/lastmile_qr_scan", "android": "https://dc.lft.to/lastmile_qr_scan"}, "fusion_lon": 0.0, "lon": -77.0260215, "name": "9078de3e1c9fcfd8a3bcc6ffa9c57470", "is_reserved": 0, "is_disabled": 0}, {"lat": 38.89791116666667, "fusion_lat": 0.0, "type": "electric_scooter", "bike_id": "91eba5a45af594451420ac2d6c583791", "rental_uris": {"ios": "https://dc.lft.to/lastmile_qr_scan", "android": "https://dc.lft.to/lastmile_qr_scan"}, "fusion_lon": 0.0, "lon": -77.01209666666666, "name": "91eba5a45af594451420ac2d6c583791", "is_reserved": 0, "is_disabled": 0}, {"lat": 38.895028833333335, "fusion_lat": 0.0, "type": "electric_scooter", "bike_id": "c869565ae2ab8f0335cde6b73049270d", "rental_uris": {"ios": "https://dc.lft.to/lastmile_qr_scan", "android": "https://dc.lft.to/lastmile_qr_scan"}, "fusion_lon": 0.0, "lon": -77.01100833333334, "name": "c869565ae2ab8f0335cde6b73049270d", "is_reserved": 0, "is_disabled": 0}, {"lat": 38.930991666666664, "fusion_lat": 0.0, "type": "electric_scooter", "bike_id": "4138bcb41e8565a28ca1b8b243d0cc78", "rental_uris": {"ios": "https://dc.lft.to/lastmile_qr_scan", "android": "https://dc.lft.to/lastmile_qr_scan"}, "fusion_lon": 0.0, "lon": -77.0246115, "name": "4138bcb41e8565a28ca1b8b243d0cc78", "is_reserved": 0, "is_disabled": 0}, {"lat": 38.913626, "fusion_lat": 0.0, "type": "electric_scooter", "bike_id": "7b7d096b7b3caccc8df9d11e80765e0e", "rental_uris": {"ios": "https://dc.lft.to/lastmile_qr_scan", "android": "https://dc.lft.to/lastmile_qr_scan"}, "fusion_lon": 0.0, "lon": -77.02004466666666, "name": "7b7d096b7b3caccc8df9d11e80765e0e", "is_reserved": 0, "is_disabled": 0}, {"lat": 38.906019666666666, "fusion_lat": 0.0, "type": "electric_scooter", "bike_id": "2287b41563986e17b342cb8512d567f5", "rental_uris": {"ios": "https://dc.lft.to/lastmile_qr_scan", "android": "https://dc.lft.to/lastmile_qr_scan"}, "fusion_lon": 0.0, "lon": -77.04027766666667, "name": "2287b41563986e17b342cb8512d567f5", "is_reserved": 0, "is_disabled": 0}, {"lat": 38.92078733333334, "fusion_lat": 0.0, "type": "electric_scooter", "bike_id": "69048820209308d2f0e52e5618747095", "rental_uris": {"ios": "https://dc.lft.to/lastmile_qr_scan", "android": "https://dc.lft.to/lastmile_qr_scan"}, "fusion_lon": 0.0, "lon": -76.99472416666667, "name": "69048820209308d2f0e52e5618747095", "is_reserved": 0, "is_disabled": 0}, {"lat": 38.909415, "fusion_lat": 0.0, "type": "electric_scooter", "bike_id": "b2535e1403d3d481959d434843d808fb", "rental_uris": {"ios": "https://dc.lft.to/lastmile_qr_scan", "android": "https://dc.lft.to/lastmile_qr_scan"}, "fusion_lon": 0.0, "lon": -77.04484316666667, "name": "b2535e1403d3d481959d434843d808fb", "is_reserved": 0, "is_disabled": 0}, {"lat": 38.903942, "fusion_lat": 0.0, "type": "electric_scooter", "bike_id": "28aced3609323b57055209a037947320", "rental_uris": {"ios": "https://dc.lft.to/lastmile_qr_scan", "android": "https://dc.lft.to/lastmile_qr_scan"}, "fusion_lon": 0.0, "lon": -77.00585016666666, "name": "28aced3609323b57055209a037947320", "is_reserved": 0, "is_disabled": 0}, {"lat": 38.928594, "fusion_lat": 0.0, "type": "electric_scooter", "bike_id": "22dcc8a6be3c253a59ff815f8f98153e", "rental_uris": {"ios": "https://dc.lft.to/lastmile_qr_scan", "android": "https://dc.lft.to/lastmile_qr_scan"}, "fusion_lon": 0.0, "lon": -77.032375, "name": "22dcc8a6be3c253a59ff815f8f98153e", "is_reserved": 0, "is_disabled": 0}, {"lat": 38.90011466666667, "fusion_lat": 0.0, "type": "electric_scooter", "bike_id": "dec6e35d279d9326691af6ff49db7144", "rental_uris": {"ios": "https://dc.lft.to/lastmile_qr_scan", "android": "https://dc.lft.to/lastmile_qr_scan"}, "fusion_lon": 0.0, "lon": -76.997598, "name": "dec6e35d279d9326691af6ff49db7144", "is_reserved": 0, "is_disabled": 0}, {"lat": 38.939054166666665, "fusion_lat": 0.0, "type": "electric_scooter", "bike_id": "8af615d9fe3d2203d76d973d9a92e63c", "rental_uris": {"ios": "https://dc.lft.to/lastmile_qr_scan", "android": "https://dc.lft.to/lastmile_qr_scan"}, "fusion_lon": 0.0, "lon": -77.02465216666667, "name": "8af615d9fe3d2203d76d973d9a92e63c", "is_reserved": 0, "is_disabled": 0}, {"lat": 38.904298833333335, "fusion_lat": 0.0, "type": "electric_scooter", "bike_id": "d7ee8262db5347fb753f0997efb4dcd0", "rental_uris": {"ios": "https://dc.lft.to/lastmile_qr_scan", "android": "https://dc.lft.to/lastmile_qr_scan"}, "fusion_lon": 0.0, "lon": -76.98357566666667, "name": "d7ee8262db5347fb753f0997efb4dcd0", "is_reserved": 0, "is_disabled": 0}, {"lat": 38.897248166666664, "fusion_lat": 0.0, "type": "electric_scooter", "bike_id": "6911a99c67f44c22c390daa48da15de1", "rental_uris": {"ios": "https://dc.lft.to/lastmile_qr_scan", "android": "https://dc.lft.to/lastmile_qr_scan"}, "fusion_lon": 0.0, "lon": -77.05526866666666, "name": "6911a99c67f44c22c390daa48da15de1", "is_reserved": 0, "is_disabled": 0}, {"lat": 38.9234295, "fusion_lat": 0.0, "type": "electric_scooter", "bike_id": "0fc658a19892a3d9f5509b1aff483f7a", "rental_uris": {"ios": "https://dc.lft.to/lastmile_qr_scan", "android": "https://dc.lft.to/lastmile_qr_scan"}, "fusion_lon": 0.0, "lon": -77.0517675, "name": "0fc658a19892a3d9f5509b1aff483f7a", "is_reserved": 0, "is_disabled": 0}, {"lat": 38.8922835, "fusion_lat": 0.0, "type": "electric_scooter", "bike_id": "6d65ca0643cd7a4c46f7b2493bc13118", "rental_uris": {"ios": "https://dc.lft.to/lastmile_qr_scan", "android": "https://dc.lft.to/lastmile_qr_scan"}, "fusion_lon": 0.0, "lon": -77.02755533333334, "name": "6d65ca0643cd7a4c46f7b2493bc13118", "is_reserved": 0, "is_disabled": 0}, {"lat": 38.896418, "fusion_lat": 0.0, "type": "electric_scooter", "bike_id": "428ac5fb8abfcf925231daa034f52fc2", "rental_uris": {"ios": "https://dc.lft.to/lastmile_qr_scan", "android": "https://dc.lft.to/lastmile_qr_scan"}, "fusion_lon": 0.0, "lon": -77.00925083333334, "name": "428ac5fb8abfcf925231daa034f52fc2", "is_reserved": 0, "is_disabled": 0}, {"lat": 38.90142633333333, "fusion_lat": 0.0, "type": "electric_scooter", "bike_id": "aa5187f120696affa2bd962cb63e7ef4", "rental_uris": {"ios": "https://dc.lft.to/lastmile_qr_scan", "android": "https://dc.lft.to/lastmile_qr_scan"}, "fusion_lon": 0.0, "lon": -77.04418333333334, "name": "aa5187f120696affa2bd962cb63e7ef4", "is_reserved": 0, "is_disabled": 0}, {"lat": 38.89471133333333, "fusion_lat": 0.0, "type": "electric_scooter", "bike_id": "f9388e341482491177cb2c421e55734e", "rental_uris": {"ios": "https://dc.lft.to/lastmile_qr_scan", "android": "https://dc.lft.to/lastmile_qr_scan"}, "fusion_lon": 0.0, "lon": -77.022417, "name": "f9388e341482491177cb2c421e55734e", "is_reserved": 0, "is_disabled": 0}, {"lat": 38.907388166666664, "fusion_lat": 0.0, "type": "electric_scooter", "bike_id": "1c563ff575ba6cb8ef6125b44ee33d4c", "rental_uris": {"ios": "https://dc.lft.to/lastmile_qr_scan", "android": "https://dc.lft.to/lastmile_qr_scan"}, "fusion_lon": 0.0, "lon": -77.04240483333334, "name": "1c563ff575ba6cb8ef6125b44ee33d4c", "is_reserved": 0, "is_disabled": 0}, {"lat": 38.91414, "fusion_lat": 0.0, "type": "electric_scooter", "bike_id": "5f65eefd521a8e733007fb1dddedfa33", "rental_uris": {"ios": "https://dc.lft.to/lastmile_qr_scan", "android": "https://dc.lft.to/lastmile_qr_scan"}, "fusion_lon": 0.0, "lon": -77.0120105, "name": "5f65eefd521a8e733007fb1dddedfa33", "is_reserved": 0, "is_disabled": 0}, {"lat": 38.91476183333333, "fusion_lat": 0.0, "type": "electric_scooter", "bike_id": "daa95cea7bd2601d315085a4ffbe7e5c", "rental_uris": {"ios": "https://dc.lft.to/lastmile_qr_scan", "android": "https://dc.lft.to/lastmile_qr_scan"}, "fusion_lon": 0.0, "lon": -77.04612016666667, "name": "daa95cea7bd2601d315085a4ffbe7e5c", "is_reserved": 0, "is_disabled": 0}, {"lat": 38.90518816666667, "fusion_lat": 0.0, "type": "electric_scooter", "bike_id": "7e2bde7a381b57810065ce45a6780e3b", "rental_uris": {"ios": "https://dc.lft.to/lastmile_qr_scan", "android": "https://dc.lft.to/lastmile_qr_scan"}, "fusion_lon": 0.0, "lon": -77.06451116666666, "name": "7e2bde7a381b57810065ce45a6780e3b", "is_reserved": 0, "is_disabled": 0}, {"lat": 38.9194785, "fusion_lat": 0.0, "type": "electric_scooter", "bike_id": "73bd264481120a5a3d87f58c52439078", "rental_uris": {"ios": "https://dc.lft.to/lastmile_qr_scan", "android": "https://dc.lft.to/lastmile_qr_scan"}, "fusion_lon": 0.0, "lon": -77.01898566666667, "name": "73bd264481120a5a3d87f58c52439078", "is_reserved": 0, "is_disabled": 0}, {"lat": 38.91013683333333, "fusion_lat": 0.0, "type": "electric_scooter", "bike_id": "edd37c4808e4087d8ef823bbdef798f9", "rental_uris": {"ios": "https://dc.lft.to/lastmile_qr_scan", "android": "https://dc.lft.to/lastmile_qr_scan"}, "fusion_lon": 0.0, "lon": -77.03443116666666, "name": "edd37c4808e4087d8ef823bbdef798f9", "is_reserved": 0, "is_disabled": 0}, {"lat": 38.909747333333335, "fusion_lat": 0.0, "type": "electric_scooter", "bike_id": "1aa15dff42267bef187a44e1a5a51f2c", "rental_uris": {"ios": "https://dc.lft.to/lastmile_qr_scan", "android": "https://dc.lft.to/lastmile_qr_scan"}, "fusion_lon": 0.0, "lon": -77.04874666666667, "name": "1aa15dff42267bef187a44e1a5a51f2c", "is_reserved": 0, "is_disabled": 0}, {"lat": 38.9327915, "fusion_lat": 0.0, "type": "electric_scooter", "bike_id": "916d79439e5f87e2d453cbce006f020c", "rental_uris": {"ios": "https://dc.lft.to/lastmile_qr_scan", "android": "https://dc.lft.to/lastmile_qr_scan"}, "fusion_lon": 0.0, "lon": -77.0250265, "name": "916d79439e5f87e2d453cbce006f020c", "is_reserved": 0, "is_disabled": 0}, {"lat": 38.89605933333333, "fusion_lat": 0.0, "type": "electric_scooter", "bike_id": "19226dc79d575f34205c68108ee46b6a", "rental_uris": {"ios": "https://dc.lft.to/lastmile_qr_scan", "android": "https://dc.lft.to/lastmile_qr_scan"}, "fusion_lon": 0.0, "lon": -77.04276466666667, "name": "19226dc79d575f34205c68108ee46b6a", "is_reserved": 0, "is_disabled": 0}, {"lat": 38.90123966666667, "fusion_lat": 0.0, "type": "electric_scooter", "bike_id": "87602c9e79f855b461556d0efe5d8eae", "rental_uris": {"ios": "https://dc.lft.to/lastmile_qr_scan", "android": "https://dc.lft.to/lastmile_qr_scan"}, "fusion_lon": 0.0, "lon": -77.02181616666667, "name": "87602c9e79f855b461556d0efe5d8eae", "is_reserved": 0, "is_disabled": 0}, {"lat": 38.92301666666667, "fusion_lat": 0.0, "type": "electric_bike", "bike_id": "d945d96c2c8ff19b987d943733ecf816", "rental_uris": {"ios": "https://dc.lft.to/lastmile_qr_scan", "android": "https://dc.lft.to/lastmile_qr_scan"}, "fusion_lon": 0.0, "lon": -76.99775466666667, "name": "d945d96c2c8ff19b987d943733ecf816", "is_reserved": 0, "is_disabled": 0}, {"lat": 38.966677, "fusion_lat": 0.0, "type": "electric_bike", "bike_id": "3bdc83fbcfb901b8d19e189e531fdb45", "rental_uris": {"ios": "https://dc.lft.to/lastmile_qr_scan", "android": "https://dc.lft.to/lastmile_qr_scan"}, "fusion_lon": 0.0, "lon": -76.97446766666667, "name": "3bdc83fbcfb901b8d19e189e531fdb45", "is_reserved": 0, "is_disabled": 0}, {"lat": 38.88747683333333, "fusion_lat": 0.0, "type": "electric_scooter", "bike_id": "e4f34299b5c6436327dff960dd1445bb", "rental_uris": {"ios": "https://dc.lft.to/lastmile_qr_scan", "android": "https://dc.lft.to/lastmile_qr_scan"}, "fusion_lon": 0.0, "lon": -77.02129516666666, "name": "e4f34299b5c6436327dff960dd1445bb", "is_reserved": 0, "is_disabled": 0}, {"lat": 38.8926635, "fusion_lat": 0.0, "type": "electric_scooter", "bike_id": "ace56418e5344473a8f6cc66e3c1c25d", "rental_uris": {"ios": "https://dc.lft.to/lastmile_qr_scan", "android": "https://dc.lft.to/lastmile_qr_scan"}, "fusion_lon": 0.0, "lon": -77.046763, "name": "ace56418e5344473a8f6cc66e3c1c25d", "is_reserved": 0, "is_disabled": 0}, {"lat": 38.901019166666664, "fusion_lat": 0.0, "type": "electric_scooter", "bike_id": "39b8a2fb813eeee01715229eac344863", "rental_uris": {"ios": "https://dc.lft.to/lastmile_qr_scan", "android": "https://dc.lft.to/lastmile_qr_scan"}, "fusion_lon": 0.0, "lon": -77.04538183333334, "name": "39b8a2fb813eeee01715229eac344863", "is_reserved": 0, "is_disabled": 0}, {"lat": 38.87689983333333, "fusion_lat": 0.0, "type": "electric_scooter", "bike_id": "2112dcade28d420b27ce79111c286457", "rental_uris": {"ios": "https://dc.lft.to/lastmile_qr_scan", "android": "https://dc.lft.to/lastmile_qr_scan"}, "fusion_lon": 0.0, "lon": -77.01782766666666, "name": "2112dcade28d420b27ce79111c286457", "is_reserved": 0, "is_disabled": 0}, {"lat": 38.939885833333335, "fusion_lat": 0.0, "type": "electric_scooter", "bike_id": "5e16241e8ef539eb8b42f7f5e7e8de46", "rental_uris": {"ios": "https://dc.lft.to/lastmile_qr_scan", "android": "https://dc.lft.to/lastmile_qr_scan"}, "fusion_lon": 0.0, "lon": -77.02545166666667, "name": "5e16241e8ef539eb8b42f7f5e7e8de46", "is_reserved": 0, "is_disabled": 0}, {"lat": 38.90171983333333, "fusion_lat": 0.0, "type": "electric_scooter", "bike_id": "0f761e70f17cd6385af3083db3b2d8de", "rental_uris": {"ios": "https://dc.lft.to/lastmile_qr_scan", "android": "https://dc.lft.to/lastmile_qr_scan"}, "fusion_lon": 0.0, "lon": -77.02295316666667, "name": "0f761e70f17cd6385af3083db3b2d8de", "is_reserved": 0, "is_disabled": 0}, {"lat": 38.862637, "fusion_lat": 0.0, "type": "electric_scooter", "bike_id": "50629814148608f98ebf98efff975c81", "rental_uris": {"ios": "https://dc.lft.to/lastmile_qr_scan", "android": "https://dc.lft.to/lastmile_qr_scan"}, "fusion_lon": 0.0, "lon": -76.9953525, "name": "50629814148608f98ebf98efff975c81", "is_reserved": 0, "is_disabled": 0}, {"lat": 38.87869333333333, "fusion_lat": 0.0, "type": "electric_scooter", "bike_id": "9b118cb032b908621b1b4516f7f879c7", "rental_uris": {"ios": "https://dc.lft.to/lastmile_qr_scan", "android": "https://dc.lft.to/lastmile_qr_scan"}, "fusion_lon": 0.0, "lon": -76.996825, "name": "9b118cb032b908621b1b4516f7f879c7", "is_reserved": 0, "is_disabled": 0}, {"lat": 38.92257733333334, "fusion_lat": 0.0, "type": "electric_scooter", "bike_id": "f8c598744ce0b3fdeabd3b1fe625f8e3", "rental_uris": {"ios": "https://dc.lft.to/lastmile_qr_scan", "android": "https://dc.lft.to/lastmile_qr_scan"}, "fusion_lon": 0.0, "lon": -77.01957166666666, "name": "f8c598744ce0b3fdeabd3b1fe625f8e3", "is_reserved": 0, "is_disabled": 0}, {"lat": 38.897445833333336, "fusion_lat": 0.0, "type": "electric_scooter", "bike_id": "105ecf603cd46c12e75d518bc1015e1c", "rental_uris": {"ios": "https://dc.lft.to/lastmile_qr_scan", "android": "https://dc.lft.to/lastmile_qr_scan"}, "fusion_lon": 0.0, "lon": -77.02724633333334, "name": "105ecf603cd46c12e75d518bc1015e1c", "is_reserved": 0, "is_disabled": 0}, {"lat": 38.91805866666667, "fusion_lat": 0.0, "type": "electric_scooter", "bike_id": "85bbe484241599b53e6788cb7f511f07", "rental_uris": {"ios": "https://dc.lft.to/lastmile_qr_scan", "android": "https://dc.lft.to/lastmile_qr_scan"}, "fusion_lon": 0.0, "lon": -77.03436983333333, "name": "85bbe484241599b53e6788cb7f511f07", "is_reserved": 0, "is_disabled": 0}, {"lat": 38.9176575, "fusion_lat": 0.0, "type": "electric_scooter", "bike_id": "402a44947ebd5cb6f6f50df2e4b57ee1", "rental_uris": {"ios": "https://dc.lft.to/lastmile_qr_scan", "android": "https://dc.lft.to/lastmile_qr_scan"}, "fusion_lon": 0.0, "lon": -77.02825483333334, "name": "402a44947ebd5cb6f6f50df2e4b57ee1", "is_reserved": 0, "is_disabled": 0}, {"lat": 38.924106333333334, "fusion_lat": 0.0, "type": "electric_scooter", "bike_id": "20929c163b927d60491b30601463cebe", "rental_uris": {"ios": "https://dc.lft.to/lastmile_qr_scan", "android": "https://dc.lft.to/lastmile_qr_scan"}, "fusion_lon": 0.0, "lon": -77.05063433333333, "name": "20929c163b927d60491b30601463cebe", "is_reserved": 0, "is_disabled": 0}, {"lat": 38.87146216666667, "fusion_lat": 0.0, "type": "electric_scooter", "bike_id": "a24cb3a741076c3ae805fa75fcabfaec", "rental_uris": {"ios": "https://dc.lft.to/lastmile_qr_scan", "android": "https://dc.lft.to/lastmile_qr_scan"}, "fusion_lon": 0.0, "lon": -77.00699166666666, "name": "a24cb3a741076c3ae805fa75fcabfaec", "is_reserved": 0, "is_disabled": 0}, {"lat": 38.921709166666666, "fusion_lat": 0.0, "type": "electric_scooter", "bike_id": "08a2819868330061a0552e9aefff8967", "rental_uris": {"ios": "https://dc.lft.to/lastmile_qr_scan", "android": "https://dc.lft.to/lastmile_qr_scan"}, "fusion_lon": 0.0, "lon": -77.03833266666666, "name": "08a2819868330061a0552e9aefff8967", "is_reserved": 0, "is_disabled": 0}, {"lat": 38.89999666666667, "fusion_lat": 0.0, "type": "electric_scooter", "bike_id": "27f3d7b2af47ea400cde007f82053b68", "rental_uris": {"ios": "https://dc.lft.to/lastmile_qr_scan", "android": "https://dc.lft.to/lastmile_qr_scan"}, "fusion_lon": 0.0, "lon": -77.04652783333333, "name": "27f3d7b2af47ea400cde007f82053b68", "is_reserved": 0, "is_disabled": 0}, {"lat": 38.912962, "fusion_lat": 0.0, "type": "electric_scooter", "bike_id": "5bee244979c69e2d0bd6c7f092dfe23e", "rental_uris": {"ios": "https://dc.lft.to/lastmile_qr_scan", "android": "https://dc.lft.to/lastmile_qr_scan"}, "fusion_lon": 0.0, "lon": -77.02694966666667, "name": "5bee244979c69e2d0bd6c7f092dfe23e", "is_reserved": 0, "is_disabled": 0}, {"lat": 38.920258, "fusion_lat": 0.0, "type": "electric_scooter", "bike_id": "b20d55b791e8e5c7dd61ce7205d6afa1", "rental_uris": {"ios": "https://dc.lft.to/lastmile_qr_scan", "android": "https://dc.lft.to/lastmile_qr_scan"}, "fusion_lon": 0.0, "lon": -77.03057166666666, "name": "b20d55b791e8e5c7dd61ce7205d6afa1", "is_reserved": 0, "is_disabled": 0}, {"lat": 38.8733785, "fusion_lat": 0.0, "type": "electric_scooter", "bike_id": "671b383a45aa1b8b83c6cf6bce101a12", "rental_uris": {"ios": "https://dc.lft.to/lastmile_qr_scan", "android": "https://dc.lft.to/lastmile_qr_scan"}, "fusion_lon": 0.0, "lon": -77.01773616666667, "name": "671b383a45aa1b8b83c6cf6bce101a12", "is_reserved": 0, "is_disabled": 0}, {"lat": 38.89044166666667, "fusion_lat": 0.0, "type": "electric_scooter", "bike_id": "da307f4dbbf208dd3506f8f3319f9b90", "rental_uris": {"ios": "https://dc.lft.to/lastmile_qr_scan", "android": "https://dc.lft.to/lastmile_qr_scan"}, "fusion_lon": 0.0, "lon": -76.9375845, "name": "da307f4dbbf208dd3506f8f3319f9b90", "is_reserved": 0, "is_disabled": 0}, {"lat": 38.893538666666664, "fusion_lat": 0.0, "type": "electric_scooter", "bike_id": "38869ab74038480e93cef6940c2dc023", "rental_uris": {"ios": "https://dc.lft.to/lastmile_qr_scan", "android": "https://dc.lft.to/lastmile_qr_scan"}, "fusion_lon": 0.0, "lon": -77.00340283333334, "name": "38869ab74038480e93cef6940c2dc023", "is_reserved": 0, "is_disabled": 0}, {"lat": 38.92738416666667, "fusion_lat": 0.0, "type": "electric_scooter", "bike_id": "e62ca1925b173ac106dde8b63540053c", "rental_uris": {"ios": "https://dc.lft.to/lastmile_qr_scan", "android": "https://dc.lft.to/lastmile_qr_scan"}, "fusion_lon": 0.0, "lon": -77.0326775, "name": "e62ca1925b173ac106dde8b63540053c", "is_reserved": 0, "is_disabled": 0},