{"data": {"bikes": [{"is_reserved": 0, "type": "electric_scooter", "fusion_lat": 0.0, "is_disabled": 0, "rental_uris": {"ios": "https://dc.lft.to/lastmile_qr_scan", "android": "https://dc.lft.to/lastmile_qr_scan"}, "bike_id": "b061ad71af828e90491f8aee6ba3cd34", "lat": 38.89977066666667, "name": "b061ad71af828e90491f8aee6ba3cd34", "lon": -77.04830666666666, "fusion_lon": 0.0}, {"is_reserved": 0, "type": "electric_scooter", "fusion_lat": 0.0, "is_disabled": 0, "rental_uris": {"ios": "https://dc.lft.to/lastmile_qr_scan", "android": "https://dc.lft.to/lastmile_qr_scan"}, "bike_id": "95ca0d0da2719c5af53383ddd9141d92", "lat": 38.893301, "name": "95ca0d0da2719c5af53383ddd9141d92", "lon": -77.01962633333333, "fusion_lon": 0.0}, {"is_reserved": 0, "type": "electric_scooter", "fusion_lat": 0.0, "is_disabled": 0, "rental_uris": {"ios": "https://dc.lft.to/lastmile_qr_scan", "android": "https://dc.lft.to/lastmile_qr_scan"}, "bike_id": "b43e6af56b234fe9343d4d0cb4616866", "lat": 38.89819166666667, "name": "b43e6af56b234fe9343d4d0cb4616866", "lon": -77.04671533333334, "fusion_lon": 0.0}, {"is_reserved": 0, "type": "electric_scooter", "fusion_lat": 0.0, "is_disabled": 0, "rental_uris": {"ios": "https://dc.lft.to/lastmile_qr_scan", "android": "https://dc.lft.to/lastmile_qr_scan"}, "bike_id": "61efc41313c0c6fc09c540fa837a8b20", "lat": 38.9095805, "name": "61efc41313c0c6fc09c540fa837a8b20", "lon": -77.02384166666667, "fusion_lon": 0.0}, {"is_reserved": 0, "type": "electric_scooter", "fusion_lat": 0.0, "is_disabled": 0, "rental_uris": {"ios": "https://dc.lft.to/lastmile_qr_scan", "android": "https://dc.lft.to/lastmile_qr_scan"}, "bike_id": "00773e268b8341038c5ae2282cfc158d", "lat": 38.93533733333334, "name": "00773e268b8341038c5ae2282cfc158d", "lon": -77.05453366666667, "fusion_lon": 0.0}, {"is_reserved": 0, "type": "electric_scooter", "fusion_lat": 0.0, "is_disabled": 0, "rental_uris": {"ios": "https://dc.lft.to/lastmile_qr_scan", "android": "https://dc.lft.to/lastmile_qr_scan"}, "bike_id": "1f6be6b7433c7b9ff3bf1e8d6b8152f3", "lat": 38.870736666666666, "name": "1f6be6b7433c7b9ff3bf1e8d6b8152f3", "lon": -76.98131216666667, "fusion_lon": 0.0}, {"is_reserved": 0, "type": "electric_scooter", "fusion_lat": 0.0, "is_disabled": 0, "rental_uris": {"ios": "https://dc.lft.to/lastmile_qr_scan", "android": "https://dc.lft.to/lastmile_qr_scan"}, "bike_id": "536bfb867bda4b8171f67c079ba0a759", "lat": 38.92246383333333, "name": "536bfb867bda4b8171f67c079ba0a759", "lon": -77.0281525, "fusion_lon": 0.0}, {"is_reserved": 0, "type": "electric_scooter", "fusion_lat": 0.0, "is_disabled": 0, "rental_uris": {"ios": "https://dc.lft.to/lastmile_qr_scan", "android": "https://dc.lft.to/lastmile_qr_scan"}, "bike_id": "816ad50bbb95be76601cbd2c072da9d7", "lat": 38.90400616666667, "name": "816ad50bbb95be76601cbd2c072da9d7", "lon": -77.02011666666667, "fusion_lon": 0.0}, {"is_reserved": 0, "type": "electric_scooter", "fusion_lat": 0.0, "is_disabled": 0, "rental_uris": {"ios": "https://dc.lft.to/lastmile_qr_scan", "android": "https://dc.lft.to/lastmile_qr_scan"}, "bike_id": "f6c056ab0cdd4bcaf04395ed07a1a747", "lat": 38.907494666666665, "name": "f6c056ab0cdd4bcaf04395ed07a1a747", "lon": -76.9990925, "fusion_lon": 0.0}, {"is_reserved": 0, "type": "electric_scooter", "fusion_lat": 0.0, "is_disabled": 0, "rental_uris": {"ios": "https://dc.lft.to/lastmile_qr_scan", "android": "https://dc.lft.to/lastmile_qr_scan"}, "bike_id": "841eb4e6e136c6b7484efb94b2d329e9", "lat": 38.922966, "name": "841eb4e6e136c6b7484efb94b2d329e9", "lon": -77.02078133333333, "fusion_lon": 0.0}, {"is_reserved": 0, "type": "electric_scooter", "fusion_lat": 0.0, "is_disabled": 0, "rental_uris": {"ios": "https://dc.lft.to/lastmile_qr_scan", "android": "https://dc.lft.to/lastmile_qr_scan"}, "bike_id": "e1bcbefdab00dfd27500748ca973c413", "lat": 38.91339683333333, "name": "e1bcbefdab00dfd27500748ca973c413", "lon": -77.01059983333333, "fusion_lon": 0.0}, {"is_reserved": 0, "type": "electric_bike", "fusion_lat": 0.0, "is_disabled": 0, "rental_uris": {"ios": "https://dc.lft.to/lastmile_qr_scan", "android": "https://dc.lft.to/lastmile_qr_scan"}, "bike_id": "12f4801e83d6e7a596ce51729b5da575", "lat": 38.96132433333333, "name": "12f4801e83d6e7a596ce51729b5da575", "lon": -77.03280016666666, "fusion_lon": 0.0}, {"is_reserved": 0, "type": "electric_scooter", "fusion_lat": 0.0, "is_disabled": 0, "rental_uris": {"ios": "https://dc.lft.to/lastmile_qr_scan", "android": "https://dc.lft.to/lastmile_qr_scan"}, "bike_id": "68247579dfddcde9372a130e7cb26ab2", "lat": 38.8771945, "name": "68247579dfddcde9372a130e7cb26ab2", "lon": -77.00601116666667, "fusion_lon": 0.0}, {"is_reserved": 0, "type": "electric_scooter", "fusion_lat": 0.0, "is_disabled": 0, "rental_uris": {"ios": "https://dc.lft.to/lastmile_qr_scan", "android": "https://dc.lft.to/lastmile_qr_scan"}, "bike_id": "77412cb053e9734fb881494daa71e0c0", "lat": 38.946828833333335, "name": "77412cb053e9734fb881494daa71e0c0", "lon": -77.03285116666666, "fusion_lon": 0.0}, {"is_reserved": 0, "type": "electric_scooter", "fusion_lat": 0.0, "is_disabled": 0, "rental_uris": {"ios": "https://dc.lft.to/lastmile_qr_scan", "android": "https://dc.lft.to/lastmile_qr_scan"}, "bike_id": "a257200ce17522f81ec9788e2e69709c", "lat": 38.93898383333333, "name": "a257200ce17522f81ec9788e2e69709c", "lon": -77.03285533333333, "fusion_lon": 0.0}, {"is_reserved": 0, "type": "electric_scooter", "fusion_lat": 0.0, "is_disabled": 0, "rental_uris": {"ios": "https://dc.lft.to/lastmile_qr_scan", "android": "https://dc.lft.to/lastmile_qr_scan"}, "bike_id": "306d98eb41e0cda6eb8ae14f3dfc200e", "lat": 38.931937, "name": "306d98eb41e0cda6eb8ae14f3dfc200e", "lon": -77.03261816666667, "fusion_lon": 0.0}, {"is_reserved": 0, "type": "electric_scooter", "fusion_lat": 0.0, "is_disabled": 0, "rental_uris": {"ios": "https://dc.lft.to/lastmile_qr_scan", "android": "https://dc.lft.to/lastmile_qr_scan"}, "bike_id": "f0bcae4d411b3c05035ea74a0add9f20", "lat": 38.8844905, "name": "f0bcae4d411b3c05035ea74a0add9f20", "lon": -76.95099983333333, "fusion_lon": 0.0}, {"is_reserved": 0, "type": "electric_bike", "fusion_lat": 0.0, "is_disabled": 0, "rental_uris": {"ios": "https://dc.lft.to/lastmile_qr_scan", "android": "https://dc.lft.to/lastmile_qr_scan"}, "bike_id": "8b65f9b831805488cff85f4565d00d04", "lat": 38.81333733333334, "name": "8b65f9b831805488cff85f4565d00d04", "lon": -77.05101033333334, "fusion_lon": 0.0}, {"is_reserved": 0, "type": "electric_scooter", "fusion_lat": 0.0, "is_disabled": 0, "rental_uris": {"ios": "https://dc.lft.to/lastmile_qr_scan", "android": "https://dc.lft.to/lastmile_qr_scan"}, "bike_id": "70095e03aced55fc1078be9a583998b1", "lat": 38.905330666666664, "name": "70095e03aced55fc1078be9a583998b1", "lon": -77.030908, "fusion_lon": 0.0}, {"is_reserved": 0, "type": "electric_scooter", "fusion_lat": 0.0, "is_disabled": 0, "rental_uris": {"ios": "https://dc.lft.to/lastmile_qr_scan", "android": "https://dc.lft.to/lastmile_qr_scan"}, "bike_id": "dd0832c54121bcb2c59374905924df7b", "lat": 38.88274533333333, "name": "dd0832c54121bcb2c59374905924df7b", "lon": -76.99521566666667, "fusion_lon": 0.0}, {"is_reserved": 0, "type": "electric_scooter", "fusion_lat": 0.0, "is_disabled": 0, "rental_uris": {"ios": "https://dc.lft.to/lastmile_qr_scan", "android": "https://dc.lft.to/lastmile_qr_scan"}, "bike_id": "1e07ffbce8f61057ca18aea78b408c2a", "lat": 38.903322833333334, "name": "1e07ffbce8f61057ca18aea78b408c2a", "lon": -76.9758965, "fusion_lon": 0.0}, {"is_reserved": 0, "type": "electric_scooter", "fusion_lat": 0.0, "is_disabled": 0, "rental_uris": {"ios": "https://dc.lft.to/lastmile_qr_scan", "android": "https://dc.lft.to/lastmile_qr_scan"}, "bike_id": "be95088bad87c50943127c8d6b4aaa60", "lat": 38.8965515, "name": "be95088bad87c50943127c8d6b4aaa60", "lon": -77.01216116666667, "fusion_lon": 0.0}, {"is_reserved": 0, "type": "electric_scooter", "fusion_lat": 0.0, "is_disabled": 0, "rental_uris": {"ios": "https://dc.lft.to/lastmile_qr_scan", "android": "https://dc.lft.to/lastmile_qr_scan"}, "bike_id": "7cd39524e84bb117ac7987504f1d0544", "lat": 38.90957016666667, "name": "7cd39524e84bb117ac7987504f1d0544", "lon": -77.02375983333333, "fusion_lon": 0.0}, {"is_reserved": 0, "type": "electric_scooter", "fusion_lat": 0.0, "is_disabled": 0, "rental_uris": {"ios": "https://dc.lft.to/lastmile_qr_scan", "android": "https://dc.lft.to/lastmile_qr_scan"}, "bike_id": "782699d9f3c26ec16c68e1f231d74e7b", "lat": 38.91195166666667, "name": "782699d9f3c26ec16c68e1f231d74e7b", "lon": -77.00220766666666, "fusion_lon": 0.0}, {"is_reserved": 0, "type": "electric_scooter", "fusion_lat": 0.0, "is_disabled": 0, "rental_uris": {"ios": "https://dc.lft.to/lastmile_qr_scan", "android": "https://dc.lft.to/lastmile_qr_scan"}, "bike_id": "3defd179b3301ea1c7815a0793b24e0d", "lat": 38.923830333333335, "name": "3defd179b3301ea1c7815a0793b24e0d", "lon": -77.0518325, "fusion_lon": 0.0}, {"is_reserved": 0, "type": "electric_scooter", "fusion_lat": 0.0, "is_disabled": 0, "rental_uris": {"ios": "https://dc.lft.to/lastmile_qr_scan", "android": "https://dc.lft.to/lastmile_qr_scan"}, "bike_id": "ee192404d5b86588a14aa7c378f1ab0d", "lat": 38.92418933333333, "name": "ee192404d5b86588a14aa7c378f1ab0d", "lon": -77.0296785, "fusion_lon": 0.0}, {"is_reserved": 0, "type": "electric_scooter", "fusion_lat": 0.0, "is_disabled": 0, "rental_uris": {"ios": "https://dc.lft.to/lastmile_qr_scan", "android": "https://dc.lft.to/lastmile_qr_scan"}, "bike_id": "33f9d7acad8fc60c9de7dfbb1d6c3b60", "lat": 38.92067316666667, "name": "33f9d7acad8fc60c9de7dfbb1d6c3b60", "lon": -77.02818983333333, "fusion_lon": 0.0}, {"is_reserved": 0, "type": "electric_scooter", "fusion_lat": 0.0, "is_disabled": 0, "rental_uris": {"ios": "https://dc.lft.to/lastmile_qr_scan", "android": "https://dc.lft.to/lastmile_qr_scan"}, "bike_id": "3523e069a5484b20bbeb0b7f3026c7d1", "lat": 38.9046355, "name": "3523e069a5484b20bbeb0b7f3026c7d1", "lon": -77.01682933333333, "fusion_lon": 0.0}, {"is_reserved": 0, "type": "electric_scooter", "fusion_lat": 0.0, "is_disabled": 0, "rental_uris": {"ios": "https://dc.lft.to/lastmile_qr_scan", "android": "https://dc.lft.to/lastmile_qr_scan"}, "bike_id": "ab25ca045342ae18ab3c2edbb3afb201", "lat": 38.90242216666667, "name": "ab25ca045342ae18ab3c2edbb3afb201", "lon": -77.01686416666666, "fusion_lon": 0.0}, {"is_reserved": 0, "type": "electric_scooter", "fusion_lat": 0.0, "is_disabled": 0, "rental_uris": {"ios": "https://dc.lft.to/lastmile_qr_scan", "android": "https://dc.lft.to/lastmile_qr_scan"}, "bike_id": "ed99899be66ec2b9dd27dde1e319bd1a", "lat": 38.937827166666665, "name": "ed99899be66ec2b9dd27dde1e319bd1a", "lon": -76.99367433333333, "fusion_lon": 0.0}, {"is_reserved": 0, "type": "electric_scooter", "fusion_lat": 0.0, "is_disabled": 0, "rental_uris": {"ios": "https://dc.lft.to/lastmile_qr_scan", "android": "https://dc.lft.to/lastmile_qr_scan"}, "bike_id": "7e07d54ab062903ad3bf0e9845c806f0", "lat": 38.921204833333334, "name": "7e07d54ab062903ad3bf0e9845c806f0", "lon": -77.04580416666667, "fusion_lon": 0.0}, {"is_reserved": 0, "type": "electric_scooter", "fusion_lat": 0.0, "is_disabled": 0, "rental_uris": {"ios": "https://dc.lft.to/lastmile_qr_scan", "android": "https://dc.lft.to/lastmile_qr_scan"}, "bike_id": "88a335bb7d46c6a5e452000469f3f798", "lat": 38.87691933333333, "name": "88a335bb7d46c6a5e452000469f3f798", "lon": -76.99620616666667, "fusion_lon": 0.0}, {"is_reserved": 0, "type": "electric_scooter", "fusion_lat": 0.0, "is_disabled": 0, "rental_uris": {"ios": "https://dc.lft.to/lastmile_qr_scan", "android": "https://dc.lft.to/lastmile_qr_scan"}, "bike_id": "db049696f7229232edc67b106dc44a52", "lat": 38.905418, "name": "db049696f7229232edc67b106dc44a52", "lon": -77.05694666666666, "fusion_lon": 0.0}, {"is_reserved": 0, "type": "electric_scooter", "fusion_lat": 0.0, "is_disabled": 0, "rental_uris": {"ios": "https://dc.lft.to/lastmile_qr_scan", "android": "https://dc.lft.to/lastmile_qr_scan"}, "bike_id": "4fe60bbe4fb47b08bd951a0417147236", "lat": 38.918215000000004, "name": "4fe60bbe4fb47b08bd951a0417147236", "lon": -77.02316333333333, "fusion_lon": 0.0}, {"is_reserved": 0, "type": "electric_bike", "fusion_lat": 0.0, "is_disabled": 0, "rental_uris": {"ios": "https://dc.lft.to/lastmile_qr_scan", "android": "https://dc.lft.to/lastmile_qr_scan"}, "bike_id": "069daaff56d446443d83b9b2a10f4ff1", "lat": 38.844764833333336, "name": "069daaff56d446443d83b9b2a10f4ff1", "lon": -76.99592833333334, "fusion_lon": 0.0}, {"is_reserved": 0, "type": "electric_scooter", "fusion_lat": 0.0, "is_disabled": 0, "rental_uris": {"ios": "https://dc.lft.to/lastmile_qr_scan", "android": "https://dc.lft.to/lastmile_qr_scan"}, "bike_id": "fa1eadaf861faede739227b825a9a71b", "lat": 38.938740833333334, "name": "fa1eadaf861faede739227b825a9a71b", "lon": -77.02956366666666, "fusion_lon": 0.0}, {"is_reserved": 0, "type": "electric_scooter", "fusion_lat": 0.0, "is_disabled": 0, "rental_uris": {"ios": "https://dc.lft.to/lastmile_qr_scan", "android": "https://dc.lft.to/lastmile_qr_scan"}, "bike_id": "d4bdecb9fa747cb18a769e11ab9f94bd", "lat": 38.940377833333336, "name": "d4bdecb9fa747cb18a769e11ab9f94bd", "lon": -77.08393916666667, "fusion_lon": 0.0}, {"is_reserved": 0, "type": "electric_bike", "fusion_lat": 0.0, "is_disabled": 0, "rental_uris": {"ios": "https://dc.lft.to/lastmile_qr_scan", "android": "https://dc.lft.to/lastmile_qr_scan"}, "bike_id": "8a1d5d83e614a04723678275a744773b", "lat": 38.88131283333333, "name": "8a1d5d83e614a04723678275a744773b", "lon": -77.016801, "fusion_lon": 0.0}, {"is_reserved": 0, "type": "electric_scooter", "fusion_lat": 0.0, "is_disabled": 0, "rental_uris": {"ios": "https://dc.lft.to/lastmile_qr_scan", "android": "https://dc.lft.to/lastmile_qr_scan"}, "bike_id": "6422e3b91326f2e44d9627c11a5fbb39", "lat": 38.90390816666667, "name": "6422e3b91326f2e44d9627c11a5fbb39", "lon": -77.03539, "fusion_lon": 0.0}, {"is_reserved": 0, "type": "electric_bike", "fusion_lat": 0.0, "is_disabled": 0, "rental_uris": {"ios": "https://dc.lft.to/lastmile_qr_scan", "android": "https://dc.lft.to/lastmile_qr_scan"}, "bike_id": "641f2cd63e7ba4fcfd7f7c6aa4592227", "lat": 38.87167683333333, "name": "641f2cd63e7ba4fcfd7f7c6aa4592227", "lon": -77.08817916666666, "fusion_lon": 0.0}, {"is_reserved": 0, "type": "electric_scooter", "fusion_lat": 0.0, "is_disabled": 0, "rental_uris": {"ios": "https://dc.lft.to/lastmile_qr_scan", "android": "https://dc.lft.to/lastmile_qr_scan"}, "bike_id": "34360530d0d6f9c0d932973092bd6f0f", "lat": 38.93101633333333, "name": "34360530d0d6f9c0d932973092bd6f0f", "lon": -77.02474816666667, "fusion_lon": 0.0}, {"is_reserved": 0, "type": "electric_scooter", "fusion_lat": 0.0, "is_disabled": 0, "rental_uris": {"ios": "https://dc.lft.to/lastmile_qr_scan", "android": "https://dc.lft.to/lastmile_qr_scan"}, "bike_id": "253fe0441fadee1dd6f8154406f69ce7", "lat": 38.8817375, "name": "253fe0441fadee1dd6f8154406f69ce7", "lon": -76.92542016666667, "fusion_lon": 0.0}, {"is_reserved": 0, "type": "electric_scooter", "fusion_lat": 0.0, "is_disabled": 0, "rental_uris": {"ios": "https://dc.lft.to/lastmile_qr_scan", "android": "https://dc.lft.to/lastmile_qr_scan"}, "bike_id": "0f14081834bd499861a59623279869f8", "lat": 38.897432, "name": "0f14081834bd499861a59623279869f8", "lon": -77.04591383333333, "fusion_lon": 0.0}, {"is_reserved": 0, "type": "electric_scooter", "fusion_lat": 0.0, "is_disabled": 0, "rental_uris": {"ios": "https://dc.lft.to/lastmile_qr_scan", "android": "https://dc.lft.to/lastmile_qr_scan"}, "bike_id": "68c62a99c0e79dcb58a496b5a480dd9e", "lat": 38.855523, "name": "68c62a99c0e79dcb58a496b5a480dd9e", "lon": -76.9865745, "fusion_lon": 0.0}, {"is_reserved": 0, "type": "electric_scooter", "fusion_lat": 0.0, "is_disabled": 0, "rental_uris": {"ios": "https://dc.lft.to/lastmile_qr_scan", "android": "https://dc.lft.to/lastmile_qr_scan"}, "bike_id": "177f2c28fb1aa3dacac87d8730ea6759", "lat": 38.95553066666667, "name": "177f2c28fb1aa3dacac87d8730ea6759", "lon": -77.033257, "fusion_lon": 0.0}, {"is_reserved": 0, "type": "electric_bike", "fusion_lat": 0.0, "is_disabled": 0, "rental_uris": {"ios": "https://dc.lft.to/lastmile_qr_scan", "android": "https://dc.lft.to/lastmile_qr_scan"}, "bike_id": "996e0023456b4bc027f8c221aebe43c0", "lat": 38.9744405, "name": "996e0023456b4bc027f8c221aebe43c0", "lon": -77.09614316666666, "fusion_lon": 0.0}, {"is_reserved": 0, "type": "electric_scooter", "fusion_lat": 0.0, "is_disabled": 0, "rental_uris": {"ios": "https://dc.lft.to/lastmile_qr_scan", "android": "https://dc.lft.to/lastmile_qr_scan"}, "bike_id": "d906f2c076bdffe2de43136b1be51310", "lat": 38.920677, "name": "d906f2c076bdffe2de43136b1be51310", "lon": -77.03166166666666, "fusion_lon": 0.0}, {"is_reserved": 0, "type": "electric_scooter", "fusion_lat": 0.0, "is_disabled": 0, "rental_uris": {"ios": "https://dc.lft.to/lastmile_qr_scan", "android": "https://dc.lft.to/lastmile_qr_scan"}, "bike_id": "4d579ce2d83da7f7028b2cd7c99a33b7", "lat": 38.923617666666665, "name": "4d579ce2d83da7f7028b2cd7c99a33b7", "lon": -77.0513065, "fusion_lon": 0.0}, {"is_reserved": 0, "type": "electric_scooter", "fusion_lat": 0.0, "is_disabled": 0, "rental_uris": {"ios": "https://dc.lft.to/lastmile_qr_scan", "android": "https://dc.lft.to/lastmile_qr_scan"}, "bike_id": "eec16b75d7297a5ff77b4d60ee755975", "lat": 38.909052, "name": "eec16b75d7297a5ff77b4d60ee755975", "lon": -76.9911435, "fusion_lon": 0.0}, {"is_reserved": 0, "type": "electric_scooter", "fusion_lat": 0.0, "is_disabled": 0, "rental_uris": {"ios": "https://dc.lft.to/lastmile_qr_scan", "android": "https://dc.lft.to/lastmile_qr_scan"}, "bike_id": "d466172579673e0b74f29593af9fb901", "lat": 38.874754, "name": "d466172579673e0b74f29593af9fb901", "lon": -76.99174366666666, "fusion_lon": 0.0}, {"is_reserved": 0, "type": "electric_scooter", "fusion_lat": 0.0, "is_disabled": 0, "rental_uris": {"ios": "https://dc.lft.to/lastmile_qr_scan", "android": "https://dc.lft.to/lastmile_qr_scan"}, "bike_id": "c48bdb1e6be7b7673fcf80eb96804d14", "lat": 38.91776466666666, "name": "c48bdb1e6be7b7673fcf80eb96804d14", "lon": -77.02312216666667, "fusion_lon": 0.0}, {"is_reserved": 0, "type": "electric_bike", "fusion_lat": 0.0, "is_disabled": 0, "rental_uris": {"ios": "https://dc.lft.to/lastmile_qr_scan", "android": "https://dc.lft.to/lastmile_qr_scan"}, "bike_id": "2b839845cfb03885891cb2ef99bad9c7", "lat": 38.804012666666665, "name": "2b839845cfb03885891cb2ef99bad9c7", "lon": -77.11327533333333, "fusion_lon": 0.0}, {"is_reserved": 0, "type": "electric_scooter", "fusion_lat": 0.0, "is_disabled": 0, "rental_uris": {"ios": "https://dc.lft.to/lastmile_qr_scan", "android": "https://dc.lft.to/lastmile_qr_scan"}, "bike_id": "b72864321eb7de629a4c6825c5702aa8", "lat": 38.93271, "name": "b72864321eb7de629a4c6825c5702aa8", "lon": -77.02097033333334, "fusion_lon": 0.0}, {"is_reserved": 0, "type": "electric_bike", "fusion_lat": 0.0, "is_disabled": 0, "rental_uris": {"ios": "https://dc.lft.to/lastmile_qr_scan", "android": "https://dc.lft.to/lastmile_qr_scan"}, "bike_id": "de23a0a83d3000ca041eb59fa0fa1615", "lat": 38.855949, "name": "de23a0a83d3000ca041eb59fa0fa1615", "lon": -76.97284266666666, "fusion_lon": 0.0}, {"is_reserved": 0, "type": "electric_scooter", "fusion_lat": 0.0, "is_disabled": 0, "rental_uris": {"ios": "https://dc.lft.to/lastmile_qr_scan", "android": "https://dc.lft.to/lastmile_qr_scan"}, "bike_id": "2e43509e0559793b25b6490e451fa376", "lat": 38.9079875, "name": "2e43509e0559793b25b6490e451fa376", "lon": -77.00220066666667, "fusion_lon": 0.0}, {"is_reserved": 0, "type": "electric_scooter", "fusion_lat": 0.0, "is_disabled": 0, "rental_uris": {"ios": "https://dc.lft.to/lastmile_qr_scan", "android": "https://dc.lft.to/lastmile_qr_scan"}, "bike_id": "a25ec97d987010b83b83b5adb082da0e", "lat": 38.89953, "name": "a25ec97d987010b83b83b5adb082da0e", "lon": -77.04754416666667, "fusion_lon": 0.0}, {"is_reserved": 0, "type": "electric_bike", "fusion_lat": 0.0, "is_disabled": 0, "rental_uris": {"ios": "https://dc.lft.to/lastmile_qr_scan", "android": "https://dc.lft.to/lastmile_qr_scan"}, "bike_id": "ab967996ccc88a4d64a20cb7abad0a7c", "lat": 39.022971, "name": "ab967996ccc88a4d64a20cb7abad0a7c", "lon": -77.02108583333333, "fusion_lon": 0.0}, {"is_reserved": 0, "type": "electric_bike", "fusion_lat": 0.0, "is_disabled": 0, "rental_uris": {"ios": "https://dc.lft.to/lastmile_qr_scan", "android": "https://dc.lft.to/lastmile_qr_scan"}, "bike_id": "e66637e08d4b2f634a86696b7748a0cf", "lat": 38.974804, "name": "e66637e08d4b2f634a86696b7748a0cf", "lon": -76.98670783333333, "fusion_lon": 0.0}, {"is_reserved": 0, "type": "electric_scooter", "fusion_lat": 0.0, "is_disabled": 0, "rental_uris": {"ios": "https://dc.lft.to/lastmile_qr_scan", "android": "https://dc.lft.to/lastmile_qr_scan"}, "bike_id": "ea470fa7f73795ff18627a5c20a86f24", "lat": 38.8837175, "name": "ea470fa7f73795ff18627a5c20a86f24", "lon": -76.99518283333333, "fusion_lon": 0.0}, {"is_reserved": 0, "type": "electric_scooter", "fusion_lat": 0.0, "is_disabled": 0, "rental_uris": {"ios": "https://dc.lft.to/lastmile_qr_scan", "android": "https://dc.lft.to/lastmile_qr_scan"}, "bike_id": "090c1b93ee39af5902d8370002aa8ea9", "lat": 38.90660716666667, "name": "090c1b93ee39af5902d8370002aa8ea9", "lon": -77.01630616666667, "fusion_lon": 0.0}, {"is_reserved": 0, "type": "electric_bike", "fusion_lat": 0.0, "is_disabled": 0, "rental_uris": {"ios": "https://dc.lft.to/lastmile_qr_scan", "android": "https://dc.lft.to/lastmile_qr_scan"}, "bike_id": "fb85086f30a0c53082288c18b5db14d3", "lat": 38.89428683333333, "name": "fb85086f30a0c53082288c18b5db14d3", "lon": -77.09450233333334, "fusion_lon": 0.0}, {"is_reserved": 0, "type": "electric_scooter", "fusion_lat": 0.0, "is_disabled": 0, "rental_uris": {"ios": "https://dc.lft.to/lastmile_qr_scan", "android": "https://dc.lft.to/lastmile_qr_scan"}, "bike_id": "6e1ec6ffafd80799f4e33781b133fac5", "lat": 38.89848116666667, "name": "6e1ec6ffafd80799f4e33781b133fac5", "lon": -77.01876066666667, "fusion_lon": 0.0}, {"is_reserved": 0, "type": "electric_bike", "fusion_lat": 0.0, "is_disabled": 0, "rental_uris": {"ios": "https://dc.lft.to/lastmile_qr_scan", "android": "https://dc.lft.to/lastmile_qr_scan"}, "bike_id": "9dd8d9a8edc4ff24d49b83fa623a9fea", "lat": 38.93044883333334, "name": "9dd8d9a8edc4ff24d49b83fa623a9fea", "lon": -77.0776845, "fusion_lon": 0.0}, {"is_reserved": 0, "type": "electric_bike", "fusion_lat": 0.0, "is_disabled": 0, "rental_uris": {"ios": "https://dc.lft.to/lastmile_qr_scan", "android": "https://dc.lft.to/lastmile_qr_scan"}, "bike_id": "b6794665fe4799b4e78a46c661f1f19f", "lat": 38.840977333333335, "name": "b6794665fe4799b4e78a46c661f1f19f", "lon": -76.97029483333333, "fusion_lon": 0.0}, {"is_reserved": 0, "type": "electric_bike", "fusion_lat": 0.0, "is_disabled": 0, "rental_uris": {"ios": "https://dc.lft.to/lastmile_qr_scan", "android": "https://dc.lft.to/lastmile_qr_scan"}, "bike_id": "7eec859a277475e60e87b6d5f263127d", "lat": 38.9822585, "name": "7eec859a277475e60e87b6d5f263127d", "lon": -77.0958165, "fusion_lon": 0.0}, {"is_reserved": 0, "type": "electric_scooter", "fusion_lat": 0.0, "is_disabled": 0, "rental_uris": {"ios": "https://dc.lft.to/lastmile_qr_scan", "android": "https://dc.lft.to/lastmile_qr_scan"}, "bike_id": "b374aa066db20246a78055135e06e7b0", "lat": 38.91212983333333, "name": "b374aa066db20246a78055135e06e7b0", "lon": -77.038418, "fusion_lon": 0.0}, {"is_reserved": 0, "type": "electric_scooter", "fusion_lat": 0.0, "is_disabled": 0, "rental_uris": {"ios": "https://dc.lft.to/lastmile_qr_scan", "android": "https://dc.lft.to/lastmile_qr_scan"}, "bike_id": "52240a5a96fa7654f64d4dd20c096bb5", "lat": 38.92334016666667, "name": "52240a5a96fa7654f64d4dd20c096bb5", "lon": -77.03527916666667, "fusion_lon": 0.0}, {"is_reserved": 0, "type": "electric_scooter", "fusion_lat": 0.0, "is_disabled": 0, "rental_uris": {"ios": "https://dc.lft.to/lastmile_qr_scan", "android": "https://dc.lft.to/lastmile_qr_scan"}, "bike_id": "46fe64140035bda462212d2b8883eaa7", "lat": 38.902735166666666, "name": "46fe64140035bda462212d2b8883eaa7", "lon": -77.02763633333333, "fusion_lon": 0.0}, {"is_reserved": 0, "type": "electric_scooter", "fusion_lat": 0.0, "is_disabled": 0, "rental_uris": {"ios": "https://dc.lft.to/lastmile_qr_scan", "android": "https://dc.lft.to/lastmile_qr_scan"}, "bike_id": "880f6c3ed37e1eea4d703f1ded3ffc21", "lat": 38.91368933333333, "name": "880f6c3ed37e1eea4d703f1ded3ffc21", "lon": -77.044786, "fusion_lon": 0.0}, {"is_reserved": 0, "type": "electric_scooter", "fusion_lat": 0.0, "is_disabled": 0, "rental_uris": {"ios": "https://dc.lft.to/lastmile_qr_scan", "android": "https://dc.lft.to/lastmile_qr_scan"}, "bike_id": "f80bf415e277ae812015e4126dd6a0fe", "lat": 38.88711283333333, "name": "f80bf415e277ae812015e4126dd6a0fe", "lon": -76.98382133333334, "fusion_lon": 0.0}, {"is_reserved": 0, "type": "electric_scooter", "fusion_lat": 0.0, "is_disabled": 0, "rental_uris": {"ios": "https://dc.lft.to/lastmile_qr_scan", "android": "https://dc.lft.to/lastmile_qr_scan"}, "bike_id": "9a7c4ac91f25d75daaf85b04d0ca915f", "lat": 38.9224065, "name": "9a7c4ac91f25d75daaf85b04d0ca915f", "lon": -77.01848516666666, "fusion_lon": 0.0}, {"is_reserved": 0, "type": "electric_scooter", "fusion_lat": 0.0, "is_disabled": 0, "rental_uris": {"ios": "https://dc.lft.to/lastmile_qr_scan", "android": "https://dc.lft.to/lastmile_qr_scan"}, "bike_id": "f2bc4d8b7ec2caafeb7df0341d683fac", "lat": 38.94087616666667, "name": "f2bc4d8b7ec2caafeb7df0341d683fac", "lon": -77.02307783333333, "fusion_lon": 0.0}, {"is_reserved": 0, "type": "electric_scooter", "fusion_lat": 0.0, "is_disabled": 0, "rental_uris": {"ios": "https://dc.lft.to/lastmile_qr_scan", "android": "https://dc.lft.to/lastmile_qr_scan"}, "bike_id": "7e7562824aa3a55df6ff5d9150fab1b0", "lat": 38.9470285, "name": "7e7562824aa3a55df6ff5d9150fab1b0", "lon": -77.0328895, "fusion_lon": 0.0}, {"is_reserved": 0, "type": "electric_scooter", "fusion_lat": 0.0, "is_disabled": 0, "rental_uris": {"ios": "https://dc.lft.to/lastmile_qr_scan", "android": "https://dc.lft.to/lastmile_qr_scan"}, "bike_id": "3e90aa419485e22ffd686588cfe8d879", "lat": 38.887385, "name": "3e90aa419485e22ffd686588cfe8d879", "lon": -77.01395033333333, "fusion_lon": 0.0}, {"is_reserved": 0, "type": "electric_scooter", "fusion_lat": 0.0, "is_disabled": 0, "rental_uris": {"ios": "https://dc.lft.to/lastmile_qr_scan", "android": "https://dc.lft.to/lastmile_qr_scan"}, "bike_id": "25fb7eb942b9038f76f34123fe27d741", "lat": 38.90123083333334, "name": "25fb7eb942b9038f76f34123fe27d741", "lon": -77.0400225, "fusion_lon": 0.0}, {"is_reserved": 0, "type": "electric_scooter", "fusion_lat": 0.0, "is_disabled": 0, "rental_uris": {"ios": "https://dc.lft.to/lastmile_qr_scan", "android": "https://dc.lft.to/lastmile_qr_scan"}, "bike_id": "9c466ca0db1690aa6c47d9e434d6b995", "lat": 38.957379333333336, "name": "9c466ca0db1690aa6c47d9e434d6b995", "lon": -77.02425016666666, "fusion_lon": 0.0}, {"is_reserved": 0, "type": "electric_scooter", "fusion_lat": 0.0, "is_disabled": 0, "rental_uris": {"ios": "https://dc.lft.to/lastmile_qr_scan", "android": "https://dc.lft.to/lastmile_qr_scan"}, "bike_id": "8472446497bf2edd7bdcdab49f1e3d43", "lat": 38.89302133333333, "name": "8472446497bf2edd7bdcdab49f1e3d43", "lon": -77.012443, "fusion_lon": 0.0}, {"is_reserved": 0, "type": "electric_scooter", "fusion_lat": 0.0, "is_disabled": 0, "rental_uris": {"ios": "https://dc.lft.to/lastmile_qr_scan", "android": "https://dc.lft.to/lastmile_qr_scan"}, "bike_id": "da7b570b55585bf16a8c07845cff9888", "lat": 38.87851083333334, "name": "da7b570b55585bf16a8c07845cff9888", "lon": -77.00569616666667, "fusion_lon": 0.0}, {"is_reserved": 0, "type": "electric_scooter", "fusion_lat": 0.0, "is_disabled": 0, "rental_uris": {"ios": "https://dc.lft.to/lastmile_qr_scan", "android": "https://dc.lft.to/lastmile_qr_scan"}, "bike_id": "94b3436291872bb5319d9975fb618fee", "lat": 38.90392533333333, "name": "94b3436291872bb5319d9975fb618fee", "lon": -76.9894435, "fusion_lon": 0.0}, {"is_reserved": 0, "type": "electric_scooter", "fusion_lat": 0.0, "is_disabled": 0, "rental_uris": {"ios": "https://dc.lft.to/lastmile_qr_scan", "android": "https://dc.lft.to/lastmile_qr_scan"}, "bike_id": "32071595290ff6b452566b6792122ba0", "lat": 38.917409666666664, "name": "32071595290ff6b452566b6792122ba0", "lon": -77.06885066666666, "fusion_lon": 0.0}, {"is_reserved": 0, "type": "electric_bike", "fusion_lat": 0.0, "is_disabled": 0, "rental_uris": {"ios": "https://dc.lft.to/lastmile_qr_scan", "android": "https://dc.lft.to/lastmile_qr_scan"}, "bike_id": "7f371626b9fb7696f79cca46a80fe1c9", "lat": 38.928713, "name": "7f371626b9fb7696f79cca46a80fe1c9", "lon": -76.96106066666667, "fusion_lon": 0.0}, {"is_reserved": 0, "type": "electric_scooter", "fusion_lat": 0.0, "is_disabled": 0, "rental_uris": {"ios": "https://dc.lft.to/lastmile_qr_scan", "android": "https://dc.lft.to/lastmile_qr_scan"}, "bike_id": "88491b536c2a08d36f9b3a27ac05257d", "lat": 38.92630233333333, "name": "88491b536c2a08d36f9b3a27ac05257d", "lon": -77.05304316666667, "fusion_lon": 0.0}, {"is_reserved": 0, "type": "electric_bike", "fusion_lat": 0.0, "is_disabled": 0, "rental_uris": {"ios": "https://dc.lft.to/lastmile_qr_scan", "android": "https://dc.lft.to/lastmile_qr_scan"}, "bike_id": "d1ea4cb69c1355963f804b2504c6fb0c", "lat": 38.804831166666666, "name": "d1ea4cb69c1355963f804b2504c6fb0c", "lon": -76.991074, "fusion_lon": 0.0}, {"is_reserved": 0, "type": "electric_scooter", "fusion_lat": 0.0, "is_disabled": 0, "rental_uris": {"ios": "https://dc.lft.to/lastmile_qr_scan", "android": "https://dc.lft.to/lastmile_qr_scan"}, "bike_id": "092699f14345b57e7bc9df34c41b7329", "lat": 38.91266433333333, "name": "092699f14345b57e7bc9df34c41b7329", "lon": -77.03873183333333, "fusion_lon": 0.0}, {"is_reserved": 0, "type": "electric_scooter", "fusion_lat": 0.0, "is_disabled": 0, "rental_uris": {"ios": "https://dc.lft.to/lastmile_qr_scan", "android": "https://dc.lft.to/lastmile_qr_scan"}, "bike_id": "a7c60f5dc17e83aaff288d8c0a2863b8", "lat": 38.909725333333334, "name": "a7c60f5dc17e83aaff288d8c0a2863b8", "lon": -77.04599683333333, "fusion_lon": 0.0}, {"is_reserved": 0, "type": "electric_bike", "fusion_lat": 0.0, "is_disabled": 0, "rental_uris": {"ios": "https://dc.lft.to/lastmile_qr_scan", "android": "https://dc.lft.to/lastmile_qr_scan"}, "bike_id": "402ac712a1fa9957a6bdc8b9ab03d8ef", "lat": 38.92950333333334, "name": "402ac712a1fa9957a6bdc8b9ab03d8ef", "lon": -76.97565966666667, "fusion_lon": 0.0}, {"is_reserved": 0, "type": "electric_scooter", "fusion_lat": 0.0, "is_disabled": 0, "rental_uris": {"ios": "https://dc.lft.to/lastmile_qr_scan", "android": "https://dc.lft.to/lastmile_qr_scan"}, "bike_id": "d450d0e12cf26f5b6ec9ec540a46225d", "lat": 38.894122833333334, "name": "d450d0e12cf26f5b6ec9ec540a46225d", "lon": -77.010825, "fusion_lon": 0.0}, {"is_reserved": 0, "type": "electric_scooter", "fusion_lat": 0.0, "is_disabled": 0, "rental_uris": {"ios": "https://dc.lft.to/lastmile_qr_scan", "android": "https://dc.lft.to/lastmile_qr_scan"}, "bike_id": "0264c51da534c7ee390e88c7c58126f1", "lat": 38.907898833333334, "name": "0264c51da534c7ee390e88c7c58126f1", "lon": -77.04351433333333, "fusion_lon": 0.0}, {"is_reserved": 0, "type": "electric_scooter", "fusion_lat": 0.0, "is_disabled": 0, "rental_uris": {"ios": "https://dc.lft.to/lastmile_qr_scan", "android": "https://dc.lft.to/lastmile_qr_scan"}, "bike_id": "ce88db3ff66dfa5f24cdd7fe2223c3cd", "lat": 38.887105166666665, "name": "ce88db3ff66dfa5f24cdd7fe2223c3cd", "lon": -76.983838, "fusion_lon": 0.0}, {"is_reserved": 0, "type": "electric_scooter", "fusion_lat": 0.0, "is_disabled": 0, "rental_uris": {"ios": "https://dc.lft.to/lastmile_qr_scan", "android": "https://dc.lft.to/lastmile_qr_scan"}, "bike_id": "1a670747fd1b6f06868a91c844e4c759", "lat": 38.906937666666664, "name": "1a670747fd1b6f06868a91c844e4c759", "lon": -77.01016216666666, "fusion_lon": 0.0}, {"is_reserved": 0, "type": "electric_bike", "fusion_lat": 0.0, "is_disabled": 0, "rental_uris": {"ios": "https://dc.lft.to/lastmile_qr_scan", "android": "https://dc.lft.to/lastmile_qr_scan"}, "bike_id": "5e6479727abb7ebeed8c7e9e10345086", "lat": 38.945147666666664, "name": "5e6479727abb7ebeed8c7e9e10345086", "lon": -77.00676733333333, "fusion_lon": 0.0}, {"is_reserved": 0, "type": "electric_scooter", "fusion_lat": 0.0, "is_disabled": 0, "rental_uris": {"ios": "https://dc.lft.to/lastmile_qr_scan", "android": "https://dc.lft.to/lastmile_qr_scan"}, "bike_id": "594387d851e14d03789b49f9230fd32f", "lat": 38.93008533333333, "name": "594387d851e14d03789b49f9230fd32f", "lon": -77.03786033333333, "fusion_lon": 0.0}, {"is_reserved": 0, "type": "electric_scooter", "fusion_lat": 0.0, "is_disabled": 0, "rental_uris": {"ios": "https://dc.lft.to/lastmile_qr_scan", "android": "https://dc.lft.to/lastmile_qr_scan"}, "bike_id": "2afce50a3bfac7fb74d3156f3660a6f9", "lat": 38.925516, "name": "2afce50a3bfac7fb74d3156f3660a6f9", "lon": -77.00325416666666, "fusion_lon": 0.0}, {"is_reserved": 0, "type": "electric_scooter", "fusion_lat": 0.0, "is_disabled": 0, "rental_uris": {"ios": "https://dc.lft.to/lastmile_qr_scan", "android": "https://dc.lft.to/lastmile_qr_scan"}, "bike_id": "02573ab39f596fb268579b9ad8b7b044", "lat": 38.90781333333334, "name": "02573ab39f596fb268579b9ad8b7b044", "lon": -77.072595, "fusion_lon": 0.0}, {"is_reserved": 0, "type": "electric_scooter", "fusion_lat": 0.0, "is_disabled": 0, "rental_uris": {"ios": "https://dc.lft.to/lastmile_qr_scan", "android": "https://dc.lft.to/lastmile_qr_scan"}, "bike_id": "7128779a84de2900ea7caf677cc9df44", "lat": 38.93661733333333, "name": "7128779a84de2900ea7caf677cc9df44", "lon": -77.0661065, "fusion_lon": 0.0}, {"is_reserved": 0, "type": "electric_scooter", "fusion_lat": 0.0, "is_disabled": 0, "rental_uris": {"ios": "https://dc.lft.to/lastmile_qr_scan", "android": "https://dc.lft.to/lastmile_qr_scan"}, "bike_id": "666a05dc31bd0abd035c5263858bbd61", "lat": 38.90199533333333, "name": "666a05dc31bd0abd035c5263858bbd61", "lon": -77.0246635, "fusion_lon": 0.0}, {"is_reserved": 0, "type": "electric_scooter", "fusion_lat": 0.0, "is_disabled": 0, "rental_uris": {"ios": "https://dc.lft.to/lastmile_qr_scan", "android": "https://dc.lft.to/lastmile_qr_scan"}, "bike_id": "0201ce7d5af4f87bd04aa15363752565", "lat": 38.900292666666665, "name": "0201ce7d5af4f87bd04aa15363752565", "lon": -77.03309666666667, "fusion_lon": 0.0}, {"is_reserved": 0, "type": "electric_scooter", "fusion_lat": 0.0, "is_disabled": 0, "rental_uris": {"ios": "https://dc.lft.to/lastmile_qr_scan", "android": "https://dc.lft.to/lastmile_qr_scan"}, "bike_id": "2b786a864d529ef3aa63399fe0aac5e8", "lat": 38.90458183333333, "name": "2b786a864d529ef3aa63399fe0aac5e8", "lon": -77.017202, "fusion_lon": 0.0}, {"is_reserved": 0, "type": "electric_scooter", "fusion_lat": 0.0, "is_disabled": 0, "rental_uris": {"ios": "https://dc.lft.to/lastmile_qr_scan", "android": "https://dc.lft.to/lastmile_qr_scan"}, "bike_id": "0d274fa4664df7e39667690f2908f5ee", "lat": 38.906311333333335, "name": "0d274fa4664df7e39667690f2908f5ee", "lon": -77.0296285, "fusion_lon": 0.0}, {"is_reserved": 0, "type": "electric_scooter", "fusion_lat": 0.0, "is_disabled": 0, "rental_uris": {"ios": "https://dc.lft.to/lastmile_qr_scan", "android": "https://dc.lft.to/lastmile_qr_scan"}, "bike_id": "57342c7fe88768bf397ea4413aa178af", "lat": 38.920421, "name": "57342c7fe88768bf397ea4413aa178af", "lon": -77.04043, "fusion_lon": 0.0}, {"is_reserved": 0, "type": "electric_scooter", "fusion_lat": 0.0, "is_disabled": 0, "rental_uris": {"ios": "https://dc.lft.to/lastmile_qr_scan", "android": "https://dc.lft.to/lastmile_qr_scan"}, "bike_id": "a5e9caeed5032aeaf19587cd4c7c8a4f", "lat": 38.9359285, "name": "a5e9caeed5032aeaf19587cd4c7c8a4f", "lon": -77.074275, "fusion_lon": 0.0}, {"is_reserved": 0, "type": "electric_scooter", "fusion_lat": 0.0, "is_disabled": 0, "rental_uris": {"ios": "https://dc.lft.to/lastmile_qr_scan", "android": "https://dc.lft.to/lastmile_qr_scan"}, "bike_id": "d9459285ec5fdfad5ad3b70c158c13b7", "lat": 38.893417, "name": "d9459285ec5fdfad5ad3b70c158c13b7", "lon": -76.98558983333334, "fusion_lon": 0.0}, {"is_reserved": 0, "type": "electric_scooter", "fusion_lat": 0.0, "is_disabled": 0, "rental_uris": {"ios": "https://dc.lft.to/lastmile_qr_scan", "android": "https://dc.lft.to/lastmile_qr_scan"}, "bike_id": "985935960228e441fb5a4e46c69a20d9", "lat": 38.877266, "name": "985935960228e441fb5a4e46c69a20d9", "lon": -77.0059675, "fusion_lon": 0.0}, {"is_reserved": 0, "type": "electric_scooter", "fusion_lat": 0.0, "is_disabled": 0, "rental_uris": {"ios": "https://dc.lft.to/lastmile_qr_scan", "android": "https://dc.lft.to/lastmile_qr_scan"}, "bike_id": "c93d83d81051d531e7d8f299fa526e92", "lat": 38.928050166666665, "name": "c93d83d81051d531e7d8f299fa526e92", "lon": -77.0369765, "fusion_lon": 0.0}, {"is_reserved": 0, "type": "electric_scooter", "fusion_lat": 0.0, "is_disabled": 0, "rental_uris": {"ios": "https://dc.lft.to/lastmile_qr_scan", "android": "https://dc.lft.to/lastmile_qr_scan"}, "bike_id": "88b4ec8f2863451f2dfc2f5bc5e712ab", "lat": 38.917026666666665, "name": "88b4ec8f2863451f2dfc2f5bc5e712ab", "lon": -77.040422, "fusion_lon": 0.0}, {"is_reserved": 0, "type": "electric_scooter", "fusion_lat": 0.0, "is_disabled": 0, "rental_uris": {"ios": "https://dc.lft.to/lastmile_qr_scan", "android": "https://dc.lft.to/lastmile_qr_scan"}, "bike_id": "46508c45982e20c28944e2720991f824", "lat": 38.91868066666667, "name": "46508c45982e20c28944e2720991f824", "lon": -77.03537766666666, "fusion_lon": 0.0}, {"is_reserved": 0, "type": "electric_scooter", "fusion_lat": 0.0, "is_disabled": 0, "rental_uris": {"ios": "https://dc.lft.to/lastmile_qr_scan", "android": "https://dc.lft.to/lastmile_qr_scan"}, "bike_id": "28c967acc3aac675e79fcd67bf9ccf4f", "lat": 38.95586866666667, "name": "28c967acc3aac675e79fcd67bf9ccf4f", "lon": -77.0178595, "fusion_lon": 0.0}, {"is_reserved": 0, "type": "electric_scooter", "fusion_lat": 0.0, "is_disabled": 0, "rental_uris": {"ios": "https://dc.lft.to/lastmile_qr_scan", "android": "https://dc.lft.to/lastmile_qr_scan"}, "bike_id": "20929fdd028ca9e0617a4f147dfb3f5d", "lat": 38.873734, "name": "20929fdd028ca9e0617a4f147dfb3f5d", "lon": -77.00129316666667, "fusion_lon": 0.0}, {"is_reserved": 0, "type": "electric_scooter", "fusion_lat": 0.0, "is_disabled": 0, "rental_uris": {"ios": "https://dc.lft.to/lastmile_qr_scan", "android": "https://dc.lft.to/lastmile_qr_scan"}, "bike_id": "edf5d443a8507669d46ddd059d0e6f2f", "lat": 38.932662, "name": "edf5d443a8507669d46ddd059d0e6f2f", "lon": -77.02097283333333, "fusion_lon": 0.0}, {"is_reserved": 0, "type": "electric_scooter", "fusion_lat": 0.0, "is_disabled": 0, "rental_uris": {"ios": "https://dc.lft.to/lastmile_qr_scan", "android": "https://dc.lft.to/lastmile_qr_scan"}, "bike_id": "5f2ec872bc49d3373bced1b7789b67b7", "lat": 38.92384766666667, "name": "5f2ec872bc49d3373bced1b7789b67b7", "lon": -77.02962133333334, "fusion_lon": 0.0}, {"is_reserved": 0, "type": "electric_scooter", "fusion_lat": 0.0, "is_disabled": 0, "rental_uris": {"ios": "https://dc.lft.to/lastmile_qr_scan", "android": "https://dc.lft.to/lastmile_qr_scan"}, "bike_id": "ed1269915b405c1a577dcbf4f03a41a4", "lat": 38.908551, "name": "ed1269915b405c1a577dcbf4f03a41a4", "lon": -77.02359283333334, "fusion_lon": 0.0}, {"is_reserved": 0, "type": "electric_bike", "fusion_lat": 0.0, "is_disabled": 0, "rental_uris": {"ios": "https://dc.lft.to/lastmile_qr_scan", "android": "https://dc.lft.to/lastmile_qr_scan"}, "bike_id": "e8c3cc6d306e4a5601dcf980a1b3a38b", "lat": 39.02651, "name": "e8c3cc6d306e4a5601dcf980a1b3a38b", "lon": -77.03686666666667, "fusion_lon": 0.0}, {"is_reserved": 0, "type": "electric_scooter", "fusion_lat": 0.0, "is_disabled": 0, "rental_uris": {"ios": "https://dc.lft.to/lastmile_qr_scan", "android": "https://dc.lft.to/lastmile_qr_scan"}, "bike_id": "2911daf8ce513a134295ab530fde6a6c", "lat": 38.92195316666667, "name": "2911daf8ce513a134295ab530fde6a6c", "lon": -77.02043416666666, "fusion_lon": 0.0}, {"is_reserved": 0, "type": "electric_scooter", "fusion_lat": 0.0, "is_disabled": 0, "rental_uris": {"ios": "https://dc.lft.to/lastmile_qr_scan", "android": "https://dc.lft.to/lastmile_qr_scan"}, "bike_id": "60aa6e2681fb09d83188ac8368662eb1", "lat": 38.914061833333335, "name": "60aa6e2681fb09d83188ac8368662eb1", "lon": -77.02053716666667, "fusion_lon": 0.0}, {"is_reserved": 0, "type": "electric_scooter", "fusion_lat": 0.0, "is_disabled": 0, "rental_uris": {"ios": "https://dc.lft.to/lastmile_qr_scan", "android": "https://dc.lft.to/lastmile_qr_scan"}, "bike_id": "3657dccac8a5ce8aeea0e0bba947d252", "lat": 38.88042566666667, "name": "3657dccac8a5ce8aeea0e0bba947d252", "lon": -77.01733383333334, "fusion_lon": 0.0}, {"is_reserved": 0, "type": "electric_scooter", "fusion_lat": 0.0, "is_disabled": 0, "rental_uris": {"ios": "https://dc.lft.to/lastmile_qr_scan", "android": "https://dc.lft.to/lastmile_qr_scan"}, "bike_id": "9396fd8b4b07b80375308320555f7131", "lat": 38.900907833333335, "name": "9396fd8b4b07b80375308320555f7131", "lon": -76.98333116666667, "fusion_lon": 0.0}, {"is_reserved": 0, "type": "electric_scooter", "fusion_lat": 0.0, "is_disabled": 0, "rental_uris": {"ios": "https://dc.lft.to/lastmile_qr_scan", "android": "https://dc.lft.to/lastmile_qr_scan"}, "bike_id": "ea71a5ff57f7a4f3ea4019caa11b4943", "lat": 38.92764, "name": "ea71a5ff57f7a4f3ea4019caa11b4943", "lon": -77.05268166666667, "fusion_lon": 0.0}, {"is_reserved": 0, "type": "electric_scooter", "fusion_lat": 0.0, "is_disabled": 0, "rental_uris": {"ios": "https://dc.lft.to/lastmile_qr_scan", "android": "https://dc.lft.to/lastmile_qr_scan"}, "bike_id": "125c59936cd0c55e1f2091acd2397199", "lat": 38.89746783333333, "name": "125c59936cd0c55e1f2091acd2397199", "lon": -76.946934, "fusion_lon": 0.0}, {"is_reserved": 0, "type": "electric_scooter", "fusion_lat": 0.0, "is_disabled": 0, "rental_uris": {"ios": "https://dc.lft.to/lastmile_qr_scan", "android": "https://dc.lft.to/lastmile_qr_scan"}, "bike_id": "dac69a8f718bfc08fa0890b5c13ba3a8", "lat": 38.8862305, "name": "dac69a8f718bfc08fa0890b5c13ba3a8", "lon": -76.926375, "fusion_lon": 0.0}, {"is_reserved": 0, "type": "electric_scooter", "fusion_lat": 0.0, "is_disabled": 0, "rental_uris": {"ios": "https://dc.lft.to/lastmile_qr_scan", "android": "https://dc.lft.to/lastmile_qr_scan"}, "bike_id": "307254b34cd0b2e54d5888e7f5240416", "lat": 38.928111333333334, "name": "307254b34cd0b2e54d5888e7f5240416", "lon": -77.04333266666667, "fusion_lon": 0.0}, {"is_reserved": 0, "type": "electric_scooter", "fusion_lat": 0.0, "is_disabled": 0, "rental_uris": {"ios": "https://dc.lft.to/lastmile_qr_scan", "android": "https://dc.lft.to/lastmile_qr_scan"}, "bike_id": "1448f22831782f428be5e4979ce9127e", "lat": 38.87925633333333, "name": "1448f22831782f428be5e4979ce9127e", "lon": -77.02157683333333, "fusion_lon": 0.0}, {"is_reserved": 0, "type": "electric_scooter", "fusion_lat": 0.0, "is_disabled": 0, "rental_uris": {"ios": "https://dc.lft.to/lastmile_qr_scan", "android": "https://dc.lft.to/lastmile_qr_scan"}, "bike_id": "64a3773dd76e9a5b966f9321a170a8ea", "lat": 38.911108666666664, "name": "64a3773dd76e9a5b966f9321a170a8ea", "lon": -77.0116395, "fusion_lon": 0.0}, {"is_reserved": 0, "type": "electric_scooter", "fusion_lat": 0.0, "is_disabled": 0, "rental_uris": {"ios": "https://dc.lft.to/lastmile_qr_scan", "android": "https://dc.lft.to/lastmile_qr_scan"}, "bike_id": "d8c2a2a8efbcfd382ec0216de330f221", "lat": 38.88580483333333, "name": "d8c2a2a8efbcfd382ec0216de330f221", "lon": -77.000359, "fusion_lon": 0.0}, {"is_reserved": 0, "type": "electric_bike", "fusion_lat": 0.0, "is_disabled": 0, "rental_uris": {"ios": "https://dc.lft.to/lastmile_qr_scan", "android": "https://dc.lft.to/lastmile_qr_scan"}, "bike_id": "95a0030c4f515d16995471bf5b328629", "lat": 38.945137333333335, "name": "95a0030c4f515d16995471bf5b328629", "lon": -76.96804066666667, "fusion_lon": 0.0}, {"is_reserved": 0, "type": "electric_scooter", "fusion_lat": 0.0, "is_disabled": 0, "rental_uris": {"ios": "https://dc.lft.to/lastmile_qr_scan", "android": "https://dc.lft.to/lastmile_qr_scan"}, "bike_id": "daa7d44616bd9d0c20d140085538b6fa", "lat": 38.9106475, "name": "daa7d44616bd9d0c20d140085538b6fa", "lon": -77.0265745, "fusion_lon": 0.0}, {"is_reserved": 0, "type": "electric_scooter", "fusion_lat": 0.0, "is_disabled": 0, "rental_uris": {"ios": "https://dc.lft.to/lastmile_qr_scan", "android": "https://dc.lft.to/lastmile_qr_scan"}, "bike_id": "d42318192e1d10ec38f04232205fef56", "lat": 38.9195245, "name": "d42318192e1d10ec38f04232205fef56", "lon": -77.002326, "fusion_lon": 0.0}, {"is_reserved": 0, "type": "electric_scooter", "fusion_lat": 0.0, "is_disabled": 0, "rental_uris": {"ios": "https://dc.lft.to/lastmile_qr_scan", "android": "https://dc.lft.to/lastmile_qr_scan"}, "bike_id": "23cafcb33f03beae5f2bbe71ced0bf52", "lat": 38.939732166666666, "name": "23cafcb33f03beae5f2bbe71ced0bf52", "lon": -77.0343205, "fusion_lon": 0.0}, {"is_reserved": 0, "type": "electric_scooter", "fusion_lat": 0.0, "is_disabled": 0, "rental_uris": {"ios": "https://dc.lft.to/lastmile_qr_scan", "android": "https://dc.lft.to/lastmile_qr_scan"}, "bike_id": "ebebf59415f98f040f8abfd571fe11ad", "lat": 38.8974705, "name": "ebebf59415f98f040f8abfd571fe11ad", "lon": -77.04371383333333, "fusion_lon": 0.0}, {"is_reserved": 0, "type": "electric_scooter", "fusion_lat": 0.0, "is_disabled": 0, "rental_uris": {"ios": "https://dc.lft.to/lastmile_qr_scan", "android": "https://dc.lft.to/lastmile_qr_scan"}, "bike_id": "e9d85df53505759807b506b7df439c1f", "lat": 38.91705283333334, "name": "e9d85df53505759807b506b7df439c1f", "lon": -77.09219016666667, "fusion_lon": 0.0}, {"is_reserved": 0, "type": "electric_bike", "fusion_lat": 0.0, "is_disabled": 0, "rental_uris": {"ios": "https://dc.lft.to/lastmile_qr_scan", "android": "https://dc.lft.to/lastmile_qr_scan"}, "bike_id": "86556e5b128bde5949d156244cfe3b9f", "lat": 38.96778483333333, "name": "86556e5b128bde5949d156244cfe3b9f", "lon": -76.9965175, "fusion_lon": 0.0}, {"is_reserved": 0, "type": "electric_scooter", "fusion_lat": 0.0, "is_disabled": 0, "rental_uris": {"ios": "https://dc.lft.to/lastmile_qr_scan", "android": "https://dc.lft.to/lastmile_qr_scan"}, "bike_id": "3ba7d7129df788214aeea7cd7bd4e30a", "lat": 38.915792333333336, "name": "3ba7d7129df788214aeea7cd7bd4e30a", "lon": -77.02009783333334, "fusion_lon": 0.0}, {"is_reserved": 0, "type": "electric_scooter", "fusion_lat": 0.0, "is_disabled": 0, "rental_uris": {"ios": "https://dc.lft.to/lastmile_qr_scan", "android": "https://dc.lft.to/lastmile_qr_scan"}, "bike_id": "2502129fd85280b14455122ebced0694", "lat": 38.923714333333336, "name": "2502129fd85280b14455122ebced0694", "lon": -77.072856, "fusion_lon": 0.0}, {"is_reserved": 0, "type": "electric_scooter", "fusion_lat": 0.0, "is_disabled": 0, "rental_uris": {"ios": "https://dc.lft.to/lastmile_qr_scan", "android": "https://dc.lft.to/lastmile_qr_scan"}, "bike_id": "b8a0fb46e88cd62dafb0a4636bbccb0e", "lat": 38.90027283333333, "name": "b8a0fb46e88cd62dafb0a4636bbccb0e", "lon": -77.0118555, "fusion_lon": 0.0}, {"is_reserved": 0, "type": "electric_scooter", "fusion_lat": 0.0, "is_disabled": 0, "rental_uris": {"ios": "https://dc.lft.to/lastmile_qr_scan", "android": "https://dc.lft.to/lastmile_qr_scan"}, "bike_id": "ad970603485ea3f79e903d21aaff7e8b", "lat": 38.915552, "name": "ad970603485ea3f79e903d21aaff7e8b", "lon": -77.0412925, "fusion_lon": 0.0}, {"is_reserved": 0, "type": "electric_scooter", "fusion_lat": 0.0, "is_disabled": 0, "rental_uris": {"ios": "https://dc.lft.to/lastmile_qr_scan", "android": "https://dc.lft.to/lastmile_qr_scan"}, "bike_id": "d50f8134d899693d4af236ba7c484228", "lat": 38.93540266666667, "name": "d50f8134d899693d4af236ba7c484228", "lon": -77.057468, "fusion_lon": 0.0}, {"is_reserved": 0, "type": "electric_scooter", "fusion_lat": 0.0, "is_disabled": 0, "rental_uris": {"ios": "https://dc.lft.to/lastmile_qr_scan", "android": "https://dc.lft.to/lastmile_qr_scan"}, "bike_id": "234107c19974d7569ddf6cadefd861d0", "lat": 38.88698683333333, "name": "234107c19974d7569ddf6cadefd861d0", "lon": -77.00064766666667, "fusion_lon": 0.0}, {"is_reserved": 0, "type": "electric_scooter", "fusion_lat": 0.0, "is_disabled": 0, "rental_uris": {"ios": "https://dc.lft.to/lastmile_qr_scan", "android": "https://dc.lft.to/lastmile_qr_scan"}, "bike_id": "60456ec63e82f7eb51917a5b49456df4", "lat": 38.878394166666666, "name": "60456ec63e82f7eb51917a5b49456df4", "lon": -77.00587616666667, "fusion_lon": 0.0}, {"is_reserved": 0, "type": "electric_scooter", "fusion_lat": 0.0, "is_disabled": 0, "rental_uris": {"ios": "https://dc.lft.to/lastmile_qr_scan", "android": "https://dc.lft.to/lastmile_qr_scan"}, "bike_id": "1db0688b3c7be0ed778dada837135ec8", "lat": 38.92056683333333, "name": "1db0688b3c7be0ed778dada837135ec8", "lon": -77.04398566666667, "fusion_lon": 0.0}, {"is_reserved": 0, "type": "electric_scooter", "fusion_lat": 0.0, "is_disabled": 0, "rental_uris": {"ios": "https://dc.lft.to/lastmile_qr_scan", "android": "https://dc.lft.to/lastmile_qr_scan"}, "bike_id": "d21a21700a004bda11cc6d502e9bd98f", "lat": 38.920161666666665, "name": "d21a21700a004bda11cc6d502e9bd98f", "lon": -77.07138566666667, "fusion_lon": 0.0}, {"is_reserved": 0, "type": "electric_scooter", "fusion_lat": 0.0, "is_disabled": 0, "rental_uris": {"ios": "https://dc.lft.to/lastmile_qr_scan", "android": "https://dc.lft.to/lastmile_qr_scan"}, "bike_id": "206bd79a67de897159e7290501fd97f9", "lat": 38.9211405, "name": "206bd79a67de897159e7290501fd97f9", "lon": -77.04574966666667, "fusion_lon": 0.0}, {"is_reserved": 0, "type": "electric_scooter", "fusion_lat": 0.0, "is_disabled": 0, "rental_uris": {"ios": "https://dc.lft.to/lastmile_qr_scan", "android": "https://dc.lft.to/lastmile_qr_scan"}, "bike_id": "c0bbf186b80ba2bb70dfcff125da1bde", "lat": 38.897321833333336, "name": "c0bbf186b80ba2bb70dfcff125da1bde", "lon": -77.04149716666667, "fusion_lon": 0.0}, {"is_reserved": 0, "type": "electric_scooter", "fusion_lat": 0.0, "is_disabled": 0, "rental_uris": {"ios": "https://dc.lft.to/lastmile_qr_scan", "android": "https://dc.lft.to/lastmile_qr_scan"}, "bike_id": "d0604fb300a421ff0129c25cde957fe1", "lat": 38.93012933333333, "name": "d0604fb300a421ff0129c25cde957fe1", "lon": -77.02099666666666, "fusion_lon": 0.0}, {"is_reserved": 0, "type": "electric_scooter", "fusion_lat": 0.0, "is_disabled": 0, "rental_uris": {"ios": "https://dc.lft.to/lastmile_qr_scan", "android": "https://dc.lft.to/lastmile_qr_scan"}, "bike_id": "6fb62a54ce0bf17f3f301038585e0048", "lat": 38.9179785, "name": "6fb62a54ce0bf17f3f301038585e0048", "lon": -77.04439483333333, "fusion_lon": 0.0}, {"is_reserved": 0, "type": "electric_scooter", "fusion_lat": 0.0, "is_disabled": 0, "rental_uris": {"ios": "https://dc.lft.to/lastmile_qr_scan", "android": "https://dc.lft.to/lastmile_qr_scan"}, "bike_id": "277eaac8ea7f177de5457f28efdf719a", "lat": 38.92521, "name": "277eaac8ea7f177de5457f28efdf719a", "lon": -76.9983915, "fusion_lon": 0.0}, {"is_reserved": 0, "type": "electric_scooter", "fusion_lat": 0.0, "is_disabled": 0, "rental_uris": {"ios": "https://dc.lft.to/lastmile_qr_scan", "android": "https://dc.lft.to/lastmile_qr_scan"}, "bike_id": "213114ed7cccda488d3ed5a35b26ebbe", "lat": 38.897334, "name": "213114ed7cccda488d3ed5a35b26ebbe", "lon": -77.04804216666666, "fusion_lon": 0.0}, {"is_reserved": 0, "type": "electric_scooter", "fusion_lat": 0.0, "is_disabled": 0, "rental_uris": {"ios": "https://dc.lft.to/lastmile_qr_scan", "android": "https://dc.lft.to/lastmile_qr_scan"}, "bike_id": "dfb1041957a284b9f61760c381009bf2", "lat": 38.89542983333333, "name": "dfb1041957a284b9f61760c381009bf2", "lon": -77.02669883333333, "fusion_lon": 0.0}, {"is_reserved": 0, "type": "electric_scooter", "fusion_lat": 0.0, "is_disabled": 0, "rental_uris": {"ios": "https://dc.lft.to/lastmile_qr_scan", "android": "https://dc.lft.to/lastmile_qr_scan"}, "bike_id": "7574352ca6655ce273f6f12bdf4e4d0a", "lat": 38.91291316666667, "name": "7574352ca6655ce273f6f12bdf4e4d0a", "lon": -76.98695616666667, "fusion_lon": 0.0}, {"is_reserved": 0, "type": "electric_scooter", "fusion_lat": 0.0, "is_disabled": 0, "rental_uris": {"ios": "https://dc.lft.to/lastmile_qr_scan", "android": "https://dc.lft.to/lastmile_qr_scan"}, "bike_id": "55aa00732b4c45dc48cfb181c67fcbbb", "lat": 38.905809833333336, "name": "55aa00732b4c45dc48cfb181c67fcbbb", "lon": -77.016146, "fusion_lon": 0.0}, {"is_reserved": 0, "type": "electric_bike", "fusion_lat": 0.0, "is_disabled": 0, "rental_uris": {"ios": "https://dc.lft.to/lastmile_qr_scan", "android": "https://dc.lft.to/lastmile_qr_scan"}, "bike_id": "bd3455043ffe16063bbff49133cf0720", "lat": 38.846915333333335, "name": "bd3455043ffe16063bbff49133cf0720", "lon": -76.98068333333333, "fusion_lon": 0.0}, {"is_reserved": 0, "type": "electric_bike", "fusion_lat": 0.0, "is_disabled": 0, "rental_uris": {"ios": "https://dc.lft.to/lastmile_qr_scan", "android": "https://dc.lft.to/lastmile_qr_scan"}, "bike_id": "35211781eefac80b68b3b0f17f42413e", "lat": 38.88764883333333, "name": "35211781eefac80b68b3b0f17f42413e", "lon": -77.1565685, "fusion_lon": 0.0}, {"is_reserved": 0, "type": "electric_bike", "fusion_lat": 0.0, "is_disabled": 0, "rental_uris": {"ios": "https://dc.lft.to/lastmile_qr_scan", "android": "https://dc.lft.to/lastmile_qr_scan"}, "bike_id": "0b0c20b024d823f85bd701d3ffce5c68", "lat": 38.926596333333336, "name": "0b0c20b024d823f85bd701d3ffce5c68", "lon": -77.090234, "fusion_lon": 0.0}, {"is_reserved": 0, "type": "electric_scooter", "fusion_lat": 0.0, "is_disabled": 0, "rental_uris": {"ios": "https://dc.lft.to/lastmile_qr_scan", "android": "https://dc.lft.to/lastmile_qr_scan"}, "bike_id": "2531e819053fdc8a4ec0605574c548bf", "lat": 38.92339666666667, "name": "2531e819053fdc8a4ec0605574c548bf", "lon": -77.02814083333334, "fusion_lon": 0.0}, {"is_reserved": 0, "type": "electric_scooter", "fusion_lat": 0.0, "is_disabled": 0, "rental_uris": {"ios": "https://dc.lft.to/lastmile_qr_scan", "android": "https://dc.lft.to/lastmile_qr_scan"}, "bike_id": "59516acf06568c14bcf07681ed17a17a", "lat": 38.93933216666667, "name": "59516acf06568c14bcf07681ed17a17a", "lon": -77.0259125, "fusion_lon": 0.0}, {"is_reserved": 0, "type": "electric_scooter", "fusion_lat": 0.0, "is_disabled": 0, "rental_uris": {"ios": "https://dc.lft.to/lastmile_qr_scan", "android": "https://dc.lft.to/lastmile_qr_scan"}, "bike_id": "9ded1400265130068d4774eb9e68bfcb", "lat": 38.91634916666667, "name": "9ded1400265130068d4774eb9e68bfcb", "lon": -77.04805133333333, "fusion_lon": 0.0}, {"is_reserved": 0, "type": "electric_scooter", "fusion_lat": 0.0, "is_disabled": 0, "rental_uris": {"ios": "https://dc.lft.to/lastmile_qr_scan", "android": "https://dc.lft.to/lastmile_qr_scan"}, "bike_id": "116ce70ca135f1aa559740174cefa9c3", "lat": 38.90349916666667, "name": "116ce70ca135f1aa559740174cefa9c3", "lon": -76.974948, "fusion_lon": 0.0}, {"is_reserved": 0, "type": "electric_scooter", "fusion_lat": 0.0, "is_disabled": 0, "rental_uris": {"ios": "https://dc.lft.to/lastmile_qr_scan", "android": "https://dc.lft.to/lastmile_qr_scan"}, "bike_id": "50fb57a4caf5985bc731e1940c50df16", "lat": 38.9277475, "name": "50fb57a4caf5985bc731e1940c50df16", "lon": -77.02787066666667, "fusion_lon": 0.0}, {"is_reserved": 0, "type": "electric_scooter", "fusion_lat": 0.0, "is_disabled": 0, "rental_uris": {"ios": "https://dc.lft.to/lastmile_qr_scan", "android": "https://dc.lft.to/lastmile_qr_scan"}, "bike_id": "89a573934ca214bcc5e10e6a11ee0b0c", "lat": 38.91267166666667, "name": "89a573934ca214bcc5e10e6a11ee0b0c", "lon": -77.04557616666666, "fusion_lon": 0.0}, {"is_reserved": 0, "type": "electric_scooter", "fusion_lat": 0.0, "is_disabled": 0, "rental_uris": {"ios": "https://dc.lft.to/lastmile_qr_scan", "android": "https://dc.lft.to/lastmile_qr_scan"}, "bike_id": "aec6757c5b974fa44b809dae46f836af", "lat": 38.934754833333336, "name": "aec6757c5b974fa44b809dae46f836af", "lon": -77.03581216666667, "fusion_lon": 0.0}, {"is_reserved": 0, "type": "electric_scooter", "fusion_lat": 0.0, "is_disabled": 0, "rental_uris": {"ios": "https://dc.lft.to/lastmile_qr_scan", "android": "https://dc.lft.to/lastmile_qr_scan"}, "bike_id": "2df1f30db1377e5055ff0210c6a2c9e1", "lat": 38.916250166666664, "name": "2df1f30db1377e5055ff0210c6a2c9e1", "lon": -77.0050265, "fusion_lon": 0.0}, {"is_reserved": 0, "type": "electric_bike", "fusion_lat": 0.0, "is_disabled": 0, "rental_uris": {"ios": "https://dc.lft.to/lastmile_qr_scan", "android": "https://dc.lft.to/lastmile_qr_scan"}, "bike_id": "c64b8b7829544afb94383ada85af7686", "lat": 38.97162066666667, "name": "c64b8b7829544afb94383ada85af7686", "lon": -76.9836165, "fusion_lon": 0.0}, {"is_reserved": 0, "type": "electric_scooter", "fusion_lat": 0.0, "is_disabled": 0, "rental_uris": {"ios": "https://dc.lft.to/lastmile_qr_scan", "android": "https://dc.lft.to/lastmile_qr_scan"}, "bike_id": "0d478b31775a19a76955694ba793b8d8", "lat": 38.90248316666667, "name": "0d478b31775a19a76955694ba793b8d8", "lon": -77.01629266666667, "fusion_lon": 0.0}, {"is_reserved": 0, "type": "electric_scooter", "fusion_lat": 0.0, "is_disabled": 0, "rental_uris": {"ios": "https://dc.lft.to/lastmile_qr_scan", "android": "https://dc.lft.to/lastmile_qr_scan"}, "bike_id": "864df62f6d2e21d10e20ea66c75a99cc", "lat": 38.899315666666666, "name": "864df62f6d2e21d10e20ea66c75a99cc", "lon": -77.00359216666666, "fusion_lon": 0.0}, {"is_reserved": 0, "type": "electric_scooter", "fusion_lat": 0.0, "is_disabled": 0, "rental_uris": {"ios": "https://dc.lft.to/lastmile_qr_scan", "android": "https://dc.lft.to/lastmile_qr_scan"}, "bike_id": "aef90ceb2e6edf6374489ec7e1a2cb2f", "lat": 38.90046616666667, "name": "aef90ceb2e6edf6374489ec7e1a2cb2f", "lon": -77.01690233333333, "fusion_lon": 0.0}, {"is_reserved": 0, "type": "electric_scooter", "fusion_lat": 0.0, "is_disabled": 0, "rental_uris": {"ios": "https://dc.lft.to/lastmile_qr_scan", "android": "https://dc.lft.to/lastmile_qr_scan"}, "bike_id": "5b66e78d2564ba0a66e393407a10aaa9", "lat": 38.8649535, "name": "5b66e78d2564ba0a66e393407a10aaa9", "lon": -76.97727016666667, "fusion_lon": 0.0}, {"is_reserved": 0, "type": "electric_scooter", "fusion_lat": 0.0, "is_disabled": 0, "rental_uris": {"ios": "https://dc.lft.to/lastmile_qr_scan", "android": "https://dc.lft.to/lastmile_qr_scan"}, "bike_id": "610ae4d009e4f7ec976ab630806ccdc4", "lat": 38.892961166666666, "name": "610ae4d009e4f7ec976ab630806ccdc4", "lon": -77.0199615, "fusion_lon": 0.0}, {"is_reserved": 0, "type": "electric_scooter", "fusion_lat": 0.0, "is_disabled": 0, "rental_uris": {"ios": "https://dc.lft.to/lastmile_qr_scan", "android": "https://dc.lft.to/lastmile_qr_scan"}, "bike_id": "3f0935ea15f5a84a20e1ad94abd48be0", "lat": 38.899677, "name": "3f0935ea15f5a84a20e1ad94abd48be0", "lon": -76.92630866666667, "fusion_lon": 0.0}, {"is_reserved": 0, "type": "electric_scooter", "fusion_lat": 0.0, "is_disabled": 0, "rental_uris": {"ios": "https://dc.lft.to/lastmile_qr_scan", "android": "https://dc.lft.to/lastmile_qr_scan"}, "bike_id": "412861f7ac9ef72d79b503f2b7117f67", "lat": 38.91716066666667, "name": "412861f7ac9ef72d79b503f2b7117f67", "lon": -77.0385925, "fusion_lon": 0.0}, {"is_reserved": 0, "type": "electric_scooter", "fusion_lat": 0.0, "is_disabled": 0, "rental_uris": {"ios": "https://dc.lft.to/lastmile_qr_scan", "android": "https://dc.lft.to/lastmile_qr_scan"}, "bike_id": "9abb640bae1885ff87f99dbdf5813c4b", "lat": 38.929925833333336, "name": "9abb640bae1885ff87f99dbdf5813c4b", "lon": -77.03800733333334, "fusion_lon": 0.0}, {"is_reserved": 0, "type": "electric_scooter", "fusion_lat": 0.0, "is_disabled": 0, "rental_uris": {"ios": "https://dc.lft.to/lastmile_qr_scan", "android": "https://dc.lft.to/lastmile_qr_scan"}, "bike_id": "f5bd5b5121facf7cc09219748d1530a9", "lat": 38.935378666666665, "name": "f5bd5b5121facf7cc09219748d1530a9", "lon": -77.0235185, "fusion_lon": 0.0}, {"is_reserved": 0, "type": "electric_bike", "fusion_lat": 0.0, "is_disabled": 0, "rental_uris": {"ios": "https://dc.lft.to/lastmile_qr_scan", "android": "https://dc.lft.to/lastmile_qr_scan"}, "bike_id": "7c47b78c9d7263908925076d41393013", "lat": 39.02518666666667, "name": "7c47b78c9d7263908925076d41393013", "lon": -77.019681, "fusion_lon": 0.0}, {"is_reserved": 0, "type": "electric_scooter", "fusion_lat": 0.0, "is_disabled": 0, "rental_uris": {"ios": "https://dc.lft.to/lastmile_qr_scan", "android": "https://dc.lft.to/lastmile_qr_scan"}, "bike_id": "cffb17577f032ae582ff5ab32bb53536", "lat": 38.90498433333333, "name": "cffb17577f032ae582ff5ab32bb53536", "lon": -77.02810233333334, "fusion_lon": 0.0}, {"is_reserved": 0, "type": "electric_scooter", "fusion_lat": 0.0, "is_disabled": 0, "rental_uris": {"ios": "https://dc.lft.to/lastmile_qr_scan", "android": "https://dc.lft.to/lastmile_qr_scan"}, "bike_id": "a262d830ef3960184a16ecdc3adaa80d", "lat": 38.940856333333336, "name": "a262d830ef3960184a16ecdc3adaa80d", "lon": -77.02724316666666, "fusion_lon": 0.0}, {"is_reserved": 0, "type": "electric_scooter", "fusion_lat": 0.0, "is_disabled": 0, "rental_uris": {"ios": "https://dc.lft.to/lastmile_qr_scan", "android": "https://dc.lft.to/lastmile_qr_scan"}, "bike_id": "aff0bf7891a3a44dc18a725f7ad91cc9", "lat": 38.8788235, "name": "aff0bf7891a3a44dc18a725f7ad91cc9", "lon": -77.00056133333334, "fusion_lon": 0.0}, {"is_reserved": 0, "type": "electric_scooter", "fusion_lat": 0.0, "is_disabled": 0, "rental_uris": {"ios": "https://dc.lft.to/lastmile_qr_scan", "android": "https://dc.lft.to/lastmile_qr_scan"}, "bike_id": "d97be53735c30b7c41c14317c50d22e9", "lat": 38.934819, "name": "d97be53735c30b7c41c14317c50d22e9", "lon": -77.057916, "fusion_lon": 0.0}, {"is_reserved": 0, "type": "electric_bike", "fusion_lat": 0.0, "is_disabled": 0, "rental_uris": {"ios": "https://dc.lft.to/lastmile_qr_scan", "android": "https://dc.lft.to/lastmile_qr_scan"}, "bike_id": "8642ba6bc999e1b2828b016b42e6813e", "lat": 39.084778166666666, "name": "8642ba6bc999e1b2828b016b42e6813e", "lon": -76.95071883333334, "fusion_lon": 0.0}, {"is_reserved": 0, "type": "electric_scooter", "fusion_lat": 0.0, "is_disabled": 0, "rental_uris": {"ios": "https://dc.lft.to/lastmile_qr_scan", "android": "https://dc.lft.to/lastmile_qr_scan"}, "bike_id": "1a2e62730ecf07f651d79fa1cd6ebaf6", "lat": 38.920525166666664, "name": "1a2e62730ecf07f651d79fa1cd6ebaf6", "lon": -77.04235483333333, "fusion_lon": 0.0}, {"is_reserved": 0, "type": "electric_scooter", "fusion_lat": 0.0, "is_disabled": 0, "rental_uris": {"ios": "https://dc.lft.to/lastmile_qr_scan", "android": "https://dc.lft.to/lastmile_qr_scan"}, "bike_id": "425c55dee9039cbc1d89bfc1328a909a", "lat": 38.9211485, "name": "425c55dee9039cbc1d89bfc1328a909a", "lon": -77.017672, "fusion_lon": 0.0}, {"is_reserved": 0, "type": "electric_scooter", "fusion_lat": 0.0, "is_disabled": 0, "rental_uris": {"ios": "https://dc.lft.to/lastmile_qr_scan", "android": "https://dc.lft.to/lastmile_qr_scan"}, "bike_id": "e6c3756b46501874796a419ebc864c2c", "lat": 38.909653166666665, "name": "e6c3756b46501874796a419ebc864c2c", "lon": -77.02281533333333, "fusion_lon": 0.0}, {"is_reserved": 0, "type": "electric_scooter", "fusion_lat": 0.0, "is_disabled": 0, "rental_uris": {"ios": "https://dc.lft.to/lastmile_qr_scan", "android": "https://dc.lft.to/lastmile_qr_scan"}, "bike_id": "ba4aac848f825ac4beceb1f846b4e235", "lat": 38.9197515, "name": "ba4aac848f825ac4beceb1f846b4e235", "lon": -77.04079366666667, "fusion_lon": 0.0}, {"is_reserved": 0, "type": "electric_scooter", "fusion_lat": 0.0, "is_disabled": 0, "rental_uris": {"ios": "https://dc.lft.to/lastmile_qr_scan", "android": "https://dc.lft.to/lastmile_qr_scan"}, "bike_id": "918d4ef3e8fe56996d8a644c943800eb", "lat": 38.922498833333336, "name": "918d4ef3e8fe56996d8a644c943800eb", "lon": -77.03663083333333, "fusion_lon": 0.0}, {"is_reserved": 0, "type": "electric_bike", "fusion_lat": 0.0, "is_disabled": 0, "rental_uris": {"ios": "https://dc.lft.to/lastmile_qr_scan", "android": "https://dc.lft.to/lastmile_qr_scan"}, "bike_id": "5a263043940f80833f083a5c2250b2c1", "lat": 38.835826, "name": "5a263043940f80833f083a5c2250b2c1", "lon": -76.99021516666667, "fusion_lon": 0.0}, {"is_reserved": 0, "type": "electric_scooter", "fusion_lat": 0.0, "is_disabled": 0, "rental_uris": {"ios": "https://dc.lft.to/lastmile_qr_scan", "android": "https://dc.lft.to/lastmile_qr_scan"}, "bike_id": "b2abf5eb72292bf9096057d823fc954b", "lat": 38.9053455, "name": "b2abf5eb72292bf9096057d823fc954b", "lon": -77.02928116666666, "fusion_lon": 0.0}, {"is_reserved": 0, "type": "electric_scooter", "fusion_lat": 0.0, "is_disabled": 0, "rental_uris": {"ios": "https://dc.lft.to/lastmile_qr_scan", "android": "https://dc.lft.to/lastmile_qr_scan"}, "bike_id": "1ebc075ab4912f544d8607133cb69eb0", "lat": 38.89656033333333, "name": "1ebc075ab4912f544d8607133cb69eb0", "lon": -77.04339016666667, "fusion_lon": 0.0}, {"is_reserved": 0, "type": "electric_scooter", "fusion_lat": 0.0, "is_disabled": 0, "rental_uris": {"ios": "https://dc.lft.to/lastmile_qr_scan", "android": "https://dc.lft.to/lastmile_qr_scan"}, "bike_id": "a321621c2d475b9bce8a86d2bd82a9ab", "lat": 38.9104905, "name": "a321621c2d475b9bce8a86d2bd82a9ab", "lon": -76.99800516666667, "fusion_lon": 0.0}, {"is_reserved": 0, "type": "electric_scooter", "fusion_lat": 0.0, "is_disabled": 0, "rental_uris": {"ios": "https://dc.lft.to/lastmile_qr_scan", "android": "https://dc.lft.to/lastmile_qr_scan"}, "bike_id": "1b0028d1292e40c7de01ef7a7ed2739d", "lat": 38.8985765, "name": "1b0028d1292e40c7de01ef7a7ed2739d", "lon": -77.0230025, "fusion_lon": 0.0}, {"is_reserved": 0, "type": "electric_scooter", "fusion_lat": 0.0, "is_disabled": 0, "rental_uris": {"ios": "https://dc.lft.to/lastmile_qr_scan", "android": "https://dc.lft.to/lastmile_qr_scan"}, "bike_id": "56e98b96188f806958d5326e8895edc7", "lat": 38.92743883333333, "name": "56e98b96188f806958d5326e8895edc7", "lon": -77.02149766666666, "fusion_lon": 0.0}, {"is_reserved": 0, "type": "electric_scooter", "fusion_lat": 0.0, "is_disabled": 0, "rental_uris": {"ios": "https://dc.lft.to/lastmile_qr_scan", "android": "https://dc.lft.to/lastmile_qr_scan"}, "bike_id": "3d5a425b710a4f49b1637d73c87ce935", "lat": 38.91483983333333, "name": "3d5a425b710a4f49b1637d73c87ce935", "lon": -77.02180983333334, "fusion_lon": 0.0}, {"is_reserved": 0, "type": "electric_scooter", "fusion_lat": 0.0, "is_disabled": 0, "rental_uris": {"ios": "https://dc.lft.to/lastmile_qr_scan", "android": "https://dc.lft.to/lastmile_qr_scan"}, "bike_id": "4f13455aff3cb9e519e7317bcc28850b", "lat": 38.894184, "name": "4f13455aff3cb9e519e7317bcc28850b", "lon": -77.01087916666667, "fusion_lon": 0.0}, {"is_reserved": 0, "type": "electric_scooter", "fusion_lat": 0.0, "is_disabled": 0, "rental_uris": {"ios": "https://dc.lft.to/lastmile_qr_scan", "android": "https://dc.lft.to/lastmile_qr_scan"}, "bike_id": "e7e982f5a7be5d45cb47c507534bd531", "lat": 38.922339, "name": "e7e982f5a7be5d45cb47c507534bd531", "lon": -76.98843533333333, "fusion_lon": 0.0}, {"is_reserved": 0, "type": "electric_scooter", "fusion_lat": 0.0, "is_disabled": 0, "rental_uris": {"ios": "https://dc.lft.to/lastmile_qr_scan", "android": "https://dc.lft.to/lastmile_qr_scan"}, "bike_id": "0c68592a974cfac50e8b4bc14dbe05c1", "lat": 38.9057375, "name": "0c68592a974cfac50e8b4bc14dbe05c1", "lon": -77.007209, "fusion_lon": 0.0}, {"is_reserved": 0, "type": "electric_scooter", "fusion_lat": 0.0, "is_disabled": 0, "rental_uris": {"ios": "https://dc.lft.to/lastmile_qr_scan", "android": "https://dc.lft.to/lastmile_qr_scan"}, "bike_id": "5482c359668de4400391026a0acae8dc", "lat": 38.92388, "name": "5482c359668de4400391026a0acae8dc", "lon": -77.02749583333333, "fusion_lon": 0.0}, {"is_reserved": 0, "type": "electric_scooter", "fusion_lat": 0.0, "is_disabled": 0, "rental_uris": {"ios": "https://dc.lft.to/lastmile_qr_scan", "android": "https://dc.lft.to/lastmile_qr_scan"}, "bike_id": "a8033247972379491c29991b2e9b4782", "lat": 38.920697833333335, "name": "a8033247972379491c29991b2e9b4782", "lon": -77.02311866666666, "fusion_lon": 0.0}, {"is_reserved": 0, "type": "electric_scooter", "fusion_lat": 0.0, "is_disabled": 0, "rental_uris": {"ios": "https://dc.lft.to/lastmile_qr_scan", "android": "https://dc.lft.to/lastmile_qr_scan"}, "bike_id": "cde6f4b28a00003d2c059e594f983c03", "lat": 38.905765, "name": "cde6f4b28a00003d2c059e594f983c03", "lon": -77.07273083333334, "fusion_lon": 0.0}, {"is_reserved": 0, "type": "electric_scooter", "fusion_lat": 0.0, "is_disabled": 0, "rental_uris": {"ios": "https://dc.lft.to/lastmile_qr_scan", "android": "https://dc.lft.to/lastmile_qr_scan"}, "bike_id": "748521fd48290e4354111109141e6446", "lat": 38.920226166666666, "name": "748521fd48290e4354111109141e6446", "lon": -76.99573866666667, "fusion_lon": 0.0}, {"is_reserved": 0, "type": "electric_bike", "fusion_lat": 0.0, "is_disabled": 0, "rental_uris": {"ios": "https://dc.lft.to/lastmile_qr_scan", "android": "https://dc.lft.to/lastmile_qr_scan"}, "bike_id": "94dabe98d262453db0b5a261935cfd16", "lat": 38.964342, "name": "94dabe98d262453db0b5a261935cfd16", "lon": -77.031853, "fusion_lon": 0.0}, {"is_reserved": 0, "type": "electric_scooter", "fusion_lat": 0.0, "is_disabled": 0, "rental_uris": {"ios": "https://dc.lft.to/lastmile_qr_scan", "android": "https://dc.lft.to/lastmile_qr_scan"}, "bike_id": "3ea095ae449b77b234ea0a1beda57f5f", "lat": 38.92656, "name": "3ea095ae449b77b234ea0a1beda57f5f", "lon": -77.02429933333333, "fusion_lon": 0.0}, {"is_reserved": 0, "type": "electric_scooter", "fusion_lat": 0.0, "is_disabled": 0, "rental_uris": {"ios": "https://dc.lft.to/lastmile_qr_scan", "android": "https://dc.lft.to/lastmile_qr_scan"}, "bike_id": "6da0f22d3ae25c4ed7eebdbcaf02e8a1", "lat": 38.9002345, "name": "6da0f22d3ae25c4ed7eebdbcaf02e8a1", "lon": -76.99851266666667, "fusion_lon": 0.0}, {"is_reserved": 0, "type": "electric_scooter", "fusion_lat": 0.0, "is_disabled": 0, "rental_uris": {"ios": "https://dc.lft.to/lastmile_qr_scan", "android": "https://dc.lft.to/lastmile_qr_scan"}, "bike_id": "558cda3a207664d62237dc2966692763", "lat": 38.902503333333335, "name": "558cda3a207664d62237dc2966692763", "lon": -77.02716566666666, "fusion_lon": 0.0}, {"is_reserved": 0, "type": "electric_bike", "fusion_lat": 0.0, "is_disabled": 0, "rental_uris": {"ios": "https://dc.lft.to/lastmile_qr_scan", "android": "https://dc.lft.to/lastmile_qr_scan"}, "bike_id": "71727471be5f7b3c37ebe02b2ecd238f", "lat": 38.925333333333334, "name": "71727471be5f7b3c37ebe02b2ecd238f", "lon": -77.07327033333334, "fusion_lon": 0.0}, {"is_reserved": 0, "type": "electric_scooter", "fusion_lat": 0.0, "is_disabled": 0, "rental_uris": {"ios": "https://dc.lft.to/lastmile_qr_scan", "android": "https://dc.lft.to/lastmile_qr_scan"}, "bike_id": "cd694ec80ffdad2b87fb03466b60b64c", "lat": 38.9156535, "name": "cd694ec80ffdad2b87fb03466b60b64c", "lon": -77.0367905, "fusion_lon": 0.0}, {"is_reserved": 0, "type": "electric_scooter", "fusion_lat": 0.0, "is_disabled": 0, "rental_uris": {"ios": "https://dc.lft.to/lastmile_qr_scan", "android": "https://dc.lft.to/lastmile_qr_scan"}, "bike_id": "7c2b9a02aa078975684bbbee83670e0b", "lat": 38.936608666666665, "name": "7c2b9a02aa078975684bbbee83670e0b", "lon": -77.066123, "fusion_lon": 0.0}, {"is_reserved": 0, "type": "electric_scooter", "fusion_lat": 0.0, "is_disabled": 0, "rental_uris": {"ios": "https://dc.lft.to/lastmile_qr_scan", "android": "https://dc.lft.to/lastmile_qr_scan"}, "bike_id": "e9e79c236fcfe54d208c4be8c9f43de2", "lat": 38.9345395, "name": "e9e79c236fcfe54d208c4be8c9f43de2", "lon": -77.02804666666667, "fusion_lon": 0.0}, {"is_reserved": 0, "type": "electric_scooter", "fusion_lat": 0.0, "is_disabled": 0, "rental_uris": {"ios": "https://dc.lft.to/lastmile_qr_scan", "android": "https://dc.lft.to/lastmile_qr_scan"}, "bike_id": "5209400777e9cfbdc72f3da0a902d2f5", "lat": 38.9332475, "name": "5209400777e9cfbdc72f3da0a902d2f5", "lon": -77.02404183333333, "fusion_lon": 0.0}, {"is_reserved": 0, "type": "electric_scooter", "fusion_lat": 0.0, "is_disabled": 0, "rental_uris": {"ios": "https://dc.lft.to/lastmile_qr_scan", "android": "https://dc.lft.to/lastmile_qr_scan"}, "bike_id": "67413a12f7a41f54acbfe60989004186", "lat": 38.89363433333333, "name": "67413a12f7a41f54acbfe60989004186", "lon": -77.04477066666666, "fusion_lon": 0.0}, {"is_reserved": 0, "type": "electric_scooter", "fusion_lat": 0.0, "is_disabled": 0, "rental_uris": {"ios": "https://dc.lft.to/lastmile_qr_scan", "android": "https://dc.lft.to/lastmile_qr_scan"}, "bike_id": "dbda350dbfc286135fe69ada632b8950", "lat": 38.9053975, "name": "dbda350dbfc286135fe69ada632b8950", "lon": -76.97542466666667, "fusion_lon": 0.0}, {"is_reserved": 0, "type": "electric_bike", "fusion_lat": 0.0, "is_disabled": 0, "rental_uris": {"ios": "https://dc.lft.to/lastmile_qr_scan", "android": "https://dc.lft.to/lastmile_qr_scan"}, "bike_id": "cf49304059a913015756ac047b23357d", "lat": 39.004510333333336, "name": "cf49304059a913015756ac047b23357d", "lon": -76.90111633333333, "fusion_lon": 0.0}, {"is_reserved": 0, "type": "electric_bike", "fusion_lat": 0.0, "is_disabled": 0, "rental_uris": {"ios": "https://dc.lft.to/lastmile_qr_scan", "android": "https://dc.lft.to/lastmile_qr_scan"}, "bike_id": "a9c72ff534c24c9a74add0f222429b6d", "lat": 38.95033433333333, "name": "a9c72ff534c24c9a74add0f222429b6d", "lon": -77.01274383333333, "fusion_lon": 0.0}, {"is_reserved": 0, "type": "electric_scooter", "fusion_lat": 0.0, "is_disabled": 0, "rental_uris": {"ios": "https://dc.lft.to/lastmile_qr_scan", "android": "https://dc.lft.to/lastmile_qr_scan"}, "bike_id": "44215246d56f7292f0e35f4eb576ca45", "lat": 38.876543, "name": "44215246d56f7292f0e35f4eb576ca45", "lon": -77.00087716666667, "fusion_lon": 0.0}, {"is_reserved": 0, "type": "electric_scooter", "fusion_lat": 0.0, "is_disabled": 0, "rental_uris": {"ios": "https://dc.lft.to/lastmile_qr_scan", "android": "https://dc.lft.to/lastmile_qr_scan"}, "bike_id": "6239c56eaa5b6243c21ddb8a7702d101", "lat": 38.939677833333334, "name": "6239c56eaa5b6243c21ddb8a7702d101", "lon": -77.032522, "fusion_lon": 0.0}, {"is_reserved": 0, "type": "electric_scooter", "fusion_lat": 0.0, "is_disabled": 0, "rental_uris": {"ios": "https://dc.lft.to/lastmile_qr_scan", "android": "https://dc.lft.to/lastmile_qr_scan"}, "bike_id": "d608e46eb912b44b76efabeb6f65ed3e", "lat": 38.918085, "name": "d608e46eb912b44b76efabeb6f65ed3e", "lon": -77.03260816666666, "fusion_lon": 0.0}, {"is_reserved": 0, "type": "electric_scooter", "fusion_lat": 0.0, "is_disabled": 0, "rental_uris": {"ios": "https://dc.lft.to/lastmile_qr_scan", "android": "https://dc.lft.to/lastmile_qr_scan"}, "bike_id": "67e056dccd410576d4ee889621957edf", "lat": 38.9574395, "name": "67e056dccd410576d4ee889621957edf", "lon": -77.02325316666666, "fusion_lon": 0.0}, {"is_reserved": 0, "type": "electric_scooter", "fusion_lat": 0.0, "is_disabled": 0, "rental_uris": {"ios": "https://dc.lft.to/lastmile_qr_scan", "android": "https://dc.lft.to/lastmile_qr_scan"}, "bike_id": "ba17ac24ed03bd9412834e6fb137a893", "lat": 38.926155333333334, "name": "ba17ac24ed03bd9412834e6fb137a893", "lon": -77.02161, "fusion_lon": 0.0}, {"is_reserved": 0, "type": "electric_scooter", "fusion_lat": 0.0, "is_disabled": 0, "rental_uris": {"ios": "https://dc.lft.to/lastmile_qr_scan", "android": "https://dc.lft.to/lastmile_qr_scan"}, "bike_id": "d8ce2e8fe002571d521985813ba9e657", "lat": 38.91261633333333, "name": "d8ce2e8fe002571d521985813ba9e657", "lon": -77.04790733333333, "fusion_lon": 0.0}, {"is_reserved": 0, "type": "electric_scooter", "fusion_lat": 0.0, "is_disabled": 0, "rental_uris": {"ios": "https://dc.lft.to/lastmile_qr_scan", "android": "https://dc.lft.to/lastmile_qr_scan"}, "bike_id": "9afbd9f7efde8fcf42fb3a8772aa2fa6", "lat": 38.91195116666667, "name": "9afbd9f7efde8fcf42fb3a8772aa2fa6", "lon": -77.01771, "fusion_lon": 0.0}, {"is_reserved": 0, "type": "electric_scooter", "fusion_lat": 0.0, "is_disabled": 0, "rental_uris": {"ios": "https://dc.lft.to/lastmile_qr_scan", "android": "https://dc.lft.to/lastmile_qr_scan"}, "bike_id": "24ac1a9f98bb03ec443cfc5d8fe4f623", "lat": 38.9288865, "name": "24ac1a9f98bb03ec443cfc5d8fe4f623", "lon": -77.03880566666666, "fusion_lon": 0.0}, {"is_reserved": 0, "type": "electric_bike", "fusion_lat": 0.0, "is_disabled": 0, "rental_uris": {"ios": "https://dc.lft.to/lastmile_qr_scan", "android": "https://dc.lft.to/lastmile_qr_scan"}, "bike_id": "34f13bd1aa598d0ac693b7e141ccc9ca", "lat": 38.944156166666666, "name": "34f13bd1aa598d0ac693b7e141ccc9ca", "lon": -77.021871, "fusion_lon": 0.0}, {"is_reserved": 0, "type": "electric_scooter", "fusion_lat": 0.0, "is_disabled": 0, "rental_uris": {"ios": "https://dc.lft.to/lastmile_qr_scan", "android": "https://dc.lft.to/lastmile_qr_scan"}, "bike_id": "b10d678785077b7f692add5debf2118c", "lat": 38.902815333333336, "name": "b10d678785077b7f692add5debf2118c", "lon": -77.033507, "fusion_lon": 0.0}, {"is_reserved": 0, "type": "electric_scooter", "fusion_lat": 0.0, "is_disabled": 0, "rental_uris": {"ios": "https://dc.lft.to/lastmile_qr_scan", "android": "https://dc.lft.to/lastmile_qr_scan"}, "bike_id": "141fd03eef537b1f66fe610776bf8304", "lat": 38.921478666666665, "name": "141fd03eef537b1f66fe610776bf8304", "lon": -77.03381083333333, "fusion_lon": 0.0}, {"is_reserved": 0, "type": "electric_bike", "fusion_lat": 0.0, "is_disabled": 0, "rental_uris": {"ios": "https://dc.lft.to/lastmile_qr_scan", "android": "https://dc.lft.to/lastmile_qr_scan"}, "bike_id": "58f37a22f194d3b3395a5bd3c64cae0a", "lat": 38.87564, "name": "58f37a22f194d3b3395a5bd3c64cae0a", "lon": -77.0472555, "fusion_lon": 0.0}, {"is_reserved": 0, "type": "electric_scooter", "fusion_lat": 0.0, "is_disabled": 0, "rental_uris": {"ios": "https://dc.lft.to/lastmile_qr_scan", "android": "https://dc.lft.to/lastmile_qr_scan"}, "bike_id": "44c45169a275ad61d2d32071ecaca339", "lat": 38.91278666666667, "name": "44c45169a275ad61d2d32071ecaca339", "lon": -77.04680216666667, "fusion_lon": 0.0}, {"is_reserved": 0, "type": "electric_scooter", "fusion_lat": 0.0, "is_disabled": 0, "rental_uris": {"ios": "https://dc.lft.to/lastmile_qr_scan", "android": "https://dc.lft.to/lastmile_qr_scan"}, "bike_id": "b216d4c020b69a13a2a2d2af1ea020ec", "lat": 38.892092166666664, "name": "b216d4c020b69a13a2a2d2af1ea020ec", "lon": -76.96119716666666, "fusion_lon": 0.0}, {"is_reserved": 0, "type": "electric_scooter", "fusion_lat": 0.0, "is_disabled": 0, "rental_uris": {"ios": "https://dc.lft.to/lastmile_qr_scan", "android": "https://dc.lft.to/lastmile_qr_scan"}, "bike_id": "fc9f364126dd6e7d743f7a5bfa339ca8", "lat": 38.9596215, "name": "fc9f364126dd6e7d743f7a5bfa339ca8", "lon": -77.0331755, "fusion_lon": 0.0}, {"is_reserved": 0, "type": "electric_scooter", "fusion_lat": 0.0, "is_disabled": 0, "rental_uris": {"ios": "https://dc.lft.to/lastmile_qr_scan", "android": "https://dc.lft.to/lastmile_qr_scan"}, "bike_id": "cad264c53f6e9516cc4004de75848c29", "lat": 38.883837, "name": "cad264c53f6e9516cc4004de75848c29", "lon": -77.04608566666667, "fusion_lon": 0.0}, {"is_reserved": 0, "type": "electric_bike", "fusion_lat": 0.0, "is_disabled": 0, "rental_uris": {"ios": "https://dc.lft.to/lastmile_qr_scan", "android": "https://dc.lft.to/lastmile_qr_scan"}, "bike_id": "14d110f7d26d9187dcd44840c644b56e", "lat": 38.998291333333334, "name": "14d110f7d26d9187dcd44840c644b56e", "lon": -76.997318, "fusion_lon": 0.0}, {"is_reserved": 0, "type": "electric_scooter", "fusion_lat": 0.0, "is_disabled": 0, "rental_uris": {"ios": "https://dc.lft.to/lastmile_qr_scan", "android": "https://dc.lft.to/lastmile_qr_scan"}, "bike_id": "abc476178a7179685e00fdfc1cf8e52d", "lat": 38.91742683333333, "name": "abc476178a7179685e00fdfc1cf8e52d", "lon": -77.021183, "fusion_lon": 0.0}, {"is_reserved": 0, "type": "electric_scooter", "fusion_lat": 0.0, "is_disabled": 0, "rental_uris": {"ios": "https://dc.lft.to/lastmile_qr_scan", "android": "https://dc.lft.to/lastmile_qr_scan"}, "bike_id": "62146fbb4914a3c881e5bf45038c4787", "lat": 38.92461766666667, "name": "62146fbb4914a3c881e5bf45038c4787", "lon": -77.0522775, "fusion_lon": 0.0}, {"is_reserved": 0, "type": "electric_scooter", "fusion_lat": 0.0, "is_disabled": 0, "rental_uris": {"ios": "https://dc.lft.to/lastmile_qr_scan", "android": "https://dc.lft.to/lastmile_qr_scan"}, "bike_id": "92c0c6911c33a3b19e40a9f533463ace", "lat": 38.90292983333333, "name": "92c0c6911c33a3b19e40a9f533463ace", "lon": -77.04873583333334, "fusion_lon": 0.0}, {"is_reserved": 0, "type": "electric_scooter", "fusion_lat": 0.0, "is_disabled": 0, "rental_uris": {"ios": "https://dc.lft.to/lastmile_qr_scan", "android": "https://dc.lft.to/lastmile_qr_scan"}, "bike_id": "7734daed84666ab55a08e87deeb7dc83", "lat": 38.92760716666667, "name": "7734daed84666ab55a08e87deeb7dc83", "lon": -77.03269616666667, "fusion_lon": 0.0}, {"is_reserved": 0, "type": "electric_scooter", "fusion_lat": 0.0, "is_disabled": 0, "rental_uris": {"ios": "https://dc.lft.to/lastmile_qr_scan", "android": "https://dc.lft.to/lastmile_qr_scan"}, "bike_id": "2035580778c0e614920f172ef48e00db", "lat": 38.902977166666666, "name": "2035580778c0e614920f172ef48e00db", "lon": -77.02813116666667, "fusion_lon": 0.0}, {"is_reserved": 0, "type": "electric_scooter", "fusion_lat": 0.0, "is_disabled": 0, "rental_uris": {"ios": "https://dc.lft.to/lastmile_qr_scan", "android": "https://dc.lft.to/lastmile_qr_scan"}, "bike_id": "e79d1f0e7e01c8b5e1037db731f65771", "lat": 38.90723633333333, "name": "e79d1f0e7e01c8b5e1037db731f65771", "lon": -77.00347433333333, "fusion_lon": 0.0}, {"is_reserved": 0, "type": "electric_bike", "fusion_lat": 0.0, "is_disabled": 0, "rental_uris": {"ios": "https://dc.lft.to/lastmile_qr_scan", "android": "https://dc.lft.to/lastmile_qr_scan"}, "bike_id": "50d032bcdd89c1b79078293ee43c5ee3", "lat": 38.93388133333333, "name": "50d032bcdd89c1b79078293ee43c5ee3", "lon": -77.02392383333333, "fusion_lon": 0.0}, {"is_reserved": 0, "type": "electric_bike", "fusion_lat": 0.0, "is_disabled": 0, "rental_uris": {"ios": "https://dc.lft.to/lastmile_qr_scan", "android": "https://dc.lft.to/lastmile_qr_scan"}, "bike_id": "69d1d8ea8f7604604c31e5e6ebcfa89c", "lat": 38.9502365, "name": "69d1d8ea8f7604604c31e5e6ebcfa89c", "lon": -77.01433, "fusion_lon": 0.0}, {"is_reserved": 0, "type": "electric_scooter", "fusion_lat": 0.0, "is_disabled": 0, "rental_uris": {"ios": "https://dc.lft.to/lastmile_qr_scan", "android": "https://dc.lft.to/lastmile_qr_scan"}, "bike_id": "9635ec310799d40391b0ddcb9648bcd3", "lat": 38.9197245, "name": "9635ec310799d40391b0ddcb9648bcd3", "lon": -77.04174833333333, "fusion_lon": 0.0}, {"is_reserved": 0, "type": "electric_scooter", "fusion_lat": 0.0, "is_disabled": 0, "rental_uris": {"ios": "https://dc.lft.to/lastmile_qr_scan", "android": "https://dc.lft.to/lastmile_qr_scan"}, "bike_id": "14a73a8f050482564bf29dd426d013e1", "lat": 38.967982166666665, "name": "14a73a8f050482564bf29dd426d013e1", "lon": -77.02564083333333, "fusion_lon": 0.0}, {"is_reserved": 0, "type": "electric_scooter", "fusion_lat": 0.0, "is_disabled": 0, "rental_uris": {"ios": "https://dc.lft.to/lastmile_qr_scan", "android": "https://dc.lft.to/lastmile_qr_scan"}, "bike_id": "13f2fe0a8448a37b41b6c77c4730668c", "lat": 38.9048605, "name": "13f2fe0a8448a37b41b6c77c4730668c", "lon": -76.94962933333333, "fusion_lon": 0.0}, {"is_reserved": 0, "type": "electric_scooter", "fusion_lat": 0.0, "is_disabled": 0, "rental_uris": {"ios": "https://dc.lft.to/lastmile_qr_scan", "android": "https://dc.lft.to/lastmile_qr_scan"}, "bike_id": "7cf63b76979619422656fec33c405739", "lat": 38.92150933333333, "name": "7cf63b76979619422656fec33c405739", "lon": -77.03512416666666, "fusion_lon": 0.0}, {"is_reserved": 0, "type": "electric_scooter", "fusion_lat": 0.0, "is_disabled": 0, "rental_uris": {"ios": "https://dc.lft.to/lastmile_qr_scan", "android": "https://dc.lft.to/lastmile_qr_scan"}, "bike_id": "018a998c9c0f04b3446021907f4da0d0", "lat": 38.88185766666667, "name": "018a998c9c0f04b3446021907f4da0d0", "lon": -77.0089485, "fusion_lon": 0.0}, {"is_reserved": 0, "type": "electric_scooter", "fusion_lat": 0.0, "is_disabled": 0, "rental_uris": {"ios": "https://dc.lft.to/lastmile_qr_scan", "android": "https://dc.lft.to/lastmile_qr_scan"}, "bike_id": "059ffcab4de2560941c6170fe8e978ab", "lat": 38.922130833333334, "name": "059ffcab4de2560941c6170fe8e978ab", "lon": -77.018765, "fusion_lon": 0.0}, {"is_reserved": 0, "type": "electric_scooter", "fusion_lat": 0.0, "is_disabled": 0, "rental_uris": {"ios": "https://dc.lft.to/lastmile_qr_scan", "android": "https://dc.lft.to/lastmile_qr_scan"}, "bike_id": "b4800b90736176489aea7e95782172b9", "lat": 38.888568166666666, "name": "b4800b90736176489aea7e95782172b9", "lon": -76.97906533333334, "fusion_lon": 0.0}, {"is_reserved": 0, "type": "electric_scooter", "fusion_lat": 0.0, "is_disabled": 0, "rental_uris": {"ios": "https://dc.lft.to/lastmile_qr_scan", "android": "https://dc.lft.to/lastmile_qr_scan"}, "bike_id": "66ca2638aba72d593f9e24f3ccd472ab", "lat": 38.87192433333333, "name": "66ca2638aba72d593f9e24f3ccd472ab", "lon": -77.01230666666666, "fusion_lon": 0.0}, {"is_reserved": 0, "type": "electric_scooter", "fusion_lat": 0.0, "is_disabled": 0, "rental_uris": {"ios": "https://dc.lft.to/lastmile_qr_scan", "android": "https://dc.lft.to/lastmile_qr_scan"}, "bike_id": "035df44478edd600575a697f69479694", "lat": 38.874707666666666, "name": "035df44478edd600575a697f69479694", "lon": -77.0051695, "fusion_lon": 0.0}, {"is_reserved": 0, "type": "electric_scooter", "fusion_lat": 0.0, "is_disabled": 0, "rental_uris": {"ios": "https://dc.lft.to/lastmile_qr_scan", "android": "https://dc.lft.to/lastmile_qr_scan"}, "bike_id": "47b11716ecfdd750807d4f54daec2daa", "lat": 38.944552, "name": "47b11716ecfdd750807d4f54daec2daa", "lon": -77.02921133333334, "fusion_lon": 0.0}, {"is_reserved": 0, "type": "electric_scooter", "fusion_lat": 0.0, "is_disabled": 0, "rental_uris": {"ios": "https://dc.lft.to/lastmile_qr_scan", "android": "https://dc.lft.to/lastmile_qr_scan"}, "bike_id": "e1dc961d12fce638d6c5f185f5944d8c", "lat": 38.91105433333333, "name": "e1dc961d12fce638d6c5f185f5944d8c", "lon": -77.00213566666666, "fusion_lon": 0.0}, {"is_reserved": 0, "type": "electric_scooter", "fusion_lat": 0.0, "is_disabled": 0, "rental_uris": {"ios": "https://dc.lft.to/lastmile_qr_scan", "android": "https://dc.lft.to/lastmile_qr_scan"}, "bike_id": "094c428b454cb6f21b89c44e33e56230", "lat": 38.92337283333333, "name": "094c428b454cb6f21b89c44e33e56230", "lon": -76.998751, "fusion_lon": 0.0}, {"is_reserved": 0, "type": "electric_scooter", "fusion_lat": 0.0, "is_disabled": 0, "rental_uris": {"ios": "https://dc.lft.to/lastmile_qr_scan", "android": "https://dc.lft.to/lastmile_qr_scan"}, "bike_id": "33491180dde9bd078738fbe925ab1838", "lat": 38.927850166666666, "name": "33491180dde9bd078738fbe925ab1838", "lon": -76.97631033333333, "fusion_lon": 0.0}, {"is_reserved": 0, "type": "electric_scooter", "fusion_lat": 0.0, "is_disabled": 0, "rental_uris": {"ios": "https://dc.lft.to/lastmile_qr_scan", "android": "https://dc.lft.to/lastmile_qr_scan"}, "bike_id": "85590a77d667166190a7dbadf68ab665", "lat": 38.92544483333333, "name": "85590a77d667166190a7dbadf68ab665", "lon": -77.03328783333333, "fusion_lon": 0.0}, {"is_reserved": 0, "type": "electric_scooter", "fusion_lat": 0.0, "is_disabled": 0, "rental_uris": {"ios": "https://dc.lft.to/lastmile_qr_scan", "android": "https://dc.lft.to/lastmile_qr_scan"}, "bike_id": "fad6921455ddfdf3e90fa5231a1b6770", "lat": 38.92334866666667, "name": "fad6921455ddfdf3e90fa5231a1b6770", "lon": -77.03613716666666, "fusion_lon": 0.0}, {"is_reserved": 0, "type": "electric_scooter", "fusion_lat": 0.0, "is_disabled": 0, "rental_uris": {"ios": "https://dc.lft.to/lastmile_qr_scan", "android": "https://dc.lft.to/lastmile_qr_scan"}, "bike_id": "0141eab86346f078262594824e47cb4e", "lat": 38.9061755, "name": "0141eab86346f078262594824e47cb4e", "lon": -77.05653516666666, "fusion_lon": 0.0}, {"is_reserved": 0, "type": "electric_scooter", "fusion_lat": 0.0, "is_disabled": 0, "rental_uris": {"ios": "https://dc.lft.to/lastmile_qr_scan", "android": "https://dc.lft.to/lastmile_qr_scan"}, "bike_id": "131908cd8b49445b1963f2f64c762d3e", "lat": 38.95271433333333, "name": "131908cd8b49445b1963f2f64c762d3e", "lon": -76.9989485, "fusion_lon": 0.0}, {"is_reserved": 0, "type": "electric_scooter", "fusion_lat": 0.0, "is_disabled": 0, "rental_uris": {"ios": "https://dc.lft.to/lastmile_qr_scan", "android": "https://dc.lft.to/lastmile_qr_scan"}, "bike_id": "5b40fc80d2dea5c08a01422a5e03aaf6", "lat": 38.917135333333334, "name": "5b40fc80d2dea5c08a01422a5e03aaf6", "lon": -77.00886433333334, "fusion_lon": 0.0}, {"is_reserved": 0, "type": "electric_scooter", "fusion_lat": 0.0, "is_disabled": 0, "rental_uris": {"ios": "https://dc.lft.to/lastmile_qr_scan", "android": "https://dc.lft.to/lastmile_qr_scan"}, "bike_id": "fff19e08a12baf48421828c324733e7f", "lat": 38.926008833333334, "name": "fff19e08a12baf48421828c324733e7f", "lon": -77.02155466666666, "fusion_lon": 0.0}, {"is_reserved": 0, "type": "electric_scooter", "fusion_lat": 0.0, "is_disabled": 0, "rental_uris": {"ios": "https://dc.lft.to/lastmile_qr_scan", "android": "https://dc.lft.to/lastmile_qr_scan"}, "bike_id": "1c4f5aa12b33b3ec28c4f5567feb6487", "lat": 38.9038235, "name": "1c4f5aa12b33b3ec28c4f5567feb6487", "lon": -77.01853516666667, "fusion_lon": 0.0}, {"is_reserved": 0, "type": "electric_scooter", "fusion_lat": 0.0, "is_disabled": 0, "rental_uris": {"ios": "https://dc.lft.to/lastmile_qr_scan", "android": "https://dc.lft.to/lastmile_qr_scan"}, "bike_id": "8ce2c4bc96e1d6c991645bd4b401d6b4", "lat": 38.90890983333333, "name": "8ce2c4bc96e1d6c991645bd4b401d6b4", "lon": -77.044183, "fusion_lon": 0.0}, {"is_reserved": 0, "type": "electric_scooter", "fusion_lat": 0.0, "is_disabled": 0, "rental_uris": {"ios": "https://dc.lft.to/lastmile_qr_scan", "android": "https://dc.lft.to/lastmile_qr_scan"}, "bike_id": "de47945eff8a03f4af3835e190c0b766", "lat": 38.9022855, "name": "de47945eff8a03f4af3835e190c0b766", "lon": -77.01411383333334, "fusion_lon": 0.0}, {"is_reserved": 0, "type": "electric_bike", "fusion_lat": 0.0, "is_disabled": 0, "rental_uris": {"ios": "https://dc.lft.to/lastmile_qr_scan", "android": "https://dc.lft.to/lastmile_qr_scan"}, "bike_id": "15ec8bca7d2783398337ef963ad29aae", "lat": 38.87739233333333, "name": "15ec8bca7d2783398337ef963ad29aae", "lon": -77.14873416666667, "fusion_lon": 0.0}, {"is_reserved": 0, "type": "electric_scooter", "fusion_lat": 0.0, "is_disabled": 0, "rental_uris": {"ios": "https://dc.lft.to/lastmile_qr_scan", "android": "https://dc.lft.to/lastmile_qr_scan"}, "bike_id": "2e03b1050f132bdc36b4e697cf6ae5d7", "lat": 38.919333333333334, "name": "2e03b1050f132bdc36b4e697cf6ae5d7", "lon": -77.02505833333333, "fusion_lon": 0.0}, {"is_reserved": 0, "type": "electric_scooter", "fusion_lat": 0.0, "is_disabled": 0, "rental_uris": {"ios": "https://dc.lft.to/lastmile_qr_scan", "android": "https://dc.lft.to/lastmile_qr_scan"}, "bike_id": "2ea3c15fa0669acf6e684a4b36b0f444", "lat": 38.90762333333333, "name": "2ea3c15fa0669acf6e684a4b36b0f444", "lon": -77.01702116666667, "fusion_lon": 0.0}, {"is_reserved": 0, "type": "electric_scooter", "fusion_lat": 0.0, "is_disabled": 0, "rental_uris": {"ios": "https://dc.lft.to/lastmile_qr_scan", "android": "https://dc.lft.to/lastmile_qr_scan"}, "bike_id": "e4fb098470ac6ba0d2b77b8224877aa4", "lat": 38.87819316666667, "name": "e4fb098470ac6ba0d2b77b8224877aa4", "lon": -77.0085025, "fusion_lon": 0.0}, {"is_reserved": 0, "type": "electric_scooter", "fusion_lat": 0.0, "is_disabled": 0, "rental_uris": {"ios": "https://dc.lft.to/lastmile_qr_scan", "android": "https://dc.lft.to/lastmile_qr_scan"}, "bike_id": "50ac8101f8b4c9e294f2538e63ac74f8", "lat": 38.885055666666666, "name": "50ac8101f8b4c9e294f2538e63ac74f8", "lon": -76.99613966666666, "fusion_lon": 0.0}, {"is_reserved": 0, "type": "electric_bike", "fusion_lat": 0.0, "is_disabled": 0, "rental_uris": {"ios": "https://dc.lft.to/lastmile_qr_scan", "android": "https://dc.lft.to/lastmile_qr_scan"}, "bike_id": "9e8c6c6085d42d1676fa872ee3b51bd3", "lat": 39.005360333333336, "name": "9e8c6c6085d42d1676fa872ee3b51bd3", "lon": -77.1040295, "fusion_lon": 0.0}, {"is_reserved": 0, "type": "electric_scooter", "fusion_lat": 0.0, "is_disabled": 0, "rental_uris": {"ios": "https://dc.lft.to/lastmile_qr_scan", "android": "https://dc.lft.to/lastmile_qr_scan"}, "bike_id": "91b44fad9e89b510386645a2f26d2cdf", "lat": 38.90566666666667, "name": "91b44fad9e89b510386645a2f26d2cdf", "lon": -77.031172, "fusion_lon": 0.0}, {"is_reserved": 0, "type": "electric_scooter", "fusion_lat": 0.0, "is_disabled": 0, "rental_uris": {"ios": "https://dc.lft.to/lastmile_qr_scan", "android": "https://dc.lft.to/lastmile_qr_scan"}, "bike_id": "affd1412bfb70cbfa63f422457735c10", "lat": 38.92966283333333, "name": "affd1412bfb70cbfa63f422457735c10", "lon": -77.02344766666667, "fusion_lon": 0.0}, {"is_reserved": 0, "type": "electric_scooter", "fusion_lat": 0.0, "is_disabled": 0, "rental_uris": {"ios": "https://dc.lft.to/lastmile_qr_scan", "android": "https://dc.lft.to/lastmile_qr_scan"}, "bike_id": "ab34207191f059ab660cd59d3ca32ff7", "lat": 38.91470616666667, "name": "ab34207191f059ab660cd59d3ca32ff7", "lon": -77.00927316666667, "fusion_lon": 0.0}, {"is_reserved": 0, "type": "electric_scooter", "fusion_lat": 0.0, "is_disabled": 0, "rental_uris": {"ios": "https://dc.lft.to/lastmile_qr_scan", "android": "https://dc.lft.to/lastmile_qr_scan"}, "bike_id": "37eae315144b824b2ce9400e41a00d54", "lat": 38.89845583333334, "name": "37eae315144b824b2ce9400e41a00d54", "lon": -76.99489716666666, "fusion_lon": 0.0}, {"is_reserved": 0, "type": "electric_scooter", "fusion_lat": 0.0, "is_disabled": 0, "rental_uris": {"ios": "https://dc.lft.to/lastmile_qr_scan", "android": "https://dc.lft.to/lastmile_qr_scan"}, "bike_id": "a1305ed27cda08361616b04e8e7e4558", "lat": 38.897704166666664, "name": "a1305ed27cda08361616b04e8e7e4558", "lon": -77.01230466666667, "fusion_lon": 0.0}, {"is_reserved": 0, "type": "electric_bike", "fusion_lat": 0.0, "is_disabled": 0, "rental_uris": {"ios": "https://dc.lft.to/lastmile_qr_scan", "android": "https://dc.lft.to/lastmile_qr_scan"}, "bike_id": "bc438b7a56f6e1651a89b0f6f7dd5b7f", "lat": 38.865117, "name": "bc438b7a56f6e1651a89b0f6f7dd5b7f", "lon": -76.973336, "fusion_lon": 0.0}, {"is_reserved": 0, "type": "electric_scooter", "fusion_lat": 0.0, "is_disabled": 0, "rental_uris": {"ios": "https://dc.lft.to/lastmile_qr_scan", "android": "https://dc.lft.to/lastmile_qr_scan"}, "bike_id": "dfa6a3c7ed7f9162b32e06b0701e0f78", "lat": 38.914602333333335, "name": "dfa6a3c7ed7f9162b32e06b0701e0f78", "lon": -77.02289633333334, "fusion_lon": 0.0}, {"is_reserved": 0, "type": "electric_scooter", "fusion_lat": 0.0, "is_disabled": 0, "rental_uris": {"ios": "https://dc.lft.to/lastmile_qr_scan", "android": "https://dc.lft.to/lastmile_qr_scan"}, "bike_id": "fb059481ffc8e1a3962cc0136e4e2eee", "lat": 38.887647333333334, "name": "fb059481ffc8e1a3962cc0136e4e2eee", "lon": -77.00048683333333, "fusion_lon": 0.0}, {"is_reserved": 0, "type": "electric_bike", "fusion_lat": 0.0, "is_disabled": 0, "rental_uris": {"ios": "https://dc.lft.to/lastmile_qr_scan", "android": "https://dc.lft.to/lastmile_qr_scan"}, "bike_id": "76011300bacf03045622cff4737a4ad4", "lat": 38.8508715, "name": "76011300bacf03045622cff4737a4ad4", "lon": -76.98158283333333, "fusion_lon": 0.0}, {"is_reserved": 0, "type": "electric_scooter", "fusion_lat": 0.0, "is_disabled": 0, "rental_uris": {"ios": "https://dc.lft.to/lastmile_qr_scan", "android": "https://dc.lft.to/lastmile_qr_scan"}, "bike_id": "c1911092388ec72ef588e085339ba2f8", "lat": 38.922351666666664, "name": "c1911092388ec72ef588e085339ba2f8", "lon": -77.02832433333333, "fusion_lon": 0.0}, {"is_reserved": 0, "type": "electric_scooter", "fusion_lat": 0.0, "is_disabled": 0, "rental_uris": {"ios": "https://dc.lft.to/lastmile_qr_scan", "android": "https://dc.lft.to/lastmile_qr_scan"}, "bike_id": "64f34f64a7f05dabd84216145cfe7c63", "lat": 38.90999, "name": "64f34f64a7f05dabd84216145cfe7c63", "lon": -77.02691083333333, "fusion_lon": 0.0}, {"is_reserved": 0, "type": "electric_scooter", "fusion_lat": 0.0, "is_disabled": 0, "rental_uris": {"ios": "https://dc.lft.to/lastmile_qr_scan", "android": "https://dc.lft.to/lastmile_qr_scan"}, "bike_id": "bec36b10baae5bd6ad84ea7ae5677e15", "lat": 38.933308, "name": "bec36b10baae5bd6ad84ea7ae5677e15", "lon": -77.02912216666667, "fusion_lon": 0.0}, {"is_reserved": 0, "type": "electric_scooter", "fusion_lat": 0.0, "is_disabled": 0, "rental_uris": {"ios": "https://dc.lft.to/lastmile_qr_scan", "android": "https://dc.lft.to/lastmile_qr_scan"}, "bike_id": "a03170142ebf4b8a4568ca071d774c14", "lat": 38.921096666666664, "name": "a03170142ebf4b8a4568ca071d774c14", "lon": -77.03644616666666, "fusion_lon": 0.0}, {"is_reserved": 0, "type": "electric_scooter", "fusion_lat": 0.0, "is_disabled": 0, "rental_uris": {"ios": "https://dc.lft.to/lastmile_qr_scan", "android": "https://dc.lft.to/lastmile_qr_scan"}, "bike_id": "a5ce69a66f17e4bf51f55414c2479338", "lat": 38.9221375, "name": "a5ce69a66f17e4bf51f55414c2479338", "lon": -77.02026716666667, "fusion_lon": 0.0}, {"is_reserved": 0, "type": "electric_bike", "fusion_lat": 0.0, "is_disabled": 0, "rental_uris": {"ios": "https://dc.lft.to/lastmile_qr_scan", "android": "https://dc.lft.to/lastmile_qr_scan"}, "bike_id": "920cc1096151f25a4869750d83f00c49", "lat": 38.931205, "name": "920cc1096151f25a4869750d83f00c49", "lon": -77.02708366666667, "fusion_lon": 0.0}, {"is_reserved": 0, "type": "electric_scooter", "fusion_lat": 0.0, "is_disabled": 0, "rental_uris": {"ios": "https://dc.lft.to/lastmile_qr_scan", "android": "https://dc.lft.to/lastmile_qr_scan"}, "bike_id": "acc94f3dc2c1a08da742f8be1dcf8883", "lat": 38.91744833333333, "name": "acc94f3dc2c1a08da742f8be1dcf8883", "lon": -77.0108805, "fusion_lon": 0.0}, {"is_reserved": 0, "type": "electric_bike", "fusion_lat": 0.0, "is_disabled": 0, "rental_uris": {"ios": "https://dc.lft.to/lastmile_qr_scan", "android": "https://dc.lft.to/lastmile_qr_scan"}, "bike_id": "d607f834d3ae06ee96e0a6701128ed6f", "lat": 38.91454183333333, "name": "d607f834d3ae06ee96e0a6701128ed6f", "lon": -76.97278916666667, "fusion_lon": 0.0}, {"is_reserved": 0, "type": "electric_scooter", "fusion_lat": 0.0, "is_disabled": 0, "rental_uris": {"ios": "https://dc.lft.to/lastmile_qr_scan", "android": "https://dc.lft.to/lastmile_qr_scan"}, "bike_id": "d57e9a07d47144d0f552c9da9ddba80f", "lat": 38.9013845, "name": "d57e9a07d47144d0f552c9da9ddba80f", "lon": -76.97410033333334, "fusion_lon": 0.0}, {"is_reserved": 0, "type": "electric_bike", "fusion_lat": 0.0, "is_disabled": 0, "rental_uris": {"ios": "https://dc.lft.to/lastmile_qr_scan", "android": "https://dc.lft.to/lastmile_qr_scan"}, "bike_id": "3e901315d129b1ea6aa5d690c5cca415", "lat": 38.96736033333333, "name": "3e901315d129b1ea6aa5d690c5cca415", "lon": -77.08915933333333, "fusion_lon": 0.0}, {"is_reserved": 0, "type": "electric_bike", "fusion_lat": 0.0, "is_disabled": 0, "rental_uris": {"ios": "https://dc.lft.to/lastmile_qr_scan", "android": "https://dc.lft.to/lastmile_qr_scan"}, "bike_id": "dd661b01934d2eaf2eb1889e834e1075", "lat": 38.8358615, "name": "dd661b01934d2eaf2eb1889e834e1075", "lon": -76.99021916666666, "fusion_lon": 0.0}, {"is_reserved": 0, "type": "electric_scooter", "fusion_lat": 0.0, "is_disabled": 0, "rental_uris": {"ios": "https://dc.lft.to/lastmile_qr_scan", "android": "https://dc.lft.to/lastmile_qr_scan"}, "bike_id": "08b8712048f01afc3e6cf665fd1d68ec", "lat": 38.929529333333335, "name": "08b8712048f01afc3e6cf665fd1d68ec", "lon": -77.0440445, "fusion_lon": 0.0}, {"is_reserved": 0, "type": "electric_scooter", "fusion_lat": 0.0, "is_disabled": 0, "rental_uris": {"ios": "https://dc.lft.to/lastmile_qr_scan", "android": "https://dc.lft.to/lastmile_qr_scan"}, "bike_id": "8e739a62685655b2c801e1265ce94885", "lat": 38.92230083333333, "name": "8e739a62685655b2c801e1265ce94885", "lon": -76.97533583333333, "fusion_lon": 0.0},