{"data": {"bikes": [{"is_reserved": 0, "fusion_lon": 0.0, "fusion_lat": 0.0, "name": "7f527cb9c9814a941111ccdc4894d553", "type": "electric_scooter", "is_disabled": 0, "lat": 38.89222683333333, "rental_uris": {"android": "https://dc.lft.to/lastmile_qr_scan", "ios": "https://dc.lft.to/lastmile_qr_scan"}, "bike_id": "7f527cb9c9814a941111ccdc4894d553", "lon": -77.04506333333333}, {"is_reserved": 0, "fusion_lon": 0.0, "fusion_lat": 0.0, "name": "382ead10e62f2a1e3af551c3abc431cd", "type": "electric_scooter", "is_disabled": 0, "lat": 38.864015333333334, "rental_uris": {"android": "https://dc.lft.to/lastmile_qr_scan", "ios": "https://dc.lft.to/lastmile_qr_scan"}, "bike_id": "382ead10e62f2a1e3af551c3abc431cd", "lon": -76.97447116666666}, {"is_reserved": 0, "fusion_lon": 0.0, "fusion_lat": 0.0, "name": "6b0abbcff24cf447459b2c15d7d38b19", "type": "electric_scooter", "is_disabled": 0, "lat": 38.922322, "rental_uris": {"android": "https://dc.lft.to/lastmile_qr_scan", "ios": "https://dc.lft.to/lastmile_qr_scan"}, "bike_id": "6b0abbcff24cf447459b2c15d7d38b19", "lon": -77.02334266666666}, {"is_reserved": 0, "fusion_lon": 0.0, "fusion_lat": 0.0, "name": "e4255837f8a073e940330137622c87e7", "type": "electric_scooter", "is_disabled": 0, "lat": 38.86073583333334, "rental_uris": {"android": "https://dc.lft.to/lastmile_qr_scan", "ios": "https://dc.lft.to/lastmile_qr_scan"}, "bike_id": "e4255837f8a073e940330137622c87e7", "lon": -76.968906}, {"is_reserved": 0, "fusion_lon": 0.0, "fusion_lat": 0.0, "name": "36b778597202d546ebb858741d82a029", "type": "electric_scooter", "is_disabled": 0, "lat": 38.90619, "rental_uris": {"android": "https://dc.lft.to/lastmile_qr_scan", "ios": "https://dc.lft.to/lastmile_qr_scan"}, "bike_id": "36b778597202d546ebb858741d82a029", "lon": -77.04770816666667}, {"is_reserved": 0, "fusion_lon": 0.0, "fusion_lat": 0.0, "name": "8b768d884a3855125cf63e8e38827741", "type": "electric_scooter", "is_disabled": 0, "lat": 38.906710833333335, "rental_uris": {"android": "https://dc.lft.to/lastmile_qr_scan", "ios": "https://dc.lft.to/lastmile_qr_scan"}, "bike_id": "8b768d884a3855125cf63e8e38827741", "lon": -77.03843316666666}, {"is_reserved": 0, "fusion_lon": 0.0, "fusion_lat": 0.0, "name": "bf91199aa6ac2c0991fc063656651ae0", "type": "electric_bike", "is_disabled": 0, "lat": 38.9478765, "rental_uris": {"android": "https://dc.lft.to/lastmile_qr_scan", "ios": "https://dc.lft.to/lastmile_qr_scan"}, "bike_id": "bf91199aa6ac2c0991fc063656651ae0", "lon": -76.972108}, {"is_reserved": 0, "fusion_lon": 0.0, "fusion_lat": 0.0, "name": "66e74e50f8edf17b34a5304913b3fd26", "type": "electric_scooter", "is_disabled": 0, "lat": 38.89878933333333, "rental_uris": {"android": "https://dc.lft.to/lastmile_qr_scan", "ios": "https://dc.lft.to/lastmile_qr_scan"}, "bike_id": "66e74e50f8edf17b34a5304913b3fd26", "lon": -76.9318785}, {"is_reserved": 0, "fusion_lon": 0.0, "fusion_lat": 0.0, "name": "5640e2b7b85a2e74a3e59a2b24e8e631", "type": "electric_scooter", "is_disabled": 0, "lat": 38.8874835, "rental_uris": {"android": "https://dc.lft.to/lastmile_qr_scan", "ios": "https://dc.lft.to/lastmile_qr_scan"}, "bike_id": "5640e2b7b85a2e74a3e59a2b24e8e631", "lon": -77.01541966666667}, {"is_reserved": 0, "fusion_lon": 0.0, "fusion_lat": 0.0, "name": "ed64c171c520e6bfb46ef155f582f8ac", "type": "electric_bike", "is_disabled": 0, "lat": 39.0243445, "rental_uris": {"android": "https://dc.lft.to/lastmile_qr_scan", "ios": "https://dc.lft.to/lastmile_qr_scan"}, "bike_id": "ed64c171c520e6bfb46ef155f582f8ac", "lon": -77.131015}, {"is_reserved": 0, "fusion_lon": 0.0, "fusion_lat": 0.0, "name": "025769ce4a11f3a1cbb9cd388298bd5e", "type": "electric_scooter", "is_disabled": 0, "lat": 38.929975, "rental_uris": {"android": "https://dc.lft.to/lastmile_qr_scan", "ios": "https://dc.lft.to/lastmile_qr_scan"}, "bike_id": "025769ce4a11f3a1cbb9cd388298bd5e", "lon": -77.0442935}, {"is_reserved": 0, "fusion_lon": 0.0, "fusion_lat": 0.0, "name": "72393eae6ac745deaf305793fd211aa3", "type": "electric_scooter", "is_disabled": 0, "lat": 38.905854, "rental_uris": {"android": "https://dc.lft.to/lastmile_qr_scan", "ios": "https://dc.lft.to/lastmile_qr_scan"}, "bike_id": "72393eae6ac745deaf305793fd211aa3", "lon": -77.04476466666667}, {"is_reserved": 0, "fusion_lon": 0.0, "fusion_lat": 0.0, "name": "f71dcf916fa4869b4ef3629d09fccea2", "type": "electric_scooter", "is_disabled": 0, "lat": 38.883270833333334, "rental_uris": {"android": "https://dc.lft.to/lastmile_qr_scan", "ios": "https://dc.lft.to/lastmile_qr_scan"}, "bike_id": "f71dcf916fa4869b4ef3629d09fccea2", "lon": -77.02020733333333}, {"is_reserved": 0, "fusion_lon": 0.0, "fusion_lat": 0.0, "name": "36e15c58427e00402a209df918de3d1b", "type": "electric_scooter", "is_disabled": 0, "lat": 38.9192135, "rental_uris": {"android": "https://dc.lft.to/lastmile_qr_scan", "ios": "https://dc.lft.to/lastmile_qr_scan"}, "bike_id": "36e15c58427e00402a209df918de3d1b", "lon": -77.031777}, {"is_reserved": 0, "fusion_lon": 0.0, "fusion_lat": 0.0, "name": "fbb0d9483109d995a60f87354767b196", "type": "electric_scooter", "is_disabled": 0, "lat": 38.932716666666664, "rental_uris": {"android": "https://dc.lft.to/lastmile_qr_scan", "ios": "https://dc.lft.to/lastmile_qr_scan"}, "bike_id": "fbb0d9483109d995a60f87354767b196", "lon": -77.0284075}, {"is_reserved": 0, "fusion_lon": 0.0, "fusion_lat": 0.0, "name": "6c94ef2177b5daad5ee3076db174735d", "type": "electric_scooter", "is_disabled": 0, "lat": 38.896074166666665, "rental_uris": {"android": "https://dc.lft.to/lastmile_qr_scan", "ios": "https://dc.lft.to/lastmile_qr_scan"}, "bike_id": "6c94ef2177b5daad5ee3076db174735d", "lon": -77.03172883333333}, {"is_reserved": 0, "fusion_lon": 0.0, "fusion_lat": 0.0, "name": "5c338dd794c1966645c9f272a5f23ff9", "type": "electric_scooter", "is_disabled": 0, "lat": 38.921097, "rental_uris": {"android": "https://dc.lft.to/lastmile_qr_scan", "ios": "https://dc.lft.to/lastmile_qr_scan"}, "bike_id": "5c338dd794c1966645c9f272a5f23ff9", "lon": -77.02517666666667}, {"is_reserved": 0, "fusion_lon": 0.0, "fusion_lat": 0.0, "name": "d57f42c3ee3d1db6a3d93b07d1822b5a", "type": "electric_scooter", "is_disabled": 0, "lat": 38.87145816666666, "rental_uris": {"android": "https://dc.lft.to/lastmile_qr_scan", "ios": "https://dc.lft.to/lastmile_qr_scan"}, "bike_id": "d57f42c3ee3d1db6a3d93b07d1822b5a", "lon": -77.007092}, {"is_reserved": 0, "fusion_lon": 0.0, "fusion_lat": 0.0, "name": "a8f9cebf34ad557cc2d7ddbc3a5830cf", "type": "electric_bike", "is_disabled": 0, "lat": 38.9565265, "rental_uris": {"android": "https://dc.lft.to/lastmile_qr_scan", "ios": "https://dc.lft.to/lastmile_qr_scan"}, "bike_id": "a8f9cebf34ad557cc2d7ddbc3a5830cf", "lon": -77.01278866666667}, {"is_reserved": 0, "fusion_lon": 0.0, "fusion_lat": 0.0, "name": "33da5c5d9ae11b9ff4ef9666e6d2a815", "type": "electric_scooter", "is_disabled": 0, "lat": 38.90675916666667, "rental_uris": {"android": "https://dc.lft.to/lastmile_qr_scan", "ios": "https://dc.lft.to/lastmile_qr_scan"}, "bike_id": "33da5c5d9ae11b9ff4ef9666e6d2a815", "lon": -77.03837616666667}, {"is_reserved": 0, "fusion_lon": 0.0, "fusion_lat": 0.0, "name": "d035e8c70641765a45f22d173123f2fe", "type": "electric_scooter", "is_disabled": 0, "lat": 38.919308, "rental_uris": {"android": "https://dc.lft.to/lastmile_qr_scan", "ios": "https://dc.lft.to/lastmile_qr_scan"}, "bike_id": "d035e8c70641765a45f22d173123f2fe", "lon": -77.025103}, {"is_reserved": 0, "fusion_lon": 0.0, "fusion_lat": 0.0, "name": "db135d427c083d58fd3ed2280e0559e0", "type": "electric_scooter", "is_disabled": 0, "lat": 38.904535333333335, "rental_uris": {"android": "https://dc.lft.to/lastmile_qr_scan", "ios": "https://dc.lft.to/lastmile_qr_scan"}, "bike_id": "db135d427c083d58fd3ed2280e0559e0", "lon": -77.038053}, {"is_reserved": 0, "fusion_lon": 0.0, "fusion_lat": 0.0, "name": "d9e488a363c553a98bc8152b6583dafe", "type": "electric_scooter", "is_disabled": 0, "lat": 38.866573, "rental_uris": {"android": "https://dc.lft.to/lastmile_qr_scan", "ios": "https://dc.lft.to/lastmile_qr_scan"}, "bike_id": "d9e488a363c553a98bc8152b6583dafe", "lon": -76.98886416666667}, {"is_reserved": 0, "fusion_lon": 0.0, "fusion_lat": 0.0, "name": "5782f712f4aa2aa3bc9cbf2ce9bf55c7", "type": "electric_bike", "is_disabled": 0, "lat": 38.98816333333333, "rental_uris": {"android": "https://dc.lft.to/lastmile_qr_scan", "ios": "https://dc.lft.to/lastmile_qr_scan"}, "bike_id": "5782f712f4aa2aa3bc9cbf2ce9bf55c7", "lon": -77.026527}, {"is_reserved": 0, "fusion_lon": 0.0, "fusion_lat": 0.0, "name": "77b5c32a4ddea5a4eb11f80009916a99", "type": "electric_scooter", "is_disabled": 0, "lat": 38.8961935, "rental_uris": {"android": "https://dc.lft.to/lastmile_qr_scan", "ios": "https://dc.lft.to/lastmile_qr_scan"}, "bike_id": "77b5c32a4ddea5a4eb11f80009916a99", "lon": -76.981656}, {"is_reserved": 0, "fusion_lon": 0.0, "fusion_lat": 0.0, "name": "86e951530938fc126383e898a46730ca", "type": "electric_scooter", "is_disabled": 0, "lat": 38.9181925, "rental_uris": {"android": "https://dc.lft.to/lastmile_qr_scan", "ios": "https://dc.lft.to/lastmile_qr_scan"}, "bike_id": "86e951530938fc126383e898a46730ca", "lon": -77.03250516666667}, {"is_reserved": 0, "fusion_lon": 0.0, "fusion_lat": 0.0, "name": "193a25808b825ca8048fe724bbe75215", "type": "electric_scooter", "is_disabled": 0, "lat": 38.89363933333333, "rental_uris": {"android": "https://dc.lft.to/lastmile_qr_scan", "ios": "https://dc.lft.to/lastmile_qr_scan"}, "bike_id": "193a25808b825ca8048fe724bbe75215", "lon": -77.05493983333334}, {"is_reserved": 0, "fusion_lon": 0.0, "fusion_lat": 0.0, "name": "f78b769a0d818293500d6bf99fee4612", "type": "electric_scooter", "is_disabled": 0, "lat": 38.951898166666666, "rental_uris": {"android": "https://dc.lft.to/lastmile_qr_scan", "ios": "https://dc.lft.to/lastmile_qr_scan"}, "bike_id": "f78b769a0d818293500d6bf99fee4612", "lon": -77.02612233333333}, {"is_reserved": 0, "fusion_lon": 0.0, "fusion_lat": 0.0, "name": "33f02de66faa3352054fb28932a3df71", "type": "electric_scooter", "is_disabled": 0, "lat": 38.88391933333333, "rental_uris": {"android": "https://dc.lft.to/lastmile_qr_scan", "ios": "https://dc.lft.to/lastmile_qr_scan"}, "bike_id": "33f02de66faa3352054fb28932a3df71", "lon": -76.95448033333334}, {"is_reserved": 0, "fusion_lon": 0.0, "fusion_lat": 0.0, "name": "7a24584d261ea4383e1da14043a1fa87", "type": "electric_scooter", "is_disabled": 0, "lat": 38.92777016666667, "rental_uris": {"android": "https://dc.lft.to/lastmile_qr_scan", "ios": "https://dc.lft.to/lastmile_qr_scan"}, "bike_id": "7a24584d261ea4383e1da14043a1fa87", "lon": -77.05266216666666}, {"is_reserved": 0, "fusion_lon": 0.0, "fusion_lat": 0.0, "name": "991a0b0e1243a05ef8e9c9a47697c3b2", "type": "electric_scooter", "is_disabled": 0, "lat": 38.9079255, "rental_uris": {"android": "https://dc.lft.to/lastmile_qr_scan", "ios": "https://dc.lft.to/lastmile_qr_scan"}, "bike_id": "991a0b0e1243a05ef8e9c9a47697c3b2", "lon": -77.03195833333334}, {"is_reserved": 0, "fusion_lon": 0.0, "fusion_lat": 0.0, "name": "79ba20b48c07503af0d5f596148cb7c4", "type": "electric_scooter", "is_disabled": 0, "lat": 38.9229445, "rental_uris": {"android": "https://dc.lft.to/lastmile_qr_scan", "ios": "https://dc.lft.to/lastmile_qr_scan"}, "bike_id": "79ba20b48c07503af0d5f596148cb7c4", "lon": -77.0426505}, {"is_reserved": 0, "fusion_lon": 0.0, "fusion_lat": 0.0, "name": "a850c6a4efa4cd74f0f4c2d55090ade8", "type": "electric_bike", "is_disabled": 0, "lat": 38.961850166666665, "rental_uris": {"android": "https://dc.lft.to/lastmile_qr_scan", "ios": "https://dc.lft.to/lastmile_qr_scan"}, "bike_id": "a850c6a4efa4cd74f0f4c2d55090ade8", "lon": -77.07379666666667}, {"is_reserved": 0, "fusion_lon": 0.0, "fusion_lat": 0.0, "name": "9c0a9b1428d7ea881be2bcf1cb45870c", "type": "electric_scooter", "is_disabled": 0, "lat": 38.884726666666666, "rental_uris": {"android": "https://dc.lft.to/lastmile_qr_scan", "ios": "https://dc.lft.to/lastmile_qr_scan"}, "bike_id": "9c0a9b1428d7ea881be2bcf1cb45870c", "lon": -77.02658316666667}, {"is_reserved": 0, "fusion_lon": 0.0, "fusion_lat": 0.0, "name": "9f2e34ab5cb0680ee22654016dbf19a0", "type": "electric_scooter", "is_disabled": 0, "lat": 38.920710166666666, "rental_uris": {"android": "https://dc.lft.to/lastmile_qr_scan", "ios": "https://dc.lft.to/lastmile_qr_scan"}, "bike_id": "9f2e34ab5cb0680ee22654016dbf19a0", "lon": -77.024166}, {"is_reserved": 0, "fusion_lon": 0.0, "fusion_lat": 0.0, "name": "226240bfab9a8510041976e187c34702", "type": "electric_scooter", "is_disabled": 0, "lat": 38.896531333333336, "rental_uris": {"android": "https://dc.lft.to/lastmile_qr_scan", "ios": "https://dc.lft.to/lastmile_qr_scan"}, "bike_id": "226240bfab9a8510041976e187c34702", "lon": -77.0501295}, {"is_reserved": 0, "fusion_lon": 0.0, "fusion_lat": 0.0, "name": "2b15704299b4e601e815181dca37f39d", "type": "electric_scooter", "is_disabled": 0, "lat": 38.94462566666667, "rental_uris": {"android": "https://dc.lft.to/lastmile_qr_scan", "ios": "https://dc.lft.to/lastmile_qr_scan"}, "bike_id": "2b15704299b4e601e815181dca37f39d", "lon": -77.06024716666667}, {"is_reserved": 0, "fusion_lon": 0.0, "fusion_lat": 0.0, "name": "753c498403d90d4e573fcfe46bb91997", "type": "electric_scooter", "is_disabled": 0, "lat": 38.8929615, "rental_uris": {"android": "https://dc.lft.to/lastmile_qr_scan", "ios": "https://dc.lft.to/lastmile_qr_scan"}, "bike_id": "753c498403d90d4e573fcfe46bb91997", "lon": -76.998258}, {"is_reserved": 0, "fusion_lon": 0.0, "fusion_lat": 0.0, "name": "a896baa589ab1c1a5012fa576698d9c3", "type": "electric_scooter", "is_disabled": 0, "lat": 38.90777883333333, "rental_uris": {"android": "https://dc.lft.to/lastmile_qr_scan", "ios": "https://dc.lft.to/lastmile_qr_scan"}, "bike_id": "a896baa589ab1c1a5012fa576698d9c3", "lon": -77.03829666666667}, {"is_reserved": 0, "fusion_lon": 0.0, "fusion_lat": 0.0, "name": "f37b2b08ab1f82e2e211bcf3f1f20fea", "type": "electric_scooter", "is_disabled": 0, "lat": 38.90364966666667, "rental_uris": {"android": "https://dc.lft.to/lastmile_qr_scan", "ios": "https://dc.lft.to/lastmile_qr_scan"}, "bike_id": "f37b2b08ab1f82e2e211bcf3f1f20fea", "lon": -77.0402405}, {"is_reserved": 0, "fusion_lon": 0.0, "fusion_lat": 0.0, "name": "3e3d1f765fce81a5fef10b6992b0df26", "type": "electric_scooter", "is_disabled": 0, "lat": 38.89802783333333, "rental_uris": {"android": "https://dc.lft.to/lastmile_qr_scan", "ios": "https://dc.lft.to/lastmile_qr_scan"}, "bike_id": "3e3d1f765fce81a5fef10b6992b0df26", "lon": -77.02471183333333}, {"is_reserved": 0, "fusion_lon": 0.0, "fusion_lat": 0.0, "name": "fa3606934d37c493af3dc86c57963245", "type": "electric_bike", "is_disabled": 0, "lat": 38.962758666666666, "rental_uris": {"android": "https://dc.lft.to/lastmile_qr_scan", "ios": "https://dc.lft.to/lastmile_qr_scan"}, "bike_id": "fa3606934d37c493af3dc86c57963245", "lon": -77.01455316666667}, {"is_reserved": 0, "fusion_lon": 0.0, "fusion_lat": 0.0, "name": "df07c0cdc1d62d0b91d60dd66139faa4", "type": "electric_bike", "is_disabled": 0, "lat": 38.9309315, "rental_uris": {"android": "https://dc.lft.to/lastmile_qr_scan", "ios": "https://dc.lft.to/lastmile_qr_scan"}, "bike_id": "df07c0cdc1d62d0b91d60dd66139faa4", "lon": -77.025947}, {"is_reserved": 0, "fusion_lon": 0.0, "fusion_lat": 0.0, "name": "2511cf74fd88afcbda271878cfaeffc9", "type": "electric_scooter", "is_disabled": 0, "lat": 38.9344475, "rental_uris": {"android": "https://dc.lft.to/lastmile_qr_scan", "ios": "https://dc.lft.to/lastmile_qr_scan"}, "bike_id": "2511cf74fd88afcbda271878cfaeffc9", "lon": -76.99888183333333}, {"is_reserved": 0, "fusion_lon": 0.0, "fusion_lat": 0.0, "name": "a631c08a00b6b158d2ce38ef0f54d1da", "type": "electric_scooter", "is_disabled": 0, "lat": 38.9267605, "rental_uris": {"android": "https://dc.lft.to/lastmile_qr_scan", "ios": "https://dc.lft.to/lastmile_qr_scan"}, "bike_id": "a631c08a00b6b158d2ce38ef0f54d1da", "lon": -77.02783116666667}, {"is_reserved": 0, "fusion_lon": 0.0, "fusion_lat": 0.0, "name": "4cc1b94f3052cd6061c2029dd2645d25", "type": "electric_scooter", "is_disabled": 0, "lat": 38.9217525, "rental_uris": {"android": "https://dc.lft.to/lastmile_qr_scan", "ios": "https://dc.lft.to/lastmile_qr_scan"}, "bike_id": "4cc1b94f3052cd6061c2029dd2645d25", "lon": -77.04016333333334}, {"is_reserved": 0, "fusion_lon": 0.0, "fusion_lat": 0.0, "name": "2d46f1a33b24e36b74af810c521c9a94", "type": "electric_scooter", "is_disabled": 0, "lat": 38.9006445, "rental_uris": {"android": "https://dc.lft.to/lastmile_qr_scan", "ios": "https://dc.lft.to/lastmile_qr_scan"}, "bike_id": "2d46f1a33b24e36b74af810c521c9a94", "lon": -76.94691283333333}, {"is_reserved": 0, "fusion_lon": 0.0, "fusion_lat": 0.0, "name": "30e8595ca1ff8da7d489f225ce368b4b", "type": "electric_scooter", "is_disabled": 0, "lat": 38.950831, "rental_uris": {"android": "https://dc.lft.to/lastmile_qr_scan", "ios": "https://dc.lft.to/lastmile_qr_scan"}, "bike_id": "30e8595ca1ff8da7d489f225ce368b4b", "lon": -77.02321883333333}, {"is_reserved": 0, "fusion_lon": 0.0, "fusion_lat": 0.0, "name": "6f2abd5068ea0bdd6c61d92fe372a7ef", "type": "electric_scooter", "is_disabled": 0, "lat": 38.892209, "rental_uris": {"android": "https://dc.lft.to/lastmile_qr_scan", "ios": "https://dc.lft.to/lastmile_qr_scan"}, "bike_id": "6f2abd5068ea0bdd6c61d92fe372a7ef", "lon": -77.026294}, {"is_reserved": 0, "fusion_lon": 0.0, "fusion_lat": 0.0, "name": "14d554e77f45d910de73a60236f69302", "type": "electric_bike", "is_disabled": 0, "lat": 38.96738933333334, "rental_uris": {"android": "https://dc.lft.to/lastmile_qr_scan", "ios": "https://dc.lft.to/lastmile_qr_scan"}, "bike_id": "14d554e77f45d910de73a60236f69302", "lon": -76.9604555}, {"is_reserved": 0, "fusion_lon": 0.0, "fusion_lat": 0.0, "name": "c2dd7b6860fa45715a92f2020adaafa9", "type": "electric_bike", "is_disabled": 0, "lat": 38.9032955, "rental_uris": {"android": "https://dc.lft.to/lastmile_qr_scan", "ios": "https://dc.lft.to/lastmile_qr_scan"}, "bike_id": "c2dd7b6860fa45715a92f2020adaafa9", "lon": -76.9753205}, {"is_reserved": 0, "fusion_lon": 0.0, "fusion_lat": 0.0, "name": "bc8fd576f239c7bae48100eafec2fed8", "type": "electric_scooter", "is_disabled": 0, "lat": 38.91763, "rental_uris": {"android": "https://dc.lft.to/lastmile_qr_scan", "ios": "https://dc.lft.to/lastmile_qr_scan"}, "bike_id": "bc8fd576f239c7bae48100eafec2fed8", "lon": -77.03642}, {"is_reserved": 0, "fusion_lon": 0.0, "fusion_lat": 0.0, "name": "d6a4bc16e2ee8d6ffaae62b237fc1b2a", "type": "electric_scooter", "is_disabled": 0, "lat": 38.897327, "rental_uris": {"android": "https://dc.lft.to/lastmile_qr_scan", "ios": "https://dc.lft.to/lastmile_qr_scan"}, "bike_id": "d6a4bc16e2ee8d6ffaae62b237fc1b2a", "lon": -77.05520833333334}, {"is_reserved": 0, "fusion_lon": 0.0, "fusion_lat": 0.0, "name": "4c74867c28fd0ed57e06141438290908", "type": "electric_scooter", "is_disabled": 0, "lat": 38.922360166666664, "rental_uris": {"android": "https://dc.lft.to/lastmile_qr_scan", "ios": "https://dc.lft.to/lastmile_qr_scan"}, "bike_id": "4c74867c28fd0ed57e06141438290908", "lon": -77.01826883333334}, {"is_reserved": 0, "fusion_lon": 0.0, "fusion_lat": 0.0, "name": "dade964fdbe9ec4fb0e682f13ec9960e", "type": "electric_scooter", "is_disabled": 0, "lat": 38.9200605, "rental_uris": {"android": "https://dc.lft.to/lastmile_qr_scan", "ios": "https://dc.lft.to/lastmile_qr_scan"}, "bike_id": "dade964fdbe9ec4fb0e682f13ec9960e", "lon": -77.041717}, {"is_reserved": 0, "fusion_lon": 0.0, "fusion_lat": 0.0, "name": "263cb2c2fc4ededafe9f81f1f9dd9295", "type": "electric_scooter", "is_disabled": 0, "lat": 38.886085333333334, "rental_uris": {"android": "https://dc.lft.to/lastmile_qr_scan", "ios": "https://dc.lft.to/lastmile_qr_scan"}, "bike_id": "263cb2c2fc4ededafe9f81f1f9dd9295", "lon": -76.99512183333333}, {"is_reserved": 0, "fusion_lon": 0.0, "fusion_lat": 0.0, "name": "5602cae4253729970d9f7e9099ae19a1", "type": "electric_scooter", "is_disabled": 0, "lat": 38.93295233333333, "rental_uris": {"android": "https://dc.lft.to/lastmile_qr_scan", "ios": "https://dc.lft.to/lastmile_qr_scan"}, "bike_id": "5602cae4253729970d9f7e9099ae19a1", "lon": -77.0218875}, {"is_reserved": 0, "fusion_lon": 0.0, "fusion_lat": 0.0, "name": "6e3d2e2b7dbb94a4378bb07e6555a0b2", "type": "electric_bike", "is_disabled": 0, "lat": 38.89658683333333, "rental_uris": {"android": "https://dc.lft.to/lastmile_qr_scan", "ios": "https://dc.lft.to/lastmile_qr_scan"}, "bike_id": "6e3d2e2b7dbb94a4378bb07e6555a0b2", "lon": -76.93011716666666}, {"is_reserved": 0, "fusion_lon": 0.0, "fusion_lat": 0.0, "name": "ab39791fa023147340e097a827f46851", "type": "electric_scooter", "is_disabled": 0, "lat": 38.926776333333336, "rental_uris": {"android": "https://dc.lft.to/lastmile_qr_scan", "ios": "https://dc.lft.to/lastmile_qr_scan"}, "bike_id": "ab39791fa023147340e097a827f46851", "lon": -77.043514}, {"is_reserved": 0, "fusion_lon": 0.0, "fusion_lat": 0.0, "name": "95f5ec1b773df2df98baa2610cdd6baf", "type": "electric_scooter", "is_disabled": 0, "lat": 38.899152666666666, "rental_uris": {"android": "https://dc.lft.to/lastmile_qr_scan", "ios": "https://dc.lft.to/lastmile_qr_scan"}, "bike_id": "95f5ec1b773df2df98baa2610cdd6baf", "lon": -76.9338505}, {"is_reserved": 0, "fusion_lon": 0.0, "fusion_lat": 0.0, "name": "3725bafccecab5676e75d2ea93ef280f", "type": "electric_scooter", "is_disabled": 0, "lat": 38.90620533333333, "rental_uris": {"android": "https://dc.lft.to/lastmile_qr_scan", "ios": "https://dc.lft.to/lastmile_qr_scan"}, "bike_id": "3725bafccecab5676e75d2ea93ef280f", "lon": -77.04795016666667}, {"is_reserved": 0, "fusion_lon": 0.0, "fusion_lat": 0.0, "name": "a5c7ac2b9e563d062d101f6a77030ade", "type": "electric_scooter", "is_disabled": 0, "lat": 38.92685816666667, "rental_uris": {"android": "https://dc.lft.to/lastmile_qr_scan", "ios": "https://dc.lft.to/lastmile_qr_scan"}, "bike_id": "a5c7ac2b9e563d062d101f6a77030ade", "lon": -77.02996316666666}, {"is_reserved": 0, "fusion_lon": 0.0, "fusion_lat": 0.0, "name": "5022686f15322315eb4f623ae929feb6", "type": "electric_bike", "is_disabled": 0, "lat": 38.914364, "rental_uris": {"android": "https://dc.lft.to/lastmile_qr_scan", "ios": "https://dc.lft.to/lastmile_qr_scan"}, "bike_id": "5022686f15322315eb4f623ae929feb6", "lon": -77.01704216666667}, {"is_reserved": 0, "fusion_lon": 0.0, "fusion_lat": 0.0, "name": "a1c8ae713f2bfaa290f5c551d08c5c59", "type": "electric_scooter", "is_disabled": 0, "lat": 38.8931995, "rental_uris": {"android": "https://dc.lft.to/lastmile_qr_scan", "ios": "https://dc.lft.to/lastmile_qr_scan"}, "bike_id": "a1c8ae713f2bfaa290f5c551d08c5c59", "lon": -76.94317233333334}, {"is_reserved": 0, "fusion_lon": 0.0, "fusion_lat": 0.0, "name": "88378a4bd29a90f8d1a5b6e838251333", "type": "electric_scooter", "is_disabled": 0, "lat": 38.9177115, "rental_uris": {"android": "https://dc.lft.to/lastmile_qr_scan", "ios": "https://dc.lft.to/lastmile_qr_scan"}, "bike_id": "88378a4bd29a90f8d1a5b6e838251333", "lon": -77.04562366666667}, {"is_reserved": 0, "fusion_lon": 0.0, "fusion_lat": 0.0, "name": "28fc3bd8161698bf47bc67d211a650b8", "type": "electric_scooter", "is_disabled": 0, "lat": 38.90734466666667, "rental_uris": {"android": "https://dc.lft.to/lastmile_qr_scan", "ios": "https://dc.lft.to/lastmile_qr_scan"}, "bike_id": "28fc3bd8161698bf47bc67d211a650b8", "lon": -77.0269025}, {"is_reserved": 0, "fusion_lon": 0.0, "fusion_lat": 0.0, "name": "cb00dc618d9b036324afc55151aeb874", "type": "electric_scooter", "is_disabled": 0, "lat": 38.91572333333333, "rental_uris": {"android": "https://dc.lft.to/lastmile_qr_scan", "ios": "https://dc.lft.to/lastmile_qr_scan"}, "bike_id": "cb00dc618d9b036324afc55151aeb874", "lon": -77.01988616666667}, {"is_reserved": 0, "fusion_lon": 0.0, "fusion_lat": 0.0, "name": "ae9d39c04300b471c0efb7beaad6985e", "type": "electric_scooter", "is_disabled": 0, "lat": 38.905770833333335, "rental_uris": {"android": "https://dc.lft.to/lastmile_qr_scan", "ios": "https://dc.lft.to/lastmile_qr_scan"}, "bike_id": "ae9d39c04300b471c0efb7beaad6985e", "lon": -77.034599}, {"is_reserved": 0, "fusion_lon": 0.0, "fusion_lat": 0.0, "name": "dc94557687dfc1b892287d00d5482eaa", "type": "electric_bike", "is_disabled": 0, "lat": 39.06296783333333, "rental_uris": {"android": "https://dc.lft.to/lastmile_qr_scan", "ios": "https://dc.lft.to/lastmile_qr_scan"}, "bike_id": "dc94557687dfc1b892287d00d5482eaa", "lon": -77.04981533333333}, {"is_reserved": 0, "fusion_lon": 0.0, "fusion_lat": 0.0, "name": "24df1a272f085d22f6ac70c0ba08ce91", "type": "electric_scooter", "is_disabled": 0, "lat": 38.892207166666665, "rental_uris": {"android": "https://dc.lft.to/lastmile_qr_scan", "ios": "https://dc.lft.to/lastmile_qr_scan"}, "bike_id": "24df1a272f085d22f6ac70c0ba08ce91", "lon": -77.02348416666666}, {"is_reserved": 0, "fusion_lon": 0.0, "fusion_lat": 0.0, "name": "de7f937310732278ece1796d04efe149", "type": "electric_scooter", "is_disabled": 0, "lat": 38.88307966666667, "rental_uris": {"android": "https://dc.lft.to/lastmile_qr_scan", "ios": "https://dc.lft.to/lastmile_qr_scan"}, "bike_id": "de7f937310732278ece1796d04efe149", "lon": -76.97861733333333}, {"is_reserved": 0, "fusion_lon": 0.0, "fusion_lat": 0.0, "name": "0c947af7a6da5557c12271845fc88a13", "type": "electric_scooter", "is_disabled": 0, "lat": 38.95177233333333, "rental_uris": {"android": "https://dc.lft.to/lastmile_qr_scan", "ios": "https://dc.lft.to/lastmile_qr_scan"}, "bike_id": "0c947af7a6da5557c12271845fc88a13", "lon": -77.0273665}, {"is_reserved": 0, "fusion_lon": 0.0, "fusion_lat": 0.0, "name": "1f76607d5308765f2a94432e14c2910d", "type": "electric_scooter", "is_disabled": 0, "lat": 38.898228333333336, "rental_uris": {"android": "https://dc.lft.to/lastmile_qr_scan", "ios": "https://dc.lft.to/lastmile_qr_scan"}, "bike_id": "1f76607d5308765f2a94432e14c2910d", "lon": -77.02423166666667}, {"is_reserved": 0, "fusion_lon": 0.0, "fusion_lat": 0.0, "name": "68e0b2d9a8a34ffae43c37866918f52e", "type": "electric_bike", "is_disabled": 0, "lat": 38.888719, "rental_uris": {"android": "https://dc.lft.to/lastmile_qr_scan", "ios": "https://dc.lft.to/lastmile_qr_scan"}, "bike_id": "68e0b2d9a8a34ffae43c37866918f52e", "lon": -76.97841033333333}, {"is_reserved": 0, "fusion_lon": 0.0, "fusion_lat": 0.0, "name": "62a61ed79c390004a7cd04346fffe378", "type": "electric_scooter", "is_disabled": 0, "lat": 38.92344716666667, "rental_uris": {"android": "https://dc.lft.to/lastmile_qr_scan", "ios": "https://dc.lft.to/lastmile_qr_scan"}, "bike_id": "62a61ed79c390004a7cd04346fffe378", "lon": -77.0508595}, {"is_reserved": 0, "fusion_lon": 0.0, "fusion_lat": 0.0, "name": "2241eb60d32f5f3fd4ba42e60a2754f2", "type": "electric_scooter", "is_disabled": 0, "lat": 38.928712833333336, "rental_uris": {"android": "https://dc.lft.to/lastmile_qr_scan", "ios": "https://dc.lft.to/lastmile_qr_scan"}, "bike_id": "2241eb60d32f5f3fd4ba42e60a2754f2", "lon": -77.01370783333333}, {"is_reserved": 0, "fusion_lon": 0.0, "fusion_lat": 0.0, "name": "791fb24f46b8048df44dce78f033e936", "type": "electric_scooter", "is_disabled": 0, "lat": 38.90035816666666, "rental_uris": {"android": "https://dc.lft.to/lastmile_qr_scan", "ios": "https://dc.lft.to/lastmile_qr_scan"}, "bike_id": "791fb24f46b8048df44dce78f033e936", "lon": -76.99622316666667}, {"is_reserved": 0, "fusion_lon": 0.0, "fusion_lat": 0.0, "name": "22bb0dc0d07b1bc23afff78e310ffe8b", "type": "electric_scooter", "is_disabled": 0, "lat": 38.93161533333333, "rental_uris": {"android": "https://dc.lft.to/lastmile_qr_scan", "ios": "https://dc.lft.to/lastmile_qr_scan"}, "bike_id": "22bb0dc0d07b1bc23afff78e310ffe8b", "lon": -77.07862183333333}, {"is_reserved": 0, "fusion_lon": 0.0, "fusion_lat": 0.0, "name": "54250481aa3b175558545a1908222d8b", "type": "electric_scooter", "is_disabled": 0, "lat": 38.92373, "rental_uris": {"android": "https://dc.lft.to/lastmile_qr_scan", "ios": "https://dc.lft.to/lastmile_qr_scan"}, "bike_id": "54250481aa3b175558545a1908222d8b", "lon": -77.03021566666666}, {"is_reserved": 0, "fusion_lon": 0.0, "fusion_lat": 0.0, "name": "306e3b28612e6be6642c8e79ecf36821", "type": "electric_scooter", "is_disabled": 0, "lat": 38.896142166666664, "rental_uris": {"android": "https://dc.lft.to/lastmile_qr_scan", "ios": "https://dc.lft.to/lastmile_qr_scan"}, "bike_id": "306e3b28612e6be6642c8e79ecf36821", "lon": -77.029803}, {"is_reserved": 0, "fusion_lon": 0.0, "fusion_lat": 0.0, "name": "6d6a193cb287c7db5e6e2913f70f968c", "type": "electric_bike", "is_disabled": 0, "lat": 38.968162166666666, "rental_uris": {"android": "https://dc.lft.to/lastmile_qr_scan", "ios": "https://dc.lft.to/lastmile_qr_scan"}, "bike_id": "6d6a193cb287c7db5e6e2913f70f968c", "lon": -77.07229766666667}, {"is_reserved": 0, "fusion_lon": 0.0, "fusion_lat": 0.0, "name": "35e45b9c0ee5a25ec530e147ae6d4da2", "type": "electric_bike", "is_disabled": 0, "lat": 38.945136833333336, "rental_uris": {"android": "https://dc.lft.to/lastmile_qr_scan", "ios": "https://dc.lft.to/lastmile_qr_scan"}, "bike_id": "35e45b9c0ee5a25ec530e147ae6d4da2", "lon": -77.00681266666666}, {"is_reserved": 0, "fusion_lon": 0.0, "fusion_lat": 0.0, "name": "15520afd093766e0dfce18dbd3f29f9b", "type": "electric_scooter", "is_disabled": 0, "lat": 38.904425833333335, "rental_uris": {"android": "https://dc.lft.to/lastmile_qr_scan", "ios": "https://dc.lft.to/lastmile_qr_scan"}, "bike_id": "15520afd093766e0dfce18dbd3f29f9b", "lon": -76.98494716666667}, {"is_reserved": 0, "fusion_lon": 0.0, "fusion_lat": 0.0, "name": "aa05058f1e014068a17cfab097fa30e8", "type": "electric_scooter", "is_disabled": 0, "lat": 38.93317966666667, "rental_uris": {"android": "https://dc.lft.to/lastmile_qr_scan", "ios": "https://dc.lft.to/lastmile_qr_scan"}, "bike_id": "aa05058f1e014068a17cfab097fa30e8", "lon": -77.02967516666666}, {"is_reserved": 0, "fusion_lon": 0.0, "fusion_lat": 0.0, "name": "7e2941d7fd3f1097713d39d60a3714ac", "type": "electric_scooter", "is_disabled": 0, "lat": 38.91695283333333, "rental_uris": {"android": "https://dc.lft.to/lastmile_qr_scan", "ios": "https://dc.lft.to/lastmile_qr_scan"}, "bike_id": "7e2941d7fd3f1097713d39d60a3714ac", "lon": -77.037479}, {"is_reserved": 0, "fusion_lon": 0.0, "fusion_lat": 0.0, "name": "e9d57fc9431083f5731e00ac0edf61ab", "type": "electric_scooter", "is_disabled": 0, "lat": 38.9209165, "rental_uris": {"android": "https://dc.lft.to/lastmile_qr_scan", "ios": "https://dc.lft.to/lastmile_qr_scan"}, "bike_id": "e9d57fc9431083f5731e00ac0edf61ab", "lon": -77.00431683333333}, {"is_reserved": 0, "fusion_lon": 0.0, "fusion_lat": 0.0, "name": "26203b35bdac8b887368b180f68e5eca", "type": "electric_scooter", "is_disabled": 0, "lat": 38.91188616666667, "rental_uris": {"android": "https://dc.lft.to/lastmile_qr_scan", "ios": "https://dc.lft.to/lastmile_qr_scan"}, "bike_id": "26203b35bdac8b887368b180f68e5eca", "lon": -77.00964033333334}, {"is_reserved": 0, "fusion_lon": 0.0, "fusion_lat": 0.0, "name": "a23684d0e68d4a94b8b20bdecd3f074f", "type": "electric_scooter", "is_disabled": 0, "lat": 38.887315666666666, "rental_uris": {"android": "https://dc.lft.to/lastmile_qr_scan", "ios": "https://dc.lft.to/lastmile_qr_scan"}, "bike_id": "a23684d0e68d4a94b8b20bdecd3f074f", "lon": -77.02834066666667}, {"is_reserved": 0, "fusion_lon": 0.0, "fusion_lat": 0.0, "name": "47e893047c12c59057bf4c9be4d8747a", "type": "electric_scooter", "is_disabled": 0, "lat": 38.909608, "rental_uris": {"android": "https://dc.lft.to/lastmile_qr_scan", "ios": "https://dc.lft.to/lastmile_qr_scan"}, "bike_id": "47e893047c12c59057bf4c9be4d8747a", "lon": -77.03857533333333}, {"is_reserved": 0, "fusion_lon": 0.0, "fusion_lat": 0.0, "name": "4daa44811a1d715f9b80e562e1c6addf", "type": "electric_scooter", "is_disabled": 0, "lat": 38.91550183333333, "rental_uris": {"android": "https://dc.lft.to/lastmile_qr_scan", "ios": "https://dc.lft.to/lastmile_qr_scan"}, "bike_id": "4daa44811a1d715f9b80e562e1c6addf", "lon": -77.03853133333334}, {"is_reserved": 0, "fusion_lon": 0.0, "fusion_lat": 0.0, "name": "f80c7f5aa7ce2fcb321e2b092292d0bf", "type": "electric_scooter", "is_disabled": 0, "lat": 38.907660166666666, "rental_uris": {"android": "https://dc.lft.to/lastmile_qr_scan", "ios": "https://dc.lft.to/lastmile_qr_scan"}, "bike_id": "f80c7f5aa7ce2fcb321e2b092292d0bf", "lon": -77.0010255}, {"is_reserved": 0, "fusion_lon": 0.0, "fusion_lat": 0.0, "name": "1ec0bd5beb60f5a2b1edb5bae4f9a81c", "type": "electric_scooter", "is_disabled": 0, "lat": 38.8881375, "rental_uris": {"android": "https://dc.lft.to/lastmile_qr_scan", "ios": "https://dc.lft.to/lastmile_qr_scan"}, "bike_id": "1ec0bd5beb60f5a2b1edb5bae4f9a81c", "lon": -76.93344616666667}, {"is_reserved": 0, "fusion_lon": 0.0, "fusion_lat": 0.0, "name": "37a4a29ac81256469e0233feaa283318", "type": "electric_scooter", "is_disabled": 0, "lat": 38.9085535, "rental_uris": {"android": "https://dc.lft.to/lastmile_qr_scan", "ios": "https://dc.lft.to/lastmile_qr_scan"}, "bike_id": "37a4a29ac81256469e0233feaa283318", "lon": -77.042938}, {"is_reserved": 0, "fusion_lon": 0.0, "fusion_lat": 0.0, "name": "007cff0907d5c54bf4f44d1eac33da77", "type": "electric_scooter", "is_disabled": 0, "lat": 38.87679966666666, "rental_uris": {"android": "https://dc.lft.to/lastmile_qr_scan", "ios": "https://dc.lft.to/lastmile_qr_scan"}, "bike_id": "007cff0907d5c54bf4f44d1eac33da77", "lon": -77.0178805}, {"is_reserved": 0, "fusion_lon": 0.0, "fusion_lat": 0.0, "name": "f12dede5f6134d5c628e210f8708b7ed", "type": "electric_scooter", "is_disabled": 0, "lat": 38.90858383333333, "rental_uris": {"android": "https://dc.lft.to/lastmile_qr_scan", "ios": "https://dc.lft.to/lastmile_qr_scan"}, "bike_id": "f12dede5f6134d5c628e210f8708b7ed", "lon": -77.0710145}, {"is_reserved": 0, "fusion_lon": 0.0, "fusion_lat": 0.0, "name": "a42d3366d9e8bd811ad11294a1109bf9", "type": "electric_scooter", "is_disabled": 0, "lat": 38.880615, "rental_uris": {"android": "https://dc.lft.to/lastmile_qr_scan", "ios": "https://dc.lft.to/lastmile_qr_scan"}, "bike_id": "a42d3366d9e8bd811ad11294a1109bf9", "lon": -76.93216333333334}, {"is_reserved": 0, "fusion_lon": 0.0, "fusion_lat": 0.0, "name": "8cdeb47df5032d88c5ccb27f311463b0", "type": "electric_scooter", "is_disabled": 0, "lat": 38.905510166666666, "rental_uris": {"android": "https://dc.lft.to/lastmile_qr_scan", "ios": "https://dc.lft.to/lastmile_qr_scan"}, "bike_id": "8cdeb47df5032d88c5ccb27f311463b0", "lon": -77.0070095}, {"is_reserved": 0, "fusion_lon": 0.0, "fusion_lat": 0.0, "name": "2b725b1517789c04a08a95ab6acffa88", "type": "electric_scooter", "is_disabled": 0, "lat": 38.91059416666667, "rental_uris": {"android": "https://dc.lft.to/lastmile_qr_scan", "ios": "https://dc.lft.to/lastmile_qr_scan"}, "bike_id": "2b725b1517789c04a08a95ab6acffa88", "lon": -77.042568}, {"is_reserved": 0, "fusion_lon": 0.0, "fusion_lat": 0.0, "name": "08137ba7b7467f3f14b3df5c241595da", "type": "electric_bike", "is_disabled": 0, "lat": 38.94921933333333, "rental_uris": {"android": "https://dc.lft.to/lastmile_qr_scan", "ios": "https://dc.lft.to/lastmile_qr_scan"}, "bike_id": "08137ba7b7467f3f14b3df5c241595da", "lon": -77.00795083333334}, {"is_reserved": 0, "fusion_lon": 0.0, "fusion_lat": 0.0, "name": "4ed0041286b256e4c690b80a5c116c86", "type": "electric_scooter", "is_disabled": 0, "lat": 38.90653283333333, "rental_uris": {"android": "https://dc.lft.to/lastmile_qr_scan", "ios": "https://dc.lft.to/lastmile_qr_scan"}, "bike_id": "4ed0041286b256e4c690b80a5c116c86", "lon": -77.02708}, {"is_reserved": 0, "fusion_lon": 0.0, "fusion_lat": 0.0, "name": "186c42af546399325b4334faf318938f", "type": "electric_scooter", "is_disabled": 0, "lat": 38.908962, "rental_uris": {"android": "https://dc.lft.to/lastmile_qr_scan", "ios": "https://dc.lft.to/lastmile_qr_scan"}, "bike_id": "186c42af546399325b4334faf318938f", "lon": -77.04573183333333}, {"is_reserved": 0, "fusion_lon": 0.0, "fusion_lat": 0.0, "name": "03071b453a0a1260d2e45d4c9d678ea9", "type": "electric_scooter", "is_disabled": 0, "lat": 38.901201, "rental_uris": {"android": "https://dc.lft.to/lastmile_qr_scan", "ios": "https://dc.lft.to/lastmile_qr_scan"}, "bike_id": "03071b453a0a1260d2e45d4c9d678ea9", "lon": -77.0436245}, {"is_reserved": 0, "fusion_lon": 0.0, "fusion_lat": 0.0, "name": "c8fcee721db3b206befdc05d6eb553df", "type": "electric_scooter", "is_disabled": 0, "lat": 38.911160333333335, "rental_uris": {"android": "https://dc.lft.to/lastmile_qr_scan", "ios": "https://dc.lft.to/lastmile_qr_scan"}, "bike_id": "c8fcee721db3b206befdc05d6eb553df", "lon": -77.043186}, {"is_reserved": 0, "fusion_lon": 0.0, "fusion_lat": 0.0, "name": "ac85830486c84eb541ee867233d8492b", "type": "electric_scooter", "is_disabled": 0, "lat": 38.91266233333333, "rental_uris": {"android": "https://dc.lft.to/lastmile_qr_scan", "ios": "https://dc.lft.to/lastmile_qr_scan"}, "bike_id": "ac85830486c84eb541ee867233d8492b", "lon": -77.0225685}, {"is_reserved": 0, "fusion_lon": 0.0, "fusion_lat": 0.0, "name": "74e87497b54112ab464abd7e636bcaf6", "type": "electric_bike", "is_disabled": 0, "lat": 38.874262, "rental_uris": {"android": "https://dc.lft.to/lastmile_qr_scan", "ios": "https://dc.lft.to/lastmile_qr_scan"}, "bike_id": "74e87497b54112ab464abd7e636bcaf6", "lon": -77.1083365}, {"is_reserved": 0, "fusion_lon": 0.0, "fusion_lat": 0.0, "name": "4621b962b364fee83946e56da3960ed7", "type": "electric_scooter", "is_disabled": 0, "lat": 38.90486116666667, "rental_uris": {"android": "https://dc.lft.to/lastmile_qr_scan", "ios": "https://dc.lft.to/lastmile_qr_scan"}, "bike_id": "4621b962b364fee83946e56da3960ed7", "lon": -76.98233033333334}, {"is_reserved": 0, "fusion_lon": 0.0, "fusion_lat": 0.0, "name": "ed44dc7005eb48bed031e3732589085e", "type": "electric_scooter", "is_disabled": 0, "lat": 38.92883833333333, "rental_uris": {"android": "https://dc.lft.to/lastmile_qr_scan", "ios": "https://dc.lft.to/lastmile_qr_scan"}, "bike_id": "ed44dc7005eb48bed031e3732589085e", "lon": -77.03320616666667}, {"is_reserved": 0, "fusion_lon": 0.0, "fusion_lat": 0.0, "name": "6841b0258358abf243d20c751dac7933", "type": "electric_scooter", "is_disabled": 0, "lat": 38.89219816666667, "rental_uris": {"android": "https://dc.lft.to/lastmile_qr_scan", "ios": "https://dc.lft.to/lastmile_qr_scan"}, "bike_id": "6841b0258358abf243d20c751dac7933", "lon": -76.992557}, {"is_reserved": 0, "fusion_lon": 0.0, "fusion_lat": 0.0, "name": "6b693f9836aeb43622485e4c22f2aabb", "type": "electric_scooter", "is_disabled": 0, "lat": 38.919255166666666, "rental_uris": {"android": "https://dc.lft.to/lastmile_qr_scan", "ios": "https://dc.lft.to/lastmile_qr_scan"}, "bike_id": "6b693f9836aeb43622485e4c22f2aabb", "lon": -77.07898766666666}, {"is_reserved": 0, "fusion_lon": 0.0, "fusion_lat": 0.0, "name": "b5cbdca9c29cfde9586f73f3bac7d32b", "type": "electric_scooter", "is_disabled": 0, "lat": 38.922329, "rental_uris": {"android": "https://dc.lft.to/lastmile_qr_scan", "ios": "https://dc.lft.to/lastmile_qr_scan"}, "bike_id": "b5cbdca9c29cfde9586f73f3bac7d32b", "lon": -77.04498483333333}, {"is_reserved": 0, "fusion_lon": 0.0, "fusion_lat": 0.0, "name": "11f625d6710b115ec98e2165857b79cc", "type": "electric_scooter", "is_disabled": 0, "lat": 38.917919166666664, "rental_uris": {"android": "https://dc.lft.to/lastmile_qr_scan", "ios": "https://dc.lft.to/lastmile_qr_scan"}, "bike_id": "11f625d6710b115ec98e2165857b79cc", "lon": -77.034548}, {"is_reserved": 0, "fusion_lon": 0.0, "fusion_lat": 0.0, "name": "521621da2ff80b02a99b8ed1030302a8", "type": "electric_scooter", "is_disabled": 0, "lat": 38.90040033333333, "rental_uris": {"android": "https://dc.lft.to/lastmile_qr_scan", "ios": "https://dc.lft.to/lastmile_qr_scan"}, "bike_id": "521621da2ff80b02a99b8ed1030302a8", "lon": -77.03304483333334}, {"is_reserved": 0, "fusion_lon": 0.0, "fusion_lat": 0.0, "name": "ae55d4ba67f34ae10de95ff5393be54f", "type": "electric_bike", "is_disabled": 0, "lat": 38.911299166666666, "rental_uris": {"android": "https://dc.lft.to/lastmile_qr_scan", "ios": "https://dc.lft.to/lastmile_qr_scan"}, "bike_id": "ae55d4ba67f34ae10de95ff5393be54f", "lon": -77.0861435}, {"is_reserved": 0, "fusion_lon": 0.0, "fusion_lat": 0.0, "name": "a32224bf78bcf2ba0c2f282c6013d269", "type": "electric_scooter", "is_disabled": 0, "lat": 38.88364133333333, "rental_uris": {"android": "https://dc.lft.to/lastmile_qr_scan", "ios": "https://dc.lft.to/lastmile_qr_scan"}, "bike_id": "a32224bf78bcf2ba0c2f282c6013d269", "lon": -76.94156133333334}, {"is_reserved": 0, "fusion_lon": 0.0, "fusion_lat": 0.0, "name": "0055abde42f7db7bcbb4b3cfb43c24cb", "type": "electric_scooter", "is_disabled": 0, "lat": 38.90742733333333, "rental_uris": {"android": "https://dc.lft.to/lastmile_qr_scan", "ios": "https://dc.lft.to/lastmile_qr_scan"}, "bike_id": "0055abde42f7db7bcbb4b3cfb43c24cb", "lon": -77.0296185}, {"is_reserved": 0, "fusion_lon": 0.0, "fusion_lat": 0.0, "name": "4d4de0f428e76ebb5afe2e7e5dbdc9cd", "type": "electric_bike", "is_disabled": 0, "lat": 38.95687433333333, "rental_uris": {"android": "https://dc.lft.to/lastmile_qr_scan", "ios": "https://dc.lft.to/lastmile_qr_scan"}, "bike_id": "4d4de0f428e76ebb5afe2e7e5dbdc9cd", "lon": -77.02231583333334}, {"is_reserved": 0, "fusion_lon": 0.0, "fusion_lat": 0.0, "name": "ffacd38bdf3ac0402675c802acc29765", "type": "electric_scooter", "is_disabled": 0, "lat": 38.91477483333333, "rental_uris": {"android": "https://dc.lft.to/lastmile_qr_scan", "ios": "https://dc.lft.to/lastmile_qr_scan"}, "bike_id": "ffacd38bdf3ac0402675c802acc29765", "lon": -77.038454}, {"is_reserved": 0, "fusion_lon": 0.0, "fusion_lat": 0.0, "name": "84bf64655c0f46fe34114ef28574b936", "type": "electric_scooter", "is_disabled": 0, "lat": 38.908368333333335, "rental_uris": {"android": "https://dc.lft.to/lastmile_qr_scan", "ios": "https://dc.lft.to/lastmile_qr_scan"}, "bike_id": "84bf64655c0f46fe34114ef28574b936", "lon": -77.03319266666666}, {"is_reserved": 0, "fusion_lon": 0.0, "fusion_lat": 0.0, "name": "ac3fd765d74322e243f19cbdcdb455a3", "type": "electric_scooter", "is_disabled": 0, "lat": 38.91544866666667, "rental_uris": {"android": "https://dc.lft.to/lastmile_qr_scan", "ios": "https://dc.lft.to/lastmile_qr_scan"}, "bike_id": "ac3fd765d74322e243f19cbdcdb455a3", "lon": -77.0386085}, {"is_reserved": 0, "fusion_lon": 0.0, "fusion_lat": 0.0, "name": "3d53af7d0c4137a8af25a4e382696b8f", "type": "electric_scooter", "is_disabled": 0, "lat": 38.950715833333334, "rental_uris": {"android": "https://dc.lft.to/lastmile_qr_scan", "ios": "https://dc.lft.to/lastmile_qr_scan"}, "bike_id": "3d53af7d0c4137a8af25a4e382696b8f", "lon": -76.9956395}, {"is_reserved": 0, "fusion_lon": 0.0, "fusion_lat": 0.0, "name": "6dee26f9bb6ff4a70de696bcfd8737e7", "type": "electric_scooter", "is_disabled": 0, "lat": 38.908255833333335, "rental_uris": {"android": "https://dc.lft.to/lastmile_qr_scan", "ios": "https://dc.lft.to/lastmile_qr_scan"}, "bike_id": "6dee26f9bb6ff4a70de696bcfd8737e7", "lon": -77.074172}, {"is_reserved": 0, "fusion_lon": 0.0, "fusion_lat": 0.0, "name": "daa1bad45ee342171514b226394ff01b", "type": "electric_scooter", "is_disabled": 0, "lat": 38.9109565, "rental_uris": {"android": "https://dc.lft.to/lastmile_qr_scan", "ios": "https://dc.lft.to/lastmile_qr_scan"}, "bike_id": "daa1bad45ee342171514b226394ff01b", "lon": -77.04486116666666}, {"is_reserved": 0, "fusion_lon": 0.0, "fusion_lat": 0.0, "name": "8a4fdd2c80afb0e4f87954c916940e9c", "type": "electric_scooter", "is_disabled": 0, "lat": 38.93623183333333, "rental_uris": {"android": "https://dc.lft.to/lastmile_qr_scan", "ios": "https://dc.lft.to/lastmile_qr_scan"}, "bike_id": "8a4fdd2c80afb0e4f87954c916940e9c", "lon": -77.06758333333333}, {"is_reserved": 0, "fusion_lon": 0.0, "fusion_lat": 0.0, "name": "0af1e7379a11f5ab183bd9c65b9d6b67", "type": "electric_scooter", "is_disabled": 0, "lat": 38.950141, "rental_uris": {"android": "https://dc.lft.to/lastmile_qr_scan", "ios": "https://dc.lft.to/lastmile_qr_scan"}, "bike_id": "0af1e7379a11f5ab183bd9c65b9d6b67", "lon": -77.06753866666666}, {"is_reserved": 0, "fusion_lon": 0.0, "fusion_lat": 0.0, "name": "0afbdc854c71644b1c957ca0ecf619b8", "type": "electric_scooter", "is_disabled": 0, "lat": 38.91684033333333, "rental_uris": {"android": "https://dc.lft.to/lastmile_qr_scan", "ios": "https://dc.lft.to/lastmile_qr_scan"}, "bike_id": "0afbdc854c71644b1c957ca0ecf619b8", "lon": -77.0289725}, {"is_reserved": 0, "fusion_lon": 0.0, "fusion_lat": 0.0, "name": "fd84205bcfa81a5e190d0f0525ae07b9", "type": "electric_bike", "is_disabled": 0, "lat": 38.8537395, "rental_uris": {"android": "https://dc.lft.to/lastmile_qr_scan", "ios": "https://dc.lft.to/lastmile_qr_scan"}, "bike_id": "fd84205bcfa81a5e190d0f0525ae07b9", "lon": -77.124625}, {"is_reserved": 0, "fusion_lon": 0.0, "fusion_lat": 0.0, "name": "af41b45103c1c503989340d0bb63e3e2", "type": "electric_scooter", "is_disabled": 0, "lat": 38.8973055, "rental_uris": {"android": "https://dc.lft.to/lastmile_qr_scan", "ios": "https://dc.lft.to/lastmile_qr_scan"}, "bike_id": "af41b45103c1c503989340d0bb63e3e2", "lon": -77.0441505}, {"is_reserved": 0, "fusion_lon": 0.0, "fusion_lat": 0.0, "name": "cd05b95f6b81ee0b57d6adf80f1863c8", "type": "electric_scooter", "is_disabled": 0, "lat": 38.89615833333333, "rental_uris": {"android": "https://dc.lft.to/lastmile_qr_scan", "ios": "https://dc.lft.to/lastmile_qr_scan"}, "bike_id": "cd05b95f6b81ee0b57d6adf80f1863c8", "lon": -77.03186633333334}, {"is_reserved": 0, "fusion_lon": 0.0, "fusion_lat": 0.0, "name": "ec7c355ef688803d12ddc810b360b5e8", "type": "electric_scooter", "is_disabled": 0, "lat": 38.92343283333334, "rental_uris": {"android": "https://dc.lft.to/lastmile_qr_scan", "ios": "https://dc.lft.to/lastmile_qr_scan"}, "bike_id": "ec7c355ef688803d12ddc810b360b5e8", "lon": -77.03497566666667}, {"is_reserved": 0, "fusion_lon": 0.0, "fusion_lat": 0.0, "name": "19fc67aa56403617e8253e49a973bdf7", "type": "electric_scooter", "is_disabled": 0, "lat": 38.90479766666667, "rental_uris": {"android": "https://dc.lft.to/lastmile_qr_scan", "ios": "https://dc.lft.to/lastmile_qr_scan"}, "bike_id": "19fc67aa56403617e8253e49a973bdf7", "lon": -77.035746}, {"is_reserved": 0, "fusion_lon": 0.0, "fusion_lat": 0.0, "name": "bd2ca024f5e6db245eb1ec49320bd387", "type": "electric_scooter", "is_disabled": 0, "lat": 38.904208, "rental_uris": {"android": "https://dc.lft.to/lastmile_qr_scan", "ios": "https://dc.lft.to/lastmile_qr_scan"}, "bike_id": "bd2ca024f5e6db245eb1ec49320bd387", "lon": -77.030752}, {"is_reserved": 0, "fusion_lon": 0.0, "fusion_lat": 0.0, "name": "a6801b8f06a86bb33e7cfbfe8dae30e2", "type": "electric_bike", "is_disabled": 0, "lat": 38.873033666666664, "rental_uris": {"android": "https://dc.lft.to/lastmile_qr_scan", "ios": "https://dc.lft.to/lastmile_qr_scan"}, "bike_id": "a6801b8f06a86bb33e7cfbfe8dae30e2", "lon": -77.13925983333333}, {"is_reserved": 0, "fusion_lon": 0.0, "fusion_lat": 0.0, "name": "9647eceb940be953e8d02b5bbe153861", "type": "electric_scooter", "is_disabled": 0, "lat": 38.8884335, "rental_uris": {"android": "https://dc.lft.to/lastmile_qr_scan", "ios": "https://dc.lft.to/lastmile_qr_scan"}, "bike_id": "9647eceb940be953e8d02b5bbe153861", "lon": -77.04901916666667}, {"is_reserved": 0, "fusion_lon": 0.0, "fusion_lat": 0.0, "name": "801b0045f66efe0f77561cc4b1a3643c", "type": "electric_bike", "is_disabled": 0, "lat": 38.838113666666665, "rental_uris": {"android": "https://dc.lft.to/lastmile_qr_scan", "ios": "https://dc.lft.to/lastmile_qr_scan"}, "bike_id": "801b0045f66efe0f77561cc4b1a3643c", "lon": -77.09525266666667}, {"is_reserved": 0, "fusion_lon": 0.0, "fusion_lat": 0.0, "name": "db6e3e231d50e90d4cf9c212ecf5f6d6", "type": "electric_scooter", "is_disabled": 0, "lat": 38.97122266666667, "rental_uris": {"android": "https://dc.lft.to/lastmile_qr_scan", "ios": "https://dc.lft.to/lastmile_qr_scan"}, "bike_id": "db6e3e231d50e90d4cf9c212ecf5f6d6", "lon": -77.01689083333333}, {"is_reserved": 0, "fusion_lon": 0.0, "fusion_lat": 0.0, "name": "944c75778f96fff8e46490d33f1c26ed", "type": "electric_bike", "is_disabled": 0, "lat": 38.85773916666667, "rental_uris": {"android": "https://dc.lft.to/lastmile_qr_scan", "ios": "https://dc.lft.to/lastmile_qr_scan"}, "bike_id": "944c75778f96fff8e46490d33f1c26ed", "lon": -76.98768183333334}, {"is_reserved": 0, "fusion_lon": 0.0, "fusion_lat": 0.0, "name": "1c76c2eb124ac2a32ebdaf76ce70d456", "type": "electric_scooter", "is_disabled": 0, "lat": 38.941786666666665, "rental_uris": {"android": "https://dc.lft.to/lastmile_qr_scan", "ios": "https://dc.lft.to/lastmile_qr_scan"}, "bike_id": "1c76c2eb124ac2a32ebdaf76ce70d456", "lon": -77.02558516666667}, {"is_reserved": 0, "fusion_lon": 0.0, "fusion_lat": 0.0, "name": "a12c064cc1d105ed57e32216c08b3556", "type": "electric_scooter", "is_disabled": 0, "lat": 38.8667185, "rental_uris": {"android": "https://dc.lft.to/lastmile_qr_scan", "ios": "https://dc.lft.to/lastmile_qr_scan"}, "bike_id": "a12c064cc1d105ed57e32216c08b3556", "lon": -76.98515}, {"is_reserved": 0, "fusion_lon": 0.0, "fusion_lat": 0.0, "name": "cea0cfb17ce76d2539e20d63e3c89447", "type": "electric_scooter", "is_disabled": 0, "lat": 38.949836833333336, "rental_uris": {"android": "https://dc.lft.to/lastmile_qr_scan", "ios": "https://dc.lft.to/lastmile_qr_scan"}, "bike_id": "cea0cfb17ce76d2539e20d63e3c89447", "lon": -77.02707833333334}, {"is_reserved": 0, "fusion_lon": 0.0, "fusion_lat": 0.0, "name": "79381beb0d183c82366259d643bd4431", "type": "electric_scooter", "is_disabled": 0, "lat": 38.93017, "rental_uris": {"android": "https://dc.lft.to/lastmile_qr_scan", "ios": "https://dc.lft.to/lastmile_qr_scan"}, "bike_id": "79381beb0d183c82366259d643bd4431", "lon": -77.06092}, {"is_reserved": 0, "fusion_lon": 0.0, "fusion_lat": 0.0, "name": "e7497e0fc9c008acbdf504bac1eca667", "type": "electric_bike", "is_disabled": 0, "lat": 38.8120005, "rental_uris": {"android": "https://dc.lft.to/lastmile_qr_scan", "ios": "https://dc.lft.to/lastmile_qr_scan"}, "bike_id": "e7497e0fc9c008acbdf504bac1eca667", "lon": -77.10837966666666}, {"is_reserved": 0, "fusion_lon": 0.0, "fusion_lat": 0.0, "name": "5876d9cb116e331ad1905c1472c2f2d9", "type": "electric_scooter", "is_disabled": 0, "lat": 38.9275045, "rental_uris": {"android": "https://dc.lft.to/lastmile_qr_scan", "ios": "https://dc.lft.to/lastmile_qr_scan"}, "bike_id": "5876d9cb116e331ad1905c1472c2f2d9", "lon": -77.02961966666666}, {"is_reserved": 0, "fusion_lon": 0.0, "fusion_lat": 0.0, "name": "db940fe510859899ef764d96c4c1e6c0", "type": "electric_scooter", "is_disabled": 0, "lat": 38.900282833333335, "rental_uris": {"android": "https://dc.lft.to/lastmile_qr_scan", "ios": "https://dc.lft.to/lastmile_qr_scan"}, "bike_id": "db940fe510859899ef764d96c4c1e6c0", "lon": -76.98863483333334}, {"is_reserved": 0, "fusion_lon": 0.0, "fusion_lat": 0.0, "name": "a2bb3978d4233ba4b824043c1e6e032b", "type": "electric_scooter", "is_disabled": 0, "lat": 38.876492666666664, "rental_uris": {"android": "https://dc.lft.to/lastmile_qr_scan", "ios": "https://dc.lft.to/lastmile_qr_scan"}, "bike_id": "a2bb3978d4233ba4b824043c1e6e032b", "lon": -77.01576633333333}, {"is_reserved": 0, "fusion_lon": 0.0, "fusion_lat": 0.0, "name": "88af5ab1f07183e2f9b26d7a6678bd06", "type": "electric_scooter", "is_disabled": 0, "lat": 38.919645333333335, "rental_uris": {"android": "https://dc.lft.to/lastmile_qr_scan", "ios": "https://dc.lft.to/lastmile_qr_scan"}, "bike_id": "88af5ab1f07183e2f9b26d7a6678bd06", "lon": -77.03184783333333}, {"is_reserved": 0, "fusion_lon": 0.0, "fusion_lat": 0.0, "name": "91ea9fd9e91fbec1297c516432936dba", "type": "electric_bike", "is_disabled": 0, "lat": 38.938693, "rental_uris": {"android": "https://dc.lft.to/lastmile_qr_scan", "ios": "https://dc.lft.to/lastmile_qr_scan"}, "bike_id": "91ea9fd9e91fbec1297c516432936dba", "lon": -76.942953}, {"is_reserved": 0, "fusion_lon": 0.0, "fusion_lat": 0.0, "name": "1940de3727b86d610835cc2b6015b538", "type": "electric_scooter", "is_disabled": 0, "lat": 38.908201166666665, "rental_uris": {"android": "https://dc.lft.to/lastmile_qr_scan", "ios": "https://dc.lft.to/lastmile_qr_scan"}, "bike_id": "1940de3727b86d610835cc2b6015b538", "lon": -77.0432715}, {"is_reserved": 0, "fusion_lon": 0.0, "fusion_lat": 0.0, "name": "a52757e3e1316e3c3d0d0ac634608fa0", "type": "electric_scooter", "is_disabled": 0, "lat": 38.90029833333333, "rental_uris": {"android": "https://dc.lft.to/lastmile_qr_scan", "ios": "https://dc.lft.to/lastmile_qr_scan"}, "bike_id": "a52757e3e1316e3c3d0d0ac634608fa0", "lon": -77.011849}, {"is_reserved": 0, "fusion_lon": 0.0, "fusion_lat": 0.0, "name": "cb09566213583421d28f285a0381403b", "type": "electric_scooter", "is_disabled": 0, "lat": 38.886076, "rental_uris": {"android": "https://dc.lft.to/lastmile_qr_scan", "ios": "https://dc.lft.to/lastmile_qr_scan"}, "bike_id": "cb09566213583421d28f285a0381403b", "lon": -76.995128}, {"is_reserved": 0, "fusion_lon": 0.0, "fusion_lat": 0.0, "name": "a354308ddfe544cfbc72b9bf8f8e14f8", "type": "electric_scooter", "is_disabled": 0, "lat": 38.911098, "rental_uris": {"android": "https://dc.lft.to/lastmile_qr_scan", "ios": "https://dc.lft.to/lastmile_qr_scan"}, "bike_id": "a354308ddfe544cfbc72b9bf8f8e14f8", "lon": -77.044688}, {"is_reserved": 0, "fusion_lon": 0.0, "fusion_lat": 0.0, "name": "078f4575f0d844373332bed482957bf0", "type": "electric_scooter", "is_disabled": 0, "lat": 38.91458683333333, "rental_uris": {"android": "https://dc.lft.to/lastmile_qr_scan", "ios": "https://dc.lft.to/lastmile_qr_scan"}, "bike_id": "078f4575f0d844373332bed482957bf0", "lon": -77.022893}, {"is_reserved": 0, "fusion_lon": 0.0, "fusion_lat": 0.0, "name": "eae771ea88f029f9956c554620842a3d", "type": "electric_scooter", "is_disabled": 0, "lat": 38.905137833333335, "rental_uris": {"android": "https://dc.lft.to/lastmile_qr_scan", "ios": "https://dc.lft.to/lastmile_qr_scan"}, "bike_id": "eae771ea88f029f9956c554620842a3d", "lon": -77.0507705}, {"is_reserved": 0, "fusion_lon": 0.0, "fusion_lat": 0.0, "name": "3abb1d0a051bafac599f538e4f6bcd01", "type": "electric_scooter", "is_disabled": 0, "lat": 38.92339916666667, "rental_uris": {"android": "https://dc.lft.to/lastmile_qr_scan", "ios": "https://dc.lft.to/lastmile_qr_scan"}, "bike_id": "3abb1d0a051bafac599f538e4f6bcd01", "lon": -77.03501266666666}, {"is_reserved": 0, "fusion_lon": 0.0, "fusion_lat": 0.0, "name": "09499c1581edfd94016914a0c31d0fe7", "type": "electric_scooter", "is_disabled": 0, "lat": 38.885301166666665, "rental_uris": {"android": "https://dc.lft.to/lastmile_qr_scan", "ios": "https://dc.lft.to/lastmile_qr_scan"}, "bike_id": "09499c1581edfd94016914a0c31d0fe7", "lon": -76.99620716666666}, {"is_reserved": 0, "fusion_lon": 0.0, "fusion_lat": 0.0, "name": "543dc5ee683d7f355aca86aea9678b47", "type": "electric_scooter", "is_disabled": 0, "lat": 38.88457566666666, "rental_uris": {"android": "https://dc.lft.to/lastmile_qr_scan", "ios": "https://dc.lft.to/lastmile_qr_scan"}, "bike_id": "543dc5ee683d7f355aca86aea9678b47", "lon": -76.92623483333334}, {"is_reserved": 0, "fusion_lon": 0.0, "fusion_lat": 0.0, "name": "0c050509d83deb87952b98651100e94e", "type": "electric_bike", "is_disabled": 0, "lat": 38.962207166666666, "rental_uris": {"android": "https://dc.lft.to/lastmile_qr_scan", "ios": "https://dc.lft.to/lastmile_qr_scan"}, "bike_id": "0c050509d83deb87952b98651100e94e", "lon": -77.02624166666666}, {"is_reserved": 0, "fusion_lon": 0.0, "fusion_lat": 0.0, "name": "8a9aa940f571a23ed5fffd7bd0898811", "type": "electric_scooter", "is_disabled": 0, "lat": 38.93037233333333, "rental_uris": {"android": "https://dc.lft.to/lastmile_qr_scan", "ios": "https://dc.lft.to/lastmile_qr_scan"}, "bike_id": "8a9aa940f571a23ed5fffd7bd0898811", "lon": -77.03307266666667}, {"is_reserved": 0, "fusion_lon": 0.0, "fusion_lat": 0.0, "name": "e7f5c148a193f664efb2f51a2671beca", "type": "electric_scooter", "is_disabled": 0, "lat": 38.907356666666665, "rental_uris": {"android": "https://dc.lft.to/lastmile_qr_scan", "ios": "https://dc.lft.to/lastmile_qr_scan"}, "bike_id": "e7f5c148a193f664efb2f51a2671beca", "lon": -77.02693616666667}, {"is_reserved": 0, "fusion_lon": 0.0, "fusion_lat": 0.0, "name": "e695864ba1ee1132cc97eb5b6f9c7d74", "type": "electric_scooter", "is_disabled": 0, "lat": 38.93540566666667, "rental_uris": {"android": "https://dc.lft.to/lastmile_qr_scan", "ios": "https://dc.lft.to/lastmile_qr_scan"}, "bike_id": "e695864ba1ee1132cc97eb5b6f9c7d74", "lon": -77.05748783333334}, {"is_reserved": 0, "fusion_lon": 0.0, "fusion_lat": 0.0, "name": "574c2f27a391c96ab94628d28e524000", "type": "electric_scooter", "is_disabled": 0, "lat": 38.891017833333336, "rental_uris": {"android": "https://dc.lft.to/lastmile_qr_scan", "ios": "https://dc.lft.to/lastmile_qr_scan"}, "bike_id": "574c2f27a391c96ab94628d28e524000", "lon": -77.00282633333333}, {"is_reserved": 0, "fusion_lon": 0.0, "fusion_lat": 0.0, "name": "4992181a7b0f60af4304fb9bfaed5026", "type": "electric_scooter", "is_disabled": 0, "lat": 38.922676833333334, "rental_uris": {"android": "https://dc.lft.to/lastmile_qr_scan", "ios": "https://dc.lft.to/lastmile_qr_scan"}, "bike_id": "4992181a7b0f60af4304fb9bfaed5026", "lon": -77.029659}, {"is_reserved": 0, "fusion_lon": 0.0, "fusion_lat": 0.0, "name": "cc0578064982e74f52c1ef4fec1be2cd", "type": "electric_scooter", "is_disabled": 0, "lat": 38.92338983333333, "rental_uris": {"android": "https://dc.lft.to/lastmile_qr_scan", "ios": "https://dc.lft.to/lastmile_qr_scan"}, "bike_id": "cc0578064982e74f52c1ef4fec1be2cd", "lon": -77.04789583333333}, {"is_reserved": 0, "fusion_lon": 0.0, "fusion_lat": 0.0, "name": "fa9d2ab25acd44ce477ab47f5181bf6c", "type": "electric_scooter", "is_disabled": 0, "lat": 38.914063, "rental_uris": {"android": "https://dc.lft.to/lastmile_qr_scan", "ios": "https://dc.lft.to/lastmile_qr_scan"}, "bike_id": "fa9d2ab25acd44ce477ab47f5181bf6c", "lon": -77.04187866666666}, {"is_reserved": 0, "fusion_lon": 0.0, "fusion_lat": 0.0, "name": "cfdb246576ab3f158bf6d3c7fdd5f2cd", "type": "electric_scooter", "is_disabled": 0, "lat": 38.87823683333333, "rental_uris": {"android": "https://dc.lft.to/lastmile_qr_scan", "ios": "https://dc.lft.to/lastmile_qr_scan"}, "bike_id": "cfdb246576ab3f158bf6d3c7fdd5f2cd", "lon": -76.93103766666667}, {"is_reserved": 0, "fusion_lon": 0.0, "fusion_lat": 0.0, "name": "cb706e68f39eb4fa3c4237676bb23f6e", "type": "electric_scooter", "is_disabled": 0, "lat": 38.913015, "rental_uris": {"android": "https://dc.lft.to/lastmile_qr_scan", "ios": "https://dc.lft.to/lastmile_qr_scan"}, "bike_id": "cb706e68f39eb4fa3c4237676bb23f6e", "lon": -76.98469033333333}, {"is_reserved": 0, "fusion_lon": 0.0, "fusion_lat": 0.0, "name": "831c8616a0d6134647bb08b2680f03ce", "type": "electric_scooter", "is_disabled": 0, "lat": 38.8922195, "rental_uris": {"android": "https://dc.lft.to/lastmile_qr_scan", "ios": "https://dc.lft.to/lastmile_qr_scan"}, "bike_id": "831c8616a0d6134647bb08b2680f03ce", "lon": -77.04262833333334}, {"is_reserved": 0, "fusion_lon": 0.0, "fusion_lat": 0.0, "name": "986516b40933038759ba89ec758f662f", "type": "electric_scooter", "is_disabled": 0, "lat": 38.920091, "rental_uris": {"android": "https://dc.lft.to/lastmile_qr_scan", "ios": "https://dc.lft.to/lastmile_qr_scan"}, "bike_id": "986516b40933038759ba89ec758f662f", "lon": -77.02174783333334}, {"is_reserved": 0, "fusion_lon": 0.0, "fusion_lat": 0.0, "name": "dd04351ccff164175209caa782c95ed9", "type": "electric_scooter", "is_disabled": 0, "lat": 38.939630333333334, "rental_uris": {"android": "https://dc.lft.to/lastmile_qr_scan", "ios": "https://dc.lft.to/lastmile_qr_scan"}, "bike_id": "dd04351ccff164175209caa782c95ed9", "lon": -77.02756033333333}, {"is_reserved": 0, "fusion_lon": 0.0, "fusion_lat": 0.0, "name": "0407d4debaf4fd5bea9ca29226279318", "type": "electric_scooter", "is_disabled": 0, "lat": 38.936744833333336, "rental_uris": {"android": "https://dc.lft.to/lastmile_qr_scan", "ios": "https://dc.lft.to/lastmile_qr_scan"}, "bike_id": "0407d4debaf4fd5bea9ca29226279318", "lon": -77.03635416666667}, {"is_reserved": 0, "fusion_lon": 0.0, "fusion_lat": 0.0, "name": "85c05ce551747aab673793865ce61970", "type": "electric_scooter", "is_disabled": 0, "lat": 38.9154175, "rental_uris": {"android": "https://dc.lft.to/lastmile_qr_scan", "ios": "https://dc.lft.to/lastmile_qr_scan"}, "bike_id": "85c05ce551747aab673793865ce61970", "lon": -77.012716}, {"is_reserved": 0, "fusion_lon": 0.0, "fusion_lat": 0.0, "name": "9c30d28c735c9c39da9ab71fbc927149", "type": "electric_scooter", "is_disabled": 0, "lat": 38.885912166666664, "rental_uris": {"android": "https://dc.lft.to/lastmile_qr_scan", "ios": "https://dc.lft.to/lastmile_qr_scan"}, "bike_id": "9c30d28c735c9c39da9ab71fbc927149", "lon": -76.996243}, {"is_reserved": 0, "fusion_lon": 0.0, "fusion_lat": 0.0, "name": "7ace73f2584fda12ab3d3a59db09a1f4", "type": "electric_scooter", "is_disabled": 0, "lat": 38.86507783333333, "rental_uris": {"android": "https://dc.lft.to/lastmile_qr_scan", "ios": "https://dc.lft.to/lastmile_qr_scan"}, "bike_id": "7ace73f2584fda12ab3d3a59db09a1f4", "lon": -76.99001966666667}, {"is_reserved": 0, "fusion_lon": 0.0, "fusion_lat": 0.0, "name": "d80b73533cfbde47847ba1b2c0131dc3", "type": "electric_scooter", "is_disabled": 0, "lat": 38.90733083333333, "rental_uris": {"android": "https://dc.lft.to/lastmile_qr_scan", "ios": "https://dc.lft.to/lastmile_qr_scan"}, "bike_id": "d80b73533cfbde47847ba1b2c0131dc3", "lon": -77.03295266666667}, {"is_reserved": 0, "fusion_lon": 0.0, "fusion_lat": 0.0, "name": "1a1d6b0fd79116f4ab7dcf9d9c0579cb", "type": "electric_scooter", "is_disabled": 0, "lat": 38.905555166666666, "rental_uris": {"android": "https://dc.lft.to/lastmile_qr_scan", "ios": "https://dc.lft.to/lastmile_qr_scan"}, "bike_id": "1a1d6b0fd79116f4ab7dcf9d9c0579cb", "lon": -77.005996}, {"is_reserved": 0, "fusion_lon": 0.0, "fusion_lat": 0.0, "name": "4b0bed35e131dad4a183d67ec4d1cd45", "type": "electric_scooter", "is_disabled": 0, "lat": 38.860609, "rental_uris": {"android": "https://dc.lft.to/lastmile_qr_scan", "ios": "https://dc.lft.to/lastmile_qr_scan"}, "bike_id": "4b0bed35e131dad4a183d67ec4d1cd45", "lon": -76.98422033333334}, {"is_reserved": 0, "fusion_lon": 0.0, "fusion_lat": 0.0, "name": "af3e8bfc60af1f2ac86bb55c5e102edc", "type": "electric_scooter", "is_disabled": 0, "lat": 38.900343166666666, "rental_uris": {"android": "https://dc.lft.to/lastmile_qr_scan", "ios": "https://dc.lft.to/lastmile_qr_scan"}, "bike_id": "af3e8bfc60af1f2ac86bb55c5e102edc", "lon": -76.98859733333333}, {"is_reserved": 0, "fusion_lon": 0.0, "fusion_lat": 0.0, "name": "98d28233e12f0eb9e225abe69b9aaf69", "type": "electric_scooter", "is_disabled": 0, "lat": 38.9290485, "rental_uris": {"android": "https://dc.lft.to/lastmile_qr_scan", "ios": "https://dc.lft.to/lastmile_qr_scan"}, "bike_id": "98d28233e12f0eb9e225abe69b9aaf69", "lon": -77.03263}, {"is_reserved": 0, "fusion_lon": 0.0, "fusion_lat": 0.0, "name": "0b258a48d14cd50b1313e48a180064a6", "type": "electric_scooter", "is_disabled": 0, "lat": 38.89854033333334, "rental_uris": {"android": "https://dc.lft.to/lastmile_qr_scan", "ios": "https://dc.lft.to/lastmile_qr_scan"}, "bike_id": "0b258a48d14cd50b1313e48a180064a6", "lon": -76.93206666666667}, {"is_reserved": 0, "fusion_lon": 0.0, "fusion_lat": 0.0, "name": "e6b5a7f3e09b70b56f746c896a34ac6d", "type": "electric_scooter", "is_disabled": 0, "lat": 38.919221, "rental_uris": {"android": "https://dc.lft.to/lastmile_qr_scan", "ios": "https://dc.lft.to/lastmile_qr_scan"}, "bike_id": "e6b5a7f3e09b70b56f746c896a34ac6d", "lon": -77.0251025}, {"is_reserved": 0, "fusion_lon": 0.0, "fusion_lat": 0.0, "name": "9b1b9331d296530517732a4b6ff64e5e", "type": "electric_scooter", "is_disabled": 0, "lat": 38.92244133333333, "rental_uris": {"android": "https://dc.lft.to/lastmile_qr_scan", "ios": "https://dc.lft.to/lastmile_qr_scan"}, "bike_id": "9b1b9331d296530517732a4b6ff64e5e", "lon": -77.03021216666667}, {"is_reserved": 0, "fusion_lon": 0.0, "fusion_lat": 0.0, "name": "cab8595fee3e29f0c3e6fbfef3b72003", "type": "electric_scooter", "is_disabled": 0, "lat": 38.88046583333333, "rental_uris": {"android": "https://dc.lft.to/lastmile_qr_scan", "ios": "https://dc.lft.to/lastmile_qr_scan"}, "bike_id": "cab8595fee3e29f0c3e6fbfef3b72003", "lon": -77.02007583333334}, {"is_reserved": 0, "fusion_lon": 0.0, "fusion_lat": 0.0, "name": "62e4388abb49380f572900a9c47119a6", "type": "electric_scooter", "is_disabled": 0, "lat": 38.9287175, "rental_uris": {"android": "https://dc.lft.to/lastmile_qr_scan", "ios": "https://dc.lft.to/lastmile_qr_scan"}, "bike_id": "62e4388abb49380f572900a9c47119a6", "lon": -77.03404433333333}, {"is_reserved": 0, "fusion_lon": 0.0, "fusion_lat": 0.0, "name": "22c21a8dd422505e695a9e846a25b025", "type": "electric_scooter", "is_disabled": 0, "lat": 38.9182655, "rental_uris": {"android": "https://dc.lft.to/lastmile_qr_scan", "ios": "https://dc.lft.to/lastmile_qr_scan"}, "bike_id": "22c21a8dd422505e695a9e846a25b025", "lon": -77.02417}, {"is_reserved": 0, "fusion_lon": 0.0, "fusion_lat": 0.0, "name": "26c28de8206a43634f383f388ad5207a", "type": "electric_scooter", "is_disabled": 0, "lat": 38.90342866666667, "rental_uris": {"android": "https://dc.lft.to/lastmile_qr_scan", "ios": "https://dc.lft.to/lastmile_qr_scan"}, "bike_id": "26c28de8206a43634f383f388ad5207a", "lon": -77.0435125}, {"is_reserved": 0, "fusion_lon": 0.0, "fusion_lat": 0.0, "name": "f8a4216ceef0e15e8528f4fa9b1fe9d3", "type": "electric_scooter", "is_disabled": 0, "lat": 38.9348005, "rental_uris": {"android": "https://dc.lft.to/lastmile_qr_scan", "ios": "https://dc.lft.to/lastmile_qr_scan"}, "bike_id": "f8a4216ceef0e15e8528f4fa9b1fe9d3", "lon": -77.05796416666666}, {"is_reserved": 0, "fusion_lon": 0.0, "fusion_lat": 0.0, "name": "74e2f18d339523c9a017e3e1d7d32f59", "type": "electric_scooter", "is_disabled": 0, "lat": 38.917087333333335, "rental_uris": {"android": "https://dc.lft.to/lastmile_qr_scan", "ios": "https://dc.lft.to/lastmile_qr_scan"}, "bike_id": "74e2f18d339523c9a017e3e1d7d32f59", "lon": -77.034725}, {"is_reserved": 0, "fusion_lon": 0.0, "fusion_lat": 0.0, "name": "afc29e5eb712d7f862fa8bed8b738d70", "type": "electric_bike", "is_disabled": 0, "lat": 38.8773125, "rental_uris": {"android": "https://dc.lft.to/lastmile_qr_scan", "ios": "https://dc.lft.to/lastmile_qr_scan"}, "bike_id": "afc29e5eb712d7f862fa8bed8b738d70", "lon": -76.98107033333334}, {"is_reserved": 0, "fusion_lon": 0.0, "fusion_lat": 0.0, "name": "caa3f9cf060ca05d10d87a8cb9c65d79", "type": "electric_scooter", "is_disabled": 0, "lat": 38.8764645, "rental_uris": {"android": "https://dc.lft.to/lastmile_qr_scan", "ios": "https://dc.lft.to/lastmile_qr_scan"}, "bike_id": "caa3f9cf060ca05d10d87a8cb9c65d79", "lon": -77.01948883333333}, {"is_reserved": 0, "fusion_lon": 0.0, "fusion_lat": 0.0, "name": "5d13b2327d7a840972a701ddf3aadd0f", "type": "electric_scooter", "is_disabled": 0, "lat": 38.90502083333333, "rental_uris": {"android": "https://dc.lft.to/lastmile_qr_scan", "ios": "https://dc.lft.to/lastmile_qr_scan"}, "bike_id": "5d13b2327d7a840972a701ddf3aadd0f", "lon": -77.04655516666666}, {"is_reserved": 0, "fusion_lon": 0.0, "fusion_lat": 0.0, "name": "b84140228e099fe7bf83d03869ea72b6", "type": "electric_scooter", "is_disabled": 0, "lat": 38.921833166666666, "rental_uris": {"android": "https://dc.lft.to/lastmile_qr_scan", "ios": "https://dc.lft.to/lastmile_qr_scan"}, "bike_id": "b84140228e099fe7bf83d03869ea72b6", "lon": -77.02672283333334}, {"is_reserved": 0, "fusion_lon": 0.0, "fusion_lat": 0.0, "name": "7cca59c62a0aae58cbe022d0878f8f78", "type": "electric_bike", "is_disabled": 0, "lat": 38.96960583333333, "rental_uris": {"android": "https://dc.lft.to/lastmile_qr_scan", "ios": "https://dc.lft.to/lastmile_qr_scan"}, "bike_id": "7cca59c62a0aae58cbe022d0878f8f78", "lon": -76.95749866666667}, {"is_reserved": 0, "fusion_lon": 0.0, "fusion_lat": 0.0, "name": "61207e53f1557dd5b9ed9a5e0838ec80", "type": "electric_scooter", "is_disabled": 0, "lat": 38.90240566666667, "rental_uris": {"android": "https://dc.lft.to/lastmile_qr_scan", "ios": "https://dc.lft.to/lastmile_qr_scan"}, "bike_id": "61207e53f1557dd5b9ed9a5e0838ec80", "lon": -77.01758766666667}, {"is_reserved": 0, "fusion_lon": 0.0, "fusion_lat": 0.0, "name": "26c2b7f013a3f61ef06702c9b67fbfa2", "type": "electric_bike", "is_disabled": 0, "lat": 38.93811983333333, "rental_uris": {"android": "https://dc.lft.to/lastmile_qr_scan", "ios": "https://dc.lft.to/lastmile_qr_scan"}, "bike_id": "26c2b7f013a3f61ef06702c9b67fbfa2", "lon": -77.06861416666666}, {"is_reserved": 0, "fusion_lon": 0.0, "fusion_lat": 0.0, "name": "b15c7acffabd6feee8933f683a0aecad", "type": "electric_scooter", "is_disabled": 0, "lat": 38.92843633333333, "rental_uris": {"android": "https://dc.lft.to/lastmile_qr_scan", "ios": "https://dc.lft.to/lastmile_qr_scan"}, "bike_id": "b15c7acffabd6feee8933f683a0aecad", "lon": -76.99603766666667}, {"is_reserved": 0, "fusion_lon": 0.0, "fusion_lat": 0.0, "name": "5ff56f5ceebea88f6a0f6a3963a0af01", "type": "electric_scooter", "is_disabled": 0, "lat": 38.900157, "rental_uris": {"android": "https://dc.lft.to/lastmile_qr_scan", "ios": "https://dc.lft.to/lastmile_qr_scan"}, "bike_id": "5ff56f5ceebea88f6a0f6a3963a0af01", "lon": -77.00676033333333}, {"is_reserved": 0, "fusion_lon": 0.0, "fusion_lat": 0.0, "name": "e1b55eaac68c3a0e277a58ca6f85f811", "type": "electric_scooter", "is_disabled": 0, "lat": 38.905241333333336, "rental_uris": {"android": "https://dc.lft.to/lastmile_qr_scan", "ios": "https://dc.lft.to/lastmile_qr_scan"}, "bike_id": "e1b55eaac68c3a0e277a58ca6f85f811", "lon": -77.04357333333333}, {"is_reserved": 0, "fusion_lon": 0.0, "fusion_lat": 0.0, "name": "351587a15e6ef43d60fc6eda2fb0700f", "type": "electric_scooter", "is_disabled": 0, "lat": 38.893489833333334, "rental_uris": {"android": "https://dc.lft.to/lastmile_qr_scan", "ios": "https://dc.lft.to/lastmile_qr_scan"}, "bike_id": "351587a15e6ef43d60fc6eda2fb0700f", "lon": -77.0419505}, {"is_reserved": 0, "fusion_lon": 0.0, "fusion_lat": 0.0, "name": "024dfcf7f34d304374be2f1c1ba0af35", "type": "electric_bike", "is_disabled": 0, "lat": 38.959309, "rental_uris": {"android": "https://dc.lft.to/lastmile_qr_scan", "ios": "https://dc.lft.to/lastmile_qr_scan"}, "bike_id": "024dfcf7f34d304374be2f1c1ba0af35", "lon": -76.92540666666666}, {"is_reserved": 0, "fusion_lon": 0.0, "fusion_lat": 0.0, "name": "3fb30ad862409ea21726fc5b75b9ece7", "type": "electric_scooter", "is_disabled": 0, "lat": 38.907284, "rental_uris": {"android": "https://dc.lft.to/lastmile_qr_scan", "ios": "https://dc.lft.to/lastmile_qr_scan"}, "bike_id": "3fb30ad862409ea21726fc5b75b9ece7", "lon": -76.9869575}, {"is_reserved": 0, "fusion_lon": 0.0, "fusion_lat": 0.0, "name": "6cb2f16688ab1b6ef20a872ad75eba15", "type": "electric_scooter", "is_disabled": 0, "lat": 38.8723245, "rental_uris": {"android": "https://dc.lft.to/lastmile_qr_scan", "ios": "https://dc.lft.to/lastmile_qr_scan"}, "bike_id": "6cb2f16688ab1b6ef20a872ad75eba15", "lon": -77.01170483333334}, {"is_reserved": 0, "fusion_lon": 0.0, "fusion_lat": 0.0, "name": "457690269eff65c820df8925106c823c", "type": "electric_scooter", "is_disabled": 0, "lat": 38.917101833333334, "rental_uris": {"android": "https://dc.lft.to/lastmile_qr_scan", "ios": "https://dc.lft.to/lastmile_qr_scan"}, "bike_id": "457690269eff65c820df8925106c823c", "lon": -77.03118133333334}, {"is_reserved": 0, "fusion_lon": 0.0, "fusion_lat": 0.0, "name": "4b20f3f561edd3254f7238688cd7168a", "type": "electric_scooter", "is_disabled": 0, "lat": 38.89965466666666, "rental_uris": {"android": "https://dc.lft.to/lastmile_qr_scan", "ios": "https://dc.lft.to/lastmile_qr_scan"}, "bike_id": "4b20f3f561edd3254f7238688cd7168a", "lon": -77.04247916666667}, {"is_reserved": 0, "fusion_lon": 0.0, "fusion_lat": 0.0, "name": "fd1d3e8086b492b6646ed412c3eda349", "type": "electric_scooter", "is_disabled": 0, "lat": 38.90984433333333, "rental_uris": {"android": "https://dc.lft.to/lastmile_qr_scan", "ios": "https://dc.lft.to/lastmile_qr_scan"}, "bike_id": "fd1d3e8086b492b6646ed412c3eda349", "lon": -77.04260916666667}, {"is_reserved": 0, "fusion_lon": 0.0, "fusion_lat": 0.0, "name": "3201e6dbf5570ad3391e8181f58902d5", "type": "electric_scooter", "is_disabled": 0, "lat": 38.892214833333334, "rental_uris": {"android": "https://dc.lft.to/lastmile_qr_scan", "ios": "https://dc.lft.to/lastmile_qr_scan"}, "bike_id": "3201e6dbf5570ad3391e8181f58902d5", "lon": -77.04381483333333}, {"is_reserved": 0, "fusion_lon": 0.0, "fusion_lat": 0.0, "name": "5a24d2c4b279c1d6c868935770e137de", "type": "electric_scooter", "is_disabled": 0, "lat": 38.89222816666667, "rental_uris": {"android": "https://dc.lft.to/lastmile_qr_scan", "ios": "https://dc.lft.to/lastmile_qr_scan"}, "bike_id": "5a24d2c4b279c1d6c868935770e137de", "lon": -77.04371983333333}, {"is_reserved": 0, "fusion_lon": 0.0, "fusion_lat": 0.0, "name": "edea34abb1e633a51c700b549e6e540a", "type": "electric_scooter", "is_disabled": 0, "lat": 38.8929635, "rental_uris": {"android": "https://dc.lft.to/lastmile_qr_scan", "ios": "https://dc.lft.to/lastmile_qr_scan"}, "bike_id": "edea34abb1e633a51c700b549e6e540a", "lon": -76.9392635}, {"is_reserved": 0, "fusion_lon": 0.0, "fusion_lat": 0.0, "name": "0d0c50ae6e4fd04693ef1756abc45d09", "type": "electric_scooter", "is_disabled": 0, "lat": 38.92129216666667, "rental_uris": {"android": "https://dc.lft.to/lastmile_qr_scan", "ios": "https://dc.lft.to/lastmile_qr_scan"}, "bike_id": "0d0c50ae6e4fd04693ef1756abc45d09", "lon": -77.0436115}, {"is_reserved": 0, "fusion_lon": 0.0, "fusion_lat": 0.0, "name": "a85cb01ee4f6114d9e997832bc421646", "type": "electric_scooter", "is_disabled": 0, "lat": 38.881258, "rental_uris": {"android": "https://dc.lft.to/lastmile_qr_scan", "ios": "https://dc.lft.to/lastmile_qr_scan"}, "bike_id": "a85cb01ee4f6114d9e997832bc421646", "lon": -77.016807}, {"is_reserved": 0, "fusion_lon": 0.0, "fusion_lat": 0.0, "name": "fe86234cb70acc6d5eb9b9dacf6855ab", "type": "electric_scooter", "is_disabled": 0, "lat": 38.9285845, "rental_uris": {"android": "https://dc.lft.to/lastmile_qr_scan", "ios": "https://dc.lft.to/lastmile_qr_scan"}, "bike_id": "fe86234cb70acc6d5eb9b9dacf6855ab", "lon": -77.01425883333333}, {"is_reserved": 0, "fusion_lon": 0.0, "fusion_lat": 0.0, "name": "3e21e02ec5c199bf8de0430e73b318e9", "type": "electric_scooter", "is_disabled": 0, "lat": 38.93674716666666, "rental_uris": {"android": "https://dc.lft.to/lastmile_qr_scan", "ios": "https://dc.lft.to/lastmile_qr_scan"}, "bike_id": "3e21e02ec5c199bf8de0430e73b318e9", "lon": -77.03579016666667}, {"is_reserved": 0, "fusion_lon": 0.0, "fusion_lat": 0.0, "name": "87cb287658f6ce912c959aa45302cbeb", "type": "electric_scooter", "is_disabled": 0, "lat": 38.905573833333335, "rental_uris": {"android": "https://dc.lft.to/lastmile_qr_scan", "ios": "https://dc.lft.to/lastmile_qr_scan"}, "bike_id": "87cb287658f6ce912c959aa45302cbeb", "lon": -77.00596433333334}, {"is_reserved": 0, "fusion_lon": 0.0, "fusion_lat": 0.0, "name": "54a895131fe8efdc91b91489720beb5a", "type": "electric_scooter", "is_disabled": 0, "lat": 38.902513, "rental_uris": {"android": "https://dc.lft.to/lastmile_qr_scan", "ios": "https://dc.lft.to/lastmile_qr_scan"}, "bike_id": "54a895131fe8efdc91b91489720beb5a", "lon": -76.99557166666666}, {"is_reserved": 0, "fusion_lon": 0.0, "fusion_lat": 0.0, "name": "1039eb3b95545bcb764b03a25720cbbb", "type": "electric_scooter", "is_disabled": 0, "lat": 38.8783315, "rental_uris": {"android": "https://dc.lft.to/lastmile_qr_scan", "ios": "https://dc.lft.to/lastmile_qr_scan"}, "bike_id": "1039eb3b95545bcb764b03a25720cbbb", "lon": -76.96308266666666}, {"is_reserved": 0, "fusion_lon": 0.0, "fusion_lat": 0.0, "name": "2da1061fd4d37c18967e528e8151cf69", "type": "electric_scooter", "is_disabled": 0, "lat": 38.98454066666667, "rental_uris": {"android": "https://dc.lft.to/lastmile_qr_scan", "ios": "https://dc.lft.to/lastmile_qr_scan"}, "bike_id": "2da1061fd4d37c18967e528e8151cf69", "lon": -77.02645916666667}, {"is_reserved": 0, "fusion_lon": 0.0, "fusion_lat": 0.0, "name": "c67591d0a36bda777bbeb58dc74d2bc4", "type": "electric_scooter", "is_disabled": 0, "lat": 38.932354833333335, "rental_uris": {"android": "https://dc.lft.to/lastmile_qr_scan", "ios": "https://dc.lft.to/lastmile_qr_scan"}, "bike_id": "c67591d0a36bda777bbeb58dc74d2bc4", "lon": -77.03859283333334}, {"is_reserved": 0, "fusion_lon": 0.0, "fusion_lat": 0.0, "name": "fc7ae143ec4ba657d4572b34c8c82822", "type": "electric_scooter", "is_disabled": 0, "lat": 38.91555283333334, "rental_uris": {"android": "https://dc.lft.to/lastmile_qr_scan", "ios": "https://dc.lft.to/lastmile_qr_scan"}, "bike_id": "fc7ae143ec4ba657d4572b34c8c82822", "lon": -77.02050166666666}, {"is_reserved": 0, "fusion_lon": 0.0, "fusion_lat": 0.0, "name": "5f4983aa1a01d5c43d9d85faa5147130", "type": "electric_bike", "is_disabled": 0, "lat": 39.05279433333333, "rental_uris": {"android": "https://dc.lft.to/lastmile_qr_scan", "ios": "https://dc.lft.to/lastmile_qr_scan"}, "bike_id": "5f4983aa1a01d5c43d9d85faa5147130", "lon": -77.08069666666667}, {"is_reserved": 0, "fusion_lon": 0.0, "fusion_lat": 0.0, "name": "c4b5d2a946056e55c9051b6a6c22a09c", "type": "electric_scooter", "is_disabled": 0, "lat": 38.92118833333333, "rental_uris": {"android": "https://dc.lft.to/lastmile_qr_scan", "ios": "https://dc.lft.to/lastmile_qr_scan"}, "bike_id": "c4b5d2a946056e55c9051b6a6c22a09c", "lon": -77.04107833333333}, {"is_reserved": 0, "fusion_lon": 0.0, "fusion_lat": 0.0, "name": "a494c2b21f82a3f420629f594e2ccade", "type": "electric_scooter", "is_disabled": 0, "lat": 38.887245666666665, "rental_uris": {"android": "https://dc.lft.to/lastmile_qr_scan", "ios": "https://dc.lft.to/lastmile_qr_scan"}, "bike_id": "a494c2b21f82a3f420629f594e2ccade", "lon": -77.02837283333334}, {"is_reserved": 0, "fusion_lon": 0.0, "fusion_lat": 0.0, "name": "83106e49d2c471cc34357290dac3ff95", "type": "electric_scooter", "is_disabled": 0, "lat": 38.91121233333333, "rental_uris": {"android": "https://dc.lft.to/lastmile_qr_scan", "ios": "https://dc.lft.to/lastmile_qr_scan"}, "bike_id": "83106e49d2c471cc34357290dac3ff95", "lon": -77.0383245}, {"is_reserved": 0, "fusion_lon": 0.0, "fusion_lat": 0.0, "name": "4fc370f86aa60a64f70ab366b013483f", "type": "electric_scooter", "is_disabled": 0, "lat": 38.866589833333336, "rental_uris": {"android": "https://dc.lft.to/lastmile_qr_scan", "ios": "https://dc.lft.to/lastmile_qr_scan"}, "bike_id": "4fc370f86aa60a64f70ab366b013483f", "lon": -76.98884216666667}, {"is_reserved": 0, "fusion_lon": 0.0, "fusion_lat": 0.0, "name": "bf8f84d546e5f6c42486758915e76aa7", "type": "electric_scooter", "is_disabled": 0, "lat": 38.8699745, "rental_uris": {"android": "https://dc.lft.to/lastmile_qr_scan", "ios": "https://dc.lft.to/lastmile_qr_scan"}, "bike_id": "bf8f84d546e5f6c42486758915e76aa7", "lon": -76.97587083333333}, {"is_reserved": 0, "fusion_lon": 0.0, "fusion_lat": 0.0, "name": "2aa18e6fd40e5d04746c85b73d8aa65c", "type": "electric_scooter", "is_disabled": 0, "lat": 38.88752083333333, "rental_uris": {"android": "https://dc.lft.to/lastmile_qr_scan", "ios": "https://dc.lft.to/lastmile_qr_scan"}, "bike_id": "2aa18e6fd40e5d04746c85b73d8aa65c", "lon": -77.02203533333333}, {"is_reserved": 0, "fusion_lon": 0.0, "fusion_lat": 0.0, "name": "a2e1754f4454df12732a30d0b18492b1", "type": "electric_scooter", "is_disabled": 0, "lat": 38.893187166666664, "rental_uris": {"android": "https://dc.lft.to/lastmile_qr_scan", "ios": "https://dc.lft.to/lastmile_qr_scan"}, "bike_id": "a2e1754f4454df12732a30d0b18492b1", "lon": -77.01778183333333}, {"is_reserved": 0, "fusion_lon": 0.0, "fusion_lat": 0.0, "name": "9bc7a2d1a79b41c730c4afa07e571597", "type": "electric_scooter", "is_disabled": 0, "lat": 38.8916825, "rental_uris": {"android": "https://dc.lft.to/lastmile_qr_scan", "ios": "https://dc.lft.to/lastmile_qr_scan"}, "bike_id": "9bc7a2d1a79b41c730c4afa07e571597", "lon": -76.95187316666667}, {"is_reserved": 0, "fusion_lon": 0.0, "fusion_lat": 0.0, "name": "0788e7836ce8d30ba238ab2867fe3a8c", "type": "electric_scooter", "is_disabled": 0, "lat": 38.900765166666666, "rental_uris": {"android": "https://dc.lft.to/lastmile_qr_scan", "ios": "https://dc.lft.to/lastmile_qr_scan"}, "bike_id": "0788e7836ce8d30ba238ab2867fe3a8c", "lon": -77.002027}, {"is_reserved": 0, "fusion_lon": 0.0, "fusion_lat": 0.0, "name": "99daf65d2de277deae1b70e0f3e21b91", "type": "electric_scooter", "is_disabled": 0, "lat": 38.902406166666665, "rental_uris": {"android": "https://dc.lft.to/lastmile_qr_scan", "ios": "https://dc.lft.to/lastmile_qr_scan"}, "bike_id": "99daf65d2de277deae1b70e0f3e21b91", "lon": -77.05333516666667}, {"is_reserved": 0, "fusion_lon": 0.0, "fusion_lat": 0.0, "name": "6e40fbc8c86a1c55abb6cd13b174c57f", "type": "electric_bike", "is_disabled": 0, "lat": 38.80656316666666, "rental_uris": {"android": "https://dc.lft.to/lastmile_qr_scan", "ios": "https://dc.lft.to/lastmile_qr_scan"}, "bike_id": "6e40fbc8c86a1c55abb6cd13b174c57f", "lon": -77.08764783333334}, {"is_reserved": 0, "fusion_lon": 0.0, "fusion_lat": 0.0, "name": "a87ab3d8d300cf4619e34227bca497a9", "type": "electric_bike", "is_disabled": 0, "lat": 38.9564865, "rental_uris": {"android": "https://dc.lft.to/lastmile_qr_scan", "ios": "https://dc.lft.to/lastmile_qr_scan"}, "bike_id": "a87ab3d8d300cf4619e34227bca497a9", "lon": -77.02262516666667}, {"is_reserved": 0, "fusion_lon": 0.0, "fusion_lat": 0.0, "name": "1410acb93d22e35d4b82403c7319513b", "type": "electric_bike", "is_disabled": 0, "lat": 38.79675783333333, "rental_uris": {"android": "https://dc.lft.to/lastmile_qr_scan", "ios": "https://dc.lft.to/lastmile_qr_scan"}, "bike_id": "1410acb93d22e35d4b82403c7319513b", "lon": -76.99333883333334}, {"is_reserved": 0, "fusion_lon": 0.0, "fusion_lat": 0.0, "name": "635f0d8011e4efd8327da723edd5d619", "type": "electric_scooter", "is_disabled": 0, "lat": 38.90385033333333, "rental_uris": {"android": "https://dc.lft.to/lastmile_qr_scan", "ios": "https://dc.lft.to/lastmile_qr_scan"}, "bike_id": "635f0d8011e4efd8327da723edd5d619", "lon": -77.04179116666667}, {"is_reserved": 0, "fusion_lon": 0.0, "fusion_lat": 0.0, "name": "cf5efa2f19b14667fb4408357ddf7475", "type": "electric_scooter", "is_disabled": 0, "lat": 38.890183, "rental_uris": {"android": "https://dc.lft.to/lastmile_qr_scan", "ios": "https://dc.lft.to/lastmile_qr_scan"}, "bike_id": "cf5efa2f19b14667fb4408357ddf7475", "lon": -76.937326}, {"is_reserved": 0, "fusion_lon": 0.0, "fusion_lat": 0.0, "name": "dce2d13d95849e27b0833bd4f16b2e21", "type": "electric_scooter", "is_disabled": 0, "lat": 38.90260966666666, "rental_uris": {"android": "https://dc.lft.to/lastmile_qr_scan", "ios": "https://dc.lft.to/lastmile_qr_scan"}, "bike_id": "dce2d13d95849e27b0833bd4f16b2e21", "lon": -77.03145266666667}, {"is_reserved": 0, "fusion_lon": 0.0, "fusion_lat": 0.0, "name": "b19dfd7b4ce746a15f639b2abb7e8215", "type": "electric_scooter", "is_disabled": 0, "lat": 38.9081555, "rental_uris": {"android": "https://dc.lft.to/lastmile_qr_scan", "ios": "https://dc.lft.to/lastmile_qr_scan"}, "bike_id": "b19dfd7b4ce746a15f639b2abb7e8215", "lon": -77.03445216666667}, {"is_reserved": 0, "fusion_lon": 0.0, "fusion_lat": 0.0, "name": "cbd039ea98ea4eac09a2114d2d1a4c28", "type": "electric_bike", "is_disabled": 0, "lat": 38.881062166666666, "rental_uris": {"android": "https://dc.lft.to/lastmile_qr_scan", "ios": "https://dc.lft.to/lastmile_qr_scan"}, "bike_id": "cbd039ea98ea4eac09a2114d2d1a4c28", "lon": -77.0166505}, {"is_reserved": 0, "fusion_lon": 0.0, "fusion_lat": 0.0, "name": "16e1cfa29ff80f6c7bc3505a7ae1a426", "type": "electric_scooter", "is_disabled": 0, "lat": 38.922513, "rental_uris": {"android": "https://dc.lft.to/lastmile_qr_scan", "ios": "https://dc.lft.to/lastmile_qr_scan"}, "bike_id": "16e1cfa29ff80f6c7bc3505a7ae1a426", "lon": -77.029555}, {"is_reserved": 0, "fusion_lon": 0.0, "fusion_lat": 0.0, "name": "50812b95d4db289a82026c43874a869a", "type": "electric_scooter", "is_disabled": 0, "lat": 38.934562666666665, "rental_uris": {"android": "https://dc.lft.to/lastmile_qr_scan", "ios": "https://dc.lft.to/lastmile_qr_scan"}, "bike_id": "50812b95d4db289a82026c43874a869a", "lon": -77.03756316666667}, {"is_reserved": 0, "fusion_lon": 0.0, "fusion_lat": 0.0, "name": "792af822b0c334bc0c98c9065541a098", "type": "electric_scooter", "is_disabled": 0, "lat": 38.9002985, "rental_uris": {"android": "https://dc.lft.to/lastmile_qr_scan", "ios": "https://dc.lft.to/lastmile_qr_scan"}, "bike_id": "792af822b0c334bc0c98c9065541a098", "lon": -76.9886}, {"is_reserved": 0, "fusion_lon": 0.0, "fusion_lat": 0.0, "name": "a0408a3f63730544fbbe4fb0cb665b05", "type": "electric_scooter", "is_disabled": 0, "lat": 38.9074425, "rental_uris": {"android": "https://dc.lft.to/lastmile_qr_scan", "ios": "https://dc.lft.to/lastmile_qr_scan"}, "bike_id": "a0408a3f63730544fbbe4fb0cb665b05", "lon": -77.04147166666667}, {"is_reserved": 0, "fusion_lon": 0.0, "fusion_lat": 0.0, "name": "84ebd0f4e13dcd4ea79eabcba3194cee", "type": "electric_scooter", "is_disabled": 0, "lat": 38.93623516666667, "rental_uris": {"android": "https://dc.lft.to/lastmile_qr_scan", "ios": "https://dc.lft.to/lastmile_qr_scan"}, "bike_id": "84ebd0f4e13dcd4ea79eabcba3194cee", "lon": -77.05892916666667}, {"is_reserved": 0, "fusion_lon": 0.0, "fusion_lat": 0.0, "name": "144c605c5ca34048320ce509427153f5", "type": "electric_scooter", "is_disabled": 0, "lat": 38.89623683333333, "rental_uris": {"android": "https://dc.lft.to/lastmile_qr_scan", "ios": "https://dc.lft.to/lastmile_qr_scan"}, "bike_id": "144c605c5ca34048320ce509427153f5", "lon": -77.03204}, {"is_reserved": 0, "fusion_lon": 0.0, "fusion_lat": 0.0, "name": "32448fc243666eeb5bfca5e226823c19", "type": "electric_scooter", "is_disabled": 0, "lat": 38.928243333333334, "rental_uris": {"android": "https://dc.lft.to/lastmile_qr_scan", "ios": "https://dc.lft.to/lastmile_qr_scan"}, "bike_id": "32448fc243666eeb5bfca5e226823c19", "lon": -77.02258283333333}, {"is_reserved": 0, "fusion_lon": 0.0, "fusion_lat": 0.0, "name": "ddff7f20e17006869df765f25e5ed6fd", "type": "electric_scooter", "is_disabled": 0, "lat": 38.9043365, "rental_uris": {"android": "https://dc.lft.to/lastmile_qr_scan", "ios": "https://dc.lft.to/lastmile_qr_scan"}, "bike_id": "ddff7f20e17006869df765f25e5ed6fd", "lon": -77.02591666666666}, {"is_reserved": 0, "fusion_lon": 0.0, "fusion_lat": 0.0, "name": "9a83228d92c7b12bf3b46b725c5095a9", "type": "electric_scooter", "is_disabled": 0, "lat": 38.90593783333333, "rental_uris": {"android": "https://dc.lft.to/lastmile_qr_scan", "ios": "https://dc.lft.to/lastmile_qr_scan"}, "bike_id": "9a83228d92c7b12bf3b46b725c5095a9", "lon": -77.006976}, {"is_reserved": 0, "fusion_lon": 0.0, "fusion_lat": 0.0, "name": "2eae10b0dc9d4b529ba5ac27350f6e9f", "type": "electric_scooter", "is_disabled": 0, "lat": 38.91784116666667, "rental_uris": {"android": "https://dc.lft.to/lastmile_qr_scan", "ios": "https://dc.lft.to/lastmile_qr_scan"}, "bike_id": "2eae10b0dc9d4b529ba5ac27350f6e9f", "lon": -77.02592033333333}, {"is_reserved": 0, "fusion_lon": 0.0, "fusion_lat": 0.0, "name": "a94cfbe64f64f6e5ae4ba10f69b4fdfc", "type": "electric_scooter", "is_disabled": 0, "lat": 38.92424416666667, "rental_uris": {"android": "https://dc.lft.to/lastmile_qr_scan", "ios": "https://dc.lft.to/lastmile_qr_scan"}, "bike_id": "a94cfbe64f64f6e5ae4ba10f69b4fdfc", "lon": -77.03546766666666}, {"is_reserved": 0, "fusion_lon": 0.0, "fusion_lat": 0.0, "name": "54b8d1f0ceb2cf8339c4c726d7f641f9", "type": "electric_scooter", "is_disabled": 0, "lat": 38.91831233333333, "rental_uris": {"android": "https://dc.lft.to/lastmile_qr_scan", "ios": "https://dc.lft.to/lastmile_qr_scan"}, "bike_id": "54b8d1f0ceb2cf8339c4c726d7f641f9", "lon": -77.02467466666667}, {"is_reserved": 0, "fusion_lon": 0.0, "fusion_lat": 0.0, "name": "6b6916d48d869327308034c1ab636ae8", "type": "electric_scooter", "is_disabled": 0, "lat": 38.91417166666667, "rental_uris": {"android": "https://dc.lft.to/lastmile_qr_scan", "ios": "https://dc.lft.to/lastmile_qr_scan"}, "bike_id": "6b6916d48d869327308034c1ab636ae8", "lon": -77.02156766666667}, {"is_reserved": 0, "fusion_lon": 0.0, "fusion_lat": 0.0, "name": "8623d1de23269a607875326812f9f4e6", "type": "electric_bike", "is_disabled": 0, "lat": 38.931747666666666, "rental_uris": {"android": "https://dc.lft.to/lastmile_qr_scan", "ios": "https://dc.lft.to/lastmile_qr_scan"}, "bike_id": "8623d1de23269a607875326812f9f4e6", "lon": -77.03542}, {"is_reserved": 0, "fusion_lon": 0.0, "fusion_lat": 0.0, "name": "0acc29b72023d1ead5673bcc34675ffe", "type": "electric_scooter", "is_disabled": 0, "lat": 38.895733, "rental_uris": {"android": "https://dc.lft.to/lastmile_qr_scan", "ios": "https://dc.lft.to/lastmile_qr_scan"}, "bike_id": "0acc29b72023d1ead5673bcc34675ffe", "lon": -77.02797516666666}, {"is_reserved": 0, "fusion_lon": 0.0, "fusion_lat": 0.0, "name": "47dab3f1ccf03d188e5a30ded744ef12", "type": "electric_scooter", "is_disabled": 0, "lat": 38.90002483333333, "rental_uris": {"android": "https://dc.lft.to/lastmile_qr_scan", "ios": "https://dc.lft.to/lastmile_qr_scan"}, "bike_id": "47dab3f1ccf03d188e5a30ded744ef12", "lon": -76.99844666666667}, {"is_reserved": 0, "fusion_lon": 0.0, "fusion_lat": 0.0, "name": "74a1a6fbee963e87bf847b01ed8cdafd", "type": "electric_scooter", "is_disabled": 0, "lat": 38.92574616666667, "rental_uris": {"android": "https://dc.lft.to/lastmile_qr_scan", "ios": "https://dc.lft.to/lastmile_qr_scan"}, "bike_id": "74a1a6fbee963e87bf847b01ed8cdafd", "lon": -77.05286983333333}, {"is_reserved": 0, "fusion_lon": 0.0, "fusion_lat": 0.0, "name": "6b57b9de7267ece7a852b262d8940725", "type": "electric_scooter", "is_disabled": 0, "lat": 38.908181, "rental_uris": {"android": "https://dc.lft.to/lastmile_qr_scan", "ios": "https://dc.lft.to/lastmile_qr_scan"}, "bike_id": "6b57b9de7267ece7a852b262d8940725", "lon": -77.0433085}, {"is_reserved": 0, "fusion_lon": 0.0, "fusion_lat": 0.0, "name": "0de56d1ce88a19b3134cb34e777f0d85", "type": "electric_scooter", "is_disabled": 0, "lat": 38.90027416666667, "rental_uris": {"android": "https://dc.lft.to/lastmile_qr_scan", "ios": "https://dc.lft.to/lastmile_qr_scan"}, "bike_id": "0de56d1ce88a19b3134cb34e777f0d85", "lon": -76.988608}, {"is_reserved": 0, "fusion_lon": 0.0, "fusion_lat": 0.0, "name": "1497aa34eafb9b1d2091f2d027fc687b", "type": "electric_scooter", "is_disabled": 0, "lat": 38.90450516666667, "rental_uris": {"android": "https://dc.lft.to/lastmile_qr_scan", "ios": "https://dc.lft.to/lastmile_qr_scan"}, "bike_id": "1497aa34eafb9b1d2091f2d027fc687b", "lon": -76.9962805}, {"is_reserved": 0, "fusion_lon": 0.0, "fusion_lat": 0.0, "name": "84c521ef0435c7bcb1ecda13ebdadf24", "type": "electric_scooter", "is_disabled": 0, "lat": 38.9078575, "rental_uris": {"android": "https://dc.lft.to/lastmile_qr_scan", "ios": "https://dc.lft.to/lastmile_qr_scan"}, "bike_id": "84c521ef0435c7bcb1ecda13ebdadf24", "lon": -77.03445366666666}, {"is_reserved": 0, "fusion_lon": 0.0, "fusion_lat": 0.0, "name": "f50791e4f1a9024cbc191512696f58f2", "type": "electric_scooter", "is_disabled": 0, "lat": 38.91023966666667, "rental_uris": {"android": "https://dc.lft.to/lastmile_qr_scan", "ios": "https://dc.lft.to/lastmile_qr_scan"}, "bike_id": "f50791e4f1a9024cbc191512696f58f2", "lon": -77.06492333333334}, {"is_reserved": 0, "fusion_lon": 0.0, "fusion_lat": 0.0, "name": "b1d59590f2d07e11ce5c5e853874b8a7", "type": "electric_scooter", "is_disabled": 0, "lat": 38.917983, "rental_uris": {"android": "https://dc.lft.to/lastmile_qr_scan", "ios": "https://dc.lft.to/lastmile_qr_scan"}, "bike_id": "b1d59590f2d07e11ce5c5e853874b8a7", "lon": -77.03203866666666}, {"is_reserved": 0, "fusion_lon": 0.0, "fusion_lat": 0.0, "name": "1e978bd977d26483328e196e496c2df3", "type": "electric_scooter", "is_disabled": 0, "lat": 38.934796666666664, "rental_uris": {"android": "https://dc.lft.to/lastmile_qr_scan", "ios": "https://dc.lft.to/lastmile_qr_scan"}, "bike_id": "1e978bd977d26483328e196e496c2df3", "lon": -77.06479983333334}, {"is_reserved": 0, "fusion_lon": 0.0, "fusion_lat": 0.0, "name": "9f2060da8c2b56b0818156cb78e2b82b", "type": "electric_scooter", "is_disabled": 0, "lat": 38.89791666666667, "rental_uris": {"android": "https://dc.lft.to/lastmile_qr_scan", "ios": "https://dc.lft.to/lastmile_qr_scan"}, "bike_id": "9f2060da8c2b56b0818156cb78e2b82b", "lon": -77.04009966666666}, {"is_reserved": 0, "fusion_lon": 0.0, "fusion_lat": 0.0, "name": "67ea27bb1a477953f77920af1b331b4c", "type": "electric_scooter", "is_disabled": 0, "lat": 38.92053116666666, "rental_uris": {"android": "https://dc.lft.to/lastmile_qr_scan", "ios": "https://dc.lft.to/lastmile_qr_scan"}, "bike_id": "67ea27bb1a477953f77920af1b331b4c", "lon": -77.0346635}, {"is_reserved": 0, "fusion_lon": 0.0, "fusion_lat": 0.0, "name": "0211973c2a77ee0037774aaa9b5013f3", "type": "electric_scooter", "is_disabled": 0, "lat": 38.875406, "rental_uris": {"android": "https://dc.lft.to/lastmile_qr_scan", "ios": "https://dc.lft.to/lastmile_qr_scan"}, "bike_id": "0211973c2a77ee0037774aaa9b5013f3", "lon": -77.00605283333333}, {"is_reserved": 0, "fusion_lon": 0.0, "fusion_lat": 0.0, "name": "2c49946cc991c983f2529c509c29f132", "type": "electric_scooter", "is_disabled": 0, "lat": 38.95203683333333, "rental_uris": {"android": "https://dc.lft.to/lastmile_qr_scan", "ios": "https://dc.lft.to/lastmile_qr_scan"}, "bike_id": "2c49946cc991c983f2529c509c29f132", "lon": -77.02733083333334}, {"is_reserved": 0, "fusion_lon": 0.0, "fusion_lat": 0.0, "name": "fc804e560bd64f8618db869f7ae31c34", "type": "electric_scooter", "is_disabled": 0, "lat": 38.907245333333336, "rental_uris": {"android": "https://dc.lft.to/lastmile_qr_scan", "ios": "https://dc.lft.to/lastmile_qr_scan"}, "bike_id": "fc804e560bd64f8618db869f7ae31c34", "lon": -77.04809533333334}, {"is_reserved": 0, "fusion_lon": 0.0, "fusion_lat": 0.0, "name": "7953a54daef8d5c0b8382e2a1462929c", "type": "electric_scooter", "is_disabled": 0, "lat": 38.90129683333333, "rental_uris": {"android": "https://dc.lft.to/lastmile_qr_scan", "ios": "https://dc.lft.to/lastmile_qr_scan"}, "bike_id": "7953a54daef8d5c0b8382e2a1462929c", "lon": -77.04018166666667}, {"is_reserved": 0, "fusion_lon": 0.0, "fusion_lat": 0.0, "name": "ab1287b8eea512967146bbf8f6af2c1a", "type": "electric_scooter", "is_disabled": 0, "lat": 38.90350183333334, "rental_uris": {"android": "https://dc.lft.to/lastmile_qr_scan", "ios": "https://dc.lft.to/lastmile_qr_scan"}, "bike_id": "ab1287b8eea512967146bbf8f6af2c1a", "lon": -77.006055}, {"is_reserved": 0, "fusion_lon": 0.0, "fusion_lat": 0.0, "name": "31dfa27a2a11180ceceb992b7bfac106", "type": "electric_scooter", "is_disabled": 0, "lat": 38.91382433333333, "rental_uris": {"android": "https://dc.lft.to/lastmile_qr_scan", "ios": "https://dc.lft.to/lastmile_qr_scan"}, "bike_id": "31dfa27a2a11180ceceb992b7bfac106", "lon": -77.01705416666667}, {"is_reserved": 0, "fusion_lon": 0.0, "fusion_lat": 0.0, "name": "5d0a68550f8e2f07a319c8d46b154a42", "type": "electric_scooter", "is_disabled": 0, "lat": 38.909743, "rental_uris": {"android": "https://dc.lft.to/lastmile_qr_scan", "ios": "https://dc.lft.to/lastmile_qr_scan"}, "bike_id": "5d0a68550f8e2f07a319c8d46b154a42", "lon": -77.0386005}, {"is_reserved": 0, "fusion_lon": 0.0, "fusion_lat": 0.0, "name": "71942189786ea32eef57516f6ebced5f", "type": "electric_scooter", "is_disabled": 0, "lat": 38.901399833333336, "rental_uris": {"android": "https://dc.lft.to/lastmile_qr_scan", "ios": "https://dc.lft.to/lastmile_qr_scan"}, "bike_id": "71942189786ea32eef57516f6ebced5f", "lon": -77.03228416666667}, {"is_reserved": 0, "fusion_lon": 0.0, "fusion_lat": 0.0, "name": "4a7b87eeab53bbd4ce9a986b94df8735", "type": "electric_scooter", "is_disabled": 0, "lat": 38.8901975, "rental_uris": {"android": "https://dc.lft.to/lastmile_qr_scan", "ios": "https://dc.lft.to/lastmile_qr_scan"}, "bike_id": "4a7b87eeab53bbd4ce9a986b94df8735", "lon": -76.93736983333334}, {"is_reserved": 0, "fusion_lon": 0.0, "fusion_lat": 0.0, "name": "65c840fd9c7a4674a91d3de896503108", "type": "electric_scooter", "is_disabled": 0, "lat": 38.935792166666666, "rental_uris": {"android": "https://dc.lft.to/lastmile_qr_scan", "ios": "https://dc.lft.to/lastmile_qr_scan"}, "bike_id": "65c840fd9c7a4674a91d3de896503108", "lon": -77.02129816666667}, {"is_reserved": 0, "fusion_lon": 0.0, "fusion_lat": 0.0, "name": "d6d0acb6bac9f552c83745e58e010d88", "type": "electric_scooter", "is_disabled": 0, "lat": 38.91422383333333, "rental_uris": {"android": "https://dc.lft.to/lastmile_qr_scan", "ios": "https://dc.lft.to/lastmile_qr_scan"}, "bike_id": "d6d0acb6bac9f552c83745e58e010d88", "lon": -77.0215125}, {"is_reserved": 0, "fusion_lon": 0.0, "fusion_lat": 0.0, "name": "0eecd989e16e9eecd021510ba33ae59e", "type": "electric_scooter", "is_disabled": 0, "lat": 38.9160335, "rental_uris": {"android": "https://dc.lft.to/lastmile_qr_scan", "ios": "https://dc.lft.to/lastmile_qr_scan"}, "bike_id": "0eecd989e16e9eecd021510ba33ae59e", "lon": -77.02408933333334}, {"is_reserved": 0, "fusion_lon": 0.0, "fusion_lat": 0.0, "name": "2a5728cbc2be8365991fbb3cee851a4c", "type": "electric_scooter", "is_disabled": 0, "lat": 38.8922755, "rental_uris": {"android": "https://dc.lft.to/lastmile_qr_scan", "ios": "https://dc.lft.to/lastmile_qr_scan"}, "bike_id": "2a5728cbc2be8365991fbb3cee851a4c", "lon": -77.043374}, {"is_reserved": 0, "fusion_lon": 0.0, "fusion_lat": 0.0, "name": "2db91af61e28060dfbc9dd0ae4d8ec79", "type": "electric_scooter", "is_disabled": 0, "lat": 38.939591, "rental_uris": {"android": "https://dc.lft.to/lastmile_qr_scan", "ios": "https://dc.lft.to/lastmile_qr_scan"}, "bike_id": "2db91af61e28060dfbc9dd0ae4d8ec79", "lon": -77.03672616666667}, {"is_reserved": 0, "fusion_lon": 0.0, "fusion_lat": 0.0, "name": "9e813cdc6313a19ef107869f59d69e21", "type": "electric_bike", "is_disabled": 0, "lat": 38.911735666666665, "rental_uris": {"android": "https://dc.lft.to/lastmile_qr_scan", "ios": "https://dc.lft.to/lastmile_qr_scan"}, "bike_id": "9e813cdc6313a19ef107869f59d69e21", "lon": -77.002747}, {"is_reserved": 0, "fusion_lon": 0.0, "fusion_lat": 0.0, "name": "c137fc459c52ea63ab15ea0e1e395d0e", "type": "electric_scooter", "is_disabled": 0, "lat": 38.93339616666667, "rental_uris": {"android": "https://dc.lft.to/lastmile_qr_scan", "ios": "https://dc.lft.to/lastmile_qr_scan"}, "bike_id": "c137fc459c52ea63ab15ea0e1e395d0e", "lon": -77.0262265}, {"is_reserved": 0, "fusion_lon": 0.0, "fusion_lat": 0.0, "name": "7d061121e9c0d7418ba342ec6178c7d2", "type": "electric_bike", "is_disabled": 0, "lat": 38.91926216666667, "rental_uris": {"android": "https://dc.lft.to/lastmile_qr_scan", "ios": "https://dc.lft.to/lastmile_qr_scan"}, "bike_id": "7d061121e9c0d7418ba342ec6178c7d2", "lon": -77.0738205}, {"is_reserved": 0, "fusion_lon": 0.0, "fusion_lat": 0.0, "name": "9afcc10ceab5a156c1d01a0800eed2ac", "type": "electric_scooter", "is_disabled": 0, "lat": 38.88777966666667, "rental_uris": {"android": "https://dc.lft.to/lastmile_qr_scan", "ios": "https://dc.lft.to/lastmile_qr_scan"}, "bike_id": "9afcc10ceab5a156c1d01a0800eed2ac", "lon": -76.95536616666666}, {"is_reserved": 0, "fusion_lon": 0.0, "fusion_lat": 0.0, "name": "11c90c5f1022b4403cdca61abac79dcd", "type": "electric_scooter", "is_disabled": 0, "lat": 38.8431105, "rental_uris": {"android": "https://dc.lft.to/lastmile_qr_scan", "ios": "https://dc.lft.to/lastmile_qr_scan"}, "bike_id": "11c90c5f1022b4403cdca61abac79dcd", "lon": -76.9993535}, {"is_reserved": 0, "fusion_lon": 0.0, "fusion_lat": 0.0, "name": "fc5ddcaf02fb6e2a34d13640b8200230", "type": "electric_bike", "is_disabled": 0, "lat": 39.013707, "rental_uris": {"android": "https://dc.lft.to/lastmile_qr_scan", "ios": "https://dc.lft.to/lastmile_qr_scan"}, "bike_id": "fc5ddcaf02fb6e2a34d13640b8200230", "lon": -76.92134833333333}, {"is_reserved": 0, "fusion_lon": 0.0, "fusion_lat": 0.0, "name": "bf42634dce8a95242e9ae5716692a337", "type": "electric_scooter", "is_disabled": 0, "lat": 38.86701816666667, "rental_uris": {"android": "https://dc.lft.to/lastmile_qr_scan", "ios": "https://dc.lft.to/lastmile_qr_scan"}, "bike_id": "bf42634dce8a95242e9ae5716692a337", "lon": -76.987139}, {"is_reserved": 0, "fusion_lon": 0.0, "fusion_lat": 0.0, "name": "ac923e8a828308611a2666a9f78ee86e", "type": "electric_scooter", "is_disabled": 0, "lat": 38.900043, "rental_uris": {"android": "https://dc.lft.to/lastmile_qr_scan", "ios": "https://dc.lft.to/lastmile_qr_scan"},