{"data": {"bikes": [{"name": "63801f49b83235252283b6c1f91e98ff", "fusion_lat": 0.0, "fusion_lon": 0.0, "bike_id": "63801f49b83235252283b6c1f91e98ff", "rental_uris": {"ios": "https://dc.lft.to/lastmile_qr_scan", "android": "https://dc.lft.to/lastmile_qr_scan"}, "type": "electric_scooter", "lat": 38.89941233333333, "is_disabled": 0, "lon": -77.04328116666667, "is_reserved": 0}, {"name": "5ec227d94e75c3f93ecad358754b03ef", "fusion_lat": 0.0, "fusion_lon": 0.0, "bike_id": "5ec227d94e75c3f93ecad358754b03ef", "rental_uris": {"ios": "https://dc.lft.to/lastmile_qr_scan", "android": "https://dc.lft.to/lastmile_qr_scan"}, "type": "electric_scooter", "lat": 38.89723866666667, "is_disabled": 0, "lon": -76.992609, "is_reserved": 0}, {"name": "68b98e9aabb29c46e67b8c98d9b062db", "fusion_lat": 0.0, "fusion_lon": 0.0, "bike_id": "68b98e9aabb29c46e67b8c98d9b062db", "rental_uris": {"ios": "https://dc.lft.to/lastmile_qr_scan", "android": "https://dc.lft.to/lastmile_qr_scan"}, "type": "electric_scooter", "lat": 38.9156725, "is_disabled": 0, "lon": -77.0327105, "is_reserved": 0}, {"name": "99cee9bee6d1aef2020f63df508b4757", "fusion_lat": 0.0, "fusion_lon": 0.0, "bike_id": "99cee9bee6d1aef2020f63df508b4757", "rental_uris": {"ios": "https://dc.lft.to/lastmile_qr_scan", "android": "https://dc.lft.to/lastmile_qr_scan"}, "type": "electric_scooter", "lat": 38.91258533333333, "is_disabled": 0, "lon": -77.03272083333333, "is_reserved": 0}, {"name": "eeed845c428cb0fdda1907c0cf5e1f38", "fusion_lat": 0.0, "fusion_lon": 0.0, "bike_id": "eeed845c428cb0fdda1907c0cf5e1f38", "rental_uris": {"ios": "https://dc.lft.to/lastmile_qr_scan", "android": "https://dc.lft.to/lastmile_qr_scan"}, "type": "electric_scooter", "lat": 38.905446, "is_disabled": 0, "lon": -77.0298, "is_reserved": 0}, {"name": "c78cd8875c8ab354ac6ee79585fd607a", "fusion_lat": 0.0, "fusion_lon": 0.0, "bike_id": "c78cd8875c8ab354ac6ee79585fd607a", "rental_uris": {"ios": "https://dc.lft.to/lastmile_qr_scan", "android": "https://dc.lft.to/lastmile_qr_scan"}, "type": "electric_scooter", "lat": 38.899686, "is_disabled": 0, "lon": -77.04617933333333, "is_reserved": 0}, {"name": "44d2746c2c718d318868d922a6a64d59", "fusion_lat": 0.0, "fusion_lon": 0.0, "bike_id": "44d2746c2c718d318868d922a6a64d59", "rental_uris": {"ios": "https://dc.lft.to/lastmile_qr_scan", "android": "https://dc.lft.to/lastmile_qr_scan"}, "type": "electric_scooter", "lat": 38.8971205, "is_disabled": 0, "lon": -77.00801116666666, "is_reserved": 0}, {"name": "9592a2ec840209c19cd75fa786f6acbd", "fusion_lat": 0.0, "fusion_lon": 0.0, "bike_id": "9592a2ec840209c19cd75fa786f6acbd", "rental_uris": {"ios": "https://dc.lft.to/lastmile_qr_scan", "android": "https://dc.lft.to/lastmile_qr_scan"}, "type": "electric_scooter", "lat": 38.896173, "is_disabled": 0, "lon": -76.99639733333333, "is_reserved": 0}, {"name": "85e50dbce231423499475cba4e9fbab0", "fusion_lat": 0.0, "fusion_lon": 0.0, "bike_id": "85e50dbce231423499475cba4e9fbab0", "rental_uris": {"ios": "https://dc.lft.to/lastmile_qr_scan", "android": "https://dc.lft.to/lastmile_qr_scan"}, "type": "electric_scooter", "lat": 38.901769333333334, "is_disabled": 0, "lon": -76.92829583333334, "is_reserved": 0}, {"name": "00c96461860dc2365a5a5cb6e5f41d4b", "fusion_lat": 0.0, "fusion_lon": 0.0, "bike_id": "00c96461860dc2365a5a5cb6e5f41d4b", "rental_uris": {"ios": "https://dc.lft.to/lastmile_qr_scan", "android": "https://dc.lft.to/lastmile_qr_scan"}, "type": "electric_scooter", "lat": 38.920727, "is_disabled": 0, "lon": -77.02515416666667, "is_reserved": 0}, {"name": "d7b2b8a0bbbe911beecbe194bcf10e87", "fusion_lat": 0.0, "fusion_lon": 0.0, "bike_id": "d7b2b8a0bbbe911beecbe194bcf10e87", "rental_uris": {"ios": "https://dc.lft.to/lastmile_qr_scan", "android": "https://dc.lft.to/lastmile_qr_scan"}, "type": "electric_scooter", "lat": 38.922458166666665, "is_disabled": 0, "lon": -77.03083716666667, "is_reserved": 0}, {"name": "1bd3ba88cb4ac5757af35adfa24cbacb", "fusion_lat": 0.0, "fusion_lon": 0.0, "bike_id": "1bd3ba88cb4ac5757af35adfa24cbacb", "rental_uris": {"ios": "https://dc.lft.to/lastmile_qr_scan", "android": "https://dc.lft.to/lastmile_qr_scan"}, "type": "electric_scooter", "lat": 38.932475833333335, "is_disabled": 0, "lon": -77.032779, "is_reserved": 0}, {"name": "c4197d1a8801d2f94b84ebb5101a4bc5", "fusion_lat": 0.0, "fusion_lon": 0.0, "bike_id": "c4197d1a8801d2f94b84ebb5101a4bc5", "rental_uris": {"ios": "https://dc.lft.to/lastmile_qr_scan", "android": "https://dc.lft.to/lastmile_qr_scan"}, "type": "electric_scooter", "lat": 38.9014085, "is_disabled": 0, "lon": -77.039781, "is_reserved": 0}, {"name": "7f434a55bfd4ef0413447fa2b7f9d2f2", "fusion_lat": 0.0, "fusion_lon": 0.0, "bike_id": "7f434a55bfd4ef0413447fa2b7f9d2f2", "rental_uris": {"ios": "https://dc.lft.to/lastmile_qr_scan", "android": "https://dc.lft.to/lastmile_qr_scan"}, "type": "electric_scooter", "lat": 38.894208166666665, "is_disabled": 0, "lon": -76.912228, "is_reserved": 0}, {"name": "7b969e599c1969bf7db2bb860882f158", "fusion_lat": 0.0, "fusion_lon": 0.0, "bike_id": "7b969e599c1969bf7db2bb860882f158", "rental_uris": {"ios": "https://dc.lft.to/lastmile_qr_scan", "android": "https://dc.lft.to/lastmile_qr_scan"}, "type": "electric_scooter", "lat": 38.92093783333333, "is_disabled": 0, "lon": -77.0179775, "is_reserved": 0}, {"name": "5c107e03d1dd14301396691e34b9e784", "fusion_lat": 0.0, "fusion_lon": 0.0, "bike_id": "5c107e03d1dd14301396691e34b9e784", "rental_uris": {"ios": "https://dc.lft.to/lastmile_qr_scan", "android": "https://dc.lft.to/lastmile_qr_scan"}, "type": "electric_scooter", "lat": 38.9049915, "is_disabled": 0, "lon": -77.02946533333333, "is_reserved": 0}, {"name": "4c5e9b484a3ece2a462decd0c0f782ab", "fusion_lat": 0.0, "fusion_lon": 0.0, "bike_id": "4c5e9b484a3ece2a462decd0c0f782ab", "rental_uris": {"ios": "https://dc.lft.to/lastmile_qr_scan", "android": "https://dc.lft.to/lastmile_qr_scan"}, "type": "electric_scooter", "lat": 38.896322833333336, "is_disabled": 0, "lon": -77.05033466666667, "is_reserved": 0}, {"name": "177aaf52ab2d0c054fb003f2c9a0039d", "fusion_lat": 0.0, "fusion_lon": 0.0, "bike_id": "177aaf52ab2d0c054fb003f2c9a0039d", "rental_uris": {"ios": "https://dc.lft.to/lastmile_qr_scan", "android": "https://dc.lft.to/lastmile_qr_scan"}, "type": "electric_scooter", "lat": 38.90986083333333, "is_disabled": 0, "lon": -76.984921, "is_reserved": 0}, {"name": "f7c572d830d78887b7e5d75704817ad9", "fusion_lat": 0.0, "fusion_lon": 0.0, "bike_id": "f7c572d830d78887b7e5d75704817ad9", "rental_uris": {"ios": "https://dc.lft.to/lastmile_qr_scan", "android": "https://dc.lft.to/lastmile_qr_scan"}, "type": "electric_scooter", "lat": 38.88294066666667, "is_disabled": 0, "lon": -77.01745033333333, "is_reserved": 0}, {"name": "8fd43c839a0321e522a724dc23444559", "fusion_lat": 0.0, "fusion_lon": 0.0, "bike_id": "8fd43c839a0321e522a724dc23444559", "rental_uris": {"ios": "https://dc.lft.to/lastmile_qr_scan", "android": "https://dc.lft.to/lastmile_qr_scan"}, "type": "electric_scooter", "lat": 38.904727666666666, "is_disabled": 0, "lon": -77.02821033333333, "is_reserved": 0}, {"name": "313bdfb8090c29eab0cf57e524cce914", "fusion_lat": 0.0, "fusion_lon": 0.0, "bike_id": "313bdfb8090c29eab0cf57e524cce914", "rental_uris": {"ios": "https://dc.lft.to/lastmile_qr_scan", "android": "https://dc.lft.to/lastmile_qr_scan"}, "type": "electric_scooter", "lat": 38.9119835, "is_disabled": 0, "lon": -77.0417525, "is_reserved": 0}, {"name": "7d3b63b26d414f0bb37cdd072bcfccbd", "fusion_lat": 0.0, "fusion_lon": 0.0, "bike_id": "7d3b63b26d414f0bb37cdd072bcfccbd", "rental_uris": {"ios": "https://dc.lft.to/lastmile_qr_scan", "android": "https://dc.lft.to/lastmile_qr_scan"}, "type": "electric_scooter", "lat": 38.937135, "is_disabled": 0, "lon": -77.02417616666666, "is_reserved": 0}, {"name": "55b22ecc58910c7ac825a3f40db6c8d4", "fusion_lat": 0.0, "fusion_lon": 0.0, "bike_id": "55b22ecc58910c7ac825a3f40db6c8d4", "rental_uris": {"ios": "https://dc.lft.to/lastmile_qr_scan", "android": "https://dc.lft.to/lastmile_qr_scan"}, "type": "electric_scooter", "lat": 38.93704733333333, "is_disabled": 0, "lon": -77.0610435, "is_reserved": 0}, {"name": "fc6677dcbf30115bd0d5042b3bca70da", "fusion_lat": 0.0, "fusion_lon": 0.0, "bike_id": "fc6677dcbf30115bd0d5042b3bca70da", "rental_uris": {"ios": "https://dc.lft.to/lastmile_qr_scan", "android": "https://dc.lft.to/lastmile_qr_scan"}, "type": "electric_scooter", "lat": 38.90716483333333, "is_disabled": 0, "lon": -77.0385495, "is_reserved": 0}, {"name": "41b268d76c60a5d9ab8e93799e8e068e", "fusion_lat": 0.0, "fusion_lon": 0.0, "bike_id": "41b268d76c60a5d9ab8e93799e8e068e", "rental_uris": {"ios": "https://dc.lft.to/lastmile_qr_scan", "android": "https://dc.lft.to/lastmile_qr_scan"}, "type": "electric_scooter", "lat": 38.90984983333333, "is_disabled": 0, "lon": -77.031958, "is_reserved": 0}, {"name": "fccea01d3f770cc91fb6af613854ccd0", "fusion_lat": 0.0, "fusion_lon": 0.0, "bike_id": "fccea01d3f770cc91fb6af613854ccd0", "rental_uris": {"ios": "https://dc.lft.to/lastmile_qr_scan", "android": "https://dc.lft.to/lastmile_qr_scan"}, "type": "electric_scooter", "lat": 38.9096, "is_disabled": 0, "lon": -77.03435033333334, "is_reserved": 0}, {"name": "9ea6667b79f5b9aa98b59d6c8b5d55b8", "fusion_lat": 0.0, "fusion_lon": 0.0, "bike_id": "9ea6667b79f5b9aa98b59d6c8b5d55b8", "rental_uris": {"ios": "https://dc.lft.to/lastmile_qr_scan", "android": "https://dc.lft.to/lastmile_qr_scan"}, "type": "electric_bike", "lat": 38.831546833333334, "is_disabled": 0, "lon": -76.996956, "is_reserved": 0}, {"name": "f4a1176f6059dac9c8c833b58ea1e431", "fusion_lat": 0.0, "fusion_lon": 0.0, "bike_id": "f4a1176f6059dac9c8c833b58ea1e431", "rental_uris": {"ios": "https://dc.lft.to/lastmile_qr_scan", "android": "https://dc.lft.to/lastmile_qr_scan"}, "type": "electric_scooter", "lat": 38.897938, "is_disabled": 0, "lon": -76.93051183333333, "is_reserved": 0}, {"name": "f1d389386725b3c5738e10d58c3080c4", "fusion_lat": 0.0, "fusion_lon": 0.0, "bike_id": "f1d389386725b3c5738e10d58c3080c4", "rental_uris": {"ios": "https://dc.lft.to/lastmile_qr_scan", "android": "https://dc.lft.to/lastmile_qr_scan"}, "type": "electric_scooter", "lat": 38.924022, "is_disabled": 0, "lon": -77.04050916666667, "is_reserved": 0}, {"name": "0702949de14494f79ff555a74cb543fe", "fusion_lat": 0.0, "fusion_lon": 0.0, "bike_id": "0702949de14494f79ff555a74cb543fe", "rental_uris": {"ios": "https://dc.lft.to/lastmile_qr_scan", "android": "https://dc.lft.to/lastmile_qr_scan"}, "type": "electric_bike", "lat": 38.8865595, "is_disabled": 0, "lon": -77.1623365, "is_reserved": 0}, {"name": "abe2a6fcc382f59f513a42f87ba57b5e", "fusion_lat": 0.0, "fusion_lon": 0.0, "bike_id": "abe2a6fcc382f59f513a42f87ba57b5e", "rental_uris": {"ios": "https://dc.lft.to/lastmile_qr_scan", "android": "https://dc.lft.to/lastmile_qr_scan"}, "type": "electric_scooter", "lat": 38.901923333333336, "is_disabled": 0, "lon": -77.02403683333333, "is_reserved": 0}, {"name": "addf738bccb8fc0ed9b0ccc3f6a71122", "fusion_lat": 0.0, "fusion_lon": 0.0, "bike_id": "addf738bccb8fc0ed9b0ccc3f6a71122", "rental_uris": {"ios": "https://dc.lft.to/lastmile_qr_scan", "android": "https://dc.lft.to/lastmile_qr_scan"}, "type": "electric_scooter", "lat": 38.9214455, "is_disabled": 0, "lon": -77.03483166666666, "is_reserved": 0}, {"name": "4efba887327b090e9f7da0bfa9e8500e", "fusion_lat": 0.0, "fusion_lon": 0.0, "bike_id": "4efba887327b090e9f7da0bfa9e8500e", "rental_uris": {"ios": "https://dc.lft.to/lastmile_qr_scan", "android": "https://dc.lft.to/lastmile_qr_scan"}, "type": "electric_scooter", "lat": 38.89511066666667, "is_disabled": 0, "lon": -77.02215383333333, "is_reserved": 0}, {"name": "9d2a2699cfbfb63efc135f6c06806619", "fusion_lat": 0.0, "fusion_lon": 0.0, "bike_id": "9d2a2699cfbfb63efc135f6c06806619", "rental_uris": {"ios": "https://dc.lft.to/lastmile_qr_scan", "android": "https://dc.lft.to/lastmile_qr_scan"}, "type": "electric_scooter", "lat": 38.846182666666664, "is_disabled": 0, "lon": -76.996322, "is_reserved": 0}, {"name": "92b6bb0eb8a5cf9fc0caac3c7698094f", "fusion_lat": 0.0, "fusion_lon": 0.0, "bike_id": "92b6bb0eb8a5cf9fc0caac3c7698094f", "rental_uris": {"ios": "https://dc.lft.to/lastmile_qr_scan", "android": "https://dc.lft.to/lastmile_qr_scan"}, "type": "electric_scooter", "lat": 38.91844233333333, "is_disabled": 0, "lon": -77.03221366666666, "is_reserved": 0}, {"name": "381b04f1597d08c06773925896915d3b", "fusion_lat": 0.0, "fusion_lon": 0.0, "bike_id": "381b04f1597d08c06773925896915d3b", "rental_uris": {"ios": "https://dc.lft.to/lastmile_qr_scan", "android": "https://dc.lft.to/lastmile_qr_scan"}, "type": "electric_scooter", "lat": 38.899279, "is_disabled": 0, "lon": -77.01494716666667, "is_reserved": 0}, {"name": "9b1eb95039fafc58982fb9f4851ddde4", "fusion_lat": 0.0, "fusion_lon": 0.0, "bike_id": "9b1eb95039fafc58982fb9f4851ddde4", "rental_uris": {"ios": "https://dc.lft.to/lastmile_qr_scan", "android": "https://dc.lft.to/lastmile_qr_scan"}, "type": "electric_scooter", "lat": 38.8796925, "is_disabled": 0, "lon": -77.02437916666666, "is_reserved": 0}, {"name": "33ccd38c1078db2cca566bcf145e3e82", "fusion_lat": 0.0, "fusion_lon": 0.0, "bike_id": "33ccd38c1078db2cca566bcf145e3e82", "rental_uris": {"ios": "https://dc.lft.to/lastmile_qr_scan", "android": "https://dc.lft.to/lastmile_qr_scan"}, "type": "electric_scooter", "lat": 38.892443166666666, "is_disabled": 0, "lon": -77.046637, "is_reserved": 0}, {"name": "4cd4fc5143a9f5883e1afdd25831c2ea", "fusion_lat": 0.0, "fusion_lon": 0.0, "bike_id": "4cd4fc5143a9f5883e1afdd25831c2ea", "rental_uris": {"ios": "https://dc.lft.to/lastmile_qr_scan", "android": "https://dc.lft.to/lastmile_qr_scan"}, "type": "electric_bike", "lat": 38.8571135, "is_disabled": 0, "lon": -76.9811495, "is_reserved": 0}, {"name": "d7e8ca9e777f538cc97f0db4c970c7fd", "fusion_lat": 0.0, "fusion_lon": 0.0, "bike_id": "d7e8ca9e777f538cc97f0db4c970c7fd", "rental_uris": {"ios": "https://dc.lft.to/lastmile_qr_scan", "android": "https://dc.lft.to/lastmile_qr_scan"}, "type": "electric_scooter", "lat": 38.83810483333333, "is_disabled": 0, "lon": -77.00435333333333, "is_reserved": 0}, {"name": "eccb5f7477fc048c7fc137d89891a9bd", "fusion_lat": 0.0, "fusion_lon": 0.0, "bike_id": "eccb5f7477fc048c7fc137d89891a9bd", "rental_uris": {"ios": "https://dc.lft.to/lastmile_qr_scan", "android": "https://dc.lft.to/lastmile_qr_scan"}, "type": "electric_scooter", "lat": 38.928578, "is_disabled": 0, "lon": -77.03432933333333, "is_reserved": 0}, {"name": "966a5c0096271139a784db73646ec4e8", "fusion_lat": 0.0, "fusion_lon": 0.0, "bike_id": "966a5c0096271139a784db73646ec4e8", "rental_uris": {"ios": "https://dc.lft.to/lastmile_qr_scan", "android": "https://dc.lft.to/lastmile_qr_scan"}, "type": "electric_bike", "lat": 38.91917083333333, "is_disabled": 0, "lon": -77.07026633333334, "is_reserved": 0}, {"name": "b90e9037e6794eee352d18e4cad44ec1", "fusion_lat": 0.0, "fusion_lon": 0.0, "bike_id": "b90e9037e6794eee352d18e4cad44ec1", "rental_uris": {"ios": "https://dc.lft.to/lastmile_qr_scan", "android": "https://dc.lft.to/lastmile_qr_scan"}, "type": "electric_scooter", "lat": 38.930445, "is_disabled": 0, "lon": -77.00413233333333, "is_reserved": 0}, {"name": "c698e129692d09598162065067dc1a9b", "fusion_lat": 0.0, "fusion_lon": 0.0, "bike_id": "c698e129692d09598162065067dc1a9b", "rental_uris": {"ios": "https://dc.lft.to/lastmile_qr_scan", "android": "https://dc.lft.to/lastmile_qr_scan"}, "type": "electric_bike", "lat": 39.115235, "is_disabled": 0, "lon": -77.19549983333333, "is_reserved": 0}, {"name": "b5c9ec752244f759be820440631d7a2d", "fusion_lat": 0.0, "fusion_lon": 0.0, "bike_id": "b5c9ec752244f759be820440631d7a2d", "rental_uris": {"ios": "https://dc.lft.to/lastmile_qr_scan", "android": "https://dc.lft.to/lastmile_qr_scan"}, "type": "electric_scooter", "lat": 38.91575783333333, "is_disabled": 0, "lon": -77.046786, "is_reserved": 0}, {"name": "b7b97c73da167739766780fe5e88a301", "fusion_lat": 0.0, "fusion_lon": 0.0, "bike_id": "b7b97c73da167739766780fe5e88a301", "rental_uris": {"ios": "https://dc.lft.to/lastmile_qr_scan", "android": "https://dc.lft.to/lastmile_qr_scan"}, "type": "electric_scooter", "lat": 38.942784333333336, "is_disabled": 0, "lon": -77.02352316666666, "is_reserved": 0}, {"name": "069f97a0e1729d7e9416d2068890c972", "fusion_lat": 0.0, "fusion_lon": 0.0, "bike_id": "069f97a0e1729d7e9416d2068890c972", "rental_uris": {"ios": "https://dc.lft.to/lastmile_qr_scan", "android": "https://dc.lft.to/lastmile_qr_scan"}, "type": "electric_scooter", "lat": 38.9181285, "is_disabled": 0, "lon": -77.0416815, "is_reserved": 0}, {"name": "9bcfa560a4760e431fb49a353e235eb7", "fusion_lat": 0.0, "fusion_lon": 0.0, "bike_id": "9bcfa560a4760e431fb49a353e235eb7", "rental_uris": {"ios": "https://dc.lft.to/lastmile_qr_scan", "android": "https://dc.lft.to/lastmile_qr_scan"}, "type": "electric_scooter", "lat": 38.9191035, "is_disabled": 0, "lon": -77.0176125, "is_reserved": 0}, {"name": "e2b6ae0dddfb71bc92397bc7158996c7", "fusion_lat": 0.0, "fusion_lon": 0.0, "bike_id": "e2b6ae0dddfb71bc92397bc7158996c7", "rental_uris": {"ios": "https://dc.lft.to/lastmile_qr_scan", "android": "https://dc.lft.to/lastmile_qr_scan"}, "type": "electric_scooter", "lat": 38.91266783333333, "is_disabled": 0, "lon": -77.04154433333333, "is_reserved": 0}, {"name": "029b3a800319c3d3757c107ddfe4b903", "fusion_lat": 0.0, "fusion_lon": 0.0, "bike_id": "029b3a800319c3d3757c107ddfe4b903", "rental_uris": {"ios": "https://dc.lft.to/lastmile_qr_scan", "android": "https://dc.lft.to/lastmile_qr_scan"}, "type": "electric_scooter", "lat": 38.900010333333334, "is_disabled": 0, "lon": -77.0500555, "is_reserved": 0}, {"name": "088f2d97d690cdccd5bb2cbb83ba8895", "fusion_lat": 0.0, "fusion_lon": 0.0, "bike_id": "088f2d97d690cdccd5bb2cbb83ba8895", "rental_uris": {"ios": "https://dc.lft.to/lastmile_qr_scan", "android": "https://dc.lft.to/lastmile_qr_scan"}, "type": "electric_scooter", "lat": 38.92604083333333, "is_disabled": 0, "lon": -77.02418733333333, "is_reserved": 0}, {"name": "4a70ec47695f345f1dd210ebea3efd8f", "fusion_lat": 0.0, "fusion_lon": 0.0, "bike_id": "4a70ec47695f345f1dd210ebea3efd8f", "rental_uris": {"ios": "https://dc.lft.to/lastmile_qr_scan", "android": "https://dc.lft.to/lastmile_qr_scan"}, "type": "electric_scooter", "lat": 38.90560266666667, "is_disabled": 0, "lon": -77.04667216666667, "is_reserved": 0}, {"name": "fe10564d52f4e0e858ea6ba09187762b", "fusion_lat": 0.0, "fusion_lon": 0.0, "bike_id": "fe10564d52f4e0e858ea6ba09187762b", "rental_uris": {"ios": "https://dc.lft.to/lastmile_qr_scan", "android": "https://dc.lft.to/lastmile_qr_scan"}, "type": "electric_scooter", "lat": 38.875945333333334, "is_disabled": 0, "lon": -77.00580316666667, "is_reserved": 0}, {"name": "847d1f57c2a05c11a2428ca94712f353", "fusion_lat": 0.0, "fusion_lon": 0.0, "bike_id": "847d1f57c2a05c11a2428ca94712f353", "rental_uris": {"ios": "https://dc.lft.to/lastmile_qr_scan", "android": "https://dc.lft.to/lastmile_qr_scan"}, "type": "electric_scooter", "lat": 38.92550683333333, "is_disabled": 0, "lon": -77.027127, "is_reserved": 0}, {"name": "e1d101a1c511d1447cc74164631dad91", "fusion_lat": 0.0, "fusion_lon": 0.0, "bike_id": "e1d101a1c511d1447cc74164631dad91", "rental_uris": {"ios": "https://dc.lft.to/lastmile_qr_scan", "android": "https://dc.lft.to/lastmile_qr_scan"}, "type": "electric_scooter", "lat": 38.9156815, "is_disabled": 0, "lon": -77.04701316666667, "is_reserved": 0}, {"name": "c7da8a87fae880faab66bd69370d2f1f", "fusion_lat": 0.0, "fusion_lon": 0.0, "bike_id": "c7da8a87fae880faab66bd69370d2f1f", "rental_uris": {"ios": "https://dc.lft.to/lastmile_qr_scan", "android": "https://dc.lft.to/lastmile_qr_scan"}, "type": "electric_scooter", "lat": 38.93410633333333, "is_disabled": 0, "lon": -77.042684, "is_reserved": 0}, {"name": "4cfa3a2406463a5b9894a218aa2d6a5a", "fusion_lat": 0.0, "fusion_lon": 0.0, "bike_id": "4cfa3a2406463a5b9894a218aa2d6a5a", "rental_uris": {"ios": "https://dc.lft.to/lastmile_qr_scan", "android": "https://dc.lft.to/lastmile_qr_scan"}, "type": "electric_scooter", "lat": 38.87169683333333, "is_disabled": 0, "lon": -77.0062725, "is_reserved": 0}, {"name": "790e0e76dad94deaa908ffbef94bdaa9", "fusion_lat": 0.0, "fusion_lon": 0.0, "bike_id": "790e0e76dad94deaa908ffbef94bdaa9", "rental_uris": {"ios": "https://dc.lft.to/lastmile_qr_scan", "android": "https://dc.lft.to/lastmile_qr_scan"}, "type": "electric_scooter", "lat": 38.90790616666666, "is_disabled": 0, "lon": -77.049815, "is_reserved": 0}, {"name": "bdf044b515f3b1a918da53d68aec7a8d", "fusion_lat": 0.0, "fusion_lon": 0.0, "bike_id": "bdf044b515f3b1a918da53d68aec7a8d", "rental_uris": {"ios": "https://dc.lft.to/lastmile_qr_scan", "android": "https://dc.lft.to/lastmile_qr_scan"}, "type": "electric_scooter", "lat": 38.920907, "is_disabled": 0, "lon": -77.0259365, "is_reserved": 0}, {"name": "58f4f5f84dfe572cb5b6fd0103dd5cdb", "fusion_lat": 0.0, "fusion_lon": 0.0, "bike_id": "58f4f5f84dfe572cb5b6fd0103dd5cdb", "rental_uris": {"ios": "https://dc.lft.to/lastmile_qr_scan", "android": "https://dc.lft.to/lastmile_qr_scan"}, "type": "electric_bike", "lat": 38.906941, "is_disabled": 0, "lon": -76.95193133333333, "is_reserved": 0}, {"name": "0dde9cf3892e3c5bb72a419529756744", "fusion_lat": 0.0, "fusion_lon": 0.0, "bike_id": "0dde9cf3892e3c5bb72a419529756744", "rental_uris": {"ios": "https://dc.lft.to/lastmile_qr_scan", "android": "https://dc.lft.to/lastmile_qr_scan"}, "type": "electric_scooter", "lat": 38.91974716666667, "is_disabled": 0, "lon": -77.04178133333333, "is_reserved": 0}, {"name": "62860f440518ef7addb5ab48f09bf757", "fusion_lat": 0.0, "fusion_lon": 0.0, "bike_id": "62860f440518ef7addb5ab48f09bf757", "rental_uris": {"ios": "https://dc.lft.to/lastmile_qr_scan", "android": "https://dc.lft.to/lastmile_qr_scan"}, "type": "electric_scooter", "lat": 38.87718066666667, "is_disabled": 0, "lon": -77.01655283333334, "is_reserved": 0}, {"name": "0697d8c0772921143e7f4fb5ef729418", "fusion_lat": 0.0, "fusion_lon": 0.0, "bike_id": "0697d8c0772921143e7f4fb5ef729418", "rental_uris": {"ios": "https://dc.lft.to/lastmile_qr_scan", "android": "https://dc.lft.to/lastmile_qr_scan"}, "type": "electric_bike", "lat": 38.89289733333333, "is_disabled": 0, "lon": -76.97618716666666, "is_reserved": 0}, {"name": "b5910fb27a2ce901c09e8a38da2b802c", "fusion_lat": 0.0, "fusion_lon": 0.0, "bike_id": "b5910fb27a2ce901c09e8a38da2b802c", "rental_uris": {"ios": "https://dc.lft.to/lastmile_qr_scan", "android": "https://dc.lft.to/lastmile_qr_scan"}, "type": "electric_scooter", "lat": 38.88283583333333, "is_disabled": 0, "lon": -76.99507833333334, "is_reserved": 0}, {"name": "011b65288a167f544bd55720b173b590", "fusion_lat": 0.0, "fusion_lon": 0.0, "bike_id": "011b65288a167f544bd55720b173b590", "rental_uris": {"ios": "https://dc.lft.to/lastmile_qr_scan", "android": "https://dc.lft.to/lastmile_qr_scan"}, "type": "electric_scooter", "lat": 38.9152345, "is_disabled": 0, "lon": -76.9833695, "is_reserved": 0}, {"name": "ec9182796cc41baf1787fd97fe193f78", "fusion_lat": 0.0, "fusion_lon": 0.0, "bike_id": "ec9182796cc41baf1787fd97fe193f78", "rental_uris": {"ios": "https://dc.lft.to/lastmile_qr_scan", "android": "https://dc.lft.to/lastmile_qr_scan"}, "type": "electric_scooter", "lat": 38.9118635, "is_disabled": 0, "lon": -77.00264516666667, "is_reserved": 0}, {"name": "f0daf5b04d0b7ba646c4846e1c9fca0b", "fusion_lat": 0.0, "fusion_lon": 0.0, "bike_id": "f0daf5b04d0b7ba646c4846e1c9fca0b", "rental_uris": {"ios": "https://dc.lft.to/lastmile_qr_scan", "android": "https://dc.lft.to/lastmile_qr_scan"}, "type": "electric_scooter", "lat": 38.93650066666667, "is_disabled": 0, "lon": -77.0328305, "is_reserved": 0}, {"name": "fb00f74c48e14fc2b0e7e0698d1a8c7c", "fusion_lat": 0.0, "fusion_lon": 0.0, "bike_id": "fb00f74c48e14fc2b0e7e0698d1a8c7c", "rental_uris": {"ios": "https://dc.lft.to/lastmile_qr_scan", "android": "https://dc.lft.to/lastmile_qr_scan"}, "type": "electric_scooter", "lat": 38.88449266666667, "is_disabled": 0, "lon": -76.95098916666667, "is_reserved": 0}, {"name": "98a1ef8ddc5b5c442fa2a39b81aeaa17", "fusion_lat": 0.0, "fusion_lon": 0.0, "bike_id": "98a1ef8ddc5b5c442fa2a39b81aeaa17", "rental_uris": {"ios": "https://dc.lft.to/lastmile_qr_scan", "android": "https://dc.lft.to/lastmile_qr_scan"}, "type": "electric_scooter", "lat": 38.903782666666665, "is_disabled": 0, "lon": -77.0346955, "is_reserved": 0}, {"name": "19d6af521667db5b6a22d773915a7563", "fusion_lat": 0.0, "fusion_lon": 0.0, "bike_id": "19d6af521667db5b6a22d773915a7563", "rental_uris": {"ios": "https://dc.lft.to/lastmile_qr_scan", "android": "https://dc.lft.to/lastmile_qr_scan"}, "type": "electric_scooter", "lat": 38.913913666666666, "is_disabled": 0, "lon": -77.032115, "is_reserved": 0}, {"name": "cb283c9e13418f07e381723bd27b67d3", "fusion_lat": 0.0, "fusion_lon": 0.0, "bike_id": "cb283c9e13418f07e381723bd27b67d3", "rental_uris": {"ios": "https://dc.lft.to/lastmile_qr_scan", "android": "https://dc.lft.to/lastmile_qr_scan"}, "type": "electric_scooter", "lat": 38.93665566666667, "is_disabled": 0, "lon": -77.03640983333334, "is_reserved": 0}, {"name": "98a29b3dcbb36a7790c0391ad594997e", "fusion_lat": 0.0, "fusion_lon": 0.0, "bike_id": "98a29b3dcbb36a7790c0391ad594997e", "rental_uris": {"ios": "https://dc.lft.to/lastmile_qr_scan", "android": "https://dc.lft.to/lastmile_qr_scan"}, "type": "electric_scooter", "lat": 38.90892483333333, "is_disabled": 0, "lon": -77.03385516666667, "is_reserved": 0}, {"name": "cffb0501441a0f941f21ce66d50a74a5", "fusion_lat": 0.0, "fusion_lon": 0.0, "bike_id": "cffb0501441a0f941f21ce66d50a74a5", "rental_uris": {"ios": "https://dc.lft.to/lastmile_qr_scan", "android": "https://dc.lft.to/lastmile_qr_scan"}, "type": "electric_scooter", "lat": 38.903966833333335, "is_disabled": 0, "lon": -77.02800966666666, "is_reserved": 0}, {"name": "13c7dcac464b17088a659512070df033", "fusion_lat": 0.0, "fusion_lon": 0.0, "bike_id": "13c7dcac464b17088a659512070df033", "rental_uris": {"ios": "https://dc.lft.to/lastmile_qr_scan", "android": "https://dc.lft.to/lastmile_qr_scan"}, "type": "electric_scooter", "lat": 38.887377666666666, "is_disabled": 0, "lon": -77.01536116666666, "is_reserved": 0}, {"name": "6bf1b6f2dade946e7babc1affe10cbe9", "fusion_lat": 0.0, "fusion_lon": 0.0, "bike_id": "6bf1b6f2dade946e7babc1affe10cbe9", "rental_uris": {"ios": "https://dc.lft.to/lastmile_qr_scan", "android": "https://dc.lft.to/lastmile_qr_scan"}, "type": "electric_scooter", "lat": 38.901350666666666, "is_disabled": 0, "lon": -77.0415475, "is_reserved": 0}, {"name": "0bce525cd871270078249cf3e9bc8c93", "fusion_lat": 0.0, "fusion_lon": 0.0, "bike_id": "0bce525cd871270078249cf3e9bc8c93", "rental_uris": {"ios": "https://dc.lft.to/lastmile_qr_scan", "android": "https://dc.lft.to/lastmile_qr_scan"}, "type": "electric_scooter", "lat": 38.923985, "is_disabled": 0, "lon": -77.025347, "is_reserved": 0}, {"name": "a15b544804c0f686ae1ee6e2c5575e97", "fusion_lat": 0.0, "fusion_lon": 0.0, "bike_id": "a15b544804c0f686ae1ee6e2c5575e97", "rental_uris": {"ios": "https://dc.lft.to/lastmile_qr_scan", "android": "https://dc.lft.to/lastmile_qr_scan"}, "type": "electric_scooter", "lat": 38.89538183333333, "is_disabled": 0, "lon": -77.016203, "is_reserved": 0}, {"name": "904e33cb5231068f859b584ab3900c63", "fusion_lat": 0.0, "fusion_lon": 0.0, "bike_id": "904e33cb5231068f859b584ab3900c63", "rental_uris": {"ios": "https://dc.lft.to/lastmile_qr_scan", "android": "https://dc.lft.to/lastmile_qr_scan"}, "type": "electric_scooter", "lat": 38.90460133333333, "is_disabled": 0, "lon": -77.02811683333333, "is_reserved": 0}, {"name": "c7fe274368b823c9cfe78d19e0f39a39", "fusion_lat": 0.0, "fusion_lon": 0.0, "bike_id": "c7fe274368b823c9cfe78d19e0f39a39", "rental_uris": {"ios": "https://dc.lft.to/lastmile_qr_scan", "android": "https://dc.lft.to/lastmile_qr_scan"}, "type": "electric_scooter", "lat": 38.90589966666667, "is_disabled": 0, "lon": -77.05322866666667, "is_reserved": 0}, {"name": "4eb9d203194f036a4502fba31fbaec61", "fusion_lat": 0.0, "fusion_lon": 0.0, "bike_id": "4eb9d203194f036a4502fba31fbaec61", "rental_uris": {"ios": "https://dc.lft.to/lastmile_qr_scan", "android": "https://dc.lft.to/lastmile_qr_scan"}, "type": "electric_bike", "lat": 38.91583833333333, "is_disabled": 0, "lon": -76.97151933333333, "is_reserved": 0}, {"name": "3e384525bda5c5bef3a12b07d7e5ac61", "fusion_lat": 0.0, "fusion_lon": 0.0, "bike_id": "3e384525bda5c5bef3a12b07d7e5ac61", "rental_uris": {"ios": "https://dc.lft.to/lastmile_qr_scan", "android": "https://dc.lft.to/lastmile_qr_scan"}, "type": "electric_scooter", "lat": 38.89833016666667, "is_disabled": 0, "lon": -76.94636083333333, "is_reserved": 0}, {"name": "8ba9b906b9622b6a703fdad3b17f01fd", "fusion_lat": 0.0, "fusion_lon": 0.0, "bike_id": "8ba9b906b9622b6a703fdad3b17f01fd", "rental_uris": {"ios": "https://dc.lft.to/lastmile_qr_scan", "android": "https://dc.lft.to/lastmile_qr_scan"}, "type": "electric_scooter", "lat": 38.89925816666667, "is_disabled": 0, "lon": -77.02929233333333, "is_reserved": 0}, {"name": "adfbaf072d094b19d25672ab6d14d8d8", "fusion_lat": 0.0, "fusion_lon": 0.0, "bike_id": "adfbaf072d094b19d25672ab6d14d8d8", "rental_uris": {"ios": "https://dc.lft.to/lastmile_qr_scan", "android": "https://dc.lft.to/lastmile_qr_scan"}, "type": "electric_scooter", "lat": 38.9271395, "is_disabled": 0, "lon": -77.04190683333333, "is_reserved": 0}, {"name": "410bfa5be44a4f3cee9b006c71c7502c", "fusion_lat": 0.0, "fusion_lon": 0.0, "bike_id": "410bfa5be44a4f3cee9b006c71c7502c", "rental_uris": {"ios": "https://dc.lft.to/lastmile_qr_scan", "android": "https://dc.lft.to/lastmile_qr_scan"}, "type": "electric_bike", "lat": 38.955196, "is_disabled": 0, "lon": -76.9998435, "is_reserved": 0}, {"name": "d8516a3b53a339fbc52d27ab9a66a284", "fusion_lat": 0.0, "fusion_lon": 0.0, "bike_id": "d8516a3b53a339fbc52d27ab9a66a284", "rental_uris": {"ios": "https://dc.lft.to/lastmile_qr_scan", "android": "https://dc.lft.to/lastmile_qr_scan"}, "type": "electric_bike", "lat": 38.869108, "is_disabled": 0, "lon": -77.1318745, "is_reserved": 0}, {"name": "1fd48866b2b5af49718abb9a15e209c4", "fusion_lat": 0.0, "fusion_lon": 0.0, "bike_id": "1fd48866b2b5af49718abb9a15e209c4", "rental_uris": {"ios": "https://dc.lft.to/lastmile_qr_scan", "android": "https://dc.lft.to/lastmile_qr_scan"}, "type": "electric_bike", "lat": 38.91982816666667, "is_disabled": 0, "lon": -76.97312833333334, "is_reserved": 0}, {"name": "67f44302e39887172c810a2d4f33c6cf", "fusion_lat": 0.0, "fusion_lon": 0.0, "bike_id": "67f44302e39887172c810a2d4f33c6cf", "rental_uris": {"ios": "https://dc.lft.to/lastmile_qr_scan", "android": "https://dc.lft.to/lastmile_qr_scan"}, "type": "electric_bike", "lat": 38.867057833333334, "is_disabled": 0, "lon": -76.98949683333333, "is_reserved": 0}, {"name": "6a8b61be210d6f8080833e52997ea82b", "fusion_lat": 0.0, "fusion_lon": 0.0, "bike_id": "6a8b61be210d6f8080833e52997ea82b", "rental_uris": {"ios": "https://dc.lft.to/lastmile_qr_scan", "android": "https://dc.lft.to/lastmile_qr_scan"}, "type": "electric_scooter", "lat": 38.907298833333336, "is_disabled": 0, "lon": -77.01133316666666, "is_reserved": 0}, {"name": "91ab87f58a92ad5207c1119e20093f1a", "fusion_lat": 0.0, "fusion_lon": 0.0, "bike_id": "91ab87f58a92ad5207c1119e20093f1a", "rental_uris": {"ios": "https://dc.lft.to/lastmile_qr_scan", "android": "https://dc.lft.to/lastmile_qr_scan"}, "type": "electric_scooter", "lat": 38.9056515, "is_disabled": 0, "lon": -77.022131, "is_reserved": 0}, {"name": "5b50d4db914376f372d5ab0115dbeb4d", "fusion_lat": 0.0, "fusion_lon": 0.0, "bike_id": "5b50d4db914376f372d5ab0115dbeb4d", "rental_uris": {"ios": "https://dc.lft.to/lastmile_qr_scan", "android": "https://dc.lft.to/lastmile_qr_scan"}, "type": "electric_scooter", "lat": 38.88499933333333, "is_disabled": 0, "lon": -77.02077516666667, "is_reserved": 0}, {"name": "304aec7f4afb40a9686f715cbaf9b87d", "fusion_lat": 0.0, "fusion_lon": 0.0, "bike_id": "304aec7f4afb40a9686f715cbaf9b87d", "rental_uris": {"ios": "https://dc.lft.to/lastmile_qr_scan", "android": "https://dc.lft.to/lastmile_qr_scan"}, "type": "electric_bike", "lat": 38.975387, "is_disabled": 0, "lon": -76.99532733333334, "is_reserved": 0}, {"name": "8e2772c2d0ab3ffcd92e5e7b797e6b21", "fusion_lat": 0.0, "fusion_lon": 0.0, "bike_id": "8e2772c2d0ab3ffcd92e5e7b797e6b21", "rental_uris": {"ios": "https://dc.lft.to/lastmile_qr_scan", "android": "https://dc.lft.to/lastmile_qr_scan"}, "type": "electric_scooter", "lat": 38.917075833333335, "is_disabled": 0, "lon": -77.02984066666667, "is_reserved": 0}, {"name": "19b9e31031aaf529648fae3539292f7a", "fusion_lat": 0.0, "fusion_lon": 0.0, "bike_id": "19b9e31031aaf529648fae3539292f7a", "rental_uris": {"ios": "https://dc.lft.to/lastmile_qr_scan", "android": "https://dc.lft.to/lastmile_qr_scan"}, "type": "electric_scooter", "lat": 38.9036815, "is_disabled": 0, "lon": -77.01792566666667, "is_reserved": 0}, {"name": "673bd42e32570d41689d5097e0444ca1", "fusion_lat": 0.0, "fusion_lon": 0.0, "bike_id": "673bd42e32570d41689d5097e0444ca1", "rental_uris": {"ios": "https://dc.lft.to/lastmile_qr_scan", "android": "https://dc.lft.to/lastmile_qr_scan"}, "type": "electric_scooter", "lat": 38.93873133333334, "is_disabled": 0, "lon": -77.03230383333333, "is_reserved": 0}, {"name": "103c6bedc4e2626c69417a0dfe338333", "fusion_lat": 0.0, "fusion_lon": 0.0, "bike_id": "103c6bedc4e2626c69417a0dfe338333", "rental_uris": {"ios": "https://dc.lft.to/lastmile_qr_scan", "android": "https://dc.lft.to/lastmile_qr_scan"}, "type": "electric_bike", "lat": 38.905137, "is_disabled": 0, "lon": -77.0639375, "is_reserved": 0}, {"name": "ae9caf0dcce3f9d090591d7d20357a77", "fusion_lat": 0.0, "fusion_lon": 0.0, "bike_id": "ae9caf0dcce3f9d090591d7d20357a77", "rental_uris": {"ios": "https://dc.lft.to/lastmile_qr_scan", "android": "https://dc.lft.to/lastmile_qr_scan"}, "type": "electric_scooter", "lat": 38.901924666666666, "is_disabled": 0, "lon": -77.04783866666666, "is_reserved": 0}, {"name": "47ece6ec7116b0c79615d136ee4ffe06", "fusion_lat": 0.0, "fusion_lon": 0.0, "bike_id": "47ece6ec7116b0c79615d136ee4ffe06", "rental_uris": {"ios": "https://dc.lft.to/lastmile_qr_scan", "android": "https://dc.lft.to/lastmile_qr_scan"}, "type": "electric_scooter", "lat": 38.912458, "is_disabled": 0, "lon": -77.02430466666667, "is_reserved": 0}, {"name": "5f489068c589a1845f375e9b23d997dc", "fusion_lat": 0.0, "fusion_lon": 0.0, "bike_id": "5f489068c589a1845f375e9b23d997dc", "rental_uris": {"ios": "https://dc.lft.to/lastmile_qr_scan", "android": "https://dc.lft.to/lastmile_qr_scan"}, "type": "electric_scooter", "lat": 38.916701833333335, "is_disabled": 0, "lon": -77.02971383333333, "is_reserved": 0}, {"name": "d1f9db85643ea35a2599339d3540529c", "fusion_lat": 0.0, "fusion_lon": 0.0, "bike_id": "d1f9db85643ea35a2599339d3540529c", "rental_uris": {"ios": "https://dc.lft.to/lastmile_qr_scan", "android": "https://dc.lft.to/lastmile_qr_scan"}, "type": "electric_bike", "lat": 38.9966425, "is_disabled": 0, "lon": -76.99142233333333, "is_reserved": 0}, {"name": "fcdf259023f030c281ac7f5f7d01387e", "fusion_lat": 0.0, "fusion_lon": 0.0, "bike_id": "fcdf259023f030c281ac7f5f7d01387e", "rental_uris": {"ios": "https://dc.lft.to/lastmile_qr_scan", "android": "https://dc.lft.to/lastmile_qr_scan"}, "type": "electric_scooter", "lat": 38.91214316666667, "is_disabled": 0, "lon": -77.0271875, "is_reserved": 0}, {"name": "9bd447d8ee8e8274f3fdc79f22b94150", "fusion_lat": 0.0, "fusion_lon": 0.0, "bike_id": "9bd447d8ee8e8274f3fdc79f22b94150", "rental_uris": {"ios": "https://dc.lft.to/lastmile_qr_scan", "android": "https://dc.lft.to/lastmile_qr_scan"}, "type": "electric_scooter", "lat": 38.9110075, "is_disabled": 0, "lon": -77.03187333333334, "is_reserved": 0}, {"name": "d4c96dc64ea9c437386da2a769b20e1a", "fusion_lat": 0.0, "fusion_lon": 0.0, "bike_id": "d4c96dc64ea9c437386da2a769b20e1a", "rental_uris": {"ios": "https://dc.lft.to/lastmile_qr_scan", "android": "https://dc.lft.to/lastmile_qr_scan"}, "type": "electric_scooter", "lat": 38.875786166666664, "is_disabled": 0, "lon": -77.02077816666667, "is_reserved": 0}, {"name": "d601f56868a56a8a619b32e0ea14f38e", "fusion_lat": 0.0, "fusion_lon": 0.0, "bike_id": "d601f56868a56a8a619b32e0ea14f38e", "rental_uris": {"ios": "https://dc.lft.to/lastmile_qr_scan", "android": "https://dc.lft.to/lastmile_qr_scan"}, "type": "electric_scooter", "lat": 38.90359566666667, "is_disabled": 0, "lon": -77.0111495, "is_reserved": 0}, {"name": "9dcf04c9b9dc6a305914322704e818c2", "fusion_lat": 0.0, "fusion_lon": 0.0, "bike_id": "9dcf04c9b9dc6a305914322704e818c2", "rental_uris": {"ios": "https://dc.lft.to/lastmile_qr_scan", "android": "https://dc.lft.to/lastmile_qr_scan"}, "type": "electric_scooter", "lat": 38.921416666666666, "is_disabled": 0, "lon": -77.04587033333334, "is_reserved": 0}, {"name": "bda6cd98160eef8dddde916e034a3dc4", "fusion_lat": 0.0, "fusion_lon": 0.0, "bike_id": "bda6cd98160eef8dddde916e034a3dc4", "rental_uris": {"ios": "https://dc.lft.to/lastmile_qr_scan", "android": "https://dc.lft.to/lastmile_qr_scan"}, "type": "electric_scooter", "lat": 38.9025975, "is_disabled": 0, "lon": -77.03644333333334, "is_reserved": 0}, {"name": "2fa45b79e4276f21603991cb717c0044", "fusion_lat": 0.0, "fusion_lon": 0.0, "bike_id": "2fa45b79e4276f21603991cb717c0044", "rental_uris": {"ios": "https://dc.lft.to/lastmile_qr_scan", "android": "https://dc.lft.to/lastmile_qr_scan"}, "type": "electric_scooter", "lat": 38.89102583333333, "is_disabled": 0, "lon": -77.0061795, "is_reserved": 0}, {"name": "319935e00097da99379f543f34094cf0", "fusion_lat": 0.0, "fusion_lon": 0.0, "bike_id": "319935e00097da99379f543f34094cf0", "rental_uris": {"ios": "https://dc.lft.to/lastmile_qr_scan", "android": "https://dc.lft.to/lastmile_qr_scan"}, "type": "electric_scooter", "lat": 38.89960083333333, "is_disabled": 0, "lon": -77.02960816666666, "is_reserved": 0}, {"name": "d15083419330f043780cd91e1051e9a0", "fusion_lat": 0.0, "fusion_lon": 0.0, "bike_id": "d15083419330f043780cd91e1051e9a0", "rental_uris": {"ios": "https://dc.lft.to/lastmile_qr_scan", "android": "https://dc.lft.to/lastmile_qr_scan"}, "type": "electric_scooter", "lat": 38.91922533333333, "is_disabled": 0, "lon": -77.03178766666667, "is_reserved": 0}, {"name": "a4e85740186af7985eccef5d82fa017c", "fusion_lat": 0.0, "fusion_lon": 0.0, "bike_id": "a4e85740186af7985eccef5d82fa017c", "rental_uris": {"ios": "https://dc.lft.to/lastmile_qr_scan", "android": "https://dc.lft.to/lastmile_qr_scan"}, "type": "electric_bike", "lat": 38.985024833333334, "is_disabled": 0, "lon": -76.982004, "is_reserved": 0}, {"name": "898d94ecb63047ff67bba9515fb68eaf", "fusion_lat": 0.0, "fusion_lon": 0.0, "bike_id": "898d94ecb63047ff67bba9515fb68eaf", "rental_uris": {"ios": "https://dc.lft.to/lastmile_qr_scan", "android": "https://dc.lft.to/lastmile_qr_scan"}, "type": "electric_scooter", "lat": 38.9024245, "is_disabled": 0, "lon": -77.043037, "is_reserved": 0}, {"name": "9e0937cca1d90710b027fa67a8623570", "fusion_lat": 0.0, "fusion_lon": 0.0, "bike_id": "9e0937cca1d90710b027fa67a8623570", "rental_uris": {"ios": "https://dc.lft.to/lastmile_qr_scan", "android": "https://dc.lft.to/lastmile_qr_scan"}, "type": "electric_scooter", "lat": 38.8865215, "is_disabled": 0, "lon": -77.03393216666667, "is_reserved": 0}, {"name": "2cf63e0267dbef93739b87c73cef0771", "fusion_lat": 0.0, "fusion_lon": 0.0, "bike_id": "2cf63e0267dbef93739b87c73cef0771", "rental_uris": {"ios": "https://dc.lft.to/lastmile_qr_scan", "android": "https://dc.lft.to/lastmile_qr_scan"}, "type": "electric_bike", "lat": 38.88221633333333, "is_disabled": 0, "lon": -77.11526366666666, "is_reserved": 0}, {"name": "8f36c33486a6fe14feb4418a50d20bd0", "fusion_lat": 0.0, "fusion_lon": 0.0, "bike_id": "8f36c33486a6fe14feb4418a50d20bd0", "rental_uris": {"ios": "https://dc.lft.to/lastmile_qr_scan", "android": "https://dc.lft.to/lastmile_qr_scan"}, "type": "electric_scooter", "lat": 38.917083, "is_disabled": 0, "lon": -77.02719383333333, "is_reserved": 0}, {"name": "fe15cb609fd86900c62fe539fdbd3e29", "fusion_lat": 0.0, "fusion_lon": 0.0, "bike_id": "fe15cb609fd86900c62fe539fdbd3e29", "rental_uris": {"ios": "https://dc.lft.to/lastmile_qr_scan", "android": "https://dc.lft.to/lastmile_qr_scan"}, "type": "electric_scooter", "lat": 38.899926666666666, "is_disabled": 0, "lon": -77.0150245, "is_reserved": 0}, {"name": "79641de9a39c9a062ca1bd1b8aa8fbd0", "fusion_lat": 0.0, "fusion_lon": 0.0, "bike_id": "79641de9a39c9a062ca1bd1b8aa8fbd0", "rental_uris": {"ios": "https://dc.lft.to/lastmile_qr_scan", "android": "https://dc.lft.to/lastmile_qr_scan"}, "type": "electric_scooter", "lat": 38.90806966666667, "is_disabled": 0, "lon": -77.0339365, "is_reserved": 0}, {"name": "9d4d77d63883ed8a569efd55cf4eccf6", "fusion_lat": 0.0, "fusion_lon": 0.0, "bike_id": "9d4d77d63883ed8a569efd55cf4eccf6", "rental_uris": {"ios": "https://dc.lft.to/lastmile_qr_scan", "android": "https://dc.lft.to/lastmile_qr_scan"}, "type": "electric_scooter", "lat": 38.90150933333334, "is_disabled": 0, "lon": -77.03990316666666, "is_reserved": 0}, {"name": "a696b8a554e309cbd8a012e7d8a4e91e", "fusion_lat": 0.0, "fusion_lon": 0.0, "bike_id": "a696b8a554e309cbd8a012e7d8a4e91e", "rental_uris": {"ios": "https://dc.lft.to/lastmile_qr_scan", "android": "https://dc.lft.to/lastmile_qr_scan"}, "type": "electric_scooter", "lat": 38.9051895, "is_disabled": 0, "lon": -77.06522283333334, "is_reserved": 0}, {"name": "13f9de8f905940e181f9d5461a3fa830", "fusion_lat": 0.0, "fusion_lon": 0.0, "bike_id": "13f9de8f905940e181f9d5461a3fa830", "rental_uris": {"ios": "https://dc.lft.to/lastmile_qr_scan", "android": "https://dc.lft.to/lastmile_qr_scan"}, "type": "electric_scooter", "lat": 38.8935095, "is_disabled": 0, "lon": -76.98466166666667, "is_reserved": 0}, {"name": "d3895afb6a29fbdb9fd77b36f27f3ba5", "fusion_lat": 0.0, "fusion_lon": 0.0, "bike_id": "d3895afb6a29fbdb9fd77b36f27f3ba5", "rental_uris": {"ios": "https://dc.lft.to/lastmile_qr_scan", "android": "https://dc.lft.to/lastmile_qr_scan"}, "type": "electric_scooter", "lat": 38.90116033333334, "is_disabled": 0, "lon": -76.99148, "is_reserved": 0}, {"name": "ba1ef7c71a1abff8ae2687ebae8f84f0", "fusion_lat": 0.0, "fusion_lon": 0.0, "bike_id": "ba1ef7c71a1abff8ae2687ebae8f84f0", "rental_uris": {"ios": "https://dc.lft.to/lastmile_qr_scan", "android": "https://dc.lft.to/lastmile_qr_scan"}, "type": "electric_scooter", "lat": 38.91816216666667, "is_disabled": 0, "lon": -77.024764, "is_reserved": 0}, {"name": "9abe41626a7970256b2cb16f2223841f", "fusion_lat": 0.0, "fusion_lon": 0.0, "bike_id": "9abe41626a7970256b2cb16f2223841f", "rental_uris": {"ios": "https://dc.lft.to/lastmile_qr_scan", "android": "https://dc.lft.to/lastmile_qr_scan"}, "type": "electric_scooter", "lat": 38.901282333333334, "is_disabled": 0, "lon": -77.02798416666667, "is_reserved": 0}, {"name": "9dff1e91545057ae28b4213fbbc0f035", "fusion_lat": 0.0, "fusion_lon": 0.0, "bike_id": "9dff1e91545057ae28b4213fbbc0f035", "rental_uris": {"ios": "https://dc.lft.to/lastmile_qr_scan", "android": "https://dc.lft.to/lastmile_qr_scan"}, "type": "electric_scooter", "lat": 38.91978866666667, "is_disabled": 0, "lon": -77.04155083333333, "is_reserved": 0}, {"name": "a5a466eb2f0b69570adbcbbbe35553c5", "fusion_lat": 0.0, "fusion_lon": 0.0, "bike_id": "a5a466eb2f0b69570adbcbbbe35553c5", "rental_uris": {"ios": "https://dc.lft.to/lastmile_qr_scan", "android": "https://dc.lft.to/lastmile_qr_scan"}, "type": "electric_bike", "lat": 38.8749255, "is_disabled": 0, "lon": -77.049027, "is_reserved": 0}, {"name": "15f7c52e8448248f53520a8cffdfb4fe", "fusion_lat": 0.0, "fusion_lon": 0.0, "bike_id": "15f7c52e8448248f53520a8cffdfb4fe", "rental_uris": {"ios": "https://dc.lft.to/lastmile_qr_scan", "android": "https://dc.lft.to/lastmile_qr_scan"}, "type": "electric_scooter", "lat": 38.9282, "is_disabled": 0, "lon": -77.01395883333333, "is_reserved": 0}, {"name": "5ab9f6a479e6271d2af5bd2e3cde1f17", "fusion_lat": 0.0, "fusion_lon": 0.0, "bike_id": "5ab9f6a479e6271d2af5bd2e3cde1f17", "rental_uris": {"ios": "https://dc.lft.to/lastmile_qr_scan", "android": "https://dc.lft.to/lastmile_qr_scan"}, "type": "electric_scooter", "lat": 38.90304783333333, "is_disabled": 0, "lon": -77.023605, "is_reserved": 0}, {"name": "d69e36da9a84bf4f0de4b0e087b29873", "fusion_lat": 0.0, "fusion_lon": 0.0, "bike_id": "d69e36da9a84bf4f0de4b0e087b29873", "rental_uris": {"ios": "https://dc.lft.to/lastmile_qr_scan", "android": "https://dc.lft.to/lastmile_qr_scan"}, "type": "electric_scooter", "lat": 38.91492183333333, "is_disabled": 0, "lon": -77.03835833333333, "is_reserved": 0}, {"name": "20a59667966514c4d8276aa2799b3aaf", "fusion_lat": 0.0, "fusion_lon": 0.0, "bike_id": "20a59667966514c4d8276aa2799b3aaf", "rental_uris": {"ios": "https://dc.lft.to/lastmile_qr_scan", "android": "https://dc.lft.to/lastmile_qr_scan"}, "type": "electric_scooter", "lat": 38.885128333333334, "is_disabled": 0, "lon": -77.0056475, "is_reserved": 0}, {"name": "35c036157f9983117fab179868c51658", "fusion_lat": 0.0, "fusion_lon": 0.0, "bike_id": "35c036157f9983117fab179868c51658", "rental_uris": {"ios": "https://dc.lft.to/lastmile_qr_scan", "android": "https://dc.lft.to/lastmile_qr_scan"}, "type": "electric_scooter", "lat": 38.92602983333333, "is_disabled": 0, "lon": -77.0215615, "is_reserved": 0}, {"name": "df675ed66addc0451bfc8a4ce9620d51", "fusion_lat": 0.0, "fusion_lon": 0.0, "bike_id": "df675ed66addc0451bfc8a4ce9620d51", "rental_uris": {"ios": "https://dc.lft.to/lastmile_qr_scan", "android": "https://dc.lft.to/lastmile_qr_scan"}, "type": "electric_scooter", "lat": 38.904555, "is_disabled": 0, "lon": -77.0281665, "is_reserved": 0}, {"name": "837284f7c85981d1ed3b888fc9350d95", "fusion_lat": 0.0, "fusion_lon": 0.0, "bike_id": "837284f7c85981d1ed3b888fc9350d95", "rental_uris": {"ios": "https://dc.lft.to/lastmile_qr_scan", "android": "https://dc.lft.to/lastmile_qr_scan"}, "type": "electric_scooter", "lat": 38.921504166666665, "is_disabled": 0, "lon": -77.034896, "is_reserved": 0}, {"name": "37be0db3ecd2c9b997db7edfef466d44", "fusion_lat": 0.0, "fusion_lon": 0.0, "bike_id": "37be0db3ecd2c9b997db7edfef466d44", "rental_uris": {"ios": "https://dc.lft.to/lastmile_qr_scan", "android": "https://dc.lft.to/lastmile_qr_scan"}, "type": "electric_scooter", "lat": 38.917094, "is_disabled": 0, "lon": -77.02580266666666, "is_reserved": 0}, {"name": "49656155529d94f5286a9993eb062928", "fusion_lat": 0.0, "fusion_lon": 0.0, "bike_id": "49656155529d94f5286a9993eb062928", "rental_uris": {"ios": "https://dc.lft.to/lastmile_qr_scan", "android": "https://dc.lft.to/lastmile_qr_scan"}, "type": "electric_bike", "lat": 38.99087983333333, "is_disabled": 0, "lon": -76.87495366666667, "is_reserved": 0}, {"name": "0889cd3cb18f0baff941911512663820", "fusion_lat": 0.0, "fusion_lon": 0.0, "bike_id": "0889cd3cb18f0baff941911512663820", "rental_uris": {"ios": "https://dc.lft.to/lastmile_qr_scan", "android": "https://dc.lft.to/lastmile_qr_scan"}, "type": "electric_bike", "lat": 38.99061666666667, "is_disabled": 0, "lon": -77.100307, "is_reserved": 0}, {"name": "73ca4fb4df34924b7d20227bbabc2064", "fusion_lat": 0.0, "fusion_lon": 0.0, "bike_id": "73ca4fb4df34924b7d20227bbabc2064", "rental_uris": {"ios": "https://dc.lft.to/lastmile_qr_scan", "android": "https://dc.lft.to/lastmile_qr_scan"}, "type": "electric_scooter", "lat": 38.962150333333334, "is_disabled": 0, "lon": -77.02808533333334, "is_reserved": 0}, {"name": "1b9e4b3ddc35845a747a61c0b7f71a5a", "fusion_lat": 0.0, "fusion_lon": 0.0, "bike_id": "1b9e4b3ddc35845a747a61c0b7f71a5a", "rental_uris": {"ios": "https://dc.lft.to/lastmile_qr_scan", "android": "https://dc.lft.to/lastmile_qr_scan"}, "type": "electric_scooter", "lat": 38.92977833333333, "is_disabled": 0, "lon": -77.05502733333333, "is_reserved": 0}, {"name": "4665be9b722cbc1ef5dd7203c1e4b075", "fusion_lat": 0.0, "fusion_lon": 0.0, "bike_id": "4665be9b722cbc1ef5dd7203c1e4b075", "rental_uris": {"ios": "https://dc.lft.to/lastmile_qr_scan", "android": "https://dc.lft.to/lastmile_qr_scan"}, "type": "electric_scooter", "lat": 38.902493, "is_disabled": 0, "lon": -77.06266516666666, "is_reserved": 0}, {"name": "775fe3d0ca61bb29c1037088a3b53fe4", "fusion_lat": 0.0, "fusion_lon": 0.0, "bike_id": "775fe3d0ca61bb29c1037088a3b53fe4", "rental_uris": {"ios": "https://dc.lft.to/lastmile_qr_scan", "android": "https://dc.lft.to/lastmile_qr_scan"}, "type": "electric_scooter", "lat": 38.877016833333336, "is_disabled": 0, "lon": -77.01737266666666, "is_reserved": 0}, {"name": "be430b38710834a9c257cc74a0aea76c", "fusion_lat": 0.0, "fusion_lon": 0.0, "bike_id": "be430b38710834a9c257cc74a0aea76c", "rental_uris": {"ios": "https://dc.lft.to/lastmile_qr_scan", "android": "https://dc.lft.to/lastmile_qr_scan"}, "type": "electric_scooter", "lat": 38.9024825, "is_disabled": 0, "lon": -76.94627233333334, "is_reserved": 0}, {"name": "467a356f0539626e147f4cd0551e90b7", "fusion_lat": 0.0, "fusion_lon": 0.0, "bike_id": "467a356f0539626e147f4cd0551e90b7", "rental_uris": {"ios": "https://dc.lft.to/lastmile_qr_scan", "android": "https://dc.lft.to/lastmile_qr_scan"}, "type": "electric_scooter", "lat": 38.91852316666667, "is_disabled": 0, "lon": -77.03212566666667, "is_reserved": 0}, {"name": "74ee5cf87b500da4a06c841a37f7348c", "fusion_lat": 0.0, "fusion_lon": 0.0, "bike_id": "74ee5cf87b500da4a06c841a37f7348c", "rental_uris": {"ios": "https://dc.lft.to/lastmile_qr_scan", "android": "https://dc.lft.to/lastmile_qr_scan"}, "type": "electric_scooter", "lat": 38.904047166666665, "is_disabled": 0, "lon": -77.025068, "is_reserved": 0}, {"name": "1db0a05fdea1a11d41b1ddd35e7118f2", "fusion_lat": 0.0, "fusion_lon": 0.0, "bike_id": "1db0a05fdea1a11d41b1ddd35e7118f2", "rental_uris": {"ios": "https://dc.lft.to/lastmile_qr_scan", "android": "https://dc.lft.to/lastmile_qr_scan"}, "type": "electric_scooter", "lat": 38.898629, "is_disabled": 0, "lon": -77.03348083333333, "is_reserved": 0}, {"name": "8fcbf1384489f5453fc755eba2c73a3b", "fusion_lat": 0.0, "fusion_lon": 0.0, "bike_id": "8fcbf1384489f5453fc755eba2c73a3b", "rental_uris": {"ios": "https://dc.lft.to/lastmile_qr_scan", "android": "https://dc.lft.to/lastmile_qr_scan"}, "type": "electric_scooter", "lat": 38.912657, "is_disabled": 0, "lon": -77.01676933333333, "is_reserved": 0}, {"name": "fa4020c3f8fef41487b6ba299eece87c", "fusion_lat": 0.0, "fusion_lon": 0.0, "bike_id": "fa4020c3f8fef41487b6ba299eece87c", "rental_uris": {"ios": "https://dc.lft.to/lastmile_qr_scan", "android": "https://dc.lft.to/lastmile_qr_scan"}, "type": "electric_scooter", "lat": 38.921473666666664, "is_disabled": 0, "lon": -77.03868966666667, "is_reserved": 0}, {"name": "8de108fe17979eb7dcdc6a808ac8fb76", "fusion_lat": 0.0, "fusion_lon": 0.0, "bike_id": "8de108fe17979eb7dcdc6a808ac8fb76", "rental_uris": {"ios": "https://dc.lft.to/lastmile_qr_scan", "android": "https://dc.lft.to/lastmile_qr_scan"}, "type": "electric_scooter", "lat": 38.9056725, "is_disabled": 0, "lon": -77.00711316666667, "is_reserved": 0}, {"name": "20e28b80a7a261c71c51d3652f2d283d", "fusion_lat": 0.0, "fusion_lon": 0.0, "bike_id": "20e28b80a7a261c71c51d3652f2d283d", "rental_uris": {"ios": "https://dc.lft.to/lastmile_qr_scan", "android": "https://dc.lft.to/lastmile_qr_scan"}, "type": "electric_scooter", "lat": 38.919879333333334, "is_disabled": 0, "lon": -77.03787783333334, "is_reserved": 0}, {"name": "eeb82acdf1e31fe0df361f8eb1c402e8", "fusion_lat": 0.0, "fusion_lon": 0.0, "bike_id": "eeb82acdf1e31fe0df361f8eb1c402e8", "rental_uris": {"ios": "https://dc.lft.to/lastmile_qr_scan", "android": "https://dc.lft.to/lastmile_qr_scan"}, "type": "electric_scooter", "lat": 38.907209333333334, "is_disabled": 0, "lon": -77.043415, "is_reserved": 0}, {"name": "3ed86daf65b91436b2edc7994f2905c3", "fusion_lat": 0.0, "fusion_lon": 0.0, "bike_id": "3ed86daf65b91436b2edc7994f2905c3", "rental_uris": {"ios": "https://dc.lft.to/lastmile_qr_scan", "android": "https://dc.lft.to/lastmile_qr_scan"}, "type": "electric_scooter", "lat": 38.897831, "is_disabled": 0, "lon": -77.0395265, "is_reserved": 0}, {"name": "79f30b3b4a922966050aea87c8149db9", "fusion_lat": 0.0, "fusion_lon": 0.0, "bike_id": "79f30b3b4a922966050aea87c8149db9", "rental_uris": {"ios": "https://dc.lft.to/lastmile_qr_scan", "android": "https://dc.lft.to/lastmile_qr_scan"}, "type": "electric_scooter", "lat": 38.956339166666666, "is_disabled": 0, "lon": -77.0298335, "is_reserved": 0}, {"name": "888d184bd44362af75aeb0acc00e1104", "fusion_lat": 0.0, "fusion_lon": 0.0, "bike_id": "888d184bd44362af75aeb0acc00e1104", "rental_uris": {"ios": "https://dc.lft.to/lastmile_qr_scan", "android": "https://dc.lft.to/lastmile_qr_scan"}, "type": "electric_scooter", "lat": 38.92196333333333, "is_disabled": 0, "lon": -77.04016183333333, "is_reserved": 0}, {"name": "bca7fb73218b98d06dff4da26d69305d", "fusion_lat": 0.0, "fusion_lon": 0.0, "bike_id": "bca7fb73218b98d06dff4da26d69305d", "rental_uris": {"ios": "https://dc.lft.to/lastmile_qr_scan", "android": "https://dc.lft.to/lastmile_qr_scan"}, "type": "electric_bike", "lat": 38.910863, "is_disabled": 0, "lon": -76.98486116666666, "is_reserved": 0}, {"name": "cdfd00ca75ebe3f363b75ff4baf069c8", "fusion_lat": 0.0, "fusion_lon": 0.0, "bike_id": "cdfd00ca75ebe3f363b75ff4baf069c8", "rental_uris": {"ios": "https://dc.lft.to/lastmile_qr_scan", "android": "https://dc.lft.to/lastmile_qr_scan"}, "type": "electric_scooter", "lat": 38.91613783333333, "is_disabled": 0, "lon": -77.02486916666666, "is_reserved": 0}, {"name": "f7217f1be4d9b918b04bf6e9f10bd309", "fusion_lat": 0.0, "fusion_lon": 0.0, "bike_id": "f7217f1be4d9b918b04bf6e9f10bd309", "rental_uris": {"ios": "https://dc.lft.to/lastmile_qr_scan", "android": "https://dc.lft.to/lastmile_qr_scan"}, "type": "electric_scooter", "lat": 38.8960065, "is_disabled": 0, "lon": -77.01121316666666, "is_reserved": 0}, {"name": "41fa570789940b991aa36e0e418b61a5", "fusion_lat": 0.0, "fusion_lon": 0.0, "bike_id": "41fa570789940b991aa36e0e418b61a5", "rental_uris": {"ios": "https://dc.lft.to/lastmile_qr_scan", "android": "https://dc.lft.to/lastmile_qr_scan"}, "type": "electric_scooter", "lat": 38.932463166666665, "is_disabled": 0, "lon": -77.02730266666667, "is_reserved": 0}, {"name": "2e5d82dcbccb94de22c56201ec90d74d", "fusion_lat": 0.0, "fusion_lon": 0.0, "bike_id": "2e5d82dcbccb94de22c56201ec90d74d", "rental_uris": {"ios": "https://dc.lft.to/lastmile_qr_scan", "android": "https://dc.lft.to/lastmile_qr_scan"}, "type": "electric_scooter", "lat": 38.9314615, "is_disabled": 0, "lon": -77.03611133333334, "is_reserved": 0}, {"name": "000db3aa5fc2d656fa6a0015857077f4", "fusion_lat": 0.0, "fusion_lon": 0.0, "bike_id": "000db3aa5fc2d656fa6a0015857077f4", "rental_uris": {"ios": "https://dc.lft.to/lastmile_qr_scan", "android": "https://dc.lft.to/lastmile_qr_scan"}, "type": "electric_scooter", "lat": 38.93064, "is_disabled": 0, "lon": -77.03818166666667, "is_reserved": 0}, {"name": "a02ed60a32d4837542bbc68790dc72e7", "fusion_lat": 0.0, "fusion_lon": 0.0, "bike_id": "a02ed60a32d4837542bbc68790dc72e7", "rental_uris": {"ios": "https://dc.lft.to/lastmile_qr_scan", "android": "https://dc.lft.to/lastmile_qr_scan"}, "type": "electric_scooter", "lat": 38.885025666666664, "is_disabled": 0, "lon": -76.99654716666667, "is_reserved": 0}, {"name": "300650341f5c268fce36eb1f2c866d99", "fusion_lat": 0.0, "fusion_lon": 0.0, "bike_id": "300650341f5c268fce36eb1f2c866d99", "rental_uris": {"ios": "https://dc.lft.to/lastmile_qr_scan", "android": "https://dc.lft.to/lastmile_qr_scan"}, "type": "electric_scooter", "lat": 38.9314835, "is_disabled": 0, "lon": -77.03612083333333, "is_reserved": 0}, {"name": "d3c859b0fe9f367fc228f6ef613c589e", "fusion_lat": 0.0, "fusion_lon": 0.0, "bike_id": "d3c859b0fe9f367fc228f6ef613c589e", "rental_uris": {"ios": "https://dc.lft.to/lastmile_qr_scan", "android": "https://dc.lft.to/lastmile_qr_scan"}, "type": "electric_bike", "lat": 38.85064766666667, "is_disabled": 0, "lon": -76.973319, "is_reserved": 0}, {"name": "c82bffe5f72dab5502192afe1c5d06c0", "fusion_lat": 0.0, "fusion_lon": 0.0, "bike_id": "c82bffe5f72dab5502192afe1c5d06c0", "rental_uris": {"ios": "https://dc.lft.to/lastmile_qr_scan", "android": "https://dc.lft.to/lastmile_qr_scan"}, "type": "electric_scooter", "lat": 38.9026935, "is_disabled": 0, "lon": -77.03835466666666, "is_reserved": 0}, {"name": "f7d9420fd2b233aecd7dae950df964ea", "fusion_lat": 0.0, "fusion_lon": 0.0, "bike_id": "f7d9420fd2b233aecd7dae950df964ea", "rental_uris": {"ios": "https://dc.lft.to/lastmile_qr_scan", "android": "https://dc.lft.to/lastmile_qr_scan"}, "type": "electric_scooter", "lat": 38.907283166666666, "is_disabled": 0, "lon": -77.03961216666667, "is_reserved": 0}, {"name": "7c3bd4934de8ef02905c2a4a9d7b3967", "fusion_lat": 0.0, "fusion_lon": 0.0, "bike_id": "7c3bd4934de8ef02905c2a4a9d7b3967", "rental_uris": {"ios": "https://dc.lft.to/lastmile_qr_scan", "android": "https://dc.lft.to/lastmile_qr_scan"}, "type": "electric_scooter", "lat": 38.866938166666664, "is_disabled": 0, "lon": -76.98709816666667, "is_reserved": 0}, {"name": "eaaca9eaace87e0a9df723205345369b", "fusion_lat": 0.0, "fusion_lon": 0.0, "bike_id": "eaaca9eaace87e0a9df723205345369b", "rental_uris": {"ios": "https://dc.lft.to/lastmile_qr_scan", "android": "https://dc.lft.to/lastmile_qr_scan"}, "type": "electric_scooter", "lat": 38.91767683333333, "is_disabled": 0, "lon": -77.02956016666667, "is_reserved": 0}, {"name": "5caaa488c531e819f30bba2324af5b53", "fusion_lat": 0.0, "fusion_lon": 0.0, "bike_id": "5caaa488c531e819f30bba2324af5b53", "rental_uris": {"ios": "https://dc.lft.to/lastmile_qr_scan", "android": "https://dc.lft.to/lastmile_qr_scan"}, "type": "electric_scooter", "lat": 38.90565566666667, "is_disabled": 0, "lon": -77.00503366666666, "is_reserved": 0}, {"name": "807bb9da0c0703670e4abf2e32b3c15f", "fusion_lat": 0.0, "fusion_lon": 0.0, "bike_id": "807bb9da0c0703670e4abf2e32b3c15f", "rental_uris": {"ios": "https://dc.lft.to/lastmile_qr_scan", "android": "https://dc.lft.to/lastmile_qr_scan"}, "type": "electric_scooter", "lat": 38.89621483333333, "is_disabled": 0, "lon": -77.0270245, "is_reserved": 0}, {"name": "b50761b79885136df2fb95201a67e534", "fusion_lat": 0.0, "fusion_lon": 0.0, "bike_id": "b50761b79885136df2fb95201a67e534", "rental_uris": {"ios": "https://dc.lft.to/lastmile_qr_scan", "android": "https://dc.lft.to/lastmile_qr_scan"}, "type": "electric_scooter", "lat": 38.917068, "is_disabled": 0, "lon": -77.040294, "is_reserved": 0}, {"name": "f6f24861e77ec23ca52eccae37b7fbb3", "fusion_lat": 0.0, "fusion_lon": 0.0, "bike_id": "f6f24861e77ec23ca52eccae37b7fbb3", "rental_uris": {"ios": "https://dc.lft.to/lastmile_qr_scan", "android": "https://dc.lft.to/lastmile_qr_scan"}, "type": "electric_scooter", "lat": 38.919585833333336, "is_disabled": 0, "lon": -77.03212166666667, "is_reserved": 0}, {"name": "e3b47a1795bd48a024077b93592416ff", "fusion_lat": 0.0, "fusion_lon": 0.0, "bike_id": "e3b47a1795bd48a024077b93592416ff", "rental_uris": {"ios": "https://dc.lft.to/lastmile_qr_scan", "android": "https://dc.lft.to/lastmile_qr_scan"}, "type": "electric_scooter", "lat": 38.911242666666666, "is_disabled": 0, "lon": -77.03206266666666, "is_reserved": 0}, {"name": "b2baa546828339b5da5d33e52023eefb", "fusion_lat": 0.0, "fusion_lon": 0.0, "bike_id": "b2baa546828339b5da5d33e52023eefb", "rental_uris": {"ios": "https://dc.lft.to/lastmile_qr_scan", "android": "https://dc.lft.to/lastmile_qr_scan"}, "type": "electric_scooter", "lat": 38.925762, "is_disabled": 0, "lon": -77.03210866666667, "is_reserved": 0}, {"name": "f2692ece718900bc07310b2803084099", "fusion_lat": 0.0, "fusion_lon": 0.0, "bike_id": "f2692ece718900bc07310b2803084099", "rental_uris": {"ios": "https://dc.lft.to/lastmile_qr_scan", "android": "https://dc.lft.to/lastmile_qr_scan"}, "type": "electric_bike", "lat": 39.007831333333336, "is_disabled": 0, "lon": -76.9957185, "is_reserved": 0}, {"name": "d01df52c48db8c9ddc46a236c586c5af", "fusion_lat": 0.0, "fusion_lon": 0.0, "bike_id": "d01df52c48db8c9ddc46a236c586c5af", "rental_uris": {"ios": "https://dc.lft.to/lastmile_qr_scan", "android": "https://dc.lft.to/lastmile_qr_scan"}, "type": "electric_scooter", "lat": 38.87389233333333, "is_disabled": 0, "lon": -77.001925, "is_reserved": 0}, {"name": "c50aa09429b27953450d0c221d70403f", "fusion_lat": 0.0, "fusion_lon": 0.0, "bike_id": "c50aa09429b27953450d0c221d70403f", "rental_uris": {"ios": "https://dc.lft.to/lastmile_qr_scan", "android": "https://dc.lft.to/lastmile_qr_scan"}, "type": "electric_scooter", "lat": 38.92601033333333, "is_disabled": 0, "lon": -77.0215535, "is_reserved": 0}, {"name": "634109645174316d0c1aa67dff425b98", "fusion_lat": 0.0, "fusion_lon": 0.0, "bike_id": "634109645174316d0c1aa67dff425b98", "rental_uris": {"ios": "https://dc.lft.to/lastmile_qr_scan", "android": "https://dc.lft.to/lastmile_qr_scan"}, "type": "electric_bike", "lat": 38.93541416666667, "is_disabled": 0, "lon": -77.08190883333333, "is_reserved": 0}, {"name": "1b9189c3ffc53876033c37643f1f763b", "fusion_lat": 0.0, "fusion_lon": 0.0, "bike_id": "1b9189c3ffc53876033c37643f1f763b", "rental_uris": {"ios": "https://dc.lft.to/lastmile_qr_scan", "android": "https://dc.lft.to/lastmile_qr_scan"}, "type": "electric_scooter", "lat": 38.8791835, "is_disabled": 0, "lon": -77.004836, "is_reserved": 0}, {"name": "b8890071530dc95b2354d635a7b86b06", "fusion_lat": 0.0, "fusion_lon": 0.0, "bike_id": "b8890071530dc95b2354d635a7b86b06", "rental_uris": {"ios": "https://dc.lft.to/lastmile_qr_scan", "android": "https://dc.lft.to/lastmile_qr_scan"}, "type": "electric_scooter", "lat": 38.906499833333335, "is_disabled": 0, "lon": -77.045444, "is_reserved": 0}, {"name": "13a040d84e6d716a244a48edcfbac221", "fusion_lat": 0.0, "fusion_lon": 0.0, "bike_id": "13a040d84e6d716a244a48edcfbac221", "rental_uris": {"ios": "https://dc.lft.to/lastmile_qr_scan", "android": "https://dc.lft.to/lastmile_qr_scan"}, "type": "electric_scooter", "lat": 38.90266316666667, "is_disabled": 0, "lon": -77.038454, "is_reserved": 0}, {"name": "a94679b7a9c2dcf9598735a69daa8bd0", "fusion_lat": 0.0, "fusion_lon": 0.0, "bike_id": "a94679b7a9c2dcf9598735a69daa8bd0", "rental_uris": {"ios": "https://dc.lft.to/lastmile_qr_scan", "android": "https://dc.lft.to/lastmile_qr_scan"}, "type": "electric_scooter", "lat": 38.90953733333333, "is_disabled": 0, "lon": -77.04459083333333, "is_reserved": 0}, {"name": "94107e7dcf7f3ccf8acfef046f574284", "fusion_lat": 0.0, "fusion_lon": 0.0, "bike_id": "94107e7dcf7f3ccf8acfef046f574284", "rental_uris": {"ios": "https://dc.lft.to/lastmile_qr_scan", "android": "https://dc.lft.to/lastmile_qr_scan"}, "type": "electric_scooter", "lat": 38.919056499999996, "is_disabled": 0, "lon": -77.04169483333334, "is_reserved": 0}, {"name": "73a6476b538afac0a1a98535856a7bf1", "fusion_lat": 0.0, "fusion_lon": 0.0, "bike_id": "73a6476b538afac0a1a98535856a7bf1", "rental_uris": {"ios": "https://dc.lft.to/lastmile_qr_scan", "android": "https://dc.lft.to/lastmile_qr_scan"}, "type": "electric_scooter", "lat": 38.916565, "is_disabled": 0, "lon": -77.04649066666667, "is_reserved": 0}, {"name": "3422026dc6c835606c526cd9664ac082", "fusion_lat": 0.0, "fusion_lon": 0.0, "bike_id": "3422026dc6c835606c526cd9664ac082", "rental_uris": {"ios": "https://dc.lft.to/lastmile_qr_scan", "android": "https://dc.lft.to/lastmile_qr_scan"}, "type": "electric_scooter", "lat": 38.88736466666667, "is_disabled": 0, "lon": -77.0153605, "is_reserved": 0}, {"name": "95476e4ffd62046f4831ae12cec4692b", "fusion_lat": 0.0, "fusion_lon": 0.0, "bike_id": "95476e4ffd62046f4831ae12cec4692b", "rental_uris": {"ios": "https://dc.lft.to/lastmile_qr_scan", "android": "https://dc.lft.to/lastmile_qr_scan"}, "type": "electric_scooter", "lat": 38.913044166666666, "is_disabled": 0, "lon": -77.02027066666666, "is_reserved": 0}, {"name": "8089370cf5102651e89a42a20d1a3a73", "fusion_lat": 0.0, "fusion_lon": 0.0, "bike_id": "8089370cf5102651e89a42a20d1a3a73", "rental_uris": {"ios": "https://dc.lft.to/lastmile_qr_scan", "android": "https://dc.lft.to/lastmile_qr_scan"}, "type": "electric_scooter", "lat": 38.913581666666666, "is_disabled": 0, "lon": -77.04166916666667, "is_reserved": 0}, {"name": "ac40894a8ec41ca084f17a5bdb13d7d1", "fusion_lat": 0.0, "fusion_lon": 0.0, "bike_id": "ac40894a8ec41ca084f17a5bdb13d7d1", "rental_uris": {"ios": "https://dc.lft.to/lastmile_qr_scan", "android": "https://dc.lft.to/lastmile_qr_scan"}, "type": "electric_scooter", "lat": 38.88664516666667, "is_disabled": 0, "lon": -77.00335616666666, "is_reserved": 0}, {"name": "09b188085ab39566496e808c1abb6617", "fusion_lat": 0.0, "fusion_lon": 0.0, "bike_id": "09b188085ab39566496e808c1abb6617", "rental_uris": {"ios": "https://dc.lft.to/lastmile_qr_scan", "android": "https://dc.lft.to/lastmile_qr_scan"}, "type": "electric_bike", "lat": 39.052059166666666, "is_disabled": 0, "lon": -77.04414983333334, "is_reserved": 0}, {"name": "587ee7ae4d0f12c4886f3b8205a08e61", "fusion_lat": 0.0, "fusion_lon": 0.0, "bike_id": "587ee7ae4d0f12c4886f3b8205a08e61", "rental_uris": {"ios": "https://dc.lft.to/lastmile_qr_scan", "android": "https://dc.lft.to/lastmile_qr_scan"}, "type": "electric_scooter", "lat": 38.886359, "is_disabled": 0, "lon": -77.01363816666667, "is_reserved": 0}, {"name": "2ef772c388b6adad5fb9362768d670f5", "fusion_lat": 0.0, "fusion_lon": 0.0, "bike_id": "2ef772c388b6adad5fb9362768d670f5", "rental_uris": {"ios": "https://dc.lft.to/lastmile_qr_scan", "android": "https://dc.lft.to/lastmile_qr_scan"}, "type": "electric_scooter", "lat": 38.93526, "is_disabled": 0, "lon": -77.032581, "is_reserved": 0}, {"name": "d4394713ed32dbb21a47f04dec546297", "fusion_lat": 0.0, "fusion_lon": 0.0, "bike_id": "d4394713ed32dbb21a47f04dec546297", "rental_uris": {"ios": "https://dc.lft.to/lastmile_qr_scan", "android": "https://dc.lft.to/lastmile_qr_scan"}, "type": "electric_scooter", "lat": 38.8808335, "is_disabled": 0, "lon": -77.02571683333333, "is_reserved": 0}, {"name": "6b6fae6c14571d7535d18ce23377a3aa", "fusion_lat": 0.0, "fusion_lon": 0.0, "bike_id": "6b6fae6c14571d7535d18ce23377a3aa", "rental_uris": {"ios": "https://dc.lft.to/lastmile_qr_scan", "android": "https://dc.lft.to/lastmile_qr_scan"}, "type": "electric_scooter", "lat": 38.875939, "is_disabled": 0, "lon": -77.00579466666667, "is_reserved": 0}, {"name": "e4223985d415109c1650af97a2fbc5f2", "fusion_lat": 0.0, "fusion_lon": 0.0, "bike_id": "e4223985d415109c1650af97a2fbc5f2", "rental_uris": {"ios": "https://dc.lft.to/lastmile_qr_scan", "android": "https://dc.lft.to/lastmile_qr_scan"}, "type": "electric_scooter", "lat": 38.90520733333334, "is_disabled": 0, "lon": -77.05002633333334, "is_reserved": 0}, {"name": "90c25d995df9ca9c6bcd65f2f96834ac", "fusion_lat": 0.0, "fusion_lon": 0.0, "bike_id": "90c25d995df9ca9c6bcd65f2f96834ac", "rental_uris": {"ios": "https://dc.lft.to/lastmile_qr_scan", "android": "https://dc.lft.to/lastmile_qr_scan"}, "type": "electric_scooter", "lat": 38.909906166666666, "is_disabled": 0, "lon": -77.00914133333333, "is_reserved": 0}, {"name": "cdc866c4107b1f2a1649a444d952ad52", "fusion_lat": 0.0, "fusion_lon": 0.0, "bike_id": "cdc866c4107b1f2a1649a444d952ad52", "rental_uris": {"ios": "https://dc.lft.to/lastmile_qr_scan", "android": "https://dc.lft.to/lastmile_qr_scan"}, "type": "electric_bike", "lat": 38.897357666666664, "is_disabled": 0, "lon": -76.90535866666667, "is_reserved": 0}, {"name": "e41a2616d2624483f62555a0f5b0f9b6", "fusion_lat": 0.0, "fusion_lon": 0.0, "bike_id": "e41a2616d2624483f62555a0f5b0f9b6", "rental_uris": {"ios": "https://dc.lft.to/lastmile_qr_scan", "android": "https://dc.lft.to/lastmile_qr_scan"}, "type": "electric_scooter", "lat": 38.9191685, "is_disabled": 0, "lon": -77.03175516666667, "is_reserved": 0}, {"name": "2af3cbe5f458b2f679bde11f3aed9298", "fusion_lat": 0.0, "fusion_lon": 0.0, "bike_id": "2af3cbe5f458b2f679bde11f3aed9298", "rental_uris": {"ios": "https://dc.lft.to/lastmile_qr_scan", "android": "https://dc.lft.to/lastmile_qr_scan"}, "type": "electric_scooter", "lat": 38.87170733333333, "is_disabled": 0, "lon": -77.00622616666666, "is_reserved": 0}, {"name": "a55467e6c8d22e4b1b3fdd103605bbd4", "fusion_lat": 0.0, "fusion_lon": 0.0, "bike_id": "a55467e6c8d22e4b1b3fdd103605bbd4", "rental_uris": {"ios": "https://dc.lft.to/lastmile_qr_scan", "android": "https://dc.lft.to/lastmile_qr_scan"}, "type": "electric_scooter", "lat": 38.9053435, "is_disabled": 0, "lon": -77.05031483333333, "is_reserved": 0}, {"name": "42607e012a6faf05ee373aae3f0555b1", "fusion_lat": 0.0, "fusion_lon": 0.0, "bike_id": "42607e012a6faf05ee373aae3f0555b1", "rental_uris": {"ios": "https://dc.lft.to/lastmile_qr_scan", "android": "https://dc.lft.to/lastmile_qr_scan"}, "type": "electric_scooter", "lat": 38.86349766666667, "is_disabled": 0, "lon": -76.99064066666666, "is_reserved": 0}, {"name": "77df1cdd2610092ebc4c57072e713724", "fusion_lat": 0.0, "fusion_lon": 0.0, "bike_id": "77df1cdd2610092ebc4c57072e713724", "rental_uris": {"ios": "https://dc.lft.to/lastmile_qr_scan", "android": "https://dc.lft.to/lastmile_qr_scan"}, "type": "electric_scooter", "lat": 38.886964666666664, "is_disabled": 0, "lon": -76.95372916666666, "is_reserved": 0}, {"name": "a7d9bdd9ff6bd4ff63aef81111bf1d9d", "fusion_lat": 0.0, "fusion_lon": 0.0, "bike_id": "a7d9bdd9ff6bd4ff63aef81111bf1d9d", "rental_uris": {"ios": "https://dc.lft.to/lastmile_qr_scan", "android": "https://dc.lft.to/lastmile_qr_scan"}, "type": "electric_scooter", "lat": 38.91678683333333, "is_disabled": 0, "lon": -77.02693816666667, "is_reserved": 0}, {"name": "f1df4a98f88865a1318a5ecdbbff4811", "fusion_lat": 0.0, "fusion_lon": 0.0, "bike_id": "f1df4a98f88865a1318a5ecdbbff4811", "rental_uris": {"ios": "https://dc.lft.to/lastmile_qr_scan", "android": "https://dc.lft.to/lastmile_qr_scan"}, "type": "electric_scooter", "lat": 38.904281833333336, "is_disabled": 0, "lon": -77.0260455, "is_reserved": 0}, {"name": "1f1ce6ca37f5753955e821a77ac41d16", "fusion_lat": 0.0, "fusion_lon": 0.0, "bike_id": "1f1ce6ca37f5753955e821a77ac41d16", "rental_uris": {"ios": "https://dc.lft.to/lastmile_qr_scan", "android": "https://dc.lft.to/lastmile_qr_scan"}, "type": "electric_scooter", "lat": 38.89524183333333, "is_disabled": 0, "lon": -76.9489055, "is_reserved": 0}, {"name": "1b3f0d4021499aca11f5787e15b7a22e", "fusion_lat": 0.0, "fusion_lon": 0.0, "bike_id": "1b3f0d4021499aca11f5787e15b7a22e", "rental_uris": {"ios": "https://dc.lft.to/lastmile_qr_scan", "android": "https://dc.lft.to/lastmile_qr_scan"}, "type": "electric_scooter", "lat": 38.842876, "is_disabled": 0, "lon": -76.99946983333334, "is_reserved": 0}, {"name": "daba73cb4d3da1fe1708725846f00bc5", "fusion_lat": 0.0, "fusion_lon": 0.0, "bike_id": "daba73cb4d3da1fe1708725846f00bc5", "rental_uris": {"ios": "https://dc.lft.to/lastmile_qr_scan", "android": "https://dc.lft.to/lastmile_qr_scan"}, "type": "electric_scooter", "lat": 38.90007466666667, "is_disabled": 0, "lon": -77.00681016666667, "is_reserved": 0}, {"name": "fe4967508028ff007306b2c68ccecfd1", "fusion_lat": 0.0, "fusion_lon": 0.0, "bike_id": "fe4967508028ff007306b2c68ccecfd1", "rental_uris": {"ios": "https://dc.lft.to/lastmile_qr_scan", "android": "https://dc.lft.to/lastmile_qr_scan"}, "type": "electric_scooter", "lat": 38.897576, "is_disabled": 0, "lon": -77.02989033333333, "is_reserved": 0}, {"name": "ff690b9096dc98a6dfc8dc9e499251da", "fusion_lat": 0.0, "fusion_lon": 0.0, "bike_id": "ff690b9096dc98a6dfc8dc9e499251da", "rental_uris": {"ios": "https://dc.lft.to/lastmile_qr_scan", "android": "https://dc.lft.to/lastmile_qr_scan"}, "type": "electric_scooter", "lat": 38.92074, "is_disabled": 0, "lon": -77.02516233333333, "is_reserved": 0}, {"name": "9869179f605d9706601595beedc0f427", "fusion_lat": 0.0, "fusion_lon": 0.0, "bike_id": "9869179f605d9706601595beedc0f427", "rental_uris": {"ios": "https://dc.lft.to/lastmile_qr_scan", "android": "https://dc.lft.to/lastmile_qr_scan"}, "type": "electric_scooter", "lat": 38.9257275, "is_disabled": 0, "lon": -77.08060233333333, "is_reserved": 0}, {"name": "dce0c9eeb9bff315f9fb3be31c4340b4", "fusion_lat": 0.0, "fusion_lon": 0.0, "bike_id": "dce0c9eeb9bff315f9fb3be31c4340b4", "rental_uris": {"ios": "https://dc.lft.to/lastmile_qr_scan", "android": "https://dc.lft.to/lastmile_qr_scan"}, "type": "electric_bike", "lat": 38.877559, "is_disabled": 0, "lon": -76.97998116666666, "is_reserved": 0}, {"name": "7d833965456a0e23f9bfabb9587a2240", "fusion_lat": 0.0, "fusion_lon": 0.0, "bike_id": "7d833965456a0e23f9bfabb9587a2240", "rental_uris": {"ios": "https://dc.lft.to/lastmile_qr_scan", "android": "https://dc.lft.to/lastmile_qr_scan"}, "type": "electric_scooter", "lat": 38.9303025, "is_disabled": 0, "lon": -77.01360783333334, "is_reserved": 0}, {"name": "e8f08bbbf67a5c7a9c4da855805e7c3d", "fusion_lat": 0.0, "fusion_lon": 0.0, "bike_id": "e8f08bbbf67a5c7a9c4da855805e7c3d", "rental_uris": {"ios": "https://dc.lft.to/lastmile_qr_scan", "android": "https://dc.lft.to/lastmile_qr_scan"}, "type": "electric_bike", "lat": 38.93959433333333, "is_disabled": 0, "lon": -77.36087516666667, "is_reserved": 0}, {"name": "4b96e1fd0a0ae3ca39a60e15241dbeff", "fusion_lat": 0.0, "fusion_lon": 0.0, "bike_id": "4b96e1fd0a0ae3ca39a60e15241dbeff", "rental_uris": {"ios": "https://dc.lft.to/lastmile_qr_scan", "android": "https://dc.lft.to/lastmile_qr_scan"}, "type": "electric_scooter", "lat": 38.92461466666666, "is_disabled": 0, "lon": -77.07865516666666, "is_reserved": 0}, {"name": "3ab92821c481553b678d408a8f5b1fcf", "fusion_lat": 0.0, "fusion_lon": 0.0, "bike_id": "3ab92821c481553b678d408a8f5b1fcf", "rental_uris": {"ios": "https://dc.lft.to/lastmile_qr_scan", "android": "https://dc.lft.to/lastmile_qr_scan"}, "type": "electric_scooter", "lat": 38.91467733333333, "is_disabled": 0, "lon": -76.98451966666667, "is_reserved": 0}, {"name": "6ff85645225996f645ccada69908f5ab", "fusion_lat": 0.0, "fusion_lon": 0.0, "bike_id": "6ff85645225996f645ccada69908f5ab", "rental_uris": {"ios": "https://dc.lft.to/lastmile_qr_scan", "android": "https://dc.lft.to/lastmile_qr_scan"}, "type": "electric_scooter", "lat": 38.90795466666667, "is_disabled": 0, "lon": -76.98530116666667, "is_reserved": 0}, {"name": "38669413209afd9e159d0d76153b1191", "fusion_lat": 0.0, "fusion_lon": 0.0, "bike_id": "38669413209afd9e159d0d76153b1191", "rental_uris": {"ios": "https://dc.lft.to/lastmile_qr_scan", "android": "https://dc.lft.to/lastmile_qr_scan"}, "type": "electric_scooter", "lat": 38.885886666666664, "is_disabled": 0, "lon": -77.01764083333333, "is_reserved": 0}, {"name": "0457e445dd445c4da7dc11f146a58558", "fusion_lat": 0.0, "fusion_lon": 0.0, "bike_id": "0457e445dd445c4da7dc11f146a58558", "rental_uris": {"ios": "https://dc.lft.to/lastmile_qr_scan", "android": "https://dc.lft.to/lastmile_qr_scan"}, "type": "electric_scooter", "lat": 38.926319166666666, "is_disabled": 0, "lon": -77.03790883333333, "is_reserved": 0}, {"name": "f61d0f833ace0f28d3768ae4f0a1436f", "fusion_lat": 0.0, "fusion_lon": 0.0, "bike_id": "f61d0f833ace0f28d3768ae4f0a1436f", "rental_uris": {"ios": "https://dc.lft.to/lastmile_qr_scan", "android": "https://dc.lft.to/lastmile_qr_scan"}, "type": "electric_scooter", "lat": 38.90534133333333, "is_disabled": 0, "lon": -77.02219616666666, "is_reserved": 0}, {"name": "3c90523c1e0fb587272f11d75077e60d", "fusion_lat": 0.0, "fusion_lon": 0.0, "bike_id": "3c90523c1e0fb587272f11d75077e60d", "rental_uris": {"ios": "https://dc.lft.to/lastmile_qr_scan", "android": "https://dc.lft.to/lastmile_qr_scan"}, "type": "electric_scooter", "lat": 38.91972533333333, "is_disabled": 0, "lon": -77.022067, "is_reserved": 0}, {"name": "08f91ae801ebeccedfafc2b7489fc7ad", "fusion_lat": 0.0, "fusion_lon": 0.0, "bike_id": "08f91ae801ebeccedfafc2b7489fc7ad", "rental_uris": {"ios": "https://dc.lft.to/lastmile_qr_scan", "android": "https://dc.lft.to/lastmile_qr_scan"}, "type": "electric_scooter", "lat": 38.913214333333336, "is_disabled": 0, "lon": -77.03239533333333, "is_reserved": 0}, {"name": "be4101c3ce1f50867c9bd9b2ced64064", "fusion_lat": 0.0, "fusion_lon": 0.0, "bike_id": "be4101c3ce1f50867c9bd9b2ced64064", "rental_uris": {"ios": "https://dc.lft.to/lastmile_qr_scan", "android": "https://dc.lft.to/lastmile_qr_scan"}, "type": "electric_scooter", "lat": 38.926482166666666, "is_disabled": 0, "lon": -77.037121, "is_reserved": 0}, {"name": "8670e588d8e02b83f572d6137fc8e299", "fusion_lat": 0.0, "fusion_lon": 0.0, "bike_id": "8670e588d8e02b83f572d6137fc8e299", "rental_uris": {"ios": "https://dc.lft.to/lastmile_qr_scan", "android": "https://dc.lft.to/lastmile_qr_scan"}, "type": "electric_scooter", "lat": 38.914142, "is_disabled": 0, "lon": -77.0255175, "is_reserved": 0}, {"name": "08bb3190da55cb65846dcb47d863570a", "fusion_lat": 0.0, "fusion_lon": 0.0, "bike_id": "08bb3190da55cb65846dcb47d863570a", "rental_uris": {"ios": "https://dc.lft.to/lastmile_qr_scan", "android": "https://dc.lft.to/lastmile_qr_scan"}, "type": "electric_bike", "lat": 38.857875666666665, "is_disabled": 0, "lon": -77.0996285, "is_reserved": 0}, {"name": "5a10a4e8231572f8c925a6ad56d4eba1", "fusion_lat": 0.0, "fusion_lon": 0.0, "bike_id": "5a10a4e8231572f8c925a6ad56d4eba1", "rental_uris": {"ios": "https://dc.lft.to/lastmile_qr_scan", "android": "https://dc.lft.to/lastmile_qr_scan"}, "type": "electric_scooter", "lat": 38.9019625, "is_disabled": 0, "lon": -77.06117233333333, "is_reserved": 0}, {"name": "6af67afb08332ce30ff3ea5079f86432", "fusion_lat": 0.0, "fusion_lon": 0.0, "bike_id": "6af67afb08332ce30ff3ea5079f86432", "rental_uris": {"ios": "https://dc.lft.to/lastmile_qr_scan", "android": "https://dc.lft.to/lastmile_qr_scan"}, "type": "electric_scooter", "lat": 38.90221583333334, "is_disabled": 0, "lon": -77.04556533333333, "is_reserved": 0}, {"name": "17b7d227b52cd66974eb402e2f5bb776", "fusion_lat": 0.0, "fusion_lon": 0.0, "bike_id": "17b7d227b52cd66974eb402e2f5bb776", "rental_uris": {"ios": "https://dc.lft.to/lastmile_qr_scan", "android": "https://dc.lft.to/lastmile_qr_scan"}, "type": "electric_scooter", "lat": 38.895841833333336, "is_disabled": 0, "lon": -77.01120316666666, "is_reserved": 0}, {"name": "2891659f607c7942a8c333f5af7816fa", "fusion_lat": 0.0, "fusion_lon": 0.0, "bike_id": "2891659f607c7942a8c333f5af7816fa", "rental_uris": {"ios": "https://dc.lft.to/lastmile_qr_scan", "android": "https://dc.lft.to/lastmile_qr_scan"}, "type": "electric_scooter", "lat": 38.9072745, "is_disabled": 0, "lon": -77.02372333333334, "is_reserved": 0}, {"name": "8cc23ca54a6f0379ed4a6cd07c306d25", "fusion_lat": 0.0, "fusion_lon": 0.0, "bike_id": "8cc23ca54a6f0379ed4a6cd07c306d25", "rental_uris": {"ios": "https://dc.lft.to/lastmile_qr_scan", "android": "https://dc.lft.to/lastmile_qr_scan"}, "type": "electric_scooter", "lat": 38.844329333333334, "is_disabled": 0, "lon": -76.9841185, "is_reserved": 0}, {"name": "e183b39cfe15175e8613c2f483d8a911", "fusion_lat": 0.0, "fusion_lon": 0.0, "bike_id": "e183b39cfe15175e8613c2f483d8a911", "rental_uris": {"ios": "https://dc.lft.to/lastmile_qr_scan", "android": "https://dc.lft.to/lastmile_qr_scan"}, "type": "electric_scooter", "lat": 38.901216, "is_disabled": 0, "lon": -77.01313416666666, "is_reserved": 0}, {"name": "ef1b521395a9a40a2403e2a4f4e0bfe1", "fusion_lat": 0.0, "fusion_lon": 0.0, "bike_id": "ef1b521395a9a40a2403e2a4f4e0bfe1", "rental_uris": {"ios": "https://dc.lft.to/lastmile_qr_scan", "android": "https://dc.lft.to/lastmile_qr_scan"}, "type": "electric_scooter", "lat": 38.9289685, "is_disabled": 0, "lon": -77.01671816666666, "is_reserved": 0}, {"name": "91566003f4349093df141d962519ab23", "fusion_lat": 0.0, "fusion_lon": 0.0, "bike_id": "91566003f4349093df141d962519ab23", "rental_uris": {"ios": "https://dc.lft.to/lastmile_qr_scan", "android": "https://dc.lft.to/lastmile_qr_scan"}, "type": "electric_bike", "lat": 38.888169833333336, "is_disabled": 0, "lon": -77.127366, "is_reserved": 0}, {"name": "befd240f25de34b70a518a28dda0d103", "fusion_lat": 0.0, "fusion_lon": 0.0, "bike_id": "befd240f25de34b70a518a28dda0d103", "rental_uris": {"ios": "https://dc.lft.to/lastmile_qr_scan", "android": "https://dc.lft.to/lastmile_qr_scan"}, "type": "electric_bike", "lat": 38.97577016666666, "is_disabled": 0, "lon": -76.96386266666667, "is_reserved": 0}, {"name": "6b3e2328d0e1e4a3f28fbd5d9dd6da57", "fusion_lat": 0.0, "fusion_lon": 0.0, "bike_id": "6b3e2328d0e1e4a3f28fbd5d9dd6da57", "rental_uris": {"ios": "https://dc.lft.to/lastmile_qr_scan", "android": "https://dc.lft.to/lastmile_qr_scan"}, "type": "electric_bike", "lat": 38.99223416666667, "is_disabled": 0, "lon": -76.87776433333333, "is_reserved": 0}, {"name": "424f439916220497e7f64727ddd1573f", "fusion_lat": 0.0, "fusion_lon": 0.0, "bike_id": "424f439916220497e7f64727ddd1573f", "rental_uris": {"ios": "https://dc.lft.to/lastmile_qr_scan", "android": "https://dc.lft.to/lastmile_qr_scan"}, "type": "electric_bike", "lat": 38.88965733333333, "is_disabled": 0, "lon": -76.94865066666667, "is_reserved": 0}, {"name": "364f4cb7b00e5fbc523394f67b172731", "fusion_lat": 0.0, "fusion_lon": 0.0, "bike_id": "364f4cb7b00e5fbc523394f67b172731", "rental_uris": {"ios": "https://dc.lft.to/lastmile_qr_scan", "android": "https://dc.lft.to/lastmile_qr_scan"}, "type": "electric_scooter", "lat": 38.907535833333334, "is_disabled": 0, "lon": -77.03232616666666, "is_reserved": 0}, {"name": "5cf0725f9954881daffbbbcd0781ef5b", "fusion_lat": 0.0, "fusion_lon": 0.0, "bike_id": "5cf0725f9954881daffbbbcd0781ef5b", "rental_uris": {"ios": "https://dc.lft.to/lastmile_qr_scan", "android": "https://dc.lft.to/lastmile_qr_scan"}, "type": "electric_scooter", "lat": 38.8874885, "is_disabled": 0, "lon": -77.02859183333334, "is_reserved": 0}, {"name": "05c8541169df646f7ec9e81d64fcdcfe", "fusion_lat": 0.0, "fusion_lon": 0.0, "bike_id": "05c8541169df646f7ec9e81d64fcdcfe", "rental_uris": {"ios": "https://dc.lft.to/lastmile_qr_scan", "android": "https://dc.lft.to/lastmile_qr_scan"}, "type": "electric_scooter", "lat": 38.88743, "is_disabled": 0, "lon": -77.022256, "is_reserved": 0}, {"name": "04b6f8f0a5d8d1ce0d9dee8a64419710", "fusion_lat": 0.0, "fusion_lon": 0.0, "bike_id": "04b6f8f0a5d8d1ce0d9dee8a64419710", "rental_uris": {"ios": "https://dc.lft.to/lastmile_qr_scan", "android": "https://dc.lft.to/lastmile_qr_scan"}, "type": "electric_scooter", "lat": 38.94983, "is_disabled": 0, "lon": -77.027037, "is_reserved": 0}, {"name": "4ab71ac36734cc6f53746f6f4cffd895", "fusion_lat": 0.0, "fusion_lon": 0.0, "bike_id": "4ab71ac36734cc6f53746f6f4cffd895", "rental_uris": {"ios": "https://dc.lft.to/lastmile_qr_scan", "android": "https://dc.lft.to/lastmile_qr_scan"}, "type": "electric_scooter", "lat": 38.9375595, "is_disabled": 0, "lon": -77.02472233333333, "is_reserved": 0}, {"name": "88d63a7c6f52bf462a81b901e0e07074", "fusion_lat": 0.0, "fusion_lon": 0.0, "bike_id": "88d63a7c6f52bf462a81b901e0e07074", "rental_uris": {"ios": "https://dc.lft.to/lastmile_qr_scan", "android": "https://dc.lft.to/lastmile_qr_scan"}, "type": "electric_scooter", "lat": 38.93846716666667, "is_disabled": 0, "lon": -77.02471433333334, "is_reserved": 0}, {"name": "c427f401b84c4a489107816270dbf2e2", "fusion_lat": 0.0, "fusion_lon": 0.0, "bike_id": "c427f401b84c4a489107816270dbf2e2", "rental_uris": {"ios": "https://dc.lft.to/lastmile_qr_scan", "android": "https://dc.lft.to/lastmile_qr_scan"}, "type": "electric_scooter", "lat": 38.84795233333333, "is_disabled": 0, "lon": -76.967142, "is_reserved": 0}, {"name": "9f4b6cf840712e103a5648d27a15bd06", "fusion_lat": 0.0, "fusion_lon": 0.0, "bike_id": "9f4b6cf840712e103a5648d27a15bd06", "rental_uris": {"ios": "https://dc.lft.to/lastmile_qr_scan", "android": "https://dc.lft.to/lastmile_qr_scan"}, "type": "electric_scooter", "lat": 38.90643433333334, "is_disabled": 0, "lon": -77.01795333333334, "is_reserved": 0}, {"name": "8c8a9b45732948bf336d5e3b51d1d722", "fusion_lat": 0.0, "fusion_lon": 0.0, "bike_id": "8c8a9b45732948bf336d5e3b51d1d722", "rental_uris": {"ios": "https://dc.lft.to/lastmile_qr_scan", "android": "https://dc.lft.to/lastmile_qr_scan"}, "type": "electric_scooter", "lat": 38.89744433333333, "is_disabled": 0, "lon": -77.04696833333334, "is_reserved": 0}, {"name": "754c74f37ede013a50d21f7b29dddad5", "fusion_lat": 0.0, "fusion_lon": 0.0, "bike_id": "754c74f37ede013a50d21f7b29dddad5", "rental_uris": {"ios": "https://dc.lft.to/lastmile_qr_scan", "android": "https://dc.lft.to/lastmile_qr_scan"}, "type": "electric_scooter", "lat": 38.90496683333333, "is_disabled": 0, "lon": -77.02951833333333, "is_reserved": 0}, {"name": "60e01a70c2619dae973dc8a2f8620aba", "fusion_lat": 0.0, "fusion_lon": 0.0, "bike_id": "60e01a70c2619dae973dc8a2f8620aba", "rental_uris": {"ios": "https://dc.lft.to/lastmile_qr_scan", "android": "https://dc.lft.to/lastmile_qr_scan"}, "type": "electric_scooter", "lat": 38.92869533333333, "is_disabled": 0, "lon": -77.03440716666667, "is_reserved": 0}, {"name": "ab6afba61b410a35e96744651690eb6d", "fusion_lat": 0.0, "fusion_lon": 0.0, "bike_id": "ab6afba61b410a35e96744651690eb6d", "rental_uris": {"ios": "https://dc.lft.to/lastmile_qr_scan", "android": "https://dc.lft.to/lastmile_qr_scan"}, "type": "electric_scooter", "lat": 38.86655183333333, "is_disabled": 0, "lon": -76.988839, "is_reserved": 0}, {"name": "a1265593b6fbdb551ffa84ba5414a32e", "fusion_lat": 0.0, "fusion_lon": 0.0, "bike_id": "a1265593b6fbdb551ffa84ba5414a32e", "rental_uris": {"ios": "https://dc.lft.to/lastmile_qr_scan", "android": "https://dc.lft.to/lastmile_qr_scan"}, "type": "electric_scooter", "lat": 38.962141, "is_disabled": 0, "lon": -77.028041, "is_reserved": 0}, {"name": "20a52a450bda1fd9d65d6e43f3afef59", "fusion_lat": 0.0, "fusion_lon": 0.0, "bike_id": "20a52a450bda1fd9d65d6e43f3afef59", "rental_uris": {"ios": "https://dc.lft.to/lastmile_qr_scan", "android": "https://dc.lft.to/lastmile_qr_scan"}, "type": "electric_scooter", "lat": 38.94279266666667, "is_disabled": 0, "lon": -77.03630133333333, "is_reserved": 0}, {"name": "94b37ef7c622a7ebf343547ccf5ff4ae", "fusion_lat": 0.0, "fusion_lon": 0.0, "bike_id": "94b37ef7c622a7ebf343547ccf5ff4ae", "rental_uris": {"ios": "https://dc.lft.to/lastmile_qr_scan", "android": "https://dc.lft.to/lastmile_qr_scan"}, "type": "electric_scooter", "lat": 38.901393666666664, "is_disabled": 0, "lon": -77.0163815, "is_reserved": 0}, {"name": "24480007a580c5bf36f6d98f0bb1fd9e", "fusion_lat": 0.0, "fusion_lon": 0.0, "bike_id": "24480007a580c5bf36f6d98f0bb1fd9e", "rental_uris": {"ios": "https://dc.lft.to/lastmile_qr_scan", "android": "https://dc.lft.to/lastmile_qr_scan"}, "type": "electric_scooter", "lat": 38.907924, "is_disabled": 0, "lon": -76.9970045, "is_reserved": 0}, {"name": "fae1e9d9105b6a3d3a9e27bbfd618609", "fusion_lat": 0.0, "fusion_lon": 0.0, "bike_id": "fae1e9d9105b6a3d3a9e27bbfd618609", "rental_uris": {"ios": "https://dc.lft.to/lastmile_qr_scan", "android": "https://dc.lft.to/lastmile_qr_scan"}, "type": "electric_scooter", "lat": 38.898865666666666, "is_disabled": 0, "lon": -77.032849, "is_reserved": 0}, {"name": "65516d59a1d985dceb7a53c9d9fff88c", "fusion_lat": 0.0, "fusion_lon": 0.0, "bike_id": "65516d59a1d985dceb7a53c9d9fff88c", "rental_uris": {"ios": "https://dc.lft.to/lastmile_qr_scan", "android": "https://dc.lft.to/lastmile_qr_scan"}, "type": "electric_scooter", "lat": 38.893148833333335, "is_disabled": 0, "lon": -77.02123633333333, "is_reserved": 0}, {"name": "b2ec7f7bfadbc4f872d89a691725651d", "fusion_lat": 0.0, "fusion_lon": 0.0, "bike_id": "b2ec7f7bfadbc4f872d89a691725651d", "rental_uris": {"ios": "https://dc.lft.to/lastmile_qr_scan", "android": "https://dc.lft.to/lastmile_qr_scan"}, "type": "electric_scooter", "lat": 38.90136583333334, "is_disabled": 0, "lon": -77.0289175, "is_reserved": 0}, {"name": "8b45f7ec71b2d1659214d58c97656d1d", "fusion_lat": 0.0, "fusion_lon": 0.0, "bike_id": "8b45f7ec71b2d1659214d58c97656d1d", "rental_uris": {"ios": "https://dc.lft.to/lastmile_qr_scan", "android": "https://dc.lft.to/lastmile_qr_scan"}, "type": "electric_scooter", "lat": 38.858119, "is_disabled": 0, "lon": -76.9896475, "is_reserved": 0}, {"name": "7a854b70aa289a590c4737c0f02e60bc", "fusion_lat": 0.0, "fusion_lon": 0.0, "bike_id": "7a854b70aa289a590c4737c0f02e60bc", "rental_uris": {"ios": "https://dc.lft.to/lastmile_qr_scan", "android": "https://dc.lft.to/lastmile_qr_scan"}, "type": "electric_scooter", "lat": 38.908344666666665, "is_disabled": 0, "lon": -77.04176633333333, "is_reserved": 0}, {"name": "5ee48519a9eb2ee13502418c5213547d", "fusion_lat": 0.0, "fusion_lon": 0.0, "bike_id": "5ee48519a9eb2ee13502418c5213547d", "rental_uris": {"ios": "https://dc.lft.to/lastmile_qr_scan", "android": "https://dc.lft.to/lastmile_qr_scan"}, "type": "electric_scooter", "lat": 38.91545166666667, "is_disabled": 0, "lon": -77.022338, "is_reserved": 0}, {"name": "6dfeea31e63e64945c56aefc7dc51821", "fusion_lat": 0.0, "fusion_lon": 0.0, "bike_id": "6dfeea31e63e64945c56aefc7dc51821", "rental_uris": {"ios": "https://dc.lft.to/lastmile_qr_scan", "android": "https://dc.lft.to/lastmile_qr_scan"}, "type": "electric_scooter", "lat": 38.874714166666664, "is_disabled": 0, "lon": -77.01234316666667, "is_reserved": 0}, {"name": "c5995bf04555f3dedfd72f96e56d7e5b", "fusion_lat": 0.0, "fusion_lon": 0.0, "bike_id": "c5995bf04555f3dedfd72f96e56d7e5b", "rental_uris": {"ios": "https://dc.lft.to/lastmile_qr_scan", "android": "https://dc.lft.to/lastmile_qr_scan"}, "type": "electric_scooter", "lat": 38.89838133333333, "is_disabled": 0, "lon": -76.9463655, "is_reserved": 0}, {"name": "a1a1ff01c954390d2093db7753c6a008", "fusion_lat": 0.0, "fusion_lon": 0.0, "bike_id": "a1a1ff01c954390d2093db7753c6a008", "rental_uris": {"ios": "https://dc.lft.to/lastmile_qr_scan", "android": "https://dc.lft.to/lastmile_qr_scan"}, "type": "electric_scooter", "lat": 38.89296933333333, "is_disabled": 0, "lon": -77.01217833333334, "is_reserved": 0}, {"name": "2758f1fe351c05cea111bb247ae7ef9b", "fusion_lat": 0.0, "fusion_lon": 0.0, "bike_id": "2758f1fe351c05cea111bb247ae7ef9b", "rental_uris": {"ios": "https://dc.lft.to/lastmile_qr_scan", "android": "https://dc.lft.to/lastmile_qr_scan"}, "type": "electric_scooter", "lat": 38.89967083333333, "is_disabled": 0, "lon": -77.0461925, "is_reserved": 0}, {"name": "8334339b2d540777b47e62c17e778668", "fusion_lat": 0.0, "fusion_lon": 0.0, "bike_id": "8334339b2d540777b47e62c17e778668", "rental_uris": {"ios": "https://dc.lft.to/lastmile_qr_scan", "android": "https://dc.lft.to/lastmile_qr_scan"}, "type": "electric_scooter", "lat": 38.93421283333333, "is_disabled": 0, "lon": -77.04147016666667, "is_reserved": 0}, {"name": "5c39ced98e2f8d4d60a4e1acf21c2873", "fusion_lat": 0.0, "fusion_lon": 0.0, "bike_id": "5c39ced98e2f8d4d60a4e1acf21c2873", "rental_uris": {"ios": "https://dc.lft.to/lastmile_qr_scan", "android": "https://dc.lft.to/lastmile_qr_scan"}, "type": "electric_scooter", "lat": 38.91139033333333, "is_disabled": 0, "lon": -77.0419975, "is_reserved": 0}, {"name": "a4b1cd832dbb2e242be41f20b8743b65", "fusion_lat": 0.0, "fusion_lon": 0.0, "bike_id": "a4b1cd832dbb2e242be41f20b8743b65", "rental_uris": {"ios": "https://dc.lft.to/lastmile_qr_scan", "android": "https://dc.lft.to/lastmile_qr_scan"}, "type": "electric_bike", "lat": 38.89332316666667, "is_disabled": 0, "lon": -77.1240935, "is_reserved": 0}, {"name": "f9fccd21b9f1d40224abac37221b738b", "fusion_lat": 0.0, "fusion_lon": 0.0, "bike_id": "f9fccd21b9f1d40224abac37221b738b", "rental_uris": {"ios": "https://dc.lft.to/lastmile_qr_scan", "android": "https://dc.lft.to/lastmile_qr_scan"}, "type": "electric_scooter", "lat": 38.9315055, "is_disabled": 0, "lon": -77.03450983333333, "is_reserved": 0}, {"name": "ae81c7975846fa747ac372713ad27c8b", "fusion_lat": 0.0, "fusion_lon": 0.0, "bike_id": "ae81c7975846fa747ac372713ad27c8b", "rental_uris": {"ios": "https://dc.lft.to/lastmile_qr_scan", "android": "https://dc.lft.to/lastmile_qr_scan"}, "type": "electric_scooter", "lat": 38.921132166666666, "is_disabled": 0, "lon": -77.04685333333333, "is_reserved": 0}, {"name": "977198566615851f5b7c0c172af3214d", "fusion_lat": 0.0, "fusion_lon": 0.0, "bike_id": "977198566615851f5b7c0c172af3214d", "rental_uris": {"ios": "https://dc.lft.to/lastmile_qr_scan", "android": "https://dc.lft.to/lastmile_qr_scan"}, "type": "electric_scooter", "lat": 38.9201705, "is_disabled": 0, "lon": -77.024103, "is_reserved": 0}, {"name": "1a24a086516ea770d02782506e2f5f6f", "fusion_lat": 0.0, "fusion_lon": 0.0, "bike_id": "1a24a086516ea770d02782506e2f5f6f", "rental_uris": {"ios": "https://dc.lft.to/lastmile_qr_scan", "android": "https://dc.lft.to/lastmile_qr_scan"}, "type": "electric_scooter", "lat": 38.921063, "is_disabled": 0, "lon": -77.03055433333333, "is_reserved": 0}, {"name": "33462786688e708521466c74018b8b5a", "fusion_lat": 0.0, "fusion_lon": 0.0, "bike_id": "33462786688e708521466c74018b8b5a", "rental_uris": {"ios": "https://dc.lft.to/lastmile_qr_scan", "android": "https://dc.lft.to/lastmile_qr_scan"}, "type": "electric_scooter", "lat": 38.912169166666665, "is_disabled": 0, "lon": -77.0319545, "is_reserved": 0}, {"name": "341c94aadb05438969c8642bddccc889", "fusion_lat": 0.0, "fusion_lon": 0.0, "bike_id": "341c94aadb05438969c8642bddccc889", "rental_uris": {"ios": "https://dc.lft.to/lastmile_qr_scan", "android": "https://dc.lft.to/lastmile_qr_scan"}, "type": "electric_scooter", "lat": 38.903923166666665, "is_disabled": 0, "lon": -77.028014, "is_reserved": 0}, {"name": "041350bca9e08e349a1cd05a7d318068", "fusion_lat": 0.0, "fusion_lon": 0.0, "bike_id": "041350bca9e08e349a1cd05a7d318068", "rental_uris": {"ios": "https://dc.lft.to/lastmile_qr_scan", "android": "https://dc.lft.to/lastmile_qr_scan"}, "type": "electric_scooter", "lat": 38.9530985, "is_disabled": 0, "lon": -77.03598533333333, "is_reserved": 0}, {"name": "2ffd119c3381fd1c3c6a4e19e97c70ec", "fusion_lat": 0.0, "fusion_lon": 0.0, "bike_id": "2ffd119c3381fd1c3c6a4e19e97c70ec", "rental_uris": {"ios": "https://dc.lft.to/lastmile_qr_scan", "android": "https://dc.lft.to/lastmile_qr_scan"}, "type": "electric_scooter", "lat": 38.9223895, "is_disabled": 0, "lon": -77.02852666666666, "is_reserved": 0}, {"name": "8f6be3d97da18b04c073baa93f5b2276", "fusion_lat": 0.0, "fusion_lon": 0.0, "bike_id": "8f6be3d97da18b04c073baa93f5b2276", "rental_uris": {"ios": "https://dc.lft.to/lastmile_qr_scan", "android": "https://dc.lft.to/lastmile_qr_scan"}, "type": "electric_scooter", "lat": 38.8863645, "is_disabled": 0, "lon": -77.02258383333333, "is_reserved": 0}, {"name": "0a5228e88659ccf531659f27fb7ae37f", "fusion_lat": 0.0, "fusion_lon": 0.0, "bike_id": "0a5228e88659ccf531659f27fb7ae37f", "rental_uris": {"ios": "https://dc.lft.to/lastmile_qr_scan", "android": "https://dc.lft.to/lastmile_qr_scan"}, "type": "electric_scooter", "lat": 38.89909383333333, "is_disabled": 0, "lon": -76.93377533333333, "is_reserved": 0}, {"name": "282cc4f374b43ae6a5a922276613b9ea", "fusion_lat": 0.0, "fusion_lon": 0.0, "bike_id": "282cc4f374b43ae6a5a922276613b9ea", "rental_uris": {"ios": "https://dc.lft.to/lastmile_qr_scan", "android": "https://dc.lft.to/lastmile_qr_scan"}, "type": "electric_bike", "lat": 38.96614433333333, "is_disabled": 0, "lon": -77.03428616666666, "is_reserved": 0}, {"name": "3ebca59bc06bf12d68928bca7198eff4", "fusion_lat": 0.0, "fusion_lon": 0.0, "bike_id": "3ebca59bc06bf12d68928bca7198eff4", "rental_uris": {"ios": "https://dc.lft.to/lastmile_qr_scan", "android": "https://dc.lft.to/lastmile_qr_scan"}, "type": "electric_scooter", "lat": 38.8762625, "is_disabled": 0, "lon": -76.96529383333333, "is_reserved": 0}, {"name": "72205736d8778a906a66976b0061e363", "fusion_lat": 0.0, "fusion_lon": 0.0, "bike_id": "72205736d8778a906a66976b0061e363", "rental_uris": {"ios": "https://dc.lft.to/lastmile_qr_scan", "android": "https://dc.lft.to/lastmile_qr_scan"}, "type": "electric_scooter", "lat": 38.9395555, "is_disabled": 0, "lon": -77.0277425, "is_reserved": 0}, {"name": "2cfc1f0f35096905797670dc1e53d19b", "fusion_lat": 0.0, "fusion_lon": 0.0, "bike_id": "2cfc1f0f35096905797670dc1e53d19b", "rental_uris": {"ios": "https://dc.lft.to/lastmile_qr_scan", "android": "https://dc.lft.to/lastmile_qr_scan"}, "type": "electric_scooter", "lat": 38.89558683333333, "is_disabled": 0, "lon": -77.00911633333334, "is_reserved": 0}, {"name": "41dc2b64fc001fb2501bd38fc1313ce5", "fusion_lat": 0.0, "fusion_lon": 0.0, "bike_id": "41dc2b64fc001fb2501bd38fc1313ce5", "rental_uris": {"ios": "https://dc.lft.to/lastmile_qr_scan", "android": "https://dc.lft.to/lastmile_qr_scan"}, "type": "electric_scooter", "lat": 38.91743316666667, "is_disabled": 0, "lon": -77.03657033333333, "is_reserved": 0}, {"name": "c70706599210059204c1428e3c758a59", "fusion_lat": 0.0, "fusion_lon": 0.0, "bike_id": "c70706599210059204c1428e3c758a59", "rental_uris": {"ios": "https://dc.lft.to/lastmile_qr_scan", "android": "https://dc.lft.to/lastmile_qr_scan"}, "type": "electric_scooter", "lat": 38.89261316666666, "is_disabled": 0, "lon": -76.94154916666666, "is_reserved": 0}, {"name": "5c282e09fac8dd1c813f260d5916635c", "fusion_lat": 0.0, "fusion_lon": 0.0, "bike_id": "5c282e09fac8dd1c813f260d5916635c", "rental_uris": {"ios": "https://dc.lft.to/lastmile_qr_scan", "android": "https://dc.lft.to/lastmile_qr_scan"}, "type": "electric_scooter", "lat": 38.865045333333335, "is_disabled": 0, "lon": -76.9900195, "is_reserved": 0}, {"name": "1561ad7de6afecd7a147d7ba10a96fda", "fusion_lat": 0.0, "fusion_lon": 0.0, "bike_id": "1561ad7de6afecd7a147d7ba10a96fda", "rental_uris": {"ios": "https://dc.lft.to/lastmile_qr_scan", "android": "https://dc.lft.to/lastmile_qr_scan"}, "type": "electric_scooter", "lat": 38.924806833333335, "is_disabled": 0, "lon": -77.02724, "is_reserved": 0}, {"name": "0fb3630c53af7cfb1e66af4e914f3544", "fusion_lat": 0.0, "fusion_lon": 0.0, "bike_id": "0fb3630c53af7cfb1e66af4e914f3544", "rental_uris": {"ios": "https://dc.lft.to/lastmile_qr_scan", "android": "https://dc.lft.to/lastmile_qr_scan"}, "type": "electric_scooter", "lat": 38.9025685, "is_disabled": 0, "lon": -77.02939383333333, "is_reserved": 0}, {"name": "8f187881bc455a36e89af3d5ec8939d0", "fusion_lat": 0.0, "fusion_lon": 0.0, "bike_id": "8f187881bc455a36e89af3d5ec8939d0", "rental_uris": {"ios": "https://dc.lft.to/lastmile_qr_scan", "android": "https://dc.lft.to/lastmile_qr_scan"}, "type": "electric_scooter", "lat": 38.905268666666665, "is_disabled": 0, "lon": -77.05084816666667, "is_reserved": 0}, {"name": "3900e0fb4fe7f9b2a3978ceb438b1ac0", "fusion_lat": 0.0, "fusion_lon": 0.0, "bike_id": "3900e0fb4fe7f9b2a3978ceb438b1ac0", "rental_uris": {"ios": "https://dc.lft.to/lastmile_qr_scan", "android": "https://dc.lft.to/lastmile_qr_scan"}, "type": "electric_scooter", "lat": 38.9167155, "is_disabled": 0, "lon": -76.9808295, "is_reserved": 0}, {"name": "77a348c64aa1d8bc1ea83d997ad0e615", "fusion_lat": 0.0, "fusion_lon": 0.0, "bike_id": "77a348c64aa1d8bc1ea83d997ad0e615", "rental_uris": {"ios": "https://dc.lft.to/lastmile_qr_scan", "android": "https://dc.lft.to/lastmile_qr_scan"}, "type": "electric_scooter", "lat": 38.90872816666667, "is_disabled": 0, "lon": -77.0433625, "is_reserved": 0}, {"name": "91add0c7bc43d973551b3099d516c75c", "fusion_lat": 0.0, "fusion_lon": 0.0, "bike_id": "91add0c7bc43d973551b3099d516c75c", "rental_uris": {"ios": "https://dc.lft.to/lastmile_qr_scan", "android": "https://dc.lft.to/lastmile_qr_scan"}, "type": "electric_scooter", "lat": 38.915000166666665, "is_disabled": 0, "lon": -77.01847216666667, "is_reserved": 0}, {"name": "839384731b220a36b503ef87845750db", "fusion_lat": 0.0, "fusion_lon": 0.0, "bike_id": "839384731b220a36b503ef87845750db", "rental_uris": {"ios": "https://dc.lft.to/lastmile_qr_scan", "android": "https://dc.lft.to/lastmile_qr_scan"}, "type": "electric_scooter", "lat": 38.89742283333333, "is_disabled": 0, "lon": -77.04691366666667, "is_reserved": 0}, {"name": "f28366ae7792a9596d1a12fec386d2d7", "fusion_lat": 0.0, "fusion_lon": 0.0, "bike_id": "f28366ae7792a9596d1a12fec386d2d7", "rental_uris": {"ios": "https://dc.lft.to/lastmile_qr_scan", "android": "https://dc.lft.to/lastmile_qr_scan"}, "type": "electric_scooter", "lat": 38.94277316666667, "is_disabled": 0, "lon": -77.02938116666667, "is_reserved": 0}, {"name": "aeed9578cc5ad1efac5d9cc9859ad56a", "fusion_lat": 0.0, "fusion_lon": 0.0, "bike_id": "aeed9578cc5ad1efac5d9cc9859ad56a", "rental_uris": {"ios": "https://dc.lft.to/lastmile_qr_scan", "android": "https://dc.lft.to/lastmile_qr_scan"},