{"data": {"bikes": [{"rental_uris": {"android": "https://dc.lft.to/lastmile_qr_scan", "ios": "https://dc.lft.to/lastmile_qr_scan"}, "bike_id": "048dd58e2403861aff9d05f1c69e2dc0", "name": "048dd58e2403861aff9d05f1c69e2dc0", "type": "electric_scooter", "lon": -77.04382883333334, "lat": 38.90018333333333, "is_disabled": 0, "is_reserved": 0, "fusion_lat": 0.0, "fusion_lon": 0.0}, {"rental_uris": {"android": "https://dc.lft.to/lastmile_qr_scan", "ios": "https://dc.lft.to/lastmile_qr_scan"}, "bike_id": "10a72f077931d124653350386add7e83", "name": "10a72f077931d124653350386add7e83", "type": "electric_bike", "lon": -77.13466383333333, "lat": 38.853527666666665, "is_disabled": 0, "is_reserved": 0, "fusion_lat": 0.0, "fusion_lon": 0.0}, {"rental_uris": {"android": "https://dc.lft.to/lastmile_qr_scan", "ios": "https://dc.lft.to/lastmile_qr_scan"}, "bike_id": "cb6f1053b4b22751e5e315150c42e19f", "name": "cb6f1053b4b22751e5e315150c42e19f", "type": "electric_scooter", "lon": -76.98665483333333, "lat": 38.902527666666664, "is_disabled": 0, "is_reserved": 0, "fusion_lat": 0.0, "fusion_lon": 0.0}, {"rental_uris": {"android": "https://dc.lft.to/lastmile_qr_scan", "ios": "https://dc.lft.to/lastmile_qr_scan"}, "bike_id": "23bdd1f9e30f16d8b11cfdf97248c966", "name": "23bdd1f9e30f16d8b11cfdf97248c966", "type": "electric_scooter", "lon": -77.0398635, "lat": 38.917575, "is_disabled": 0, "is_reserved": 0, "fusion_lat": 0.0, "fusion_lon": 0.0}, {"rental_uris": {"android": "https://dc.lft.to/lastmile_qr_scan", "ios": "https://dc.lft.to/lastmile_qr_scan"}, "bike_id": "f924a45d65dbb785b257b8518f6ddbb6", "name": "f924a45d65dbb785b257b8518f6ddbb6", "type": "electric_scooter", "lon": -77.0241925, "lat": 38.907308666666665, "is_disabled": 0, "is_reserved": 0, "fusion_lat": 0.0, "fusion_lon": 0.0}, {"rental_uris": {"android": "https://dc.lft.to/lastmile_qr_scan", "ios": "https://dc.lft.to/lastmile_qr_scan"}, "bike_id": "a194f30a4ad301109f499145e2001038", "name": "a194f30a4ad301109f499145e2001038", "type": "electric_scooter", "lon": -77.03267833333334, "lat": 38.937219, "is_disabled": 0, "is_reserved": 0, "fusion_lat": 0.0, "fusion_lon": 0.0}, {"rental_uris": {"android": "https://dc.lft.to/lastmile_qr_scan", "ios": "https://dc.lft.to/lastmile_qr_scan"}, "bike_id": "12148b5d0475f4f4297d4fd37b4193f6", "name": "12148b5d0475f4f4297d4fd37b4193f6", "type": "electric_scooter", "lon": -77.0056625, "lat": 38.885057333333336, "is_disabled": 0, "is_reserved": 0, "fusion_lat": 0.0, "fusion_lon": 0.0}, {"rental_uris": {"android": "https://dc.lft.to/lastmile_qr_scan", "ios": "https://dc.lft.to/lastmile_qr_scan"}, "bike_id": "7be2bd23835dd3de03dfd303fb8589d8", "name": "7be2bd23835dd3de03dfd303fb8589d8", "type": "electric_scooter", "lon": -77.03402666666666, "lat": 38.9312325, "is_disabled": 0, "is_reserved": 0, "fusion_lat": 0.0, "fusion_lon": 0.0}, {"rental_uris": {"android": "https://dc.lft.to/lastmile_qr_scan", "ios": "https://dc.lft.to/lastmile_qr_scan"}, "bike_id": "5cac954cabe73851c36be611e69d2e77", "name": "5cac954cabe73851c36be611e69d2e77", "type": "electric_scooter", "lon": -77.01766166666667, "lat": 38.912649, "is_disabled": 0, "is_reserved": 0, "fusion_lat": 0.0, "fusion_lon": 0.0}, {"rental_uris": {"android": "https://dc.lft.to/lastmile_qr_scan", "ios": "https://dc.lft.to/lastmile_qr_scan"}, "bike_id": "679ea14166d971db1eb53eb702f8a5ad", "name": "679ea14166d971db1eb53eb702f8a5ad", "type": "electric_scooter", "lon": -77.03126916666666, "lat": 38.91554933333333, "is_disabled": 0, "is_reserved": 0, "fusion_lat": 0.0, "fusion_lon": 0.0}, {"rental_uris": {"android": "https://dc.lft.to/lastmile_qr_scan", "ios": "https://dc.lft.to/lastmile_qr_scan"}, "bike_id": "9ffc971b7d3708629ee824816f8abdbb", "name": "9ffc971b7d3708629ee824816f8abdbb", "type": "electric_scooter", "lon": -77.008017, "lat": 38.897166666666664, "is_disabled": 0, "is_reserved": 0, "fusion_lat": 0.0, "fusion_lon": 0.0}, {"rental_uris": {"android": "https://dc.lft.to/lastmile_qr_scan", "ios": "https://dc.lft.to/lastmile_qr_scan"}, "bike_id": "a42868b5409c6902256c01e0976ba2db", "name": "a42868b5409c6902256c01e0976ba2db", "type": "electric_scooter", "lon": -77.0308525, "lat": 38.897438333333334, "is_disabled": 0, "is_reserved": 0, "fusion_lat": 0.0, "fusion_lon": 0.0}, {"rental_uris": {"android": "https://dc.lft.to/lastmile_qr_scan", "ios": "https://dc.lft.to/lastmile_qr_scan"}, "bike_id": "18a4474014a552c7f957b4066b070865", "name": "18a4474014a552c7f957b4066b070865", "type": "electric_scooter", "lon": -77.034644, "lat": 38.918242, "is_disabled": 0, "is_reserved": 0, "fusion_lat": 0.0, "fusion_lon": 0.0}, {"rental_uris": {"android": "https://dc.lft.to/lastmile_qr_scan", "ios": "https://dc.lft.to/lastmile_qr_scan"}, "bike_id": "c7f0768223627919f694c69d8303c9bd", "name": "c7f0768223627919f694c69d8303c9bd", "type": "electric_scooter", "lon": -77.02006083333333, "lat": 38.913107833333335, "is_disabled": 0, "is_reserved": 0, "fusion_lat": 0.0, "fusion_lon": 0.0}, {"rental_uris": {"android": "https://dc.lft.to/lastmile_qr_scan", "ios": "https://dc.lft.to/lastmile_qr_scan"}, "bike_id": "4da023f66cc10771f9ef70bb7b739a6f", "name": "4da023f66cc10771f9ef70bb7b739a6f", "type": "electric_scooter", "lon": -76.998519, "lat": 38.887439, "is_disabled": 0, "is_reserved": 0, "fusion_lat": 0.0, "fusion_lon": 0.0}, {"rental_uris": {"android": "https://dc.lft.to/lastmile_qr_scan", "ios": "https://dc.lft.to/lastmile_qr_scan"}, "bike_id": "5a78fbb2ea89667e610a57ef5999ffe4", "name": "5a78fbb2ea89667e610a57ef5999ffe4", "type": "electric_scooter", "lon": -77.02957583333334, "lat": 38.8988405, "is_disabled": 0, "is_reserved": 0, "fusion_lat": 0.0, "fusion_lon": 0.0}, {"rental_uris": {"android": "https://dc.lft.to/lastmile_qr_scan", "ios": "https://dc.lft.to/lastmile_qr_scan"}, "bike_id": "e6a3a4552e38980d0429d004233a7b07", "name": "e6a3a4552e38980d0429d004233a7b07", "type": "electric_scooter", "lon": -77.00215766666666, "lat": 38.90041266666667, "is_disabled": 0, "is_reserved": 0, "fusion_lat": 0.0, "fusion_lon": 0.0}, {"rental_uris": {"android": "https://dc.lft.to/lastmile_qr_scan", "ios": "https://dc.lft.to/lastmile_qr_scan"}, "bike_id": "be4d4643af0ee5b5bee4f434e9ec806c", "name": "be4d4643af0ee5b5bee4f434e9ec806c", "type": "electric_scooter", "lon": -77.0419225, "lat": 38.907844, "is_disabled": 0, "is_reserved": 0, "fusion_lat": 0.0, "fusion_lon": 0.0}, {"rental_uris": {"android": "https://dc.lft.to/lastmile_qr_scan", "ios": "https://dc.lft.to/lastmile_qr_scan"}, "bike_id": "cfb57b3657b4f4e1d4d893aff11735bd", "name": "cfb57b3657b4f4e1d4d893aff11735bd", "type": "electric_scooter", "lon": -76.9823745, "lat": 38.90891466666667, "is_disabled": 0, "is_reserved": 0, "fusion_lat": 0.0, "fusion_lon": 0.0}, {"rental_uris": {"android": "https://dc.lft.to/lastmile_qr_scan", "ios": "https://dc.lft.to/lastmile_qr_scan"}, "bike_id": "c4a5f765bc2144bdeb0ff6d8992989df", "name": "c4a5f765bc2144bdeb0ff6d8992989df", "type": "electric_scooter", "lon": -77.03151633333333, "lat": 38.899524166666666, "is_disabled": 0, "is_reserved": 0, "fusion_lat": 0.0, "fusion_lon": 0.0}, {"rental_uris": {"android": "https://dc.lft.to/lastmile_qr_scan", "ios": "https://dc.lft.to/lastmile_qr_scan"}, "bike_id": "16f83a11cae0c73e37418f819693de76", "name": "16f83a11cae0c73e37418f819693de76", "type": "electric_scooter", "lon": -77.05418933333333, "lat": 38.902438, "is_disabled": 0, "is_reserved": 0, "fusion_lat": 0.0, "fusion_lon": 0.0}, {"rental_uris": {"android": "https://dc.lft.to/lastmile_qr_scan", "ios": "https://dc.lft.to/lastmile_qr_scan"}, "bike_id": "078d604164925381ce3b870411c2460b", "name": "078d604164925381ce3b870411c2460b", "type": "electric_scooter", "lon": -76.99946533333333, "lat": 38.84294366666666, "is_disabled": 0, "is_reserved": 0, "fusion_lat": 0.0, "fusion_lon": 0.0}, {"rental_uris": {"android": "https://dc.lft.to/lastmile_qr_scan", "ios": "https://dc.lft.to/lastmile_qr_scan"}, "bike_id": "190615470f80f4014bb399dc6ae9b6e4", "name": "190615470f80f4014bb399dc6ae9b6e4", "type": "electric_scooter", "lon": -77.041913, "lat": 38.92609933333333, "is_disabled": 0, "is_reserved": 0, "fusion_lat": 0.0, "fusion_lon": 0.0}, {"rental_uris": {"android": "https://dc.lft.to/lastmile_qr_scan", "ios": "https://dc.lft.to/lastmile_qr_scan"}, "bike_id": "f58b63c29818c0b99e4063b581f7fd8a", "name": "f58b63c29818c0b99e4063b581f7fd8a", "type": "electric_scooter", "lon": -77.02595783333334, "lat": 38.8836405, "is_disabled": 0, "is_reserved": 0, "fusion_lat": 0.0, "fusion_lon": 0.0}, {"rental_uris": {"android": "https://dc.lft.to/lastmile_qr_scan", "ios": "https://dc.lft.to/lastmile_qr_scan"}, "bike_id": "9a47b091f4dbc5749f03f0cd3b68b638", "name": "9a47b091f4dbc5749f03f0cd3b68b638", "type": "electric_scooter", "lon": -76.94633383333333, "lat": 38.89845783333333, "is_disabled": 0, "is_reserved": 0, "fusion_lat": 0.0, "fusion_lon": 0.0}, {"rental_uris": {"android": "https://dc.lft.to/lastmile_qr_scan", "ios": "https://dc.lft.to/lastmile_qr_scan"}, "bike_id": "801ab0d9792b9ce89cb5751c2b8db5d4", "name": "801ab0d9792b9ce89cb5751c2b8db5d4", "type": "electric_scooter", "lon": -77.02433866666667, "lat": 38.927429333333336, "is_disabled": 0, "is_reserved": 0, "fusion_lat": 0.0, "fusion_lon": 0.0}, {"rental_uris": {"android": "https://dc.lft.to/lastmile_qr_scan", "ios": "https://dc.lft.to/lastmile_qr_scan"}, "bike_id": "5d8642e10abc1241cb8dbc09416de88f", "name": "5d8642e10abc1241cb8dbc09416de88f", "type": "electric_scooter", "lon": -76.9116065, "lat": 38.894106, "is_disabled": 0, "is_reserved": 0, "fusion_lat": 0.0, "fusion_lon": 0.0}, {"rental_uris": {"android": "https://dc.lft.to/lastmile_qr_scan", "ios": "https://dc.lft.to/lastmile_qr_scan"}, "bike_id": "1427afdba4bbd85f94b0430b4c29fbba", "name": "1427afdba4bbd85f94b0430b4c29fbba", "type": "electric_scooter", "lon": -77.02410833333333, "lat": 38.91662916666667, "is_disabled": 0, "is_reserved": 0, "fusion_lat": 0.0, "fusion_lon": 0.0}, {"rental_uris": {"android": "https://dc.lft.to/lastmile_qr_scan", "ios": "https://dc.lft.to/lastmile_qr_scan"}, "bike_id": "ec79aabd843ff26902cf8b26b33e86ed", "name": "ec79aabd843ff26902cf8b26b33e86ed", "type": "electric_scooter", "lon": -77.0326675, "lat": 38.9140435, "is_disabled": 0, "is_reserved": 0, "fusion_lat": 0.0, "fusion_lon": 0.0}, {"rental_uris": {"android": "https://dc.lft.to/lastmile_qr_scan", "ios": "https://dc.lft.to/lastmile_qr_scan"}, "bike_id": "1768d522d62bc94b54b395e9e8ab3888", "name": "1768d522d62bc94b54b395e9e8ab3888", "type": "electric_scooter", "lon": -77.05861866666666, "lat": 38.936067, "is_disabled": 0, "is_reserved": 0, "fusion_lat": 0.0, "fusion_lon": 0.0}, {"rental_uris": {"android": "https://dc.lft.to/lastmile_qr_scan", "ios": "https://dc.lft.to/lastmile_qr_scan"}, "bike_id": "a76793098ecf8d9f6c64e713c3ddc28a", "name": "a76793098ecf8d9f6c64e713c3ddc28a", "type": "electric_scooter", "lon": -77.04622416666666, "lat": 38.9026705, "is_disabled": 0, "is_reserved": 0, "fusion_lat": 0.0, "fusion_lon": 0.0}, {"rental_uris": {"android": "https://dc.lft.to/lastmile_qr_scan", "ios": "https://dc.lft.to/lastmile_qr_scan"}, "bike_id": "ce399f6bc06aaf488719c427cb3f4958", "name": "ce399f6bc06aaf488719c427cb3f4958", "type": "electric_bike", "lon": -76.98991616666666, "lat": 38.863911333333334, "is_disabled": 0, "is_reserved": 0, "fusion_lat": 0.0, "fusion_lon": 0.0}, {"rental_uris": {"android": "https://dc.lft.to/lastmile_qr_scan", "ios": "https://dc.lft.to/lastmile_qr_scan"}, "bike_id": "7d0559a1cc96513dab464ce6502056e6", "name": "7d0559a1cc96513dab464ce6502056e6", "type": "electric_scooter", "lon": -77.027649, "lat": 38.9542535, "is_disabled": 0, "is_reserved": 0, "fusion_lat": 0.0, "fusion_lon": 0.0}, {"rental_uris": {"android": "https://dc.lft.to/lastmile_qr_scan", "ios": "https://dc.lft.to/lastmile_qr_scan"}, "bike_id": "ddada143880fae7940708fa76966527b", "name": "ddada143880fae7940708fa76966527b", "type": "electric_scooter", "lon": -77.05025866666666, "lat": 38.906299, "is_disabled": 0, "is_reserved": 0, "fusion_lat": 0.0, "fusion_lon": 0.0}, {"rental_uris": {"android": "https://dc.lft.to/lastmile_qr_scan", "ios": "https://dc.lft.to/lastmile_qr_scan"}, "bike_id": "11c99d9ba0243f61eea37661cdc8931f", "name": "11c99d9ba0243f61eea37661cdc8931f", "type": "electric_scooter", "lon": -77.05231666666667, "lat": 38.92464366666667, "is_disabled": 0, "is_reserved": 0, "fusion_lat": 0.0, "fusion_lon": 0.0}, {"rental_uris": {"android": "https://dc.lft.to/lastmile_qr_scan", "ios": "https://dc.lft.to/lastmile_qr_scan"}, "bike_id": "3c86588537780316748c6d95b9c66a9e", "name": "3c86588537780316748c6d95b9c66a9e", "type": "electric_scooter", "lon": -77.02822, "lat": 38.88732683333333, "is_disabled": 0, "is_reserved": 0, "fusion_lat": 0.0, "fusion_lon": 0.0}, {"rental_uris": {"android": "https://dc.lft.to/lastmile_qr_scan", "ios": "https://dc.lft.to/lastmile_qr_scan"}, "bike_id": "55b9d1cfd3b22c08ea18a82bd1f47681", "name": "55b9d1cfd3b22c08ea18a82bd1f47681", "type": "electric_scooter", "lon": -77.0225685, "lat": 38.902028, "is_disabled": 0, "is_reserved": 0, "fusion_lat": 0.0, "fusion_lon": 0.0}, {"rental_uris": {"android": "https://dc.lft.to/lastmile_qr_scan", "ios": "https://dc.lft.to/lastmile_qr_scan"}, "bike_id": "108cf8ae489a48cbf3f14d0633335408", "name": "108cf8ae489a48cbf3f14d0633335408", "type": "electric_scooter", "lon": -77.052258, "lat": 38.92483283333333, "is_disabled": 0, "is_reserved": 0, "fusion_lat": 0.0, "fusion_lon": 0.0}, {"rental_uris": {"android": "https://dc.lft.to/lastmile_qr_scan", "ios": "https://dc.lft.to/lastmile_qr_scan"}, "bike_id": "2cd2a15b2af9544e8c92c242b88bc16c", "name": "2cd2a15b2af9544e8c92c242b88bc16c", "type": "electric_scooter", "lon": -77.0742, "lat": 38.91307966666667, "is_disabled": 0, "is_reserved": 0, "fusion_lat": 0.0, "fusion_lon": 0.0}, {"rental_uris": {"android": "https://dc.lft.to/lastmile_qr_scan", "ios": "https://dc.lft.to/lastmile_qr_scan"}, "bike_id": "0be1ad2ac65da819e0778108f2329e18", "name": "0be1ad2ac65da819e0778108f2329e18", "type": "electric_scooter", "lon": -77.04871016666667, "lat": 38.90646733333333, "is_disabled": 0, "is_reserved": 0, "fusion_lat": 0.0, "fusion_lon": 0.0}, {"rental_uris": {"android": "https://dc.lft.to/lastmile_qr_scan", "ios": "https://dc.lft.to/lastmile_qr_scan"}, "bike_id": "0075234bcd78a1ee2040b17778176516", "name": "0075234bcd78a1ee2040b17778176516", "type": "electric_scooter", "lon": -76.93297616666666, "lat": 38.88127266666667, "is_disabled": 0, "is_reserved": 0, "fusion_lat": 0.0, "fusion_lon": 0.0}, {"rental_uris": {"android": "https://dc.lft.to/lastmile_qr_scan", "ios": "https://dc.lft.to/lastmile_qr_scan"}, "bike_id": "776396979398a21423fdc3f7d8e0fd1a", "name": "776396979398a21423fdc3f7d8e0fd1a", "type": "electric_scooter", "lon": -76.97163916666666, "lat": 38.854719, "is_disabled": 0, "is_reserved": 0, "fusion_lat": 0.0, "fusion_lon": 0.0}, {"rental_uris": {"android": "https://dc.lft.to/lastmile_qr_scan", "ios": "https://dc.lft.to/lastmile_qr_scan"}, "bike_id": "0bf21234cd3cb8791b6e13fc4cf193ba", "name": "0bf21234cd3cb8791b6e13fc4cf193ba", "type": "electric_scooter", "lon": -77.05995083333333, "lat": 38.90498566666667, "is_disabled": 0, "is_reserved": 0, "fusion_lat": 0.0, "fusion_lon": 0.0}, {"rental_uris": {"android": "https://dc.lft.to/lastmile_qr_scan", "ios": "https://dc.lft.to/lastmile_qr_scan"}, "bike_id": "f1cb967efde85326011170476718464b", "name": "f1cb967efde85326011170476718464b", "type": "electric_bike", "lon": -76.993762, "lat": 38.97188533333333, "is_disabled": 0, "is_reserved": 0, "fusion_lat": 0.0, "fusion_lon": 0.0}, {"rental_uris": {"android": "https://dc.lft.to/lastmile_qr_scan", "ios": "https://dc.lft.to/lastmile_qr_scan"}, "bike_id": "d7ee110ac1295c00bfd8e1085116ae79", "name": "d7ee110ac1295c00bfd8e1085116ae79", "type": "electric_scooter", "lon": -77.02208733333333, "lat": 38.89997983333333, "is_disabled": 0, "is_reserved": 0, "fusion_lat": 0.0, "fusion_lon": 0.0}, {"rental_uris": {"android": "https://dc.lft.to/lastmile_qr_scan", "ios": "https://dc.lft.to/lastmile_qr_scan"}, "bike_id": "a7f9863986d0d8e7d1ee19bbbe23cc0d", "name": "a7f9863986d0d8e7d1ee19bbbe23cc0d", "type": "electric_scooter", "lon": -77.0282915, "lat": 38.9022125, "is_disabled": 0, "is_reserved": 0, "fusion_lat": 0.0, "fusion_lon": 0.0}, {"rental_uris": {"android": "https://dc.lft.to/lastmile_qr_scan", "ios": "https://dc.lft.to/lastmile_qr_scan"}, "bike_id": "eec0357ae16b8a1ff5a9d727090ae294", "name": "eec0357ae16b8a1ff5a9d727090ae294", "type": "electric_scooter", "lon": -77.03255416666667, "lat": 38.9397135, "is_disabled": 0, "is_reserved": 0, "fusion_lat": 0.0, "fusion_lon": 0.0}, {"rental_uris": {"android": "https://dc.lft.to/lastmile_qr_scan", "ios": "https://dc.lft.to/lastmile_qr_scan"}, "bike_id": "84306252011f576de57e4f760329cff4", "name": "84306252011f576de57e4f760329cff4", "type": "electric_scooter", "lon": -77.069349, "lat": 38.90773733333333, "is_disabled": 0, "is_reserved": 0, "fusion_lat": 0.0, "fusion_lon": 0.0}, {"rental_uris": {"android": "https://dc.lft.to/lastmile_qr_scan", "ios": "https://dc.lft.to/lastmile_qr_scan"}, "bike_id": "5a1566f2049516d635b3a02925046bbd", "name": "5a1566f2049516d635b3a02925046bbd", "type": "electric_scooter", "lon": -77.03355366666666, "lat": 38.92878533333333, "is_disabled": 0, "is_reserved": 0, "fusion_lat": 0.0, "fusion_lon": 0.0}, {"rental_uris": {"android": "https://dc.lft.to/lastmile_qr_scan", "ios": "https://dc.lft.to/lastmile_qr_scan"}, "bike_id": "b0d6bd1c5a0494a579be6a236982c518", "name": "b0d6bd1c5a0494a579be6a236982c518", "type": "electric_scooter", "lon": -77.0594195, "lat": 38.9094185, "is_disabled": 0, "is_reserved": 0, "fusion_lat": 0.0, "fusion_lon": 0.0}, {"rental_uris": {"android": "https://dc.lft.to/lastmile_qr_scan", "ios": "https://dc.lft.to/lastmile_qr_scan"}, "bike_id": "8c3712d7ef36563672528886ba55b109", "name": "8c3712d7ef36563672528886ba55b109", "type": "electric_scooter", "lon": -77.0320125, "lat": 38.91987783333333, "is_disabled": 0, "is_reserved": 0, "fusion_lat": 0.0, "fusion_lon": 0.0}, {"rental_uris": {"android": "https://dc.lft.to/lastmile_qr_scan", "ios": "https://dc.lft.to/lastmile_qr_scan"}, "bike_id": "48c46466860c449992f76bc60484f63b", "name": "48c46466860c449992f76bc60484f63b", "type": "electric_scooter", "lon": -77.03350466666667, "lat": 38.88649783333334, "is_disabled": 0, "is_reserved": 0, "fusion_lat": 0.0, "fusion_lon": 0.0}, {"rental_uris": {"android": "https://dc.lft.to/lastmile_qr_scan", "ios": "https://dc.lft.to/lastmile_qr_scan"}, "bike_id": "aa6a5ac92d22b0c725ab7e620a261e4d", "name": "aa6a5ac92d22b0c725ab7e620a261e4d", "type": "electric_scooter", "lon": -77.04632783333334, "lat": 38.915978333333335, "is_disabled": 0, "is_reserved": 0, "fusion_lat": 0.0, "fusion_lon": 0.0}, {"rental_uris": {"android": "https://dc.lft.to/lastmile_qr_scan", "ios": "https://dc.lft.to/lastmile_qr_scan"}, "bike_id": "030d78b6acd0d1a9a52975c72ed46beb", "name": "030d78b6acd0d1a9a52975c72ed46beb", "type": "electric_scooter", "lon": -77.03088916666667, "lat": 38.93161933333333, "is_disabled": 0, "is_reserved": 0, "fusion_lat": 0.0, "fusion_lon": 0.0}, {"rental_uris": {"android": "https://dc.lft.to/lastmile_qr_scan", "ios": "https://dc.lft.to/lastmile_qr_scan"}, "bike_id": "6444bf1e2acd7f3c0728ad265823c244", "name": "6444bf1e2acd7f3c0728ad265823c244", "type": "electric_scooter", "lon": -77.04838483333333, "lat": 38.9079415, "is_disabled": 0, "is_reserved": 0, "fusion_lat": 0.0, "fusion_lon": 0.0}, {"rental_uris": {"android": "https://dc.lft.to/lastmile_qr_scan", "ios": "https://dc.lft.to/lastmile_qr_scan"}, "bike_id": "20c58f39f6c9449bd63a401212fac3f2", "name": "20c58f39f6c9449bd63a401212fac3f2", "type": "electric_scooter", "lon": -77.01416633333334, "lat": 38.92844133333333, "is_disabled": 0, "is_reserved": 0, "fusion_lat": 0.0, "fusion_lon": 0.0}, {"rental_uris": {"android": "https://dc.lft.to/lastmile_qr_scan", "ios": "https://dc.lft.to/lastmile_qr_scan"}, "bike_id": "e37dd9d0f58ca38029054c178a314878", "name": "e37dd9d0f58ca38029054c178a314878", "type": "electric_scooter", "lon": -76.99001133333333, "lat": 38.86419883333333, "is_disabled": 0, "is_reserved": 0, "fusion_lat": 0.0, "fusion_lon": 0.0}, {"rental_uris": {"android": "https://dc.lft.to/lastmile_qr_scan", "ios": "https://dc.lft.to/lastmile_qr_scan"}, "bike_id": "dab1e83a587349bfa8a13e4ca7d1e8ad", "name": "dab1e83a587349bfa8a13e4ca7d1e8ad", "type": "electric_scooter", "lon": -77.01884183333334, "lat": 38.9226255, "is_disabled": 0, "is_reserved": 0, "fusion_lat": 0.0, "fusion_lon": 0.0}, {"rental_uris": {"android": "https://dc.lft.to/lastmile_qr_scan", "ios": "https://dc.lft.to/lastmile_qr_scan"}, "bike_id": "18157839a5c5f239a5a2e517fa9dffa3", "name": "18157839a5c5f239a5a2e517fa9dffa3", "type": "electric_scooter", "lon": -77.058988, "lat": 38.90319066666667, "is_disabled": 0, "is_reserved": 0, "fusion_lat": 0.0, "fusion_lon": 0.0}, {"rental_uris": {"android": "https://dc.lft.to/lastmile_qr_scan", "ios": "https://dc.lft.to/lastmile_qr_scan"}, "bike_id": "b20c17a09de845e7b7ebd50231b7c2b9", "name": "b20c17a09de845e7b7ebd50231b7c2b9", "type": "electric_scooter", "lon": -77.03455616666666, "lat": 38.90632816666667, "is_disabled": 0, "is_reserved": 0, "fusion_lat": 0.0, "fusion_lon": 0.0}, {"rental_uris": {"android": "https://dc.lft.to/lastmile_qr_scan", "ios": "https://dc.lft.to/lastmile_qr_scan"}, "bike_id": "4095667b2878a942020c8fbf8d138e84", "name": "4095667b2878a942020c8fbf8d138e84", "type": "electric_scooter", "lon": -77.03132666666667, "lat": 38.923740333333335, "is_disabled": 0, "is_reserved": 0, "fusion_lat": 0.0, "fusion_lon": 0.0}, {"rental_uris": {"android": "https://dc.lft.to/lastmile_qr_scan", "ios": "https://dc.lft.to/lastmile_qr_scan"}, "bike_id": "37cea84b2f65cd570b2e70995f9f810c", "name": "37cea84b2f65cd570b2e70995f9f810c", "type": "electric_scooter", "lon": -77.037313, "lat": 38.935715333333334, "is_disabled": 0, "is_reserved": 0, "fusion_lat": 0.0, "fusion_lon": 0.0}, {"rental_uris": {"android": "https://dc.lft.to/lastmile_qr_scan", "ios": "https://dc.lft.to/lastmile_qr_scan"}, "bike_id": "f4db68909bd2c87d900d9dd49ba0115d", "name": "f4db68909bd2c87d900d9dd49ba0115d", "type": "electric_bike", "lon": -77.20837, "lat": 38.92464416666667, "is_disabled": 0, "is_reserved": 0, "fusion_lat": 0.0, "fusion_lon": 0.0}, {"rental_uris": {"android": "https://dc.lft.to/lastmile_qr_scan", "ios": "https://dc.lft.to/lastmile_qr_scan"}, "bike_id": "0ea0f4b022a5a492aca19c2136f63ffa", "name": "0ea0f4b022a5a492aca19c2136f63ffa", "type": "electric_scooter", "lon": -77.05843316666666, "lat": 38.910445833333334, "is_disabled": 0, "is_reserved": 0, "fusion_lat": 0.0, "fusion_lon": 0.0}, {"rental_uris": {"android": "https://dc.lft.to/lastmile_qr_scan", "ios": "https://dc.lft.to/lastmile_qr_scan"}, "bike_id": "33c31dc4618072d1f25d6fa4184bbac7", "name": "33c31dc4618072d1f25d6fa4184bbac7", "type": "electric_scooter", "lon": -77.00600633333333, "lat": 38.905648166666666, "is_disabled": 0, "is_reserved": 0, "fusion_lat": 0.0, "fusion_lon": 0.0}, {"rental_uris": {"android": "https://dc.lft.to/lastmile_qr_scan", "ios": "https://dc.lft.to/lastmile_qr_scan"}, "bike_id": "b63a38f234a32b482130f773044492ec", "name": "b63a38f234a32b482130f773044492ec", "type": "electric_scooter", "lon": -76.99924783333333, "lat": 38.920364666666664, "is_disabled": 0, "is_reserved": 0, "fusion_lat": 0.0, "fusion_lon": 0.0}, {"rental_uris": {"android": "https://dc.lft.to/lastmile_qr_scan", "ios": "https://dc.lft.to/lastmile_qr_scan"}, "bike_id": "de56afa41466acfa29573bdd754215b8", "name": "de56afa41466acfa29573bdd754215b8", "type": "electric_bike", "lon": -77.11316183333334, "lat": 38.831542, "is_disabled": 0, "is_reserved": 0, "fusion_lat": 0.0, "fusion_lon": 0.0}, {"rental_uris": {"android": "https://dc.lft.to/lastmile_qr_scan", "ios": "https://dc.lft.to/lastmile_qr_scan"}, "bike_id": "54bbe164c83a1eb79f9240f0f4ae94b7", "name": "54bbe164c83a1eb79f9240f0f4ae94b7", "type": "electric_scooter", "lon": -77.032442, "lat": 38.92992666666667, "is_disabled": 0, "is_reserved": 0, "fusion_lat": 0.0, "fusion_lon": 0.0}, {"rental_uris": {"android": "https://dc.lft.to/lastmile_qr_scan", "ios": "https://dc.lft.to/lastmile_qr_scan"}, "bike_id": "382279b2e29a8b7e1fc1652b2a87925c", "name": "382279b2e29a8b7e1fc1652b2a87925c", "type": "electric_scooter", "lon": -76.93610316666667, "lat": 38.886732333333335, "is_disabled": 0, "is_reserved": 0, "fusion_lat": 0.0, "fusion_lon": 0.0}, {"rental_uris": {"android": "https://dc.lft.to/lastmile_qr_scan", "ios": "https://dc.lft.to/lastmile_qr_scan"}, "bike_id": "e050f958425c312fa5e40f7b55a66b0b", "name": "e050f958425c312fa5e40f7b55a66b0b", "type": "electric_scooter", "lon": -77.02721466666667, "lat": 38.94956083333334, "is_disabled": 0, "is_reserved": 0, "fusion_lat": 0.0, "fusion_lon": 0.0}, {"rental_uris": {"android": "https://dc.lft.to/lastmile_qr_scan", "ios": "https://dc.lft.to/lastmile_qr_scan"}, "bike_id": "71c39321c5a53a20e88e16a98ac11bc2", "name": "71c39321c5a53a20e88e16a98ac11bc2", "type": "electric_scooter", "lon": -76.997814, "lat": 38.90902766666667, "is_disabled": 0, "is_reserved": 0, "fusion_lat": 0.0, "fusion_lon": 0.0}, {"rental_uris": {"android": "https://dc.lft.to/lastmile_qr_scan", "ios": "https://dc.lft.to/lastmile_qr_scan"}, "bike_id": "cc1f17753c826b48565b40ddc2e82f10", "name": "cc1f17753c826b48565b40ddc2e82f10", "type": "electric_scooter", "lon": -77.0264995, "lat": 38.89714433333333, "is_disabled": 0, "is_reserved": 0, "fusion_lat": 0.0, "fusion_lon": 0.0}, {"rental_uris": {"android": "https://dc.lft.to/lastmile_qr_scan", "ios": "https://dc.lft.to/lastmile_qr_scan"}, "bike_id": "30bceda73675d079f94f4b766434b6d5", "name": "30bceda73675d079f94f4b766434b6d5", "type": "electric_scooter", "lon": -77.022967, "lat": 38.920843, "is_disabled": 0, "is_reserved": 0, "fusion_lat": 0.0, "fusion_lon": 0.0}, {"rental_uris": {"android": "https://dc.lft.to/lastmile_qr_scan", "ios": "https://dc.lft.to/lastmile_qr_scan"}, "bike_id": "1427ad72cf5c3dae29c7cc0bf5e85717", "name": "1427ad72cf5c3dae29c7cc0bf5e85717", "type": "electric_scooter", "lon": -77.03284366666666, "lat": 38.93881066666667, "is_disabled": 0, "is_reserved": 0, "fusion_lat": 0.0, "fusion_lon": 0.0}, {"rental_uris": {"android": "https://dc.lft.to/lastmile_qr_scan", "ios": "https://dc.lft.to/lastmile_qr_scan"}, "bike_id": "54f1718e6f9d1da93e535505564578b1", "name": "54f1718e6f9d1da93e535505564578b1", "type": "electric_scooter", "lon": -77.03177683333334, "lat": 38.912216666666666, "is_disabled": 0, "is_reserved": 0, "fusion_lat": 0.0, "fusion_lon": 0.0}, {"rental_uris": {"android": "https://dc.lft.to/lastmile_qr_scan", "ios": "https://dc.lft.to/lastmile_qr_scan"}, "bike_id": "f4fc3c1dc5d6eb243ac6f83c68eae9c2", "name": "f4fc3c1dc5d6eb243ac6f83c68eae9c2", "type": "electric_scooter", "lon": -77.038142, "lat": 38.925072666666665, "is_disabled": 0, "is_reserved": 0, "fusion_lat": 0.0, "fusion_lon": 0.0}, {"rental_uris": {"android": "https://dc.lft.to/lastmile_qr_scan", "ios": "https://dc.lft.to/lastmile_qr_scan"}, "bike_id": "cd275920fc4c74693af9ab2145db7ebd", "name": "cd275920fc4c74693af9ab2145db7ebd", "type": "electric_scooter", "lon": -77.02511116666666, "lat": 38.915661, "is_disabled": 0, "is_reserved": 0, "fusion_lat": 0.0, "fusion_lon": 0.0}, {"rental_uris": {"android": "https://dc.lft.to/lastmile_qr_scan", "ios": "https://dc.lft.to/lastmile_qr_scan"}, "bike_id": "1f36e223c0a2cb536fa1499bdbd56a40", "name": "1f36e223c0a2cb536fa1499bdbd56a40", "type": "electric_scooter", "lon": -76.986165, "lat": 38.938281833333335, "is_disabled": 0, "is_reserved": 0, "fusion_lat": 0.0, "fusion_lon": 0.0}, {"rental_uris": {"android": "https://dc.lft.to/lastmile_qr_scan", "ios": "https://dc.lft.to/lastmile_qr_scan"}, "bike_id": "128ac351c3e7464b3df4c095cd9515e4", "name": "128ac351c3e7464b3df4c095cd9515e4", "type": "electric_scooter", "lon": -76.99613616666667, "lat": 38.90364966666667, "is_disabled": 0, "is_reserved": 0, "fusion_lat": 0.0, "fusion_lon": 0.0}, {"rental_uris": {"android": "https://dc.lft.to/lastmile_qr_scan", "ios": "https://dc.lft.to/lastmile_qr_scan"}, "bike_id": "719c45d52d1d05cdb5e14fa8a06442ef", "name": "719c45d52d1d05cdb5e14fa8a06442ef", "type": "electric_scooter", "lon": -77.04803666666666, "lat": 38.892236833333335, "is_disabled": 0, "is_reserved": 0, "fusion_lat": 0.0, "fusion_lon": 0.0}, {"rental_uris": {"android": "https://dc.lft.to/lastmile_qr_scan", "ios": "https://dc.lft.to/lastmile_qr_scan"}, "bike_id": "fe686874da938c851e3d8895bfb3e7e1", "name": "fe686874da938c851e3d8895bfb3e7e1", "type": "electric_scooter", "lon": -77.03211166666667, "lat": 38.9147955, "is_disabled": 0, "is_reserved": 0, "fusion_lat": 0.0, "fusion_lon": 0.0}, {"rental_uris": {"android": "https://dc.lft.to/lastmile_qr_scan", "ios": "https://dc.lft.to/lastmile_qr_scan"}, "bike_id": "aeff6af7f729be22f453f8eaab1ebaa9", "name": "aeff6af7f729be22f453f8eaab1ebaa9", "type": "electric_scooter", "lon": -77.01846083333334, "lat": 38.91527833333333, "is_disabled": 0, "is_reserved": 0, "fusion_lat": 0.0, "fusion_lon": 0.0}, {"rental_uris": {"android": "https://dc.lft.to/lastmile_qr_scan", "ios": "https://dc.lft.to/lastmile_qr_scan"}, "bike_id": "e8e7f70bbdbaf4738f0ddd2602ef0b03", "name": "e8e7f70bbdbaf4738f0ddd2602ef0b03", "type": "electric_scooter", "lon": -77.03669866666667, "lat": 38.92724366666667, "is_disabled": 0, "is_reserved": 0, "fusion_lat": 0.0, "fusion_lon": 0.0}, {"rental_uris": {"android": "https://dc.lft.to/lastmile_qr_scan", "ios": "https://dc.lft.to/lastmile_qr_scan"}, "bike_id": "795a72e5e044ecc320c7e3abd18aefb1", "name": "795a72e5e044ecc320c7e3abd18aefb1", "type": "electric_scooter", "lon": -77.031773, "lat": 38.928731166666665, "is_disabled": 0, "is_reserved": 0, "fusion_lat": 0.0, "fusion_lon": 0.0}, {"rental_uris": {"android": "https://dc.lft.to/lastmile_qr_scan", "ios": "https://dc.lft.to/lastmile_qr_scan"}, "bike_id": "ff3d03822e1175ebbdf391eb93b11ba1", "name": "ff3d03822e1175ebbdf391eb93b11ba1", "type": "electric_scooter", "lon": -77.04792133333333, "lat": 38.89364583333333, "is_disabled": 0, "is_reserved": 0, "fusion_lat": 0.0, "fusion_lon": 0.0}, {"rental_uris": {"android": "https://dc.lft.to/lastmile_qr_scan", "ios": "https://dc.lft.to/lastmile_qr_scan"}, "bike_id": "22ab7f78b353375a43745a0e2ef609f8", "name": "22ab7f78b353375a43745a0e2ef609f8", "type": "electric_scooter", "lon": -77.0152735, "lat": 38.884849333333335, "is_disabled": 0, "is_reserved": 0, "fusion_lat": 0.0, "fusion_lon": 0.0}, {"rental_uris": {"android": "https://dc.lft.to/lastmile_qr_scan", "ios": "https://dc.lft.to/lastmile_qr_scan"}, "bike_id": "414d0c3d7c1ab5996cefc767388a130c", "name": "414d0c3d7c1ab5996cefc767388a130c", "type": "electric_scooter", "lon": -77.0199005, "lat": 38.89560066666667, "is_disabled": 0, "is_reserved": 0, "fusion_lat": 0.0, "fusion_lon": 0.0}, {"rental_uris": {"android": "https://dc.lft.to/lastmile_qr_scan", "ios": "https://dc.lft.to/lastmile_qr_scan"}, "bike_id": "e81dcd3703ea7ae8c8fc336adc4e181b", "name": "e81dcd3703ea7ae8c8fc336adc4e181b", "type": "electric_bike", "lon": -77.052275, "lat": 38.89880983333333, "is_disabled": 0, "is_reserved": 0, "fusion_lat": 0.0, "fusion_lon": 0.0}, {"rental_uris": {"android": "https://dc.lft.to/lastmile_qr_scan", "ios": "https://dc.lft.to/lastmile_qr_scan"}, "bike_id": "0969f4c04db5bcadf3fb8a11a568c4af", "name": "0969f4c04db5bcadf3fb8a11a568c4af", "type": "electric_scooter", "lon": -77.04265916666667, "lat": 38.90862083333333, "is_disabled": 0, "is_reserved": 0, "fusion_lat": 0.0, "fusion_lon": 0.0}, {"rental_uris": {"android": "https://dc.lft.to/lastmile_qr_scan", "ios": "https://dc.lft.to/lastmile_qr_scan"}, "bike_id": "af5ff88c373c61a86d78e692e04d6f78", "name": "af5ff88c373c61a86d78e692e04d6f78", "type": "electric_scooter", "lon": -77.021734, "lat": 38.94292516666667, "is_disabled": 0, "is_reserved": 0, "fusion_lat": 0.0, "fusion_lon": 0.0}, {"rental_uris": {"android": "https://dc.lft.to/lastmile_qr_scan", "ios": "https://dc.lft.to/lastmile_qr_scan"}, "bike_id": "0ab2504db1d832aa070ea0af90c9f0fc", "name": "0ab2504db1d832aa070ea0af90c9f0fc", "type": "electric_scooter", "lon": -77.04386866666667, "lat": 38.91414266666666, "is_disabled": 0, "is_reserved": 0, "fusion_lat": 0.0, "fusion_lon": 0.0}, {"rental_uris": {"android": "https://dc.lft.to/lastmile_qr_scan", "ios": "https://dc.lft.to/lastmile_qr_scan"}, "bike_id": "95fa938cb60252d98bd0c99bc6a11e3d", "name": "95fa938cb60252d98bd0c99bc6a11e3d", "type": "electric_scooter", "lon": -77.03956716666667, "lat": 38.89867, "is_disabled": 0, "is_reserved": 0, "fusion_lat": 0.0, "fusion_lon": 0.0}, {"rental_uris": {"android": "https://dc.lft.to/lastmile_qr_scan", "ios": "https://dc.lft.to/lastmile_qr_scan"}, "bike_id": "2b6ce49dbed764408d7fb6bf3bf91292", "name": "2b6ce49dbed764408d7fb6bf3bf91292", "type": "electric_scooter", "lon": -77.02768583333334, "lat": 38.95424783333333, "is_disabled": 0, "is_reserved": 0, "fusion_lat": 0.0, "fusion_lon": 0.0}, {"rental_uris": {"android": "https://dc.lft.to/lastmile_qr_scan", "ios": "https://dc.lft.to/lastmile_qr_scan"}, "bike_id": "9601ce87de866e95e039a5b8c2a61478", "name": "9601ce87de866e95e039a5b8c2a61478", "type": "electric_scooter", "lon": -76.96523816666667, "lat": 38.876269, "is_disabled": 0, "is_reserved": 0, "fusion_lat": 0.0, "fusion_lon": 0.0}, {"rental_uris": {"android": "https://dc.lft.to/lastmile_qr_scan", "ios": "https://dc.lft.to/lastmile_qr_scan"}, "bike_id": "61a4e9e161cece17a8f5096a39cf25c3", "name": "61a4e9e161cece17a8f5096a39cf25c3", "type": "electric_scooter", "lon": -77.0637755, "lat": 38.944776166666664, "is_disabled": 0, "is_reserved": 0, "fusion_lat": 0.0, "fusion_lon": 0.0}, {"rental_uris": {"android": "https://dc.lft.to/lastmile_qr_scan", "ios": "https://dc.lft.to/lastmile_qr_scan"}, "bike_id": "08a68f42ef85faba08f992880600f610", "name": "08a68f42ef85faba08f992880600f610", "type": "electric_scooter", "lon": -77.01817016666666, "lat": 38.92110983333333, "is_disabled": 0, "is_reserved": 0, "fusion_lat": 0.0, "fusion_lon": 0.0}, {"rental_uris": {"android": "https://dc.lft.to/lastmile_qr_scan", "ios": "https://dc.lft.to/lastmile_qr_scan"}, "bike_id": "ea4defe7634885517a0a3209bc7cb103", "name": "ea4defe7634885517a0a3209bc7cb103", "type": "electric_scooter", "lon": -76.9313605, "lat": 38.89340116666666, "is_disabled": 0, "is_reserved": 0, "fusion_lat": 0.0, "fusion_lon": 0.0}, {"rental_uris": {"android": "https://dc.lft.to/lastmile_qr_scan", "ios": "https://dc.lft.to/lastmile_qr_scan"}, "bike_id": "b1be64d92da3b2becddbfcb544a96443", "name": "b1be64d92da3b2becddbfcb544a96443", "type": "electric_bike", "lon": -77.02626766666667, "lat": 38.9622005, "is_disabled": 0, "is_reserved": 0, "fusion_lat": 0.0, "fusion_lon": 0.0}, {"rental_uris": {"android": "https://dc.lft.to/lastmile_qr_scan", "ios": "https://dc.lft.to/lastmile_qr_scan"}, "bike_id": "d0646e1f60c5e5f16a5c29406482afb0", "name": "d0646e1f60c5e5f16a5c29406482afb0", "type": "electric_scooter", "lon": -77.03507466666667, "lat": 38.91710033333333, "is_disabled": 0, "is_reserved": 0, "fusion_lat": 0.0, "fusion_lon": 0.0}, {"rental_uris": {"android": "https://dc.lft.to/lastmile_qr_scan", "ios": "https://dc.lft.to/lastmile_qr_scan"}, "bike_id": "0150b92fbb5d3a084504da8fdbf678e1", "name": "0150b92fbb5d3a084504da8fdbf678e1", "type": "electric_scooter", "lon": -76.98694883333333, "lat": 38.86254116666667, "is_disabled": 0, "is_reserved": 0, "fusion_lat": 0.0, "fusion_lon": 0.0}, {"rental_uris": {"android": "https://dc.lft.to/lastmile_qr_scan", "ios": "https://dc.lft.to/lastmile_qr_scan"}, "bike_id": "de9ba33b2d42389565581297f828de74", "name": "de9ba33b2d42389565581297f828de74", "type": "electric_bike", "lon": -77.007422, "lat": 38.90958083333334, "is_disabled": 0, "is_reserved": 0, "fusion_lat": 0.0, "fusion_lon": 0.0}, {"rental_uris": {"android": "https://dc.lft.to/lastmile_qr_scan", "ios": "https://dc.lft.to/lastmile_qr_scan"}, "bike_id": "5144711b19a3217af5ce19780d80b8bb", "name": "5144711b19a3217af5ce19780d80b8bb", "type": "electric_scooter", "lon": -77.04509183333333, "lat": 38.90365, "is_disabled": 0, "is_reserved": 0, "fusion_lat": 0.0, "fusion_lon": 0.0}, {"rental_uris": {"android": "https://dc.lft.to/lastmile_qr_scan", "ios": "https://dc.lft.to/lastmile_qr_scan"}, "bike_id": "731f247f86d801cb7e7bce088f9ea534", "name": "731f247f86d801cb7e7bce088f9ea534", "type": "electric_scooter", "lon": -77.04328383333333, "lat": 38.892240666666666, "is_disabled": 0, "is_reserved": 0, "fusion_lat": 0.0, "fusion_lon": 0.0}, {"rental_uris": {"android": "https://dc.lft.to/lastmile_qr_scan", "ios": "https://dc.lft.to/lastmile_qr_scan"}, "bike_id": "f4e64024923458954e087ee02c4ae447", "name": "f4e64024923458954e087ee02c4ae447", "type": "electric_scooter", "lon": -77.04091983333333, "lat": 38.9240645, "is_disabled": 0, "is_reserved": 0, "fusion_lat": 0.0, "fusion_lon": 0.0}, {"rental_uris": {"android": "https://dc.lft.to/lastmile_qr_scan", "ios": "https://dc.lft.to/lastmile_qr_scan"}, "bike_id": "6c3dc01a73236327f03e8f9a6b66ebf5", "name": "6c3dc01a73236327f03e8f9a6b66ebf5", "type": "electric_scooter", "lon": -77.0020355, "lat": 38.895406666666666, "is_disabled": 0, "is_reserved": 0, "fusion_lat": 0.0, "fusion_lon": 0.0}, {"rental_uris": {"android": "https://dc.lft.to/lastmile_qr_scan", "ios": "https://dc.lft.to/lastmile_qr_scan"}, "bike_id": "dfa819014c1f4e6502e8954589ab10b5", "name": "dfa819014c1f4e6502e8954589ab10b5", "type": "electric_scooter", "lon": -76.98775483333333, "lat": 38.882913333333335, "is_disabled": 0, "is_reserved": 0, "fusion_lat": 0.0, "fusion_lon": 0.0}, {"rental_uris": {"android": "https://dc.lft.to/lastmile_qr_scan", "ios": "https://dc.lft.to/lastmile_qr_scan"}, "bike_id": "46e1247d9351f0e2c1f53d6967c3d9ba", "name": "46e1247d9351f0e2c1f53d6967c3d9ba", "type": "electric_scooter", "lon": -77.0332015, "lat": 38.92160666666667, "is_disabled": 0, "is_reserved": 0, "fusion_lat": 0.0, "fusion_lon": 0.0}, {"rental_uris": {"android": "https://dc.lft.to/lastmile_qr_scan", "ios": "https://dc.lft.to/lastmile_qr_scan"}, "bike_id": "281102b29f90340d70716c810f821297", "name": "281102b29f90340d70716c810f821297", "type": "electric_scooter", "lon": -76.993662, "lat": 38.92837133333333, "is_disabled": 0, "is_reserved": 0, "fusion_lat": 0.0, "fusion_lon": 0.0}, {"rental_uris": {"android": "https://dc.lft.to/lastmile_qr_scan", "ios": "https://dc.lft.to/lastmile_qr_scan"}, "bike_id": "54da827b00461a116239685556d4baa8", "name": "54da827b00461a116239685556d4baa8", "type": "electric_scooter", "lon": -77.029733, "lat": 38.9172395, "is_disabled": 0, "is_reserved": 0, "fusion_lat": 0.0, "fusion_lon": 0.0}, {"rental_uris": {"android": "https://dc.lft.to/lastmile_qr_scan", "ios": "https://dc.lft.to/lastmile_qr_scan"}, "bike_id": "f184c7059dd1f2ceae3df296cfb0c935", "name": "f184c7059dd1f2ceae3df296cfb0c935", "type": "electric_scooter", "lon": -77.05863483333333, "lat": 38.936071166666665, "is_disabled": 0, "is_reserved": 0, "fusion_lat": 0.0, "fusion_lon": 0.0}, {"rental_uris": {"android": "https://dc.lft.to/lastmile_qr_scan", "ios": "https://dc.lft.to/lastmile_qr_scan"}, "bike_id": "8ed6c2062aa86f1c4ef344714074a1fb", "name": "8ed6c2062aa86f1c4ef344714074a1fb", "type": "electric_scooter", "lon": -76.99385116666667, "lat": 38.90041816666667, "is_disabled": 0, "is_reserved": 0, "fusion_lat": 0.0, "fusion_lon": 0.0}, {"rental_uris": {"android": "https://dc.lft.to/lastmile_qr_scan", "ios": "https://dc.lft.to/lastmile_qr_scan"}, "bike_id": "02fd5dba595728c7616e524b6bc660de", "name": "02fd5dba595728c7616e524b6bc660de", "type": "electric_scooter", "lon": -77.00554633333333, "lat": 38.91184533333333, "is_disabled": 0, "is_reserved": 0, "fusion_lat": 0.0, "fusion_lon": 0.0}, {"rental_uris": {"android": "https://dc.lft.to/lastmile_qr_scan", "ios": "https://dc.lft.to/lastmile_qr_scan"}, "bike_id": "e40b9a6e56b9ec8536166da961860a58", "name": "e40b9a6e56b9ec8536166da961860a58", "type": "electric_bike", "lon": -77.18740166666667, "lat": 38.893519833333336, "is_disabled": 0, "is_reserved": 0, "fusion_lat": 0.0, "fusion_lon": 0.0}, {"rental_uris": {"android": "https://dc.lft.to/lastmile_qr_scan", "ios": "https://dc.lft.to/lastmile_qr_scan"}, "bike_id": "1ffa5787444c2b91a0ef697d3fe96c0f", "name": "1ffa5787444c2b91a0ef697d3fe96c0f", "type": "electric_scooter", "lon": -77.042318, "lat": 38.9111475, "is_disabled": 0, "is_reserved": 0, "fusion_lat": 0.0, "fusion_lon": 0.0}, {"rental_uris": {"android": "https://dc.lft.to/lastmile_qr_scan", "ios": "https://dc.lft.to/lastmile_qr_scan"}, "bike_id": "4af1bd0d4a7965bbd2b397b8a9b3600e", "name": "4af1bd0d4a7965bbd2b397b8a9b3600e", "type": "electric_scooter", "lon": -77.022029, "lat": 38.908358166666666, "is_disabled": 0, "is_reserved": 0, "fusion_lat": 0.0, "fusion_lon": 0.0}, {"rental_uris": {"android": "https://dc.lft.to/lastmile_qr_scan", "ios": "https://dc.lft.to/lastmile_qr_scan"}, "bike_id": "ad55695c2f25556c3fe06d5ae10d0966", "name": "ad55695c2f25556c3fe06d5ae10d0966", "type": "electric_bike", "lon": -77.00788516666667, "lat": 38.949193, "is_disabled": 0, "is_reserved": 0, "fusion_lat": 0.0, "fusion_lon": 0.0}, {"rental_uris": {"android": "https://dc.lft.to/lastmile_qr_scan", "ios": "https://dc.lft.to/lastmile_qr_scan"}, "bike_id": "83d4a80d46c47a48182c61b2291f5ef9", "name": "83d4a80d46c47a48182c61b2291f5ef9", "type": "electric_scooter", "lon": -77.043675, "lat": 38.892222, "is_disabled": 0, "is_reserved": 0, "fusion_lat": 0.0, "fusion_lon": 0.0}, {"rental_uris": {"android": "https://dc.lft.to/lastmile_qr_scan", "ios": "https://dc.lft.to/lastmile_qr_scan"}, "bike_id": "56c6f6ab537170acc4e8c88eb6399509", "name": "56c6f6ab537170acc4e8c88eb6399509", "type": "electric_bike", "lon": -77.02782016666667, "lat": 38.93966616666667, "is_disabled": 0, "is_reserved": 0, "fusion_lat": 0.0, "fusion_lon": 0.0}, {"rental_uris": {"android": "https://dc.lft.to/lastmile_qr_scan", "ios": "https://dc.lft.to/lastmile_qr_scan"}, "bike_id": "c0943183f32f16886e1f883f42116b0d", "name": "c0943183f32f16886e1f883f42116b0d", "type": "electric_bike", "lon": -77.04416033333334, "lat": 39.015642666666665, "is_disabled": 0, "is_reserved": 0, "fusion_lat": 0.0, "fusion_lon": 0.0}, {"rental_uris": {"android": "https://dc.lft.to/lastmile_qr_scan", "ios": "https://dc.lft.to/lastmile_qr_scan"}, "bike_id": "9ed34f84ce76d82836253ee7624ca7a7", "name": "9ed34f84ce76d82836253ee7624ca7a7", "type": "electric_scooter", "lon": -77.0177375, "lat": 38.87701583333333, "is_disabled": 0, "is_reserved": 0, "fusion_lat": 0.0, "fusion_lon": 0.0}, {"rental_uris": {"android": "https://dc.lft.to/lastmile_qr_scan", "ios": "https://dc.lft.to/lastmile_qr_scan"}, "bike_id": "a46df8b2ff70815b2060e023dd444041", "name": "a46df8b2ff70815b2060e023dd444041", "type": "electric_scooter", "lon": -77.0312265, "lat": 38.91555916666667, "is_disabled": 0, "is_reserved": 0, "fusion_lat": 0.0, "fusion_lon": 0.0}, {"rental_uris": {"android": "https://dc.lft.to/lastmile_qr_scan", "ios": "https://dc.lft.to/lastmile_qr_scan"}, "bike_id": "fdd1f1be599c35d72fe455dd2cd2afa9", "name": "fdd1f1be599c35d72fe455dd2cd2afa9", "type": "electric_scooter", "lon": -77.042787, "lat": 38.913371833333336, "is_disabled": 0, "is_reserved": 0, "fusion_lat": 0.0, "fusion_lon": 0.0}, {"rental_uris": {"android": "https://dc.lft.to/lastmile_qr_scan", "ios": "https://dc.lft.to/lastmile_qr_scan"}, "bike_id": "0394198bd515bb24e78f8c9c0013ad4a", "name": "0394198bd515bb24e78f8c9c0013ad4a", "type": "electric_scooter", "lon": -77.02966116666667, "lat": 38.923248666666666, "is_disabled": 0, "is_reserved": 0, "fusion_lat": 0.0, "fusion_lon": 0.0}, {"rental_uris": {"android": "https://dc.lft.to/lastmile_qr_scan", "ios": "https://dc.lft.to/lastmile_qr_scan"}, "bike_id": "c01621f8b1d8834322d2c5bb6b732225", "name": "c01621f8b1d8834322d2c5bb6b732225", "type": "electric_scooter", "lon": -77.04816983333333, "lat": 38.900690166666664, "is_disabled": 0, "is_reserved": 0, "fusion_lat": 0.0, "fusion_lon": 0.0}, {"rental_uris": {"android": "https://dc.lft.to/lastmile_qr_scan", "ios": "https://dc.lft.to/lastmile_qr_scan"}, "bike_id": "b3e4b09c447d2a350a40d6ce8bef90f0", "name": "b3e4b09c447d2a350a40d6ce8bef90f0", "type": "electric_scooter", "lon": -77.03703066666667, "lat": 38.926451666666665, "is_disabled": 0, "is_reserved": 0, "fusion_lat": 0.0, "fusion_lon": 0.0}, {"rental_uris": {"android": "https://dc.lft.to/lastmile_qr_scan", "ios": "https://dc.lft.to/lastmile_qr_scan"}, "bike_id": "a52cee6f2e1d2be784faf35aa5703f07", "name": "a52cee6f2e1d2be784faf35aa5703f07", "type": "electric_scooter", "lon": -77.0271605, "lat": 38.918149, "is_disabled": 0, "is_reserved": 0, "fusion_lat": 0.0, "fusion_lon": 0.0}, {"rental_uris": {"android": "https://dc.lft.to/lastmile_qr_scan", "ios": "https://dc.lft.to/lastmile_qr_scan"}, "bike_id": "5e07bbca36170b3db0e57600a7f2f323", "name": "5e07bbca36170b3db0e57600a7f2f323", "type": "electric_scooter", "lon": -77.05859066666666, "lat": 38.936019, "is_disabled": 0, "is_reserved": 0, "fusion_lat": 0.0, "fusion_lon": 0.0}, {"rental_uris": {"android": "https://dc.lft.to/lastmile_qr_scan", "ios": "https://dc.lft.to/lastmile_qr_scan"}, "bike_id": "3614332ee8830cd9fb38cc2b1db1f51b", "name": "3614332ee8830cd9fb38cc2b1db1f51b", "type": "electric_scooter", "lon": -77.0576435, "lat": 38.933845, "is_disabled": 0, "is_reserved": 0, "fusion_lat": 0.0, "fusion_lon": 0.0}, {"rental_uris": {"android": "https://dc.lft.to/lastmile_qr_scan", "ios": "https://dc.lft.to/lastmile_qr_scan"}, "bike_id": "cc72db82b4529470feb53fd4383e7a5b", "name": "cc72db82b4529470feb53fd4383e7a5b", "type": "electric_scooter", "lon": -77.05013883333334, "lat": 38.90622783333333, "is_disabled": 0, "is_reserved": 0, "fusion_lat": 0.0, "fusion_lon": 0.0}, {"rental_uris": {"android": "https://dc.lft.to/lastmile_qr_scan", "ios": "https://dc.lft.to/lastmile_qr_scan"}, "bike_id": "a69c805c2c5c293c502cb8649918671e", "name": "a69c805c2c5c293c502cb8649918671e", "type": "electric_scooter", "lon": -77.0296385, "lat": 38.923701333333334, "is_disabled": 0, "is_reserved": 0, "fusion_lat": 0.0, "fusion_lon": 0.0}, {"rental_uris": {"android": "https://dc.lft.to/lastmile_qr_scan", "ios": "https://dc.lft.to/lastmile_qr_scan"}, "bike_id": "bf0ef56d567cbbed55b2439db2774633", "name": "bf0ef56d567cbbed55b2439db2774633", "type": "electric_scooter", "lon": -77.02395966666667, "lat": 38.919595, "is_disabled": 0, "is_reserved": 0, "fusion_lat": 0.0, "fusion_lon": 0.0}, {"rental_uris": {"android": "https://dc.lft.to/lastmile_qr_scan", "ios": "https://dc.lft.to/lastmile_qr_scan"}, "bike_id": "4017936386b8effe53b247817262db15", "name": "4017936386b8effe53b247817262db15", "type": "electric_scooter", "lon": -77.03247416666666, "lat": 38.911877833333335, "is_disabled": 0, "is_reserved": 0, "fusion_lat": 0.0, "fusion_lon": 0.0}, {"rental_uris": {"android": "https://dc.lft.to/lastmile_qr_scan", "ios": "https://dc.lft.to/lastmile_qr_scan"}, "bike_id": "05075a00ef75dfb0f4c0540ae558cc83", "name": "05075a00ef75dfb0f4c0540ae558cc83", "type": "electric_scooter", "lon": -77.044454, "lat": 38.903557666666664, "is_disabled": 0, "is_reserved": 0, "fusion_lat": 0.0, "fusion_lon": 0.0}, {"rental_uris": {"android": "https://dc.lft.to/lastmile_qr_scan", "ios": "https://dc.lft.to/lastmile_qr_scan"}, "bike_id": "eddb0004f2f60f2331cc015fb8b36da0", "name": "eddb0004f2f60f2331cc015fb8b36da0", "type": "electric_bike", "lon": -76.97889533333333, "lat": 38.91586016666667, "is_disabled": 0, "is_reserved": 0, "fusion_lat": 0.0, "fusion_lon": 0.0}, {"rental_uris": {"android": "https://dc.lft.to/lastmile_qr_scan", "ios": "https://dc.lft.to/lastmile_qr_scan"}, "bike_id": "09602e48139f158caca4ac7e9b196cc9", "name": "09602e48139f158caca4ac7e9b196cc9", "type": "electric_bike", "lon": -77.1784015, "lat": 39.088567166666664, "is_disabled": 0, "is_reserved": 0, "fusion_lat": 0.0, "fusion_lon": 0.0}, {"rental_uris": {"android": "https://dc.lft.to/lastmile_qr_scan", "ios": "https://dc.lft.to/lastmile_qr_scan"}, "bike_id": "d2793de8cedcd821af0f55a7b621ea9c", "name": "d2793de8cedcd821af0f55a7b621ea9c", "type": "electric_scooter", "lon": -77.02314783333334, "lat": 38.89675883333334, "is_disabled": 0, "is_reserved": 0, "fusion_lat": 0.0, "fusion_lon": 0.0}, {"rental_uris": {"android": "https://dc.lft.to/lastmile_qr_scan", "ios": "https://dc.lft.to/lastmile_qr_scan"}, "bike_id": "9907c103f58874618db537bd93193aff", "name": "9907c103f58874618db537bd93193aff", "type": "electric_bike", "lon": -77.0175675, "lat": 38.88198533333333, "is_disabled": 0, "is_reserved": 0, "fusion_lat": 0.0, "fusion_lon": 0.0}, {"rental_uris": {"android": "https://dc.lft.to/lastmile_qr_scan", "ios": "https://dc.lft.to/lastmile_qr_scan"}, "bike_id": "9f44580f0ffcb5ae2d81d1a8d559ba02", "name": "9f44580f0ffcb5ae2d81d1a8d559ba02", "type": "electric_scooter", "lon": -76.93991433333333, "lat": 38.899797, "is_disabled": 0, "is_reserved": 0, "fusion_lat": 0.0, "fusion_lon": 0.0}, {"rental_uris": {"android": "https://dc.lft.to/lastmile_qr_scan", "ios": "https://dc.lft.to/lastmile_qr_scan"}, "bike_id": "fed1d1d1b2899b64086f2a2cf323f42f", "name": "fed1d1d1b2899b64086f2a2cf323f42f", "type": "electric_bike", "lon": -77.22222983333333, "lat": 38.92850966666666, "is_disabled": 0, "is_reserved": 0, "fusion_lat": 0.0, "fusion_lon": 0.0}, {"rental_uris": {"android": "https://dc.lft.to/lastmile_qr_scan", "ios": "https://dc.lft.to/lastmile_qr_scan"}, "bike_id": "436a944d9d669fdf46175230c51551eb", "name": "436a944d9d669fdf46175230c51551eb", "type": "electric_scooter", "lon": -77.03261183333333, "lat": 38.932394333333335, "is_disabled": 0, "is_reserved": 0, "fusion_lat": 0.0, "fusion_lon": 0.0}, {"rental_uris": {"android": "https://dc.lft.to/lastmile_qr_scan", "ios": "https://dc.lft.to/lastmile_qr_scan"}, "bike_id": "8140523b2f5be8202d267c51c3f7696d", "name": "8140523b2f5be8202d267c51c3f7696d", "type": "electric_bike", "lon": -76.96525316666667, "lat": 38.874792, "is_disabled": 0, "is_reserved": 0, "fusion_lat": 0.0, "fusion_lon": 0.0}, {"rental_uris": {"android": "https://dc.lft.to/lastmile_qr_scan", "ios": "https://dc.lft.to/lastmile_qr_scan"}, "bike_id": "5573cc7f154f968645a822db043a8ed3", "name": "5573cc7f154f968645a822db043a8ed3", "type": "electric_scooter", "lon": -77.02017366666666, "lat": 38.900836, "is_disabled": 0, "is_reserved": 0, "fusion_lat": 0.0, "fusion_lon": 0.0}, {"rental_uris": {"android": "https://dc.lft.to/lastmile_qr_scan", "ios": "https://dc.lft.to/lastmile_qr_scan"}, "bike_id": "d49a1bfa2697639c410d6714eb65041e", "name": "d49a1bfa2697639c410d6714eb65041e", "type": "electric_scooter", "lon": -77.04174166666667, "lat": 38.916740833333336, "is_disabled": 0, "is_reserved": 0, "fusion_lat": 0.0, "fusion_lon": 0.0}, {"rental_uris": {"android": "https://dc.lft.to/lastmile_qr_scan", "ios": "https://dc.lft.to/lastmile_qr_scan"}, "bike_id": "7864ca4e4dd7534a61a21de8a49bbb3c", "name": "7864ca4e4dd7534a61a21de8a49bbb3c", "type": "electric_scooter", "lon": -77.0242175, "lat": 38.905894833333335, "is_disabled": 0, "is_reserved": 0, "fusion_lat": 0.0, "fusion_lon": 0.0}, {"rental_uris": {"android": "https://dc.lft.to/lastmile_qr_scan", "ios": "https://dc.lft.to/lastmile_qr_scan"}, "bike_id": "0750438086702174941cc5a8709d87cd", "name": "0750438086702174941cc5a8709d87cd", "type": "electric_scooter", "lon": -77.03211283333333, "lat": 38.9142805, "is_disabled": 0, "is_reserved": 0, "fusion_lat": 0.0, "fusion_lon": 0.0}, {"rental_uris": {"android": "https://dc.lft.to/lastmile_qr_scan", "ios": "https://dc.lft.to/lastmile_qr_scan"}, "bike_id": "91b9e08497fa96885912eaccc48dc485", "name": "91b9e08497fa96885912eaccc48dc485", "type": "electric_bike", "lon": -76.9935305, "lat": 38.8450595, "is_disabled": 0, "is_reserved": 0, "fusion_lat": 0.0, "fusion_lon": 0.0}, {"rental_uris": {"android": "https://dc.lft.to/lastmile_qr_scan", "ios": "https://dc.lft.to/lastmile_qr_scan"}, "bike_id": "db60f113efc8245741195a011782c7d4", "name": "db60f113efc8245741195a011782c7d4", "type": "electric_bike", "lon": -77.03006516666666, "lat": 38.99145933333333, "is_disabled": 0, "is_reserved": 0, "fusion_lat": 0.0, "fusion_lon": 0.0}, {"rental_uris": {"android": "https://dc.lft.to/lastmile_qr_scan", "ios": "https://dc.lft.to/lastmile_qr_scan"}, "bike_id": "614b98c66b316d3aea56dd7d71afd628", "name": "614b98c66b316d3aea56dd7d71afd628", "type": "electric_scooter", "lon": -77.055312, "lat": 38.92983533333334, "is_disabled": 0, "is_reserved": 0, "fusion_lat": 0.0, "fusion_lon": 0.0}, {"rental_uris": {"android": "https://dc.lft.to/lastmile_qr_scan", "ios": "https://dc.lft.to/lastmile_qr_scan"}, "bike_id": "8d4f46a8e6399973f0776a146291ea00", "name": "8d4f46a8e6399973f0776a146291ea00", "type": "electric_scooter", "lon": -77.03368066666667, "lat": 38.920449, "is_disabled": 0, "is_reserved": 0, "fusion_lat": 0.0, "fusion_lon": 0.0}, {"rental_uris": {"android": "https://dc.lft.to/lastmile_qr_scan", "ios": "https://dc.lft.to/lastmile_qr_scan"}, "bike_id": "34348a0f7aa6c4703f6014650e6f5940", "name": "34348a0f7aa6c4703f6014650e6f5940", "type": "electric_scooter", "lon": -77.00726, "lat": 38.8849155, "is_disabled": 0, "is_reserved": 0, "fusion_lat": 0.0, "fusion_lon": 0.0}, {"rental_uris": {"android": "https://dc.lft.to/lastmile_qr_scan", "ios": "https://dc.lft.to/lastmile_qr_scan"}, "bike_id": "81cd1c39ec2629a14ad90f1e87b8092f", "name": "81cd1c39ec2629a14ad90f1e87b8092f", "type": "electric_scooter", "lon": -77.02719583333334, "lat": 38.906685333333336, "is_disabled": 0, "is_reserved": 0, "fusion_lat": 0.0, "fusion_lon": 0.0}, {"rental_uris": {"android": "https://dc.lft.to/lastmile_qr_scan", "ios": "https://dc.lft.to/lastmile_qr_scan"}, "bike_id": "941ec222ad504511d8ac27257c60069d", "name": "941ec222ad504511d8ac27257c60069d", "type": "electric_scooter", "lon": -77.02226266666666, "lat": 38.8787845, "is_disabled": 0, "is_reserved": 0, "fusion_lat": 0.0, "fusion_lon": 0.0}, {"rental_uris": {"android": "https://dc.lft.to/lastmile_qr_scan", "ios": "https://dc.lft.to/lastmile_qr_scan"}, "bike_id": "a9b07cae54fb8d22070b2afad6f28f97", "name": "a9b07cae54fb8d22070b2afad6f28f97", "type": "electric_scooter", "lon": -77.02014616666666, "lat": 38.87916516666667, "is_disabled": 0, "is_reserved": 0, "fusion_lat": 0.0, "fusion_lon": 0.0}, {"rental_uris": {"android": "https://dc.lft.to/lastmile_qr_scan", "ios": "https://dc.lft.to/lastmile_qr_scan"}, "bike_id": "34d975e4d6d684e6ba13ba40486861b8", "name": "34d975e4d6d684e6ba13ba40486861b8", "type": "electric_scooter", "lon": -77.02957766666667, "lat": 38.89884416666666, "is_disabled": 0, "is_reserved": 0, "fusion_lat": 0.0, "fusion_lon": 0.0}, {"rental_uris": {"android": "https://dc.lft.to/lastmile_qr_scan", "ios": "https://dc.lft.to/lastmile_qr_scan"}, "bike_id": "8d3395ca190a9398b99226c1691d1484", "name": "8d3395ca190a9398b99226c1691d1484", "type": "electric_scooter", "lon": -77.046533, "lat": 38.900746166666664, "is_disabled": 0, "is_reserved": 0, "fusion_lat": 0.0, "fusion_lon": 0.0}, {"rental_uris": {"android": "https://dc.lft.to/lastmile_qr_scan", "ios": "https://dc.lft.to/lastmile_qr_scan"}, "bike_id": "ac4ff02e768962fcfe121500e12935b2", "name": "ac4ff02e768962fcfe121500e12935b2", "type": "electric_bike", "lon": -77.066921, "lat": 38.83178983333333, "is_disabled": 0, "is_reserved": 0, "fusion_lat": 0.0, "fusion_lon": 0.0}, {"rental_uris": {"android": "https://dc.lft.to/lastmile_qr_scan", "ios": "https://dc.lft.to/lastmile_qr_scan"}, "bike_id": "e40c08c8207826f7522ea3d13db0cedf", "name": "e40c08c8207826f7522ea3d13db0cedf", "type": "electric_scooter", "lon": -77.031837, "lat": 38.9036995, "is_disabled": 0, "is_reserved": 0, "fusion_lat": 0.0, "fusion_lon": 0.0}, {"rental_uris": {"android": "https://dc.lft.to/lastmile_qr_scan", "ios": "https://dc.lft.to/lastmile_qr_scan"}, "bike_id": "f67aae9a2606d4d69f54434315a0dd71", "name": "f67aae9a2606d4d69f54434315a0dd71", "type": "electric_scooter", "lon": -77.024128, "lat": 38.88676366666667, "is_disabled": 0, "is_reserved": 0, "fusion_lat": 0.0, "fusion_lon": 0.0}, {"rental_uris": {"android": "https://dc.lft.to/lastmile_qr_scan", "ios": "https://dc.lft.to/lastmile_qr_scan"}, "bike_id": "916f4fd7095b2d1270993b4966da608a", "name": "916f4fd7095b2d1270993b4966da608a", "type": "electric_scooter", "lon": -77.02134383333333, "lat": 38.92486266666667, "is_disabled": 0, "is_reserved": 0, "fusion_lat": 0.0, "fusion_lon": 0.0}, {"rental_uris": {"android": "https://dc.lft.to/lastmile_qr_scan", "ios": "https://dc.lft.to/lastmile_qr_scan"}, "bike_id": "81c53c9e73105f12dc5e5fdbe373b647", "name": "81c53c9e73105f12dc5e5fdbe373b647", "type": "electric_scooter", "lon": -77.06412416666667, "lat": 38.912975, "is_disabled": 0, "is_reserved": 0, "fusion_lat": 0.0, "fusion_lon": 0.0}, {"rental_uris": {"android": "https://dc.lft.to/lastmile_qr_scan", "ios": "https://dc.lft.to/lastmile_qr_scan"}, "bike_id": "74d90bcde7caba781dddfbc37df11743", "name": "74d90bcde7caba781dddfbc37df11743", "type": "electric_scooter", "lon": -77.03840666666666, "lat": 38.903103333333334, "is_disabled": 0, "is_reserved": 0, "fusion_lat": 0.0, "fusion_lon": 0.0}, {"rental_uris": {"android": "https://dc.lft.to/lastmile_qr_scan", "ios": "https://dc.lft.to/lastmile_qr_scan"}, "bike_id": "5e5ed0383402d75d6fb38de3371951ab", "name": "5e5ed0383402d75d6fb38de3371951ab", "type": "electric_bike", "lon": -76.945697, "lat": 38.937480666666666, "is_disabled": 0, "is_reserved": 0, "fusion_lat": 0.0, "fusion_lon": 0.0}, {"rental_uris": {"android": "https://dc.lft.to/lastmile_qr_scan", "ios": "https://dc.lft.to/lastmile_qr_scan"}, "bike_id": "1cc69ae55890ab98c0cf8dbe0175accb", "name": "1cc69ae55890ab98c0cf8dbe0175accb", "type": "electric_scooter", "lon": -76.99267116666667, "lat": 38.900394666666664, "is_disabled": 0, "is_reserved": 0, "fusion_lat": 0.0, "fusion_lon": 0.0}, {"rental_uris": {"android": "https://dc.lft.to/lastmile_qr_scan", "ios": "https://dc.lft.to/lastmile_qr_scan"}, "bike_id": "934d7c064e96f286a8b4b8f61d013419", "name": "934d7c064e96f286a8b4b8f61d013419", "type": "electric_scooter", "lon": -76.98711233333333, "lat": 38.866998833333334, "is_disabled": 0, "is_reserved": 0, "fusion_lat": 0.0, "fusion_lon": 0.0}, {"rental_uris": {"android": "https://dc.lft.to/lastmile_qr_scan", "ios": "https://dc.lft.to/lastmile_qr_scan"}, "bike_id": "3a0ff0c4983a17ef4c67701adeccf842", "name": "3a0ff0c4983a17ef4c67701adeccf842", "type": "electric_scooter", "lon": -77.02824666666666, "lat": 38.914037666666665, "is_disabled": 0, "is_reserved": 0, "fusion_lat": 0.0, "fusion_lon": 0.0}, {"rental_uris": {"android": "https://dc.lft.to/lastmile_qr_scan", "ios": "https://dc.lft.to/lastmile_qr_scan"}, "bike_id": "6f5a935da095a27c032f56a1da3d0e8b", "name": "6f5a935da095a27c032f56a1da3d0e8b", "type": "electric_scooter", "lon": -77.03829616666667, "lat": 38.9034895, "is_disabled": 0, "is_reserved": 0, "fusion_lat": 0.0, "fusion_lon": 0.0}, {"rental_uris": {"android": "https://dc.lft.to/lastmile_qr_scan", "ios": "https://dc.lft.to/lastmile_qr_scan"}, "bike_id": "4348d677dba0e2660a7891dda8889137", "name": "4348d677dba0e2660a7891dda8889137", "type": "electric_scooter", "lon": -77.02213216666667, "lat": 38.9142575, "is_disabled": 0, "is_reserved": 0, "fusion_lat": 0.0, "fusion_lon": 0.0}, {"rental_uris": {"android": "https://dc.lft.to/lastmile_qr_scan", "ios": "https://dc.lft.to/lastmile_qr_scan"}, "bike_id": "cbe808ada535d83f5502caa24a1cfbf4", "name": "cbe808ada535d83f5502caa24a1cfbf4", "type": "electric_scooter", "lon": -76.94840683333334, "lat": 38.8958785, "is_disabled": 0, "is_reserved": 0, "fusion_lat": 0.0, "fusion_lon": 0.0}, {"rental_uris": {"android": "https://dc.lft.to/lastmile_qr_scan", "ios": "https://dc.lft.to/lastmile_qr_scan"}, "bike_id": "877fd1d9f177afe820cf9d2b0d7c75aa", "name": "877fd1d9f177afe820cf9d2b0d7c75aa", "type": "electric_scooter", "lon": -77.045142, "lat": 38.9026635, "is_disabled": 0, "is_reserved": 0, "fusion_lat": 0.0, "fusion_lon": 0.0}, {"rental_uris": {"android": "https://dc.lft.to/lastmile_qr_scan", "ios": "https://dc.lft.to/lastmile_qr_scan"}, "bike_id": "6af24147293047ddbb68471aeda87e92", "name": "6af24147293047ddbb68471aeda87e92", "type": "electric_scooter", "lon": -77.03124016666666, "lat": 38.91559683333333, "is_disabled": 0, "is_reserved": 0, "fusion_lat": 0.0, "fusion_lon": 0.0}, {"rental_uris": {"android": "https://dc.lft.to/lastmile_qr_scan", "ios": "https://dc.lft.to/lastmile_qr_scan"}, "bike_id": "b39aeb63cfa03ddf6d2cf4e45cda856e", "name": "b39aeb63cfa03ddf6d2cf4e45cda856e", "type": "electric_scooter", "lon": -77.017582, "lat": 38.902275, "is_disabled": 0, "is_reserved": 0, "fusion_lat": 0.0, "fusion_lon": 0.0}, {"rental_uris": {"android": "https://dc.lft.to/lastmile_qr_scan", "ios": "https://dc.lft.to/lastmile_qr_scan"}, "bike_id": "75f27cc650ac0450383c9e813efa44ac", "name": "75f27cc650ac0450383c9e813efa44ac", "type": "electric_scooter", "lon": -77.02386433333334, "lat": 38.9168015, "is_disabled": 0, "is_reserved": 0, "fusion_lat": 0.0, "fusion_lon": 0.0}, {"rental_uris": {"android": "https://dc.lft.to/lastmile_qr_scan", "ios": "https://dc.lft.to/lastmile_qr_scan"}, "bike_id": "32fcb8562aea563408200659413ec8e0", "name": "32fcb8562aea563408200659413ec8e0", "type": "electric_scooter", "lon": -77.02774133333334, "lat": 38.916926, "is_disabled": 0, "is_reserved": 0, "fusion_lat": 0.0, "fusion_lon": 0.0}, {"rental_uris": {"android": "https://dc.lft.to/lastmile_qr_scan", "ios": "https://dc.lft.to/lastmile_qr_scan"}, "bike_id": "49d6f80fb6a2007f5963a9627a68c39a", "name": "49d6f80fb6a2007f5963a9627a68c39a", "type": "electric_scooter", "lon": -77.03496583333333, "lat": 38.92480333333334, "is_disabled": 0, "is_reserved": 0, "fusion_lat": 0.0, "fusion_lon": 0.0}, {"rental_uris": {"android": "https://dc.lft.to/lastmile_qr_scan", "ios": "https://dc.lft.to/lastmile_qr_scan"}, "bike_id": "44bd5125d7e921ef06136122eb06c934", "name": "44bd5125d7e921ef06136122eb06c934", "type": "electric_scooter", "lon": -77.003786, "lat": 38.876373666666666, "is_disabled": 0, "is_reserved": 0, "fusion_lat": 0.0, "fusion_lon": 0.0}, {"rental_uris": {"android": "https://dc.lft.to/lastmile_qr_scan", "ios": "https://dc.lft.to/lastmile_qr_scan"}, "bike_id": "f7626966e1fc82d5f93a67b286b7f6d4", "name": "f7626966e1fc82d5f93a67b286b7f6d4", "type": "electric_scooter", "lon": -77.03540383333333, "lat": 38.92405316666667, "is_disabled": 0, "is_reserved": 0, "fusion_lat": 0.0, "fusion_lon": 0.0}, {"rental_uris": {"android": "https://dc.lft.to/lastmile_qr_scan", "ios": "https://dc.lft.to/lastmile_qr_scan"}, "bike_id": "82a564f6ae8862c6c87ec1c423fe9796", "name": "82a564f6ae8862c6c87ec1c423fe9796", "type": "electric_scooter", "lon": -76.97741883333333, "lat": 38.86834966666667, "is_disabled": 0, "is_reserved": 0, "fusion_lat": 0.0, "fusion_lon": 0.0}, {"rental_uris": {"android": "https://dc.lft.to/lastmile_qr_scan", "ios": "https://dc.lft.to/lastmile_qr_scan"}, "bike_id": "86635093cf805658721f391a973cdf4a", "name": "86635093cf805658721f391a973cdf4a", "type": "electric_scooter", "lon": -77.04477116666666, "lat": 38.92136883333333, "is_disabled": 0, "is_reserved": 0, "fusion_lat": 0.0, "fusion_lon": 0.0}, {"rental_uris": {"android": "https://dc.lft.to/lastmile_qr_scan", "ios": "https://dc.lft.to/lastmile_qr_scan"}, "bike_id": "1cd3d5a928cbb0f830ac22ea783b75fc", "name": "1cd3d5a928cbb0f830ac22ea783b75fc", "type": "electric_scooter", "lon": -77.02978216666666, "lat": 38.951971, "is_disabled": 0, "is_reserved": 0, "fusion_lat": 0.0, "fusion_lon": 0.0}, {"rental_uris": {"android": "https://dc.lft.to/lastmile_qr_scan", "ios": "https://dc.lft.to/lastmile_qr_scan"}, "bike_id": "dbddad311f2778ce633f488ce1d25fae", "name": "dbddad311f2778ce633f488ce1d25fae", "type": "electric_scooter", "lon": -77.02707833333334, "lat": 38.909073666666664, "is_disabled": 0, "is_reserved": 0, "fusion_lat": 0.0, "fusion_lon": 0.0}, {"rental_uris": {"android": "https://dc.lft.to/lastmile_qr_scan", "ios": "https://dc.lft.to/lastmile_qr_scan"}, "bike_id": "fa01b39d59f47b72b97ef18ef5385b3d", "name": "fa01b39d59f47b72b97ef18ef5385b3d", "type": "electric_scooter", "lon": -77.03772933333333, "lat": 38.91694, "is_disabled": 0, "is_reserved": 0, "fusion_lat": 0.0, "fusion_lon": 0.0}, {"rental_uris": {"android": "https://dc.lft.to/lastmile_qr_scan", "ios": "https://dc.lft.to/lastmile_qr_scan"}, "bike_id": "38a82e4ffbc9f06e2e8cb445073c5fac", "name": "38a82e4ffbc9f06e2e8cb445073c5fac", "type": "electric_scooter", "lon": -77.0219585, "lat": 38.895604666666664, "is_disabled": 0, "is_reserved": 0, "fusion_lat": 0.0, "fusion_lon": 0.0}, {"rental_uris": {"android": "https://dc.lft.to/lastmile_qr_scan", "ios": "https://dc.lft.to/lastmile_qr_scan"}, "bike_id": "f5f908ceb5e4ec95e3d5f13419c326ee", "name": "f5f908ceb5e4ec95e3d5f13419c326ee", "type": "electric_scooter", "lon": -77.03858083333333, "lat": 38.907796833333336, "is_disabled": 0, "is_reserved": 0, "fusion_lat": 0.0, "fusion_lon": 0.0}, {"rental_uris": {"android": "https://dc.lft.to/lastmile_qr_scan", "ios": "https://dc.lft.to/lastmile_qr_scan"}, "bike_id": "d649291ad642909a6fd078c49b876da0", "name": "d649291ad642909a6fd078c49b876da0", "type": "electric_scooter", "lon": -77.02561233333333, "lat": 38.9181345, "is_disabled": 0, "is_reserved": 0, "fusion_lat": 0.0, "fusion_lon": 0.0}, {"rental_uris": {"android": "https://dc.lft.to/lastmile_qr_scan", "ios": "https://dc.lft.to/lastmile_qr_scan"}, "bike_id": "3f8f99ef063a3e21cd2e31f4ba5725a1", "name": "3f8f99ef063a3e21cd2e31f4ba5725a1", "type": "electric_scooter", "lon": -77.02695033333333, "lat": 38.91132566666667, "is_disabled": 0, "is_reserved": 0, "fusion_lat": 0.0, "fusion_lon": 0.0}, {"rental_uris": {"android": "https://dc.lft.to/lastmile_qr_scan", "ios": "https://dc.lft.to/lastmile_qr_scan"}, "bike_id": "9de06c53158d3ef073597e4ceb36d01a", "name": "9de06c53158d3ef073597e4ceb36d01a", "type": "electric_bike", "lon": -76.98514933333334, "lat": 38.880711833333336, "is_disabled": 0, "is_reserved": 0, "fusion_lat": 0.0, "fusion_lon": 0.0}, {"rental_uris": {"android": "https://dc.lft.to/lastmile_qr_scan", "ios": "https://dc.lft.to/lastmile_qr_scan"}, "bike_id": "82ba786dbba062162804bde60e93435e", "name": "82ba786dbba062162804bde60e93435e", "type": "electric_scooter", "lon": -76.95754766666667, "lat": 38.884336, "is_disabled": 0, "is_reserved": 0, "fusion_lat": 0.0, "fusion_lon": 0.0}, {"rental_uris": {"android": "https://dc.lft.to/lastmile_qr_scan", "ios": "https://dc.lft.to/lastmile_qr_scan"}, "bike_id": "510ee061d6adfd2a571ddabdcbf48e5d", "name": "510ee061d6adfd2a571ddabdcbf48e5d", "type": "electric_bike", "lon": -76.97826066666667, "lat": 38.84369233333334, "is_disabled": 0, "is_reserved": 0, "fusion_lat": 0.0, "fusion_lon": 0.0}, {"rental_uris": {"android": "https://dc.lft.to/lastmile_qr_scan", "ios": "https://dc.lft.to/lastmile_qr_scan"}, "bike_id": "1198bc2c00026abac1f6606610e5e885", "name": "1198bc2c00026abac1f6606610e5e885", "type": "electric_scooter", "lon": -77.02816583333333, "lat": 38.914249833333336, "is_disabled": 0, "is_reserved": 0, "fusion_lat": 0.0, "fusion_lon": 0.0}, {"rental_uris": {"android": "https://dc.lft.to/lastmile_qr_scan", "ios": "https://dc.lft.to/lastmile_qr_scan"}, "bike_id": "a8bef64e681ebf2700192bb40c259d13", "name": "a8bef64e681ebf2700192bb40c259d13", "type": "electric_scooter", "lon": -76.937527, "lat": 38.890424833333334, "is_disabled": 0, "is_reserved": 0, "fusion_lat": 0.0, "fusion_lon": 0.0}, {"rental_uris": {"android": "https://dc.lft.to/lastmile_qr_scan", "ios": "https://dc.lft.to/lastmile_qr_scan"}, "bike_id": "729f43d091aaea2e4c3e466788c18ad4", "name": "729f43d091aaea2e4c3e466788c18ad4", "type": "electric_scooter", "lon": -77.0345835, "lat": 38.907600333333335, "is_disabled": 0, "is_reserved": 0, "fusion_lat": 0.0, "fusion_lon": 0.0}, {"rental_uris": {"android": "https://dc.lft.to/lastmile_qr_scan", "ios": "https://dc.lft.to/lastmile_qr_scan"}, "bike_id": "33e51adbf596e4294a3df84c5f42aa4e", "name": "33e51adbf596e4294a3df84c5f42aa4e", "type": "electric_scooter", "lon": -77.02178883333333, "lat": 38.916696, "is_disabled": 0, "is_reserved": 0, "fusion_lat": 0.0, "fusion_lon": 0.0}, {"rental_uris": {"android": "https://dc.lft.to/lastmile_qr_scan", "ios": "https://dc.lft.to/lastmile_qr_scan"}, "bike_id": "f8b574b9736a5db484aa09d1277d5ad1", "name": "f8b574b9736a5db484aa09d1277d5ad1", "type": "electric_scooter", "lon": -77.032346, "lat": 38.91708666666667, "is_disabled": 0, "is_reserved": 0, "fusion_lat": 0.0, "fusion_lon": 0.0}, {"rental_uris": {"android": "https://dc.lft.to/lastmile_qr_scan", "ios": "https://dc.lft.to/lastmile_qr_scan"}, "bike_id": "609dba20cfae8ea5e85adaec9e638421", "name": "609dba20cfae8ea5e85adaec9e638421", "type": "electric_bike", "lon": -76.97090466666667, "lat": 38.85713616666666, "is_disabled": 0, "is_reserved": 0, "fusion_lat": 0.0, "fusion_lon": 0.0}, {"rental_uris": {"android": "https://dc.lft.to/lastmile_qr_scan", "ios": "https://dc.lft.to/lastmile_qr_scan"}, "bike_id": "15321663f04f8ac6e10759cc8c136bc1", "name": "15321663f04f8ac6e10759cc8c136bc1", "type": "electric_scooter", "lon": -77.03381383333334, "lat": 38.90126683333333, "is_disabled": 0, "is_reserved": 0, "fusion_lat": 0.0, "fusion_lon": 0.0}, {"rental_uris": {"android": "https://dc.lft.to/lastmile_qr_scan", "ios": "https://dc.lft.to/lastmile_qr_scan"}, "bike_id": "bfb073fef26c3125c1bc43bafef8dbcb", "name": "bfb073fef26c3125c1bc43bafef8dbcb", "type": "electric_scooter", "lon": -76.99777733333333, "lat": 38.84424766666667, "is_disabled": 0, "is_reserved": 0, "fusion_lat": 0.0, "fusion_lon": 0.0}, {"rental_uris": {"android": "https://dc.lft.to/lastmile_qr_scan", "ios": "https://dc.lft.to/lastmile_qr_scan"}, "bike_id": "13b5b4d62c55155d4669b4294ac8972b", "name": "13b5b4d62c55155d4669b4294ac8972b", "type": "electric_scooter", "lon": -77.03496916666667, "lat": 38.9170765, "is_disabled": 0, "is_reserved": 0, "fusion_lat": 0.0, "fusion_lon": 0.0}, {"rental_uris": {"android": "https://dc.lft.to/lastmile_qr_scan", "ios": "https://dc.lft.to/lastmile_qr_scan"}, "bike_id": "192989608a6bbb62601b012bf84b0898", "name": "192989608a6bbb62601b012bf84b0898", "type": "electric_scooter", "lon": -76.99777033333334, "lat": 38.84429016666667, "is_disabled": 0, "is_reserved": 0, "fusion_lat": 0.0, "fusion_lon": 0.0}, {"rental_uris": {"android": "https://dc.lft.to/lastmile_qr_scan", "ios": "https://dc.lft.to/lastmile_qr_scan"}, "bike_id": "9d78e70bec0d963a9fefa42515348f7f", "name": "9d78e70bec0d963a9fefa42515348f7f", "type": "electric_scooter", "lon": -76.94638366666666, "lat": 38.89844133333333, "is_disabled": 0, "is_reserved": 0, "fusion_lat": 0.0, "fusion_lon": 0.0}, {"rental_uris": {"android": "https://dc.lft.to/lastmile_qr_scan", "ios": "https://dc.lft.to/lastmile_qr_scan"}, "bike_id": "68fff1aab522841d6d85d0da190c8cba", "name": "68fff1aab522841d6d85d0da190c8cba", "type": "electric_scooter", "lon": -77.01231633333333, "lat": 38.931095166666665, "is_disabled": 0, "is_reserved": 0, "fusion_lat": 0.0, "fusion_lon": 0.0}, {"rental_uris": {"android": "https://dc.lft.to/lastmile_qr_scan", "ios": "https://dc.lft.to/lastmile_qr_scan"}, "bike_id": "5b94c720ba953d43dfe7634627ddf65a", "name": "5b94c720ba953d43dfe7634627ddf65a", "type": "electric_scooter", "lon": -76.95015916666667, "lat": 38.8938885, "is_disabled": 0, "is_reserved": 0, "fusion_lat": 0.0, "fusion_lon": 0.0}, {"rental_uris": {"android": "https://dc.lft.to/lastmile_qr_scan", "ios": "https://dc.lft.to/lastmile_qr_scan"}, "bike_id": "c6b9aaa124e1820cedc4c11fbb434e8b", "name": "c6b9aaa124e1820cedc4c11fbb434e8b", "type": "electric_scooter", "lon": -76.96466766666667, "lat": 38.93448566666667, "is_disabled": 0, "is_reserved": 0, "fusion_lat": 0.0, "fusion_lon": 0.0}, {"rental_uris": {"android": "https://dc.lft.to/lastmile_qr_scan", "ios": "https://dc.lft.to/lastmile_qr_scan"}, "bike_id": "6ac0190505f9c31254dfb1d19221599d", "name": "6ac0190505f9c31254dfb1d19221599d", "type": "electric_scooter", "lon": -77.02544766666666, "lat": 38.92088283333333, "is_disabled": 0, "is_reserved": 0, "fusion_lat": 0.0, "fusion_lon": 0.0}, {"rental_uris": {"android": "https://dc.lft.to/lastmile_qr_scan", "ios": "https://dc.lft.to/lastmile_qr_scan"}, "bike_id": "f3c5c0be3992f453c09d74e0720acdd9", "name": "f3c5c0be3992f453c09d74e0720acdd9", "type": "electric_scooter", "lon": -77.03688166666667, "lat": 38.90550983333333, "is_disabled": 0, "is_reserved": 0, "fusion_lat": 0.0, "fusion_lon": 0.0}, {"rental_uris": {"android": "https://dc.lft.to/lastmile_qr_scan", "ios": "https://dc.lft.to/lastmile_qr_scan"}, "bike_id": "5f04cdc7d99654a5e498a1c4091df778", "name": "5f04cdc7d99654a5e498a1c4091df778", "type": "electric_scooter", "lon": -77.02370183333333, "lat": 38.87930516666667, "is_disabled": 0, "is_reserved": 0, "fusion_lat": 0.0, "fusion_lon": 0.0}, {"rental_uris": {"android": "https://dc.lft.to/lastmile_qr_scan", "ios": "https://dc.lft.to/lastmile_qr_scan"}, "bike_id": "09093c151cbc6319b2d9ca95e2895e8d", "name": "09093c151cbc6319b2d9ca95e2895e8d", "type": "electric_scooter", "lon": -76.99983033333334, "lat": 38.87487316666667, "is_disabled": 0, "is_reserved": 0, "fusion_lat": 0.0, "fusion_lon": 0.0}, {"rental_uris": {"android": "https://dc.lft.to/lastmile_qr_scan", "ios": "https://dc.lft.to/lastmile_qr_scan"}, "bike_id": "02fe3532ea5c4fa61ed44ddba0d1f4c3", "name": "02fe3532ea5c4fa61ed44ddba0d1f4c3", "type": "electric_scooter", "lon": -77.0335305, "lat": 38.88628766666667, "is_disabled": 0, "is_reserved": 0, "fusion_lat": 0.0, "fusion_lon": 0.0}, {"rental_uris": {"android": "https://dc.lft.to/lastmile_qr_scan", "ios": "https://dc.lft.to/lastmile_qr_scan"}, "bike_id": "6fb8179e039d5b1701568ed2b1584819", "name": "6fb8179e039d5b1701568ed2b1584819", "type": "electric_scooter", "lon": -77.00939583333333, "lat": 38.91331983333333, "is_disabled": 0, "is_reserved": 0, "fusion_lat": 0.0, "fusion_lon": 0.0}, {"rental_uris": {"android": "https://dc.lft.to/lastmile_qr_scan", "ios": "https://dc.lft.to/lastmile_qr_scan"}, "bike_id": "4a320c680c226a4c1a46a1e4883f8ab7", "name": "4a320c680c226a4c1a46a1e4883f8ab7", "type": "electric_scooter", "lon": -77.07313766666667, "lat": 38.93570616666667, "is_disabled": 0, "is_reserved": 0, "fusion_lat": 0.0, "fusion_lon": 0.0}, {"rental_uris": {"android": "https://dc.lft.to/lastmile_qr_scan", "ios": "https://dc.lft.to/lastmile_qr_scan"}, "bike_id": "daf1bcaa050ec281523718a216ffa229", "name": "daf1bcaa050ec281523718a216ffa229", "type": "electric_scooter", "lon": -77.02430233333334, "lat": 38.9562595, "is_disabled": 0, "is_reserved": 0, "fusion_lat": 0.0, "fusion_lon": 0.0}, {"rental_uris": {"android": "https://dc.lft.to/lastmile_qr_scan", "ios": "https://dc.lft.to/lastmile_qr_scan"}, "bike_id": "914a23109a970fa71bd1408971083999", "name": "914a23109a970fa71bd1408971083999", "type": "electric_scooter", "lon": -76.98539166666667, "lat": 38.90954683333333, "is_disabled": 0, "is_reserved": 0, "fusion_lat": 0.0, "fusion_lon": 0.0}, {"rental_uris": {"android": "https://dc.lft.to/lastmile_qr_scan", "ios": "https://dc.lft.to/lastmile_qr_scan"}, "bike_id": "2093d467269588b9894826dbfa1cc32f", "name": "2093d467269588b9894826dbfa1cc32f", "type": "electric_scooter", "lon": -77.044302, "lat": 38.91080433333333, "is_disabled": 0, "is_reserved": 0, "fusion_lat": 0.0, "fusion_lon": 0.0}, {"rental_uris": {"android": "https://dc.lft.to/lastmile_qr_scan", "ios": "https://dc.lft.to/lastmile_qr_scan"}, "bike_id": "91613023e99501d5e93d0571ed857f60", "name": "91613023e99501d5e93d0571ed857f60", "type": "electric_scooter", "lon": -77.08593916666666, "lat": 38.90869716666667, "is_disabled": 0, "is_reserved": 0, "fusion_lat": 0.0, "fusion_lon": 0.0}, {"rental_uris": {"android": "https://dc.lft.to/lastmile_qr_scan", "ios": "https://dc.lft.to/lastmile_qr_scan"}, "bike_id": "245d6dac1cd876e3f9fa94a699f7d916", "name": "245d6dac1cd876e3f9fa94a699f7d916", "type": "electric_scooter", "lon": -77.04337383333333, "lat": 38.89524433333333, "is_disabled": 0, "is_reserved": 0, "fusion_lat": 0.0, "fusion_lon": 0.0}, {"rental_uris": {"android": "https://dc.lft.to/lastmile_qr_scan", "ios": "https://dc.lft.to/lastmile_qr_scan"}, "bike_id": "d42cda4f47d50c3ac49a3582fd68f239", "name": "d42cda4f47d50c3ac49a3582fd68f239", "type": "electric_scooter", "lon": -76.99950133333333, "lat": 38.8429425, "is_disabled": 0, "is_reserved": 0, "fusion_lat": 0.0, "fusion_lon": 0.0}, {"rental_uris": {"android": "https://dc.lft.to/lastmile_qr_scan", "ios": "https://dc.lft.to/lastmile_qr_scan"}, "bike_id": "1fe19cee4c2bf17d2f601c7bb03429fd", "name": "1fe19cee4c2bf17d2f601c7bb03429fd", "type": "electric_scooter", "lon": -77.03680233333333, "lat": 38.90834483333333, "is_disabled": 0, "is_reserved": 0, "fusion_lat": 0.0, "fusion_lon": 0.0}, {"rental_uris": {"android": "https://dc.lft.to/lastmile_qr_scan", "ios": "https://dc.lft.to/lastmile_qr_scan"}, "bike_id": "1791e63a2a41c45a8915f83413df2f53", "name": "1791e63a2a41c45a8915f83413df2f53", "type": "electric_scooter", "lon": -77.04185866666667, "lat": 38.91664316666667, "is_disabled": 0, "is_reserved": 0, "fusion_lat": 0.0, "fusion_lon": 0.0}, {"rental_uris": {"android": "https://dc.lft.to/lastmile_qr_scan", "ios": "https://dc.lft.to/lastmile_qr_scan"}, "bike_id": "7885f06cadcee9830c9981094409511d", "name": "7885f06cadcee9830c9981094409511d", "type": "electric_bike", "lon": -77.01031316666666, "lat": 38.95878116666667, "is_disabled": 0, "is_reserved": 0, "fusion_lat": 0.0, "fusion_lon": 0.0}, {"rental_uris": {"android": "https://dc.lft.to/lastmile_qr_scan", "ios": "https://dc.lft.to/lastmile_qr_scan"}, "bike_id": "5c77ffe56553300fcb35fe56c2f6aec2", "name": "5c77ffe56553300fcb35fe56c2f6aec2", "type": "electric_scooter", "lon": -77.04665566666667, "lat": 38.90062133333333, "is_disabled": 0, "is_reserved": 0, "fusion_lat": 0.0, "fusion_lon": 0.0}, {"rental_uris": {"android": "https://dc.lft.to/lastmile_qr_scan", "ios": "https://dc.lft.to/lastmile_qr_scan"}, "bike_id": "b7d2988ec4f72708a06318dd1e43e60b", "name": "b7d2988ec4f72708a06318dd1e43e60b", "type": "electric_scooter", "lon": -77.0500315, "lat": 38.892319, "is_disabled": 0, "is_reserved": 0, "fusion_lat": 0.0, "fusion_lon": 0.0}, {"rental_uris": {"android": "https://dc.lft.to/lastmile_qr_scan", "ios": "https://dc.lft.to/lastmile_qr_scan"}, "bike_id": "fab82e659f7d42b07341d33f15366070", "name": "fab82e659f7d42b07341d33f15366070", "type": "electric_scooter", "lon": -77.05125, "lat": 38.923435166666664, "is_disabled": 0, "is_reserved": 0, "fusion_lat": 0.0, "fusion_lon": 0.0}, {"rental_uris": {"android": "https://dc.lft.to/lastmile_qr_scan", "ios": "https://dc.lft.to/lastmile_qr_scan"}, "bike_id": "1f6ddc7c49d3cf61c2ba3bc198e57daf", "name": "1f6ddc7c49d3cf61c2ba3bc198e57daf", "type": "electric_scooter", "lon": -77.03250983333334, "lat": 38.92861883333333, "is_disabled": 0, "is_reserved": 0, "fusion_lat": 0.0, "fusion_lon": 0.0}, {"rental_uris": {"android": "https://dc.lft.to/lastmile_qr_scan", "ios": "https://dc.lft.to/lastmile_qr_scan"}, "bike_id": "6c78d3ec55b6976f2f8bbc48ffdda0ec", "name": "6c78d3ec55b6976f2f8bbc48ffdda0ec", "type": "electric_scooter", "lon": -76.97703966666667, "lat": 38.902530166666665, "is_disabled": 0, "is_reserved": 0, "fusion_lat": 0.0, "fusion_lon": 0.0}, {"rental_uris": {"android": "https://dc.lft.to/lastmile_qr_scan", "ios": "https://dc.lft.to/lastmile_qr_scan"}, "bike_id": "de0bce680f264759781df81f86103af6", "name": "de0bce680f264759781df81f86103af6", "type": "electric_scooter", "lon": -77.03667633333333, "lat": 38.927245, "is_disabled": 0, "is_reserved": 0, "fusion_lat": 0.0, "fusion_lon": 0.0}, {"rental_uris": {"android": "https://dc.lft.to/lastmile_qr_scan", "ios": "https://dc.lft.to/lastmile_qr_scan"}, "bike_id": "13243d6045b1c50c5c28715551296d3c", "name": "13243d6045b1c50c5c28715551296d3c", "type": "electric_scooter", "lon": -76.93738466666667, "lat": 38.890177, "is_disabled": 0, "is_reserved": 0, "fusion_lat": 0.0, "fusion_lon": 0.0}, {"rental_uris": {"android": "https://dc.lft.to/lastmile_qr_scan", "ios": "https://dc.lft.to/lastmile_qr_scan"}, "bike_id": "bb53bde303700328da974e8d761d9c70", "name": "bb53bde303700328da974e8d761d9c70", "type": "electric_scooter", "lon": -76.9995065, "lat": 38.842938, "is_disabled": 0, "is_reserved": 0, "fusion_lat": 0.0, "fusion_lon": 0.0}, {"rental_uris": {"android": "https://dc.lft.to/lastmile_qr_scan", "ios": "https://dc.lft.to/lastmile_qr_scan"}, "bike_id": "abda7229c8f84d10008a68ad99299c6c", "name": "abda7229c8f84d10008a68ad99299c6c", "type": "electric_scooter", "lon": -76.94633483333334, "lat": 38.898438666666664, "is_disabled": 0, "is_reserved": 0, "fusion_lat": 0.0, "fusion_lon": 0.0}, {"rental_uris": {"android": "https://dc.lft.to/lastmile_qr_scan", "ios": "https://dc.lft.to/lastmile_qr_scan"}, "bike_id": "9cea7465c766141a3bac8b5e6c552d05", "name": "9cea7465c766141a3bac8b5e6c552d05", "type": "electric_scooter", "lon": -77.026148, "lat": 38.896826, "is_disabled": 0, "is_reserved": 0, "fusion_lat": 0.0, "fusion_lon": 0.0}, {"rental_uris": {"android": "https://dc.lft.to/lastmile_qr_scan", "ios": "https://dc.lft.to/lastmile_qr_scan"}, "bike_id": "9a570468e5fee0e5d9cda37fd89b1519", "name": "9a570468e5fee0e5d9cda37fd89b1519", "type": "electric_scooter", "lon": -77.0379345, "lat": 38.93216483333333, "is_disabled": 0, "is_reserved": 0, "fusion_lat": 0.0, "fusion_lon": 0.0}, {"rental_uris": {"android": "https://dc.lft.to/lastmile_qr_scan", "ios": "https://dc.lft.to/lastmile_qr_scan"}, "bike_id": "d76806baf523583ab75505b1a4f5c419", "name": "d76806baf523583ab75505b1a4f5c419", "type": "electric_scooter", "lon": -77.0467585, "lat": 38.895116, "is_disabled": 0, "is_reserved": 0, "fusion_lat": 0.0, "fusion_lon": 0.0}, {"rental_uris": {"android": "https://dc.lft.to/lastmile_qr_scan", "ios": "https://dc.lft.to/lastmile_qr_scan"}, "bike_id": "4236847590929a85148aff6002f77efb", "name": "4236847590929a85148aff6002f77efb", "type": "electric_scooter", "lon": -76.98402166666666, "lat": 38.866988, "is_disabled": 0, "is_reserved": 0, "fusion_lat": 0.0, "fusion_lon": 0.0}, {"rental_uris": {"android": "https://dc.lft.to/lastmile_qr_scan", "ios": "https://dc.lft.to/lastmile_qr_scan"}, "bike_id": "e5b3685aa031bc99bd6eec3b7045472c", "name": "e5b3685aa031bc99bd6eec3b7045472c", "type": "electric_scooter", "lon": -77.06975383333334, "lat": 38.9530205, "is_disabled": 0, "is_reserved": 0, "fusion_lat": 0.0, "fusion_lon": 0.0}, {"rental_uris": {"android": "https://dc.lft.to/lastmile_qr_scan", "ios": "https://dc.lft.to/lastmile_qr_scan"}, "bike_id": "a4016d5e2fba242533ea5623e3245393", "name": "a4016d5e2fba242533ea5623e3245393", "type": "electric_scooter", "lon": -77.040018, "lat": 38.9037175, "is_disabled": 0, "is_reserved": 0, "fusion_lat": 0.0, "fusion_lon": 0.0}, {"rental_uris": {"android": "https://dc.lft.to/lastmile_qr_scan", "ios": "https://dc.lft.to/lastmile_qr_scan"}, "bike_id": "7a470bf12e93fb06e4375737ad62f3ac", "name": "7a470bf12e93fb06e4375737ad62f3ac", "type": "electric_scooter", "lon": -77.02341933333334, "lat": 38.9308615, "is_disabled": 0, "is_reserved": 0, "fusion_lat": 0.0, "fusion_lon": 0.0}, {"rental_uris": {"android": "https://dc.lft.to/lastmile_qr_scan", "ios": "https://dc.lft.to/lastmile_qr_scan"}, "bike_id": "bf6ed7bfcf365d160a5d51065708a258", "name": "bf6ed7bfcf365d160a5d51065708a258", "type": "electric_scooter", "lon": -77.0398575, "lat": 38.89222933333333, "is_disabled": 0, "is_reserved": 0, "fusion_lat": 0.0, "fusion_lon": 0.0}, {"rental_uris": {"android": "https://dc.lft.to/lastmile_qr_scan", "ios": "https://dc.lft.to/lastmile_qr_scan"}, "bike_id": "bac308fe0959984bb0d855c6dc0259a4", "name": "bac308fe0959984bb0d855c6dc0259a4", "type": "electric_scooter", "lon": -77.04554666666667, "lat": 38.924222666666665, "is_disabled": 0, "is_reserved": 0, "fusion_lat": 0.0, "fusion_lon": 0.0}, {"rental_uris": {"android": "https://dc.lft.to/lastmile_qr_scan", "ios": "https://dc.lft.to/lastmile_qr_scan"}, "bike_id": "64c2e033fcd1ef18b4bdde3db22e9e80", "name": "64c2e033fcd1ef18b4bdde3db22e9e80", "type": "electric_scooter", "lon": -77.02710383333333, "lat": 38.90074, "is_disabled": 0, "is_reserved": 0, "fusion_lat": 0.0, "fusion_lon": 0.0}, {"rental_uris": {"android": "https://dc.lft.to/lastmile_qr_scan", "ios": "https://dc.lft.to/lastmile_qr_scan"}, "bike_id": "d15bfae54a420de82e4afcf860a7d36d", "name": "d15bfae54a420de82e4afcf860a7d36d", "type": "electric_scooter", "lon": -77.04536666666667, "lat": 38.9027845, "is_disabled": 0, "is_reserved": 0, "fusion_lat": 0.0, "fusion_lon": 0.0}, {"rental_uris": {"android": "https://dc.lft.to/lastmile_qr_scan", "ios": "https://dc.lft.to/lastmile_qr_scan"}, "bike_id": "f984d9fbf395ce84493346e4a4234fe2", "name": "f984d9fbf395ce84493346e4a4234fe2", "type": "electric_scooter", "lon": -77.022851, "lat": 38.92568283333333, "is_disabled": 0, "is_reserved": 0, "fusion_lat": 0.0, "fusion_lon": 0.0}, {"rental_uris": {"android": "https://dc.lft.to/lastmile_qr_scan", "ios": "https://dc.lft.to/lastmile_qr_scan"}, "bike_id": "659410edb1ddfd4f36123362de416913", "name": "659410edb1ddfd4f36123362de416913", "type": "electric_bike", "lon": -76.988432, "lat": 38.8427075, "is_disabled": 0, "is_reserved": 0, "fusion_lat": 0.0, "fusion_lon": 0.0}, {"rental_uris": {"android": "https://dc.lft.to/lastmile_qr_scan", "ios": "https://dc.lft.to/lastmile_qr_scan"}, "bike_id": "0061f4c035be06ec4528e1caedfc5681", "name": "0061f4c035be06ec4528e1caedfc5681", "type": "electric_bike", "lon": -76.99695833333334, "lat": 38.838665166666665, "is_disabled": 0, "is_reserved": 0, "fusion_lat": 0.0, "fusion_lon": 0.0}, {"rental_uris": {"android": "https://dc.lft.to/lastmile_qr_scan", "ios": "https://dc.lft.to/lastmile_qr_scan"}, "bike_id": "765290bb646d95e9c4bdd2ce7f268f37", "name": "765290bb646d95e9c4bdd2ce7f268f37", "type": "electric_scooter", "lon": -77.02358333333333, "lat": 38.91956483333333, "is_disabled": 0, "is_reserved": 0, "fusion_lat": 0.0, "fusion_lon": 0.0}, {"rental_uris": {"android": "https://dc.lft.to/lastmile_qr_scan", "ios": "https://dc.lft.to/lastmile_qr_scan"}, "bike_id": "9d03791e519dc347a8da80566e7ffa30", "name": "9d03791e519dc347a8da80566e7ffa30", "type": "electric_bike", "lon": -77.0782395, "lat": 38.93641566666667, "is_disabled": 0, "is_reserved": 0, "fusion_lat": 0.0, "fusion_lon": 0.0}, {"rental_uris": {"android": "https://dc.lft.to/lastmile_qr_scan", "ios": "https://dc.lft.to/lastmile_qr_scan"}, "bike_id": "5e39376fbc193c9fe0ffcb93514fa828", "name": "5e39376fbc193c9fe0ffcb93514fa828", "type": "electric_scooter", "lon": -77.04599066666667, "lat": 38.916949333333335, "is_disabled": 0, "is_reserved": 0, "fusion_lat": 0.0, "fusion_lon": 0.0}, {"rental_uris": {"android": "https://dc.lft.to/lastmile_qr_scan", "ios": "https://dc.lft.to/lastmile_qr_scan"}, "bike_id": "93ad337644fcb6e9ed4ec53846ed9317", "name": "93ad337644fcb6e9ed4ec53846ed9317", "type": "electric_scooter", "lon": -77.042598, "lat": 38.916157, "is_disabled": 0, "is_reserved": 0, "fusion_lat": 0.0, "fusion_lon": 0.0}, {"rental_uris": {"android": "https://dc.lft.to/lastmile_qr_scan", "ios": "https://dc.lft.to/lastmile_qr_scan"}, "bike_id": "701cec0098a006338891720166e404c3", "name": "701cec0098a006338891720166e404c3", "type": "electric_scooter", "lon": -77.05898233333333, "lat": 38.90516, "is_disabled": 0, "is_reserved": 0, "fusion_lat": 0.0, "fusion_lon": 0.0}, {"rental_uris": {"android": "https://dc.lft.to/lastmile_qr_scan", "ios": "https://dc.lft.to/lastmile_qr_scan"}, "bike_id": "55009e48fa5a8f77fdbe938c7d00476f", "name": "55009e48fa5a8f77fdbe938c7d00476f", "type": "electric_scooter", "lon": -77.038929, "lat": 38.922053, "is_disabled": 0, "is_reserved": 0, "fusion_lat": 0.0, "fusion_lon": 0.0}, {"rental_uris": {"android": "https://dc.lft.to/lastmile_qr_scan", "ios": "https://dc.lft.to/lastmile_qr_scan"}, "bike_id": "669ecdd8eea99c44d8ee0aacae72805d", "name": "669ecdd8eea99c44d8ee0aacae72805d", "type": "electric_scooter", "lon": -77.02678716666667, "lat": 38.896118333333334, "is_disabled": 0, "is_reserved": 0, "fusion_lat": 0.0, "fusion_lon": 0.0}, {"rental_uris": {"android": "https://dc.lft.to/lastmile_qr_scan", "ios": "https://dc.lft.to/lastmile_qr_scan"}, "bike_id": "4a43ffcdc3e4798216009f692e05a7c1", "name": "4a43ffcdc3e4798216009f692e05a7c1", "type": "electric_scooter", "lon": -77.0261395, "lat": 38.8943415, "is_disabled": 0, "is_reserved": 0, "fusion_lat": 0.0, "fusion_lon": 0.0}, {"rental_uris": {"android": "https://dc.lft.to/lastmile_qr_scan", "ios": "https://dc.lft.to/lastmile_qr_scan"}, "bike_id": "7476b3fed621cb57889e424ec6c7c69c", "name": "7476b3fed621cb57889e424ec6c7c69c", "type": "electric_scooter", "lon": -77.048967, "lat": 38.90056716666667, "is_disabled": 0, "is_reserved": 0, "fusion_lat": 0.0, "fusion_lon": 0.0}, {"rental_uris": {"android": "https://dc.lft.to/lastmile_qr_scan", "ios": "https://dc.lft.to/lastmile_qr_scan"}, "bike_id": "490d3b8c5225091052539a2131de95d5", "name": "490d3b8c5225091052539a2131de95d5", "type": "electric_scooter", "lon": -77.022491, "lat": 38.896140833333334, "is_disabled": 0, "is_reserved": 0, "fusion_lat": 0.0, "fusion_lon": 0.0}, {"rental_uris": {"android": "https://dc.lft.to/lastmile_qr_scan", "ios": "https://dc.lft.to/lastmile_qr_scan"}, "bike_id": "739182915c05d805577d2dc64cb3480a", "name": "739182915c05d805577d2dc64cb3480a", "type": "electric_scooter", "lon": -77.05264683333333, "lat": 38.93936033333333, "is_disabled": 0, "is_reserved": 0, "fusion_lat": 0.0, "fusion_lon": 0.0}, {"rental_uris": {"android": "https://dc.lft.to/lastmile_qr_scan", "ios": "https://dc.lft.to/lastmile_qr_scan"}, "bike_id": "24e2608535acad2e4e581ee83b15ef7a", "name": "24e2608535acad2e4e581ee83b15ef7a", "type": "electric_scooter", "lon": -77.03254366666667, "lat": 38.918127, "is_disabled": 0, "is_reserved": 0, "fusion_lat": 0.0, "fusion_lon": 0.0}, {"rental_uris": {"android": "https://dc.lft.to/lastmile_qr_scan", "ios": "https://dc.lft.to/lastmile_qr_scan"}, "bike_id": "fa5a5536b775cc03f586b33bf49e1af1", "name": "fa5a5536b775cc03f586b33bf49e1af1", "type": "electric_scooter", "lon": -77.02975366666666, "lat": 38.907355833333334, "is_disabled": 0, "is_reserved": 0, "fusion_lat": 0.0, "fusion_lon": 0.0}, {"rental_uris": {"android": "https://dc.lft.to/lastmile_qr_scan", "ios": "https://dc.lft.to/lastmile_qr_scan"}, "bike_id": "083e7479e32e1943afdfef89a6f2213d", "name": "083e7479e32e1943afdfef89a6f2213d", "type": "electric_scooter", "lon": -77.0417695, "lat": 38.911888833333336, "is_disabled": 0, "is_reserved": 0, "fusion_lat": 0.0, "fusion_lon": 0.0}, {"rental_uris": {"android": "https://dc.lft.to/lastmile_qr_scan", "ios": "https://dc.lft.to/lastmile_qr_scan"}, "bike_id": "3f2f7977cb18f8d0bc8b0b7cb75bce2c", "name": "3f2f7977cb18f8d0bc8b0b7cb75bce2c", "type": "electric_scooter", "lon": -77.027193, "lat": 38.90683683333334, "is_disabled": 0, "is_reserved": 0, "fusion_lat": 0.0, "fusion_lon": 0.0}, {"rental_uris": {"android": "https://dc.lft.to/lastmile_qr_scan", "ios": "https://dc.lft.to/lastmile_qr_scan"}, "bike_id": "5679a3deb84eb19524a99376d61af26d", "name": "5679a3deb84eb19524a99376d61af26d", "type": "electric_scooter", "lon": -76.95942066666667, "lat": 38.890003, "is_disabled": 0, "is_reserved": 0, "fusion_lat": 0.0, "fusion_lon": 0.0}, {"rental_uris": {"android": "https://dc.lft.to/lastmile_qr_scan", "ios": "https://dc.lft.to/lastmile_qr_scan"}, "bike_id": "703d98afd94da2b88734dd210cdd1e88", "name": "703d98afd94da2b88734dd210cdd1e88", "type": "electric_scooter", "lon": -77.02300833333334, "lat": 38.920854166666665, "is_disabled": 0, "is_reserved": 0, "fusion_lat": 0.0, "fusion_lon": 0.0}, {"rental_uris": {"android": "https://dc.lft.to/lastmile_qr_scan", "ios": "https://dc.lft.to/lastmile_qr_scan"}, "bike_id": "d7664e3a9879fc3c42749c3830bb2640", "name": "d7664e3a9879fc3c42749c3830bb2640", "type": "electric_scooter", "lon": -77.0481555, "lat": 38.91038116666667, "is_disabled": 0, "is_reserved": 0, "fusion_lat": 0.0, "fusion_lon": 0.0}, {"rental_uris": {"android": "https://dc.lft.to/lastmile_qr_scan", "ios": "https://dc.lft.to/lastmile_qr_scan"}, "bike_id": "f796b860ebf00e4e5a9fe47560537e5b", "name": "f796b860ebf00e4e5a9fe47560537e5b", "type": "electric_scooter", "lon": -76.99805483333333, "lat": 38.885661166666665, "is_disabled": 0, "is_reserved": 0, "fusion_lat": 0.0, "fusion_lon": 0.0}, {"rental_uris": {"android": "https://dc.lft.to/lastmile_qr_scan", "ios": "https://dc.lft.to/lastmile_qr_scan"}, "bike_id": "e198102e9ff208b4cb848a38ea8f7862", "name": "e198102e9ff208b4cb848a38ea8f7862", "type": "electric_scooter", "lon": -77.00203816666667, "lat": 38.90238183333334, "is_disabled": 0, "is_reserved": 0, "fusion_lat": 0.0, "fusion_lon": 0.0}, {"rental_uris": {"android": "https://dc.lft.to/lastmile_qr_scan", "ios": "https://dc.lft.to/lastmile_qr_scan"}, "bike_id": "227b8eaaa86d2a2b1811acc6484c9138", "name": "227b8eaaa86d2a2b1811acc6484c9138", "type": "electric_bike", "lon": -77.0679485, "lat": 38.90489733333333, "is_disabled": 0, "is_reserved": 0, "fusion_lat": 0.0, "fusion_lon": 0.0}, {"rental_uris": {"android": "https://dc.lft.to/lastmile_qr_scan", "ios": "https://dc.lft.to/lastmile_qr_scan"}, "bike_id": "e9a40463b4a52dee0e1623f813a1af06", "name": "e9a40463b4a52dee0e1623f813a1af06", "type": "electric_scooter", "lon": -77.04136916666667, "lat": 38.89352616666667, "is_disabled": 0, "is_reserved": 0, "fusion_lat": 0.0, "fusion_lon": 0.0}, {"rental_uris": {"android": "https://dc.lft.to/lastmile_qr_scan", "ios": "https://dc.lft.to/lastmile_qr_scan"}, "bike_id": "6cfc6a9139c9a22a1d9f02e5e13ca371", "name": "6cfc6a9139c9a22a1d9f02e5e13ca371", "type": "electric_scooter", "lon": -77.04851433333333, "lat": 38.919565666666664, "is_disabled": 0, "is_reserved": 0, "fusion_lat": 0.0, "fusion_lon": 0.0}, {"rental_uris": {"android": "https://dc.lft.to/lastmile_qr_scan", "ios": "https://dc.lft.to/lastmile_qr_scan"}, "bike_id": "30cd3fb194a2cb1b03b8663b81462ac2", "name": "30cd3fb194a2cb1b03b8663b81462ac2", "type": "electric_scooter", "lon": -77.03691833333333, "lat": 38.91677216666667, "is_disabled": 0, "is_reserved": 0, "fusion_lat": 0.0, "fusion_lon": 0.0}, {"rental_uris": {"android": "https://dc.lft.to/lastmile_qr_scan", "ios": "https://dc.lft.to/lastmile_qr_scan"}, "bike_id": "2428922619a794f10b2be2cffed45328", "name": "2428922619a794f10b2be2cffed45328", "type": "electric_scooter", "lon": -77.02920133333333, "lat": 38.900307166666664, "is_disabled": 0, "is_reserved": 0, "fusion_lat": 0.0, "fusion_lon": 0.0}, {"rental_uris": {"android": "https://dc.lft.to/lastmile_qr_scan", "ios": "https://dc.lft.to/lastmile_qr_scan"}, "bike_id": "cc1675436f30da6b0617201041848632", "name": "cc1675436f30da6b0617201041848632", "type": "electric_scooter", "lon": -77.03064483333333, "lat": 38.902599333333335, "is_disabled": 0, "is_reserved": 0, "fusion_lat": 0.0, "fusion_lon": 0.0}, {"rental_uris": {"android": "https://dc.lft.to/lastmile_qr_scan", "ios": "https://dc.lft.to/lastmile_qr_scan"}, "bike_id": "129238701501f4c5ca3054ec2aa0a07e", "name": "129238701501f4c5ca3054ec2aa0a07e", "type": "electric_scooter", "lon": -77.04244716666666, "lat": 38.907387666666665, "is_disabled": 0, "is_reserved": 0, "fusion_lat": 0.0, "fusion_lon": 0.0}, {"rental_uris": {"android": "https://dc.lft.to/lastmile_qr_scan", "ios": "https://dc.lft.to/lastmile_qr_scan"}, "bike_id": "e941f80ea3a734bbd44d0c76eba051ae", "name": "e941f80ea3a734bbd44d0c76eba051ae", "type": "electric_scooter", "lon": -76.99703683333334, "lat": 38.84425616666667, "is_disabled": 0, "is_reserved": 0, "fusion_lat": 0.0, "fusion_lon": 0.0}, {"rental_uris": {"android": "https://dc.lft.to/lastmile_qr_scan", "ios": "https://dc.lft.to/lastmile_qr_scan"}, "bike_id": "446d1f34b09f5b53221eb6858c6a5e46", "name": "446d1f34b09f5b53221eb6858c6a5e46", "type": "electric_scooter", "lon": -77.051208, "lat": 38.923459666666666, "is_disabled": 0, "is_reserved": 0, "fusion_lat": 0.0, "fusion_lon": 0.0}, {"rental_uris": {"android": "https://dc.lft.to/lastmile_qr_scan", "ios": "https://dc.lft.to/lastmile_qr_scan"}, "bike_id": "11ab00e9f586ce87dd6d1bbd0f1443ab", "name": "11ab00e9f586ce87dd6d1bbd0f1443ab", "type": "electric_scooter", "lon": -77.0269305, "lat": 38.911236, "is_disabled": 0, "is_reserved": 0, "fusion_lat": 0.0, "fusion_lon": 0.0}, {"rental_uris": {"android": "https://dc.lft.to/lastmile_qr_scan", "ios": "https://dc.lft.to/lastmile_qr_scan"}, "bike_id": "3930ac738faa28e45702d995b940f517", "name": "3930ac738faa28e45702d995b940f517", "type": "electric_scooter", "lon": -77.03179783333333, "lat": 38.8983145, "is_disabled": 0, "is_reserved": 0, "fusion_lat": 0.0, "fusion_lon": 0.0}, {"rental_uris": {"android": "https://dc.lft.to/lastmile_qr_scan", "ios": "https://dc.lft.to/lastmile_qr_scan"}, "bike_id": "ae08f7f3dd7dbc91107d02a96698ab31", "name": "ae08f7f3dd7dbc91107d02a96698ab31", "type": "electric_scooter", "lon": -77.02387183333333, "lat": 38.9335975, "is_disabled": 0, "is_reserved": 0, "fusion_lat": 0.0, "fusion_lon": 0.0}, {"rental_uris": {"android": "https://dc.lft.to/lastmile_qr_scan", "ios": "https://dc.lft.to/lastmile_qr_scan"}, "bike_id": "231c80e9b9a499542cc8d8bf2863bd4f", "name": "231c80e9b9a499542cc8d8bf2863bd4f", "type": "electric_scooter", "lon": -77.00500133333334, "lat": 38.89689033333333, "is_disabled": 0, "is_reserved": 0, "fusion_lat": 0.0, "fusion_lon": 0.0}, {"rental_uris": {"android": "https://dc.lft.to/lastmile_qr_scan", "ios": "https://dc.lft.to/lastmile_qr_scan"}, "bike_id": "951da9df18f580125c2cfa3f9faec99d", "name": "951da9df18f580125c2cfa3f9faec99d", "type": "electric_scooter", "lon": -77.04193333333333, "lat": 38.893613, "is_disabled": 0, "is_reserved": 0, "fusion_lat": 0.0, "fusion_lon": 0.0}, {"rental_uris": {"android": "https://dc.lft.to/lastmile_qr_scan", "ios": "https://dc.lft.to/lastmile_qr_scan"}, "bike_id": "990943cba6941aa061a045b54747ff13", "name": "990943cba6941aa061a045b54747ff13", "type": "electric_bike", "lon": -77.12059683333334, "lat": 38.855247, "is_disabled": 0, "is_reserved": 0, "fusion_lat": 0.0, "fusion_lon": 0.0}, {"rental_uris": {"android": "https://dc.lft.to/lastmile_qr_scan", "ios": "https://dc.lft.to/lastmile_qr_scan"}, "bike_id": "77b4f686c9a8fe688411162525a904a0", "name": "77b4f686c9a8fe688411162525a904a0", "type": "electric_scooter", "lon": -77.03229233333333, "lat": 38.91403433333333, "is_disabled": 0, "is_reserved": 0, "fusion_lat": 0.0, "fusion_lon": 0.0}, {"rental_uris": {"android": "https://dc.lft.to/lastmile_qr_scan", "ios": "https://dc.lft.to/lastmile_qr_scan"}, "bike_id": "b6c320392a8a79c994273dd556cbe088", "name": "b6c320392a8a79c994273dd556cbe088", "type": "electric_scooter", "lon": -77.045161, "lat": 38.90273883333333, "is_disabled": 0, "is_reserved": 0, "fusion_lat": 0.0, "fusion_lon": 0.0}, {"rental_uris": {"android": "https://dc.lft.to/lastmile_qr_scan", "ios": "https://dc.lft.to/lastmile_qr_scan"}, "bike_id": "a1b47fdc2f32550250ea757ca1d2790d", "name": "a1b47fdc2f32550250ea757ca1d2790d", "type": "electric_scooter", "lon": -76.94178016666666, "lat": 38.897554, "is_disabled": 0, "is_reserved": 0, "fusion_lat": 0.0, "fusion_lon": 0.0}, {"rental_uris": {"android": "https://dc.lft.to/lastmile_qr_scan", "ios": "https://dc.lft.to/lastmile_qr_scan"}, "bike_id": "f0e28740bcbcc38bc8ffea6f452be885", "name": "f0e28740bcbcc38bc8ffea6f452be885", "type": "electric_scooter", "lon": -77.04497666666667, "lat": 38.9086085, "is_disabled": 0, "is_reserved": 0, "fusion_lat": 0.0, "fusion_lon": 0.0}, {"rental_uris": {"android": "https://dc.lft.to/lastmile_qr_scan", "ios": "https://dc.lft.to/lastmile_qr_scan"}, "bike_id": "9db3cf1ee78f50d0ba6c078b0b400f62", "name": "9db3cf1ee78f50d0ba6c078b0b400f62", "type": "electric_scooter", "lon": -77.03858066666666, "lat": 38.910189833333334, "is_disabled": 0, "is_reserved": 0, "fusion_lat": 0.0, "fusion_lon": 0.0}, {"rental_uris": {"android": "https://dc.lft.to/lastmile_qr_scan", "ios": "https://dc.lft.to/lastmile_qr_scan"}, "bike_id": "d4cc057fd7b8577fc3334f9c42d19fa2", "name": "d4cc057fd7b8577fc3334f9c42d19fa2", "type": "electric_scooter", "lon": -77.0342815, "lat": 38.922412, "is_disabled": 0, "is_reserved": 0, "fusion_lat": 0.0, "fusion_lon": 0.0}, {"rental_uris": {"android": "https://dc.lft.to/lastmile_qr_scan", "ios": "https://dc.lft.to/lastmile_qr_scan"},