{"data": {"bikes": [{"lon": -77.021909, "rental_uris": {"android": "https://dc.lft.to/lastmile_qr_scan", "ios": "https://dc.lft.to/lastmile_qr_scan"}, "fusion_lon": 0.0, "is_reserved": 0, "is_disabled": 0, "fusion_lat": 0.0, "type": "electric_scooter", "name": "2bf656c7999393f535886623e28f37f6", "lat": 38.914787833333335, "bike_id": "2bf656c7999393f535886623e28f37f6"}, {"lon": -77.0241805, "rental_uris": {"android": "https://dc.lft.to/lastmile_qr_scan", "ios": "https://dc.lft.to/lastmile_qr_scan"}, "fusion_lon": 0.0, "is_reserved": 0, "is_disabled": 0, "fusion_lat": 0.0, "type": "electric_scooter", "name": "7d6a953b8ccff7e9292305327b292192", "lat": 38.89218183333333, "bike_id": "7d6a953b8ccff7e9292305327b292192"}, {"lon": -77.00390616666667, "rental_uris": {"android": "https://dc.lft.to/lastmile_qr_scan", "ios": "https://dc.lft.to/lastmile_qr_scan"}, "fusion_lon": 0.0, "is_reserved": 0, "is_disabled": 0, "fusion_lat": 0.0, "type": "electric_scooter", "name": "cb37c5edcd66fc2c8279d9502575ee12", "lat": 38.87639133333333, "bike_id": "cb37c5edcd66fc2c8279d9502575ee12"}, {"lon": -77.00371383333334, "rental_uris": {"android": "https://dc.lft.to/lastmile_qr_scan", "ios": "https://dc.lft.to/lastmile_qr_scan"}, "fusion_lon": 0.0, "is_reserved": 0, "is_disabled": 0, "fusion_lat": 0.0, "type": "electric_scooter", "name": "554ec431e48d0d55fccdf258e3c6d808", "lat": 38.89729033333333, "bike_id": "554ec431e48d0d55fccdf258e3c6d808"}, {"lon": -77.02958333333333, "rental_uris": {"android": "https://dc.lft.to/lastmile_qr_scan", "ios": "https://dc.lft.to/lastmile_qr_scan"}, "fusion_lon": 0.0, "is_reserved": 0, "is_disabled": 0, "fusion_lat": 0.0, "type": "electric_scooter", "name": "f5ecc306ee613fa1e32adbbe9e2417e6", "lat": 38.90649, "bike_id": "f5ecc306ee613fa1e32adbbe9e2417e6"}, {"lon": -77.0404255, "rental_uris": {"android": "https://dc.lft.to/lastmile_qr_scan", "ios": "https://dc.lft.to/lastmile_qr_scan"}, "fusion_lon": 0.0, "is_reserved": 0, "is_disabled": 0, "fusion_lat": 0.0, "type": "electric_scooter", "name": "19125db0870fffe98681ecb4db81db22", "lat": 38.924454, "bike_id": "19125db0870fffe98681ecb4db81db22"}, {"lon": -77.0091125, "rental_uris": {"android": "https://dc.lft.to/lastmile_qr_scan", "ios": "https://dc.lft.to/lastmile_qr_scan"}, "fusion_lon": 0.0, "is_reserved": 0, "is_disabled": 0, "fusion_lat": 0.0, "type": "electric_scooter", "name": "89bce62901f670377755f8e5492b5838", "lat": 38.89641733333333, "bike_id": "89bce62901f670377755f8e5492b5838"}, {"lon": -76.97928666666667, "rental_uris": {"android": "https://dc.lft.to/lastmile_qr_scan", "ios": "https://dc.lft.to/lastmile_qr_scan"}, "fusion_lon": 0.0, "is_reserved": 0, "is_disabled": 0, "fusion_lat": 0.0, "type": "electric_scooter", "name": "e6a71460f861232a5f42d2d83623df8b", "lat": 38.902422, "bike_id": "e6a71460f861232a5f42d2d83623df8b"}, {"lon": -77.03047333333333, "rental_uris": {"android": "https://dc.lft.to/lastmile_qr_scan", "ios": "https://dc.lft.to/lastmile_qr_scan"}, "fusion_lon": 0.0, "is_reserved": 0, "is_disabled": 0, "fusion_lat": 0.0, "type": "electric_scooter", "name": "49ba6ab7541d462ca5c77746e095af4e", "lat": 38.923115833333334, "bike_id": "49ba6ab7541d462ca5c77746e095af4e"}, {"lon": -77.02562266666666, "rental_uris": {"android": "https://dc.lft.to/lastmile_qr_scan", "ios": "https://dc.lft.to/lastmile_qr_scan"}, "fusion_lon": 0.0, "is_reserved": 0, "is_disabled": 0, "fusion_lat": 0.0, "type": "electric_scooter", "name": "943f7f5b0d6d5d2b837fcbb84f042a7c", "lat": 38.9247285, "bike_id": "943f7f5b0d6d5d2b837fcbb84f042a7c"}, {"lon": -77.024237, "rental_uris": {"android": "https://dc.lft.to/lastmile_qr_scan", "ios": "https://dc.lft.to/lastmile_qr_scan"}, "fusion_lon": 0.0, "is_reserved": 0, "is_disabled": 0, "fusion_lat": 0.0, "type": "electric_bike", "name": "a34df8c8a650c6a812b5d19fced8e4bf", "lat": 38.99511116666667, "bike_id": "a34df8c8a650c6a812b5d19fced8e4bf"}, {"lon": -77.028152, "rental_uris": {"android": "https://dc.lft.to/lastmile_qr_scan", "ios": "https://dc.lft.to/lastmile_qr_scan"}, "fusion_lon": 0.0, "is_reserved": 0, "is_disabled": 0, "fusion_lat": 0.0, "type": "electric_scooter", "name": "ff521092e83946dc34d7cb96b039133b", "lat": 38.8978545, "bike_id": "ff521092e83946dc34d7cb96b039133b"}, {"lon": -77.02666216666667, "rental_uris": {"android": "https://dc.lft.to/lastmile_qr_scan", "ios": "https://dc.lft.to/lastmile_qr_scan"}, "fusion_lon": 0.0, "is_reserved": 0, "is_disabled": 0, "fusion_lat": 0.0, "type": "electric_scooter", "name": "f0f8c65c5d3d8d8a25b58ae7b3076d96", "lat": 38.921754166666666, "bike_id": "f0f8c65c5d3d8d8a25b58ae7b3076d96"}, {"lon": -76.95760016666667, "rental_uris": {"android": "https://dc.lft.to/lastmile_qr_scan", "ios": "https://dc.lft.to/lastmile_qr_scan"}, "fusion_lon": 0.0, "is_reserved": 0, "is_disabled": 0, "fusion_lat": 0.0, "type": "electric_scooter", "name": "78ff21b89e255cc712243a5fdddc58c9", "lat": 38.89594833333334, "bike_id": "78ff21b89e255cc712243a5fdddc58c9"}, {"lon": -77.0367765, "rental_uris": {"android": "https://dc.lft.to/lastmile_qr_scan", "ios": "https://dc.lft.to/lastmile_qr_scan"}, "fusion_lon": 0.0, "is_reserved": 0, "is_disabled": 0, "fusion_lat": 0.0, "type": "electric_scooter", "name": "a0d44caf6b26e963a44a7ea6ee997aa2", "lat": 38.9165205, "bike_id": "a0d44caf6b26e963a44a7ea6ee997aa2"}, {"lon": -77.03246533333333, "rental_uris": {"android": "https://dc.lft.to/lastmile_qr_scan", "ios": "https://dc.lft.to/lastmile_qr_scan"}, "fusion_lon": 0.0, "is_reserved": 0, "is_disabled": 0, "fusion_lat": 0.0, "type": "electric_scooter", "name": "83f19721f2e0fd0af4a937bcd95ca629", "lat": 38.93137083333333, "bike_id": "83f19721f2e0fd0af4a937bcd95ca629"}, {"lon": -77.03852766666667, "rental_uris": {"android": "https://dc.lft.to/lastmile_qr_scan", "ios": "https://dc.lft.to/lastmile_qr_scan"}, "fusion_lon": 0.0, "is_reserved": 0, "is_disabled": 0, "fusion_lat": 0.0, "type": "electric_scooter", "name": "2c0bdea5510f5d5161386bfc96a0f7ca", "lat": 38.919619, "bike_id": "2c0bdea5510f5d5161386bfc96a0f7ca"}, {"lon": -77.01357383333334, "rental_uris": {"android": "https://dc.lft.to/lastmile_qr_scan", "ios": "https://dc.lft.to/lastmile_qr_scan"}, "fusion_lon": 0.0, "is_reserved": 0, "is_disabled": 0, "fusion_lat": 0.0, "type": "electric_scooter", "name": "d269930994f42e17e2d9da47c3038631", "lat": 38.8726385, "bike_id": "d269930994f42e17e2d9da47c3038631"}, {"lon": -77.0216675, "rental_uris": {"android": "https://dc.lft.to/lastmile_qr_scan", "ios": "https://dc.lft.to/lastmile_qr_scan"}, "fusion_lon": 0.0, "is_reserved": 0, "is_disabled": 0, "fusion_lat": 0.0, "type": "electric_scooter", "name": "f3f17e705ad48eef6e11c9720b6314e9", "lat": 38.924792, "bike_id": "f3f17e705ad48eef6e11c9720b6314e9"}, {"lon": -77.02223183333334, "rental_uris": {"android": "https://dc.lft.to/lastmile_qr_scan", "ios": "https://dc.lft.to/lastmile_qr_scan"}, "fusion_lon": 0.0, "is_reserved": 0, "is_disabled": 0, "fusion_lat": 0.0, "type": "electric_scooter", "name": "112d9d9a4dc20347337d7eb3603bacd7", "lat": 38.892166833333334, "bike_id": "112d9d9a4dc20347337d7eb3603bacd7"}, {"lon": -77.02757666666666, "rental_uris": {"android": "https://dc.lft.to/lastmile_qr_scan", "ios": "https://dc.lft.to/lastmile_qr_scan"}, "fusion_lon": 0.0, "is_reserved": 0, "is_disabled": 0, "fusion_lat": 0.0, "type": "electric_scooter", "name": "ee4dab65e7e8a31eece5fa7fc98a3917", "lat": 38.927698666666664, "bike_id": "ee4dab65e7e8a31eece5fa7fc98a3917"}, {"lon": -77.03198116666667, "rental_uris": {"android": "https://dc.lft.to/lastmile_qr_scan", "ios": "https://dc.lft.to/lastmile_qr_scan"}, "fusion_lon": 0.0, "is_reserved": 0, "is_disabled": 0, "fusion_lat": 0.0, "type": "electric_scooter", "name": "d42ec2c3c916e59141c514b8a867f609", "lat": 38.908930166666664, "bike_id": "d42ec2c3c916e59141c514b8a867f609"}, {"lon": -76.97848083333334, "rental_uris": {"android": "https://dc.lft.to/lastmile_qr_scan", "ios": "https://dc.lft.to/lastmile_qr_scan"}, "fusion_lon": 0.0, "is_reserved": 0, "is_disabled": 0, "fusion_lat": 0.0, "type": "electric_scooter", "name": "1a374604ca6b4462fd709a1636325cd6", "lat": 38.869623, "bike_id": "1a374604ca6b4462fd709a1636325cd6"}, {"lon": -77.0500555, "rental_uris": {"android": "https://dc.lft.to/lastmile_qr_scan", "ios": "https://dc.lft.to/lastmile_qr_scan"}, "fusion_lon": 0.0, "is_reserved": 0, "is_disabled": 0, "fusion_lat": 0.0, "type": "electric_scooter", "name": "1c3ec9de327565e44b6285afe22f40bf", "lat": 38.89868633333333, "bike_id": "1c3ec9de327565e44b6285afe22f40bf"}, {"lon": -77.04342216666667, "rental_uris": {"android": "https://dc.lft.to/lastmile_qr_scan", "ios": "https://dc.lft.to/lastmile_qr_scan"}, "fusion_lon": 0.0, "is_reserved": 0, "is_disabled": 0, "fusion_lat": 0.0, "type": "electric_scooter", "name": "477b92b84eddd69bac769d9c655cecfe", "lat": 38.90022966666667, "bike_id": "477b92b84eddd69bac769d9c655cecfe"}, {"lon": -77.0487525, "rental_uris": {"android": "https://dc.lft.to/lastmile_qr_scan", "ios": "https://dc.lft.to/lastmile_qr_scan"}, "fusion_lon": 0.0, "is_reserved": 0, "is_disabled": 0, "fusion_lat": 0.0, "type": "electric_scooter", "name": "28c17fe34082ae90e14b849337a458f2", "lat": 38.899576333333336, "bike_id": "28c17fe34082ae90e14b849337a458f2"}, {"lon": -77.02152683333334, "rental_uris": {"android": "https://dc.lft.to/lastmile_qr_scan", "ios": "https://dc.lft.to/lastmile_qr_scan"}, "fusion_lon": 0.0, "is_reserved": 0, "is_disabled": 0, "fusion_lat": 0.0, "type": "electric_scooter", "name": "b545adaa261bebcf6ed88a90799e9482", "lat": 38.894035833333334, "bike_id": "b545adaa261bebcf6ed88a90799e9482"}, {"lon": -77.0415245, "rental_uris": {"android": "https://dc.lft.to/lastmile_qr_scan", "ios": "https://dc.lft.to/lastmile_qr_scan"}, "fusion_lon": 0.0, "is_reserved": 0, "is_disabled": 0, "fusion_lat": 0.0, "type": "electric_scooter", "name": "049b4a658a737cbdca4edb5c09cf092e", "lat": 38.9038795, "bike_id": "049b4a658a737cbdca4edb5c09cf092e"}, {"lon": -76.95436316666667, "rental_uris": {"android": "https://dc.lft.to/lastmile_qr_scan", "ios": "https://dc.lft.to/lastmile_qr_scan"}, "fusion_lon": 0.0, "is_reserved": 0, "is_disabled": 0, "fusion_lat": 0.0, "type": "electric_scooter", "name": "ecde1d1a4b55ed528fcdb01fe02f279e", "lat": 38.890759833333334, "bike_id": "ecde1d1a4b55ed528fcdb01fe02f279e"}, {"lon": -77.03046166666667, "rental_uris": {"android": "https://dc.lft.to/lastmile_qr_scan", "ios": "https://dc.lft.to/lastmile_qr_scan"}, "fusion_lon": 0.0, "is_reserved": 0, "is_disabled": 0, "fusion_lat": 0.0, "type": "electric_scooter", "name": "13a3c36553c8ce0b39ad5e96a988a847", "lat": 38.916757833333335, "bike_id": "13a3c36553c8ce0b39ad5e96a988a847"}, {"lon": -77.071203, "rental_uris": {"android": "https://dc.lft.to/lastmile_qr_scan", "ios": "https://dc.lft.to/lastmile_qr_scan"}, "fusion_lon": 0.0, "is_reserved": 0, "is_disabled": 0, "fusion_lat": 0.0, "type": "electric_scooter", "name": "46b016c037cfb4315bb29523ecdd427f", "lat": 38.9196875, "bike_id": "46b016c037cfb4315bb29523ecdd427f"}, {"lon": -77.04228366666666, "rental_uris": {"android": "https://dc.lft.to/lastmile_qr_scan", "ios": "https://dc.lft.to/lastmile_qr_scan"}, "fusion_lon": 0.0, "is_reserved": 0, "is_disabled": 0, "fusion_lat": 0.0, "type": "electric_scooter", "name": "80246f1ca02251142e775fb56bba9f0f", "lat": 38.911845, "bike_id": "80246f1ca02251142e775fb56bba9f0f"}, {"lon": -76.97771583333333, "rental_uris": {"android": "https://dc.lft.to/lastmile_qr_scan", "ios": "https://dc.lft.to/lastmile_qr_scan"}, "fusion_lon": 0.0, "is_reserved": 0, "is_disabled": 0, "fusion_lat": 0.0, "type": "electric_bike", "name": "e88ba831f351e84ab07f8aea991f9792", "lat": 38.85721016666667, "bike_id": "e88ba831f351e84ab07f8aea991f9792"}, {"lon": -77.02199883333333, "rental_uris": {"android": "https://dc.lft.to/lastmile_qr_scan", "ios": "https://dc.lft.to/lastmile_qr_scan"}, "fusion_lon": 0.0, "is_reserved": 0, "is_disabled": 0, "fusion_lat": 0.0, "type": "electric_scooter", "name": "34a1fba96770d35af3454c0edc2ba634", "lat": 38.90352266666667, "bike_id": "34a1fba96770d35af3454c0edc2ba634"}, {"lon": -77.0383505, "rental_uris": {"android": "https://dc.lft.to/lastmile_qr_scan", "ios": "https://dc.lft.to/lastmile_qr_scan"}, "fusion_lon": 0.0, "is_reserved": 0, "is_disabled": 0, "fusion_lat": 0.0, "type": "electric_scooter", "name": "b6d73a1ed85613ed5460753cf9d231e5", "lat": 38.90372683333333, "bike_id": "b6d73a1ed85613ed5460753cf9d231e5"}, {"lon": -77.027, "rental_uris": {"android": "https://dc.lft.to/lastmile_qr_scan", "ios": "https://dc.lft.to/lastmile_qr_scan"}, "fusion_lon": 0.0, "is_reserved": 0, "is_disabled": 0, "fusion_lat": 0.0, "type": "electric_scooter", "name": "3775b90a654c69b013a533b47ec93a7a", "lat": 38.917270333333335, "bike_id": "3775b90a654c69b013a533b47ec93a7a"}, {"lon": -76.98072183333333, "rental_uris": {"android": "https://dc.lft.to/lastmile_qr_scan", "ios": "https://dc.lft.to/lastmile_qr_scan"}, "fusion_lon": 0.0, "is_reserved": 0, "is_disabled": 0, "fusion_lat": 0.0, "type": "electric_scooter", "name": "9bafb2556b2dc731f9e8572a7d1e26c6", "lat": 38.88016266666666, "bike_id": "9bafb2556b2dc731f9e8572a7d1e26c6"}, {"lon": -77.03113083333334, "rental_uris": {"android": "https://dc.lft.to/lastmile_qr_scan", "ios": "https://dc.lft.to/lastmile_qr_scan"}, "fusion_lon": 0.0, "is_reserved": 0, "is_disabled": 0, "fusion_lat": 0.0, "type": "electric_scooter", "name": "b9560b2c55aa39d5f6fd2807ac5ac59f", "lat": 38.9202125, "bike_id": "b9560b2c55aa39d5f6fd2807ac5ac59f"}, {"lon": -77.04137633333333, "rental_uris": {"android": "https://dc.lft.to/lastmile_qr_scan", "ios": "https://dc.lft.to/lastmile_qr_scan"}, "fusion_lon": 0.0, "is_reserved": 0, "is_disabled": 0, "fusion_lat": 0.0, "type": "electric_scooter", "name": "c6e916520fea75184a98645f28a77f68", "lat": 38.9346535, "bike_id": "c6e916520fea75184a98645f28a77f68"}, {"lon": -77.020684, "rental_uris": {"android": "https://dc.lft.to/lastmile_qr_scan", "ios": "https://dc.lft.to/lastmile_qr_scan"}, "fusion_lon": 0.0, "is_reserved": 0, "is_disabled": 0, "fusion_lat": 0.0, "type": "electric_scooter", "name": "a3a729718dde99d72d832ffef125aae5", "lat": 38.92118333333333, "bike_id": "a3a729718dde99d72d832ffef125aae5"}, {"lon": -77.044659, "rental_uris": {"android": "https://dc.lft.to/lastmile_qr_scan", "ios": "https://dc.lft.to/lastmile_qr_scan"}, "fusion_lon": 0.0, "is_reserved": 0, "is_disabled": 0, "fusion_lat": 0.0, "type": "electric_scooter", "name": "512e8e5e4b814ffd21415a3257aa8928", "lat": 38.8991155, "bike_id": "512e8e5e4b814ffd21415a3257aa8928"}, {"lon": -77.03704533333334, "rental_uris": {"android": "https://dc.lft.to/lastmile_qr_scan", "ios": "https://dc.lft.to/lastmile_qr_scan"}, "fusion_lon": 0.0, "is_reserved": 0, "is_disabled": 0, "fusion_lat": 0.0, "type": "electric_scooter", "name": "39e2288e2830c27b6963134a9aaa5a8d", "lat": 38.926400666666666, "bike_id": "39e2288e2830c27b6963134a9aaa5a8d"}, {"lon": -77.035383, "rental_uris": {"android": "https://dc.lft.to/lastmile_qr_scan", "ios": "https://dc.lft.to/lastmile_qr_scan"}, "fusion_lon": 0.0, "is_reserved": 0, "is_disabled": 0, "fusion_lat": 0.0, "type": "electric_scooter", "name": "adf950547aa1711499131a0d3d22381f", "lat": 38.907309833333336, "bike_id": "adf950547aa1711499131a0d3d22381f"}, {"lon": -77.00324366666666, "rental_uris": {"android": "https://dc.lft.to/lastmile_qr_scan", "ios": "https://dc.lft.to/lastmile_qr_scan"}, "fusion_lon": 0.0, "is_reserved": 0, "is_disabled": 0, "fusion_lat": 0.0, "type": "electric_scooter", "name": "fc994d5715269193cd3b1621c39953e7", "lat": 38.90819166666667, "bike_id": "fc994d5715269193cd3b1621c39953e7"}, {"lon": -77.0034585, "rental_uris": {"android": "https://dc.lft.to/lastmile_qr_scan", "ios": "https://dc.lft.to/lastmile_qr_scan"}, "fusion_lon": 0.0, "is_reserved": 0, "is_disabled": 0, "fusion_lat": 0.0, "type": "electric_scooter", "name": "b1dddf96133e7ab281d9c7ae19379a80", "lat": 38.895252666666664, "bike_id": "b1dddf96133e7ab281d9c7ae19379a80"}, {"lon": -77.0906085, "rental_uris": {"android": "https://dc.lft.to/lastmile_qr_scan", "ios": "https://dc.lft.to/lastmile_qr_scan"}, "fusion_lon": 0.0, "is_reserved": 0, "is_disabled": 0, "fusion_lat": 0.0, "type": "electric_scooter", "name": "63e738a812fe9ea92240ea7cd0876db6", "lat": 38.934375333333335, "bike_id": "63e738a812fe9ea92240ea7cd0876db6"}, {"lon": -77.03273916666667, "rental_uris": {"android": "https://dc.lft.to/lastmile_qr_scan", "ios": "https://dc.lft.to/lastmile_qr_scan"}, "fusion_lon": 0.0, "is_reserved": 0, "is_disabled": 0, "fusion_lat": 0.0, "type": "electric_scooter", "name": "7eb72bd42e00a25a6b78df0c978aa6d4", "lat": 38.93258983333333, "bike_id": "7eb72bd42e00a25a6b78df0c978aa6d4"}, {"lon": -77.04818033333333, "rental_uris": {"android": "https://dc.lft.to/lastmile_qr_scan", "ios": "https://dc.lft.to/lastmile_qr_scan"}, "fusion_lon": 0.0, "is_reserved": 0, "is_disabled": 0, "fusion_lat": 0.0, "type": "electric_scooter", "name": "ce52b5c9cfdd706d8adf846ffd74cfeb", "lat": 38.905102166666666, "bike_id": "ce52b5c9cfdd706d8adf846ffd74cfeb"}, {"lon": -77.04865316666667, "rental_uris": {"android": "https://dc.lft.to/lastmile_qr_scan", "ios": "https://dc.lft.to/lastmile_qr_scan"}, "fusion_lon": 0.0, "is_reserved": 0, "is_disabled": 0, "fusion_lat": 0.0, "type": "electric_scooter", "name": "279fc72a01fd683d162fd97c273e0c75", "lat": 38.9152135, "bike_id": "279fc72a01fd683d162fd97c273e0c75"}, {"lon": -77.050507, "rental_uris": {"android": "https://dc.lft.to/lastmile_qr_scan", "ios": "https://dc.lft.to/lastmile_qr_scan"}, "fusion_lon": 0.0, "is_reserved": 0, "is_disabled": 0, "fusion_lat": 0.0, "type": "electric_scooter", "name": "845432940ca723e76d346a38f810c93a", "lat": 38.90068466666666, "bike_id": "845432940ca723e76d346a38f810c93a"}, {"lon": -76.996689, "rental_uris": {"android": "https://dc.lft.to/lastmile_qr_scan", "ios": "https://dc.lft.to/lastmile_qr_scan"}, "fusion_lon": 0.0, "is_reserved": 0, "is_disabled": 0, "fusion_lat": 0.0, "type": "electric_scooter", "name": "4390d01990e3ea9997ac8291fa39629a", "lat": 38.856482166666666, "bike_id": "4390d01990e3ea9997ac8291fa39629a"}, {"lon": -77.02594816666667, "rental_uris": {"android": "https://dc.lft.to/lastmile_qr_scan", "ios": "https://dc.lft.to/lastmile_qr_scan"}, "fusion_lon": 0.0, "is_reserved": 0, "is_disabled": 0, "fusion_lat": 0.0, "type": "electric_scooter", "name": "dca8ba4726c6b7b1b44286c5faa37477", "lat": 38.91725916666667, "bike_id": "dca8ba4726c6b7b1b44286c5faa37477"}, {"lon": -77.07387466666667, "rental_uris": {"android": "https://dc.lft.to/lastmile_qr_scan", "ios": "https://dc.lft.to/lastmile_qr_scan"}, "fusion_lon": 0.0, "is_reserved": 0, "is_disabled": 0, "fusion_lat": 0.0, "type": "electric_scooter", "name": "73fca7d8e0c0e5a1918430ff8814a995", "lat": 38.96152416666666, "bike_id": "73fca7d8e0c0e5a1918430ff8814a995"}, {"lon": -77.055224, "rental_uris": {"android": "https://dc.lft.to/lastmile_qr_scan", "ios": "https://dc.lft.to/lastmile_qr_scan"}, "fusion_lon": 0.0, "is_reserved": 0, "is_disabled": 0, "fusion_lat": 0.0, "type": "electric_scooter", "name": "9052a1b4b15276a0b1e54ec938aee8b1", "lat": 38.89735066666667, "bike_id": "9052a1b4b15276a0b1e54ec938aee8b1"}, {"lon": -77.04167466666667, "rental_uris": {"android": "https://dc.lft.to/lastmile_qr_scan", "ios": "https://dc.lft.to/lastmile_qr_scan"}, "fusion_lon": 0.0, "is_reserved": 0, "is_disabled": 0, "fusion_lat": 0.0, "type": "electric_scooter", "name": "3d4b6fa18b82f54b084869b89da59951", "lat": 38.8989835, "bike_id": "3d4b6fa18b82f54b084869b89da59951"}, {"lon": -77.2341175, "rental_uris": {"android": "https://dc.lft.to/lastmile_qr_scan", "ios": "https://dc.lft.to/lastmile_qr_scan"}, "fusion_lon": 0.0, "is_reserved": 0, "is_disabled": 0, "fusion_lat": 0.0, "type": "electric_bike", "name": "d46a59755a7f5f9a26d5f10368f4910b", "lat": 38.875779666666666, "bike_id": "d46a59755a7f5f9a26d5f10368f4910b"}, {"lon": -77.05047233333333, "rental_uris": {"android": "https://dc.lft.to/lastmile_qr_scan", "ios": "https://dc.lft.to/lastmile_qr_scan"}, "fusion_lon": 0.0, "is_reserved": 0, "is_disabled": 0, "fusion_lat": 0.0, "type": "electric_scooter", "name": "94508f633024c6b4d5763d219f983fee", "lat": 38.906091, "bike_id": "94508f633024c6b4d5763d219f983fee"}, {"lon": -77.02789716666666, "rental_uris": {"android": "https://dc.lft.to/lastmile_qr_scan", "ios": "https://dc.lft.to/lastmile_qr_scan"}, "fusion_lon": 0.0, "is_reserved": 0, "is_disabled": 0, "fusion_lat": 0.0, "type": "electric_scooter", "name": "0a7eb0d4d40f758db24a403b19d995bf", "lat": 38.97342666666667, "bike_id": "0a7eb0d4d40f758db24a403b19d995bf"}, {"lon": -77.0237685, "rental_uris": {"android": "https://dc.lft.to/lastmile_qr_scan", "ios": "https://dc.lft.to/lastmile_qr_scan"}, "fusion_lon": 0.0, "is_reserved": 0, "is_disabled": 0, "fusion_lat": 0.0, "type": "electric_scooter", "name": "0434cb1af702ab3bf1c20e74d46ace06", "lat": 38.9019565, "bike_id": "0434cb1af702ab3bf1c20e74d46ace06"}, {"lon": -77.01940016666667, "rental_uris": {"android": "https://dc.lft.to/lastmile_qr_scan", "ios": "https://dc.lft.to/lastmile_qr_scan"}, "fusion_lon": 0.0, "is_reserved": 0, "is_disabled": 0, "fusion_lat": 0.0, "type": "electric_scooter", "name": "b8f7510a1450dbbceee524bc069f4413", "lat": 38.919052, "bike_id": "b8f7510a1450dbbceee524bc069f4413"}, {"lon": -77.0383925, "rental_uris": {"android": "https://dc.lft.to/lastmile_qr_scan", "ios": "https://dc.lft.to/lastmile_qr_scan"}, "fusion_lon": 0.0, "is_reserved": 0, "is_disabled": 0, "fusion_lat": 0.0, "type": "electric_scooter", "name": "c697f96092e1aa45fedd6885773ff438", "lat": 38.90268916666667, "bike_id": "c697f96092e1aa45fedd6885773ff438"}, {"lon": -76.9872525, "rental_uris": {"android": "https://dc.lft.to/lastmile_qr_scan", "ios": "https://dc.lft.to/lastmile_qr_scan"}, "fusion_lon": 0.0, "is_reserved": 0, "is_disabled": 0, "fusion_lat": 0.0, "type": "electric_scooter", "name": "12683445a715bcb1200f5f52d5ade93f", "lat": 38.903567333333335, "bike_id": "12683445a715bcb1200f5f52d5ade93f"}, {"lon": -77.0698485, "rental_uris": {"android": "https://dc.lft.to/lastmile_qr_scan", "ios": "https://dc.lft.to/lastmile_qr_scan"}, "fusion_lon": 0.0, "is_reserved": 0, "is_disabled": 0, "fusion_lat": 0.0, "type": "electric_scooter", "name": "667700ac29c7f9e5f0f86000aa0bc93b", "lat": 38.955246833333334, "bike_id": "667700ac29c7f9e5f0f86000aa0bc93b"}, {"lon": -77.03224283333333, "rental_uris": {"android": "https://dc.lft.to/lastmile_qr_scan", "ios": "https://dc.lft.to/lastmile_qr_scan"}, "fusion_lon": 0.0, "is_reserved": 0, "is_disabled": 0, "fusion_lat": 0.0, "type": "electric_scooter", "name": "d01129f51df12052d73ec72ec5b3fb60", "lat": 38.9097005, "bike_id": "d01129f51df12052d73ec72ec5b3fb60"}, {"lon": -77.0383525, "rental_uris": {"android": "https://dc.lft.to/lastmile_qr_scan", "ios": "https://dc.lft.to/lastmile_qr_scan"}, "fusion_lon": 0.0, "is_reserved": 0, "is_disabled": 0, "fusion_lat": 0.0, "type": "electric_scooter", "name": "70188b24868371955b0bec00aa80c004", "lat": 38.9450225, "bike_id": "70188b24868371955b0bec00aa80c004"}, {"lon": -77.03665366666667, "rental_uris": {"android": "https://dc.lft.to/lastmile_qr_scan", "ios": "https://dc.lft.to/lastmile_qr_scan"}, "fusion_lon": 0.0, "is_reserved": 0, "is_disabled": 0, "fusion_lat": 0.0, "type": "electric_scooter", "name": "8ac652f3bfde2b147aa628b0b898246c", "lat": 38.9320605, "bike_id": "8ac652f3bfde2b147aa628b0b898246c"}, {"lon": -77.00150633333334, "rental_uris": {"android": "https://dc.lft.to/lastmile_qr_scan", "ios": "https://dc.lft.to/lastmile_qr_scan"}, "fusion_lon": 0.0, "is_reserved": 0, "is_disabled": 0, "fusion_lat": 0.0, "type": "electric_scooter", "name": "3aa5a805bdf2a129f539726882a9a6d3", "lat": 38.910711666666664, "bike_id": "3aa5a805bdf2a129f539726882a9a6d3"}, {"lon": -77.01241033333334, "rental_uris": {"android": "https://dc.lft.to/lastmile_qr_scan", "ios": "https://dc.lft.to/lastmile_qr_scan"}, "fusion_lon": 0.0, "is_reserved": 0, "is_disabled": 0, "fusion_lat": 0.0, "type": "electric_scooter", "name": "c9794fa09ebed52b8812b399795df853", "lat": 38.89846383333333, "bike_id": "c9794fa09ebed52b8812b399795df853"}, {"lon": -77.0237355, "rental_uris": {"android": "https://dc.lft.to/lastmile_qr_scan", "ios": "https://dc.lft.to/lastmile_qr_scan"}, "fusion_lon": 0.0, "is_reserved": 0, "is_disabled": 0, "fusion_lat": 0.0, "type": "electric_scooter", "name": "a0f9d08f61e5709f0a7c4621555d4c17", "lat": 38.892097166666666, "bike_id": "a0f9d08f61e5709f0a7c4621555d4c17"}, {"lon": -77.03907383333333, "rental_uris": {"android": "https://dc.lft.to/lastmile_qr_scan", "ios": "https://dc.lft.to/lastmile_qr_scan"}, "fusion_lon": 0.0, "is_reserved": 0, "is_disabled": 0, "fusion_lat": 0.0, "type": "electric_scooter", "name": "ed9bba7c3a305812c55028cb88160964", "lat": 38.944010666666664, "bike_id": "ed9bba7c3a305812c55028cb88160964"}, {"lon": -77.0318065, "rental_uris": {"android": "https://dc.lft.to/lastmile_qr_scan", "ios": "https://dc.lft.to/lastmile_qr_scan"}, "fusion_lon": 0.0, "is_reserved": 0, "is_disabled": 0, "fusion_lat": 0.0, "type": "electric_scooter", "name": "eb675246717f53b62ab7c4b94691b640", "lat": 38.90519416666667, "bike_id": "eb675246717f53b62ab7c4b94691b640"}, {"lon": -77.01695283333333, "rental_uris": {"android": "https://dc.lft.to/lastmile_qr_scan", "ios": "https://dc.lft.to/lastmile_qr_scan"}, "fusion_lon": 0.0, "is_reserved": 0, "is_disabled": 0, "fusion_lat": 0.0, "type": "electric_scooter", "name": "e45c3646df4a265bd448f5e70e294faf", "lat": 38.90764716666666, "bike_id": "e45c3646df4a265bd448f5e70e294faf"}, {"lon": -77.04490216666666, "rental_uris": {"android": "https://dc.lft.to/lastmile_qr_scan", "ios": "https://dc.lft.to/lastmile_qr_scan"}, "fusion_lon": 0.0, "is_reserved": 0, "is_disabled": 0, "fusion_lat": 0.0, "type": "electric_scooter", "name": "c00e62f40246a37c1719514ebb4026d2", "lat": 38.90889833333333, "bike_id": "c00e62f40246a37c1719514ebb4026d2"}, {"lon": -77.04652983333334, "rental_uris": {"android": "https://dc.lft.to/lastmile_qr_scan", "ios": "https://dc.lft.to/lastmile_qr_scan"}, "fusion_lon": 0.0, "is_reserved": 0, "is_disabled": 0, "fusion_lat": 0.0, "type": "electric_scooter", "name": "4a09bf91503167a59646752d159b473e", "lat": 38.8922855, "bike_id": "4a09bf91503167a59646752d159b473e"}, {"lon": -77.00285916666667, "rental_uris": {"android": "https://dc.lft.to/lastmile_qr_scan", "ios": "https://dc.lft.to/lastmile_qr_scan"}, "fusion_lon": 0.0, "is_reserved": 0, "is_disabled": 0, "fusion_lat": 0.0, "type": "electric_scooter", "name": "693afcb586ceaefcccefb52b0ba1a68a", "lat": 38.876545666666665, "bike_id": "693afcb586ceaefcccefb52b0ba1a68a"}, {"lon": -77.02386483333333, "rental_uris": {"android": "https://dc.lft.to/lastmile_qr_scan", "ios": "https://dc.lft.to/lastmile_qr_scan"}, "fusion_lon": 0.0, "is_reserved": 0, "is_disabled": 0, "fusion_lat": 0.0, "type": "electric_scooter", "name": "83d9cd1d5c3d5c27f7ca08744060c3cf", "lat": 38.899363, "bike_id": "83d9cd1d5c3d5c27f7ca08744060c3cf"}, {"lon": -77.02810733333334, "rental_uris": {"android": "https://dc.lft.to/lastmile_qr_scan", "ios": "https://dc.lft.to/lastmile_qr_scan"}, "fusion_lon": 0.0, "is_reserved": 0, "is_disabled": 0, "fusion_lat": 0.0, "type": "electric_scooter", "name": "1555395a8fed0c356897262d17ee3c12", "lat": 38.912484666666664, "bike_id": "1555395a8fed0c356897262d17ee3c12"}, {"lon": -77.02806433333333, "rental_uris": {"android": "https://dc.lft.to/lastmile_qr_scan", "ios": "https://dc.lft.to/lastmile_qr_scan"}, "fusion_lon": 0.0, "is_reserved": 0, "is_disabled": 0, "fusion_lat": 0.0, "type": "electric_scooter", "name": "7660231bd3459eaad6ca79d01bbc7432", "lat": 38.892357833333335, "bike_id": "7660231bd3459eaad6ca79d01bbc7432"}, {"lon": -77.028235, "rental_uris": {"android": "https://dc.lft.to/lastmile_qr_scan", "ios": "https://dc.lft.to/lastmile_qr_scan"}, "fusion_lon": 0.0, "is_reserved": 0, "is_disabled": 0, "fusion_lat": 0.0, "type": "electric_scooter", "name": "bcc779943fd539a6aebf899fa4b4804e", "lat": 38.88656666666667, "bike_id": "bcc779943fd539a6aebf899fa4b4804e"}, {"lon": -77.01074183333333, "rental_uris": {"android": "https://dc.lft.to/lastmile_qr_scan", "ios": "https://dc.lft.to/lastmile_qr_scan"}, "fusion_lon": 0.0, "is_reserved": 0, "is_disabled": 0, "fusion_lat": 0.0, "type": "electric_scooter", "name": "f5cb2dbf0f360c34c15162c1491fd3d9", "lat": 38.914076666666666, "bike_id": "f5cb2dbf0f360c34c15162c1491fd3d9"}, {"lon": -77.02213233333333, "rental_uris": {"android": "https://dc.lft.to/lastmile_qr_scan", "ios": "https://dc.lft.to/lastmile_qr_scan"}, "fusion_lon": 0.0, "is_reserved": 0, "is_disabled": 0, "fusion_lat": 0.0, "type": "electric_scooter", "name": "d92e764ba05b9da28240910595151e71", "lat": 38.905367, "bike_id": "d92e764ba05b9da28240910595151e71"}, {"lon": -77.0260445, "rental_uris": {"android": "https://dc.lft.to/lastmile_qr_scan", "ios": "https://dc.lft.to/lastmile_qr_scan"}, "fusion_lon": 0.0, "is_reserved": 0, "is_disabled": 0, "fusion_lat": 0.0, "type": "electric_scooter", "name": "acd6aefb763820e4424a6dbcb921eca3", "lat": 38.919511166666666, "bike_id": "acd6aefb763820e4424a6dbcb921eca3"}, {"lon": -77.02215633333333, "rental_uris": {"android": "https://dc.lft.to/lastmile_qr_scan", "ios": "https://dc.lft.to/lastmile_qr_scan"}, "fusion_lon": 0.0, "is_reserved": 0, "is_disabled": 0, "fusion_lat": 0.0, "type": "electric_scooter", "name": "04f9d417415664617dcbed2695585e46", "lat": 38.897274333333336, "bike_id": "04f9d417415664617dcbed2695585e46"}, {"lon": -77.04056016666667, "rental_uris": {"android": "https://dc.lft.to/lastmile_qr_scan", "ios": "https://dc.lft.to/lastmile_qr_scan"}, "fusion_lon": 0.0, "is_reserved": 0, "is_disabled": 0, "fusion_lat": 0.0, "type": "electric_scooter", "name": "78c4b78a902c31b291d4d6df63d5a51a", "lat": 38.9088015, "bike_id": "78c4b78a902c31b291d4d6df63d5a51a"}, {"lon": -77.03805166666666, "rental_uris": {"android": "https://dc.lft.to/lastmile_qr_scan", "ios": "https://dc.lft.to/lastmile_qr_scan"}, "fusion_lon": 0.0, "is_reserved": 0, "is_disabled": 0, "fusion_lat": 0.0, "type": "electric_scooter", "name": "f85e123e1ba62f138769b5bd2c270cd3", "lat": 38.917965833333334, "bike_id": "f85e123e1ba62f138769b5bd2c270cd3"}, {"lon": -77.02246783333334, "rental_uris": {"android": "https://dc.lft.to/lastmile_qr_scan", "ios": "https://dc.lft.to/lastmile_qr_scan"}, "fusion_lon": 0.0, "is_reserved": 0, "is_disabled": 0, "fusion_lat": 0.0, "type": "electric_scooter", "name": "9d4a7ff96692977c5a51f6c88d8c45a0", "lat": 38.924665833333336, "bike_id": "9d4a7ff96692977c5a51f6c88d8c45a0"}, {"lon": -76.978905, "rental_uris": {"android": "https://dc.lft.to/lastmile_qr_scan", "ios": "https://dc.lft.to/lastmile_qr_scan"}, "fusion_lon": 0.0, "is_reserved": 0, "is_disabled": 0, "fusion_lat": 0.0, "type": "electric_scooter", "name": "55352ee261134c4743d5e05cce98078c", "lat": 38.885406833333334, "bike_id": "55352ee261134c4743d5e05cce98078c"}, {"lon": -77.03238683333333, "rental_uris": {"android": "https://dc.lft.to/lastmile_qr_scan", "ios": "https://dc.lft.to/lastmile_qr_scan"}, "fusion_lon": 0.0, "is_reserved": 0, "is_disabled": 0, "fusion_lat": 0.0, "type": "electric_scooter", "name": "3d56b4a45c6765af003e50649c4cab13", "lat": 38.961526166666665, "bike_id": "3d56b4a45c6765af003e50649c4cab13"}, {"lon": -77.01036066666667, "rental_uris": {"android": "https://dc.lft.to/lastmile_qr_scan", "ios": "https://dc.lft.to/lastmile_qr_scan"}, "fusion_lon": 0.0, "is_reserved": 0, "is_disabled": 0, "fusion_lat": 0.0, "type": "electric_scooter", "name": "58a1819bb1cbd1621125ef94fe058520", "lat": 38.92024216666667, "bike_id": "58a1819bb1cbd1621125ef94fe058520"}, {"lon": -77.01482166666666, "rental_uris": {"android": "https://dc.lft.to/lastmile_qr_scan", "ios": "https://dc.lft.to/lastmile_qr_scan"}, "fusion_lon": 0.0, "is_reserved": 0, "is_disabled": 0, "fusion_lat": 0.0, "type": "electric_scooter", "name": "cffe7d74270f5ae625ce5b5af474ce7f", "lat": 38.943267666666664, "bike_id": "cffe7d74270f5ae625ce5b5af474ce7f"}, {"lon": -77.0691945, "rental_uris": {"android": "https://dc.lft.to/lastmile_qr_scan", "ios": "https://dc.lft.to/lastmile_qr_scan"}, "fusion_lon": 0.0, "is_reserved": 0, "is_disabled": 0, "fusion_lat": 0.0, "type": "electric_bike", "name": "e475108abac56bc925526a65c8706d7a", "lat": 38.806749333333336, "bike_id": "e475108abac56bc925526a65c8706d7a"}, {"lon": -77.02933033333333, "rental_uris": {"android": "https://dc.lft.to/lastmile_qr_scan", "ios": "https://dc.lft.to/lastmile_qr_scan"}, "fusion_lon": 0.0, "is_reserved": 0, "is_disabled": 0, "fusion_lat": 0.0, "type": "electric_scooter", "name": "bda1dc17281edcedf3c57d308e1acc12", "lat": 38.9427845, "bike_id": "bda1dc17281edcedf3c57d308e1acc12"}, {"lon": -76.933838, "rental_uris": {"android": "https://dc.lft.to/lastmile_qr_scan", "ios": "https://dc.lft.to/lastmile_qr_scan"}, "fusion_lon": 0.0, "is_reserved": 0, "is_disabled": 0, "fusion_lat": 0.0, "type": "electric_scooter", "name": "c35b8c7d45db6bba7e1ce9d0f3bf020b", "lat": 38.899081, "bike_id": "c35b8c7d45db6bba7e1ce9d0f3bf020b"}, {"lon": -77.03635783333333, "rental_uris": {"android": "https://dc.lft.to/lastmile_qr_scan", "ios": "https://dc.lft.to/lastmile_qr_scan"}, "fusion_lon": 0.0, "is_reserved": 0, "is_disabled": 0, "fusion_lat": 0.0, "type": "electric_scooter", "name": "3a7d5f338fae056527acee47dc93f5d7", "lat": 38.935092833333336, "bike_id": "3a7d5f338fae056527acee47dc93f5d7"}, {"lon": -77.01198, "rental_uris": {"android": "https://dc.lft.to/lastmile_qr_scan", "ios": "https://dc.lft.to/lastmile_qr_scan"}, "fusion_lon": 0.0, "is_reserved": 0, "is_disabled": 0, "fusion_lat": 0.0, "type": "electric_scooter", "name": "2257711c65b934c2caf575a6d3113757", "lat": 38.89795483333333, "bike_id": "2257711c65b934c2caf575a6d3113757"}, {"lon": -77.030297, "rental_uris": {"android": "https://dc.lft.to/lastmile_qr_scan", "ios": "https://dc.lft.to/lastmile_qr_scan"}, "fusion_lon": 0.0, "is_reserved": 0, "is_disabled": 0, "fusion_lat": 0.0, "type": "electric_scooter", "name": "3bdaf05a597bab865f0b3f249f772a94", "lat": 38.89755816666667, "bike_id": "3bdaf05a597bab865f0b3f249f772a94"}, {"lon": -77.0490025, "rental_uris": {"android": "https://dc.lft.to/lastmile_qr_scan", "ios": "https://dc.lft.to/lastmile_qr_scan"}, "fusion_lon": 0.0, "is_reserved": 0, "is_disabled": 0, "fusion_lat": 0.0, "type": "electric_scooter", "name": "d62184dd6ac4dcf7ce50494814bbbdec", "lat": 38.8922275, "bike_id": "d62184dd6ac4dcf7ce50494814bbbdec"}, {"lon": -77.02487883333333, "rental_uris": {"android": "https://dc.lft.to/lastmile_qr_scan", "ios": "https://dc.lft.to/lastmile_qr_scan"}, "fusion_lon": 0.0, "is_reserved": 0, "is_disabled": 0, "fusion_lat": 0.0, "type": "electric_scooter", "name": "fa773ded8c7ab777f8a4edf493be20c2", "lat": 38.930947, "bike_id": "fa773ded8c7ab777f8a4edf493be20c2"}, {"lon": -77.02356433333334, "rental_uris": {"android": "https://dc.lft.to/lastmile_qr_scan", "ios": "https://dc.lft.to/lastmile_qr_scan"}, "fusion_lon": 0.0, "is_reserved": 0, "is_disabled": 0, "fusion_lat": 0.0, "type": "electric_scooter", "name": "8139ca6c85cbe18d2ac07a4521d13899", "lat": 38.87923216666667, "bike_id": "8139ca6c85cbe18d2ac07a4521d13899"}, {"lon": -77.03754833333333, "rental_uris": {"android": "https://dc.lft.to/lastmile_qr_scan", "ios": "https://dc.lft.to/lastmile_qr_scan"}, "fusion_lon": 0.0, "is_reserved": 0, "is_disabled": 0, "fusion_lat": 0.0, "type": "electric_scooter", "name": "c659de9df68d616ae81099fc5fa20e97", "lat": 38.915544833333335, "bike_id": "c659de9df68d616ae81099fc5fa20e97"}, {"lon": -77.02834, "rental_uris": {"android": "https://dc.lft.to/lastmile_qr_scan", "ios": "https://dc.lft.to/lastmile_qr_scan"}, "fusion_lon": 0.0, "is_reserved": 0, "is_disabled": 0, "fusion_lat": 0.0, "type": "electric_scooter", "name": "abb0eb77169f71f380fdd2ed0562b583", "lat": 38.922175833333334, "bike_id": "abb0eb77169f71f380fdd2ed0562b583"}, {"lon": -76.987231, "rental_uris": {"android": "https://dc.lft.to/lastmile_qr_scan", "ios": "https://dc.lft.to/lastmile_qr_scan"}, "fusion_lon": 0.0, "is_reserved": 0, "is_disabled": 0, "fusion_lat": 0.0, "type": "electric_bike", "name": "efba726f4a93a5c807a4f3d454fe0914", "lat": 38.863306333333334, "bike_id": "efba726f4a93a5c807a4f3d454fe0914"}, {"lon": -77.03658433333334, "rental_uris": {"android": "https://dc.lft.to/lastmile_qr_scan", "ios": "https://dc.lft.to/lastmile_qr_scan"}, "fusion_lon": 0.0, "is_reserved": 0, "is_disabled": 0, "fusion_lat": 0.0, "type": "electric_scooter", "name": "89fe425d33d9191b21d3f18336bbba81", "lat": 38.9112995, "bike_id": "89fe425d33d9191b21d3f18336bbba81"}, {"lon": -77.07273516666666, "rental_uris": {"android": "https://dc.lft.to/lastmile_qr_scan", "ios": "https://dc.lft.to/lastmile_qr_scan"}, "fusion_lon": 0.0, "is_reserved": 0, "is_disabled": 0, "fusion_lat": 0.0, "type": "electric_scooter", "name": "361ad866e8b6fb400b26a9bc239b0225", "lat": 38.909098, "bike_id": "361ad866e8b6fb400b26a9bc239b0225"}, {"lon": -77.00916833333333, "rental_uris": {"android": "https://dc.lft.to/lastmile_qr_scan", "ios": "https://dc.lft.to/lastmile_qr_scan"}, "fusion_lon": 0.0, "is_reserved": 0, "is_disabled": 0, "fusion_lat": 0.0, "type": "electric_scooter", "name": "8e9923e8c35383b428783e38352fac29", "lat": 38.90760266666667, "bike_id": "8e9923e8c35383b428783e38352fac29"}, {"lon": -77.03396383333333, "rental_uris": {"android": "https://dc.lft.to/lastmile_qr_scan", "ios": "https://dc.lft.to/lastmile_qr_scan"}, "fusion_lon": 0.0, "is_reserved": 0, "is_disabled": 0, "fusion_lat": 0.0, "type": "electric_scooter", "name": "61a218d5fbbbbb83649ad7bf31db2f3f", "lat": 38.938401999999996, "bike_id": "61a218d5fbbbbb83649ad7bf31db2f3f"}, {"lon": -77.0032945, "rental_uris": {"android": "https://dc.lft.to/lastmile_qr_scan", "ios": "https://dc.lft.to/lastmile_qr_scan"}, "fusion_lon": 0.0, "is_reserved": 0, "is_disabled": 0, "fusion_lat": 0.0, "type": "electric_scooter", "name": "fb8b5271b77ae8ab8732bd20cae1d310", "lat": 38.87641883333333, "bike_id": "fb8b5271b77ae8ab8732bd20cae1d310"}, {"lon": -77.23675083333333, "rental_uris": {"android": "https://dc.lft.to/lastmile_qr_scan", "ios": "https://dc.lft.to/lastmile_qr_scan"}, "fusion_lon": 0.0, "is_reserved": 0, "is_disabled": 0, "fusion_lat": 0.0, "type": "electric_bike", "name": "853c85be244317913ac90122d4b3db39", "lat": 38.92111416666667, "bike_id": "853c85be244317913ac90122d4b3db39"}, {"lon": -77.00567116666667, "rental_uris": {"android": "https://dc.lft.to/lastmile_qr_scan", "ios": "https://dc.lft.to/lastmile_qr_scan"}, "fusion_lon": 0.0, "is_reserved": 0, "is_disabled": 0, "fusion_lat": 0.0, "type": "electric_scooter", "name": "71097b0d68c3b4e81ab3cce39398837c", "lat": 38.918229333333336, "bike_id": "71097b0d68c3b4e81ab3cce39398837c"}, {"lon": -77.05312066666667, "rental_uris": {"android": "https://dc.lft.to/lastmile_qr_scan", "ios": "https://dc.lft.to/lastmile_qr_scan"}, "fusion_lon": 0.0, "is_reserved": 0, "is_disabled": 0, "fusion_lat": 0.0, "type": "electric_scooter", "name": "3f942a9fe7a17afd984f5f792544e884", "lat": 38.90266716666667, "bike_id": "3f942a9fe7a17afd984f5f792544e884"}, {"lon": -77.05380366666667, "rental_uris": {"android": "https://dc.lft.to/lastmile_qr_scan", "ios": "https://dc.lft.to/lastmile_qr_scan"}, "fusion_lon": 0.0, "is_reserved": 0, "is_disabled": 0, "fusion_lat": 0.0, "type": "electric_scooter", "name": "69249ea329d3264f72b1dc7badbf7381", "lat": 38.90378616666667, "bike_id": "69249ea329d3264f72b1dc7badbf7381"}, {"lon": -77.000664, "rental_uris": {"android": "https://dc.lft.to/lastmile_qr_scan", "ios": "https://dc.lft.to/lastmile_qr_scan"}, "fusion_lon": 0.0, "is_reserved": 0, "is_disabled": 0, "fusion_lat": 0.0, "type": "electric_scooter", "name": "e216d7c9b3cc905e71edb16287bb3fea", "lat": 38.92390966666667, "bike_id": "e216d7c9b3cc905e71edb16287bb3fea"}, {"lon": -77.03281133333333, "rental_uris": {"android": "https://dc.lft.to/lastmile_qr_scan", "ios": "https://dc.lft.to/lastmile_qr_scan"}, "fusion_lon": 0.0, "is_reserved": 0, "is_disabled": 0, "fusion_lat": 0.0, "type": "electric_scooter", "name": "21060f002ff4062282d4cc6e9317f5d2", "lat": 38.93783833333333, "bike_id": "21060f002ff4062282d4cc6e9317f5d2"}, {"lon": -77.04160933333333, "rental_uris": {"android": "https://dc.lft.to/lastmile_qr_scan", "ios": "https://dc.lft.to/lastmile_qr_scan"}, "fusion_lon": 0.0, "is_reserved": 0, "is_disabled": 0, "fusion_lat": 0.0, "type": "electric_scooter", "name": "d70306aa552b920dc6c20490ffdf74c0", "lat": 38.90674666666666, "bike_id": "d70306aa552b920dc6c20490ffdf74c0"}, {"lon": -77.00351816666667, "rental_uris": {"android": "https://dc.lft.to/lastmile_qr_scan", "ios": "https://dc.lft.to/lastmile_qr_scan"}, "fusion_lon": 0.0, "is_reserved": 0, "is_disabled": 0, "fusion_lat": 0.0, "type": "electric_scooter", "name": "13cf1a9942d0148a6354420d5bad8a7e", "lat": 38.896261, "bike_id": "13cf1a9942d0148a6354420d5bad8a7e"}, {"lon": -77.01362716666667, "rental_uris": {"android": "https://dc.lft.to/lastmile_qr_scan", "ios": "https://dc.lft.to/lastmile_qr_scan"}, "fusion_lon": 0.0, "is_reserved": 0, "is_disabled": 0, "fusion_lat": 0.0, "type": "electric_scooter", "name": "03d7fcfa6df1b4c92a4d459792f8e9eb", "lat": 38.928875, "bike_id": "03d7fcfa6df1b4c92a4d459792f8e9eb"}, {"lon": -77.03004516666667, "rental_uris": {"android": "https://dc.lft.to/lastmile_qr_scan", "ios": "https://dc.lft.to/lastmile_qr_scan"}, "fusion_lon": 0.0, "is_reserved": 0, "is_disabled": 0, "fusion_lat": 0.0, "type": "electric_scooter", "name": "df8a62139a80e7d78e2780727aa72da3", "lat": 38.9002435, "bike_id": "df8a62139a80e7d78e2780727aa72da3"}, {"lon": -77.04281566666667, "rental_uris": {"android": "https://dc.lft.to/lastmile_qr_scan", "ios": "https://dc.lft.to/lastmile_qr_scan"}, "fusion_lon": 0.0, "is_reserved": 0, "is_disabled": 0, "fusion_lat": 0.0, "type": "electric_scooter", "name": "6296712b87d82e3a93e8b0b573fef194", "lat": 38.93422833333333, "bike_id": "6296712b87d82e3a93e8b0b573fef194"}, {"lon": -77.0392325, "rental_uris": {"android": "https://dc.lft.to/lastmile_qr_scan", "ios": "https://dc.lft.to/lastmile_qr_scan"}, "fusion_lon": 0.0, "is_reserved": 0, "is_disabled": 0, "fusion_lat": 0.0, "type": "electric_scooter", "name": "ca2992d9a51385b497aa0440ee982da6", "lat": 38.901546333333336, "bike_id": "ca2992d9a51385b497aa0440ee982da6"}, {"lon": -77.02186616666667, "rental_uris": {"android": "https://dc.lft.to/lastmile_qr_scan", "ios": "https://dc.lft.to/lastmile_qr_scan"}, "fusion_lon": 0.0, "is_reserved": 0, "is_disabled": 0, "fusion_lat": 0.0, "type": "electric_bike", "name": "9471c43f1a772b23821d49b140066b3b", "lat": 39.004805, "bike_id": "9471c43f1a772b23821d49b140066b3b"}, {"lon": -77.05130666666666, "rental_uris": {"android": "https://dc.lft.to/lastmile_qr_scan", "ios": "https://dc.lft.to/lastmile_qr_scan"}, "fusion_lon": 0.0, "is_reserved": 0, "is_disabled": 0, "fusion_lat": 0.0, "type": "electric_scooter", "name": "b374a630c07e082b48ff002dd3c23068", "lat": 38.906432333333335, "bike_id": "b374a630c07e082b48ff002dd3c23068"}, {"lon": -77.04014116666667, "rental_uris": {"android": "https://dc.lft.to/lastmile_qr_scan", "ios": "https://dc.lft.to/lastmile_qr_scan"}, "fusion_lon": 0.0, "is_reserved": 0, "is_disabled": 0, "fusion_lat": 0.0, "type": "electric_scooter", "name": "aabacba17688799f54d680edf9e4a1f6", "lat": 38.90133, "bike_id": "aabacba17688799f54d680edf9e4a1f6"}, {"lon": -77.0467445, "rental_uris": {"android": "https://dc.lft.to/lastmile_qr_scan", "ios": "https://dc.lft.to/lastmile_qr_scan"}, "fusion_lon": 0.0, "is_reserved": 0, "is_disabled": 0, "fusion_lat": 0.0, "type": "electric_scooter", "name": "235a83b4758faee30620466f7b39321f", "lat": 38.895023, "bike_id": "235a83b4758faee30620466f7b39321f"}, {"lon": -77.03820983333334, "rental_uris": {"android": "https://dc.lft.to/lastmile_qr_scan", "ios": "https://dc.lft.to/lastmile_qr_scan"}, "fusion_lon": 0.0, "is_reserved": 0, "is_disabled": 0, "fusion_lat": 0.0, "type": "electric_scooter", "name": "3fa5ab2014a69ef83bd6a3cbb860de69", "lat": 38.90688883333333, "bike_id": "3fa5ab2014a69ef83bd6a3cbb860de69"}, {"lon": -77.031691, "rental_uris": {"android": "https://dc.lft.to/lastmile_qr_scan", "ios": "https://dc.lft.to/lastmile_qr_scan"}, "fusion_lon": 0.0, "is_reserved": 0, "is_disabled": 0, "fusion_lat": 0.0, "type": "electric_scooter", "name": "f600c29a9b62c144bff638c4f6d81310", "lat": 38.89215083333333, "bike_id": "f600c29a9b62c144bff638c4f6d81310"}, {"lon": -77.02257816666666, "rental_uris": {"android": "https://dc.lft.to/lastmile_qr_scan", "ios": "https://dc.lft.to/lastmile_qr_scan"}, "fusion_lon": 0.0, "is_reserved": 0, "is_disabled": 0, "fusion_lat": 0.0, "type": "electric_scooter", "name": "0f063da4f31770ae451f2550fedf87a3", "lat": 38.928854, "bike_id": "0f063da4f31770ae451f2550fedf87a3"}, {"lon": -76.96508, "rental_uris": {"android": "https://dc.lft.to/lastmile_qr_scan", "ios": "https://dc.lft.to/lastmile_qr_scan"}, "fusion_lon": 0.0, "is_reserved": 0, "is_disabled": 0, "fusion_lat": 0.0, "type": "electric_scooter", "name": "d9d6fe4f037dd708faf2c2c0d3610e47", "lat": 38.8764595, "bike_id": "d9d6fe4f037dd708faf2c2c0d3610e47"}, {"lon": -77.0313765, "rental_uris": {"android": "https://dc.lft.to/lastmile_qr_scan", "ios": "https://dc.lft.to/lastmile_qr_scan"}, "fusion_lon": 0.0, "is_reserved": 0, "is_disabled": 0, "fusion_lat": 0.0, "type": "electric_scooter", "name": "ae66df4bfa52d513b5fa0ab1ef9ed5c1", "lat": 38.90263266666667, "bike_id": "ae66df4bfa52d513b5fa0ab1ef9ed5c1"}, {"lon": -76.97526283333333, "rental_uris": {"android": "https://dc.lft.to/lastmile_qr_scan", "ios": "https://dc.lft.to/lastmile_qr_scan"}, "fusion_lon": 0.0, "is_reserved": 0, "is_disabled": 0, "fusion_lat": 0.0, "type": "electric_bike", "name": "a5f935673873bfadd8c9febfa85c44d3", "lat": 38.8400105, "bike_id": "a5f935673873bfadd8c9febfa85c44d3"}, {"lon": -77.0383925, "rental_uris": {"android": "https://dc.lft.to/lastmile_qr_scan", "ios": "https://dc.lft.to/lastmile_qr_scan"}, "fusion_lon": 0.0, "is_reserved": 0, "is_disabled": 0, "fusion_lat": 0.0, "type": "electric_scooter", "name": "13814ae0b6603bb9fef94019cf79de33", "lat": 38.902577, "bike_id": "13814ae0b6603bb9fef94019cf79de33"}, {"lon": -76.992274, "rental_uris": {"android": "https://dc.lft.to/lastmile_qr_scan", "ios": "https://dc.lft.to/lastmile_qr_scan"}, "fusion_lon": 0.0, "is_reserved": 0, "is_disabled": 0, "fusion_lat": 0.0, "type": "electric_scooter", "name": "b799bc3fd5feba12e7d2138b138f9c66", "lat": 38.86283566666667, "bike_id": "b799bc3fd5feba12e7d2138b138f9c66"}, {"lon": -76.98089633333333, "rental_uris": {"android": "https://dc.lft.to/lastmile_qr_scan", "ios": "https://dc.lft.to/lastmile_qr_scan"}, "fusion_lon": 0.0, "is_reserved": 0, "is_disabled": 0, "fusion_lat": 0.0, "type": "electric_scooter", "name": "3506a684dfa31ecab25710c1ae8c17f1", "lat": 38.86697866666667, "bike_id": "3506a684dfa31ecab25710c1ae8c17f1"}, {"lon": -76.95543566666667, "rental_uris": {"android": "https://dc.lft.to/lastmile_qr_scan", "ios": "https://dc.lft.to/lastmile_qr_scan"}, "fusion_lon": 0.0, "is_reserved": 0, "is_disabled": 0, "fusion_lat": 0.0, "type": "electric_scooter", "name": "4b948a7823c73694f3a33bbf27acd5ad", "lat": 38.92737316666667, "bike_id": "4b948a7823c73694f3a33bbf27acd5ad"}, {"lon": -77.05031133333334, "rental_uris": {"android": "https://dc.lft.to/lastmile_qr_scan", "ios": "https://dc.lft.to/lastmile_qr_scan"}, "fusion_lon": 0.0, "is_reserved": 0, "is_disabled": 0, "fusion_lat": 0.0, "type": "electric_scooter", "name": "90f5841ea33a032f97b011e84a695549", "lat": 38.8981425, "bike_id": "90f5841ea33a032f97b011e84a695549"}, {"lon": -77.02120883333333, "rental_uris": {"android": "https://dc.lft.to/lastmile_qr_scan", "ios": "https://dc.lft.to/lastmile_qr_scan"}, "fusion_lon": 0.0, "is_reserved": 0, "is_disabled": 0, "fusion_lat": 0.0, "type": "electric_scooter", "name": "82a95ff3f24e964dbc22f89e625680d1", "lat": 38.923613333333336, "bike_id": "82a95ff3f24e964dbc22f89e625680d1"}, {"lon": -77.0358405, "rental_uris": {"android": "https://dc.lft.to/lastmile_qr_scan", "ios": "https://dc.lft.to/lastmile_qr_scan"}, "fusion_lon": 0.0, "is_reserved": 0, "is_disabled": 0, "fusion_lat": 0.0, "type": "electric_bike", "name": "dc9ccf57b54a7e27761544984e61587e", "lat": 38.99224616666667, "bike_id": "dc9ccf57b54a7e27761544984e61587e"}, {"lon": -77.03465833333334, "rental_uris": {"android": "https://dc.lft.to/lastmile_qr_scan", "ios": "https://dc.lft.to/lastmile_qr_scan"}, "fusion_lon": 0.0, "is_reserved": 0, "is_disabled": 0, "fusion_lat": 0.0, "type": "electric_scooter", "name": "fc67b5a706393165694ad84a84976b2e", "lat": 38.91682433333333, "bike_id": "fc67b5a706393165694ad84a84976b2e"}, {"lon": -77.07273333333333, "rental_uris": {"android": "https://dc.lft.to/lastmile_qr_scan", "ios": "https://dc.lft.to/lastmile_qr_scan"}, "fusion_lon": 0.0, "is_reserved": 0, "is_disabled": 0, "fusion_lat": 0.0, "type": "electric_scooter", "name": "a424b9d8d4533bc8dd7cf9bcc11d17b8", "lat": 38.90913333333334, "bike_id": "a424b9d8d4533bc8dd7cf9bcc11d17b8"}, {"lon": -77.01852483333333, "rental_uris": {"android": "https://dc.lft.to/lastmile_qr_scan", "ios": "https://dc.lft.to/lastmile_qr_scan"}, "fusion_lon": 0.0, "is_reserved": 0, "is_disabled": 0, "fusion_lat": 0.0, "type": "electric_scooter", "name": "dfa43dcfd0b13d1fa3f9f8f54c808cf3", "lat": 38.948893166666664, "bike_id": "dfa43dcfd0b13d1fa3f9f8f54c808cf3"}, {"lon": -77.00206433333334, "rental_uris": {"android": "https://dc.lft.to/lastmile_qr_scan", "ios": "https://dc.lft.to/lastmile_qr_scan"}, "fusion_lon": 0.0, "is_reserved": 0, "is_disabled": 0, "fusion_lat": 0.0, "type": "electric_scooter", "name": "08de3bb2cf119612d8ac4e9c58fb94e3", "lat": 38.87397583333333, "bike_id": "08de3bb2cf119612d8ac4e9c58fb94e3"}, {"lon": -77.06676733333333, "rental_uris": {"android": "https://dc.lft.to/lastmile_qr_scan", "ios": "https://dc.lft.to/lastmile_qr_scan"}, "fusion_lon": 0.0, "is_reserved": 0, "is_disabled": 0, "fusion_lat": 0.0, "type": "electric_scooter", "name": "75f8f1b34c9955ff42ac4522c6730811", "lat": 38.903638, "bike_id": "75f8f1b34c9955ff42ac4522c6730811"}, {"lon": -76.99790283333333, "rental_uris": {"android": "https://dc.lft.to/lastmile_qr_scan", "ios": "https://dc.lft.to/lastmile_qr_scan"}, "fusion_lon": 0.0, "is_reserved": 0, "is_disabled": 0, "fusion_lat": 0.0, "type": "electric_scooter", "name": "57a1b350c520a98fc8c19540913c422a", "lat": 38.885649, "bike_id": "57a1b350c520a98fc8c19540913c422a"}, {"lon": -77.0087415, "rental_uris": {"android": "https://dc.lft.to/lastmile_qr_scan", "ios": "https://dc.lft.to/lastmile_qr_scan"}, "fusion_lon": 0.0, "is_reserved": 0, "is_disabled": 0, "fusion_lat": 0.0, "type": "electric_scooter", "name": "51d041cc9c3cb7430b718892df112308", "lat": 38.879150833333334, "bike_id": "51d041cc9c3cb7430b718892df112308"}, {"lon": -77.02727116666667, "rental_uris": {"android": "https://dc.lft.to/lastmile_qr_scan", "ios": "https://dc.lft.to/lastmile_qr_scan"}, "fusion_lon": 0.0, "is_reserved": 0, "is_disabled": 0, "fusion_lat": 0.0, "type": "electric_scooter", "name": "b164c70e7fecbe5e1ee25a5a26ca1b1b", "lat": 38.8964695, "bike_id": "b164c70e7fecbe5e1ee25a5a26ca1b1b"}, {"lon": -77.036159, "rental_uris": {"android": "https://dc.lft.to/lastmile_qr_scan", "ios": "https://dc.lft.to/lastmile_qr_scan"}, "fusion_lon": 0.0, "is_reserved": 0, "is_disabled": 0, "fusion_lat": 0.0, "type": "electric_scooter", "name": "c7cb7754eca4d0e940eafa7eaafee625", "lat": 38.93320116666666, "bike_id": "c7cb7754eca4d0e940eafa7eaafee625"}, {"lon": -77.01930416666667, "rental_uris": {"android": "https://dc.lft.to/lastmile_qr_scan", "ios": "https://dc.lft.to/lastmile_qr_scan"}, "fusion_lon": 0.0, "is_reserved": 0, "is_disabled": 0, "fusion_lat": 0.0, "type": "electric_scooter", "name": "c32f34bcb2be0aecffa6a74e1d644fe6", "lat": 38.902369666666665, "bike_id": "c32f34bcb2be0aecffa6a74e1d644fe6"}, {"lon": -77.04407616666667, "rental_uris": {"android": "https://dc.lft.to/lastmile_qr_scan", "ios": "https://dc.lft.to/lastmile_qr_scan"}, "fusion_lon": 0.0, "is_reserved": 0, "is_disabled": 0, "fusion_lat": 0.0, "type": "electric_scooter", "name": "f4ecc24ebad714d740a718aa4746708b", "lat": 38.92230933333333, "bike_id": "f4ecc24ebad714d740a718aa4746708b"}, {"lon": -77.04671983333333, "rental_uris": {"android": "https://dc.lft.to/lastmile_qr_scan", "ios": "https://dc.lft.to/lastmile_qr_scan"}, "fusion_lon": 0.0, "is_reserved": 0, "is_disabled": 0, "fusion_lat": 0.0, "type": "electric_scooter", "name": "e9e19f367612867428b529a2cf17c8c4", "lat": 38.89558366666667, "bike_id": "e9e19f367612867428b529a2cf17c8c4"}, {"lon": -77.012763, "rental_uris": {"android": "https://dc.lft.to/lastmile_qr_scan", "ios": "https://dc.lft.to/lastmile_qr_scan"}, "fusion_lon": 0.0, "is_reserved": 0, "is_disabled": 0, "fusion_lat": 0.0, "type": "electric_scooter", "name": "83c157199204254ffeed6d2e1134683c", "lat": 38.8999835, "bike_id": "83c157199204254ffeed6d2e1134683c"}, {"lon": -77.07696333333334, "rental_uris": {"android": "https://dc.lft.to/lastmile_qr_scan", "ios": "https://dc.lft.to/lastmile_qr_scan"}, "fusion_lon": 0.0, "is_reserved": 0, "is_disabled": 0, "fusion_lat": 0.0, "type": "electric_scooter", "name": "3bc4356c69648034068ae692c334410b", "lat": 38.9314885, "bike_id": "3bc4356c69648034068ae692c334410b"}, {"lon": -76.99646783333333, "rental_uris": {"android": "https://dc.lft.to/lastmile_qr_scan", "ios": "https://dc.lft.to/lastmile_qr_scan"}, "fusion_lon": 0.0, "is_reserved": 0, "is_disabled": 0, "fusion_lat": 0.0, "type": "electric_scooter", "name": "528836e3b22f34b99c10446a15f677da", "lat": 38.8988685, "bike_id": "528836e3b22f34b99c10446a15f677da"}, {"lon": -77.0517025, "rental_uris": {"android": "https://dc.lft.to/lastmile_qr_scan", "ios": "https://dc.lft.to/lastmile_qr_scan"}, "fusion_lon": 0.0, "is_reserved": 0, "is_disabled": 0, "fusion_lat": 0.0, "type": "electric_scooter", "name": "7b6b94c05d5243d137f21ca12ff13e2b", "lat": 38.923444333333336, "bike_id": "7b6b94c05d5243d137f21ca12ff13e2b"}, {"lon": -77.07249733333333, "rental_uris": {"android": "https://dc.lft.to/lastmile_qr_scan", "ios": "https://dc.lft.to/lastmile_qr_scan"}, "fusion_lon": 0.0, "is_reserved": 0, "is_disabled": 0, "fusion_lat": 0.0, "type": "electric_scooter", "name": "3fcc88b9a90f7edf978d171c301c0190", "lat": 38.9077935, "bike_id": "3fcc88b9a90f7edf978d171c301c0190"}, {"lon": -77.018263, "rental_uris": {"android": "https://dc.lft.to/lastmile_qr_scan", "ios": "https://dc.lft.to/lastmile_qr_scan"}, "fusion_lon": 0.0, "is_reserved": 0, "is_disabled": 0, "fusion_lat": 0.0, "type": "electric_scooter", "name": "34d0b09a563b657e201ff1bb5de7e3ce", "lat": 38.90071233333333, "bike_id": "34d0b09a563b657e201ff1bb5de7e3ce"}, {"lon": -77.04160433333334, "rental_uris": {"android": "https://dc.lft.to/lastmile_qr_scan", "ios": "https://dc.lft.to/lastmile_qr_scan"}, "fusion_lon": 0.0, "is_reserved": 0, "is_disabled": 0, "fusion_lat": 0.0, "type": "electric_scooter", "name": "16d891f35957f59718a11918f74722ea", "lat": 38.8923075, "bike_id": "16d891f35957f59718a11918f74722ea"}, {"lon": -77.03864183333333, "rental_uris": {"android": "https://dc.lft.to/lastmile_qr_scan", "ios": "https://dc.lft.to/lastmile_qr_scan"}, "fusion_lon": 0.0, "is_reserved": 0, "is_disabled": 0, "fusion_lat": 0.0, "type": "electric_scooter", "name": "7753fcb5b20de388cc024300af5d08c2", "lat": 38.917084333333335, "bike_id": "7753fcb5b20de388cc024300af5d08c2"}, {"lon": -77.029359, "rental_uris": {"android": "https://dc.lft.to/lastmile_qr_scan", "ios": "https://dc.lft.to/lastmile_qr_scan"}, "fusion_lon": 0.0, "is_reserved": 0, "is_disabled": 0, "fusion_lat": 0.0, "type": "electric_scooter", "name": "392569959480abc80fe00ad882d17e48", "lat": 38.902266833333336, "bike_id": "392569959480abc80fe00ad882d17e48"}, {"lon": -77.01967633333334, "rental_uris": {"android": "https://dc.lft.to/lastmile_qr_scan", "ios": "https://dc.lft.to/lastmile_qr_scan"}, "fusion_lon": 0.0, "is_reserved": 0, "is_disabled": 0, "fusion_lat": 0.0, "type": "electric_scooter", "name": "0ed5e576ac24df0b8fed78e49c058802", "lat": 38.92192283333333, "bike_id": "0ed5e576ac24df0b8fed78e49c058802"}, {"lon": -77.03453916666666, "rental_uris": {"android": "https://dc.lft.to/lastmile_qr_scan", "ios": "https://dc.lft.to/lastmile_qr_scan"}, "fusion_lon": 0.0, "is_reserved": 0, "is_disabled": 0, "fusion_lat": 0.0, "type": "electric_scooter", "name": "7b65d46b03856646b694b3be8a3c149d", "lat": 38.90361266666667, "bike_id": "7b65d46b03856646b694b3be8a3c149d"}, {"lon": -77.03868816666666, "rental_uris": {"android": "https://dc.lft.to/lastmile_qr_scan", "ios": "https://dc.lft.to/lastmile_qr_scan"}, "fusion_lon": 0.0, "is_reserved": 0, "is_disabled": 0, "fusion_lat": 0.0, "type": "electric_scooter", "name": "89bdb7c7a6b2bd711065841181d68057", "lat": 38.9243345, "bike_id": "89bdb7c7a6b2bd711065841181d68057"}, {"lon": -77.04043416666667, "rental_uris": {"android": "https://dc.lft.to/lastmile_qr_scan", "ios": "https://dc.lft.to/lastmile_qr_scan"}, "fusion_lon": 0.0, "is_reserved": 0, "is_disabled": 0, "fusion_lat": 0.0, "type": "electric_scooter", "name": "ec504e245fc158fcc5b525ded7d207ba", "lat": 38.905514333333336, "bike_id": "ec504e245fc158fcc5b525ded7d207ba"}, {"lon": -77.04868416666666, "rental_uris": {"android": "https://dc.lft.to/lastmile_qr_scan", "ios": "https://dc.lft.to/lastmile_qr_scan"}, "fusion_lon": 0.0, "is_reserved": 0, "is_disabled": 0, "fusion_lat": 0.0, "type": "electric_scooter", "name": "bb5bab0465a3de54f3c27fa7b9b380cd", "lat": 38.91603766666667, "bike_id": "bb5bab0465a3de54f3c27fa7b9b380cd"}, {"lon": -77.0427635, "rental_uris": {"android": "https://dc.lft.to/lastmile_qr_scan", "ios": "https://dc.lft.to/lastmile_qr_scan"}, "fusion_lon": 0.0, "is_reserved": 0, "is_disabled": 0, "fusion_lat": 0.0, "type": "electric_scooter", "name": "0ca3a422d01a2d05fd31339faf1be6c3", "lat": 38.90562283333333, "bike_id": "0ca3a422d01a2d05fd31339faf1be6c3"}, {"lon": -77.06748866666666, "rental_uris": {"android": "https://dc.lft.to/lastmile_qr_scan", "ios": "https://dc.lft.to/lastmile_qr_scan"}, "fusion_lon": 0.0, "is_reserved": 0, "is_disabled": 0, "fusion_lat": 0.0, "type": "electric_scooter", "name": "978499daf42a4e3c6727a7332e5e6c58", "lat": 38.90510783333333, "bike_id": "978499daf42a4e3c6727a7332e5e6c58"}, {"lon": -77.06938916666667, "rental_uris": {"android": "https://dc.lft.to/lastmile_qr_scan", "ios": "https://dc.lft.to/lastmile_qr_scan"}, "fusion_lon": 0.0, "is_reserved": 0, "is_disabled": 0, "fusion_lat": 0.0, "type": "electric_scooter", "name": "16c54ca1ebcdeec4b10225e5606ccd2c", "lat": 38.91745183333333, "bike_id": "16c54ca1ebcdeec4b10225e5606ccd2c"}, {"lon": -77.01494566666666, "rental_uris": {"android": "https://dc.lft.to/lastmile_qr_scan", "ios": "https://dc.lft.to/lastmile_qr_scan"}, "fusion_lon": 0.0, "is_reserved": 0, "is_disabled": 0, "fusion_lat": 0.0, "type": "electric_scooter", "name": "d49fd9122a7d72ba8b9954605736d81b", "lat": 38.957618833333335, "bike_id": "d49fd9122a7d72ba8b9954605736d81b"}, {"lon": -77.014034, "rental_uris": {"android": "https://dc.lft.to/lastmile_qr_scan", "ios": "https://dc.lft.to/lastmile_qr_scan"}, "fusion_lon": 0.0, "is_reserved": 0, "is_disabled": 0, "fusion_lat": 0.0, "type": "electric_scooter", "name": "8a640d83c0ca26449777750cc1128bce", "lat": 38.89217766666667, "bike_id": "8a640d83c0ca26449777750cc1128bce"}, {"lon": -77.04208666666666, "rental_uris": {"android": "https://dc.lft.to/lastmile_qr_scan", "ios": "https://dc.lft.to/lastmile_qr_scan"}, "fusion_lon": 0.0, "is_reserved": 0, "is_disabled": 0, "fusion_lat": 0.0, "type": "electric_scooter", "name": "f65c7c69141a80f3136be48901f0b250", "lat": 38.89938266666667, "bike_id": "f65c7c69141a80f3136be48901f0b250"}, {"lon": -76.99889783333333, "rental_uris": {"android": "https://dc.lft.to/lastmile_qr_scan", "ios": "https://dc.lft.to/lastmile_qr_scan"}, "fusion_lon": 0.0, "is_reserved": 0, "is_disabled": 0, "fusion_lat": 0.0, "type": "electric_scooter", "name": "46e52555a068efd7549639c0b60b684a", "lat": 38.8791555, "bike_id": "46e52555a068efd7549639c0b60b684a"}, {"lon": -77.03227366666667, "rental_uris": {"android": "https://dc.lft.to/lastmile_qr_scan", "ios": "https://dc.lft.to/lastmile_qr_scan"}, "fusion_lon": 0.0, "is_reserved": 0, "is_disabled": 0, "fusion_lat": 0.0, "type": "electric_scooter", "name": "b5256846a6ff3207ba92729e1e1d3a17", "lat": 38.9176455, "bike_id": "b5256846a6ff3207ba92729e1e1d3a17"}, {"lon": -77.03407716666666, "rental_uris": {"android": "https://dc.lft.to/lastmile_qr_scan", "ios": "https://dc.lft.to/lastmile_qr_scan"}, "fusion_lon": 0.0, "is_reserved": 0, "is_disabled": 0, "fusion_lat": 0.0, "type": "electric_scooter", "name": "a0fe061e8d8eaac1ddc6cb473e717910", "lat": 38.902572166666666, "bike_id": "a0fe061e8d8eaac1ddc6cb473e717910"}, {"lon": -77.0593495, "rental_uris": {"android": "https://dc.lft.to/lastmile_qr_scan", "ios": "https://dc.lft.to/lastmile_qr_scan"}, "fusion_lon": 0.0, "is_reserved": 0, "is_disabled": 0, "fusion_lat": 0.0, "type": "electric_scooter", "name": "f8feb0788b40b9932a7c469c2cd82674", "lat": 38.9430535, "bike_id": "f8feb0788b40b9932a7c469c2cd82674"}, {"lon": -77.04092233333333, "rental_uris": {"android": "https://dc.lft.to/lastmile_qr_scan", "ios": "https://dc.lft.to/lastmile_qr_scan"}, "fusion_lon": 0.0, "is_reserved": 0, "is_disabled": 0, "fusion_lat": 0.0, "type": "electric_scooter", "name": "ba27d211f687297afa938d913dce57ae", "lat": 38.90241233333333, "bike_id": "ba27d211f687297afa938d913dce57ae"}, {"lon": -77.00069366666666, "rental_uris": {"android": "https://dc.lft.to/lastmile_qr_scan", "ios": "https://dc.lft.to/lastmile_qr_scan"}, "fusion_lon": 0.0, "is_reserved": 0, "is_disabled": 0, "fusion_lat": 0.0, "type": "electric_scooter", "name": "f2a7e8f26121c6a11069e9ea9e2cab5d", "lat": 38.873838166666665, "bike_id": "f2a7e8f26121c6a11069e9ea9e2cab5d"}, {"lon": -77.02162383333334, "rental_uris": {"android": "https://dc.lft.to/lastmile_qr_scan", "ios": "https://dc.lft.to/lastmile_qr_scan"}, "fusion_lon": 0.0, "is_reserved": 0, "is_disabled": 0, "fusion_lat": 0.0, "type": "electric_scooter", "name": "4f87f9a5670c13927df6106e77717106", "lat": 38.926063166666665, "bike_id": "4f87f9a5670c13927df6106e77717106"}, {"lon": -77.021195, "rental_uris": {"android": "https://dc.lft.to/lastmile_qr_scan", "ios": "https://dc.lft.to/lastmile_qr_scan"}, "fusion_lon": 0.0, "is_reserved": 0, "is_disabled": 0, "fusion_lat": 0.0, "type": "electric_scooter", "name": "f63eac36cbec9f655561d5a90b941ce9", "lat": 38.915457, "bike_id": "f63eac36cbec9f655561d5a90b941ce9"}, {"lon": -77.0033125, "rental_uris": {"android": "https://dc.lft.to/lastmile_qr_scan", "ios": "https://dc.lft.to/lastmile_qr_scan"}, "fusion_lon": 0.0, "is_reserved": 0, "is_disabled": 0, "fusion_lat": 0.0, "type": "electric_scooter", "name": "bd80e8fb14b7cde8fa8241b1800755ad", "lat": 38.9026115, "bike_id": "bd80e8fb14b7cde8fa8241b1800755ad"}, {"lon": -77.04366683333333, "rental_uris": {"android": "https://dc.lft.to/lastmile_qr_scan", "ios": "https://dc.lft.to/lastmile_qr_scan"}, "fusion_lon": 0.0, "is_reserved": 0, "is_disabled": 0, "fusion_lat": 0.0, "type": "electric_scooter", "name": "eec9021fa730ca44196c69adf37d82e1", "lat": 38.902218833333336, "bike_id": "eec9021fa730ca44196c69adf37d82e1"}, {"lon": -77.01129366666666, "rental_uris": {"android": "https://dc.lft.to/lastmile_qr_scan", "ios": "https://dc.lft.to/lastmile_qr_scan"}, "fusion_lon": 0.0, "is_reserved": 0, "is_disabled": 0, "fusion_lat": 0.0, "type": "electric_scooter", "name": "0a37f77037714c8469a251afc7bfeda0", "lat": 38.895175, "bike_id": "0a37f77037714c8469a251afc7bfeda0"}, {"lon": -77.0028945, "rental_uris": {"android": "https://dc.lft.to/lastmile_qr_scan", "ios": "https://dc.lft.to/lastmile_qr_scan"}, "fusion_lon": 0.0, "is_reserved": 0, "is_disabled": 0, "fusion_lat": 0.0, "type": "electric_scooter", "name": "a47ceeaf262a78f33f1df24003d56774", "lat": 38.89188083333333, "bike_id": "a47ceeaf262a78f33f1df24003d56774"}, {"lon": -77.04474783333333, "rental_uris": {"android": "https://dc.lft.to/lastmile_qr_scan", "ios": "https://dc.lft.to/lastmile_qr_scan"}, "fusion_lon": 0.0, "is_reserved": 0, "is_disabled": 0, "fusion_lat": 0.0, "type": "electric_scooter", "name": "4fe9a2c23395171f1d484301936434d1", "lat": 38.8922345, "bike_id": "4fe9a2c23395171f1d484301936434d1"}, {"lon": -76.978067, "rental_uris": {"android": "https://dc.lft.to/lastmile_qr_scan", "ios": "https://dc.lft.to/lastmile_qr_scan"}, "fusion_lon": 0.0, "is_reserved": 0, "is_disabled": 0, "fusion_lat": 0.0, "type": "electric_scooter", "name": "05441ee38d7698548e22a1f4163c1850", "lat": 38.903061666666666, "bike_id": "05441ee38d7698548e22a1f4163c1850"}, {"lon": -77.04905416666666, "rental_uris": {"android": "https://dc.lft.to/lastmile_qr_scan", "ios": "https://dc.lft.to/lastmile_qr_scan"}, "fusion_lon": 0.0, "is_reserved": 0, "is_disabled": 0, "fusion_lat": 0.0, "type": "electric_scooter", "name": "8913f4fbaa02c62dfb37439c82116c30", "lat": 38.89833516666667, "bike_id": "8913f4fbaa02c62dfb37439c82116c30"}, {"lon": -77.03443083333333, "rental_uris": {"android": "https://dc.lft.to/lastmile_qr_scan", "ios": "https://dc.lft.to/lastmile_qr_scan"}, "fusion_lon": 0.0, "is_reserved": 0, "is_disabled": 0, "fusion_lat": 0.0, "type": "electric_scooter", "name": "65db0c658726ba6ae9b13fa732e588fb", "lat": 38.903741333333336, "bike_id": "65db0c658726ba6ae9b13fa732e588fb"}, {"lon": -77.12652616666666, "rental_uris": {"android": "https://dc.lft.to/lastmile_qr_scan", "ios": "https://dc.lft.to/lastmile_qr_scan"}, "fusion_lon": 0.0, "is_reserved": 0, "is_disabled": 0, "fusion_lat": 0.0, "type": "electric_bike", "name": "682962887a45509ca5c9ea53fc85c909", "lat": 38.819095833333336, "bike_id": "682962887a45509ca5c9ea53fc85c909"}, {"lon": -77.05711, "rental_uris": {"android": "https://dc.lft.to/lastmile_qr_scan", "ios": "https://dc.lft.to/lastmile_qr_scan"}, "fusion_lon": 0.0, "is_reserved": 0, "is_disabled": 0, "fusion_lat": 0.0, "type": "electric_scooter", "name": "3effa5be5d3ce5a0ce01e9ce54fa00c4", "lat": 38.9333635, "bike_id": "3effa5be5d3ce5a0ce01e9ce54fa00c4"}, {"lon": -77.04349883333333, "rental_uris": {"android": "https://dc.lft.to/lastmile_qr_scan", "ios": "https://dc.lft.to/lastmile_qr_scan"}, "fusion_lon": 0.0, "is_reserved": 0, "is_disabled": 0, "fusion_lat": 0.0, "type": "electric_scooter", "name": "f6a80e10364718a6c2d4089d4548ac55", "lat": 38.90423066666666, "bike_id": "f6a80e10364718a6c2d4089d4548ac55"}, {"lon": -77.04196066666667, "rental_uris": {"android": "https://dc.lft.to/lastmile_qr_scan", "ios": "https://dc.lft.to/lastmile_qr_scan"}, "fusion_lon": 0.0, "is_reserved": 0, "is_disabled": 0, "fusion_lat": 0.0, "type": "electric_scooter", "name": "6f9221a48c010135c54e1013de4f3fe1", "lat": 38.920498333333335, "bike_id": "6f9221a48c010135c54e1013de4f3fe1"}, {"lon": -77.10732916666667, "rental_uris": {"android": "https://dc.lft.to/lastmile_qr_scan", "ios": "https://dc.lft.to/lastmile_qr_scan"}, "fusion_lon": 0.0, "is_reserved": 0, "is_disabled": 0, "fusion_lat": 0.0, "type": "electric_bike", "name": "cfad746666296bb6775e59f8f3d6f09a", "lat": 38.8553515, "bike_id": "cfad746666296bb6775e59f8f3d6f09a"}, {"lon": -76.94875083333334, "rental_uris": {"android": "https://dc.lft.to/lastmile_qr_scan", "ios": "https://dc.lft.to/lastmile_qr_scan"}, "fusion_lon": 0.0, "is_reserved": 0, "is_disabled": 0, "fusion_lat": 0.0, "type": "electric_scooter", "name": "235eec42d8ef583df909c061e01fadd4", "lat": 38.895499666666666, "bike_id": "235eec42d8ef583df909c061e01fadd4"}, {"lon": -77.04161666666667, "rental_uris": {"android": "https://dc.lft.to/lastmile_qr_scan", "ios": "https://dc.lft.to/lastmile_qr_scan"}, "fusion_lon": 0.0, "is_reserved": 0, "is_disabled": 0, "fusion_lat": 0.0, "type": "electric_scooter", "name": "6ddbfaf42901ff7c7fca6f55f9fbcfce", "lat": 38.89233866666667, "bike_id": "6ddbfaf42901ff7c7fca6f55f9fbcfce"}, {"lon": -77.04675766666666, "rental_uris": {"android": "https://dc.lft.to/lastmile_qr_scan", "ios": "https://dc.lft.to/lastmile_qr_scan"}, "fusion_lon": 0.0, "is_reserved": 0, "is_disabled": 0, "fusion_lat": 0.0, "type": "electric_scooter", "name": "dbea186416ff59cb738808f474c7ee3a", "lat": 38.89261166666667, "bike_id": "dbea186416ff59cb738808f474c7ee3a"}, {"lon": -76.93187966666666, "rental_uris": {"android": "https://dc.lft.to/lastmile_qr_scan", "ios": "https://dc.lft.to/lastmile_qr_scan"}, "fusion_lon": 0.0, "is_reserved": 0, "is_disabled": 0, "fusion_lat": 0.0, "type": "electric_scooter", "name": "8b52dc90640e24d4375a759a916b5f46", "lat": 38.8987425, "bike_id": "8b52dc90640e24d4375a759a916b5f46"}, {"lon": -77.073142, "rental_uris": {"android": "https://dc.lft.to/lastmile_qr_scan", "ios": "https://dc.lft.to/lastmile_qr_scan"}, "fusion_lon": 0.0, "is_reserved": 0, "is_disabled": 0, "fusion_lat": 0.0, "type": "electric_scooter", "name": "519a0db3b032f52332c86b3aab51863c", "lat": 38.936126, "bike_id": "519a0db3b032f52332c86b3aab51863c"}, {"lon": -77.01018566666667, "rental_uris": {"android": "https://dc.lft.to/lastmile_qr_scan", "ios": "https://dc.lft.to/lastmile_qr_scan"}, "fusion_lon": 0.0, "is_reserved": 0, "is_disabled": 0, "fusion_lat": 0.0, "type": "electric_scooter", "name": "ac51046f21be7f4423874a0987ae1b1d", "lat": 38.894663333333334, "bike_id": "ac51046f21be7f4423874a0987ae1b1d"}, {"lon": -77.043688, "rental_uris": {"android": "https://dc.lft.to/lastmile_qr_scan", "ios": "https://dc.lft.to/lastmile_qr_scan"}, "fusion_lon": 0.0, "is_reserved": 0, "is_disabled": 0, "fusion_lat": 0.0, "type": "electric_scooter", "name": "4307e2c4fa1d837539f64f3ce2818a24", "lat": 38.897403833333335, "bike_id": "4307e2c4fa1d837539f64f3ce2818a24"}, {"lon": -77.026985, "rental_uris": {"android": "https://dc.lft.to/lastmile_qr_scan", "ios": "https://dc.lft.to/lastmile_qr_scan"}, "fusion_lon": 0.0, "is_reserved": 0, "is_disabled": 0, "fusion_lat": 0.0, "type": "electric_scooter", "name": "cdaa627ebfc8659eb19b5e866853ecc9", "lat": 38.89616866666667, "bike_id": "cdaa627ebfc8659eb19b5e866853ecc9"}, {"lon": -77.02385516666666, "rental_uris": {"android": "https://dc.lft.to/lastmile_qr_scan", "ios": "https://dc.lft.to/lastmile_qr_scan"}, "fusion_lon": 0.0, "is_reserved": 0, "is_disabled": 0, "fusion_lat": 0.0, "type": "electric_scooter", "name": "3f32313b77779cbe896d69d193875cda", "lat": 38.89187916666667, "bike_id": "3f32313b77779cbe896d69d193875cda"}, {"lon": -76.97319516666667, "rental_uris": {"android": "https://dc.lft.to/lastmile_qr_scan", "ios": "https://dc.lft.to/lastmile_qr_scan"}, "fusion_lon": 0.0, "is_reserved": 0, "is_disabled": 0, "fusion_lat": 0.0, "type": "electric_scooter", "name": "a7bb6c004b461a38d3f9ec2aecf70f52", "lat": 38.90477583333333, "bike_id": "a7bb6c004b461a38d3f9ec2aecf70f52"}, {"lon": -77.00211166666666, "rental_uris": {"android": "https://dc.lft.to/lastmile_qr_scan", "ios": "https://dc.lft.to/lastmile_qr_scan"}, "fusion_lon": 0.0, "is_reserved": 0, "is_disabled": 0, "fusion_lat": 0.0, "type": "electric_scooter", "name": "b5e983e5b4a8c00eaf428a945a2413c0", "lat": 38.91455333333333, "bike_id": "b5e983e5b4a8c00eaf428a945a2413c0"}, {"lon": -76.9996725, "rental_uris": {"android": "https://dc.lft.to/lastmile_qr_scan", "ios": "https://dc.lft.to/lastmile_qr_scan"}, "fusion_lon": 0.0, "is_reserved": 0, "is_disabled": 0, "fusion_lat": 0.0, "type": "electric_scooter", "name": "1e28ac84fe8c7e737c54cfdde6b726c3", "lat": 38.908646166666664, "bike_id": "1e28ac84fe8c7e737c54cfdde6b726c3"}, {"lon": -77.03192283333334, "rental_uris": {"android": "https://dc.lft.to/lastmile_qr_scan", "ios": "https://dc.lft.to/lastmile_qr_scan"}, "fusion_lon": 0.0, "is_reserved": 0, "is_disabled": 0, "fusion_lat": 0.0, "type": "electric_scooter", "name": "7bc8acf67678995a61d09e2a77da48f0", "lat": 38.88402383333333, "bike_id": "7bc8acf67678995a61d09e2a77da48f0"}, {"lon": -76.982504, "rental_uris": {"android": "https://dc.lft.to/lastmile_qr_scan", "ios": "https://dc.lft.to/lastmile_qr_scan"}, "fusion_lon": 0.0, "is_reserved": 0, "is_disabled": 0, "fusion_lat": 0.0, "type": "electric_bike", "name": "d88e05315358fa1a35e05177bccfe934", "lat": 38.95326266666667, "bike_id": "d88e05315358fa1a35e05177bccfe934"}, {"lon": -77.02500766666667, "rental_uris": {"android": "https://dc.lft.to/lastmile_qr_scan", "ios": "https://dc.lft.to/lastmile_qr_scan"}, "fusion_lon": 0.0, "is_reserved": 0, "is_disabled": 0, "fusion_lat": 0.0, "type": "electric_scooter", "name": "19f2ff71316413ebd124c4fd1026a8dc", "lat": 38.93041133333333, "bike_id": "19f2ff71316413ebd124c4fd1026a8dc"}, {"lon": -77.04380966666666, "rental_uris": {"android": "https://dc.lft.to/lastmile_qr_scan", "ios": "https://dc.lft.to/lastmile_qr_scan"}, "fusion_lon": 0.0, "is_reserved": 0, "is_disabled": 0, "fusion_lat": 0.0, "type": "electric_scooter", "name": "2c3016a747692bc31420c54c35958068", "lat": 38.8974335, "bike_id": "2c3016a747692bc31420c54c35958068"}, {"lon": -77.03339466666667, "rental_uris": {"android": "https://dc.lft.to/lastmile_qr_scan", "ios": "https://dc.lft.to/lastmile_qr_scan"}, "fusion_lon": 0.0, "is_reserved": 0, "is_disabled": 0, "fusion_lat": 0.0, "type": "electric_scooter", "name": "658a6e80f4a925b6df4aaafde5437a4e", "lat": 38.892231, "bike_id": "658a6e80f4a925b6df4aaafde5437a4e"}, {"lon": -77.02053466666666, "rental_uris": {"android": "https://dc.lft.to/lastmile_qr_scan", "ios": "https://dc.lft.to/lastmile_qr_scan"}, "fusion_lon": 0.0, "is_reserved": 0, "is_disabled": 0, "fusion_lat": 0.0, "type": "electric_scooter", "name": "3d1e347c86da8dda0ffa08c717c214ca", "lat": 38.9238985, "bike_id": "3d1e347c86da8dda0ffa08c717c214ca"}, {"lon": -76.9833985, "rental_uris": {"android": "https://dc.lft.to/lastmile_qr_scan", "ios": "https://dc.lft.to/lastmile_qr_scan"}, "fusion_lon": 0.0, "is_reserved": 0, "is_disabled": 0, "fusion_lat": 0.0, "type": "electric_scooter", "name": "e151a55b70036b00afa5f38fe5e1c8d4", "lat": 38.89538966666667, "bike_id": "e151a55b70036b00afa5f38fe5e1c8d4"}, {"lon": -76.934267, "rental_uris": {"android": "https://dc.lft.to/lastmile_qr_scan", "ios": "https://dc.lft.to/lastmile_qr_scan"}, "fusion_lon": 0.0, "is_reserved": 0, "is_disabled": 0, "fusion_lat": 0.0, "type": "electric_scooter", "name": "8ed9d15715229ac99ca67b39f868fec0", "lat": 38.893432, "bike_id": "8ed9d15715229ac99ca67b39f868fec0"}, {"lon": -77.03051483333333, "rental_uris": {"android": "https://dc.lft.to/lastmile_qr_scan", "ios": "https://dc.lft.to/lastmile_qr_scan"}, "fusion_lon": 0.0, "is_reserved": 0, "is_disabled": 0, "fusion_lat": 0.0, "type": "electric_bike", "name": "f447a8bada04f48fe0a5c28ddac3d11d", "lat": 38.959560333333336, "bike_id": "f447a8bada04f48fe0a5c28ddac3d11d"}, {"lon": -76.9575435, "rental_uris": {"android": "https://dc.lft.to/lastmile_qr_scan", "ios": "https://dc.lft.to/lastmile_qr_scan"}, "fusion_lon": 0.0, "is_reserved": 0, "is_disabled": 0, "fusion_lat": 0.0, "type": "electric_scooter", "name": "54994fc49c6178568dcbee3325e19669", "lat": 38.88425183333333, "bike_id": "54994fc49c6178568dcbee3325e19669"}, {"lon": -77.02426916666667, "rental_uris": {"android": "https://dc.lft.to/lastmile_qr_scan", "ios": "https://dc.lft.to/lastmile_qr_scan"}, "fusion_lon": 0.0, "is_reserved": 0, "is_disabled": 0, "fusion_lat": 0.0, "type": "electric_scooter", "name": "b3b668e7404e1dbbff4f709ca258364a", "lat": 38.96797683333333, "bike_id": "b3b668e7404e1dbbff4f709ca258364a"}, {"lon": -76.99658116666667, "rental_uris": {"android": "https://dc.lft.to/lastmile_qr_scan", "ios": "https://dc.lft.to/lastmile_qr_scan"}, "fusion_lon": 0.0, "is_reserved": 0, "is_disabled": 0, "fusion_lat": 0.0, "type": "electric_bike", "name": "2f653168d5729d16df0694f04b81794f", "lat": 38.838335666666666, "bike_id": "2f653168d5729d16df0694f04b81794f"}, {"lon": -77.02858533333334, "rental_uris": {"android": "https://dc.lft.to/lastmile_qr_scan", "ios": "https://dc.lft.to/lastmile_qr_scan"}, "fusion_lon": 0.0, "is_reserved": 0, "is_disabled": 0, "fusion_lat": 0.0, "type": "electric_scooter", "name": "df5ce4492b02f2c71b1f0f9c8cbe5118", "lat": 38.93500683333333, "bike_id": "df5ce4492b02f2c71b1f0f9c8cbe5118"}, {"lon": -77.01400283333334, "rental_uris": {"android": "https://dc.lft.to/lastmile_qr_scan", "ios": "https://dc.lft.to/lastmile_qr_scan"}, "fusion_lon": 0.0, "is_reserved": 0, "is_disabled": 0, "fusion_lat": 0.0, "type": "electric_scooter", "name": "70482d3faf34e1b2f5a68f1f9bc8aa32", "lat": 38.89215516666667, "bike_id": "70482d3faf34e1b2f5a68f1f9bc8aa32"}, {"lon": -77.01052333333334, "rental_uris": {"android": "https://dc.lft.to/lastmile_qr_scan", "ios": "https://dc.lft.to/lastmile_qr_scan"}, "fusion_lon": 0.0, "is_reserved": 0, "is_disabled": 0, "fusion_lat": 0.0, "type": "electric_scooter", "name": "fc6370d87c756efbba9b267c5465e7b7", "lat": 38.90663166666667, "bike_id": "fc6370d87c756efbba9b267c5465e7b7"}, {"lon": -77.03352133333334, "rental_uris": {"android": "https://dc.lft.to/lastmile_qr_scan", "ios": "https://dc.lft.to/lastmile_qr_scan"}, "fusion_lon": 0.0, "is_reserved": 0, "is_disabled": 0, "fusion_lat": 0.0, "type": "electric_scooter", "name": "d30f73013a9f17b7c1f0a55d9dad6272", "lat": 38.927444333333334, "bike_id": "d30f73013a9f17b7c1f0a55d9dad6272"}, {"lon": -77.03424366666667, "rental_uris": {"android": "https://dc.lft.to/lastmile_qr_scan", "ios": "https://dc.lft.to/lastmile_qr_scan"}, "fusion_lon": 0.0, "is_reserved": 0, "is_disabled": 0, "fusion_lat": 0.0, "type": "electric_scooter", "name": "f8a940b32b5d99582ba275bbe91085e7", "lat": 38.909626333333335, "bike_id": "f8a940b32b5d99582ba275bbe91085e7"}, {"lon": -77.04884416666667, "rental_uris": {"android": "https://dc.lft.to/lastmile_qr_scan", "ios": "https://dc.lft.to/lastmile_qr_scan"}, "fusion_lon": 0.0, "is_reserved": 0, "is_disabled": 0, "fusion_lat": 0.0, "type": "electric_scooter", "name": "b2cfb181af690da6c365f86203c4c6b1", "lat": 38.908620166666665, "bike_id": "b2cfb181af690da6c365f86203c4c6b1"}, {"lon": -77.00350666666667, "rental_uris": {"android": "https://dc.lft.to/lastmile_qr_scan", "ios": "https://dc.lft.to/lastmile_qr_scan"}, "fusion_lon": 0.0, "is_reserved": 0, "is_disabled": 0, "fusion_lat": 0.0, "type": "electric_scooter", "name": "911ec26dc3465d07d47aa8ac7435f3ae", "lat": 38.89918216666667, "bike_id": "911ec26dc3465d07d47aa8ac7435f3ae"}, {"lon": -76.98694433333333, "rental_uris": {"android": "https://dc.lft.to/lastmile_qr_scan", "ios": "https://dc.lft.to/lastmile_qr_scan"}, "fusion_lon": 0.0, "is_reserved": 0, "is_disabled": 0, "fusion_lat": 0.0, "type": "electric_bike", "name": "6cc3ae703ac75ea43b8e67ec921772d4", "lat": 38.9446625, "bike_id": "6cc3ae703ac75ea43b8e67ec921772d4"}, {"lon": -77.01987466666667, "rental_uris": {"android": "https://dc.lft.to/lastmile_qr_scan", "ios": "https://dc.lft.to/lastmile_qr_scan"}, "fusion_lon": 0.0, "is_reserved": 0, "is_disabled": 0, "fusion_lat": 0.0, "type": "electric_scooter", "name": "d14d22abfc545d2233831b22cab3c780", "lat": 38.91043966666667, "bike_id": "d14d22abfc545d2233831b22cab3c780"}, {"lon": -77.02823866666667, "rental_uris": {"android": "https://dc.lft.to/lastmile_qr_scan", "ios": "https://dc.lft.to/lastmile_qr_scan"}, "fusion_lon": 0.0, "is_reserved": 0, "is_disabled": 0, "fusion_lat": 0.0, "type": "electric_scooter", "name": "3e6d7deea019ad8c1a69c5d8f56a0ff7", "lat": 38.92753883333334, "bike_id": "3e6d7deea019ad8c1a69c5d8f56a0ff7"}, {"lon": -77.03406733333334, "rental_uris": {"android": "https://dc.lft.to/lastmile_qr_scan", "ios": "https://dc.lft.to/lastmile_qr_scan"}, "fusion_lon": 0.0, "is_reserved": 0, "is_disabled": 0, "fusion_lat": 0.0, "type": "electric_scooter", "name": "ef7c4a0e6e896fc1a082c1724f9520cf", "lat": 38.902594666666666, "bike_id": "ef7c4a0e6e896fc1a082c1724f9520cf"}, {"lon": -77.048783, "rental_uris": {"android": "https://dc.lft.to/lastmile_qr_scan", "ios": "https://dc.lft.to/lastmile_qr_scan"}, "fusion_lon": 0.0, "is_reserved": 0, "is_disabled": 0, "fusion_lat": 0.0, "type": "electric_scooter", "name": "816a7951234fb7eceedaeb10703619ec", "lat": 38.900408, "bike_id": "816a7951234fb7eceedaeb10703619ec"}, {"lon": -77.007023, "rental_uris": {"android": "https://dc.lft.to/lastmile_qr_scan", "ios": "https://dc.lft.to/lastmile_qr_scan"}, "fusion_lon": 0.0, "is_reserved": 0, "is_disabled": 0, "fusion_lat": 0.0, "type": "electric_scooter", "name": "3088a934198e1c08e7b8de7f063f61d4", "lat": 38.91548433333333, "bike_id": "3088a934198e1c08e7b8de7f063f61d4"}, {"lon": -77.0183435, "rental_uris": {"android": "https://dc.lft.to/lastmile_qr_scan", "ios": "https://dc.lft.to/lastmile_qr_scan"}, "fusion_lon": 0.0, "is_reserved": 0, "is_disabled": 0, "fusion_lat": 0.0, "type": "electric_scooter", "name": "c75fa2378fb21726fe70c7a89ab2e9ed", "lat": 38.922675166666664, "bike_id": "c75fa2378fb21726fe70c7a89ab2e9ed"}, {"lon": -77.04056066666666, "rental_uris": {"android": "https://dc.lft.to/lastmile_qr_scan", "ios": "https://dc.lft.to/lastmile_qr_scan"}, "fusion_lon": 0.0, "is_reserved": 0, "is_disabled": 0, "fusion_lat": 0.0, "type": "electric_scooter", "name": "0287fb958ad306c1246f4547348c1cc1", "lat": 38.9279295, "bike_id": "0287fb958ad306c1246f4547348c1cc1"}, {"lon": -77.045999, "rental_uris": {"android": "https://dc.lft.to/lastmile_qr_scan", "ios": "https://dc.lft.to/lastmile_qr_scan"}, "fusion_lon": 0.0, "is_reserved": 0, "is_disabled": 0, "fusion_lat": 0.0, "type": "electric_scooter", "name": "7a38ed140531bbd50a6066367f175534", "lat": 38.91720433333333, "bike_id": "7a38ed140531bbd50a6066367f175534"}, {"lon": -77.0433585, "rental_uris": {"android": "https://dc.lft.to/lastmile_qr_scan", "ios": "https://dc.lft.to/lastmile_qr_scan"}, "fusion_lon": 0.0, "is_reserved": 0, "is_disabled": 0, "fusion_lat": 0.0, "type": "electric_scooter", "name": "1691113b62def013bd088aa670a7c254", "lat": 38.90619433333333, "bike_id": "1691113b62def013bd088aa670a7c254"}, {"lon": -76.946521, "rental_uris": {"android": "https://dc.lft.to/lastmile_qr_scan", "ios": "https://dc.lft.to/lastmile_qr_scan"}, "fusion_lon": 0.0, "is_reserved": 0, "is_disabled": 0, "fusion_lat": 0.0, "type": "electric_scooter", "name": "6c99a68f62dba2c6340205e054a4639d", "lat": 38.8982885, "bike_id": "6c99a68f62dba2c6340205e054a4639d"}, {"lon": -77.0431235, "rental_uris": {"android": "https://dc.lft.to/lastmile_qr_scan", "ios": "https://dc.lft.to/lastmile_qr_scan"}, "fusion_lon": 0.0, "is_reserved": 0, "is_disabled": 0, "fusion_lat": 0.0, "type": "electric_scooter", "name": "e95c1c4250e7d074fc222ccfb42738db", "lat": 38.92358516666667, "bike_id": "e95c1c4250e7d074fc222ccfb42738db"}, {"lon": -77.00598533333333, "rental_uris": {"android": "https://dc.lft.to/lastmile_qr_scan", "ios": "https://dc.lft.to/lastmile_qr_scan"}, "fusion_lon": 0.0, "is_reserved": 0, "is_disabled": 0, "fusion_lat": 0.0, "type": "electric_scooter", "name": "d18a60766062587aec9b23af58bbe443", "lat": 38.905938166666665, "bike_id": "d18a60766062587aec9b23af58bbe443"}, {"lon": -77.04864383333333, "rental_uris": {"android": "https://dc.lft.to/lastmile_qr_scan", "ios": "https://dc.lft.to/lastmile_qr_scan"}, "fusion_lon": 0.0, "is_reserved": 0, "is_disabled": 0, "fusion_lat": 0.0, "type": "electric_scooter", "name": "30553fdde3f0c1239c87a13375c9d0af", "lat": 38.892207666666664, "bike_id": "30553fdde3f0c1239c87a13375c9d0af"}, {"lon": -77.032846, "rental_uris": {"android": "https://dc.lft.to/lastmile_qr_scan", "ios": "https://dc.lft.to/lastmile_qr_scan"}, "fusion_lon": 0.0, "is_reserved": 0, "is_disabled": 0, "fusion_lat": 0.0, "type": "electric_scooter", "name": "edc5860cbbb90bc59f9dfeffc62be319", "lat": 38.93959916666667, "bike_id": "edc5860cbbb90bc59f9dfeffc62be319"}, {"lon": -76.98658133333333, "rental_uris": {"android": "https://dc.lft.to/lastmile_qr_scan", "ios": "https://dc.lft.to/lastmile_qr_scan"}, "fusion_lon": 0.0, "is_reserved": 0, "is_disabled": 0, "fusion_lat": 0.0, "type": "electric_scooter", "name": "a98548ec1b2cf7b8478bd0940a22335b", "lat": 38.893505833333336, "bike_id": "a98548ec1b2cf7b8478bd0940a22335b"}, {"lon": -77.031691, "rental_uris": {"android": "https://dc.lft.to/lastmile_qr_scan", "ios": "https://dc.lft.to/lastmile_qr_scan"}, "fusion_lon": 0.0, "is_reserved": 0, "is_disabled": 0, "fusion_lat": 0.0, "type": "electric_scooter", "name": "2a955f70dc77a8e15df6a0da4716f33a", "lat": 38.9010585, "bike_id": "2a955f70dc77a8e15df6a0da4716f33a"}, {"lon": -77.02475233333334, "rental_uris": {"android": "https://dc.lft.to/lastmile_qr_scan", "ios": "https://dc.lft.to/lastmile_qr_scan"}, "fusion_lon": 0.0, "is_reserved": 0, "is_disabled": 0, "fusion_lat": 0.0, "type": "electric_scooter", "name": "3d2040f5a3be64d1c9c34e76f8548519", "lat": 38.918123666666666, "bike_id": "3d2040f5a3be64d1c9c34e76f8548519"}, {"lon": -77.019154, "rental_uris": {"android": "https://dc.lft.to/lastmile_qr_scan", "ios": "https://dc.lft.to/lastmile_qr_scan"}, "fusion_lon": 0.0, "is_reserved": 0, "is_disabled": 0, "fusion_lat": 0.0, "type": "electric_scooter", "name": "10f29808fa576889a0999afc500540ad", "lat": 38.92265233333333, "bike_id": "10f29808fa576889a0999afc500540ad"}, {"lon": -77.0151585, "rental_uris": {"android": "https://dc.lft.to/lastmile_qr_scan", "ios": "https://dc.lft.to/lastmile_qr_scan"}, "fusion_lon": 0.0, "is_reserved": 0, "is_disabled": 0, "fusion_lat": 0.0, "type": "electric_scooter", "name": "1d750b74b1bb7750fc5a1c44e8f03d79", "lat": 38.95794016666667, "bike_id": "1d750b74b1bb7750fc5a1c44e8f03d79"}, {"lon": -77.0236965, "rental_uris": {"android": "https://dc.lft.to/lastmile_qr_scan", "ios": "https://dc.lft.to/lastmile_qr_scan"}, "fusion_lon": 0.0, "is_reserved": 0, "is_disabled": 0, "fusion_lat": 0.0, "type": "electric_scooter", "name": "9cf3c81531c45ddff7db2ab9a0d338da", "lat": 38.920409, "bike_id": "9cf3c81531c45ddff7db2ab9a0d338da"}, {"lon": -77.05015833333333, "rental_uris": {"android": "https://dc.lft.to/lastmile_qr_scan", "ios": "https://dc.lft.to/lastmile_qr_scan"}, "fusion_lon": 0.0, "is_reserved": 0, "is_disabled": 0, "fusion_lat": 0.0, "type": "electric_scooter", "name": "943b438d1e9e209504b8d70f3383f5ee", "lat": 38.9233575, "bike_id": "943b438d1e9e209504b8d70f3383f5ee"}, {"lon": -77.04326433333334, "rental_uris": {"android": "https://dc.lft.to/lastmile_qr_scan", "ios": "https://dc.lft.to/lastmile_qr_scan"}, "fusion_lon": 0.0, "is_reserved": 0, "is_disabled": 0, "fusion_lat": 0.0, "type": "electric_scooter", "name": "2f65d38c5bb7a538016d6cff02eea491", "lat": 38.9088225, "bike_id": "2f65d38c5bb7a538016d6cff02eea491"}, {"lon": -77.0475625, "rental_uris": {"android": "https://dc.lft.to/lastmile_qr_scan", "ios": "https://dc.lft.to/lastmile_qr_scan"}, "fusion_lon": 0.0, "is_reserved": 0, "is_disabled": 0, "fusion_lat": 0.0, "type": "electric_scooter", "name": "335f7eeda23e5d19e66b9eca05155a24", "lat": 38.90221666666667, "bike_id": "335f7eeda23e5d19e66b9eca05155a24"}, {"lon": -77.08762283333333, "rental_uris": {"android": "https://dc.lft.to/lastmile_qr_scan", "ios": "https://dc.lft.to/lastmile_qr_scan"}, "fusion_lon": 0.0, "is_reserved": 0, "is_disabled": 0, "fusion_lat": 0.0, "type": "electric_scooter", "name": "49e0a30713059d3ddfc41f92821816f2", "lat": 38.93553983333334, "bike_id": "49e0a30713059d3ddfc41f92821816f2"}, {"lon": -76.94219816666667, "rental_uris": {"android": "https://dc.lft.to/lastmile_qr_scan", "ios": "https://dc.lft.to/lastmile_qr_scan"}, "fusion_lon": 0.0, "is_reserved": 0, "is_disabled": 0, "fusion_lat": 0.0, "type": "electric_scooter", "name": "0e7d6eeffcaae85fc043addd7919de88", "lat": 38.88449216666667, "bike_id": "0e7d6eeffcaae85fc043addd7919de88"}, {"lon": -77.0520645, "rental_uris": {"android": "https://dc.lft.to/lastmile_qr_scan", "ios": "https://dc.lft.to/lastmile_qr_scan"}, "fusion_lon": 0.0, "is_reserved": 0, "is_disabled": 0, "fusion_lat": 0.0, "type": "electric_scooter", "name": "cf1c579df7a18d9151fb00eca04ab421", "lat": 38.92473, "bike_id": "cf1c579df7a18d9151fb00eca04ab421"}, {"lon": -77.01208983333333, "rental_uris": {"android": "https://dc.lft.to/lastmile_qr_scan", "ios": "https://dc.lft.to/lastmile_qr_scan"}, "fusion_lon": 0.0, "is_reserved": 0, "is_disabled": 0, "fusion_lat": 0.0, "type": "electric_scooter", "name": "9a04a7c3d943303501accff12cfa0984", "lat": 38.9211815, "bike_id": "9a04a7c3d943303501accff12cfa0984"}, {"lon": -77.00535133333334, "rental_uris": {"android": "https://dc.lft.to/lastmile_qr_scan", "ios": "https://dc.lft.to/lastmile_qr_scan"}, "fusion_lon": 0.0, "is_reserved": 0, "is_disabled": 0, "fusion_lat": 0.0, "type": "electric_scooter", "name": "5590cdff0f0baf25bf10bd1212c44396", "lat": 38.87539983333333, "bike_id": "5590cdff0f0baf25bf10bd1212c44396"}, {"lon": -77.04520833333333, "rental_uris": {"android": "https://dc.lft.to/lastmile_qr_scan", "ios": "https://dc.lft.to/lastmile_qr_scan"}, "fusion_lon": 0.0, "is_reserved": 0, "is_disabled": 0, "fusion_lat": 0.0, "type": "electric_scooter", "name": "a20866b79bfceea1daef8fe8bd26e7c7", "lat": 38.90353, "bike_id": "a20866b79bfceea1daef8fe8bd26e7c7"}, {"lon": -77.03202266666666, "rental_uris": {"android": "https://dc.lft.to/lastmile_qr_scan", "ios": "https://dc.lft.to/lastmile_qr_scan"}, "fusion_lon": 0.0, "is_reserved": 0, "is_disabled": 0, "fusion_lat": 0.0, "type": "electric_scooter", "name": "20d2ff250da4b5ffd4f26e5066ccfe36", "lat": 38.920533, "bike_id": "20d2ff250da4b5ffd4f26e5066ccfe36"}, {"lon": -77.051734, "rental_uris": {"android": "https://dc.lft.to/lastmile_qr_scan", "ios": "https://dc.lft.to/lastmile_qr_scan"}, "fusion_lon": 0.0, "is_reserved": 0, "is_disabled": 0, "fusion_lat": 0.0, "type": "electric_scooter", "name": "8d2c1aa4b6ddae4fd7633ee54023851d", "lat": 38.923357833333334, "bike_id": "8d2c1aa4b6ddae4fd7633ee54023851d"}, {"lon": -77.028484, "rental_uris": {"android": "https://dc.lft.to/lastmile_qr_scan", "ios": "https://dc.lft.to/lastmile_qr_scan"}, "fusion_lon": 0.0, "is_reserved": 0, "is_disabled": 0, "fusion_lat": 0.0, "type": "electric_scooter", "name": "b10d4bf6ea5ef0efa06319c0dbf9d0c5", "lat": 38.93580383333333, "bike_id": "b10d4bf6ea5ef0efa06319c0dbf9d0c5"}, {"lon": -77.043561, "rental_uris": {"android": "https://dc.lft.to/lastmile_qr_scan", "ios": "https://dc.lft.to/lastmile_qr_scan"}, "fusion_lon": 0.0, "is_reserved": 0, "is_disabled": 0, "fusion_lat": 0.0, "type": "electric_scooter", "name": "3717848d2c80cc72bdefb430d4b2c735", "lat": 38.90372966666666, "bike_id": "3717848d2c80cc72bdefb430d4b2c735"}, {"lon": -77.05786416666666, "rental_uris": {"android": "https://dc.lft.to/lastmile_qr_scan", "ios": "https://dc.lft.to/lastmile_qr_scan"}, "fusion_lon": 0.0, "is_reserved": 0, "is_disabled": 0, "fusion_lat": 0.0, "type": "electric_scooter", "name": "b952844f42c38ca5868b65e83f99ee52", "lat": 38.905073333333334, "bike_id": "b952844f42c38ca5868b65e83f99ee52"}, {"lon": -76.9780375, "rental_uris": {"android": "https://dc.lft.to/lastmile_qr_scan", "ios": "https://dc.lft.to/lastmile_qr_scan"}, "fusion_lon": 0.0, "is_reserved": 0, "is_disabled": 0, "fusion_lat": 0.0, "type": "electric_scooter", "name": "b0e73838fb22b01bed1fa3f15abf35b1", "lat": 38.9062215, "bike_id": "b0e73838fb22b01bed1fa3f15abf35b1"}, {"lon": -76.9509735, "rental_uris": {"android": "https://dc.lft.to/lastmile_qr_scan", "ios": "https://dc.lft.to/lastmile_qr_scan"}, "fusion_lon": 0.0, "is_reserved": 0, "is_disabled": 0, "fusion_lat": 0.0, "type": "electric_scooter", "name": "c64767437d87748a021ab617bd710dee", "lat": 38.88445433333333, "bike_id": "c64767437d87748a021ab617bd710dee"}, {"lon": -76.98160583333333, "rental_uris": {"android": "https://dc.lft.to/lastmile_qr_scan", "ios": "https://dc.lft.to/lastmile_qr_scan"}, "fusion_lon": 0.0, "is_reserved": 0, "is_disabled": 0, "fusion_lat": 0.0, "type": "electric_scooter", "name": "ee282dd69659ac35ef903b2aaec81953", "lat": 38.89843916666667, "bike_id": "ee282dd69659ac35ef903b2aaec81953"}, {"lon": -77.00329783333333, "rental_uris": {"android": "https://dc.lft.to/lastmile_qr_scan", "ios": "https://dc.lft.to/lastmile_qr_scan"}, "fusion_lon": 0.0, "is_reserved": 0, "is_disabled": 0, "fusion_lat": 0.0, "type": "electric_scooter", "name": "b8295de34437ee8a2b8b7015b95e055e", "lat": 38.92348, "bike_id": "b8295de34437ee8a2b8b7015b95e055e"}, {"lon": -77.036756, "rental_uris": {"android": "https://dc.lft.to/lastmile_qr_scan", "ios": "https://dc.lft.to/lastmile_qr_scan"}, "fusion_lon": 0.0, "is_reserved": 0, "is_disabled": 0, "fusion_lat": 0.0, "type": "electric_scooter", "name": "3ff65222313d1046380ad66396182bf9", "lat": 38.900281666666665, "bike_id": "3ff65222313d1046380ad66396182bf9"}, {"lon": -77.03343566666666, "rental_uris": {"android": "https://dc.lft.to/lastmile_qr_scan", "ios": "https://dc.lft.to/lastmile_qr_scan"}, "fusion_lon": 0.0, "is_reserved": 0, "is_disabled": 0, "fusion_lat": 0.0, "type": "electric_scooter", "name": "4cb247344293ebefd9c758ccaa2ae6ac", "lat": 38.89238733333333, "bike_id": "4cb247344293ebefd9c758ccaa2ae6ac"}, {"lon": -77.048782, "rental_uris": {"android": "https://dc.lft.to/lastmile_qr_scan", "ios": "https://dc.lft.to/lastmile_qr_scan"}, "fusion_lon": 0.0, "is_reserved": 0, "is_disabled": 0, "fusion_lat": 0.0, "type": "electric_scooter", "name": "0a7c66734f93c16d0b49dad53d2cd6d7", "lat": 38.89869633333333, "bike_id": "0a7c66734f93c16d0b49dad53d2cd6d7"}, {"lon": -77.060882, "rental_uris": {"android": "https://dc.lft.to/lastmile_qr_scan", "ios": "https://dc.lft.to/lastmile_qr_scan"}, "fusion_lon": 0.0, "is_reserved": 0, "is_disabled": 0, "fusion_lat": 0.0, "type": "electric_scooter", "name": "e3d3b2c917e9aec3891156d69b7d8528", "lat": 38.9022205, "bike_id": "e3d3b2c917e9aec3891156d69b7d8528"}, {"lon": -77.03818783333334, "rental_uris": {"android": "https://dc.lft.to/lastmile_qr_scan", "ios": "https://dc.lft.to/lastmile_qr_scan"}, "fusion_lon": 0.0, "is_reserved": 0, "is_disabled": 0, "fusion_lat": 0.0, "type": "electric_scooter", "name": "e6d8180e7280c8419d86223bd966e591", "lat": 38.90038033333333, "bike_id": "e6d8180e7280c8419d86223bd966e591"}, {"lon": -77.02913383333333, "rental_uris": {"android": "https://dc.lft.to/lastmile_qr_scan", "ios": "https://dc.lft.to/lastmile_qr_scan"}, "fusion_lon": 0.0, "is_reserved": 0, "is_disabled": 0, "fusion_lat": 0.0, "type": "electric_scooter", "name": "b5b8cf4d91ddb70d8da8a1a2c02de689", "lat": 38.91692916666667, "bike_id": "b5b8cf4d91ddb70d8da8a1a2c02de689"}, {"lon": -77.0058765, "rental_uris": {"android": "https://dc.lft.to/lastmile_qr_scan", "ios": "https://dc.lft.to/lastmile_qr_scan"}, "fusion_lon": 0.0, "is_reserved": 0, "is_disabled": 0, "fusion_lat": 0.0, "type": "electric_scooter", "name": "66a793869f3e6a784deb00e76630c6ab", "lat": 38.905681, "bike_id": "66a793869f3e6a784deb00e76630c6ab"}, {"lon": -77.04152366666666, "rental_uris": {"android": "https://dc.lft.to/lastmile_qr_scan", "ios": "https://dc.lft.to/lastmile_qr_scan"}, "fusion_lon": 0.0, "is_reserved": 0, "is_disabled": 0, "fusion_lat": 0.0, "type": "electric_scooter", "name": "3e0d81133089f6a3732e218923398ac1", "lat": 38.92331266666667, "bike_id": "3e0d81133089f6a3732e218923398ac1"}, {"lon": -77.03665116666667, "rental_uris": {"android": "https://dc.lft.to/lastmile_qr_scan", "ios": "https://dc.lft.to/lastmile_qr_scan"}, "fusion_lon": 0.0, "is_reserved": 0, "is_disabled": 0, "fusion_lat": 0.0, "type": "electric_scooter", "name": "c541d1dc368525bb60f478f2022048b6", "lat": 38.918109, "bike_id": "c541d1dc368525bb60f478f2022048b6"}, {"lon": -77.03217, "rental_uris": {"android": "https://dc.lft.to/lastmile_qr_scan", "ios": "https://dc.lft.to/lastmile_qr_scan"}, "fusion_lon": 0.0, "is_reserved": 0, "is_disabled": 0, "fusion_lat": 0.0, "type": "electric_scooter", "name": "b837ebcbf472324b327c65dccf40b6e6", "lat": 38.90012433333333, "bike_id": "b837ebcbf472324b327c65dccf40b6e6"}, {"lon": -77.03997333333334, "rental_uris": {"android": "https://dc.lft.to/lastmile_qr_scan", "ios": "https://dc.lft.to/lastmile_qr_scan"}, "fusion_lon": 0.0, "is_reserved": 0, "is_disabled": 0, "fusion_lat": 0.0, "type": "electric_scooter", "name": "9313d555675d011034219a1d951d5508", "lat": 38.924544, "bike_id": "9313d555675d011034219a1d951d5508"}, {"lon": -77.04360166666666, "rental_uris": {"android": "https://dc.lft.to/lastmile_qr_scan", "ios": "https://dc.lft.to/lastmile_qr_scan"}, "fusion_lon": 0.0, "is_reserved": 0, "is_disabled": 0, "fusion_lat": 0.0, "type": "electric_scooter", "name": "8a1f681ad92c881616ef4c699083d898", "lat": 38.903696, "bike_id": "8a1f681ad92c881616ef4c699083d898"}, {"lon": -77.07663116666667, "rental_uris": {"android": "https://dc.lft.to/lastmile_qr_scan", "ios": "https://dc.lft.to/lastmile_qr_scan"}, "fusion_lon": 0.0, "is_reserved": 0, "is_disabled": 0, "fusion_lat": 0.0, "type": "electric_bike", "name": "03753f3977fb366ef4998fbd6f884e2c", "lat": 38.809743833333336, "bike_id": "03753f3977fb366ef4998fbd6f884e2c"}, {"lon": -77.0321525, "rental_uris": {"android": "https://dc.lft.to/lastmile_qr_scan", "ios": "https://dc.lft.to/lastmile_qr_scan"}, "fusion_lon": 0.0, "is_reserved": 0, "is_disabled": 0, "fusion_lat": 0.0, "type": "electric_scooter", "name": "93eb5f3dd7054d0c9822cbcb730a06b3", "lat": 38.91922133333333, "bike_id": "93eb5f3dd7054d0c9822cbcb730a06b3"}, {"lon": -77.02578033333333, "rental_uris": {"android": "https://dc.lft.to/lastmile_qr_scan", "ios": "https://dc.lft.to/lastmile_qr_scan"}, "fusion_lon": 0.0, "is_reserved": 0, "is_disabled": 0, "fusion_lat": 0.0, "type": "electric_scooter", "name": "58d7ae0348202b9dad966f054251e7b4", "lat": 38.920423, "bike_id": "58d7ae0348202b9dad966f054251e7b4"}, {"lon": -76.98556733333334, "rental_uris": {"android": "https://dc.lft.to/lastmile_qr_scan", "ios": "https://dc.lft.to/lastmile_qr_scan"}, "fusion_lon": 0.0, "is_reserved": 0, "is_disabled": 0, "fusion_lat": 0.0, "type": "electric_scooter", "name": "8f4d18679cd5a770c46c7cd06dd60313", "lat": 38.899763666666665, "bike_id": "8f4d18679cd5a770c46c7cd06dd60313"}, {"lon": -77.06170383333334, "rental_uris": {"android": "https://dc.lft.to/lastmile_qr_scan", "ios": "https://dc.lft.to/lastmile_qr_scan"}, "fusion_lon": 0.0, "is_reserved": 0, "is_disabled": 0, "fusion_lat": 0.0, "type": "electric_scooter", "name": "438fa8d66eeace333a753a2a3a0a6f11", "lat": 38.94307466666667, "bike_id": "438fa8d66eeace333a753a2a3a0a6f11"}, {"lon": -77.05340266666667, "rental_uris": {"android": "https://dc.lft.to/lastmile_qr_scan", "ios": "https://dc.lft.to/lastmile_qr_scan"}, "fusion_lon": 0.0, "is_reserved": 0, "is_disabled": 0, "fusion_lat": 0.0, "type": "electric_scooter", "name": "aed3e2829ceb29e4a9704181ac512b44", "lat": 38.898748499999996, "bike_id": "aed3e2829ceb29e4a9704181ac512b44"}, {"lon": -77.04504466666667, "rental_uris": {"android": "https://dc.lft.to/lastmile_qr_scan", "ios": "https://dc.lft.to/lastmile_qr_scan"}, "fusion_lon": 0.0, "is_reserved": 0, "is_disabled": 0, "fusion_lat": 0.0, "type": "electric_scooter", "name": "3b9600d2637755b0e10ea9c0f89aec3c", "lat": 38.899451666666664, "bike_id": "3b9600d2637755b0e10ea9c0f89aec3c"}, {"lon": -77.04353833333333, "rental_uris": {"android": "https://dc.lft.to/lastmile_qr_scan", "ios": "https://dc.lft.to/lastmile_qr_scan"}, "fusion_lon": 0.0, "is_reserved": 0, "is_disabled": 0, "fusion_lat": 0.0, "type": "electric_scooter", "name": "9521f73acf66dd54ff648f347e40696a", "lat": 38.903492, "bike_id": "9521f73acf66dd54ff648f347e40696a"}, {"lon": -76.99618883333333, "rental_uris": {"android": "https://dc.lft.to/lastmile_qr_scan", "ios": "https://dc.lft.to/lastmile_qr_scan"}, "fusion_lon": 0.0, "is_reserved": 0, "is_disabled": 0, "fusion_lat": 0.0, "type": "electric_scooter", "name": "d53ca47b3e2f2812d1e3576fc22baebd", "lat": 38.920525166666664, "bike_id": "d53ca47b3e2f2812d1e3576fc22baebd"}, {"lon": -76.97226166666667, "rental_uris": {"android": "https://dc.lft.to/lastmile_qr_scan", "ios": "https://dc.lft.to/lastmile_qr_scan"}, "fusion_lon": 0.0, "is_reserved": 0, "is_disabled": 0, "fusion_lat": 0.0, "type": "electric_bike", "name": "d3ff54b9c699e3eaf718f5c0d80a663f", "lat": 38.9003615, "bike_id": "d3ff54b9c699e3eaf718f5c0d80a663f"}, {"lon": -77.04442133333333, "rental_uris": {"android": "https://dc.lft.to/lastmile_qr_scan", "ios": "https://dc.lft.to/lastmile_qr_scan"}, "fusion_lon": 0.0, "is_reserved": 0, "is_disabled": 0, "fusion_lat": 0.0, "type": "electric_scooter", "name": "f7a068050fa16689f3f9b61891ce4fdb", "lat": 38.91244983333333, "bike_id": "f7a068050fa16689f3f9b61891ce4fdb"},