{"data": {"bikes": [{"rental_uris": {"android": "https://dc.lft.to/lastmile_qr_scan", "ios": "https://dc.lft.to/lastmile_qr_scan"}, "type": "electric_scooter", "lon": -77.023456, "name": "71b2142e2637836510050ff1aee27ad5", "bike_id": "71b2142e2637836510050ff1aee27ad5", "fusion_lat": 0.0, "is_reserved": 0, "lat": 38.92986416666667, "fusion_lon": 0.0, "is_disabled": 0}, {"rental_uris": {"android": "https://dc.lft.to/lastmile_qr_scan", "ios": "https://dc.lft.to/lastmile_qr_scan"}, "type": "electric_scooter", "lon": -77.05003733333334, "name": "166f0a912c7a770e316b86689978125f", "bike_id": "166f0a912c7a770e316b86689978125f", "fusion_lat": 0.0, "is_reserved": 0, "lat": 38.89233183333333, "fusion_lon": 0.0, "is_disabled": 0}, {"rental_uris": {"android": "https://dc.lft.to/lastmile_qr_scan", "ios": "https://dc.lft.to/lastmile_qr_scan"}, "type": "electric_scooter", "lon": -77.0254215, "name": "f6858d643555c08f5c64376373d4f18a", "bike_id": "f6858d643555c08f5c64376373d4f18a", "fusion_lat": 0.0, "is_reserved": 0, "lat": 38.935235666666664, "fusion_lon": 0.0, "is_disabled": 0}, {"rental_uris": {"android": "https://dc.lft.to/lastmile_qr_scan", "ios": "https://dc.lft.to/lastmile_qr_scan"}, "type": "electric_scooter", "lon": -77.03159633333334, "name": "ff05507ed1d849889a097245f3d24ff1", "bike_id": "ff05507ed1d849889a097245f3d24ff1", "fusion_lat": 0.0, "is_reserved": 0, "lat": 38.897717666666665, "fusion_lon": 0.0, "is_disabled": 0}, {"rental_uris": {"android": "https://dc.lft.to/lastmile_qr_scan", "ios": "https://dc.lft.to/lastmile_qr_scan"}, "type": "electric_scooter", "lon": -77.03271316666667, "name": "46eca611e7f3b8ce8202609e1d584bb7", "bike_id": "46eca611e7f3b8ce8202609e1d584bb7", "fusion_lat": 0.0, "is_reserved": 0, "lat": 38.924603833333336, "fusion_lon": 0.0, "is_disabled": 0}, {"rental_uris": {"android": "https://dc.lft.to/lastmile_qr_scan", "ios": "https://dc.lft.to/lastmile_qr_scan"}, "type": "electric_bike", "lon": -77.09966666666666, "name": "256721408ff39caf3475299024909384", "bike_id": "256721408ff39caf3475299024909384", "fusion_lat": 0.0, "is_reserved": 0, "lat": 38.8578915, "fusion_lon": 0.0, "is_disabled": 0}, {"rental_uris": {"android": "https://dc.lft.to/lastmile_qr_scan", "ios": "https://dc.lft.to/lastmile_qr_scan"}, "type": "electric_scooter", "lon": -77.04831116666666, "name": "9964892a5467934c28bad9f37804324a", "bike_id": "9964892a5467934c28bad9f37804324a", "fusion_lat": 0.0, "is_reserved": 0, "lat": 38.9005225, "fusion_lon": 0.0, "is_disabled": 0}, {"rental_uris": {"android": "https://dc.lft.to/lastmile_qr_scan", "ios": "https://dc.lft.to/lastmile_qr_scan"}, "type": "electric_scooter", "lon": -77.02178833333333, "name": "071be15ad4d41ff214f0d7c3d4633cf1", "bike_id": "071be15ad4d41ff214f0d7c3d4633cf1", "fusion_lat": 0.0, "is_reserved": 0, "lat": 38.89231683333333, "fusion_lon": 0.0, "is_disabled": 0}, {"rental_uris": {"android": "https://dc.lft.to/lastmile_qr_scan", "ios": "https://dc.lft.to/lastmile_qr_scan"}, "type": "electric_bike", "lon": -76.98828416666667, "name": "864a922b845e4a097979724f4730ffb0", "bike_id": "864a922b845e4a097979724f4730ffb0", "fusion_lat": 0.0, "is_reserved": 0, "lat": 38.985641666666666, "fusion_lon": 0.0, "is_disabled": 0}, {"rental_uris": {"android": "https://dc.lft.to/lastmile_qr_scan", "ios": "https://dc.lft.to/lastmile_qr_scan"}, "type": "electric_scooter", "lon": -77.0458205, "name": "dd0be01e0010a12d6c2292146f5500c7", "bike_id": "dd0be01e0010a12d6c2292146f5500c7", "fusion_lat": 0.0, "is_reserved": 0, "lat": 38.9213815, "fusion_lon": 0.0, "is_disabled": 0}, {"rental_uris": {"android": "https://dc.lft.to/lastmile_qr_scan", "ios": "https://dc.lft.to/lastmile_qr_scan"}, "type": "electric_scooter", "lon": -77.02358983333333, "name": "71b798bb6dd5edb2e4f749eb2601b953", "bike_id": "71b798bb6dd5edb2e4f749eb2601b953", "fusion_lat": 0.0, "is_reserved": 0, "lat": 38.917811666666665, "fusion_lon": 0.0, "is_disabled": 0}, {"rental_uris": {"android": "https://dc.lft.to/lastmile_qr_scan", "ios": "https://dc.lft.to/lastmile_qr_scan"}, "type": "electric_scooter", "lon": -77.04629333333334, "name": "07ec3386e1f71bc78a723831430416a7", "bike_id": "07ec3386e1f71bc78a723831430416a7", "fusion_lat": 0.0, "is_reserved": 0, "lat": 38.90071783333333, "fusion_lon": 0.0, "is_disabled": 0}, {"rental_uris": {"android": "https://dc.lft.to/lastmile_qr_scan", "ios": "https://dc.lft.to/lastmile_qr_scan"}, "type": "electric_scooter", "lon": -77.02544433333334, "name": "2141ccc7e47594d020e3f93d041f2daf", "bike_id": "2141ccc7e47594d020e3f93d041f2daf", "fusion_lat": 0.0, "is_reserved": 0, "lat": 38.9274665, "fusion_lon": 0.0, "is_disabled": 0}, {"rental_uris": {"android": "https://dc.lft.to/lastmile_qr_scan", "ios": "https://dc.lft.to/lastmile_qr_scan"}, "type": "electric_scooter", "lon": -77.02338466666667, "name": "fbdb08d79fbac7aae6000225bfbc1f65", "bike_id": "fbdb08d79fbac7aae6000225bfbc1f65", "fusion_lat": 0.0, "is_reserved": 0, "lat": 38.9332785, "fusion_lon": 0.0, "is_disabled": 0}, {"rental_uris": {"android": "https://dc.lft.to/lastmile_qr_scan", "ios": "https://dc.lft.to/lastmile_qr_scan"}, "type": "electric_scooter", "lon": -77.03122966666666, "name": "f9ecde5ed6f57bba1ec4578c5ec307e9", "bike_id": "f9ecde5ed6f57bba1ec4578c5ec307e9", "fusion_lat": 0.0, "is_reserved": 0, "lat": 38.89735916666667, "fusion_lon": 0.0, "is_disabled": 0}, {"rental_uris": {"android": "https://dc.lft.to/lastmile_qr_scan", "ios": "https://dc.lft.to/lastmile_qr_scan"}, "type": "electric_scooter", "lon": -76.99203016666667, "name": "73fd722c196eb97153e52615f582d11c", "bike_id": "73fd722c196eb97153e52615f582d11c", "fusion_lat": 0.0, "is_reserved": 0, "lat": 38.895209666666666, "fusion_lon": 0.0, "is_disabled": 0}, {"rental_uris": {"android": "https://dc.lft.to/lastmile_qr_scan", "ios": "https://dc.lft.to/lastmile_qr_scan"}, "type": "electric_scooter", "lon": -77.02559, "name": "71423d792d4ed11680e6831e9b141193", "bike_id": "71423d792d4ed11680e6831e9b141193", "fusion_lat": 0.0, "is_reserved": 0, "lat": 38.94168466666667, "fusion_lon": 0.0, "is_disabled": 0}, {"rental_uris": {"android": "https://dc.lft.to/lastmile_qr_scan", "ios": "https://dc.lft.to/lastmile_qr_scan"}, "type": "electric_scooter", "lon": -77.00746, "name": "b67fc2590916c7b315c5e8dc31f054fe", "bike_id": "b67fc2590916c7b315c5e8dc31f054fe", "fusion_lat": 0.0, "is_reserved": 0, "lat": 38.900756333333334, "fusion_lon": 0.0, "is_disabled": 0}, {"rental_uris": {"android": "https://dc.lft.to/lastmile_qr_scan", "ios": "https://dc.lft.to/lastmile_qr_scan"}, "type": "electric_scooter", "lon": -77.04867966666667, "name": "0804693880c39130cc3a4f144534b1fd", "bike_id": "0804693880c39130cc3a4f144534b1fd", "fusion_lat": 0.0, "is_reserved": 0, "lat": 38.90976216666667, "fusion_lon": 0.0, "is_disabled": 0}, {"rental_uris": {"android": "https://dc.lft.to/lastmile_qr_scan", "ios": "https://dc.lft.to/lastmile_qr_scan"}, "type": "electric_scooter", "lon": -77.03178733333333, "name": "f043a808ee597333a8187c519f0a3164", "bike_id": "f043a808ee597333a8187c519f0a3164", "fusion_lat": 0.0, "is_reserved": 0, "lat": 38.88665966666667, "fusion_lon": 0.0, "is_disabled": 0}, {"rental_uris": {"android": "https://dc.lft.to/lastmile_qr_scan", "ios": "https://dc.lft.to/lastmile_qr_scan"}, "type": "electric_scooter", "lon": -77.02397133333334, "name": "a04179cdd6a82d92a45da9064974fb87", "bike_id": "a04179cdd6a82d92a45da9064974fb87", "fusion_lat": 0.0, "is_reserved": 0, "lat": 38.920874833333336, "fusion_lon": 0.0, "is_disabled": 0}, {"rental_uris": {"android": "https://dc.lft.to/lastmile_qr_scan", "ios": "https://dc.lft.to/lastmile_qr_scan"}, "type": "electric_scooter", "lon": -77.015542, "name": "8692d302a53b80d58b43310371ac6749", "bike_id": "8692d302a53b80d58b43310371ac6749", "fusion_lat": 0.0, "is_reserved": 0, "lat": 38.913725, "fusion_lon": 0.0, "is_disabled": 0}, {"rental_uris": {"android": "https://dc.lft.to/lastmile_qr_scan", "ios": "https://dc.lft.to/lastmile_qr_scan"}, "type": "electric_bike", "lon": -77.00189866666666, "name": "3ef85c030b074bca2f1b095244950cca", "bike_id": "3ef85c030b074bca2f1b095244950cca", "fusion_lat": 0.0, "is_reserved": 0, "lat": 38.897434833333335, "fusion_lon": 0.0, "is_disabled": 0}, {"rental_uris": {"android": "https://dc.lft.to/lastmile_qr_scan", "ios": "https://dc.lft.to/lastmile_qr_scan"}, "type": "electric_scooter", "lon": -77.01574083333334, "name": "8fc6adcca1d8b931fdd80c2338fea636", "bike_id": "8fc6adcca1d8b931fdd80c2338fea636", "fusion_lat": 0.0, "is_reserved": 0, "lat": 38.916835, "fusion_lon": 0.0, "is_disabled": 0}, {"rental_uris": {"android": "https://dc.lft.to/lastmile_qr_scan", "ios": "https://dc.lft.to/lastmile_qr_scan"}, "type": "electric_scooter", "lon": -77.03181916666666, "name": "03f1da51527cd585253bdf06bb63528b", "bike_id": "03f1da51527cd585253bdf06bb63528b", "fusion_lat": 0.0, "is_reserved": 0, "lat": 38.90060033333334, "fusion_lon": 0.0, "is_disabled": 0}, {"rental_uris": {"android": "https://dc.lft.to/lastmile_qr_scan", "ios": "https://dc.lft.to/lastmile_qr_scan"}, "type": "electric_scooter", "lon": -77.02369466666667, "name": "e55b6e8abf25067b1d9b4f7955b5af28", "bike_id": "e55b6e8abf25067b1d9b4f7955b5af28", "fusion_lat": 0.0, "is_reserved": 0, "lat": 38.917886, "fusion_lon": 0.0, "is_disabled": 0}, {"rental_uris": {"android": "https://dc.lft.to/lastmile_qr_scan", "ios": "https://dc.lft.to/lastmile_qr_scan"}, "type": "electric_scooter", "lon": -77.03683566666666, "name": "2c77a3837fb0243f8ef086e37c18e79a", "bike_id": "2c77a3837fb0243f8ef086e37c18e79a", "fusion_lat": 0.0, "is_reserved": 0, "lat": 38.916817, "fusion_lon": 0.0, "is_disabled": 0}, {"rental_uris": {"android": "https://dc.lft.to/lastmile_qr_scan", "ios": "https://dc.lft.to/lastmile_qr_scan"}, "type": "electric_scooter", "lon": -77.03218583333333, "name": "92fe195471412daf3604b05b4fd2d140", "bike_id": "92fe195471412daf3604b05b4fd2d140", "fusion_lat": 0.0, "is_reserved": 0, "lat": 38.90771, "fusion_lon": 0.0, "is_disabled": 0}, {"rental_uris": {"android": "https://dc.lft.to/lastmile_qr_scan", "ios": "https://dc.lft.to/lastmile_qr_scan"}, "type": "electric_scooter", "lon": -77.01202033333334, "name": "d1e8d8a06ce128c68aa358a552e67973", "bike_id": "d1e8d8a06ce128c68aa358a552e67973", "fusion_lat": 0.0, "is_reserved": 0, "lat": 38.91311233333333, "fusion_lon": 0.0, "is_disabled": 0}, {"rental_uris": {"android": "https://dc.lft.to/lastmile_qr_scan", "ios": "https://dc.lft.to/lastmile_qr_scan"}, "type": "electric_scooter", "lon": -77.00199866666667, "name": "f79ad5725633f79d9c133157957108de", "bike_id": "f79ad5725633f79d9c133157957108de", "fusion_lat": 0.0, "is_reserved": 0, "lat": 38.91433933333333, "fusion_lon": 0.0, "is_disabled": 0}, {"rental_uris": {"android": "https://dc.lft.to/lastmile_qr_scan", "ios": "https://dc.lft.to/lastmile_qr_scan"}, "type": "electric_scooter", "lon": -76.9832335, "name": "28e9cfc738361d5c622d6f570dcbd3f2", "bike_id": "28e9cfc738361d5c622d6f570dcbd3f2", "fusion_lat": 0.0, "is_reserved": 0, "lat": 38.90744266666667, "fusion_lon": 0.0, "is_disabled": 0}, {"rental_uris": {"android": "https://dc.lft.to/lastmile_qr_scan", "ios": "https://dc.lft.to/lastmile_qr_scan"}, "type": "electric_scooter", "lon": -77.0117645, "name": "31af1252122c42011d61062a69eb0ace", "bike_id": "31af1252122c42011d61062a69eb0ace", "fusion_lat": 0.0, "is_reserved": 0, "lat": 38.90039183333333, "fusion_lon": 0.0, "is_disabled": 0}, {"rental_uris": {"android": "https://dc.lft.to/lastmile_qr_scan", "ios": "https://dc.lft.to/lastmile_qr_scan"}, "type": "electric_scooter", "lon": -77.02964083333333, "name": "971322a5d8d9c09e9fad5c139576567b", "bike_id": "971322a5d8d9c09e9fad5c139576567b", "fusion_lat": 0.0, "is_reserved": 0, "lat": 38.90677066666667, "fusion_lon": 0.0, "is_disabled": 0}, {"rental_uris": {"android": "https://dc.lft.to/lastmile_qr_scan", "ios": "https://dc.lft.to/lastmile_qr_scan"}, "type": "electric_scooter", "lon": -76.975559, "name": "78e76ddcd613f9c02b8cd6b04857a182", "bike_id": "78e76ddcd613f9c02b8cd6b04857a182", "fusion_lat": 0.0, "is_reserved": 0, "lat": 38.90442783333334, "fusion_lon": 0.0, "is_disabled": 0}, {"rental_uris": {"android": "https://dc.lft.to/lastmile_qr_scan", "ios": "https://dc.lft.to/lastmile_qr_scan"}, "type": "electric_scooter", "lon": -77.01815016666667, "name": "62207fb0d7734a5df4e06378614bfcf0", "bike_id": "62207fb0d7734a5df4e06378614bfcf0", "fusion_lat": 0.0, "is_reserved": 0, "lat": 38.88626583333333, "fusion_lon": 0.0, "is_disabled": 0}, {"rental_uris": {"android": "https://dc.lft.to/lastmile_qr_scan", "ios": "https://dc.lft.to/lastmile_qr_scan"}, "type": "electric_scooter", "lon": -77.04157683333334, "name": "389bf4c450d2648e59150e7382d473bb", "bike_id": "389bf4c450d2648e59150e7382d473bb", "fusion_lat": 0.0, "is_reserved": 0, "lat": 38.91930766666667, "fusion_lon": 0.0, "is_disabled": 0}, {"rental_uris": {"android": "https://dc.lft.to/lastmile_qr_scan", "ios": "https://dc.lft.to/lastmile_qr_scan"}, "type": "electric_scooter", "lon": -77.02177116666667, "name": "427845114a238798e921d145796fe3ba", "bike_id": "427845114a238798e921d145796fe3ba", "fusion_lat": 0.0, "is_reserved": 0, "lat": 38.910661166666664, "fusion_lon": 0.0, "is_disabled": 0}, {"rental_uris": {"android": "https://dc.lft.to/lastmile_qr_scan", "ios": "https://dc.lft.to/lastmile_qr_scan"}, "type": "electric_scooter", "lon": -77.04676183333333, "name": "2d344a68067c39af9e084a9339d4f0e3", "bike_id": "2d344a68067c39af9e084a9339d4f0e3", "fusion_lat": 0.0, "is_reserved": 0, "lat": 38.9106165, "fusion_lon": 0.0, "is_disabled": 0}, {"rental_uris": {"android": "https://dc.lft.to/lastmile_qr_scan", "ios": "https://dc.lft.to/lastmile_qr_scan"}, "type": "electric_scooter", "lon": -76.94921416666666, "name": "b1f53175d588cfc10da334909c03c12c", "bike_id": "b1f53175d588cfc10da334909c03c12c", "fusion_lat": 0.0, "is_reserved": 0, "lat": 38.89269816666667, "fusion_lon": 0.0, "is_disabled": 0}, {"rental_uris": {"android": "https://dc.lft.to/lastmile_qr_scan", "ios": "https://dc.lft.to/lastmile_qr_scan"}, "type": "electric_scooter", "lon": -76.97931283333334, "name": "63526ddbe2acebab402073649adf1d65", "bike_id": "63526ddbe2acebab402073649adf1d65", "fusion_lat": 0.0, "is_reserved": 0, "lat": 38.90237883333333, "fusion_lon": 0.0, "is_disabled": 0}, {"rental_uris": {"android": "https://dc.lft.to/lastmile_qr_scan", "ios": "https://dc.lft.to/lastmile_qr_scan"}, "type": "electric_scooter", "lon": -77.02475166666666, "name": "8d04cb70311d607650436bc74e284c44", "bike_id": "8d04cb70311d607650436bc74e284c44", "fusion_lat": 0.0, "is_reserved": 0, "lat": 38.93625383333333, "fusion_lon": 0.0, "is_disabled": 0}, {"rental_uris": {"android": "https://dc.lft.to/lastmile_qr_scan", "ios": "https://dc.lft.to/lastmile_qr_scan"}, "type": "electric_bike", "lon": -77.08435766666666, "name": "39bae396360393a34dae68a287790287", "bike_id": "39bae396360393a34dae68a287790287", "fusion_lat": 0.0, "is_reserved": 0, "lat": 38.81028416666667, "fusion_lon": 0.0, "is_disabled": 0}, {"rental_uris": {"android": "https://dc.lft.to/lastmile_qr_scan", "ios": "https://dc.lft.to/lastmile_qr_scan"}, "type": "electric_bike", "lon": -76.975005, "name": "cc1eb3461259ce23f35df44f2b772dad", "bike_id": "cc1eb3461259ce23f35df44f2b772dad", "fusion_lat": 0.0, "is_reserved": 0, "lat": 38.919385, "fusion_lon": 0.0, "is_disabled": 0}, {"rental_uris": {"android": "https://dc.lft.to/lastmile_qr_scan", "ios": "https://dc.lft.to/lastmile_qr_scan"}, "type": "electric_scooter", "lon": -76.98449316666667, "name": "4a9eeb904fee2fdbe564dac546cc4d0d", "bike_id": "4a9eeb904fee2fdbe564dac546cc4d0d", "fusion_lat": 0.0, "is_reserved": 0, "lat": 38.8801405, "fusion_lon": 0.0, "is_disabled": 0}, {"rental_uris": {"android": "https://dc.lft.to/lastmile_qr_scan", "ios": "https://dc.lft.to/lastmile_qr_scan"}, "type": "electric_scooter", "lon": -76.99492066666667, "name": "182f7f43d01b7b1ee1f0fd3ff845a4c7", "bike_id": "182f7f43d01b7b1ee1f0fd3ff845a4c7", "fusion_lat": 0.0, "is_reserved": 0, "lat": 38.86244216666667, "fusion_lon": 0.0, "is_disabled": 0}, {"rental_uris": {"android": "https://dc.lft.to/lastmile_qr_scan", "ios": "https://dc.lft.to/lastmile_qr_scan"}, "type": "electric_scooter", "lon": -77.03217133333334, "name": "360b3d8ca64cdedfd3dfdc16b53d3bf8", "bike_id": "360b3d8ca64cdedfd3dfdc16b53d3bf8", "fusion_lat": 0.0, "is_reserved": 0, "lat": 38.896386666666665, "fusion_lon": 0.0, "is_disabled": 0}, {"rental_uris": {"android": "https://dc.lft.to/lastmile_qr_scan", "ios": "https://dc.lft.to/lastmile_qr_scan"}, "type": "electric_scooter", "lon": -77.032317, "name": "8b75761ef1675a7fe9056b3d3d8448b5", "bike_id": "8b75761ef1675a7fe9056b3d3d8448b5", "fusion_lat": 0.0, "is_reserved": 0, "lat": 38.929893666666665, "fusion_lon": 0.0, "is_disabled": 0}, {"rental_uris": {"android": "https://dc.lft.to/lastmile_qr_scan", "ios": "https://dc.lft.to/lastmile_qr_scan"}, "type": "electric_scooter", "lon": -76.990167, "name": "3aeb429ddc64ca7d60495c28ab0cc951", "bike_id": "3aeb429ddc64ca7d60495c28ab0cc951", "fusion_lat": 0.0, "is_reserved": 0, "lat": 38.89914566666667, "fusion_lon": 0.0, "is_disabled": 0}, {"rental_uris": {"android": "https://dc.lft.to/lastmile_qr_scan", "ios": "https://dc.lft.to/lastmile_qr_scan"}, "type": "electric_scooter", "lon": -76.98777616666666, "name": "0fd136f6585c2c1a2255b936353c0f27", "bike_id": "0fd136f6585c2c1a2255b936353c0f27", "fusion_lat": 0.0, "is_reserved": 0, "lat": 38.90032766666667, "fusion_lon": 0.0, "is_disabled": 0}, {"rental_uris": {"android": "https://dc.lft.to/lastmile_qr_scan", "ios": "https://dc.lft.to/lastmile_qr_scan"}, "type": "electric_scooter", "lon": -77.02982533333333, "name": "8e6ca9e764ab5a2aedb5b65555ddbe73", "bike_id": "8e6ca9e764ab5a2aedb5b65555ddbe73", "fusion_lat": 0.0, "is_reserved": 0, "lat": 38.93759, "fusion_lon": 0.0, "is_disabled": 0}, {"rental_uris": {"android": "https://dc.lft.to/lastmile_qr_scan", "ios": "https://dc.lft.to/lastmile_qr_scan"}, "type": "electric_bike", "lon": -76.92339116666666, "name": "93f4daeebdb3dc840b34aafec0b822ee", "bike_id": "93f4daeebdb3dc840b34aafec0b822ee", "fusion_lat": 0.0, "is_reserved": 0, "lat": 38.887904, "fusion_lon": 0.0, "is_disabled": 0}, {"rental_uris": {"android": "https://dc.lft.to/lastmile_qr_scan", "ios": "https://dc.lft.to/lastmile_qr_scan"}, "type": "electric_scooter", "lon": -77.07269766666667, "name": "77d932088176adba3353689575e0edb6", "bike_id": "77d932088176adba3353689575e0edb6", "fusion_lat": 0.0, "is_reserved": 0, "lat": 38.93485483333333, "fusion_lon": 0.0, "is_disabled": 0}, {"rental_uris": {"android": "https://dc.lft.to/lastmile_qr_scan", "ios": "https://dc.lft.to/lastmile_qr_scan"}, "type": "electric_bike", "lon": -77.0297915, "name": "c9b56a78f5e2a61baa2efd4b05f467ed", "bike_id": "c9b56a78f5e2a61baa2efd4b05f467ed", "fusion_lat": 0.0, "is_reserved": 0, "lat": 38.93702283333333, "fusion_lon": 0.0, "is_disabled": 0}, {"rental_uris": {"android": "https://dc.lft.to/lastmile_qr_scan", "ios": "https://dc.lft.to/lastmile_qr_scan"}, "type": "electric_scooter", "lon": -76.99024816666666, "name": "452180859211c08dfadc64dedb0971e8", "bike_id": "452180859211c08dfadc64dedb0971e8", "fusion_lat": 0.0, "is_reserved": 0, "lat": 38.86407666666667, "fusion_lon": 0.0, "is_disabled": 0}, {"rental_uris": {"android": "https://dc.lft.to/lastmile_qr_scan", "ios": "https://dc.lft.to/lastmile_qr_scan"}, "type": "electric_scooter", "lon": -77.031775, "name": "556610bfa534a2a507b8fe54297eb8a0", "bike_id": "556610bfa534a2a507b8fe54297eb8a0", "fusion_lat": 0.0, "is_reserved": 0, "lat": 38.901637666666666, "fusion_lon": 0.0, "is_disabled": 0}, {"rental_uris": {"android": "https://dc.lft.to/lastmile_qr_scan", "ios": "https://dc.lft.to/lastmile_qr_scan"}, "type": "electric_scooter", "lon": -77.0350535, "name": "e65346852bea05b19f8343fbb9ed287a", "bike_id": "e65346852bea05b19f8343fbb9ed287a", "fusion_lat": 0.0, "is_reserved": 0, "lat": 38.9214555, "fusion_lon": 0.0, "is_disabled": 0}, {"rental_uris": {"android": "https://dc.lft.to/lastmile_qr_scan", "ios": "https://dc.lft.to/lastmile_qr_scan"}, "type": "electric_scooter", "lon": -77.049635, "name": "b16184f639af848d1e3116956ac67a27", "bike_id": "b16184f639af848d1e3116956ac67a27", "fusion_lat": 0.0, "is_reserved": 0, "lat": 38.91256883333333, "fusion_lon": 0.0, "is_disabled": 0}, {"rental_uris": {"android": "https://dc.lft.to/lastmile_qr_scan", "ios": "https://dc.lft.to/lastmile_qr_scan"}, "type": "electric_scooter", "lon": -77.04218433333334, "name": "d0f8a72128cb9fd88d8caa66d82cf9e6", "bike_id": "d0f8a72128cb9fd88d8caa66d82cf9e6", "fusion_lat": 0.0, "is_reserved": 0, "lat": 38.926298333333335, "fusion_lon": 0.0, "is_disabled": 0}, {"rental_uris": {"android": "https://dc.lft.to/lastmile_qr_scan", "ios": "https://dc.lft.to/lastmile_qr_scan"}, "type": "electric_scooter", "lon": -77.023413, "name": "32564b904fae7b9c4bc745d081c98b7a", "bike_id": "32564b904fae7b9c4bc745d081c98b7a", "fusion_lat": 0.0, "is_reserved": 0, "lat": 38.92976516666667, "fusion_lon": 0.0, "is_disabled": 0}, {"rental_uris": {"android": "https://dc.lft.to/lastmile_qr_scan", "ios": "https://dc.lft.to/lastmile_qr_scan"}, "type": "electric_scooter", "lon": -77.015239, "name": "d7bba3ce7c4e228f0008682bf2e7f232", "bike_id": "d7bba3ce7c4e228f0008682bf2e7f232", "fusion_lat": 0.0, "is_reserved": 0, "lat": 38.9135315, "fusion_lon": 0.0, "is_disabled": 0}, {"rental_uris": {"android": "https://dc.lft.to/lastmile_qr_scan", "ios": "https://dc.lft.to/lastmile_qr_scan"}, "type": "electric_scooter", "lon": -77.04992116666666, "name": "a4205e56f479f7389364cd692eec0e97", "bike_id": "a4205e56f479f7389364cd692eec0e97", "fusion_lat": 0.0, "is_reserved": 0, "lat": 38.898987, "fusion_lon": 0.0, "is_disabled": 0}, {"rental_uris": {"android": "https://dc.lft.to/lastmile_qr_scan", "ios": "https://dc.lft.to/lastmile_qr_scan"}, "type": "electric_scooter", "lon": -77.0820835, "name": "7b916ea864b574532738ededa41cb584", "bike_id": "7b916ea864b574532738ededa41cb584", "fusion_lat": 0.0, "is_reserved": 0, "lat": 38.93559166666667, "fusion_lon": 0.0, "is_disabled": 0}, {"rental_uris": {"android": "https://dc.lft.to/lastmile_qr_scan", "ios": "https://dc.lft.to/lastmile_qr_scan"}, "type": "electric_scooter", "lon": -77.03233266666666, "name": "e03283f25541b1e588f30395fb3c329c", "bike_id": "e03283f25541b1e588f30395fb3c329c", "fusion_lat": 0.0, "is_reserved": 0, "lat": 38.902809833333336, "fusion_lon": 0.0, "is_disabled": 0}, {"rental_uris": {"android": "https://dc.lft.to/lastmile_qr_scan", "ios": "https://dc.lft.to/lastmile_qr_scan"}, "type": "electric_bike", "lon": -77.1784335, "name": "26a03d9ad7eb593c5a272124fa26c17f", "bike_id": "26a03d9ad7eb593c5a272124fa26c17f", "fusion_lat": 0.0, "is_reserved": 0, "lat": 39.0890245, "fusion_lon": 0.0, "is_disabled": 0}, {"rental_uris": {"android": "https://dc.lft.to/lastmile_qr_scan", "ios": "https://dc.lft.to/lastmile_qr_scan"}, "type": "electric_scooter", "lon": -77.02407233333334, "name": "f93fdd8cda21435b118d38cfea2754c4", "bike_id": "f93fdd8cda21435b118d38cfea2754c4", "fusion_lat": 0.0, "is_reserved": 0, "lat": 38.913435666666665, "fusion_lon": 0.0, "is_disabled": 0}, {"rental_uris": {"android": "https://dc.lft.to/lastmile_qr_scan", "ios": "https://dc.lft.to/lastmile_qr_scan"}, "type": "electric_scooter", "lon": -77.02705433333334, "name": "c8863b12dc4b7b4f9eac51de13851406", "bike_id": "c8863b12dc4b7b4f9eac51de13851406", "fusion_lat": 0.0, "is_reserved": 0, "lat": 38.906682, "fusion_lon": 0.0, "is_disabled": 0}, {"rental_uris": {"android": "https://dc.lft.to/lastmile_qr_scan", "ios": "https://dc.lft.to/lastmile_qr_scan"}, "type": "electric_scooter", "lon": -76.99479733333334, "name": "e03471f08faddfeb93b6f086a709ccd5", "bike_id": "e03471f08faddfeb93b6f086a709ccd5", "fusion_lat": 0.0, "is_reserved": 0, "lat": 38.888639833333336, "fusion_lon": 0.0, "is_disabled": 0}, {"rental_uris": {"android": "https://dc.lft.to/lastmile_qr_scan", "ios": "https://dc.lft.to/lastmile_qr_scan"}, "type": "electric_scooter", "lon": -77.0227915, "name": "9d7c80368c83b918c0a83c23c5b016be", "bike_id": "9d7c80368c83b918c0a83c23c5b016be", "fusion_lat": 0.0, "is_reserved": 0, "lat": 38.9241825, "fusion_lon": 0.0, "is_disabled": 0}, {"rental_uris": {"android": "https://dc.lft.to/lastmile_qr_scan", "ios": "https://dc.lft.to/lastmile_qr_scan"}, "type": "electric_scooter", "lon": -76.93530533333333, "name": "a0e276893e543b99cf1671bc17754690", "bike_id": "a0e276893e543b99cf1671bc17754690", "fusion_lat": 0.0, "is_reserved": 0, "lat": 38.89684533333333, "fusion_lon": 0.0, "is_disabled": 0}, {"rental_uris": {"android": "https://dc.lft.to/lastmile_qr_scan", "ios": "https://dc.lft.to/lastmile_qr_scan"}, "type": "electric_scooter", "lon": -77.0270295, "name": "436f5bc2a3dc19160e4ba1c348873f36", "bike_id": "436f5bc2a3dc19160e4ba1c348873f36", "fusion_lat": 0.0, "is_reserved": 0, "lat": 38.95000433333333, "fusion_lon": 0.0, "is_disabled": 0}, {"rental_uris": {"android": "https://dc.lft.to/lastmile_qr_scan", "ios": "https://dc.lft.to/lastmile_qr_scan"}, "type": "electric_bike", "lon": -77.04302083333333, "name": "319673f9e6183f71ef865addea178ce4", "bike_id": "319673f9e6183f71ef865addea178ce4", "fusion_lat": 0.0, "is_reserved": 0, "lat": 39.054512333333335, "fusion_lon": 0.0, "is_disabled": 0}, {"rental_uris": {"android": "https://dc.lft.to/lastmile_qr_scan", "ios": "https://dc.lft.to/lastmile_qr_scan"}, "type": "electric_bike", "lon": -77.10504233333333, "name": "d55bf6b581a2c590e87c7f481e89579d", "bike_id": "d55bf6b581a2c590e87c7f481e89579d", "fusion_lat": 0.0, "is_reserved": 0, "lat": 38.928493333333336, "fusion_lon": 0.0, "is_disabled": 0}, {"rental_uris": {"android": "https://dc.lft.to/lastmile_qr_scan", "ios": "https://dc.lft.to/lastmile_qr_scan"}, "type": "electric_scooter", "lon": -77.022518, "name": "0471f1d175bdda0f49e20a78dcd2be9a", "bike_id": "0471f1d175bdda0f49e20a78dcd2be9a", "fusion_lat": 0.0, "is_reserved": 0, "lat": 38.9282495, "fusion_lon": 0.0, "is_disabled": 0}, {"rental_uris": {"android": "https://dc.lft.to/lastmile_qr_scan", "ios": "https://dc.lft.to/lastmile_qr_scan"}, "type": "electric_bike", "lon": -77.10097133333333, "name": "26c565a0a677a056b8d4a1cdd4d9a7a6", "bike_id": "26c565a0a677a056b8d4a1cdd4d9a7a6", "fusion_lat": 0.0, "is_reserved": 0, "lat": 38.8586515, "fusion_lon": 0.0, "is_disabled": 0}, {"rental_uris": {"android": "https://dc.lft.to/lastmile_qr_scan", "ios": "https://dc.lft.to/lastmile_qr_scan"}, "type": "electric_scooter", "lon": -77.032605, "name": "5e682e0cd2ea2f64cc8f0ea64da8aaa1", "bike_id": "5e682e0cd2ea2f64cc8f0ea64da8aaa1", "fusion_lat": 0.0, "is_reserved": 0, "lat": 38.932568, "fusion_lon": 0.0, "is_disabled": 0}, {"rental_uris": {"android": "https://dc.lft.to/lastmile_qr_scan", "ios": "https://dc.lft.to/lastmile_qr_scan"}, "type": "electric_scooter", "lon": -77.036749, "name": "ae2542ce75d59fe46308453e22758563", "bike_id": "ae2542ce75d59fe46308453e22758563", "fusion_lat": 0.0, "is_reserved": 0, "lat": 38.9364635, "fusion_lon": 0.0, "is_disabled": 0}, {"rental_uris": {"android": "https://dc.lft.to/lastmile_qr_scan", "ios": "https://dc.lft.to/lastmile_qr_scan"}, "type": "electric_scooter", "lon": -76.98407966666667, "name": "ede91ff48f41eba6be1cdd4755b66365", "bike_id": "ede91ff48f41eba6be1cdd4755b66365", "fusion_lat": 0.0, "is_reserved": 0, "lat": 38.8597215, "fusion_lon": 0.0, "is_disabled": 0}, {"rental_uris": {"android": "https://dc.lft.to/lastmile_qr_scan", "ios": "https://dc.lft.to/lastmile_qr_scan"}, "type": "electric_scooter", "lon": -77.04243416666667, "name": "89f541bd8739838aefc84c6dd429b972", "bike_id": "89f541bd8739838aefc84c6dd429b972", "fusion_lat": 0.0, "is_reserved": 0, "lat": 38.91783316666667, "fusion_lon": 0.0, "is_disabled": 0}, {"rental_uris": {"android": "https://dc.lft.to/lastmile_qr_scan", "ios": "https://dc.lft.to/lastmile_qr_scan"}, "type": "electric_bike", "lon": -77.095491, "name": "628f096b5a5155512573a937f6795214", "bike_id": "628f096b5a5155512573a937f6795214", "fusion_lat": 0.0, "is_reserved": 0, "lat": 38.838102166666665, "fusion_lon": 0.0, "is_disabled": 0}, {"rental_uris": {"android": "https://dc.lft.to/lastmile_qr_scan", "ios": "https://dc.lft.to/lastmile_qr_scan"}, "type": "electric_scooter", "lon": -77.02758816666666, "name": "96b7a843c67897beae3ca097087063a7", "bike_id": "96b7a843c67897beae3ca097087063a7", "fusion_lat": 0.0, "is_reserved": 0, "lat": 38.942905333333336, "fusion_lon": 0.0, "is_disabled": 0}, {"rental_uris": {"android": "https://dc.lft.to/lastmile_qr_scan", "ios": "https://dc.lft.to/lastmile_qr_scan"}, "type": "electric_bike", "lon": -77.07252033333333, "name": "3e9f7eaa5920ca7300b7bb74bfec233b", "bike_id": "3e9f7eaa5920ca7300b7bb74bfec233b", "fusion_lat": 0.0, "is_reserved": 0, "lat": 38.9591515, "fusion_lon": 0.0, "is_disabled": 0}, {"rental_uris": {"android": "https://dc.lft.to/lastmile_qr_scan", "ios": "https://dc.lft.to/lastmile_qr_scan"}, "type": "electric_scooter", "lon": -77.02969183333333, "name": "abdd97acaa0ba2dd5e1dacfe4c491ba6", "bike_id": "abdd97acaa0ba2dd5e1dacfe4c491ba6", "fusion_lat": 0.0, "is_reserved": 0, "lat": 38.90785916666667, "fusion_lon": 0.0, "is_disabled": 0}, {"rental_uris": {"android": "https://dc.lft.to/lastmile_qr_scan", "ios": "https://dc.lft.to/lastmile_qr_scan"}, "type": "electric_scooter", "lon": -77.00761783333333, "name": "9f919d1bb60a697d4640c7e77ba78cf3", "bike_id": "9f919d1bb60a697d4640c7e77ba78cf3", "fusion_lat": 0.0, "is_reserved": 0, "lat": 38.879122833333334, "fusion_lon": 0.0, "is_disabled": 0}, {"rental_uris": {"android": "https://dc.lft.to/lastmile_qr_scan", "ios": "https://dc.lft.to/lastmile_qr_scan"}, "type": "electric_scooter", "lon": -77.04024133333333, "name": "3fc0c495c6ff5459706783fc35a0d159", "bike_id": "3fc0c495c6ff5459706783fc35a0d159", "fusion_lat": 0.0, "is_reserved": 0, "lat": 38.924603833333336, "fusion_lon": 0.0, "is_disabled": 0}, {"rental_uris": {"android": "https://dc.lft.to/lastmile_qr_scan", "ios": "https://dc.lft.to/lastmile_qr_scan"}, "type": "electric_scooter", "lon": -77.03196816666667, "name": "7921f2000921f2ca18a02d1b4d750cb4", "bike_id": "7921f2000921f2ca18a02d1b4d750cb4", "fusion_lat": 0.0, "is_reserved": 0, "lat": 38.919058, "fusion_lon": 0.0, "is_disabled": 0}, {"rental_uris": {"android": "https://dc.lft.to/lastmile_qr_scan", "ios": "https://dc.lft.to/lastmile_qr_scan"}, "type": "electric_scooter", "lon": -77.013562, "name": "33a1e3ecc6026f52e379311f0055caf3", "bike_id": "33a1e3ecc6026f52e379311f0055caf3", "fusion_lat": 0.0, "is_reserved": 0, "lat": 38.9038295, "fusion_lon": 0.0, "is_disabled": 0}, {"rental_uris": {"android": "https://dc.lft.to/lastmile_qr_scan", "ios": "https://dc.lft.to/lastmile_qr_scan"}, "type": "electric_bike", "lon": -77.02414566666667, "name": "8801c09ecf8a6e43b9c7430410a7819a", "bike_id": "8801c09ecf8a6e43b9c7430410a7819a", "fusion_lat": 0.0, "is_reserved": 0, "lat": 38.9491725, "fusion_lon": 0.0, "is_disabled": 0}, {"rental_uris": {"android": "https://dc.lft.to/lastmile_qr_scan", "ios": "https://dc.lft.to/lastmile_qr_scan"}, "type": "electric_scooter", "lon": -77.04332866666667, "name": "1e5cc85b26726ac31feff3ddebc7191b", "bike_id": "1e5cc85b26726ac31feff3ddebc7191b", "fusion_lat": 0.0, "is_reserved": 0, "lat": 38.913793, "fusion_lon": 0.0, "is_disabled": 0}, {"rental_uris": {"android": "https://dc.lft.to/lastmile_qr_scan", "ios": "https://dc.lft.to/lastmile_qr_scan"}, "type": "electric_scooter", "lon": -77.03657266666667, "name": "e06802d6bdea2ebcfc549f504bddee10", "bike_id": "e06802d6bdea2ebcfc549f504bddee10", "fusion_lat": 0.0, "is_reserved": 0, "lat": 38.921378, "fusion_lon": 0.0, "is_disabled": 0}, {"rental_uris": {"android": "https://dc.lft.to/lastmile_qr_scan", "ios": "https://dc.lft.to/lastmile_qr_scan"}, "type": "electric_scooter", "lon": -77.03856783333333, "name": "67e904eee92b7120a9b80030d6c3cdee", "bike_id": "67e904eee92b7120a9b80030d6c3cdee", "fusion_lat": 0.0, "is_reserved": 0, "lat": 38.911964833333336, "fusion_lon": 0.0, "is_disabled": 0}, {"rental_uris": {"android": "https://dc.lft.to/lastmile_qr_scan", "ios": "https://dc.lft.to/lastmile_qr_scan"}, "type": "electric_scooter", "lon": -76.99012416666666, "name": "521c74a43e79ff0e9d54a55b0411892f", "bike_id": "521c74a43e79ff0e9d54a55b0411892f", "fusion_lat": 0.0, "is_reserved": 0, "lat": 38.91141733333333, "fusion_lon": 0.0, "is_disabled": 0}, {"rental_uris": {"android": "https://dc.lft.to/lastmile_qr_scan", "ios": "https://dc.lft.to/lastmile_qr_scan"}, "type": "electric_scooter", "lon": -77.05265983333334, "name": "d329dba4ac93906d12e10f4febb3d562", "bike_id": "d329dba4ac93906d12e10f4febb3d562", "fusion_lat": 0.0, "is_reserved": 0, "lat": 38.9276425, "fusion_lon": 0.0, "is_disabled": 0}, {"rental_uris": {"android": "https://dc.lft.to/lastmile_qr_scan", "ios": "https://dc.lft.to/lastmile_qr_scan"}, "type": "electric_scooter", "lon": -77.01038616666666, "name": "f3b5ecbc4cf19121b40ea3d982e324f5", "bike_id": "f3b5ecbc4cf19121b40ea3d982e324f5", "fusion_lat": 0.0, "is_reserved": 0, "lat": 38.884509666666666, "fusion_lon": 0.0, "is_disabled": 0}, {"rental_uris": {"android": "https://dc.lft.to/lastmile_qr_scan", "ios": "https://dc.lft.to/lastmile_qr_scan"}, "type": "electric_scooter", "lon": -77.025599, "name": "de4ee392e3abcdc05bdbc73d598db741", "bike_id": "de4ee392e3abcdc05bdbc73d598db741", "fusion_lat": 0.0, "is_reserved": 0, "lat": 38.92582, "fusion_lon": 0.0, "is_disabled": 0}, {"rental_uris": {"android": "https://dc.lft.to/lastmile_qr_scan", "ios": "https://dc.lft.to/lastmile_qr_scan"}, "type": "electric_scooter", "lon": -76.94297516666667, "name": "f0b778e816923b3aeca5a4af9793c319", "bike_id": "f0b778e816923b3aeca5a4af9793c319", "fusion_lat": 0.0, "is_reserved": 0, "lat": 38.89096383333333, "fusion_lon": 0.0, "is_disabled": 0}, {"rental_uris": {"android": "https://dc.lft.to/lastmile_qr_scan", "ios": "https://dc.lft.to/lastmile_qr_scan"}, "type": "electric_scooter", "lon": -76.979076, "name": "6013b6a404dd7635aa2d267e85d84446", "bike_id": "6013b6a404dd7635aa2d267e85d84446", "fusion_lat": 0.0, "is_reserved": 0, "lat": 38.90386433333333, "fusion_lon": 0.0, "is_disabled": 0}, {"rental_uris": {"android": "https://dc.lft.to/lastmile_qr_scan", "ios": "https://dc.lft.to/lastmile_qr_scan"}, "type": "electric_scooter", "lon": -76.98591316666666, "name": "f946fb61260ea30594ce821ab55bfdfb", "bike_id": "f946fb61260ea30594ce821ab55bfdfb", "fusion_lat": 0.0, "is_reserved": 0, "lat": 38.88978133333333, "fusion_lon": 0.0, "is_disabled": 0}, {"rental_uris": {"android": "https://dc.lft.to/lastmile_qr_scan", "ios": "https://dc.lft.to/lastmile_qr_scan"}, "type": "electric_bike", "lon": -76.911235, "name": "4e9619fe8bdcdfc9d8106b836178ad90", "bike_id": "4e9619fe8bdcdfc9d8106b836178ad90", "fusion_lat": 0.0, "is_reserved": 0, "lat": 39.010396, "fusion_lon": 0.0, "is_disabled": 0}, {"rental_uris": {"android": "https://dc.lft.to/lastmile_qr_scan", "ios": "https://dc.lft.to/lastmile_qr_scan"}, "type": "electric_scooter", "lon": -77.00224133333333, "name": "af8967a8eb3f8e5e0083d5aab2112705", "bike_id": "af8967a8eb3f8e5e0083d5aab2112705", "fusion_lat": 0.0, "is_reserved": 0, "lat": 38.957293666666665, "fusion_lon": 0.0, "is_disabled": 0}, {"rental_uris": {"android": "https://dc.lft.to/lastmile_qr_scan", "ios": "https://dc.lft.to/lastmile_qr_scan"}, "type": "electric_scooter", "lon": -76.99000766666667, "name": "c57a31bad351dc081b4003b7b93cb724", "bike_id": "c57a31bad351dc081b4003b7b93cb724", "fusion_lat": 0.0, "is_reserved": 0, "lat": 38.865046, "fusion_lon": 0.0, "is_disabled": 0}, {"rental_uris": {"android": "https://dc.lft.to/lastmile_qr_scan", "ios": "https://dc.lft.to/lastmile_qr_scan"}, "type": "electric_scooter", "lon": -77.01760033333333, "name": "5f2bd4e8817dba5be4168caf206ee724", "bike_id": "5f2bd4e8817dba5be4168caf206ee724", "fusion_lat": 0.0, "is_reserved": 0, "lat": 38.8729575, "fusion_lon": 0.0, "is_disabled": 0}, {"rental_uris": {"android": "https://dc.lft.to/lastmile_qr_scan", "ios": "https://dc.lft.to/lastmile_qr_scan"}, "type": "electric_scooter", "lon": -77.011285, "name": "c8c66d5b17be942dde31103059aff7ba", "bike_id": "c8c66d5b17be942dde31103059aff7ba", "fusion_lat": 0.0, "is_reserved": 0, "lat": 38.9073415, "fusion_lon": 0.0, "is_disabled": 0}, {"rental_uris": {"android": "https://dc.lft.to/lastmile_qr_scan", "ios": "https://dc.lft.to/lastmile_qr_scan"}, "type": "electric_scooter", "lon": -77.05138583333333, "name": "28f85e03e9273e6693b8d053c13813c6", "bike_id": "28f85e03e9273e6693b8d053c13813c6", "fusion_lat": 0.0, "is_reserved": 0, "lat": 38.908042, "fusion_lon": 0.0, "is_disabled": 0}, {"rental_uris": {"android": "https://dc.lft.to/lastmile_qr_scan", "ios": "https://dc.lft.to/lastmile_qr_scan"}, "type": "electric_bike", "lon": -76.9789825, "name": "621af61d8ddabf1ac44130b369614a34", "bike_id": "621af61d8ddabf1ac44130b369614a34", "fusion_lat": 0.0, "is_reserved": 0, "lat": 38.8883835, "fusion_lon": 0.0, "is_disabled": 0}, {"rental_uris": {"android": "https://dc.lft.to/lastmile_qr_scan", "ios": "https://dc.lft.to/lastmile_qr_scan"}, "type": "electric_scooter", "lon": -77.0530225, "name": "b3083135efdc9112c04978f2e4c7f09f", "bike_id": "b3083135efdc9112c04978f2e4c7f09f", "fusion_lat": 0.0, "is_reserved": 0, "lat": 38.92781633333333, "fusion_lon": 0.0, "is_disabled": 0}, {"rental_uris": {"android": "https://dc.lft.to/lastmile_qr_scan", "ios": "https://dc.lft.to/lastmile_qr_scan"}, "type": "electric_scooter", "lon": -77.03895416666667, "name": "8d47e72a2e8cfbe7a1091ca7a9f4c4ae", "bike_id": "8d47e72a2e8cfbe7a1091ca7a9f4c4ae", "fusion_lat": 0.0, "is_reserved": 0, "lat": 38.922441, "fusion_lon": 0.0, "is_disabled": 0}, {"rental_uris": {"android": "https://dc.lft.to/lastmile_qr_scan", "ios": "https://dc.lft.to/lastmile_qr_scan"}, "type": "electric_scooter", "lon": -77.028509, "name": "9f455623eb6d970360ccf192614e57fc", "bike_id": "9f455623eb6d970360ccf192614e57fc", "fusion_lat": 0.0, "is_reserved": 0, "lat": 38.92241766666667, "fusion_lon": 0.0, "is_disabled": 0}, {"rental_uris": {"android": "https://dc.lft.to/lastmile_qr_scan", "ios": "https://dc.lft.to/lastmile_qr_scan"}, "type": "electric_scooter", "lon": -77.032598, "name": "8f8d2894d4bf73720be50307498ac144", "bike_id": "8f8d2894d4bf73720be50307498ac144", "fusion_lat": 0.0, "is_reserved": 0, "lat": 38.93665216666667, "fusion_lon": 0.0, "is_disabled": 0}, {"rental_uris": {"android": "https://dc.lft.to/lastmile_qr_scan", "ios": "https://dc.lft.to/lastmile_qr_scan"}, "type": "electric_scooter", "lon": -76.94804783333333, "name": "ff69f1b11432e08ac33dbacd4d7cb1e2", "bike_id": "ff69f1b11432e08ac33dbacd4d7cb1e2", "fusion_lat": 0.0, "is_reserved": 0, "lat": 38.89343216666666, "fusion_lon": 0.0, "is_disabled": 0}, {"rental_uris": {"android": "https://dc.lft.to/lastmile_qr_scan", "ios": "https://dc.lft.to/lastmile_qr_scan"}, "type": "electric_scooter", "lon": -77.00199066666667, "name": "e286db8f2464f2958dbd811562190fd8", "bike_id": "e286db8f2464f2958dbd811562190fd8", "fusion_lat": 0.0, "is_reserved": 0, "lat": 38.9084605, "fusion_lon": 0.0, "is_disabled": 0}, {"rental_uris": {"android": "https://dc.lft.to/lastmile_qr_scan", "ios": "https://dc.lft.to/lastmile_qr_scan"}, "type": "electric_scooter", "lon": -76.93430066666667, "name": "e027fca0897fcb96b266a01051856532", "bike_id": "e027fca0897fcb96b266a01051856532", "fusion_lat": 0.0, "is_reserved": 0, "lat": 38.89966016666666, "fusion_lon": 0.0, "is_disabled": 0}, {"rental_uris": {"android": "https://dc.lft.to/lastmile_qr_scan", "ios": "https://dc.lft.to/lastmile_qr_scan"}, "type": "electric_scooter", "lon": -77.03784, "name": "7c0a2a898a573aab74152b8c23a54e61", "bike_id": "7c0a2a898a573aab74152b8c23a54e61", "fusion_lat": 0.0, "is_reserved": 0, "lat": 38.92626283333333, "fusion_lon": 0.0, "is_disabled": 0}, {"rental_uris": {"android": "https://dc.lft.to/lastmile_qr_scan", "ios": "https://dc.lft.to/lastmile_qr_scan"}, "type": "electric_bike", "lon": -76.94864366666667, "name": "c9f26ed48f57daf03ac29dfb03f4fbdd", "bike_id": "c9f26ed48f57daf03ac29dfb03f4fbdd", "fusion_lat": 0.0, "is_reserved": 0, "lat": 38.88979633333334, "fusion_lon": 0.0, "is_disabled": 0}, {"rental_uris": {"android": "https://dc.lft.to/lastmile_qr_scan", "ios": "https://dc.lft.to/lastmile_qr_scan"}, "type": "electric_scooter", "lon": -76.9423365, "name": "224aec840d462f7fc58422706594b902", "bike_id": "224aec840d462f7fc58422706594b902", "fusion_lat": 0.0, "is_reserved": 0, "lat": 38.89677483333333, "fusion_lon": 0.0, "is_disabled": 0}, {"rental_uris": {"android": "https://dc.lft.to/lastmile_qr_scan", "ios": "https://dc.lft.to/lastmile_qr_scan"}, "type": "electric_bike", "lon": -76.96389983333333, "name": "d68304dbf910447a22313c22b3bc5538", "bike_id": "d68304dbf910447a22313c22b3bc5538", "fusion_lat": 0.0, "is_reserved": 0, "lat": 38.975810333333335, "fusion_lon": 0.0, "is_disabled": 0}, {"rental_uris": {"android": "https://dc.lft.to/lastmile_qr_scan", "ios": "https://dc.lft.to/lastmile_qr_scan"}, "type": "electric_scooter", "lon": -77.03289266666667, "name": "534ade1e2ddd505321a4e9eb5ff8004c", "bike_id": "534ade1e2ddd505321a4e9eb5ff8004c", "fusion_lat": 0.0, "is_reserved": 0, "lat": 38.898818166666665, "fusion_lon": 0.0, "is_disabled": 0}, {"rental_uris": {"android": "https://dc.lft.to/lastmile_qr_scan", "ios": "https://dc.lft.to/lastmile_qr_scan"}, "type": "electric_scooter", "lon": -77.023775, "name": "8185e9630a4a55a2610aba098dab5fbb", "bike_id": "8185e9630a4a55a2610aba098dab5fbb", "fusion_lat": 0.0, "is_reserved": 0, "lat": 38.904347, "fusion_lon": 0.0, "is_disabled": 0}, {"rental_uris": {"android": "https://dc.lft.to/lastmile_qr_scan", "ios": "https://dc.lft.to/lastmile_qr_scan"}, "type": "electric_bike", "lon": -77.10737266666666, "name": "e85a9cd6da9dbae267ec30420416475e", "bike_id": "e85a9cd6da9dbae267ec30420416475e", "fusion_lat": 0.0, "is_reserved": 0, "lat": 38.855415, "fusion_lon": 0.0, "is_disabled": 0}, {"rental_uris": {"android": "https://dc.lft.to/lastmile_qr_scan", "ios": "https://dc.lft.to/lastmile_qr_scan"}, "type": "electric_bike", "lon": -76.98525966666666, "name": "990d5fbaa5681147c38f553172f0c2aa", "bike_id": "990d5fbaa5681147c38f553172f0c2aa", "fusion_lat": 0.0, "is_reserved": 0, "lat": 38.920009666666665, "fusion_lon": 0.0, "is_disabled": 0}, {"rental_uris": {"android": "https://dc.lft.to/lastmile_qr_scan", "ios": "https://dc.lft.to/lastmile_qr_scan"}, "type": "electric_bike", "lon": -76.8777305, "name": "caaa32a68c806db6ae47d31f37b87876", "bike_id": "caaa32a68c806db6ae47d31f37b87876", "fusion_lat": 0.0, "is_reserved": 0, "lat": 38.992232, "fusion_lon": 0.0, "is_disabled": 0}, {"rental_uris": {"android": "https://dc.lft.to/lastmile_qr_scan", "ios": "https://dc.lft.to/lastmile_qr_scan"}, "type": "electric_scooter", "lon": -76.987777, "name": "711510baa9815222cc7b15dbe065e201", "bike_id": "711510baa9815222cc7b15dbe065e201", "fusion_lat": 0.0, "is_reserved": 0, "lat": 38.900312166666666, "fusion_lon": 0.0, "is_disabled": 0}, {"rental_uris": {"android": "https://dc.lft.to/lastmile_qr_scan", "ios": "https://dc.lft.to/lastmile_qr_scan"}, "type": "electric_scooter", "lon": -76.9877655, "name": "59e58c5341ff38eb90113b73e5ebd01b", "bike_id": "59e58c5341ff38eb90113b73e5ebd01b", "fusion_lat": 0.0, "is_reserved": 0, "lat": 38.900318166666665, "fusion_lon": 0.0, "is_disabled": 0}, {"rental_uris": {"android": "https://dc.lft.to/lastmile_qr_scan", "ios": "https://dc.lft.to/lastmile_qr_scan"}, "type": "electric_scooter", "lon": -77.029499, "name": "ce2c3d7caf06f681e0a5cd3101f81038", "bike_id": "ce2c3d7caf06f681e0a5cd3101f81038", "fusion_lat": 0.0, "is_reserved": 0, "lat": 38.93249133333333, "fusion_lon": 0.0, "is_disabled": 0}, {"rental_uris": {"android": "https://dc.lft.to/lastmile_qr_scan", "ios": "https://dc.lft.to/lastmile_qr_scan"}, "type": "electric_scooter", "lon": -76.9294975, "name": "48b079cf63055330da23f079f32d0958", "bike_id": "48b079cf63055330da23f079f32d0958", "fusion_lat": 0.0, "is_reserved": 0, "lat": 38.8988185, "fusion_lon": 0.0, "is_disabled": 0}, {"rental_uris": {"android": "https://dc.lft.to/lastmile_qr_scan", "ios": "https://dc.lft.to/lastmile_qr_scan"}, "type": "electric_scooter", "lon": -76.99149933333334, "name": "adba48df84cb795b07946cf4a5e56cdc", "bike_id": "adba48df84cb795b07946cf4a5e56cdc", "fusion_lat": 0.0, "is_reserved": 0, "lat": 38.87911283333333, "fusion_lon": 0.0, "is_disabled": 0}, {"rental_uris": {"android": "https://dc.lft.to/lastmile_qr_scan", "ios": "https://dc.lft.to/lastmile_qr_scan"}, "type": "electric_scooter", "lon": -77.0007785, "name": "52385cd35156672377daeacd79ced5e9", "bike_id": "52385cd35156672377daeacd79ced5e9", "fusion_lat": 0.0, "is_reserved": 0, "lat": 38.89733283333333, "fusion_lon": 0.0, "is_disabled": 0}, {"rental_uris": {"android": "https://dc.lft.to/lastmile_qr_scan", "ios": "https://dc.lft.to/lastmile_qr_scan"}, "type": "electric_scooter", "lon": -77.03860733333333, "name": "7769ccb9eb70e03831a721ebcfec5ae3", "bike_id": "7769ccb9eb70e03831a721ebcfec5ae3", "fusion_lat": 0.0, "is_reserved": 0, "lat": 38.9154955, "fusion_lon": 0.0, "is_disabled": 0}, {"rental_uris": {"android": "https://dc.lft.to/lastmile_qr_scan", "ios": "https://dc.lft.to/lastmile_qr_scan"}, "type": "electric_scooter", "lon": -77.04989483333334, "name": "de9f469349fdf02d616420ff0a23d822", "bike_id": "de9f469349fdf02d616420ff0a23d822", "fusion_lat": 0.0, "is_reserved": 0, "lat": 38.900881166666665, "fusion_lon": 0.0, "is_disabled": 0}, {"rental_uris": {"android": "https://dc.lft.to/lastmile_qr_scan", "ios": "https://dc.lft.to/lastmile_qr_scan"}, "type": "electric_scooter", "lon": -77.0341695, "name": "db4fb977014c18d2c4607a65e3172c46", "bike_id": "db4fb977014c18d2c4607a65e3172c46", "fusion_lat": 0.0, "is_reserved": 0, "lat": 38.92946666666667, "fusion_lon": 0.0, "is_disabled": 0}, {"rental_uris": {"android": "https://dc.lft.to/lastmile_qr_scan", "ios": "https://dc.lft.to/lastmile_qr_scan"}, "type": "electric_scooter", "lon": -77.01211, "name": "40bb29cf7d0a7074ac9a27e1d3c90364", "bike_id": "40bb29cf7d0a7074ac9a27e1d3c90364", "fusion_lat": 0.0, "is_reserved": 0, "lat": 38.89332783333333, "fusion_lon": 0.0, "is_disabled": 0}, {"rental_uris": {"android": "https://dc.lft.to/lastmile_qr_scan", "ios": "https://dc.lft.to/lastmile_qr_scan"}, "type": "electric_scooter", "lon": -77.03644616666666, "name": "0a62bbf900f86ac5965eb138e611a054", "bike_id": "0a62bbf900f86ac5965eb138e611a054", "fusion_lat": 0.0, "is_reserved": 0, "lat": 38.921112666666666, "fusion_lon": 0.0, "is_disabled": 0}, {"rental_uris": {"android": "https://dc.lft.to/lastmile_qr_scan", "ios": "https://dc.lft.to/lastmile_qr_scan"}, "type": "electric_scooter", "lon": -77.04674433333334, "name": "758827971085d03e24c0380cbec70220", "bike_id": "758827971085d03e24c0380cbec70220", "fusion_lat": 0.0, "is_reserved": 0, "lat": 38.9157775, "fusion_lon": 0.0, "is_disabled": 0}, {"rental_uris": {"android": "https://dc.lft.to/lastmile_qr_scan", "ios": "https://dc.lft.to/lastmile_qr_scan"}, "type": "electric_bike", "lon": -76.99738483333333, "name": "7ea6081be7722c7ee5d6d1a434f2d34f", "bike_id": "7ea6081be7722c7ee5d6d1a434f2d34f", "fusion_lat": 0.0, "is_reserved": 0, "lat": 38.8908875, "fusion_lon": 0.0, "is_disabled": 0}, {"rental_uris": {"android": "https://dc.lft.to/lastmile_qr_scan", "ios": "https://dc.lft.to/lastmile_qr_scan"}, "type": "electric_scooter", "lon": -77.03437416666667, "name": "f8d0c269358ecc36d2de616f1aecb51d", "bike_id": "f8d0c269358ecc36d2de616f1aecb51d", "fusion_lat": 0.0, "is_reserved": 0, "lat": 38.918035833333334, "fusion_lon": 0.0, "is_disabled": 0}, {"rental_uris": {"android": "https://dc.lft.to/lastmile_qr_scan", "ios": "https://dc.lft.to/lastmile_qr_scan"}, "type": "electric_scooter", "lon": -77.02603383333333, "name": "68e9bccb0fcc6d1706b0c2ca63a4f256", "bike_id": "68e9bccb0fcc6d1706b0c2ca63a4f256", "fusion_lat": 0.0, "is_reserved": 0, "lat": 38.89723633333333, "fusion_lon": 0.0, "is_disabled": 0}, {"rental_uris": {"android": "https://dc.lft.to/lastmile_qr_scan", "ios": "https://dc.lft.to/lastmile_qr_scan"}, "type": "electric_scooter", "lon": -77.0346705, "name": "b74ee3b4fdf479c723b6c57edeb182e1", "bike_id": "b74ee3b4fdf479c723b6c57edeb182e1", "fusion_lat": 0.0, "is_reserved": 0, "lat": 38.90264, "fusion_lon": 0.0, "is_disabled": 0}, {"rental_uris": {"android": "https://dc.lft.to/lastmile_qr_scan", "ios": "https://dc.lft.to/lastmile_qr_scan"}, "type": "electric_bike", "lon": -77.095552, "name": "5dccc5fbc27b0f52df70be9a0affaa57", "bike_id": "5dccc5fbc27b0f52df70be9a0affaa57", "fusion_lat": 0.0, "is_reserved": 0, "lat": 38.98562733333333, "fusion_lon": 0.0, "is_disabled": 0}, {"rental_uris": {"android": "https://dc.lft.to/lastmile_qr_scan", "ios": "https://dc.lft.to/lastmile_qr_scan"}, "type": "electric_scooter", "lon": -77.00884166666667, "name": "a16f55c2afad8fd0f4d18259db5a355d", "bike_id": "a16f55c2afad8fd0f4d18259db5a355d", "fusion_lat": 0.0, "is_reserved": 0, "lat": 38.876349166666664, "fusion_lon": 0.0, "is_disabled": 0}, {"rental_uris": {"android": "https://dc.lft.to/lastmile_qr_scan", "ios": "https://dc.lft.to/lastmile_qr_scan"}, "type": "electric_scooter", "lon": -77.01204083333333, "name": "c285d2f0a3fcaa19e0dde4854e177412", "bike_id": "c285d2f0a3fcaa19e0dde4854e177412", "fusion_lat": 0.0, "is_reserved": 0, "lat": 38.871518, "fusion_lon": 0.0, "is_disabled": 0}, {"rental_uris": {"android": "https://dc.lft.to/lastmile_qr_scan", "ios": "https://dc.lft.to/lastmile_qr_scan"}, "type": "electric_scooter", "lon": -77.039115, "name": "c9eb03e031730bf396de9f17706a70ee", "bike_id": "c9eb03e031730bf396de9f17706a70ee", "fusion_lat": 0.0, "is_reserved": 0, "lat": 38.924760666666664, "fusion_lon": 0.0, "is_disabled": 0}, {"rental_uris": {"android": "https://dc.lft.to/lastmile_qr_scan", "ios": "https://dc.lft.to/lastmile_qr_scan"}, "type": "electric_bike", "lon": -76.99764383333333, "name": "c586cf676ee2476796796b3c997a4363", "bike_id": "c586cf676ee2476796796b3c997a4363", "fusion_lat": 0.0, "is_reserved": 0, "lat": 39.0059465, "fusion_lon": 0.0, "is_disabled": 0}, {"rental_uris": {"android": "https://dc.lft.to/lastmile_qr_scan", "ios": "https://dc.lft.to/lastmile_qr_scan"}, "type": "electric_bike", "lon": -77.131776, "name": "26871978c1b6a99c5f7d6d84c75dcb48", "bike_id": "26871978c1b6a99c5f7d6d84c75dcb48", "fusion_lat": 0.0, "is_reserved": 0, "lat": 38.86907633333333, "fusion_lon": 0.0, "is_disabled": 0}, {"rental_uris": {"android": "https://dc.lft.to/lastmile_qr_scan", "ios": "https://dc.lft.to/lastmile_qr_scan"}, "type": "electric_scooter", "lon": -76.999028, "name": "33b445b771b884a003b5e459be467faa", "bike_id": "33b445b771b884a003b5e459be467faa", "fusion_lat": 0.0, "is_reserved": 0, "lat": 38.900127499999996, "fusion_lon": 0.0, "is_disabled": 0}, {"rental_uris": {"android": "https://dc.lft.to/lastmile_qr_scan", "ios": "https://dc.lft.to/lastmile_qr_scan"}, "type": "electric_scooter", "lon": -77.03066033333333, "name": "b3218e792b8356a02f6f87d0cc04ac4d", "bike_id": "b3218e792b8356a02f6f87d0cc04ac4d", "fusion_lat": 0.0, "is_reserved": 0, "lat": 38.8804675, "fusion_lon": 0.0, "is_disabled": 0}, {"rental_uris": {"android": "https://dc.lft.to/lastmile_qr_scan", "ios": "https://dc.lft.to/lastmile_qr_scan"}, "type": "electric_scooter", "lon": -77.0319095, "name": "6cbfb772f1244ac2a9f3a6084dbf2f16", "bike_id": "6cbfb772f1244ac2a9f3a6084dbf2f16", "fusion_lat": 0.0, "is_reserved": 0, "lat": 38.929794333333334, "fusion_lon": 0.0, "is_disabled": 0}, {"rental_uris": {"android": "https://dc.lft.to/lastmile_qr_scan", "ios": "https://dc.lft.to/lastmile_qr_scan"}, "type": "electric_scooter", "lon": -77.034396, "name": "5eaa253229cf9197477b0281c6c881eb", "bike_id": "5eaa253229cf9197477b0281c6c881eb", "fusion_lat": 0.0, "is_reserved": 0, "lat": 38.91832266666667, "fusion_lon": 0.0, "is_disabled": 0}, {"rental_uris": {"android": "https://dc.lft.to/lastmile_qr_scan", "ios": "https://dc.lft.to/lastmile_qr_scan"}, "type": "electric_scooter", "lon": -77.03395066666667, "name": "ca46b46b4a1644b345e6e89fa46a2644", "bike_id": "ca46b46b4a1644b345e6e89fa46a2644", "fusion_lat": 0.0, "is_reserved": 0, "lat": 38.919191833333336, "fusion_lon": 0.0, "is_disabled": 0}, {"rental_uris": {"android": "https://dc.lft.to/lastmile_qr_scan", "ios": "https://dc.lft.to/lastmile_qr_scan"}, "type": "electric_scooter", "lon": -77.01118566666666, "name": "ed73f92e05bcbed87fed46733246cb2a", "bike_id": "ed73f92e05bcbed87fed46733246cb2a", "fusion_lat": 0.0, "is_reserved": 0, "lat": 38.9203095, "fusion_lon": 0.0, "is_disabled": 0}, {"rental_uris": {"android": "https://dc.lft.to/lastmile_qr_scan", "ios": "https://dc.lft.to/lastmile_qr_scan"}, "type": "electric_scooter", "lon": -77.02105733333333, "name": "870c4f1ca2df4ed23719070528b42732", "bike_id": "870c4f1ca2df4ed23719070528b42732", "fusion_lat": 0.0, "is_reserved": 0, "lat": 38.94102133333333, "fusion_lon": 0.0, "is_disabled": 0}, {"rental_uris": {"android": "https://dc.lft.to/lastmile_qr_scan", "ios": "https://dc.lft.to/lastmile_qr_scan"}, "type": "electric_scooter", "lon": -77.0208725, "name": "9e427122ee634b6fcdf1304a6cc3b117", "bike_id": "9e427122ee634b6fcdf1304a6cc3b117", "fusion_lat": 0.0, "is_reserved": 0, "lat": 38.9291715, "fusion_lon": 0.0, "is_disabled": 0}, {"rental_uris": {"android": "https://dc.lft.to/lastmile_qr_scan", "ios": "https://dc.lft.to/lastmile_qr_scan"}, "type": "electric_scooter", "lon": -77.02694166666667, "name": "f0eac3beb14f717ef5f145291708f49c", "bike_id": "f0eac3beb14f717ef5f145291708f49c", "fusion_lat": 0.0, "is_reserved": 0, "lat": 38.90846033333333, "fusion_lon": 0.0, "is_disabled": 0}, {"rental_uris": {"android": "https://dc.lft.to/lastmile_qr_scan", "ios": "https://dc.lft.to/lastmile_qr_scan"}, "type": "electric_scooter", "lon": -77.0404195, "name": "b3f796793511436f526814ad0f51be82", "bike_id": "b3f796793511436f526814ad0f51be82", "fusion_lat": 0.0, "is_reserved": 0, "lat": 38.90562366666666, "fusion_lon": 0.0, "is_disabled": 0}, {"rental_uris": {"android": "https://dc.lft.to/lastmile_qr_scan", "ios": "https://dc.lft.to/lastmile_qr_scan"}, "type": "electric_scooter", "lon": -77.06520816666666, "name": "261aea8c52e10642ce1b99de7143cc93", "bike_id": "261aea8c52e10642ce1b99de7143cc93", "fusion_lat": 0.0, "is_reserved": 0, "lat": 38.90524083333333, "fusion_lon": 0.0, "is_disabled": 0}, {"rental_uris": {"android": "https://dc.lft.to/lastmile_qr_scan", "ios": "https://dc.lft.to/lastmile_qr_scan"}, "type": "electric_scooter", "lon": -76.99949516666666, "name": "797d1598852d01775612743572f12023", "bike_id": "797d1598852d01775612743572f12023", "fusion_lat": 0.0, "is_reserved": 0, "lat": 38.842929, "fusion_lon": 0.0, "is_disabled": 0}, {"rental_uris": {"android": "https://dc.lft.to/lastmile_qr_scan", "ios": "https://dc.lft.to/lastmile_qr_scan"}, "type": "electric_scooter", "lon": -77.018428, "name": "a521706d590d2abdfeeaa506d7d688a1", "bike_id": "a521706d590d2abdfeeaa506d7d688a1", "fusion_lat": 0.0, "is_reserved": 0, "lat": 38.8771145, "fusion_lon": 0.0, "is_disabled": 0}, {"rental_uris": {"android": "https://dc.lft.to/lastmile_qr_scan", "ios": "https://dc.lft.to/lastmile_qr_scan"}, "type": "electric_scooter", "lon": -77.00639583333333, "name": "5f10ae5d640b08b46e47cb5a1acddb07", "bike_id": "5f10ae5d640b08b46e47cb5a1acddb07", "fusion_lat": 0.0, "is_reserved": 0, "lat": 38.88339966666667, "fusion_lon": 0.0, "is_disabled": 0}, {"rental_uris": {"android": "https://dc.lft.to/lastmile_qr_scan", "ios": "https://dc.lft.to/lastmile_qr_scan"}, "type": "electric_scooter", "lon": -77.012067, "name": "1f8112b70a1b56a47a4c8a99452ebc8d", "bike_id": "1f8112b70a1b56a47a4c8a99452ebc8d", "fusion_lat": 0.0, "is_reserved": 0, "lat": 38.87095583333333, "fusion_lon": 0.0, "is_disabled": 0}, {"rental_uris": {"android": "https://dc.lft.to/lastmile_qr_scan", "ios": "https://dc.lft.to/lastmile_qr_scan"}, "type": "electric_scooter", "lon": -77.02678166666666, "name": "92daf052975677ad8dc628aa77cc6a6a", "bike_id": "92daf052975677ad8dc628aa77cc6a6a", "fusion_lat": 0.0, "is_reserved": 0, "lat": 38.89988133333333, "fusion_lon": 0.0, "is_disabled": 0}, {"rental_uris": {"android": "https://dc.lft.to/lastmile_qr_scan", "ios": "https://dc.lft.to/lastmile_qr_scan"}, "type": "electric_scooter", "lon": -77.0229825, "name": "ce2f88516bfd2e729e1fc7a752550ce8", "bike_id": "ce2f88516bfd2e729e1fc7a752550ce8", "fusion_lat": 0.0, "is_reserved": 0, "lat": 38.91749133333333, "fusion_lon": 0.0, "is_disabled": 0}, {"rental_uris": {"android": "https://dc.lft.to/lastmile_qr_scan", "ios": "https://dc.lft.to/lastmile_qr_scan"}, "type": "electric_scooter", "lon": -77.02544266666666, "name": "c5a0f1b6ad0a3c4175a2c53d2c677b26", "bike_id": "c5a0f1b6ad0a3c4175a2c53d2c677b26", "fusion_lat": 0.0, "is_reserved": 0, "lat": 38.9072385, "fusion_lon": 0.0, "is_disabled": 0}, {"rental_uris": {"android": "https://dc.lft.to/lastmile_qr_scan", "ios": "https://dc.lft.to/lastmile_qr_scan"}, "type": "electric_bike", "lon": -77.02490933333333, "name": "32163605daad9e7f9bbda4f5460502c6", "bike_id": "32163605daad9e7f9bbda4f5460502c6", "fusion_lat": 0.0, "is_reserved": 0, "lat": 38.97408583333333, "fusion_lon": 0.0, "is_disabled": 0}, {"rental_uris": {"android": "https://dc.lft.to/lastmile_qr_scan", "ios": "https://dc.lft.to/lastmile_qr_scan"}, "type": "electric_scooter", "lon": -77.00574266666666, "name": "4a84b98f0be1687b447a2f2f091a63e6", "bike_id": "4a84b98f0be1687b447a2f2f091a63e6", "fusion_lat": 0.0, "is_reserved": 0, "lat": 38.905750166666664, "fusion_lon": 0.0, "is_disabled": 0}, {"rental_uris": {"android": "https://dc.lft.to/lastmile_qr_scan", "ios": "https://dc.lft.to/lastmile_qr_scan"}, "type": "electric_scooter", "lon": -76.9472665, "name": "01fbbe1aef97336e202f3cfb16643437", "bike_id": "01fbbe1aef97336e202f3cfb16643437", "fusion_lat": 0.0, "is_reserved": 0, "lat": 38.89680333333333, "fusion_lon": 0.0, "is_disabled": 0}, {"rental_uris": {"android": "https://dc.lft.to/lastmile_qr_scan", "ios": "https://dc.lft.to/lastmile_qr_scan"}, "type": "electric_scooter", "lon": -77.02508566666667, "name": "87d97d1baad7aee01968c8aaaa262b48", "bike_id": "87d97d1baad7aee01968c8aaaa262b48", "fusion_lat": 0.0, "is_reserved": 0, "lat": 38.941809166666665, "fusion_lon": 0.0, "is_disabled": 0}, {"rental_uris": {"android": "https://dc.lft.to/lastmile_qr_scan", "ios": "https://dc.lft.to/lastmile_qr_scan"}, "type": "electric_scooter", "lon": -76.98033083333334, "name": "9889a1fd32f3b0364673aba62333ff97", "bike_id": "9889a1fd32f3b0364673aba62333ff97", "fusion_lat": 0.0, "is_reserved": 0, "lat": 38.916798, "fusion_lon": 0.0, "is_disabled": 0}, {"rental_uris": {"android": "https://dc.lft.to/lastmile_qr_scan", "ios": "https://dc.lft.to/lastmile_qr_scan"}, "type": "electric_scooter", "lon": -77.05437666666667, "name": "77d8b26a1b5b4787b262cafb68e757cf", "bike_id": "77d8b26a1b5b4787b262cafb68e757cf", "fusion_lat": 0.0, "is_reserved": 0, "lat": 38.896027333333336, "fusion_lon": 0.0, "is_disabled": 0}, {"rental_uris": {"android": "https://dc.lft.to/lastmile_qr_scan", "ios": "https://dc.lft.to/lastmile_qr_scan"}, "type": "electric_scooter", "lon": -77.03362916666667, "name": "1b37e5b27bcce55b66bdeedf1c9c1459", "bike_id": "1b37e5b27bcce55b66bdeedf1c9c1459", "fusion_lat": 0.0, "is_reserved": 0, "lat": 38.91194983333333, "fusion_lon": 0.0, "is_disabled": 0}, {"rental_uris": {"android": "https://dc.lft.to/lastmile_qr_scan", "ios": "https://dc.lft.to/lastmile_qr_scan"}, "type": "electric_scooter", "lon": -77.03020866666667, "name": "def7c61c7e3713f61e8c4db4b0dcbdc0", "bike_id": "def7c61c7e3713f61e8c4db4b0dcbdc0", "fusion_lat": 0.0, "is_reserved": 0, "lat": 38.926836333333334, "fusion_lon": 0.0, "is_disabled": 0}, {"rental_uris": {"android": "https://dc.lft.to/lastmile_qr_scan", "ios": "https://dc.lft.to/lastmile_qr_scan"}, "type": "electric_scooter", "lon": -76.999483, "name": "108defc17996034f28fb742c8d88e2a9", "bike_id": "108defc17996034f28fb742c8d88e2a9", "fusion_lat": 0.0, "is_reserved": 0, "lat": 38.842971166666665, "fusion_lon": 0.0, "is_disabled": 0}, {"rental_uris": {"android": "https://dc.lft.to/lastmile_qr_scan", "ios": "https://dc.lft.to/lastmile_qr_scan"}, "type": "electric_scooter", "lon": -77.03434483333334, "name": "8cda72b89ff7b1f95afa5588b346a0df", "bike_id": "8cda72b89ff7b1f95afa5588b346a0df", "fusion_lat": 0.0, "is_reserved": 0, "lat": 38.9058405, "fusion_lon": 0.0, "is_disabled": 0}, {"rental_uris": {"android": "https://dc.lft.to/lastmile_qr_scan", "ios": "https://dc.lft.to/lastmile_qr_scan"}, "type": "electric_bike", "lon": -77.08571016666667, "name": "c01abc290c6f3a0273b268ab3990c133", "bike_id": "c01abc290c6f3a0273b268ab3990c133", "fusion_lat": 0.0, "is_reserved": 0, "lat": 38.87426983333334, "fusion_lon": 0.0, "is_disabled": 0}, {"rental_uris": {"android": "https://dc.lft.to/lastmile_qr_scan", "ios": "https://dc.lft.to/lastmile_qr_scan"}, "type": "electric_scooter", "lon": -77.027029, "name": "aeb0be514c6a208433ad7579293758a7", "bike_id": "aeb0be514c6a208433ad7579293758a7", "fusion_lat": 0.0, "is_reserved": 0, "lat": 38.90455983333333, "fusion_lon": 0.0, "is_disabled": 0}, {"rental_uris": {"android": "https://dc.lft.to/lastmile_qr_scan", "ios": "https://dc.lft.to/lastmile_qr_scan"}, "type": "electric_scooter", "lon": -76.97818133333334, "name": "b8d3725c50c1e27f52748fbd9b837b5d", "bike_id": "b8d3725c50c1e27f52748fbd9b837b5d", "fusion_lat": 0.0, "is_reserved": 0, "lat": 38.896063166666664, "fusion_lon": 0.0, "is_disabled": 0}, {"rental_uris": {"android": "https://dc.lft.to/lastmile_qr_scan", "ios": "https://dc.lft.to/lastmile_qr_scan"}, "type": "electric_scooter", "lon": -77.02299616666667, "name": "88d3a864894748d20b9ab8ec9935981a", "bike_id": "88d3a864894748d20b9ab8ec9935981a", "fusion_lat": 0.0, "is_reserved": 0, "lat": 38.91789883333333, "fusion_lon": 0.0, "is_disabled": 0}, {"rental_uris": {"android": "https://dc.lft.to/lastmile_qr_scan", "ios": "https://dc.lft.to/lastmile_qr_scan"}, "type": "electric_bike", "lon": -77.1273475, "name": "d430b3a840531010cc9b4ef59749a2a0", "bike_id": "d430b3a840531010cc9b4ef59749a2a0", "fusion_lat": 0.0, "is_reserved": 0, "lat": 38.8956945, "fusion_lon": 0.0, "is_disabled": 0}, {"rental_uris": {"android": "https://dc.lft.to/lastmile_qr_scan", "ios": "https://dc.lft.to/lastmile_qr_scan"}, "type": "electric_scooter", "lon": -77.03291066666667, "name": "d18172b54de915b642d6d456a9fedc94", "bike_id": "d18172b54de915b642d6d456a9fedc94", "fusion_lat": 0.0, "is_reserved": 0, "lat": 38.956529833333335, "fusion_lon": 0.0, "is_disabled": 0}, {"rental_uris": {"android": "https://dc.lft.to/lastmile_qr_scan", "ios": "https://dc.lft.to/lastmile_qr_scan"}, "type": "electric_scooter", "lon": -77.04001816666667, "name": "b21af77b34a416596698998594039d01", "bike_id": "b21af77b34a416596698998594039d01", "fusion_lat": 0.0, "is_reserved": 0, "lat": 38.91807683333333, "fusion_lon": 0.0, "is_disabled": 0}, {"rental_uris": {"android": "https://dc.lft.to/lastmile_qr_scan", "ios": "https://dc.lft.to/lastmile_qr_scan"}, "type": "electric_scooter", "lon": -77.01017566666667, "name": "2c6016a2b11cc14b89378b98362ca9c5", "bike_id": "2c6016a2b11cc14b89378b98362ca9c5", "fusion_lat": 0.0, "is_reserved": 0, "lat": 38.86719866666667, "fusion_lon": 0.0, "is_disabled": 0}, {"rental_uris": {"android": "https://dc.lft.to/lastmile_qr_scan", "ios": "https://dc.lft.to/lastmile_qr_scan"}, "type": "electric_scooter", "lon": -77.03974666666667, "name": "49c1afdce7a4f576f155b6744023f5b0", "bike_id": "49c1afdce7a4f576f155b6744023f5b0", "fusion_lat": 0.0, "is_reserved": 0, "lat": 38.9163065, "fusion_lon": 0.0, "is_disabled": 0}, {"rental_uris": {"android": "https://dc.lft.to/lastmile_qr_scan", "ios": "https://dc.lft.to/lastmile_qr_scan"}, "type": "electric_scooter", "lon": -77.03635833333334, "name": "a47f438da0ebc467a13c019600c59545", "bike_id": "a47f438da0ebc467a13c019600c59545", "fusion_lat": 0.0, "is_reserved": 0, "lat": 38.917750166666664, "fusion_lon": 0.0, "is_disabled": 0}, {"rental_uris": {"android": "https://dc.lft.to/lastmile_qr_scan", "ios": "https://dc.lft.to/lastmile_qr_scan"}, "type": "electric_scooter", "lon": -76.9987465, "name": "f46254d35bc707e7ffb11cdee66b751f", "bike_id": "f46254d35bc707e7ffb11cdee66b751f", "fusion_lat": 0.0, "is_reserved": 0, "lat": 38.92057916666667, "fusion_lon": 0.0, "is_disabled": 0}, {"rental_uris": {"android": "https://dc.lft.to/lastmile_qr_scan", "ios": "https://dc.lft.to/lastmile_qr_scan"}, "type": "electric_scooter", "lon": -77.0499335, "name": "eb83b1ba3189b1c963ded7ca6c2fa5fd", "bike_id": "eb83b1ba3189b1c963ded7ca6c2fa5fd", "fusion_lat": 0.0, "is_reserved": 0, "lat": 38.90422916666667, "fusion_lon": 0.0, "is_disabled": 0}, {"rental_uris": {"android": "https://dc.lft.to/lastmile_qr_scan", "ios": "https://dc.lft.to/lastmile_qr_scan"}, "type": "electric_scooter", "lon": -76.99368766666667, "name": "45dac82d5cae5296923cf35f61b3ad87", "bike_id": "45dac82d5cae5296923cf35f61b3ad87", "fusion_lat": 0.0, "is_reserved": 0, "lat": 38.900525333333334, "fusion_lon": 0.0, "is_disabled": 0}, {"rental_uris": {"android": "https://dc.lft.to/lastmile_qr_scan", "ios": "https://dc.lft.to/lastmile_qr_scan"}, "type": "electric_scooter", "lon": -76.98848666666666, "name": "a3206b6530c7d8453ce7ddd59bf76289", "bike_id": "a3206b6530c7d8453ce7ddd59bf76289", "fusion_lat": 0.0, "is_reserved": 0, "lat": 38.903478666666665, "fusion_lon": 0.0, "is_disabled": 0}, {"rental_uris": {"android": "https://dc.lft.to/lastmile_qr_scan", "ios": "https://dc.lft.to/lastmile_qr_scan"}, "type": "electric_scooter", "lon": -77.0277165, "name": "b2b5bd88e4331189873370ad2e3c8d52", "bike_id": "b2b5bd88e4331189873370ad2e3c8d52", "fusion_lat": 0.0, "is_reserved": 0, "lat": 38.892255666666664, "fusion_lon": 0.0, "is_disabled": 0}, {"rental_uris": {"android": "https://dc.lft.to/lastmile_qr_scan", "ios": "https://dc.lft.to/lastmile_qr_scan"}, "type": "electric_scooter", "lon": -77.0249655, "name": "2160c440ca8046a9a716c336ce28f32b", "bike_id": "2160c440ca8046a9a716c336ce28f32b", "fusion_lat": 0.0, "is_reserved": 0, "lat": 38.932898333333334, "fusion_lon": 0.0, "is_disabled": 0}, {"rental_uris": {"android": "https://dc.lft.to/lastmile_qr_scan", "ios": "https://dc.lft.to/lastmile_qr_scan"}, "type": "electric_scooter", "lon": -77.01950233333334, "name": "860c0581fe938b3d113b3c2bcc67bb93", "bike_id": "860c0581fe938b3d113b3c2bcc67bb93", "fusion_lat": 0.0, "is_reserved": 0, "lat": 38.922488333333334, "fusion_lon": 0.0, "is_disabled": 0}, {"rental_uris": {"android": "https://dc.lft.to/lastmile_qr_scan", "ios": "https://dc.lft.to/lastmile_qr_scan"}, "type": "electric_scooter", "lon": -77.007308, "name": "1d0558667b881e7501c817c23a36122d", "bike_id": "1d0558667b881e7501c817c23a36122d", "fusion_lat": 0.0, "is_reserved": 0, "lat": 38.87653483333333, "fusion_lon": 0.0, "is_disabled": 0}, {"rental_uris": {"android": "https://dc.lft.to/lastmile_qr_scan", "ios": "https://dc.lft.to/lastmile_qr_scan"}, "type": "electric_scooter", "lon": -76.9550995, "name": "2e8534a69337454b48758fa43baf8e73", "bike_id": "2e8534a69337454b48758fa43baf8e73", "fusion_lat": 0.0, "is_reserved": 0, "lat": 38.890543666666666, "fusion_lon": 0.0, "is_disabled": 0}, {"rental_uris": {"android": "https://dc.lft.to/lastmile_qr_scan", "ios": "https://dc.lft.to/lastmile_qr_scan"}, "type": "electric_scooter", "lon": -77.02975033333334, "name": "8f8967d10ead56423f364de32974a9f6", "bike_id": "8f8967d10ead56423f364de32974a9f6", "fusion_lat": 0.0, "is_reserved": 0, "lat": 38.9231155, "fusion_lon": 0.0, "is_disabled": 0}, {"rental_uris": {"android": "https://dc.lft.to/lastmile_qr_scan", "ios": "https://dc.lft.to/lastmile_qr_scan"}, "type": "electric_scooter", "lon": -77.02707266666667, "name": "544dd4d4f68458e28e1c192a22e4e09f", "bike_id": "544dd4d4f68458e28e1c192a22e4e09f", "fusion_lat": 0.0, "is_reserved": 0, "lat": 38.9067565, "fusion_lon": 0.0, "is_disabled": 0}, {"rental_uris": {"android": "https://dc.lft.to/lastmile_qr_scan", "ios": "https://dc.lft.to/lastmile_qr_scan"}, "type": "electric_scooter", "lon": -77.03485516666667, "name": "0748d59292386bea8b597d7d673326f8", "bike_id": "0748d59292386bea8b597d7d673326f8", "fusion_lat": 0.0, "is_reserved": 0, "lat": 38.93573266666667, "fusion_lon": 0.0, "is_disabled": 0}, {"rental_uris": {"android": "https://dc.lft.to/lastmile_qr_scan", "ios": "https://dc.lft.to/lastmile_qr_scan"}, "type": "electric_scooter", "lon": -77.02675666666667, "name": "7db624e727ebd3b7f566f3db5aeb9016", "bike_id": "7db624e727ebd3b7f566f3db5aeb9016", "fusion_lat": 0.0, "is_reserved": 0, "lat": 38.8999735, "fusion_lon": 0.0, "is_disabled": 0}, {"rental_uris": {"android": "https://dc.lft.to/lastmile_qr_scan", "ios": "https://dc.lft.to/lastmile_qr_scan"}, "type": "electric_scooter", "lon": -77.00295383333334, "name": "9d4960d954c111a51b5717054ae7237e", "bike_id": "9d4960d954c111a51b5717054ae7237e", "fusion_lat": 0.0, "is_reserved": 0, "lat": 38.90900466666667, "fusion_lon": 0.0, "is_disabled": 0}, {"rental_uris": {"android": "https://dc.lft.to/lastmile_qr_scan", "ios": "https://dc.lft.to/lastmile_qr_scan"}, "type": "electric_scooter", "lon": -77.04225716666667, "name": "40b29d34e855b90ac24d4640606cc879", "bike_id": "40b29d34e855b90ac24d4640606cc879", "fusion_lat": 0.0, "is_reserved": 0, "lat": 38.911109333333336, "fusion_lon": 0.0, "is_disabled": 0}, {"rental_uris": {"android": "https://dc.lft.to/lastmile_qr_scan", "ios": "https://dc.lft.to/lastmile_qr_scan"}, "type": "electric_scooter", "lon": -77.04835633333333, "name": "8f60a704575aa0945d9734cb587cd156", "bike_id": "8f60a704575aa0945d9734cb587cd156", "fusion_lat": 0.0, "is_reserved": 0, "lat": 38.9163155, "fusion_lon": 0.0, "is_disabled": 0}, {"rental_uris": {"android": "https://dc.lft.to/lastmile_qr_scan", "ios": "https://dc.lft.to/lastmile_qr_scan"}, "type": "electric_scooter", "lon": -77.01831733333333, "name": "98e38e8b4c4352b2934426203ae319a2", "bike_id": "98e38e8b4c4352b2934426203ae319a2", "fusion_lat": 0.0, "is_reserved": 0, "lat": 38.911091666666664, "fusion_lon": 0.0, "is_disabled": 0}, {"rental_uris": {"android": "https://dc.lft.to/lastmile_qr_scan", "ios": "https://dc.lft.to/lastmile_qr_scan"}, "type": "electric_scooter", "lon": -77.0269635, "name": "d56faa0a0819c4d50693ec99def3e079", "bike_id": "d56faa0a0819c4d50693ec99def3e079", "fusion_lat": 0.0, "is_reserved": 0, "lat": 38.90845733333333, "fusion_lon": 0.0, "is_disabled": 0}, {"rental_uris": {"android": "https://dc.lft.to/lastmile_qr_scan", "ios": "https://dc.lft.to/lastmile_qr_scan"}, "type": "electric_scooter", "lon": -76.94637716666666, "name": "65fb04f9e1d2ea83956904f16b1c471a", "bike_id": "65fb04f9e1d2ea83956904f16b1c471a", "fusion_lat": 0.0, "is_reserved": 0, "lat": 38.898449666666664, "fusion_lon": 0.0, "is_disabled": 0}, {"rental_uris": {"android": "https://dc.lft.to/lastmile_qr_scan", "ios": "https://dc.lft.to/lastmile_qr_scan"}, "type": "electric_scooter", "lon": -77.0309005, "name": "265c182d00b4f5772cd32a58bf68a094", "bike_id": "265c182d00b4f5772cd32a58bf68a094", "fusion_lat": 0.0, "is_reserved": 0, "lat": 38.922436833333336, "fusion_lon": 0.0, "is_disabled": 0}, {"rental_uris": {"android": "https://dc.lft.to/lastmile_qr_scan", "ios": "https://dc.lft.to/lastmile_qr_scan"}, "type": "electric_scooter", "lon": -77.03138833333334, "name": "393c2daabe5e43ac630ddc95c273054b", "bike_id": "393c2daabe5e43ac630ddc95c273054b", "fusion_lat": 0.0, "is_reserved": 0, "lat": 38.904433833333336, "fusion_lon": 0.0, "is_disabled": 0}, {"rental_uris": {"android": "https://dc.lft.to/lastmile_qr_scan", "ios": "https://dc.lft.to/lastmile_qr_scan"}, "type": "electric_bike", "lon": -76.98558683333333, "name": "6b5bb41079a00cfc4b6669b553099d77", "bike_id": "6b5bb41079a00cfc4b6669b553099d77", "fusion_lat": 0.0, "is_reserved": 0, "lat": 38.86894216666666, "fusion_lon": 0.0, "is_disabled": 0}, {"rental_uris": {"android": "https://dc.lft.to/lastmile_qr_scan", "ios": "https://dc.lft.to/lastmile_qr_scan"}, "type": "electric_scooter", "lon": -77.06496016666667, "name": "446f8b5938c224c0679f7c8a1adcbb8d", "bike_id": "446f8b5938c224c0679f7c8a1adcbb8d", "fusion_lat": 0.0, "is_reserved": 0, "lat": 38.9052905, "fusion_lon": 0.0, "is_disabled": 0}, {"rental_uris": {"android": "https://dc.lft.to/lastmile_qr_scan", "ios": "https://dc.lft.to/lastmile_qr_scan"}, "type": "electric_scooter", "lon": -77.059183, "name": "5c80056ce2d32d8281e923140b92c2ad", "bike_id": "5c80056ce2d32d8281e923140b92c2ad", "fusion_lat": 0.0, "is_reserved": 0, "lat": 38.90536566666667, "fusion_lon": 0.0, "is_disabled": 0}, {"rental_uris": {"android": "https://dc.lft.to/lastmile_qr_scan", "ios": "https://dc.lft.to/lastmile_qr_scan"}, "type": "electric_scooter", "lon": -77.02198633333333, "name": "64bfb6d57eb9d96bfa37eaa022b1961d", "bike_id": "64bfb6d57eb9d96bfa37eaa022b1961d", "fusion_lat": 0.0, "is_reserved": 0, "lat": 38.916898333333336, "fusion_lon": 0.0, "is_disabled": 0}, {"rental_uris": {"android": "https://dc.lft.to/lastmile_qr_scan", "ios": "https://dc.lft.to/lastmile_qr_scan"}, "type": "electric_scooter", "lon": -76.98122033333334, "name": "8d91b95ec27ec2fc4d4de446ebda2495", "bike_id": "8d91b95ec27ec2fc4d4de446ebda2495", "fusion_lat": 0.0, "is_reserved": 0, "lat": 38.891991166666664, "fusion_lon": 0.0, "is_disabled": 0}, {"rental_uris": {"android": "https://dc.lft.to/lastmile_qr_scan", "ios": "https://dc.lft.to/lastmile_qr_scan"}, "type": "electric_scooter", "lon": -77.023367, "name": "dee1d79bb2ead0d2c4a533c26635eb66", "bike_id": "dee1d79bb2ead0d2c4a533c26635eb66", "fusion_lat": 0.0, "is_reserved": 0, "lat": 38.92267916666667, "fusion_lon": 0.0, "is_disabled": 0}, {"rental_uris": {"android": "https://dc.lft.to/lastmile_qr_scan", "ios": "https://dc.lft.to/lastmile_qr_scan"}, "type": "electric_scooter", "lon": -77.0228995, "name": "7c47d1ff390d1c77d4e51b3a751fc898", "bike_id": "7c47d1ff390d1c77d4e51b3a751fc898", "fusion_lat": 0.0, "is_reserved": 0, "lat": 38.91610383333333, "fusion_lon": 0.0, "is_disabled": 0}, {"rental_uris": {"android": "https://dc.lft.to/lastmile_qr_scan", "ios": "https://dc.lft.to/lastmile_qr_scan"}, "type": "electric_scooter", "lon": -77.01691516666666, "name": "64f9bbe5f7a6445e88d7b4fef186238b", "bike_id": "64f9bbe5f7a6445e88d7b4fef186238b", "fusion_lat": 0.0, "is_reserved": 0, "lat": 38.9111005, "fusion_lon": 0.0, "is_disabled": 0}, {"rental_uris": {"android": "https://dc.lft.to/lastmile_qr_scan", "ios": "https://dc.lft.to/lastmile_qr_scan"}, "type": "electric_scooter", "lon": -77.02727083333333, "name": "1205773ad615ebc3a7b5d62aa012a8c7", "bike_id": "1205773ad615ebc3a7b5d62aa012a8c7", "fusion_lat": 0.0, "is_reserved": 0, "lat": 38.93982883333334, "fusion_lon": 0.0, "is_disabled": 0}, {"rental_uris": {"android": "https://dc.lft.to/lastmile_qr_scan", "ios": "https://dc.lft.to/lastmile_qr_scan"}, "type": "electric_scooter", "lon": -76.98729933333334, "name": "b5250aa37a227a5bd2c2dcdea14f4c25", "bike_id": "b5250aa37a227a5bd2c2dcdea14f4c25", "fusion_lat": 0.0, "is_reserved": 0, "lat": 38.867106666666665, "fusion_lon": 0.0, "is_disabled": 0}, {"rental_uris": {"android": "https://dc.lft.to/lastmile_qr_scan", "ios": "https://dc.lft.to/lastmile_qr_scan"}, "type": "electric_scooter", "lon": -77.04856583333333, "name": "b35a7d19dbd16e577d28323540ad8316", "bike_id": "b35a7d19dbd16e577d28323540ad8316", "fusion_lat": 0.0, "is_reserved": 0, "lat": 38.903747833333334, "fusion_lon": 0.0, "is_disabled": 0}, {"rental_uris": {"android": "https://dc.lft.to/lastmile_qr_scan", "ios": "https://dc.lft.to/lastmile_qr_scan"}, "type": "electric_scooter", "lon": -77.06453216666667, "name": "d83ade058e10de97efad794daf6234a5", "bike_id": "d83ade058e10de97efad794daf6234a5", "fusion_lat": 0.0, "is_reserved": 0, "lat": 38.90985633333333, "fusion_lon": 0.0, "is_disabled": 0}, {"rental_uris": {"android": "https://dc.lft.to/lastmile_qr_scan", "ios": "https://dc.lft.to/lastmile_qr_scan"}, "type": "electric_bike", "lon": -76.95204033333333, "name": "c1372a1dbd93e367c7085c6cd933c4a7", "bike_id": "c1372a1dbd93e367c7085c6cd933c4a7", "fusion_lat": 0.0, "is_reserved": 0, "lat": 38.93669033333333, "fusion_lon": 0.0, "is_disabled": 0}, {"rental_uris": {"android": "https://dc.lft.to/lastmile_qr_scan", "ios": "https://dc.lft.to/lastmile_qr_scan"}, "type": "electric_scooter", "lon": -76.99099383333333, "name": "243a37f49b46aaf0472814b9b79a8716", "bike_id": "243a37f49b46aaf0472814b9b79a8716", "fusion_lat": 0.0, "is_reserved": 0, "lat": 38.8635585, "fusion_lon": 0.0, "is_disabled": 0}, {"rental_uris": {"android": "https://dc.lft.to/lastmile_qr_scan", "ios": "https://dc.lft.to/lastmile_qr_scan"}, "type": "electric_scooter", "lon": -77.02759366666666, "name": "ac2fe29cae0a9003af9b436a9961ec71", "bike_id": "ac2fe29cae0a9003af9b436a9961ec71", "fusion_lat": 0.0, "is_reserved": 0, "lat": 38.9539925, "fusion_lon": 0.0, "is_disabled": 0}, {"rental_uris": {"android": "https://dc.lft.to/lastmile_qr_scan", "ios": "https://dc.lft.to/lastmile_qr_scan"}, "type": "electric_scooter", "lon": -77.0734625, "name": "21f7c4877551ae39327ec6e5ddc45582", "bike_id": "21f7c4877551ae39327ec6e5ddc45582", "fusion_lat": 0.0, "is_reserved": 0, "lat": 38.91101666666667, "fusion_lon": 0.0, "is_disabled": 0}, {"rental_uris": {"android": "https://dc.lft.to/lastmile_qr_scan", "ios": "https://dc.lft.to/lastmile_qr_scan"}, "type": "electric_scooter", "lon": -77.04006116666666, "name": "12a2b44e95f9ab7eef4770e1090663f2", "bike_id": "12a2b44e95f9ab7eef4770e1090663f2", "fusion_lat": 0.0, "is_reserved": 0, "lat": 38.91304, "fusion_lon": 0.0, "is_disabled": 0}, {"rental_uris": {"android": "https://dc.lft.to/lastmile_qr_scan", "ios": "https://dc.lft.to/lastmile_qr_scan"}, "type": "electric_bike", "lon": -76.91657633333334, "name": "83b37dd92830d31fc66c243b74ab3a0b", "bike_id": "83b37dd92830d31fc66c243b74ab3a0b", "fusion_lat": 0.0, "is_reserved": 0, "lat": 38.86860433333333, "fusion_lon": 0.0, "is_disabled": 0}, {"rental_uris": {"android": "https://dc.lft.to/lastmile_qr_scan", "ios": "https://dc.lft.to/lastmile_qr_scan"}, "type": "electric_scooter", "lon": -77.048072, "name": "6a728794076da1b8382fa2df9017e85a", "bike_id": "6a728794076da1b8382fa2df9017e85a", "fusion_lat": 0.0, "is_reserved": 0, "lat": 38.911043, "fusion_lon": 0.0, "is_disabled": 0}, {"rental_uris": {"android": "https://dc.lft.to/lastmile_qr_scan", "ios": "https://dc.lft.to/lastmile_qr_scan"}, "type": "electric_scooter", "lon": -76.94253766666667, "name": "f3a27818b0dbe6463eb8ea66a0e9a02b", "bike_id": "f3a27818b0dbe6463eb8ea66a0e9a02b", "fusion_lat": 0.0, "is_reserved": 0, "lat": 38.896828666666664, "fusion_lon": 0.0, "is_disabled": 0}, {"rental_uris": {"android": "https://dc.lft.to/lastmile_qr_scan", "ios": "https://dc.lft.to/lastmile_qr_scan"}, "type": "electric_bike", "lon": -77.12265583333334, "name": "34493a5c6819b647646842dc48617e39", "bike_id": "34493a5c6819b647646842dc48617e39", "fusion_lat": 0.0, "is_reserved": 0, "lat": 38.897367, "fusion_lon": 0.0, "is_disabled": 0}, {"rental_uris": {"android": "https://dc.lft.to/lastmile_qr_scan", "ios": "https://dc.lft.to/lastmile_qr_scan"}, "type": "electric_bike", "lon": -77.0162025, "name": "7c5ab842ada1e8b77ccb4b956a0cc2a2", "bike_id": "7c5ab842ada1e8b77ccb4b956a0cc2a2", "fusion_lat": 0.0, "is_reserved": 0, "lat": 38.912308833333334, "fusion_lon": 0.0, "is_disabled": 0}, {"rental_uris": {"android": "https://dc.lft.to/lastmile_qr_scan", "ios": "https://dc.lft.to/lastmile_qr_scan"}, "type": "electric_scooter", "lon": -77.06073733333334, "name": "071f8cf029d7364a161fc6acc287c973", "bike_id": "071f8cf029d7364a161fc6acc287c973", "fusion_lat": 0.0, "is_reserved": 0, "lat": 38.90533816666667, "fusion_lon": 0.0, "is_disabled": 0}, {"rental_uris": {"android": "https://dc.lft.to/lastmile_qr_scan", "ios": "https://dc.lft.to/lastmile_qr_scan"}, "type": "electric_scooter", "lon": -77.025729, "name": "99186e5b76c7a4e20628bf2337b95e39", "bike_id": "99186e5b76c7a4e20628bf2337b95e39", "fusion_lat": 0.0, "is_reserved": 0, "lat": 38.92508, "fusion_lon": 0.0, "is_disabled": 0}, {"rental_uris": {"android": "https://dc.lft.to/lastmile_qr_scan", "ios": "https://dc.lft.to/lastmile_qr_scan"}, "type": "electric_scooter", "lon": -76.9541385, "name": "aba613ca1e12c71a77c5fb5007890bfd", "bike_id": "aba613ca1e12c71a77c5fb5007890bfd", "fusion_lat": 0.0, "is_reserved": 0, "lat": 38.89161033333333, "fusion_lon": 0.0, "is_disabled": 0}, {"rental_uris": {"android": "https://dc.lft.to/lastmile_qr_scan", "ios": "https://dc.lft.to/lastmile_qr_scan"}, "type": "electric_bike", "lon": -77.23298366666667, "name": "3bbdcf85a314a2717adc9faedea0282e", "bike_id": "3bbdcf85a314a2717adc9faedea0282e", "fusion_lat": 0.0, "is_reserved": 0, "lat": 38.92513066666667, "fusion_lon": 0.0, "is_disabled": 0}, {"rental_uris": {"android": "https://dc.lft.to/lastmile_qr_scan", "ios": "https://dc.lft.to/lastmile_qr_scan"}, "type": "electric_scooter", "lon": -77.043723, "name": "93d58a12214b98298c919db62d2e59ae", "bike_id": "93d58a12214b98298c919db62d2e59ae", "fusion_lat": 0.0, "is_reserved": 0, "lat": 38.90652766666667, "fusion_lon": 0.0, "is_disabled": 0}, {"rental_uris": {"android": "https://dc.lft.to/lastmile_qr_scan", "ios": "https://dc.lft.to/lastmile_qr_scan"}, "type": "electric_scooter", "lon": -77.0163, "name": "ea8385f1c0683bfb44cebfbfc8c02cae", "bike_id": "ea8385f1c0683bfb44cebfbfc8c02cae", "fusion_lat": 0.0, "is_reserved": 0, "lat": 38.883197333333335, "fusion_lon": 0.0, "is_disabled": 0}, {"rental_uris": {"android": "https://dc.lft.to/lastmile_qr_scan", "ios": "https://dc.lft.to/lastmile_qr_scan"}, "type": "electric_scooter", "lon": -77.0299965, "name": "bde3bb59eeeaa110010e4846792973ff", "bike_id": "bde3bb59eeeaa110010e4846792973ff", "fusion_lat": 0.0, "is_reserved": 0, "lat": 38.927964333333335, "fusion_lon": 0.0, "is_disabled": 0}, {"rental_uris": {"android": "https://dc.lft.to/lastmile_qr_scan", "ios": "https://dc.lft.to/lastmile_qr_scan"}, "type": "electric_bike", "lon": -77.35307483333334, "name": "4ef45ae35858cf384faa04fc90377179", "bike_id": "4ef45ae35858cf384faa04fc90377179", "fusion_lat": 0.0, "is_reserved": 0, "lat": 38.950030166666664, "fusion_lon": 0.0, "is_disabled": 0}, {"rental_uris": {"android": "https://dc.lft.to/lastmile_qr_scan", "ios": "https://dc.lft.to/lastmile_qr_scan"}, "type": "electric_scooter", "lon": -77.02723066666667, "name": "e3739398a8fe702c1127ed17ebccc312", "bike_id": "e3739398a8fe702c1127ed17ebccc312", "fusion_lat": 0.0, "is_reserved": 0, "lat": 38.95134616666667, "fusion_lon": 0.0, "is_disabled": 0}, {"rental_uris": {"android": "https://dc.lft.to/lastmile_qr_scan", "ios": "https://dc.lft.to/lastmile_qr_scan"}, "type": "electric_bike", "lon": -77.01998716666667, "name": "2d3c24fb00b4ba6a0f568edd05d2e5e1", "bike_id": "2d3c24fb00b4ba6a0f568edd05d2e5e1", "fusion_lat": 0.0, "is_reserved": 0, "lat": 38.960189, "fusion_lon": 0.0, "is_disabled": 0}, {"rental_uris": {"android": "https://dc.lft.to/lastmile_qr_scan", "ios": "https://dc.lft.to/lastmile_qr_scan"}, "type": "electric_scooter", "lon": -77.005842, "name": "cfd936cab2ce705cab5ea3eaf97ad257", "bike_id": "cfd936cab2ce705cab5ea3eaf97ad257", "fusion_lat": 0.0, "is_reserved": 0, "lat": 38.905762333333335, "fusion_lon": 0.0, "is_disabled": 0}, {"rental_uris": {"android": "https://dc.lft.to/lastmile_qr_scan", "ios": "https://dc.lft.to/lastmile_qr_scan"}, "type": "electric_scooter", "lon": -76.99710183333333, "name": "171b8f80451e034b457f38fd92e00a6c", "bike_id": "171b8f80451e034b457f38fd92e00a6c", "fusion_lat": 0.0, "is_reserved": 0, "lat": 38.911232166666665, "fusion_lon": 0.0, "is_disabled": 0}, {"rental_uris": {"android": "https://dc.lft.to/lastmile_qr_scan", "ios": "https://dc.lft.to/lastmile_qr_scan"}, "type": "electric_scooter", "lon": -77.06345583333334, "name": "d44f67a21796386348ad46ddfe25b36a", "bike_id": "d44f67a21796386348ad46ddfe25b36a", "fusion_lat": 0.0, "is_reserved": 0, "lat": 38.913395666666666, "fusion_lon": 0.0, "is_disabled": 0}, {"rental_uris": {"android": "https://dc.lft.to/lastmile_qr_scan", "ios": "https://dc.lft.to/lastmile_qr_scan"}, "type": "electric_scooter", "lon": -77.03894083333333, "name": "831eac9a9deff9611eddb7026fd07502", "bike_id": "831eac9a9deff9611eddb7026fd07502", "fusion_lat": 0.0, "is_reserved": 0, "lat": 38.922242, "fusion_lon": 0.0, "is_disabled": 0}, {"rental_uris": {"android": "https://dc.lft.to/lastmile_qr_scan", "ios": "https://dc.lft.to/lastmile_qr_scan"}, "type": "electric_scooter", "lon": -76.99772433333334, "name": "a4bf7e3059c788dc43416905fcf7ca45", "bike_id": "a4bf7e3059c788dc43416905fcf7ca45", "fusion_lat": 0.0, "is_reserved": 0, "lat": 38.9230295, "fusion_lon": 0.0, "is_disabled": 0}, {"rental_uris": {"android": "https://dc.lft.to/lastmile_qr_scan", "ios": "https://dc.lft.to/lastmile_qr_scan"}, "type": "electric_scooter", "lon": -76.994908, "name": "0ce06f8e26c631d192277e731eb0ef9c", "bike_id": "0ce06f8e26c631d192277e731eb0ef9c", "fusion_lat": 0.0, "is_reserved": 0, "lat": 38.876929, "fusion_lon": 0.0, "is_disabled": 0}, {"rental_uris": {"android": "https://dc.lft.to/lastmile_qr_scan", "ios": "https://dc.lft.to/lastmile_qr_scan"}, "type": "electric_scooter", "lon": -76.98127716666667, "name": "f75911c1dc9516434076ef71ddb84039", "bike_id": "f75911c1dc9516434076ef71ddb84039", "fusion_lat": 0.0, "is_reserved": 0, "lat": 38.8842045, "fusion_lon": 0.0, "is_disabled": 0}, {"rental_uris": {"android": "https://dc.lft.to/lastmile_qr_scan", "ios": "https://dc.lft.to/lastmile_qr_scan"}, "type": "electric_scooter", "lon": -77.02043583333334, "name": "6e33b041dda0f0111e7718665f0718b2", "bike_id": "6e33b041dda0f0111e7718665f0718b2", "fusion_lat": 0.0, "is_reserved": 0, "lat": 38.89262816666667, "fusion_lon": 0.0, "is_disabled": 0}, {"rental_uris": {"android": "https://dc.lft.to/lastmile_qr_scan", "ios": "https://dc.lft.to/lastmile_qr_scan"}, "type": "electric_scooter", "lon": -77.03656833333334, "name": "ea0a6c0299b28b72228dd1c5412ccd2b", "bike_id": "ea0a6c0299b28b72228dd1c5412ccd2b", "fusion_lat": 0.0, "is_reserved": 0, "lat": 38.91626466666666, "fusion_lon": 0.0, "is_disabled": 0}, {"rental_uris": {"android": "https://dc.lft.to/lastmile_qr_scan", "ios": "https://dc.lft.to/lastmile_qr_scan"}, "type": "electric_scooter", "lon": -77.06341433333333, "name": "455f721e76bccec6aef1c2f97ee37acc", "bike_id": "455f721e76bccec6aef1c2f97ee37acc", "fusion_lat": 0.0, "is_reserved": 0, "lat": 38.908514833333335, "fusion_lon": 0.0, "is_disabled": 0}, {"rental_uris": {"android": "https://dc.lft.to/lastmile_qr_scan", "ios": "https://dc.lft.to/lastmile_qr_scan"}, "type": "electric_scooter", "lon": -77.01770483333334, "name": "0f0fc99f70f4ba2dd405a6e27337d647", "bike_id": "0f0fc99f70f4ba2dd405a6e27337d647", "fusion_lat": 0.0, "is_reserved": 0, "lat": 38.872973, "fusion_lon": 0.0, "is_disabled": 0}, {"rental_uris": {"android": "https://dc.lft.to/lastmile_qr_scan", "ios": "https://dc.lft.to/lastmile_qr_scan"}, "type": "electric_scooter", "lon": -77.026907, "name": "a21e3cea30f9c3de7a7e8e7eb8817273", "bike_id": "a21e3cea30f9c3de7a7e8e7eb8817273", "fusion_lat": 0.0, "is_reserved": 0, "lat": 38.912727, "fusion_lon": 0.0, "is_disabled": 0}, {"rental_uris": {"android": "https://dc.lft.to/lastmile_qr_scan", "ios": "https://dc.lft.to/lastmile_qr_scan"}, "type": "electric_scooter", "lon": -76.99962883333333, "name": "32b56436dfce5acf3acc6df72ce2e630", "bike_id": "32b56436dfce5acf3acc6df72ce2e630", "fusion_lat": 0.0, "is_reserved": 0, "lat": 38.9086915, "fusion_lon": 0.0, "is_disabled": 0}, {"rental_uris": {"android": "https://dc.lft.to/lastmile_qr_scan", "ios": "https://dc.lft.to/lastmile_qr_scan"}, "type": "electric_scooter", "lon": -77.02166133333333, "name": "000a138c3e01cf840745f8e1a9aad52c", "bike_id": "000a138c3e01cf840745f8e1a9aad52c", "fusion_lat": 0.0, "is_reserved": 0, "lat": 38.940872, "fusion_lon": 0.0, "is_disabled": 0}, {"rental_uris": {"android": "https://dc.lft.to/lastmile_qr_scan", "ios": "https://dc.lft.to/lastmile_qr_scan"}, "type": "electric_scooter", "lon": -77.03579133333334, "name": "f3c180d5970f6ab9fe6305f75e4f3778", "bike_id": "f3c180d5970f6ab9fe6305f75e4f3778", "fusion_lat": 0.0, "is_reserved": 0, "lat": 38.91914533333333, "fusion_lon": 0.0, "is_disabled": 0}, {"rental_uris": {"android": "https://dc.lft.to/lastmile_qr_scan", "ios": "https://dc.lft.to/lastmile_qr_scan"}, "type": "electric_scooter", "lon": -76.9948875, "name": "082c350b289c527821cbb70b66dd3827", "bike_id": "082c350b289c527821cbb70b66dd3827", "fusion_lat": 0.0, "is_reserved": 0, "lat": 38.86246, "fusion_lon": 0.0, "is_disabled": 0}, {"rental_uris": {"android": "https://dc.lft.to/lastmile_qr_scan", "ios": "https://dc.lft.to/lastmile_qr_scan"}, "type": "electric_bike", "lon": -76.99759, "name": "251e1cd001307f0adebcf904cfe77ded", "bike_id": "251e1cd001307f0adebcf904cfe77ded", "fusion_lat": 0.0, "is_reserved": 0, "lat": 39.005944666666664, "fusion_lon": 0.0, "is_disabled": 0}, {"rental_uris": {"android": "https://dc.lft.to/lastmile_qr_scan", "ios": "https://dc.lft.to/lastmile_qr_scan"}, "type": "electric_scooter", "lon": -77.034501, "name": "14247380868a21da77a2b52287b1aab6", "bike_id": "14247380868a21da77a2b52287b1aab6", "fusion_lat": 0.0, "is_reserved": 0, "lat": 38.905856, "fusion_lon": 0.0, "is_disabled": 0}, {"rental_uris": {"android": "https://dc.lft.to/lastmile_qr_scan", "ios": "https://dc.lft.to/lastmile_qr_scan"}, "type": "electric_scooter", "lon": -76.99730266666667, "name": "fd290e9b9985c64e5a2fe05dddb95460", "bike_id": "fd290e9b9985c64e5a2fe05dddb95460", "fusion_lat": 0.0, "is_reserved": 0, "lat": 38.90792616666667, "fusion_lon": 0.0, "is_disabled": 0}, {"rental_uris": {"android": "https://dc.lft.to/lastmile_qr_scan", "ios": "https://dc.lft.to/lastmile_qr_scan"}, "type": "electric_bike", "lon": -77.1142345, "name": "07f7c8386d3eb2191fc933786e976c18", "bike_id": "07f7c8386d3eb2191fc933786e976c18", "fusion_lat": 0.0, "is_reserved": 0, "lat": 38.852509166666664, "fusion_lon": 0.0, "is_disabled": 0}, {"rental_uris": {"android": "https://dc.lft.to/lastmile_qr_scan", "ios": "https://dc.lft.to/lastmile_qr_scan"}, "type": "electric_scooter", "lon": -77.03445833333333, "name": "79fc69cdee5b8dcf4c150c208857b9c7", "bike_id": "79fc69cdee5b8dcf4c150c208857b9c7", "fusion_lat": 0.0, "is_reserved": 0, "lat": 38.91808133333333, "fusion_lon": 0.0, "is_disabled": 0}, {"rental_uris": {"android": "https://dc.lft.to/lastmile_qr_scan", "ios": "https://dc.lft.to/lastmile_qr_scan"}, "type": "electric_scooter", "lon": -77.03879366666666, "name": "deedf8ad78abc396467c5feab92e17fb", "bike_id": "deedf8ad78abc396467c5feab92e17fb", "fusion_lat": 0.0, "is_reserved": 0, "lat": 38.934337666666664, "fusion_lon": 0.0, "is_disabled": 0}, {"rental_uris": {"android": "https://dc.lft.to/lastmile_qr_scan", "ios": "https://dc.lft.to/lastmile_qr_scan"}, "type": "electric_scooter", "lon": -77.05010833333333, "name": "810486b653bb255f700792c9b6ab1e94", "bike_id": "810486b653bb255f700792c9b6ab1e94", "fusion_lat": 0.0, "is_reserved": 0, "lat": 38.9076805, "fusion_lon": 0.0, "is_disabled": 0}, {"rental_uris": {"android": "https://dc.lft.to/lastmile_qr_scan", "ios": "https://dc.lft.to/lastmile_qr_scan"}, "type": "electric_bike", "lon": -77.10709233333333, "name": "cd045c7a1b6658963f2122e0cf4b0206", "bike_id": "cd045c7a1b6658963f2122e0cf4b0206", "fusion_lat": 0.0, "is_reserved": 0, "lat": 38.8554045, "fusion_lon": 0.0, "is_disabled": 0}, {"rental_uris": {"android": "https://dc.lft.to/lastmile_qr_scan", "ios": "https://dc.lft.to/lastmile_qr_scan"}, "type": "electric_scooter", "lon": -77.02113966666667, "name": "7b30f5c03c9a2ad14f5f9d73e945285f", "bike_id": "7b30f5c03c9a2ad14f5f9d73e945285f", "fusion_lat": 0.0, "is_reserved": 0, "lat": 38.9301775, "fusion_lon": 0.0, "is_disabled": 0}, {"rental_uris": {"android": "https://dc.lft.to/lastmile_qr_scan", "ios": "https://dc.lft.to/lastmile_qr_scan"}, "type": "electric_bike", "lon": -77.05109233333333, "name": "735770015a92b47357e1b99541b488fb", "bike_id": "735770015a92b47357e1b99541b488fb", "fusion_lat": 0.0, "is_reserved": 0, "lat": 38.945626, "fusion_lon": 0.0, "is_disabled": 0}, {"rental_uris": {"android": "https://dc.lft.to/lastmile_qr_scan", "ios": "https://dc.lft.to/lastmile_qr_scan"}, "type": "electric_scooter", "lon": -77.02974283333333, "name": "b41fca81c9b9b00fd2553feb3c9bbf8c", "bike_id": "b41fca81c9b9b00fd2553feb3c9bbf8c", "fusion_lat": 0.0, "is_reserved": 0, "lat": 38.906690833333336, "fusion_lon": 0.0, "is_disabled": 0}, {"rental_uris": {"android": "https://dc.lft.to/lastmile_qr_scan", "ios": "https://dc.lft.to/lastmile_qr_scan"}, "type": "electric_scooter", "lon": -77.02761816666667, "name": "f37aee7bf652c6673f1711e41e8f5aab", "bike_id": "f37aee7bf652c6673f1711e41e8f5aab", "fusion_lat": 0.0, "is_reserved": 0, "lat": 38.9539865, "fusion_lon": 0.0, "is_disabled": 0}, {"rental_uris": {"android": "https://dc.lft.to/lastmile_qr_scan", "ios": "https://dc.lft.to/lastmile_qr_scan"}, "type": "electric_scooter", "lon": -77.0048095, "name": "10897ee52aed1ed944c1e72a304d41c3", "bike_id": "10897ee52aed1ed944c1e72a304d41c3", "fusion_lat": 0.0, "is_reserved": 0, "lat": 38.925896333333334, "fusion_lon": 0.0, "is_disabled": 0}, {"rental_uris": {"android": "https://dc.lft.to/lastmile_qr_scan", "ios": "https://dc.lft.to/lastmile_qr_scan"}, "type": "electric_scooter", "lon": -77.03223833333334, "name": "aada9bede9dc7e45213a1d98e433c7dd", "bike_id": "aada9bede9dc7e45213a1d98e433c7dd", "fusion_lat": 0.0, "is_reserved": 0, "lat": 38.91859933333333, "fusion_lon": 0.0, "is_disabled": 0}, {"rental_uris": {"android": "https://dc.lft.to/lastmile_qr_scan", "ios": "https://dc.lft.to/lastmile_qr_scan"}, "type": "electric_bike", "lon": -77.02903216666667, "name": "7bd9634f8240b46704f8f893455c64b1", "bike_id": "7bd9634f8240b46704f8f893455c64b1", "fusion_lat": 0.0, "is_reserved": 0, "lat": 38.892131166666665, "fusion_lon": 0.0, "is_disabled": 0}, {"rental_uris": {"android": "https://dc.lft.to/lastmile_qr_scan", "ios": "https://dc.lft.to/lastmile_qr_scan"}, "type": "electric_scooter", "lon": -76.98262816666667, "name": "4f22d41e7ad1ced671fba8ff5adc9e07", "bike_id": "4f22d41e7ad1ced671fba8ff5adc9e07", "fusion_lat": 0.0, "is_reserved": 0, "lat": 38.863536333333336, "fusion_lon": 0.0, "is_disabled": 0}, {"rental_uris": {"android": "https://dc.lft.to/lastmile_qr_scan", "ios": "https://dc.lft.to/lastmile_qr_scan"}, "type": "electric_scooter", "lon": -76.976158, "name": "c39de2749cd87c9761ab1320d1adf0c8", "bike_id": "c39de2749cd87c9761ab1320d1adf0c8", "fusion_lat": 0.0, "is_reserved": 0, "lat": 38.93141966666666, "fusion_lon": 0.0, "is_disabled": 0}, {"rental_uris": {"android": "https://dc.lft.to/lastmile_qr_scan", "ios": "https://dc.lft.to/lastmile_qr_scan"}, "type": "electric_bike", "lon": -76.9887655, "name": "112c0731e219c770873570d4be0f84d3", "bike_id": "112c0731e219c770873570d4be0f84d3", "fusion_lat": 0.0, "is_reserved": 0, "lat": 38.9211345, "fusion_lon": 0.0, "is_disabled": 0}, {"rental_uris": {"android": "https://dc.lft.to/lastmile_qr_scan", "ios": "https://dc.lft.to/lastmile_qr_scan"}, "type": "electric_bike", "lon": -76.95472216666667, "name": "53c2e5bdc73555861a7d546a2c872a30", "bike_id": "53c2e5bdc73555861a7d546a2c872a30", "fusion_lat": 0.0, "is_reserved": 0, "lat": 38.935702, "fusion_lon": 0.0, "is_disabled": 0}, {"rental_uris": {"android": "https://dc.lft.to/lastmile_qr_scan", "ios": "https://dc.lft.to/lastmile_qr_scan"}, "type": "electric_scooter", "lon": -77.00223016666666, "name": "d7d7ac379b4996867170b406d961a4dc", "bike_id": "d7d7ac379b4996867170b406d961a4dc", "fusion_lat": 0.0, "is_reserved": 0, "lat": 38.902959333333335, "fusion_lon": 0.0, "is_disabled": 0}, {"rental_uris": {"android": "https://dc.lft.to/lastmile_qr_scan", "ios": "https://dc.lft.to/lastmile_qr_scan"}, "type": "electric_scooter", "lon": -77.00805283333334, "name": "bff316fe55153a42d7eb79060bdb3461", "bike_id": "bff316fe55153a42d7eb79060bdb3461", "fusion_lat": 0.0, "is_reserved": 0, "lat": 38.876647, "fusion_lon": 0.0, "is_disabled": 0}, {"rental_uris": {"android": "https://dc.lft.to/lastmile_qr_scan", "ios": "https://dc.lft.to/lastmile_qr_scan"}, "type": "electric_scooter", "lon": -76.977277, "name": "40f4ddde3dc7e1be955de0cde75f4e83", "bike_id": "40f4ddde3dc7e1be955de0cde75f4e83", "fusion_lat": 0.0, "is_reserved": 0, "lat": 38.87290733333333, "fusion_lon": 0.0, "is_disabled": 0}, {"rental_uris": {"android": "https://dc.lft.to/lastmile_qr_scan", "ios": "https://dc.lft.to/lastmile_qr_scan"}, "type": "electric_scooter", "lon": -77.0552005, "name": "14344050c8bdf242f232c5971fa3b7a7", "bike_id": "14344050c8bdf242f232c5971fa3b7a7", "fusion_lat": 0.0, "is_reserved": 0, "lat": 38.9296885, "fusion_lon": 0.0, "is_disabled": 0}, {"rental_uris": {"android": "https://dc.lft.to/lastmile_qr_scan", "ios": "https://dc.lft.to/lastmile_qr_scan"}, "type": "electric_scooter", "lon": -76.98473216666666, "name": "7cb74b13ea6710183d469c91abf86f54", "bike_id": "7cb74b13ea6710183d469c91abf86f54", "fusion_lat": 0.0, "is_reserved": 0, "lat": 38.92896533333333, "fusion_lon": 0.0, "is_disabled": 0}, {"rental_uris": {"android": "https://dc.lft.to/lastmile_qr_scan", "ios": "https://dc.lft.to/lastmile_qr_scan"}, "type": "electric_scooter", "lon": -77.02502016666666, "name": "695ffe14edd9e295fdf11b7307b8352a", "bike_id": "695ffe14edd9e295fdf11b7307b8352a", "fusion_lat": 0.0, "is_reserved": 0, "lat": 38.941995666666664, "fusion_lon": 0.0, "is_disabled": 0}, {"rental_uris": {"android": "https://dc.lft.to/lastmile_qr_scan", "ios": "https://dc.lft.to/lastmile_qr_scan"}, "type": "electric_scooter", "lon": -77.040165, "name": "be31b6603a51cebd623a2999c9b94504", "bike_id": "be31b6603a51cebd623a2999c9b94504", "fusion_lat": 0.0, "is_reserved": 0, "lat": 38.91841483333333, "fusion_lon": 0.0, "is_disabled": 0}, {"rental_uris": {"android": "https://dc.lft.to/lastmile_qr_scan", "ios": "https://dc.lft.to/lastmile_qr_scan"}, "type": "electric_scooter", "lon": -76.9915085, "name": "ba8b56c6e8d29b28528cfeeac6478af4", "bike_id": "ba8b56c6e8d29b28528cfeeac6478af4", "fusion_lat": 0.0, "is_reserved": 0, "lat": 38.87316883333333, "fusion_lon": 0.0, "is_disabled": 0}, {"rental_uris": {"android": "https://dc.lft.to/lastmile_qr_scan", "ios": "https://dc.lft.to/lastmile_qr_scan"}, "type": "electric_scooter", "lon": -77.03787083333333, "name": "36a3eba34fa36f548978078177db3678", "bike_id": "36a3eba34fa36f548978078177db3678", "fusion_lat": 0.0, "is_reserved": 0, "lat": 38.924717, "fusion_lon": 0.0, "is_disabled": 0}, {"rental_uris": {"android": "https://dc.lft.to/lastmile_qr_scan", "ios": "https://dc.lft.to/lastmile_qr_scan"}, "type": "electric_scooter", "lon": -77.027235, "name": "80a32998a6817851448fd12ea6d57b47", "bike_id": "80a32998a6817851448fd12ea6d57b47", "fusion_lat": 0.0, "is_reserved": 0, "lat": 38.93448766666667, "fusion_lon": 0.0, "is_disabled": 0}, {"rental_uris": {"android": "https://dc.lft.to/lastmile_qr_scan", "ios": "https://dc.lft.to/lastmile_qr_scan"}, "type": "electric_scooter", "lon": -77.0120715, "name": "440251ed02515c909a7f09dbed670ae7", "bike_id": "440251ed02515c909a7f09dbed670ae7", "fusion_lat": 0.0, "is_reserved": 0, "lat": 38.91824116666667, "fusion_lon": 0.0, "is_disabled": 0}, {"rental_uris": {"android": "https://dc.lft.to/lastmile_qr_scan", "ios": "https://dc.lft.to/lastmile_qr_scan"}, "type": "electric_scooter", "lon": -76.93740033333333, "name": "e9bde8537615869d0257a4e83913edbd", "bike_id": "e9bde8537615869d0257a4e83913edbd", "fusion_lat": 0.0, "is_reserved": 0, "lat": 38.89014616666667, "fusion_lon": 0.0, "is_disabled": 0}, {"rental_uris": {"android": "https://dc.lft.to/lastmile_qr_scan", "ios": "https://dc.lft.to/lastmile_qr_scan"}, "type": "electric_scooter", "lon": -76.97395316666666, "name": "701889b1ba7654b796749e326f721c6d", "bike_id": "701889b1ba7654b796749e326f721c6d", "fusion_lat": 0.0, "is_reserved": 0, "lat": 38.86561366666667, "fusion_lon": 0.0, "is_disabled": 0}, {"rental_uris": {"android": "https://dc.lft.to/lastmile_qr_scan", "ios": "https://dc.lft.to/lastmile_qr_scan"}, "type": "electric_scooter", "lon": -77.00277233333334, "name": "777674225e07206bab7023582914ea9c", "bike_id": "777674225e07206bab7023582914ea9c", "fusion_lat": 0.0, "is_reserved": 0, "lat": 38.93921016666667, "fusion_lon": 0.0, "is_disabled": 0}, {"rental_uris": {"android": "https://dc.lft.to/lastmile_qr_scan", "ios": "https://dc.lft.to/lastmile_qr_scan"},