{"data": {"bikes": [{"lat": 39.034304166666665, "is_disabled": 0, "type": "electric_bike", "lon": -77.0425745, "bike_id": "a94d2b35ab7eefdcf69ec3ba6eb67d0e", "fusion_lat": 0.0, "name": "a94d2b35ab7eefdcf69ec3ba6eb67d0e", "is_reserved": 0, "rental_uris": {"android": "https://dc.lft.to/lastmile_qr_scan", "ios": "https://dc.lft.to/lastmile_qr_scan"}, "fusion_lon": 0.0}, {"lat": 38.91819433333333, "is_disabled": 0, "type": "electric_scooter", "lon": -77.0345495, "bike_id": "941102e6a37bef71bfeaa54d93322908", "fusion_lat": 0.0, "name": "941102e6a37bef71bfeaa54d93322908", "is_reserved": 0, "rental_uris": {"android": "https://dc.lft.to/lastmile_qr_scan", "ios": "https://dc.lft.to/lastmile_qr_scan"}, "fusion_lon": 0.0}, {"lat": 38.9001175, "is_disabled": 0, "type": "electric_scooter", "lon": -77.030956, "bike_id": "d84c43d3f07fffbd9d7ed1589443b0b5", "fusion_lat": 0.0, "name": "d84c43d3f07fffbd9d7ed1589443b0b5", "is_reserved": 0, "rental_uris": {"android": "https://dc.lft.to/lastmile_qr_scan", "ios": "https://dc.lft.to/lastmile_qr_scan"}, "fusion_lon": 0.0}, {"lat": 38.91110883333333, "is_disabled": 0, "type": "electric_scooter", "lon": -77.04361183333333, "bike_id": "da6a838dbfa6e53aaedc4c45f40263c2", "fusion_lat": 0.0, "name": "da6a838dbfa6e53aaedc4c45f40263c2", "is_reserved": 0, "rental_uris": {"android": "https://dc.lft.to/lastmile_qr_scan", "ios": "https://dc.lft.to/lastmile_qr_scan"}, "fusion_lon": 0.0}, {"lat": 38.936558, "is_disabled": 0, "type": "electric_bike", "lon": -76.952202, "bike_id": "c3e6ae72557d90eb279786e49a07e681", "fusion_lat": 0.0, "name": "c3e6ae72557d90eb279786e49a07e681", "is_reserved": 0, "rental_uris": {"android": "https://dc.lft.to/lastmile_qr_scan", "ios": "https://dc.lft.to/lastmile_qr_scan"}, "fusion_lon": 0.0}, {"lat": 38.890700833333334, "is_disabled": 0, "type": "electric_scooter", "lon": -76.988375, "bike_id": "5253a6de7fdbe019b8b58b6e88cc905c", "fusion_lat": 0.0, "name": "5253a6de7fdbe019b8b58b6e88cc905c", "is_reserved": 0, "rental_uris": {"android": "https://dc.lft.to/lastmile_qr_scan", "ios": "https://dc.lft.to/lastmile_qr_scan"}, "fusion_lon": 0.0}, {"lat": 38.94552433333333, "is_disabled": 0, "type": "electric_bike", "lon": -76.89538933333333, "bike_id": "cb9b238aa30da569d078c2bb36663a64", "fusion_lat": 0.0, "name": "cb9b238aa30da569d078c2bb36663a64", "is_reserved": 0, "rental_uris": {"android": "https://dc.lft.to/lastmile_qr_scan", "ios": "https://dc.lft.to/lastmile_qr_scan"}, "fusion_lon": 0.0}, {"lat": 38.893502833333336, "is_disabled": 0, "type": "electric_scooter", "lon": -77.04146183333333, "bike_id": "0aa31c0efb491848048b7a32adda1581", "fusion_lat": 0.0, "name": "0aa31c0efb491848048b7a32adda1581", "is_reserved": 0, "rental_uris": {"android": "https://dc.lft.to/lastmile_qr_scan", "ios": "https://dc.lft.to/lastmile_qr_scan"}, "fusion_lon": 0.0}, {"lat": 38.851965, "is_disabled": 0, "type": "electric_scooter", "lon": -76.9763235, "bike_id": "7ad3edfae41d41a31365cd26652c4d37", "fusion_lat": 0.0, "name": "7ad3edfae41d41a31365cd26652c4d37", "is_reserved": 0, "rental_uris": {"android": "https://dc.lft.to/lastmile_qr_scan", "ios": "https://dc.lft.to/lastmile_qr_scan"}, "fusion_lon": 0.0}, {"lat": 38.90798483333333, "is_disabled": 0, "type": "electric_scooter", "lon": -77.04260166666667, "bike_id": "a377d6ec0a790d32ab6c9fc43ee48129", "fusion_lat": 0.0, "name": "a377d6ec0a790d32ab6c9fc43ee48129", "is_reserved": 0, "rental_uris": {"android": "https://dc.lft.to/lastmile_qr_scan", "ios": "https://dc.lft.to/lastmile_qr_scan"}, "fusion_lon": 0.0}, {"lat": 38.925854333333334, "is_disabled": 0, "type": "electric_scooter", "lon": -77.04405566666667, "bike_id": "c4180de6c20c6a1d887578ecb1e6629c", "fusion_lat": 0.0, "name": "c4180de6c20c6a1d887578ecb1e6629c", "is_reserved": 0, "rental_uris": {"android": "https://dc.lft.to/lastmile_qr_scan", "ios": "https://dc.lft.to/lastmile_qr_scan"}, "fusion_lon": 0.0}, {"lat": 38.905265, "is_disabled": 0, "type": "electric_scooter", "lon": -77.06182316666667, "bike_id": "8a8f4a70fe75f6e9382aa7031bd6c867", "fusion_lat": 0.0, "name": "8a8f4a70fe75f6e9382aa7031bd6c867", "is_reserved": 0, "rental_uris": {"android": "https://dc.lft.to/lastmile_qr_scan", "ios": "https://dc.lft.to/lastmile_qr_scan"}, "fusion_lon": 0.0}, {"lat": 38.90879116666667, "is_disabled": 0, "type": "electric_scooter", "lon": -77.0435035, "bike_id": "c5dc722683878f39d58a896c30d2405b", "fusion_lat": 0.0, "name": "c5dc722683878f39d58a896c30d2405b", "is_reserved": 0, "rental_uris": {"android": "https://dc.lft.to/lastmile_qr_scan", "ios": "https://dc.lft.to/lastmile_qr_scan"}, "fusion_lon": 0.0}, {"lat": 38.9368975, "is_disabled": 0, "type": "electric_scooter", "lon": -77.02410816666666, "bike_id": "96fac62a7666d94a9a10f424e528bd5c", "fusion_lat": 0.0, "name": "96fac62a7666d94a9a10f424e528bd5c", "is_reserved": 0, "rental_uris": {"android": "https://dc.lft.to/lastmile_qr_scan", "ios": "https://dc.lft.to/lastmile_qr_scan"}, "fusion_lon": 0.0}, {"lat": 38.900096833333336, "is_disabled": 0, "type": "electric_scooter", "lon": -77.0467055, "bike_id": "f648089d18dd20c41b2d848036f81644", "fusion_lat": 0.0, "name": "f648089d18dd20c41b2d848036f81644", "is_reserved": 0, "rental_uris": {"android": "https://dc.lft.to/lastmile_qr_scan", "ios": "https://dc.lft.to/lastmile_qr_scan"}, "fusion_lon": 0.0}, {"lat": 38.90964116666667, "is_disabled": 0, "type": "electric_scooter", "lon": -77.04822516666667, "bike_id": "e1678c8c1a639cd92d197bd4b34075d5", "fusion_lat": 0.0, "name": "e1678c8c1a639cd92d197bd4b34075d5", "is_reserved": 0, "rental_uris": {"android": "https://dc.lft.to/lastmile_qr_scan", "ios": "https://dc.lft.to/lastmile_qr_scan"}, "fusion_lon": 0.0}, {"lat": 38.892187, "is_disabled": 0, "type": "electric_scooter", "lon": -77.0278215, "bike_id": "df5996ac73dea5a9a23a10002e553ebc", "fusion_lat": 0.0, "name": "df5996ac73dea5a9a23a10002e553ebc", "is_reserved": 0, "rental_uris": {"android": "https://dc.lft.to/lastmile_qr_scan", "ios": "https://dc.lft.to/lastmile_qr_scan"}, "fusion_lon": 0.0}, {"lat": 38.86507966666667, "is_disabled": 0, "type": "electric_scooter", "lon": -76.98977816666667, "bike_id": "e6111927b40429fee3879b139d4e5b27", "fusion_lat": 0.0, "name": "e6111927b40429fee3879b139d4e5b27", "is_reserved": 0, "rental_uris": {"android": "https://dc.lft.to/lastmile_qr_scan", "ios": "https://dc.lft.to/lastmile_qr_scan"}, "fusion_lon": 0.0}, {"lat": 38.9342625, "is_disabled": 0, "type": "electric_scooter", "lon": -77.04003866666666, "bike_id": "e9f36ca0112f1dd0b4ba50de301deb5e", "fusion_lat": 0.0, "name": "e9f36ca0112f1dd0b4ba50de301deb5e", "is_reserved": 0, "rental_uris": {"android": "https://dc.lft.to/lastmile_qr_scan", "ios": "https://dc.lft.to/lastmile_qr_scan"}, "fusion_lon": 0.0}, {"lat": 38.90319183333333, "is_disabled": 0, "type": "electric_scooter", "lon": -77.04176383333333, "bike_id": "e02e1f974707f4bab716b44888646a86", "fusion_lat": 0.0, "name": "e02e1f974707f4bab716b44888646a86", "is_reserved": 0, "rental_uris": {"android": "https://dc.lft.to/lastmile_qr_scan", "ios": "https://dc.lft.to/lastmile_qr_scan"}, "fusion_lon": 0.0}, {"lat": 38.932555666666666, "is_disabled": 0, "type": "electric_scooter", "lon": -77.0327945, "bike_id": "8143f3896b9c639887b1e22fa0bcfbea", "fusion_lat": 0.0, "name": "8143f3896b9c639887b1e22fa0bcfbea", "is_reserved": 0, "rental_uris": {"android": "https://dc.lft.to/lastmile_qr_scan", "ios": "https://dc.lft.to/lastmile_qr_scan"}, "fusion_lon": 0.0}, {"lat": 38.883728833333336, "is_disabled": 0, "type": "electric_scooter", "lon": -76.99517133333333, "bike_id": "0da146f352192be4c7a8947bbd88dce6", "fusion_lat": 0.0, "name": "0da146f352192be4c7a8947bbd88dce6", "is_reserved": 0, "rental_uris": {"android": "https://dc.lft.to/lastmile_qr_scan", "ios": "https://dc.lft.to/lastmile_qr_scan"}, "fusion_lon": 0.0}, {"lat": 38.883321, "is_disabled": 0, "type": "electric_scooter", "lon": -77.00934183333334, "bike_id": "a98f17084178bfc93d467fcff529043c", "fusion_lat": 0.0, "name": "a98f17084178bfc93d467fcff529043c", "is_reserved": 0, "rental_uris": {"android": "https://dc.lft.to/lastmile_qr_scan", "ios": "https://dc.lft.to/lastmile_qr_scan"}, "fusion_lon": 0.0}, {"lat": 38.91423266666666, "is_disabled": 0, "type": "electric_scooter", "lon": -77.03183266666667, "bike_id": "00fc14c9e24ffeb843565df3e1dbd217", "fusion_lat": 0.0, "name": "00fc14c9e24ffeb843565df3e1dbd217", "is_reserved": 0, "rental_uris": {"android": "https://dc.lft.to/lastmile_qr_scan", "ios": "https://dc.lft.to/lastmile_qr_scan"}, "fusion_lon": 0.0}, {"lat": 38.89220483333333, "is_disabled": 0, "type": "electric_scooter", "lon": -77.02627866666667, "bike_id": "73fcba1068780fe2c05e9fb09004fabb", "fusion_lat": 0.0, "name": "73fcba1068780fe2c05e9fb09004fabb", "is_reserved": 0, "rental_uris": {"android": "https://dc.lft.to/lastmile_qr_scan", "ios": "https://dc.lft.to/lastmile_qr_scan"}, "fusion_lon": 0.0}, {"lat": 38.90684383333333, "is_disabled": 0, "type": "electric_scooter", "lon": -77.02692466666667, "bike_id": "ab39d13f55c5ea6676a37da93120e6fd", "fusion_lat": 0.0, "name": "ab39d13f55c5ea6676a37da93120e6fd", "is_reserved": 0, "rental_uris": {"android": "https://dc.lft.to/lastmile_qr_scan", "ios": "https://dc.lft.to/lastmile_qr_scan"}, "fusion_lon": 0.0}, {"lat": 38.79323083333333, "is_disabled": 0, "type": "electric_bike", "lon": -77.04017133333333, "bike_id": "e5120660eeabad07884ba1a67e06f030", "fusion_lat": 0.0, "name": "e5120660eeabad07884ba1a67e06f030", "is_reserved": 0, "rental_uris": {"android": "https://dc.lft.to/lastmile_qr_scan", "ios": "https://dc.lft.to/lastmile_qr_scan"}, "fusion_lon": 0.0}, {"lat": 38.873688666666666, "is_disabled": 0, "type": "electric_bike", "lon": -77.11803766666667, "bike_id": "2d45035e55106630d9786259da06e9cb", "fusion_lat": 0.0, "name": "2d45035e55106630d9786259da06e9cb", "is_reserved": 0, "rental_uris": {"android": "https://dc.lft.to/lastmile_qr_scan", "ios": "https://dc.lft.to/lastmile_qr_scan"}, "fusion_lon": 0.0}, {"lat": 38.931929333333336, "is_disabled": 0, "type": "electric_scooter", "lon": -77.02833516666666, "bike_id": "cfa796851bb11ab61cc5446df92834fd", "fusion_lat": 0.0, "name": "cfa796851bb11ab61cc5446df92834fd", "is_reserved": 0, "rental_uris": {"android": "https://dc.lft.to/lastmile_qr_scan", "ios": "https://dc.lft.to/lastmile_qr_scan"}, "fusion_lon": 0.0}, {"lat": 38.94903933333333, "is_disabled": 0, "type": "electric_bike", "lon": -76.97239233333333, "bike_id": "a4e0b3f78bc61de145476dce5277ded5", "fusion_lat": 0.0, "name": "a4e0b3f78bc61de145476dce5277ded5", "is_reserved": 0, "rental_uris": {"android": "https://dc.lft.to/lastmile_qr_scan", "ios": "https://dc.lft.to/lastmile_qr_scan"}, "fusion_lon": 0.0}, {"lat": 38.902649, "is_disabled": 0, "type": "electric_scooter", "lon": -77.01755433333334, "bike_id": "1974d051d7de28f35d5d0f1651ac64d1", "fusion_lat": 0.0, "name": "1974d051d7de28f35d5d0f1651ac64d1", "is_reserved": 0, "rental_uris": {"android": "https://dc.lft.to/lastmile_qr_scan", "ios": "https://dc.lft.to/lastmile_qr_scan"}, "fusion_lon": 0.0}, {"lat": 38.91329966666667, "is_disabled": 0, "type": "electric_scooter", "lon": -77.032015, "bike_id": "6b753cbd258fc5b07daebd14e8f63ca2", "fusion_lat": 0.0, "name": "6b753cbd258fc5b07daebd14e8f63ca2", "is_reserved": 0, "rental_uris": {"android": "https://dc.lft.to/lastmile_qr_scan", "ios": "https://dc.lft.to/lastmile_qr_scan"}, "fusion_lon": 0.0}, {"lat": 38.89895816666667, "is_disabled": 0, "type": "electric_scooter", "lon": -77.0324735, "bike_id": "93036898e4a9e9b54d4cae3c195cf482", "fusion_lat": 0.0, "name": "93036898e4a9e9b54d4cae3c195cf482", "is_reserved": 0, "rental_uris": {"android": "https://dc.lft.to/lastmile_qr_scan", "ios": "https://dc.lft.to/lastmile_qr_scan"}, "fusion_lon": 0.0}, {"lat": 38.90263483333333, "is_disabled": 0, "type": "electric_scooter", "lon": -77.0307655, "bike_id": "c04cb120ad79f7ba429ee8a38be8cdfc", "fusion_lat": 0.0, "name": "c04cb120ad79f7ba429ee8a38be8cdfc", "is_reserved": 0, "rental_uris": {"android": "https://dc.lft.to/lastmile_qr_scan", "ios": "https://dc.lft.to/lastmile_qr_scan"}, "fusion_lon": 0.0}, {"lat": 38.90317433333333, "is_disabled": 0, "type": "electric_scooter", "lon": -77.0218685, "bike_id": "8b38283de6ead7c0e6bbc7af002db497", "fusion_lat": 0.0, "name": "8b38283de6ead7c0e6bbc7af002db497", "is_reserved": 0, "rental_uris": {"android": "https://dc.lft.to/lastmile_qr_scan", "ios": "https://dc.lft.to/lastmile_qr_scan"}, "fusion_lon": 0.0}, {"lat": 38.9179655, "is_disabled": 0, "type": "electric_scooter", "lon": -77.0343855, "bike_id": "f870e90eac578d2b447b169d0e79493a", "fusion_lat": 0.0, "name": "f870e90eac578d2b447b169d0e79493a", "is_reserved": 0, "rental_uris": {"android": "https://dc.lft.to/lastmile_qr_scan", "ios": "https://dc.lft.to/lastmile_qr_scan"}, "fusion_lon": 0.0}, {"lat": 38.88657383333333, "is_disabled": 0, "type": "electric_scooter", "lon": -77.02152916666667, "bike_id": "e8ac7b0408cd26ab4e91443bf7d6fca3", "fusion_lat": 0.0, "name": "e8ac7b0408cd26ab4e91443bf7d6fca3", "is_reserved": 0, "rental_uris": {"android": "https://dc.lft.to/lastmile_qr_scan", "ios": "https://dc.lft.to/lastmile_qr_scan"}, "fusion_lon": 0.0}, {"lat": 38.95076733333333, "is_disabled": 0, "type": "electric_scooter", "lon": -77.02718783333333, "bike_id": "64a4fac5b196268b302c6850a21d40c8", "fusion_lat": 0.0, "name": "64a4fac5b196268b302c6850a21d40c8", "is_reserved": 0, "rental_uris": {"android": "https://dc.lft.to/lastmile_qr_scan", "ios": "https://dc.lft.to/lastmile_qr_scan"}, "fusion_lon": 0.0}, {"lat": 38.9080895, "is_disabled": 0, "type": "electric_scooter", "lon": -77.04347966666667, "bike_id": "eb2f654327d647bb3d01d45cc60bc8e5", "fusion_lat": 0.0, "name": "eb2f654327d647bb3d01d45cc60bc8e5", "is_reserved": 0, "rental_uris": {"android": "https://dc.lft.to/lastmile_qr_scan", "ios": "https://dc.lft.to/lastmile_qr_scan"}, "fusion_lon": 0.0}, {"lat": 38.911243166666665, "is_disabled": 0, "type": "electric_scooter", "lon": -77.02695283333334, "bike_id": "456610e1a02fa2f8b69d46210412607c", "fusion_lat": 0.0, "name": "456610e1a02fa2f8b69d46210412607c", "is_reserved": 0, "rental_uris": {"android": "https://dc.lft.to/lastmile_qr_scan", "ios": "https://dc.lft.to/lastmile_qr_scan"}, "fusion_lon": 0.0}, {"lat": 38.92157733333333, "is_disabled": 0, "type": "electric_scooter", "lon": -77.03513933333333, "bike_id": "0671f23e9590fc961e32e8a722e60bf4", "fusion_lat": 0.0, "name": "0671f23e9590fc961e32e8a722e60bf4", "is_reserved": 0, "rental_uris": {"android": "https://dc.lft.to/lastmile_qr_scan", "ios": "https://dc.lft.to/lastmile_qr_scan"}, "fusion_lon": 0.0}, {"lat": 38.905187166666664, "is_disabled": 0, "type": "electric_scooter", "lon": -77.05115883333333, "bike_id": "6ed52c678b8b35141e6fd0d7e1d060da", "fusion_lat": 0.0, "name": "6ed52c678b8b35141e6fd0d7e1d060da", "is_reserved": 0, "rental_uris": {"android": "https://dc.lft.to/lastmile_qr_scan", "ios": "https://dc.lft.to/lastmile_qr_scan"}, "fusion_lon": 0.0}, {"lat": 38.87721583333333, "is_disabled": 0, "type": "electric_scooter", "lon": -77.01675016666667, "bike_id": "8a5916a35a201c45bb9743f5c6c9db39", "fusion_lat": 0.0, "name": "8a5916a35a201c45bb9743f5c6c9db39", "is_reserved": 0, "rental_uris": {"android": "https://dc.lft.to/lastmile_qr_scan", "ios": "https://dc.lft.to/lastmile_qr_scan"}, "fusion_lon": 0.0}, {"lat": 38.9341265, "is_disabled": 0, "type": "electric_scooter", "lon": -77.04267283333333, "bike_id": "0ed9a6479a22ef04784da4def6973b8e", "fusion_lat": 0.0, "name": "0ed9a6479a22ef04784da4def6973b8e", "is_reserved": 0, "rental_uris": {"android": "https://dc.lft.to/lastmile_qr_scan", "ios": "https://dc.lft.to/lastmile_qr_scan"}, "fusion_lon": 0.0}, {"lat": 38.906524, "is_disabled": 0, "type": "electric_scooter", "lon": -77.02979283333333, "bike_id": "4d93f07196487bf42489020a20119c38", "fusion_lat": 0.0, "name": "4d93f07196487bf42489020a20119c38", "is_reserved": 0, "rental_uris": {"android": "https://dc.lft.to/lastmile_qr_scan", "ios": "https://dc.lft.to/lastmile_qr_scan"}, "fusion_lon": 0.0}, {"lat": 38.9419045, "is_disabled": 0, "type": "electric_scooter", "lon": -77.04014683333334, "bike_id": "a8d4057c12716fdda27bb6f3353e5dde", "fusion_lat": 0.0, "name": "a8d4057c12716fdda27bb6f3353e5dde", "is_reserved": 0, "rental_uris": {"android": "https://dc.lft.to/lastmile_qr_scan", "ios": "https://dc.lft.to/lastmile_qr_scan"}, "fusion_lon": 0.0}, {"lat": 38.9165695, "is_disabled": 0, "type": "electric_scooter", "lon": -77.02272666666667, "bike_id": "741c962ee54cfd6755d3ddc026800c94", "fusion_lat": 0.0, "name": "741c962ee54cfd6755d3ddc026800c94", "is_reserved": 0, "rental_uris": {"android": "https://dc.lft.to/lastmile_qr_scan", "ios": "https://dc.lft.to/lastmile_qr_scan"}, "fusion_lon": 0.0}, {"lat": 38.908071, "is_disabled": 0, "type": "electric_scooter", "lon": -77.04356216666666, "bike_id": "896bcdae0011164c42dde756b7f3645f", "fusion_lat": 0.0, "name": "896bcdae0011164c42dde756b7f3645f", "is_reserved": 0, "rental_uris": {"android": "https://dc.lft.to/lastmile_qr_scan", "ios": "https://dc.lft.to/lastmile_qr_scan"}, "fusion_lon": 0.0}, {"lat": 38.9099735, "is_disabled": 0, "type": "electric_scooter", "lon": -77.04009516666666, "bike_id": "20c61925dde249536e15c29a6d3ad447", "fusion_lat": 0.0, "name": "20c61925dde249536e15c29a6d3ad447", "is_reserved": 0, "rental_uris": {"android": "https://dc.lft.to/lastmile_qr_scan", "ios": "https://dc.lft.to/lastmile_qr_scan"}, "fusion_lon": 0.0}, {"lat": 38.892224666666664, "is_disabled": 0, "type": "electric_scooter", "lon": -77.04857066666666, "bike_id": "006314d4582dca59dd385dc48858f834", "fusion_lat": 0.0, "name": "006314d4582dca59dd385dc48858f834", "is_reserved": 0, "rental_uris": {"android": "https://dc.lft.to/lastmile_qr_scan", "ios": "https://dc.lft.to/lastmile_qr_scan"}, "fusion_lon": 0.0}, {"lat": 38.90778533333334, "is_disabled": 0, "type": "electric_scooter", "lon": -77.0400635, "bike_id": "543ea172a2fc802ab9a91b41c55fc001", "fusion_lat": 0.0, "name": "543ea172a2fc802ab9a91b41c55fc001", "is_reserved": 0, "rental_uris": {"android": "https://dc.lft.to/lastmile_qr_scan", "ios": "https://dc.lft.to/lastmile_qr_scan"}, "fusion_lon": 0.0}, {"lat": 38.92900433333333, "is_disabled": 0, "type": "electric_scooter", "lon": -77.01640966666666, "bike_id": "9f4eca27880c4706071318bc78b1a248", "fusion_lat": 0.0, "name": "9f4eca27880c4706071318bc78b1a248", "is_reserved": 0, "rental_uris": {"android": "https://dc.lft.to/lastmile_qr_scan", "ios": "https://dc.lft.to/lastmile_qr_scan"}, "fusion_lon": 0.0}, {"lat": 38.88568466666667, "is_disabled": 0, "type": "electric_bike", "lon": -77.08521, "bike_id": "9a33d303009f004b9c939f59b8cfe028", "fusion_lat": 0.0, "name": "9a33d303009f004b9c939f59b8cfe028", "is_reserved": 0, "rental_uris": {"android": "https://dc.lft.to/lastmile_qr_scan", "ios": "https://dc.lft.to/lastmile_qr_scan"}, "fusion_lon": 0.0}, {"lat": 38.899158666666665, "is_disabled": 0, "type": "electric_scooter", "lon": -76.9335115, "bike_id": "caf604529d48d001233f4424590ea5f3", "fusion_lat": 0.0, "name": "caf604529d48d001233f4424590ea5f3", "is_reserved": 0, "rental_uris": {"android": "https://dc.lft.to/lastmile_qr_scan", "ios": "https://dc.lft.to/lastmile_qr_scan"}, "fusion_lon": 0.0}, {"lat": 38.90727533333333, "is_disabled": 0, "type": "electric_scooter", "lon": -77.02416683333334, "bike_id": "b4aa6a614f97a8b37b1f954f6abfeaff", "fusion_lat": 0.0, "name": "b4aa6a614f97a8b37b1f954f6abfeaff", "is_reserved": 0, "rental_uris": {"android": "https://dc.lft.to/lastmile_qr_scan", "ios": "https://dc.lft.to/lastmile_qr_scan"}, "fusion_lon": 0.0}, {"lat": 38.8986995, "is_disabled": 0, "type": "electric_scooter", "lon": -77.01995533333333, "bike_id": "d9b06a22d08c3df3b732cd03e9854af4", "fusion_lat": 0.0, "name": "d9b06a22d08c3df3b732cd03e9854af4", "is_reserved": 0, "rental_uris": {"android": "https://dc.lft.to/lastmile_qr_scan", "ios": "https://dc.lft.to/lastmile_qr_scan"}, "fusion_lon": 0.0}, {"lat": 38.931238, "is_disabled": 0, "type": "electric_scooter", "lon": -77.03404216666667, "bike_id": "a3056f20bbab72a15ae06ae239809890", "fusion_lat": 0.0, "name": "a3056f20bbab72a15ae06ae239809890", "is_reserved": 0, "rental_uris": {"android": "https://dc.lft.to/lastmile_qr_scan", "ios": "https://dc.lft.to/lastmile_qr_scan"}, "fusion_lon": 0.0}, {"lat": 38.929793333333336, "is_disabled": 0, "type": "electric_scooter", "lon": -77.055059, "bike_id": "40e3d2b1e8ebdce6fa785afe26f1cb82", "fusion_lat": 0.0, "name": "40e3d2b1e8ebdce6fa785afe26f1cb82", "is_reserved": 0, "rental_uris": {"android": "https://dc.lft.to/lastmile_qr_scan", "ios": "https://dc.lft.to/lastmile_qr_scan"}, "fusion_lon": 0.0}, {"lat": 38.950608833333334, "is_disabled": 0, "type": "electric_bike", "lon": -77.007241, "bike_id": "38d3679c2baa423a6b688e75b467b6f7", "fusion_lat": 0.0, "name": "38d3679c2baa423a6b688e75b467b6f7", "is_reserved": 0, "rental_uris": {"android": "https://dc.lft.to/lastmile_qr_scan", "ios": "https://dc.lft.to/lastmile_qr_scan"}, "fusion_lon": 0.0}, {"lat": 38.8530995, "is_disabled": 0, "type": "electric_bike", "lon": -77.13128383333333, "bike_id": "c7629e7f346a40370cb862b45c796af1", "fusion_lat": 0.0, "name": "c7629e7f346a40370cb862b45c796af1", "is_reserved": 0, "rental_uris": {"android": "https://dc.lft.to/lastmile_qr_scan", "ios": "https://dc.lft.to/lastmile_qr_scan"}, "fusion_lon": 0.0}, {"lat": 38.922897666666664, "is_disabled": 0, "type": "electric_scooter", "lon": -77.03656966666667, "bike_id": "4cddb2fd4bad9d3ed52c076f6415f15f", "fusion_lat": 0.0, "name": "4cddb2fd4bad9d3ed52c076f6415f15f", "is_reserved": 0, "rental_uris": {"android": "https://dc.lft.to/lastmile_qr_scan", "ios": "https://dc.lft.to/lastmile_qr_scan"}, "fusion_lon": 0.0}, {"lat": 38.892495833333335, "is_disabled": 0, "type": "electric_scooter", "lon": -77.03956633333334, "bike_id": "5bf220f9cbc9c1394803a8d1c9f09922", "fusion_lat": 0.0, "name": "5bf220f9cbc9c1394803a8d1c9f09922", "is_reserved": 0, "rental_uris": {"android": "https://dc.lft.to/lastmile_qr_scan", "ios": "https://dc.lft.to/lastmile_qr_scan"}, "fusion_lon": 0.0}, {"lat": 38.899814166666665, "is_disabled": 0, "type": "electric_scooter", "lon": -77.03354183333333, "bike_id": "9855c1a4eddab903559d4e194b5a9d5f", "fusion_lat": 0.0, "name": "9855c1a4eddab903559d4e194b5a9d5f", "is_reserved": 0, "rental_uris": {"android": "https://dc.lft.to/lastmile_qr_scan", "ios": "https://dc.lft.to/lastmile_qr_scan"}, "fusion_lon": 0.0}, {"lat": 38.9407925, "is_disabled": 0, "type": "electric_scooter", "lon": -77.02392316666666, "bike_id": "bde35c4c65fe08e2787c7c5b8d2bf63f", "fusion_lat": 0.0, "name": "bde35c4c65fe08e2787c7c5b8d2bf63f", "is_reserved": 0, "rental_uris": {"android": "https://dc.lft.to/lastmile_qr_scan", "ios": "https://dc.lft.to/lastmile_qr_scan"}, "fusion_lon": 0.0}, {"lat": 38.917158, "is_disabled": 0, "type": "electric_scooter", "lon": -77.035638, "bike_id": "44eade63054f56da10cf00456e84b5e0", "fusion_lat": 0.0, "name": "44eade63054f56da10cf00456e84b5e0", "is_reserved": 0, "rental_uris": {"android": "https://dc.lft.to/lastmile_qr_scan", "ios": "https://dc.lft.to/lastmile_qr_scan"}, "fusion_lon": 0.0}, {"lat": 38.918141, "is_disabled": 0, "type": "electric_scooter", "lon": -77.03665816666667, "bike_id": "035d3ac0aeab5de98aac53f8deca3fd0", "fusion_lat": 0.0, "name": "035d3ac0aeab5de98aac53f8deca3fd0", "is_reserved": 0, "rental_uris": {"android": "https://dc.lft.to/lastmile_qr_scan", "ios": "https://dc.lft.to/lastmile_qr_scan"}, "fusion_lon": 0.0}, {"lat": 38.870855, "is_disabled": 0, "type": "electric_bike", "lon": -77.01209133333333, "bike_id": "0cc757f0f5593f1be1b2d73af23cb803", "fusion_lat": 0.0, "name": "0cc757f0f5593f1be1b2d73af23cb803", "is_reserved": 0, "rental_uris": {"android": "https://dc.lft.to/lastmile_qr_scan", "ios": "https://dc.lft.to/lastmile_qr_scan"}, "fusion_lon": 0.0}, {"lat": 38.925495, "is_disabled": 0, "type": "electric_scooter", "lon": -77.05270083333333, "bike_id": "8a3803d4abbed71b2d68b98ef0a8ffde", "fusion_lat": 0.0, "name": "8a3803d4abbed71b2d68b98ef0a8ffde", "is_reserved": 0, "rental_uris": {"android": "https://dc.lft.to/lastmile_qr_scan", "ios": "https://dc.lft.to/lastmile_qr_scan"}, "fusion_lon": 0.0}, {"lat": 38.936055, "is_disabled": 0, "type": "electric_scooter", "lon": -77.05856616666667, "bike_id": "6b38eeb24bdc110472c8b41942792d6e", "fusion_lat": 0.0, "name": "6b38eeb24bdc110472c8b41942792d6e", "is_reserved": 0, "rental_uris": {"android": "https://dc.lft.to/lastmile_qr_scan", "ios": "https://dc.lft.to/lastmile_qr_scan"}, "fusion_lon": 0.0}, {"lat": 38.92363816666666, "is_disabled": 0, "type": "electric_scooter", "lon": -77.0505405, "bike_id": "680c116e903710ebc2402d5a56b6b715", "fusion_lat": 0.0, "name": "680c116e903710ebc2402d5a56b6b715", "is_reserved": 0, "rental_uris": {"android": "https://dc.lft.to/lastmile_qr_scan", "ios": "https://dc.lft.to/lastmile_qr_scan"}, "fusion_lon": 0.0}, {"lat": 38.90257616666667, "is_disabled": 0, "type": "electric_scooter", "lon": -77.06257983333333, "bike_id": "144e68cee2a0292d9046cca56fbd0089", "fusion_lat": 0.0, "name": "144e68cee2a0292d9046cca56fbd0089", "is_reserved": 0, "rental_uris": {"android": "https://dc.lft.to/lastmile_qr_scan", "ios": "https://dc.lft.to/lastmile_qr_scan"}, "fusion_lon": 0.0}, {"lat": 38.91607166666667, "is_disabled": 0, "type": "electric_scooter", "lon": -77.0173065, "bike_id": "4d331f9b0c1ca1e88060599bdd04c9c4", "fusion_lat": 0.0, "name": "4d331f9b0c1ca1e88060599bdd04c9c4", "is_reserved": 0, "rental_uris": {"android": "https://dc.lft.to/lastmile_qr_scan", "ios": "https://dc.lft.to/lastmile_qr_scan"}, "fusion_lon": 0.0}, {"lat": 38.907893666666666, "is_disabled": 0, "type": "electric_scooter", "lon": -77.03204233333334, "bike_id": "e2efef2fdb8466983c3b3f57c9e2ee18", "fusion_lat": 0.0, "name": "e2efef2fdb8466983c3b3f57c9e2ee18", "is_reserved": 0, "rental_uris": {"android": "https://dc.lft.to/lastmile_qr_scan", "ios": "https://dc.lft.to/lastmile_qr_scan"}, "fusion_lon": 0.0}, {"lat": 38.95078083333333, "is_disabled": 0, "type": "electric_bike", "lon": -77.0119965, "bike_id": "ad0ada38b83fec67b7ad4605061ef0ae", "fusion_lat": 0.0, "name": "ad0ada38b83fec67b7ad4605061ef0ae", "is_reserved": 0, "rental_uris": {"android": "https://dc.lft.to/lastmile_qr_scan", "ios": "https://dc.lft.to/lastmile_qr_scan"}, "fusion_lon": 0.0}, {"lat": 38.8827035, "is_disabled": 0, "type": "electric_bike", "lon": -76.93247283333334, "bike_id": "17aa2bd64dc4aa6ab0aa7a7fa8639539", "fusion_lat": 0.0, "name": "17aa2bd64dc4aa6ab0aa7a7fa8639539", "is_reserved": 0, "rental_uris": {"android": "https://dc.lft.to/lastmile_qr_scan", "ios": "https://dc.lft.to/lastmile_qr_scan"}, "fusion_lon": 0.0}, {"lat": 38.90260966666666, "is_disabled": 0, "type": "electric_scooter", "lon": -77.04034933333334, "bike_id": "573f5c77e796f9a89bdd2af7dc23bbd9", "fusion_lat": 0.0, "name": "573f5c77e796f9a89bdd2af7dc23bbd9", "is_reserved": 0, "rental_uris": {"android": "https://dc.lft.to/lastmile_qr_scan", "ios": "https://dc.lft.to/lastmile_qr_scan"}, "fusion_lon": 0.0}, {"lat": 38.906227333333334, "is_disabled": 0, "type": "electric_scooter", "lon": -77.02183283333333, "bike_id": "1cde729814f1262e2e107659f8969d90", "fusion_lat": 0.0, "name": "1cde729814f1262e2e107659f8969d90", "is_reserved": 0, "rental_uris": {"android": "https://dc.lft.to/lastmile_qr_scan", "ios": "https://dc.lft.to/lastmile_qr_scan"}, "fusion_lon": 0.0}, {"lat": 38.866175, "is_disabled": 0, "type": "electric_scooter", "lon": -76.98663483333333, "bike_id": "30f0b2b6021f7cc724c03e33f21860c4", "fusion_lat": 0.0, "name": "30f0b2b6021f7cc724c03e33f21860c4", "is_reserved": 0, "rental_uris": {"android": "https://dc.lft.to/lastmile_qr_scan", "ios": "https://dc.lft.to/lastmile_qr_scan"}, "fusion_lon": 0.0}, {"lat": 38.90229033333333, "is_disabled": 0, "type": "electric_scooter", "lon": -77.06022083333333, "bike_id": "7425006c73e4f94a552c531148f54918", "fusion_lat": 0.0, "name": "7425006c73e4f94a552c531148f54918", "is_reserved": 0, "rental_uris": {"android": "https://dc.lft.to/lastmile_qr_scan", "ios": "https://dc.lft.to/lastmile_qr_scan"}, "fusion_lon": 0.0}, {"lat": 38.935792666666664, "is_disabled": 0, "type": "electric_scooter", "lon": -77.03755666666666, "bike_id": "caf8c3d5ef67ebaa95f9e14fbd8ca951", "fusion_lat": 0.0, "name": "caf8c3d5ef67ebaa95f9e14fbd8ca951", "is_reserved": 0, "rental_uris": {"android": "https://dc.lft.to/lastmile_qr_scan", "ios": "https://dc.lft.to/lastmile_qr_scan"}, "fusion_lon": 0.0}, {"lat": 38.915533, "is_disabled": 0, "type": "electric_scooter", "lon": -77.04175466666666, "bike_id": "16858825151b7d876395fb1fb7e5fc7d", "fusion_lat": 0.0, "name": "16858825151b7d876395fb1fb7e5fc7d", "is_reserved": 0, "rental_uris": {"android": "https://dc.lft.to/lastmile_qr_scan", "ios": "https://dc.lft.to/lastmile_qr_scan"}, "fusion_lon": 0.0}, {"lat": 38.901410166666665, "is_disabled": 0, "type": "electric_scooter", "lon": -77.0030425, "bike_id": "29bbbfbe98ddd3d230714af3d3149135", "fusion_lat": 0.0, "name": "29bbbfbe98ddd3d230714af3d3149135", "is_reserved": 0, "rental_uris": {"android": "https://dc.lft.to/lastmile_qr_scan", "ios": "https://dc.lft.to/lastmile_qr_scan"}, "fusion_lon": 0.0}, {"lat": 38.92353633333333, "is_disabled": 0, "type": "electric_scooter", "lon": -77.05021083333334, "bike_id": "5f0e483413c7cbb1113063fde5e14ac0", "fusion_lat": 0.0, "name": "5f0e483413c7cbb1113063fde5e14ac0", "is_reserved": 0, "rental_uris": {"android": "https://dc.lft.to/lastmile_qr_scan", "ios": "https://dc.lft.to/lastmile_qr_scan"}, "fusion_lon": 0.0}, {"lat": 38.896240666666664, "is_disabled": 0, "type": "electric_scooter", "lon": -76.99852133333333, "bike_id": "7ea959d426fec6ecdfc8dab4471990fc", "fusion_lat": 0.0, "name": "7ea959d426fec6ecdfc8dab4471990fc", "is_reserved": 0, "rental_uris": {"android": "https://dc.lft.to/lastmile_qr_scan", "ios": "https://dc.lft.to/lastmile_qr_scan"}, "fusion_lon": 0.0}, {"lat": 38.90960716666667, "is_disabled": 0, "type": "electric_scooter", "lon": -77.03841, "bike_id": "e59a01954bb0e0a926f312b9e68931f2", "fusion_lat": 0.0, "name": "e59a01954bb0e0a926f312b9e68931f2", "is_reserved": 0, "rental_uris": {"android": "https://dc.lft.to/lastmile_qr_scan", "ios": "https://dc.lft.to/lastmile_qr_scan"}, "fusion_lon": 0.0}, {"lat": 38.90922366666667, "is_disabled": 0, "type": "electric_scooter", "lon": -77.080267, "bike_id": "98e83cb69e8d466839d9eeb6b4f6e6a1", "fusion_lat": 0.0, "name": "98e83cb69e8d466839d9eeb6b4f6e6a1", "is_reserved": 0, "rental_uris": {"android": "https://dc.lft.to/lastmile_qr_scan", "ios": "https://dc.lft.to/lastmile_qr_scan"}, "fusion_lon": 0.0}, {"lat": 38.8773035, "is_disabled": 0, "type": "electric_bike", "lon": -77.11848866666666, "bike_id": "951f1a65573618f6c616b4cb8bd1f6bc", "fusion_lat": 0.0, "name": "951f1a65573618f6c616b4cb8bd1f6bc", "is_reserved": 0, "rental_uris": {"android": "https://dc.lft.to/lastmile_qr_scan", "ios": "https://dc.lft.to/lastmile_qr_scan"}, "fusion_lon": 0.0}, {"lat": 38.8674725, "is_disabled": 0, "type": "electric_scooter", "lon": -76.976623, "bike_id": "e9367986ca19342e6c8d43d7fda5781f", "fusion_lat": 0.0, "name": "e9367986ca19342e6c8d43d7fda5781f", "is_reserved": 0, "rental_uris": {"android": "https://dc.lft.to/lastmile_qr_scan", "ios": "https://dc.lft.to/lastmile_qr_scan"}, "fusion_lon": 0.0}, {"lat": 38.919929333333336, "is_disabled": 0, "type": "electric_scooter", "lon": -77.03958583333333, "bike_id": "1b277a33ba2d60dd34807da58c96c289", "fusion_lat": 0.0, "name": "1b277a33ba2d60dd34807da58c96c289", "is_reserved": 0, "rental_uris": {"android": "https://dc.lft.to/lastmile_qr_scan", "ios": "https://dc.lft.to/lastmile_qr_scan"}, "fusion_lon": 0.0}, {"lat": 38.92642016666667, "is_disabled": 0, "type": "electric_bike", "lon": -77.02838316666667, "bike_id": "6ddd1dfa8907069ca8edd40b1ea67366", "fusion_lat": 0.0, "name": "6ddd1dfa8907069ca8edd40b1ea67366", "is_reserved": 0, "rental_uris": {"android": "https://dc.lft.to/lastmile_qr_scan", "ios": "https://dc.lft.to/lastmile_qr_scan"}, "fusion_lon": 0.0}, {"lat": 38.94633233333333, "is_disabled": 0, "type": "electric_scooter", "lon": -77.01844733333333, "bike_id": "9ab111703b203787cc7c746b073e12ec", "fusion_lat": 0.0, "name": "9ab111703b203787cc7c746b073e12ec", "is_reserved": 0, "rental_uris": {"android": "https://dc.lft.to/lastmile_qr_scan", "ios": "https://dc.lft.to/lastmile_qr_scan"}, "fusion_lon": 0.0}, {"lat": 38.907290833333334, "is_disabled": 0, "type": "electric_scooter", "lon": -77.02763866666666, "bike_id": "0500ee10ddde3988336f148f4697ffb9", "fusion_lat": 0.0, "name": "0500ee10ddde3988336f148f4697ffb9", "is_reserved": 0, "rental_uris": {"android": "https://dc.lft.to/lastmile_qr_scan", "ios": "https://dc.lft.to/lastmile_qr_scan"}, "fusion_lon": 0.0}, {"lat": 38.89224083333333, "is_disabled": 0, "type": "electric_scooter", "lon": -77.03164016666666, "bike_id": "41c60f87d17ea9045c8ed0f8d60eb3f5", "fusion_lat": 0.0, "name": "41c60f87d17ea9045c8ed0f8d60eb3f5", "is_reserved": 0, "rental_uris": {"android": "https://dc.lft.to/lastmile_qr_scan", "ios": "https://dc.lft.to/lastmile_qr_scan"}, "fusion_lon": 0.0}, {"lat": 38.951844333333334, "is_disabled": 0, "type": "electric_bike", "lon": -76.93544066666666, "bike_id": "4dd0923a483d786dbbfaf6775f662fa8", "fusion_lat": 0.0, "name": "4dd0923a483d786dbbfaf6775f662fa8", "is_reserved": 0, "rental_uris": {"android": "https://dc.lft.to/lastmile_qr_scan", "ios": "https://dc.lft.to/lastmile_qr_scan"}, "fusion_lon": 0.0}, {"lat": 38.91334783333333, "is_disabled": 0, "type": "electric_scooter", "lon": -77.03179716666666, "bike_id": "1f1eff7c01b3321e042acb0de9b1406d", "fusion_lat": 0.0, "name": "1f1eff7c01b3321e042acb0de9b1406d", "is_reserved": 0, "rental_uris": {"android": "https://dc.lft.to/lastmile_qr_scan", "ios": "https://dc.lft.to/lastmile_qr_scan"}, "fusion_lon": 0.0}, {"lat": 38.9557165, "is_disabled": 0, "type": "electric_bike", "lon": -77.036543, "bike_id": "c6d54029e8c8bf6365f40c6c470addd0", "fusion_lat": 0.0, "name": "c6d54029e8c8bf6365f40c6c470addd0", "is_reserved": 0, "rental_uris": {"android": "https://dc.lft.to/lastmile_qr_scan", "ios": "https://dc.lft.to/lastmile_qr_scan"}, "fusion_lon": 0.0}, {"lat": 38.922787666666665, "is_disabled": 0, "type": "electric_scooter", "lon": -77.02975333333333, "bike_id": "a9dacab03451b4dc2059e3b151ff8ef0", "fusion_lat": 0.0, "name": "a9dacab03451b4dc2059e3b151ff8ef0", "is_reserved": 0, "rental_uris": {"android": "https://dc.lft.to/lastmile_qr_scan", "ios": "https://dc.lft.to/lastmile_qr_scan"}, "fusion_lon": 0.0}, {"lat": 38.95558416666667, "is_disabled": 0, "type": "electric_bike", "lon": -76.935508, "bike_id": "15e74dca9a1b433dcc3310e433f75839", "fusion_lat": 0.0, "name": "15e74dca9a1b433dcc3310e433f75839", "is_reserved": 0, "rental_uris": {"android": "https://dc.lft.to/lastmile_qr_scan", "ios": "https://dc.lft.to/lastmile_qr_scan"}, "fusion_lon": 0.0}, {"lat": 38.91851066666667, "is_disabled": 0, "type": "electric_scooter", "lon": -77.03446683333334, "bike_id": "eb90ca5e558bca043c8605bb9432eb5d", "fusion_lat": 0.0, "name": "eb90ca5e558bca043c8605bb9432eb5d", "is_reserved": 0, "rental_uris": {"android": "https://dc.lft.to/lastmile_qr_scan", "ios": "https://dc.lft.to/lastmile_qr_scan"}, "fusion_lon": 0.0}, {"lat": 38.899203166666666, "is_disabled": 0, "type": "electric_scooter", "lon": -76.9338225, "bike_id": "21ec8dfcadb78f0ade25e02ec44903c6", "fusion_lat": 0.0, "name": "21ec8dfcadb78f0ade25e02ec44903c6", "is_reserved": 0, "rental_uris": {"android": "https://dc.lft.to/lastmile_qr_scan", "ios": "https://dc.lft.to/lastmile_qr_scan"}, "fusion_lon": 0.0}, {"lat": 38.906758833333335, "is_disabled": 0, "type": "electric_scooter", "lon": -77.02711366666666, "bike_id": "b4f0a83851526f5cd875914ff71a6245", "fusion_lat": 0.0, "name": "b4f0a83851526f5cd875914ff71a6245", "is_reserved": 0, "rental_uris": {"android": "https://dc.lft.to/lastmile_qr_scan", "ios": "https://dc.lft.to/lastmile_qr_scan"}, "fusion_lon": 0.0}, {"lat": 38.8634735, "is_disabled": 0, "type": "electric_scooter", "lon": -76.99001866666667, "bike_id": "b83b1bf5be1ee9015ded43cbbe38af75", "fusion_lat": 0.0, "name": "b83b1bf5be1ee9015ded43cbbe38af75", "is_reserved": 0, "rental_uris": {"android": "https://dc.lft.to/lastmile_qr_scan", "ios": "https://dc.lft.to/lastmile_qr_scan"}, "fusion_lon": 0.0}, {"lat": 38.898794333333335, "is_disabled": 0, "type": "electric_scooter", "lon": -77.0533865, "bike_id": "a80dbda3ca78a08124ff80b4316e384a", "fusion_lat": 0.0, "name": "a80dbda3ca78a08124ff80b4316e384a", "is_reserved": 0, "rental_uris": {"android": "https://dc.lft.to/lastmile_qr_scan", "ios": "https://dc.lft.to/lastmile_qr_scan"}, "fusion_lon": 0.0}, {"lat": 38.95545716666667, "is_disabled": 0, "type": "electric_bike", "lon": -77.06921933333334, "bike_id": "40c37b35f79befaa0cb774489239a1f4", "fusion_lat": 0.0, "name": "40c37b35f79befaa0cb774489239a1f4", "is_reserved": 0, "rental_uris": {"android": "https://dc.lft.to/lastmile_qr_scan", "ios": "https://dc.lft.to/lastmile_qr_scan"}, "fusion_lon": 0.0}, {"lat": 38.898838166666664, "is_disabled": 0, "type": "electric_scooter", "lon": -76.931725, "bike_id": "0f0215c9699799a431102b3b64e45787", "fusion_lat": 0.0, "name": "0f0215c9699799a431102b3b64e45787", "is_reserved": 0, "rental_uris": {"android": "https://dc.lft.to/lastmile_qr_scan", "ios": "https://dc.lft.to/lastmile_qr_scan"}, "fusion_lon": 0.0}, {"lat": 38.90573966666667, "is_disabled": 0, "type": "electric_scooter", "lon": -77.00597283333333, "bike_id": "3652df15e11ed07dfc9999b5baf4fb91", "fusion_lat": 0.0, "name": "3652df15e11ed07dfc9999b5baf4fb91", "is_reserved": 0, "rental_uris": {"android": "https://dc.lft.to/lastmile_qr_scan", "ios": "https://dc.lft.to/lastmile_qr_scan"}, "fusion_lon": 0.0}, {"lat": 38.9097705, "is_disabled": 0, "type": "electric_scooter", "lon": -77.02180016666667, "bike_id": "dcbfa02912a3e92e373782203c7d752e", "fusion_lat": 0.0, "name": "dcbfa02912a3e92e373782203c7d752e", "is_reserved": 0, "rental_uris": {"android": "https://dc.lft.to/lastmile_qr_scan", "ios": "https://dc.lft.to/lastmile_qr_scan"}, "fusion_lon": 0.0}, {"lat": 38.868905166666664, "is_disabled": 0, "type": "electric_scooter", "lon": -76.983163, "bike_id": "e3cdbb39784783239c92b5b0b4b28d90", "fusion_lat": 0.0, "name": "e3cdbb39784783239c92b5b0b4b28d90", "is_reserved": 0, "rental_uris": {"android": "https://dc.lft.to/lastmile_qr_scan", "ios": "https://dc.lft.to/lastmile_qr_scan"}, "fusion_lon": 0.0}, {"lat": 38.912706666666665, "is_disabled": 0, "type": "electric_scooter", "lon": -77.044824, "bike_id": "ffa3b7b76a5893ce69ff802eb5faf649", "fusion_lat": 0.0, "name": "ffa3b7b76a5893ce69ff802eb5faf649", "is_reserved": 0, "rental_uris": {"android": "https://dc.lft.to/lastmile_qr_scan", "ios": "https://dc.lft.to/lastmile_qr_scan"}, "fusion_lon": 0.0}, {"lat": 38.90208416666667, "is_disabled": 0, "type": "electric_scooter", "lon": -76.99272783333333, "bike_id": "06f1d90fbe1ca0c47a5aa1ff75076986", "fusion_lat": 0.0, "name": "06f1d90fbe1ca0c47a5aa1ff75076986", "is_reserved": 0, "rental_uris": {"android": "https://dc.lft.to/lastmile_qr_scan", "ios": "https://dc.lft.to/lastmile_qr_scan"}, "fusion_lon": 0.0}, {"lat": 38.89942833333333, "is_disabled": 0, "type": "electric_scooter", "lon": -77.0282005, "bike_id": "3691fdf20d731d4a05f69eafd2b0ba12", "fusion_lat": 0.0, "name": "3691fdf20d731d4a05f69eafd2b0ba12", "is_reserved": 0, "rental_uris": {"android": "https://dc.lft.to/lastmile_qr_scan", "ios": "https://dc.lft.to/lastmile_qr_scan"}, "fusion_lon": 0.0}, {"lat": 38.91949483333333, "is_disabled": 0, "type": "electric_scooter", "lon": -77.07980766666667, "bike_id": "e2fe4fd144e949d081896464c2497ba7", "fusion_lat": 0.0, "name": "e2fe4fd144e949d081896464c2497ba7", "is_reserved": 0, "rental_uris": {"android": "https://dc.lft.to/lastmile_qr_scan", "ios": "https://dc.lft.to/lastmile_qr_scan"}, "fusion_lon": 0.0}, {"lat": 38.9348915, "is_disabled": 0, "type": "electric_bike", "lon": -77.02094616666666, "bike_id": "444f1669079cd0ac0e20bfb2f938275d", "fusion_lat": 0.0, "name": "444f1669079cd0ac0e20bfb2f938275d", "is_reserved": 0, "rental_uris": {"android": "https://dc.lft.to/lastmile_qr_scan", "ios": "https://dc.lft.to/lastmile_qr_scan"}, "fusion_lon": 0.0}, {"lat": 38.8989295, "is_disabled": 0, "type": "electric_scooter", "lon": -76.99725683333334, "bike_id": "c4369022028b9e316d7b48a287f8321b", "fusion_lat": 0.0, "name": "c4369022028b9e316d7b48a287f8321b", "is_reserved": 0, "rental_uris": {"android": "https://dc.lft.to/lastmile_qr_scan", "ios": "https://dc.lft.to/lastmile_qr_scan"}, "fusion_lon": 0.0}, {"lat": 38.893612, "is_disabled": 0, "type": "electric_scooter", "lon": -77.00332116666667, "bike_id": "63e64ad9e05c0dec58140ec1f662d944", "fusion_lat": 0.0, "name": "63e64ad9e05c0dec58140ec1f662d944", "is_reserved": 0, "rental_uris": {"android": "https://dc.lft.to/lastmile_qr_scan", "ios": "https://dc.lft.to/lastmile_qr_scan"}, "fusion_lon": 0.0}, {"lat": 38.90576333333333, "is_disabled": 0, "type": "electric_scooter", "lon": -77.00888133333333, "bike_id": "ca7a5449cd83ed384adfb46052af3d98", "fusion_lat": 0.0, "name": "ca7a5449cd83ed384adfb46052af3d98", "is_reserved": 0, "rental_uris": {"android": "https://dc.lft.to/lastmile_qr_scan", "ios": "https://dc.lft.to/lastmile_qr_scan"}, "fusion_lon": 0.0}, {"lat": 38.920415, "is_disabled": 0, "type": "electric_scooter", "lon": -77.02990733333333, "bike_id": "2015b1e1af8d1c6e36a9b28fd1abe2f9", "fusion_lat": 0.0, "name": "2015b1e1af8d1c6e36a9b28fd1abe2f9", "is_reserved": 0, "rental_uris": {"android": "https://dc.lft.to/lastmile_qr_scan", "ios": "https://dc.lft.to/lastmile_qr_scan"}, "fusion_lon": 0.0}, {"lat": 38.877222333333336, "is_disabled": 0, "type": "electric_scooter", "lon": -77.01757166666667, "bike_id": "e8f7e6b78e0a575114b8a76843ca4029", "fusion_lat": 0.0, "name": "e8f7e6b78e0a575114b8a76843ca4029", "is_reserved": 0, "rental_uris": {"android": "https://dc.lft.to/lastmile_qr_scan", "ios": "https://dc.lft.to/lastmile_qr_scan"}, "fusion_lon": 0.0}, {"lat": 38.8814305, "is_disabled": 0, "type": "electric_scooter", "lon": -76.99516866666667, "bike_id": "e9c93dac94bb24695826e119e2f61044", "fusion_lat": 0.0, "name": "e9c93dac94bb24695826e119e2f61044", "is_reserved": 0, "rental_uris": {"android": "https://dc.lft.to/lastmile_qr_scan", "ios": "https://dc.lft.to/lastmile_qr_scan"}, "fusion_lon": 0.0}, {"lat": 38.92233316666667, "is_disabled": 0, "type": "electric_scooter", "lon": -77.04246066666667, "bike_id": "5ecfa930aff45b3a089015aee07ae01e", "fusion_lat": 0.0, "name": "5ecfa930aff45b3a089015aee07ae01e", "is_reserved": 0, "rental_uris": {"android": "https://dc.lft.to/lastmile_qr_scan", "ios": "https://dc.lft.to/lastmile_qr_scan"}, "fusion_lon": 0.0}, {"lat": 38.922095166666665, "is_disabled": 0, "type": "electric_bike", "lon": -76.987935, "bike_id": "278f6c197c2353b4993c7b5c01f0f03e", "fusion_lat": 0.0, "name": "278f6c197c2353b4993c7b5c01f0f03e", "is_reserved": 0, "rental_uris": {"android": "https://dc.lft.to/lastmile_qr_scan", "ios": "https://dc.lft.to/lastmile_qr_scan"}, "fusion_lon": 0.0}, {"lat": 38.92477866666667, "is_disabled": 0, "type": "electric_scooter", "lon": -77.02220866666667, "bike_id": "5dbda14a5f55ee1e1172d055c61850d6", "fusion_lat": 0.0, "name": "5dbda14a5f55ee1e1172d055c61850d6", "is_reserved": 0, "rental_uris": {"android": "https://dc.lft.to/lastmile_qr_scan", "ios": "https://dc.lft.to/lastmile_qr_scan"}, "fusion_lon": 0.0}, {"lat": 38.932996833333334, "is_disabled": 0, "type": "electric_scooter", "lon": -77.03586516666667, "bike_id": "c8d10bb738835161e29da3fec10dd6ae", "fusion_lat": 0.0, "name": "c8d10bb738835161e29da3fec10dd6ae", "is_reserved": 0, "rental_uris": {"android": "https://dc.lft.to/lastmile_qr_scan", "ios": "https://dc.lft.to/lastmile_qr_scan"}, "fusion_lon": 0.0}, {"lat": 38.9156785, "is_disabled": 0, "type": "electric_scooter", "lon": -77.03151033333333, "bike_id": "9b55d9a70a5472cefe2a78e9ef95a363", "fusion_lat": 0.0, "name": "9b55d9a70a5472cefe2a78e9ef95a363", "is_reserved": 0, "rental_uris": {"android": "https://dc.lft.to/lastmile_qr_scan", "ios": "https://dc.lft.to/lastmile_qr_scan"}, "fusion_lon": 0.0}, {"lat": 38.93200933333333, "is_disabled": 0, "type": "electric_scooter", "lon": -77.04429783333333, "bike_id": "3e3e48b20b7a776a47921ab8032fe42f", "fusion_lat": 0.0, "name": "3e3e48b20b7a776a47921ab8032fe42f", "is_reserved": 0, "rental_uris": {"android": "https://dc.lft.to/lastmile_qr_scan", "ios": "https://dc.lft.to/lastmile_qr_scan"}, "fusion_lon": 0.0}, {"lat": 38.89376566666667, "is_disabled": 0, "type": "electric_scooter", "lon": -77.0502235, "bike_id": "9cdf53cc3f692d68f60d35c57c62e627", "fusion_lat": 0.0, "name": "9cdf53cc3f692d68f60d35c57c62e627", "is_reserved": 0, "rental_uris": {"android": "https://dc.lft.to/lastmile_qr_scan", "ios": "https://dc.lft.to/lastmile_qr_scan"}, "fusion_lon": 0.0}, {"lat": 38.87793116666667, "is_disabled": 0, "type": "electric_scooter", "lon": -76.994083, "bike_id": "c920f3283e37faca01c35966f162ab59", "fusion_lat": 0.0, "name": "c920f3283e37faca01c35966f162ab59", "is_reserved": 0, "rental_uris": {"android": "https://dc.lft.to/lastmile_qr_scan", "ios": "https://dc.lft.to/lastmile_qr_scan"}, "fusion_lon": 0.0}, {"lat": 38.90194566666667, "is_disabled": 0, "type": "electric_scooter", "lon": -77.02184583333333, "bike_id": "78bb8d44e5cb4b85a4bbf71c81a272d7", "fusion_lat": 0.0, "name": "78bb8d44e5cb4b85a4bbf71c81a272d7", "is_reserved": 0, "rental_uris": {"android": "https://dc.lft.to/lastmile_qr_scan", "ios": "https://dc.lft.to/lastmile_qr_scan"}, "fusion_lon": 0.0}, {"lat": 39.03898266666667, "is_disabled": 0, "type": "electric_bike", "lon": -77.0503565, "bike_id": "9ebf6c6fa8bf210f4015671beeea4c05", "fusion_lat": 0.0, "name": "9ebf6c6fa8bf210f4015671beeea4c05", "is_reserved": 0, "rental_uris": {"android": "https://dc.lft.to/lastmile_qr_scan", "ios": "https://dc.lft.to/lastmile_qr_scan"}, "fusion_lon": 0.0}, {"lat": 38.897441, "is_disabled": 0, "type": "electric_scooter", "lon": -77.023881, "bike_id": "3eae9d894985e48a1462c9e1cc4c6997", "fusion_lat": 0.0, "name": "3eae9d894985e48a1462c9e1cc4c6997", "is_reserved": 0, "rental_uris": {"android": "https://dc.lft.to/lastmile_qr_scan", "ios": "https://dc.lft.to/lastmile_qr_scan"}, "fusion_lon": 0.0}, {"lat": 38.90371183333333, "is_disabled": 0, "type": "electric_scooter", "lon": -76.99225733333333, "bike_id": "eeebd8a06c0fbab77bef52e8de7cc26e", "fusion_lat": 0.0, "name": "eeebd8a06c0fbab77bef52e8de7cc26e", "is_reserved": 0, "rental_uris": {"android": "https://dc.lft.to/lastmile_qr_scan", "ios": "https://dc.lft.to/lastmile_qr_scan"}, "fusion_lon": 0.0}, {"lat": 38.93539116666667, "is_disabled": 0, "type": "electric_scooter", "lon": -77.03262533333333, "bike_id": "0fa8e163007175b1afd8f1131eac99ec", "fusion_lat": 0.0, "name": "0fa8e163007175b1afd8f1131eac99ec", "is_reserved": 0, "rental_uris": {"android": "https://dc.lft.to/lastmile_qr_scan", "ios": "https://dc.lft.to/lastmile_qr_scan"}, "fusion_lon": 0.0}, {"lat": 38.89555133333333, "is_disabled": 0, "type": "electric_scooter", "lon": -77.00926533333333, "bike_id": "799c3a6c9f0dcad8a4a4ca93ef69970f", "fusion_lat": 0.0, "name": "799c3a6c9f0dcad8a4a4ca93ef69970f", "is_reserved": 0, "rental_uris": {"android": "https://dc.lft.to/lastmile_qr_scan", "ios": "https://dc.lft.to/lastmile_qr_scan"}, "fusion_lon": 0.0}, {"lat": 38.9241465, "is_disabled": 0, "type": "electric_scooter", "lon": -77.04450833333334, "bike_id": "ba73132b2f96c81748c55cf1e1a729d0", "fusion_lat": 0.0, "name": "ba73132b2f96c81748c55cf1e1a729d0", "is_reserved": 0, "rental_uris": {"android": "https://dc.lft.to/lastmile_qr_scan", "ios": "https://dc.lft.to/lastmile_qr_scan"}, "fusion_lon": 0.0}, {"lat": 38.9184145, "is_disabled": 0, "type": "electric_scooter", "lon": -77.0219835, "bike_id": "5cbc80067b630631f0b4e18f8b3eedbf", "fusion_lat": 0.0, "name": "5cbc80067b630631f0b4e18f8b3eedbf", "is_reserved": 0, "rental_uris": {"android": "https://dc.lft.to/lastmile_qr_scan", "ios": "https://dc.lft.to/lastmile_qr_scan"}, "fusion_lon": 0.0}, {"lat": 38.935310333333334, "is_disabled": 0, "type": "electric_scooter", "lon": -77.07291316666667, "bike_id": "771d12b03fbad973e4e1061624f5243d", "fusion_lat": 0.0, "name": "771d12b03fbad973e4e1061624f5243d", "is_reserved": 0, "rental_uris": {"android": "https://dc.lft.to/lastmile_qr_scan", "ios": "https://dc.lft.to/lastmile_qr_scan"}, "fusion_lon": 0.0}, {"lat": 38.892200833333334, "is_disabled": 0, "type": "electric_bike", "lon": -77.03221866666667, "bike_id": "59b4df25af235908e9fb077613b15d2e", "fusion_lat": 0.0, "name": "59b4df25af235908e9fb077613b15d2e", "is_reserved": 0, "rental_uris": {"android": "https://dc.lft.to/lastmile_qr_scan", "ios": "https://dc.lft.to/lastmile_qr_scan"}, "fusion_lon": 0.0}, {"lat": 38.91566383333333, "is_disabled": 0, "type": "electric_scooter", "lon": -77.039972, "bike_id": "247bbbdeac9028c659b172393f99bdd0", "fusion_lat": 0.0, "name": "247bbbdeac9028c659b172393f99bdd0", "is_reserved": 0, "rental_uris": {"android": "https://dc.lft.to/lastmile_qr_scan", "ios": "https://dc.lft.to/lastmile_qr_scan"}, "fusion_lon": 0.0}, {"lat": 38.91359583333333, "is_disabled": 0, "type": "electric_scooter", "lon": -77.03956683333334, "bike_id": "0995cb62101cb80de3643d6f43109440", "fusion_lat": 0.0, "name": "0995cb62101cb80de3643d6f43109440", "is_reserved": 0, "rental_uris": {"android": "https://dc.lft.to/lastmile_qr_scan", "ios": "https://dc.lft.to/lastmile_qr_scan"}, "fusion_lon": 0.0}, {"lat": 38.899456, "is_disabled": 0, "type": "electric_scooter", "lon": -77.02807966666667, "bike_id": "bd5c7b8978a2c991ef7534c4bc7c2d0a", "fusion_lat": 0.0, "name": "bd5c7b8978a2c991ef7534c4bc7c2d0a", "is_reserved": 0, "rental_uris": {"android": "https://dc.lft.to/lastmile_qr_scan", "ios": "https://dc.lft.to/lastmile_qr_scan"}, "fusion_lon": 0.0}, {"lat": 38.842773666666666, "is_disabled": 0, "type": "electric_bike", "lon": -76.98837316666666, "bike_id": "521a8c42c089be94936f48cb17957657", "fusion_lat": 0.0, "name": "521a8c42c089be94936f48cb17957657", "is_reserved": 0, "rental_uris": {"android": "https://dc.lft.to/lastmile_qr_scan", "ios": "https://dc.lft.to/lastmile_qr_scan"}, "fusion_lon": 0.0}, {"lat": 38.92610883333333, "is_disabled": 0, "type": "electric_scooter", "lon": -76.99606866666667, "bike_id": "27669e0dd33f5fbf9b6ba944da05c78b", "fusion_lat": 0.0, "name": "27669e0dd33f5fbf9b6ba944da05c78b", "is_reserved": 0, "rental_uris": {"android": "https://dc.lft.to/lastmile_qr_scan", "ios": "https://dc.lft.to/lastmile_qr_scan"}, "fusion_lon": 0.0}, {"lat": 38.90533533333333, "is_disabled": 0, "type": "electric_scooter", "lon": -77.04345183333334, "bike_id": "85aa8c9d862ffb2ac37c4ff00687a1a3", "fusion_lat": 0.0, "name": "85aa8c9d862ffb2ac37c4ff00687a1a3", "is_reserved": 0, "rental_uris": {"android": "https://dc.lft.to/lastmile_qr_scan", "ios": "https://dc.lft.to/lastmile_qr_scan"}, "fusion_lon": 0.0}, {"lat": 38.916852, "is_disabled": 0, "type": "electric_scooter", "lon": -77.0414495, "bike_id": "a3f8086e8f0691119ceedbb6f0670387", "fusion_lat": 0.0, "name": "a3f8086e8f0691119ceedbb6f0670387", "is_reserved": 0, "rental_uris": {"android": "https://dc.lft.to/lastmile_qr_scan", "ios": "https://dc.lft.to/lastmile_qr_scan"}, "fusion_lon": 0.0}, {"lat": 38.90539916666667, "is_disabled": 0, "type": "electric_scooter", "lon": -77.04174516666667, "bike_id": "656139613f95f2c4e59d7877c85fe38e", "fusion_lat": 0.0, "name": "656139613f95f2c4e59d7877c85fe38e", "is_reserved": 0, "rental_uris": {"android": "https://dc.lft.to/lastmile_qr_scan", "ios": "https://dc.lft.to/lastmile_qr_scan"}, "fusion_lon": 0.0}, {"lat": 38.9053395, "is_disabled": 0, "type": "electric_scooter", "lon": -77.04177883333334, "bike_id": "1ae36ceb78b897f71f7c0550d92e94b9", "fusion_lat": 0.0, "name": "1ae36ceb78b897f71f7c0550d92e94b9", "is_reserved": 0, "rental_uris": {"android": "https://dc.lft.to/lastmile_qr_scan", "ios": "https://dc.lft.to/lastmile_qr_scan"}, "fusion_lon": 0.0}, {"lat": 38.882635, "is_disabled": 0, "type": "electric_scooter", "lon": -77.00367366666667, "bike_id": "56dcd06dede77cd8b63156c55b1d5806", "fusion_lat": 0.0, "name": "56dcd06dede77cd8b63156c55b1d5806", "is_reserved": 0, "rental_uris": {"android": "https://dc.lft.to/lastmile_qr_scan", "ios": "https://dc.lft.to/lastmile_qr_scan"}, "fusion_lon": 0.0}, {"lat": 38.949255666666666, "is_disabled": 0, "type": "electric_scooter", "lon": -77.01934533333333, "bike_id": "6f7f7e3a619b4ccfaabec117f8339bc1", "fusion_lat": 0.0, "name": "6f7f7e3a619b4ccfaabec117f8339bc1", "is_reserved": 0, "rental_uris": {"android": "https://dc.lft.to/lastmile_qr_scan", "ios": "https://dc.lft.to/lastmile_qr_scan"}, "fusion_lon": 0.0}, {"lat": 38.86617283333333, "is_disabled": 0, "type": "electric_scooter", "lon": -76.98691933333333, "bike_id": "acaff6e18f6fafddbab6db1e655eccde", "fusion_lat": 0.0, "name": "acaff6e18f6fafddbab6db1e655eccde", "is_reserved": 0, "rental_uris": {"android": "https://dc.lft.to/lastmile_qr_scan", "ios": "https://dc.lft.to/lastmile_qr_scan"}, "fusion_lon": 0.0}, {"lat": 38.912663, "is_disabled": 0, "type": "electric_scooter", "lon": -77.022529, "bike_id": "3e55e7ea656dafa5039f53e61ff55224", "fusion_lat": 0.0, "name": "3e55e7ea656dafa5039f53e61ff55224", "is_reserved": 0, "rental_uris": {"android": "https://dc.lft.to/lastmile_qr_scan", "ios": "https://dc.lft.to/lastmile_qr_scan"}, "fusion_lon": 0.0}, {"lat": 38.88993933333333, "is_disabled": 0, "type": "electric_scooter", "lon": -76.95414083333333, "bike_id": "b1616ef94f3ce719303b745b1ae105fb", "fusion_lat": 0.0, "name": "b1616ef94f3ce719303b745b1ae105fb", "is_reserved": 0, "rental_uris": {"android": "https://dc.lft.to/lastmile_qr_scan", "ios": "https://dc.lft.to/lastmile_qr_scan"}, "fusion_lon": 0.0}, {"lat": 38.91996916666667, "is_disabled": 0, "type": "electric_scooter", "lon": -77.03222883333333, "bike_id": "e9af21b42142840172fec294c5b03a6e", "fusion_lat": 0.0, "name": "e9af21b42142840172fec294c5b03a6e", "is_reserved": 0, "rental_uris": {"android": "https://dc.lft.to/lastmile_qr_scan", "ios": "https://dc.lft.to/lastmile_qr_scan"}, "fusion_lon": 0.0}, {"lat": 38.908228333333334, "is_disabled": 0, "type": "electric_scooter", "lon": -77.04352266666666, "bike_id": "ef8ba61dfa6a5c1c22d81da233d6892a", "fusion_lat": 0.0, "name": "ef8ba61dfa6a5c1c22d81da233d6892a", "is_reserved": 0, "rental_uris": {"android": "https://dc.lft.to/lastmile_qr_scan", "ios": "https://dc.lft.to/lastmile_qr_scan"}, "fusion_lon": 0.0}, {"lat": 38.90735083333333, "is_disabled": 0, "type": "electric_scooter", "lon": -77.0271205, "bike_id": "897f6bf40a1c93ceb1a9e507e5a1a7d4", "fusion_lat": 0.0, "name": "897f6bf40a1c93ceb1a9e507e5a1a7d4", "is_reserved": 0, "rental_uris": {"android": "https://dc.lft.to/lastmile_qr_scan", "ios": "https://dc.lft.to/lastmile_qr_scan"}, "fusion_lon": 0.0}, {"lat": 38.903536833333334, "is_disabled": 0, "type": "electric_scooter", "lon": -77.03311166666667, "bike_id": "c678847f96124b8d46501c05bcae696c", "fusion_lat": 0.0, "name": "c678847f96124b8d46501c05bcae696c", "is_reserved": 0, "rental_uris": {"android": "https://dc.lft.to/lastmile_qr_scan", "ios": "https://dc.lft.to/lastmile_qr_scan"}, "fusion_lon": 0.0}, {"lat": 38.93276483333333, "is_disabled": 0, "type": "electric_scooter", "lon": -77.02837416666667, "bike_id": "9a11271bc6e0a5450f44b225261660b0", "fusion_lat": 0.0, "name": "9a11271bc6e0a5450f44b225261660b0", "is_reserved": 0, "rental_uris": {"android": "https://dc.lft.to/lastmile_qr_scan", "ios": "https://dc.lft.to/lastmile_qr_scan"}, "fusion_lon": 0.0}, {"lat": 38.91815483333333, "is_disabled": 0, "type": "electric_scooter", "lon": -77.03915433333333, "bike_id": "5c1a78f0fb7031b39805bc0164aed904", "fusion_lat": 0.0, "name": "5c1a78f0fb7031b39805bc0164aed904", "is_reserved": 0, "rental_uris": {"android": "https://dc.lft.to/lastmile_qr_scan", "ios": "https://dc.lft.to/lastmile_qr_scan"}, "fusion_lon": 0.0}, {"lat": 38.91732066666667, "is_disabled": 0, "type": "electric_scooter", "lon": -77.0365955, "bike_id": "b5b23229d5313ed167a9c4ad1bb828b7", "fusion_lat": 0.0, "name": "b5b23229d5313ed167a9c4ad1bb828b7", "is_reserved": 0, "rental_uris": {"android": "https://dc.lft.to/lastmile_qr_scan", "ios": "https://dc.lft.to/lastmile_qr_scan"}, "fusion_lon": 0.0}, {"lat": 38.917058833333336, "is_disabled": 0, "type": "electric_scooter", "lon": -77.03494183333333, "bike_id": "cf071bbba2638962941c56ce3fe87ebd", "fusion_lat": 0.0, "name": "cf071bbba2638962941c56ce3fe87ebd", "is_reserved": 0, "rental_uris": {"android": "https://dc.lft.to/lastmile_qr_scan", "ios": "https://dc.lft.to/lastmile_qr_scan"}, "fusion_lon": 0.0}, {"lat": 38.89829316666667, "is_disabled": 0, "type": "electric_bike", "lon": -77.025014, "bike_id": "2b822c816a96997711eb03dc742850fe", "fusion_lat": 0.0, "name": "2b822c816a96997711eb03dc742850fe", "is_reserved": 0, "rental_uris": {"android": "https://dc.lft.to/lastmile_qr_scan", "ios": "https://dc.lft.to/lastmile_qr_scan"}, "fusion_lon": 0.0}, {"lat": 38.996414, "is_disabled": 0, "type": "electric_bike", "lon": -77.0297685, "bike_id": "37611d257c2dfdb8868a80877fa7d8ff", "fusion_lat": 0.0, "name": "37611d257c2dfdb8868a80877fa7d8ff", "is_reserved": 0, "rental_uris": {"android": "https://dc.lft.to/lastmile_qr_scan", "ios": "https://dc.lft.to/lastmile_qr_scan"}, "fusion_lon": 0.0}, {"lat": 38.91560583333333, "is_disabled": 0, "type": "electric_scooter", "lon": -77.02981616666666, "bike_id": "212e09c737243adeab2cc8ccb00181d2", "fusion_lat": 0.0, "name": "212e09c737243adeab2cc8ccb00181d2", "is_reserved": 0, "rental_uris": {"android": "https://dc.lft.to/lastmile_qr_scan", "ios": "https://dc.lft.to/lastmile_qr_scan"}, "fusion_lon": 0.0}, {"lat": 38.88421016666667, "is_disabled": 0, "type": "electric_scooter", "lon": -77.02799133333333, "bike_id": "70068df9b105de450c7fb8466d94a0c7", "fusion_lat": 0.0, "name": "70068df9b105de450c7fb8466d94a0c7", "is_reserved": 0, "rental_uris": {"android": "https://dc.lft.to/lastmile_qr_scan", "ios": "https://dc.lft.to/lastmile_qr_scan"}, "fusion_lon": 0.0}, {"lat": 38.91148316666666, "is_disabled": 0, "type": "electric_scooter", "lon": -77.00450866666667, "bike_id": "52c606591ab5bf5c662a5ac64af6247f", "fusion_lat": 0.0, "name": "52c606591ab5bf5c662a5ac64af6247f", "is_reserved": 0, "rental_uris": {"android": "https://dc.lft.to/lastmile_qr_scan", "ios": "https://dc.lft.to/lastmile_qr_scan"}, "fusion_lon": 0.0}, {"lat": 38.90734416666667, "is_disabled": 0, "type": "electric_scooter", "lon": -77.02799916666666, "bike_id": "18bc156ff5ce23bcf1f5d78d7d2c42d5", "fusion_lat": 0.0, "name": "18bc156ff5ce23bcf1f5d78d7d2c42d5", "is_reserved": 0, "rental_uris": {"android": "https://dc.lft.to/lastmile_qr_scan", "ios": "https://dc.lft.to/lastmile_qr_scan"}, "fusion_lon": 0.0}, {"lat": 38.92601483333333, "is_disabled": 0, "type": "electric_scooter", "lon": -77.02161733333334, "bike_id": "0bf49d9f6c111d22ef2f4eabdd40a96a", "fusion_lat": 0.0, "name": "0bf49d9f6c111d22ef2f4eabdd40a96a", "is_reserved": 0, "rental_uris": {"android": "https://dc.lft.to/lastmile_qr_scan", "ios": "https://dc.lft.to/lastmile_qr_scan"}, "fusion_lon": 0.0}, {"lat": 38.883723, "is_disabled": 0, "type": "electric_scooter", "lon": -76.99517066666667, "bike_id": "4d05dedec7fb861fd6a6d252b6ccf806", "fusion_lat": 0.0, "name": "4d05dedec7fb861fd6a6d252b6ccf806", "is_reserved": 0, "rental_uris": {"android": "https://dc.lft.to/lastmile_qr_scan", "ios": "https://dc.lft.to/lastmile_qr_scan"}, "fusion_lon": 0.0}, {"lat": 38.9481855, "is_disabled": 0, "type": "electric_scooter", "lon": -77.0261805, "bike_id": "4c67f7b182398ba08be18381fa193c1c", "fusion_lat": 0.0, "name": "4c67f7b182398ba08be18381fa193c1c", "is_reserved": 0, "rental_uris": {"android": "https://dc.lft.to/lastmile_qr_scan", "ios": "https://dc.lft.to/lastmile_qr_scan"}, "fusion_lon": 0.0}, {"lat": 38.919636833333335, "is_disabled": 0, "type": "electric_bike", "lon": -76.97263283333334, "bike_id": "0cf4585f860562ad00bd84a0a8740d79", "fusion_lat": 0.0, "name": "0cf4585f860562ad00bd84a0a8740d79", "is_reserved": 0, "rental_uris": {"android": "https://dc.lft.to/lastmile_qr_scan", "ios": "https://dc.lft.to/lastmile_qr_scan"}, "fusion_lon": 0.0}, {"lat": 38.90004583333333, "is_disabled": 0, "type": "electric_scooter", "lon": -77.00676483333334, "bike_id": "ece3182fa7164c8d1f2d2c090f2afaf0", "fusion_lat": 0.0, "name": "ece3182fa7164c8d1f2d2c090f2afaf0", "is_reserved": 0, "rental_uris": {"android": "https://dc.lft.to/lastmile_qr_scan", "ios": "https://dc.lft.to/lastmile_qr_scan"}, "fusion_lon": 0.0}, {"lat": 38.899154, "is_disabled": 0, "type": "electric_scooter", "lon": -77.0410295, "bike_id": "2cffd442d1ee487c54341980f7c60954", "fusion_lat": 0.0, "name": "2cffd442d1ee487c54341980f7c60954", "is_reserved": 0, "rental_uris": {"android": "https://dc.lft.to/lastmile_qr_scan", "ios": "https://dc.lft.to/lastmile_qr_scan"}, "fusion_lon": 0.0}, {"lat": 38.87945166666667, "is_disabled": 0, "type": "electric_bike", "lon": -77.00406983333333, "bike_id": "971294e686da0a2c59481c6eb9b6188c", "fusion_lat": 0.0, "name": "971294e686da0a2c59481c6eb9b6188c", "is_reserved": 0, "rental_uris": {"android": "https://dc.lft.to/lastmile_qr_scan", "ios": "https://dc.lft.to/lastmile_qr_scan"}, "fusion_lon": 0.0}, {"lat": 38.9367545, "is_disabled": 0, "type": "electric_bike", "lon": -76.952044, "bike_id": "3a934e470a3fa8f9602e34a6e767a737", "fusion_lat": 0.0, "name": "3a934e470a3fa8f9602e34a6e767a737", "is_reserved": 0, "rental_uris": {"android": "https://dc.lft.to/lastmile_qr_scan", "ios": "https://dc.lft.to/lastmile_qr_scan"}, "fusion_lon": 0.0}, {"lat": 38.994297833333334, "is_disabled": 0, "type": "electric_bike", "lon": -77.02652183333333, "bike_id": "f77af26119057a7bcd307d819e35dc22", "fusion_lat": 0.0, "name": "f77af26119057a7bcd307d819e35dc22", "is_reserved": 0, "rental_uris": {"android": "https://dc.lft.to/lastmile_qr_scan", "ios": "https://dc.lft.to/lastmile_qr_scan"}, "fusion_lon": 0.0}, {"lat": 38.930098, "is_disabled": 0, "type": "electric_bike", "lon": -77.21649566666666, "bike_id": "3c4a7ffce6c7e15dcd7f74a405e7f79e", "fusion_lat": 0.0, "name": "3c4a7ffce6c7e15dcd7f74a405e7f79e", "is_reserved": 0, "rental_uris": {"android": "https://dc.lft.to/lastmile_qr_scan", "ios": "https://dc.lft.to/lastmile_qr_scan"}, "fusion_lon": 0.0}, {"lat": 38.912664666666664, "is_disabled": 0, "type": "electric_scooter", "lon": -77.03944666666666, "bike_id": "65a4e48b1acbee284657caa3a71a3b13", "fusion_lat": 0.0, "name": "65a4e48b1acbee284657caa3a71a3b13", "is_reserved": 0, "rental_uris": {"android": "https://dc.lft.to/lastmile_qr_scan", "ios": "https://dc.lft.to/lastmile_qr_scan"}, "fusion_lon": 0.0}, {"lat": 38.9072605, "is_disabled": 0, "type": "electric_scooter", "lon": -77.03438283333334, "bike_id": "11ba4d410a681163778cb66e6c2bc782", "fusion_lat": 0.0, "name": "11ba4d410a681163778cb66e6c2bc782", "is_reserved": 0, "rental_uris": {"android": "https://dc.lft.to/lastmile_qr_scan", "ios": "https://dc.lft.to/lastmile_qr_scan"}, "fusion_lon": 0.0}, {"lat": 38.9352035, "is_disabled": 0, "type": "electric_scooter", "lon": -77.03265716666667, "bike_id": "764d46ec84f338e0d6c2fc9225bd0135", "fusion_lat": 0.0, "name": "764d46ec84f338e0d6c2fc9225bd0135", "is_reserved": 0, "rental_uris": {"android": "https://dc.lft.to/lastmile_qr_scan", "ios": "https://dc.lft.to/lastmile_qr_scan"}, "fusion_lon": 0.0}, {"lat": 38.89511916666667, "is_disabled": 0, "type": "electric_scooter", "lon": -77.022027, "bike_id": "d2761f6e1236951b83aca0dc8c93b261", "fusion_lat": 0.0, "name": "d2761f6e1236951b83aca0dc8c93b261", "is_reserved": 0, "rental_uris": {"android": "https://dc.lft.to/lastmile_qr_scan", "ios": "https://dc.lft.to/lastmile_qr_scan"}, "fusion_lon": 0.0}, {"lat": 38.8519075, "is_disabled": 0, "type": "electric_bike", "lon": -76.9610975, "bike_id": "f2fe12f8cc3b420e89f34a98dd785d9a", "fusion_lat": 0.0, "name": "f2fe12f8cc3b420e89f34a98dd785d9a", "is_reserved": 0, "rental_uris": {"android": "https://dc.lft.to/lastmile_qr_scan", "ios": "https://dc.lft.to/lastmile_qr_scan"}, "fusion_lon": 0.0}, {"lat": 38.940975333333334, "is_disabled": 0, "type": "electric_scooter", "lon": -77.02110833333333, "bike_id": "c93bffe1163f81efe38a541261fc9a3e", "fusion_lat": 0.0, "name": "c93bffe1163f81efe38a541261fc9a3e", "is_reserved": 0, "rental_uris": {"android": "https://dc.lft.to/lastmile_qr_scan", "ios": "https://dc.lft.to/lastmile_qr_scan"}, "fusion_lon": 0.0}, {"lat": 38.92252916666666, "is_disabled": 0, "type": "electric_scooter", "lon": -77.0335045, "bike_id": "946a2314bb35df4d06e300339d5af429", "fusion_lat": 0.0, "name": "946a2314bb35df4d06e300339d5af429", "is_reserved": 0, "rental_uris": {"android": "https://dc.lft.to/lastmile_qr_scan", "ios": "https://dc.lft.to/lastmile_qr_scan"}, "fusion_lon": 0.0}, {"lat": 38.90853466666667, "is_disabled": 0, "type": "electric_scooter", "lon": -77.03854366666667, "bike_id": "80780b812ba4cf2a080e350796d84ded", "fusion_lat": 0.0, "name": "80780b812ba4cf2a080e350796d84ded", "is_reserved": 0, "rental_uris": {"android": "https://dc.lft.to/lastmile_qr_scan", "ios": "https://dc.lft.to/lastmile_qr_scan"}, "fusion_lon": 0.0}, {"lat": 38.898412, "is_disabled": 0, "type": "electric_scooter", "lon": -76.9463505, "bike_id": "afabf40738228fc1528cfe8b3412e98d", "fusion_lat": 0.0, "name": "afabf40738228fc1528cfe8b3412e98d", "is_reserved": 0, "rental_uris": {"android": "https://dc.lft.to/lastmile_qr_scan", "ios": "https://dc.lft.to/lastmile_qr_scan"}, "fusion_lon": 0.0}, {"lat": 38.9114145, "is_disabled": 0, "type": "electric_scooter", "lon": -77.01897933333333, "bike_id": "ba2f739f198fd7f46c6366c69d3b50cb", "fusion_lat": 0.0, "name": "ba2f739f198fd7f46c6366c69d3b50cb", "is_reserved": 0, "rental_uris": {"android": "https://dc.lft.to/lastmile_qr_scan", "ios": "https://dc.lft.to/lastmile_qr_scan"}, "fusion_lon": 0.0}, {"lat": 38.90594516666667, "is_disabled": 0, "type": "electric_scooter", "lon": -77.06263816666667, "bike_id": "b3c9da412fb04f321aa782989ef56a41", "fusion_lat": 0.0, "name": "b3c9da412fb04f321aa782989ef56a41", "is_reserved": 0, "rental_uris": {"android": "https://dc.lft.to/lastmile_qr_scan", "ios": "https://dc.lft.to/lastmile_qr_scan"}, "fusion_lon": 0.0}, {"lat": 38.918052833333334, "is_disabled": 0, "type": "electric_scooter", "lon": -77.0402875, "bike_id": "ed6b691f8d9109a20080a40d7cce0422", "fusion_lat": 0.0, "name": "ed6b691f8d9109a20080a40d7cce0422", "is_reserved": 0, "rental_uris": {"android": "https://dc.lft.to/lastmile_qr_scan", "ios": "https://dc.lft.to/lastmile_qr_scan"}, "fusion_lon": 0.0}, {"lat": 38.900575, "is_disabled": 0, "type": "electric_scooter", "lon": -77.00210616666666, "bike_id": "e2da01e0eadc512dd0746760c8deea30", "fusion_lat": 0.0, "name": "e2da01e0eadc512dd0746760c8deea30", "is_reserved": 0, "rental_uris": {"android": "https://dc.lft.to/lastmile_qr_scan", "ios": "https://dc.lft.to/lastmile_qr_scan"}, "fusion_lon": 0.0}, {"lat": 38.9443835, "is_disabled": 0, "type": "electric_scooter", "lon": -77.01507033333333, "bike_id": "4f501e34619a69e1a566129d4cf8ad3e", "fusion_lat": 0.0, "name": "4f501e34619a69e1a566129d4cf8ad3e", "is_reserved": 0, "rental_uris": {"android": "https://dc.lft.to/lastmile_qr_scan", "ios": "https://dc.lft.to/lastmile_qr_scan"}, "fusion_lon": 0.0}, {"lat": 38.855139333333334, "is_disabled": 0, "type": "electric_bike", "lon": -77.12029566666666, "bike_id": "f56b5f5308b1d3213fc411bd1e389b69", "fusion_lat": 0.0, "name": "f56b5f5308b1d3213fc411bd1e389b69", "is_reserved": 0, "rental_uris": {"android": "https://dc.lft.to/lastmile_qr_scan", "ios": "https://dc.lft.to/lastmile_qr_scan"}, "fusion_lon": 0.0}, {"lat": 38.91562183333333, "is_disabled": 0, "type": "electric_scooter", "lon": -77.03146083333333, "bike_id": "faeeba2205b62f16b1d8e2495e1fc956", "fusion_lat": 0.0, "name": "faeeba2205b62f16b1d8e2495e1fc956", "is_reserved": 0, "rental_uris": {"android": "https://dc.lft.to/lastmile_qr_scan", "ios": "https://dc.lft.to/lastmile_qr_scan"}, "fusion_lon": 0.0}, {"lat": 38.90318033333333, "is_disabled": 0, "type": "electric_scooter", "lon": -77.01176833333334, "bike_id": "3717a9a89a896ee19973a625a381264d", "fusion_lat": 0.0, "name": "3717a9a89a896ee19973a625a381264d", "is_reserved": 0, "rental_uris": {"android": "https://dc.lft.to/lastmile_qr_scan", "ios": "https://dc.lft.to/lastmile_qr_scan"}, "fusion_lon": 0.0}, {"lat": 38.9063205, "is_disabled": 0, "type": "electric_scooter", "lon": -77.006054, "bike_id": "4167101749c8c315e55727d20b8c378e", "fusion_lat": 0.0, "name": "4167101749c8c315e55727d20b8c378e", "is_reserved": 0, "rental_uris": {"android": "https://dc.lft.to/lastmile_qr_scan", "ios": "https://dc.lft.to/lastmile_qr_scan"}, "fusion_lon": 0.0}, {"lat": 38.903910333333336, "is_disabled": 0, "type": "electric_scooter", "lon": -77.0261965, "bike_id": "f13b5d5ac03409528f77dbb02163b852", "fusion_lat": 0.0, "name": "f13b5d5ac03409528f77dbb02163b852", "is_reserved": 0, "rental_uris": {"android": "https://dc.lft.to/lastmile_qr_scan", "ios": "https://dc.lft.to/lastmile_qr_scan"}, "fusion_lon": 0.0}, {"lat": 38.893556833333335, "is_disabled": 0, "type": "electric_scooter", "lon": -77.022118, "bike_id": "2beb76974fc48fd5908935bcf53d974e", "fusion_lat": 0.0, "name": "2beb76974fc48fd5908935bcf53d974e", "is_reserved": 0, "rental_uris": {"android": "https://dc.lft.to/lastmile_qr_scan", "ios": "https://dc.lft.to/lastmile_qr_scan"}, "fusion_lon": 0.0}, {"lat": 38.931533333333334, "is_disabled": 0, "type": "electric_scooter", "lon": -77.038357, "bike_id": "c1cafd1cc4016543503353013fbfa91c", "fusion_lat": 0.0, "name": "c1cafd1cc4016543503353013fbfa91c", "is_reserved": 0, "rental_uris": {"android": "https://dc.lft.to/lastmile_qr_scan", "ios": "https://dc.lft.to/lastmile_qr_scan"}, "fusion_lon": 0.0}, {"lat": 38.9220135, "is_disabled": 0, "type": "electric_scooter", "lon": -77.042542, "bike_id": "c44733452d2b0db0d5088b7fe942d860", "fusion_lat": 0.0, "name": "c44733452d2b0db0d5088b7fe942d860", "is_reserved": 0, "rental_uris": {"android": "https://dc.lft.to/lastmile_qr_scan", "ios": "https://dc.lft.to/lastmile_qr_scan"}, "fusion_lon": 0.0}, {"lat": 38.91562916666667, "is_disabled": 0, "type": "electric_scooter", "lon": -77.03147533333333, "bike_id": "f9257a41b163e4b481d0ef88f58ee0df", "fusion_lat": 0.0, "name": "f9257a41b163e4b481d0ef88f58ee0df", "is_reserved": 0, "rental_uris": {"android": "https://dc.lft.to/lastmile_qr_scan", "ios": "https://dc.lft.to/lastmile_qr_scan"}, "fusion_lon": 0.0}, {"lat": 38.9260235, "is_disabled": 0, "type": "electric_scooter", "lon": -77.02156533333333, "bike_id": "35f1783bbc0548317ff18e2b09f4956f", "fusion_lat": 0.0, "name": "35f1783bbc0548317ff18e2b09f4956f", "is_reserved": 0, "rental_uris": {"android": "https://dc.lft.to/lastmile_qr_scan", "ios": "https://dc.lft.to/lastmile_qr_scan"}, "fusion_lon": 0.0}, {"lat": 38.9660875, "is_disabled": 0, "type": "electric_scooter", "lon": -77.0205505, "bike_id": "db12644eab8a86885f277fc694538713", "fusion_lat": 0.0, "name": "db12644eab8a86885f277fc694538713", "is_reserved": 0, "rental_uris": {"android": "https://dc.lft.to/lastmile_qr_scan", "ios": "https://dc.lft.to/lastmile_qr_scan"}, "fusion_lon": 0.0}, {"lat": 38.896206166666666, "is_disabled": 0, "type": "electric_scooter", "lon": -77.03166216666666, "bike_id": "2fd3cdf4d49991ae053b674ceed57b2f", "fusion_lat": 0.0, "name": "2fd3cdf4d49991ae053b674ceed57b2f", "is_reserved": 0, "rental_uris": {"android": "https://dc.lft.to/lastmile_qr_scan", "ios": "https://dc.lft.to/lastmile_qr_scan"}, "fusion_lon": 0.0}, {"lat": 38.91916833333333, "is_disabled": 0, "type": "electric_scooter", "lon": -77.03254633333333, "bike_id": "ee3807b2e2256a954ca30cd560433c2e", "fusion_lat": 0.0, "name": "ee3807b2e2256a954ca30cd560433c2e", "is_reserved": 0, "rental_uris": {"android": "https://dc.lft.to/lastmile_qr_scan", "ios": "https://dc.lft.to/lastmile_qr_scan"}, "fusion_lon": 0.0}, {"lat": 38.87915233333333, "is_disabled": 0, "type": "electric_scooter", "lon": -76.99509683333333, "bike_id": "fe566fa3feadb191721312ca4d683ac3", "fusion_lat": 0.0, "name": "fe566fa3feadb191721312ca4d683ac3", "is_reserved": 0, "rental_uris": {"android": "https://dc.lft.to/lastmile_qr_scan", "ios": "https://dc.lft.to/lastmile_qr_scan"}, "fusion_lon": 0.0}, {"lat": 38.918427333333334, "is_disabled": 0, "type": "electric_scooter", "lon": -76.96558333333333, "bike_id": "804289af412915d73e48119bd2699c37", "fusion_lat": 0.0, "name": "804289af412915d73e48119bd2699c37", "is_reserved": 0, "rental_uris": {"android": "https://dc.lft.to/lastmile_qr_scan", "ios": "https://dc.lft.to/lastmile_qr_scan"}, "fusion_lon": 0.0}, {"lat": 38.924042666666665, "is_disabled": 0, "type": "electric_scooter", "lon": -77.02543266666666, "bike_id": "73aecdadccdd4d9490fdce8caf524d7a", "fusion_lat": 0.0, "name": "73aecdadccdd4d9490fdce8caf524d7a", "is_reserved": 0, "rental_uris": {"android": "https://dc.lft.to/lastmile_qr_scan", "ios": "https://dc.lft.to/lastmile_qr_scan"}, "fusion_lon": 0.0}, {"lat": 38.92313383333333, "is_disabled": 0, "type": "electric_scooter", "lon": -77.03657133333333, "bike_id": "427e6cc9c734af17c6006df62997cdbd", "fusion_lat": 0.0, "name": "427e6cc9c734af17c6006df62997cdbd", "is_reserved": 0, "rental_uris": {"android": "https://dc.lft.to/lastmile_qr_scan", "ios": "https://dc.lft.to/lastmile_qr_scan"}, "fusion_lon": 0.0}, {"lat": 38.92069766666667, "is_disabled": 0, "type": "electric_scooter", "lon": -77.03197283333333, "bike_id": "7d8725c98447c67fad823e1a78e78390", "fusion_lat": 0.0, "name": "7d8725c98447c67fad823e1a78e78390", "is_reserved": 0, "rental_uris": {"android": "https://dc.lft.to/lastmile_qr_scan", "ios": "https://dc.lft.to/lastmile_qr_scan"}, "fusion_lon": 0.0}, {"lat": 38.926762833333335, "is_disabled": 0, "type": "electric_scooter", "lon": -77.02635166666667, "bike_id": "cac6ef4cedd0992e2f95392e802e6cc9", "fusion_lat": 0.0, "name": "cac6ef4cedd0992e2f95392e802e6cc9", "is_reserved": 0, "rental_uris": {"android": "https://dc.lft.to/lastmile_qr_scan", "ios": "https://dc.lft.to/lastmile_qr_scan"}, "fusion_lon": 0.0}, {"lat": 38.91915516666667, "is_disabled": 0, "type": "electric_scooter", "lon": -77.0317975, "bike_id": "b3d74f356b93793199afbeeb0f2b73bf", "fusion_lat": 0.0, "name": "b3d74f356b93793199afbeeb0f2b73bf", "is_reserved": 0, "rental_uris": {"android": "https://dc.lft.to/lastmile_qr_scan", "ios": "https://dc.lft.to/lastmile_qr_scan"}, "fusion_lon": 0.0}, {"lat": 38.89008616666667, "is_disabled": 0, "type": "electric_scooter", "lon": -76.937416, "bike_id": "caf3ebc523a00f1da4753307ad9a9c68", "fusion_lat": 0.0, "name": "caf3ebc523a00f1da4753307ad9a9c68", "is_reserved": 0, "rental_uris": {"android": "https://dc.lft.to/lastmile_qr_scan", "ios": "https://dc.lft.to/lastmile_qr_scan"}, "fusion_lon": 0.0}, {"lat": 38.930635, "is_disabled": 0, "type": "electric_scooter", "lon": -77.0402345, "bike_id": "8876161e08ef8fafa9fee0ad079a365e", "fusion_lat": 0.0, "name": "8876161e08ef8fafa9fee0ad079a365e", "is_reserved": 0, "rental_uris": {"android": "https://dc.lft.to/lastmile_qr_scan", "ios": "https://dc.lft.to/lastmile_qr_scan"}, "fusion_lon": 0.0}, {"lat": 38.922522, "is_disabled": 0, "type": "electric_scooter", "lon": -77.035235, "bike_id": "aadf96d8206cfb3ce43cd5db4c2e25d1", "fusion_lat": 0.0, "name": "aadf96d8206cfb3ce43cd5db4c2e25d1", "is_reserved": 0, "rental_uris": {"android": "https://dc.lft.to/lastmile_qr_scan", "ios": "https://dc.lft.to/lastmile_qr_scan"}, "fusion_lon": 0.0}, {"lat": 38.910072666666665, "is_disabled": 0, "type": "electric_scooter", "lon": -77.03218866666667, "bike_id": "6fe07dcee5142f6b329a41be24c016ec", "fusion_lat": 0.0, "name": "6fe07dcee5142f6b329a41be24c016ec", "is_reserved": 0, "rental_uris": {"android": "https://dc.lft.to/lastmile_qr_scan", "ios": "https://dc.lft.to/lastmile_qr_scan"}, "fusion_lon": 0.0}, {"lat": 38.805739833333334, "is_disabled": 0, "type": "electric_bike", "lon": -77.06860933333333, "bike_id": "a7771e7c9b47c790e6abb64f61646bce", "fusion_lat": 0.0, "name": "a7771e7c9b47c790e6abb64f61646bce", "is_reserved": 0, "rental_uris": {"android": "https://dc.lft.to/lastmile_qr_scan", "ios": "https://dc.lft.to/lastmile_qr_scan"}, "fusion_lon": 0.0}, {"lat": 38.82336633333333, "is_disabled": 0, "type": "electric_bike", "lon": -77.058205, "bike_id": "df8176b9b172120797b2b123c75e2b9f", "fusion_lat": 0.0, "name": "df8176b9b172120797b2b123c75e2b9f", "is_reserved": 0, "rental_uris": {"android": "https://dc.lft.to/lastmile_qr_scan", "ios": "https://dc.lft.to/lastmile_qr_scan"}, "fusion_lon": 0.0}, {"lat": 38.90979516666667, "is_disabled": 0, "type": "electric_scooter", "lon": -77.02180516666667, "bike_id": "6bb1eca0688fb630e1cc240a5d1ed90c", "fusion_lat": 0.0, "name": "6bb1eca0688fb630e1cc240a5d1ed90c", "is_reserved": 0, "rental_uris": {"android": "https://dc.lft.to/lastmile_qr_scan", "ios": "https://dc.lft.to/lastmile_qr_scan"}, "fusion_lon": 0.0}, {"lat": 38.982701666666664, "is_disabled": 0, "type": "electric_bike", "lon": -77.01773733333333, "bike_id": "c8def8e3610da7bc0ba62206055e7323", "fusion_lat": 0.0, "name": "c8def8e3610da7bc0ba62206055e7323", "is_reserved": 0, "rental_uris": {"android": "https://dc.lft.to/lastmile_qr_scan", "ios": "https://dc.lft.to/lastmile_qr_scan"}, "fusion_lon": 0.0}, {"lat": 38.89453983333333, "is_disabled": 0, "type": "electric_scooter", "lon": -76.97807016666667, "bike_id": "5eac492025255fffd54ecd02bc93b62a", "fusion_lat": 0.0, "name": "5eac492025255fffd54ecd02bc93b62a", "is_reserved": 0, "rental_uris": {"android": "https://dc.lft.to/lastmile_qr_scan", "ios": "https://dc.lft.to/lastmile_qr_scan"}, "fusion_lon": 0.0}, {"lat": 38.91668833333333, "is_disabled": 0, "type": "electric_scooter", "lon": -77.02274883333334, "bike_id": "edea12ef999edf3392cf00bcea896cf5", "fusion_lat": 0.0, "name": "edea12ef999edf3392cf00bcea896cf5", "is_reserved": 0, "rental_uris": {"android": "https://dc.lft.to/lastmile_qr_scan", "ios": "https://dc.lft.to/lastmile_qr_scan"}, "fusion_lon": 0.0}, {"lat": 38.95876483333333, "is_disabled": 0, "type": "electric_bike", "lon": -77.01037116666667, "bike_id": "83498a6ca85f30e45c51f74c83a4863b", "fusion_lat": 0.0, "name": "83498a6ca85f30e45c51f74c83a4863b", "is_reserved": 0, "rental_uris": {"android": "https://dc.lft.to/lastmile_qr_scan", "ios": "https://dc.lft.to/lastmile_qr_scan"}, "fusion_lon": 0.0}, {"lat": 38.90113866666667, "is_disabled": 0, "type": "electric_bike", "lon": -77.04871183333333, "bike_id": "b70d79bc7ea35c26362aa2fc176b54c8", "fusion_lat": 0.0, "name": "b70d79bc7ea35c26362aa2fc176b54c8", "is_reserved": 0, "rental_uris": {"android": "https://dc.lft.to/lastmile_qr_scan", "ios": "https://dc.lft.to/lastmile_qr_scan"}, "fusion_lon": 0.0}, {"lat": 38.892211833333334, "is_disabled": 0, "type": "electric_scooter", "lon": -77.022102, "bike_id": "85df0c53d8e1178688c2b7139561b22a", "fusion_lat": 0.0, "name": "85df0c53d8e1178688c2b7139561b22a", "is_reserved": 0, "rental_uris": {"android": "https://dc.lft.to/lastmile_qr_scan", "ios": "https://dc.lft.to/lastmile_qr_scan"}, "fusion_lon": 0.0}, {"lat": 38.90270016666667, "is_disabled": 0, "type": "electric_scooter", "lon": -77.03068916666666, "bike_id": "571ee45a9b375e13a825ae885ebf9fa4", "fusion_lat": 0.0, "name": "571ee45a9b375e13a825ae885ebf9fa4", "is_reserved": 0, "rental_uris": {"android": "https://dc.lft.to/lastmile_qr_scan", "ios": "https://dc.lft.to/lastmile_qr_scan"}, "fusion_lon": 0.0}, {"lat": 38.90952983333333, "is_disabled": 0, "type": "electric_scooter", "lon": -77.03470116666666, "bike_id": "3e6881b3142b452f10ab62ce8e85a992", "fusion_lat": 0.0, "name": "3e6881b3142b452f10ab62ce8e85a992", "is_reserved": 0, "rental_uris": {"android": "https://dc.lft.to/lastmile_qr_scan", "ios": "https://dc.lft.to/lastmile_qr_scan"}, "fusion_lon": 0.0}, {"lat": 38.92839516666667, "is_disabled": 0, "type": "electric_scooter", "lon": -77.01386933333333, "bike_id": "1d37193c09c779f80e8e313e2814ac7c", "fusion_lat": 0.0, "name": "1d37193c09c779f80e8e313e2814ac7c", "is_reserved": 0, "rental_uris": {"android": "https://dc.lft.to/lastmile_qr_scan", "ios": "https://dc.lft.to/lastmile_qr_scan"}, "fusion_lon": 0.0}, {"lat": 38.985052, "is_disabled": 0, "type": "electric_bike", "lon": -76.98198533333333, "bike_id": "44da64fc9fdbca13a4d3cc870981cb49", "fusion_lat": 0.0, "name": "44da64fc9fdbca13a4d3cc870981cb49", "is_reserved": 0, "rental_uris": {"android": "https://dc.lft.to/lastmile_qr_scan", "ios": "https://dc.lft.to/lastmile_qr_scan"}, "fusion_lon": 0.0}, {"lat": 38.90416483333333, "is_disabled": 0, "type": "electric_scooter", "lon": -77.0259135, "bike_id": "e51300ff5e24c392e6b46b2f799c882d", "fusion_lat": 0.0, "name": "e51300ff5e24c392e6b46b2f799c882d", "is_reserved": 0, "rental_uris": {"android": "https://dc.lft.to/lastmile_qr_scan", "ios": "https://dc.lft.to/lastmile_qr_scan"}, "fusion_lon": 0.0}, {"lat": 38.959607166666665, "is_disabled": 0, "type": "electric_scooter", "lon": -77.03313283333334, "bike_id": "473b29cf5156bb094054b3ae3247e401", "fusion_lat": 0.0, "name": "473b29cf5156bb094054b3ae3247e401", "is_reserved": 0, "rental_uris": {"android": "https://dc.lft.to/lastmile_qr_scan", "ios": "https://dc.lft.to/lastmile_qr_scan"}, "fusion_lon": 0.0}, {"lat": 38.89221966666667, "is_disabled": 0, "type": "electric_scooter", "lon": -77.04682583333333, "bike_id": "2bc8cd3e38e51ec758e84dd64ad9f019", "fusion_lat": 0.0, "name": "2bc8cd3e38e51ec758e84dd64ad9f019", "is_reserved": 0, "rental_uris": {"android": "https://dc.lft.to/lastmile_qr_scan", "ios": "https://dc.lft.to/lastmile_qr_scan"}, "fusion_lon": 0.0}, {"lat": 38.90549166666667, "is_disabled": 0, "type": "electric_scooter", "lon": -77.05704683333333, "bike_id": "a1481a4997ab69726c18dbb8a37b00b4", "fusion_lat": 0.0, "name": "a1481a4997ab69726c18dbb8a37b00b4", "is_reserved": 0, "rental_uris": {"android": "https://dc.lft.to/lastmile_qr_scan", "ios": "https://dc.lft.to/lastmile_qr_scan"}, "fusion_lon": 0.0}, {"lat": 38.93737766666667, "is_disabled": 0, "type": "electric_scooter", "lon": -77.036294, "bike_id": "6f351373972c1b3ff9815ef11ae1cdf9", "fusion_lat": 0.0, "name": "6f351373972c1b3ff9815ef11ae1cdf9", "is_reserved": 0, "rental_uris": {"android": "https://dc.lft.to/lastmile_qr_scan", "ios": "https://dc.lft.to/lastmile_qr_scan"}, "fusion_lon": 0.0}, {"lat": 38.91330683333333, "is_disabled": 0, "type": "electric_scooter", "lon": -77.0327345, "bike_id": "9ee01d76a0bfa91eded6f2ff0ec3bef6", "fusion_lat": 0.0, "name": "9ee01d76a0bfa91eded6f2ff0ec3bef6", "is_reserved": 0, "rental_uris": {"android": "https://dc.lft.to/lastmile_qr_scan", "ios": "https://dc.lft.to/lastmile_qr_scan"}, "fusion_lon": 0.0}, {"lat": 38.906008166666666, "is_disabled": 0, "type": "electric_scooter", "lon": -77.07005483333333, "bike_id": "1b9b411acbeefd91f068cddade1b3098", "fusion_lat": 0.0, "name": "1b9b411acbeefd91f068cddade1b3098", "is_reserved": 0, "rental_uris": {"android": "https://dc.lft.to/lastmile_qr_scan", "ios": "https://dc.lft.to/lastmile_qr_scan"}, "fusion_lon": 0.0}, {"lat": 38.91920116666667, "is_disabled": 0, "type": "electric_scooter", "lon": -77.04813733333333, "bike_id": "71b99a3eb9e6b8358a509b2fa5957209", "fusion_lat": 0.0, "name": "71b99a3eb9e6b8358a509b2fa5957209", "is_reserved": 0, "rental_uris": {"android": "https://dc.lft.to/lastmile_qr_scan", "ios": "https://dc.lft.to/lastmile_qr_scan"}, "fusion_lon": 0.0}, {"lat": 38.86707833333333, "is_disabled": 0, "type": "electric_bike", "lon": -76.989449, "bike_id": "26e9a3b96c7cfaa2813225b7fee48b91", "fusion_lat": 0.0, "name": "26e9a3b96c7cfaa2813225b7fee48b91", "is_reserved": 0, "rental_uris": {"android": "https://dc.lft.to/lastmile_qr_scan", "ios": "https://dc.lft.to/lastmile_qr_scan"}, "fusion_lon": 0.0}, {"lat": 38.91777833333333, "is_disabled": 0, "type": "electric_scooter", "lon": -77.03644183333333, "bike_id": "beea34e7fcc579e156aa93a717b70ff1", "fusion_lat": 0.0, "name": "beea34e7fcc579e156aa93a717b70ff1", "is_reserved": 0, "rental_uris": {"android": "https://dc.lft.to/lastmile_qr_scan", "ios": "https://dc.lft.to/lastmile_qr_scan"}, "fusion_lon": 0.0}, {"lat": 38.92342933333333, "is_disabled": 0, "type": "electric_scooter", "lon": -77.03513116666667, "bike_id": "0be8d3be96e5d0eb14fa9ff194eff45a", "fusion_lat": 0.0, "name": "0be8d3be96e5d0eb14fa9ff194eff45a", "is_reserved": 0, "rental_uris": {"android": "https://dc.lft.to/lastmile_qr_scan", "ios": "https://dc.lft.to/lastmile_qr_scan"}, "fusion_lon": 0.0}, {"lat": 38.906380166666665, "is_disabled": 0, "type": "electric_scooter", "lon": -77.00605716666666, "bike_id": "1d2365a707697f539add52e219ff0325", "fusion_lat": 0.0, "name": "1d2365a707697f539add52e219ff0325", "is_reserved": 0, "rental_uris": {"android": "https://dc.lft.to/lastmile_qr_scan", "ios": "https://dc.lft.to/lastmile_qr_scan"}, "fusion_lon": 0.0}, {"lat": 38.924983, "is_disabled": 0, "type": "electric_scooter", "lon": -77.02161216666667, "bike_id": "7c983443897b99b5dcbe70ae53328a57", "fusion_lat": 0.0, "name": "7c983443897b99b5dcbe70ae53328a57", "is_reserved": 0, "rental_uris": {"android": "https://dc.lft.to/lastmile_qr_scan", "ios": "https://dc.lft.to/lastmile_qr_scan"}, "fusion_lon": 0.0}, {"lat": 38.959589333333334, "is_disabled": 0, "type": "electric_bike", "lon": -77.1008815, "bike_id": "030c7a66b863ec5bd7a6c806dddd90ab", "fusion_lat": 0.0, "name": "030c7a66b863ec5bd7a6c806dddd90ab", "is_reserved": 0, "rental_uris": {"android": "https://dc.lft.to/lastmile_qr_scan", "ios": "https://dc.lft.to/lastmile_qr_scan"}, "fusion_lon": 0.0}, {"lat": 38.90128883333333, "is_disabled": 0, "type": "electric_scooter", "lon": -77.0418145, "bike_id": "f4b0c9e665d6ff77b329f7be9d848fbf", "fusion_lat": 0.0, "name": "f4b0c9e665d6ff77b329f7be9d848fbf", "is_reserved": 0, "rental_uris": {"android": "https://dc.lft.to/lastmile_qr_scan", "ios": "https://dc.lft.to/lastmile_qr_scan"}, "fusion_lon": 0.0}, {"lat": 38.9058445, "is_disabled": 0, "type": "electric_scooter", "lon": -76.98621416666667, "bike_id": "7fab62db55fab139c49beaf97358a9ae", "fusion_lat": 0.0, "name": "7fab62db55fab139c49beaf97358a9ae", "is_reserved": 0, "rental_uris": {"android": "https://dc.lft.to/lastmile_qr_scan", "ios": "https://dc.lft.to/lastmile_qr_scan"}, "fusion_lon": 0.0}, {"lat": 38.906763833333336, "is_disabled": 0, "type": "electric_scooter", "lon": -77.0269645, "bike_id": "6bc6281c109481fbe70b108ca7ef3f6f", "fusion_lat": 0.0, "name": "6bc6281c109481fbe70b108ca7ef3f6f", "is_reserved": 0, "rental_uris": {"android": "https://dc.lft.to/lastmile_qr_scan", "ios": "https://dc.lft.to/lastmile_qr_scan"}, "fusion_lon": 0.0}, {"lat": 38.8853555, "is_disabled": 0, "type": "electric_scooter", "lon": -76.99828266666667, "bike_id": "8e0659c9622fae7636f6b3e0e8ce9ff4", "fusion_lat": 0.0, "name": "8e0659c9622fae7636f6b3e0e8ce9ff4", "is_reserved": 0, "rental_uris": {"android": "https://dc.lft.to/lastmile_qr_scan", "ios": "https://dc.lft.to/lastmile_qr_scan"}, "fusion_lon": 0.0}, {"lat": 38.867124, "is_disabled": 0, "type": "electric_scooter", "lon": -76.98727633333333, "bike_id": "f08d78e04d9c58d6e9bd2f4e2eda8490", "fusion_lat": 0.0, "name": "f08d78e04d9c58d6e9bd2f4e2eda8490", "is_reserved": 0, "rental_uris": {"android": "https://dc.lft.to/lastmile_qr_scan", "ios": "https://dc.lft.to/lastmile_qr_scan"}, "fusion_lon": 0.0}, {"lat": 38.845058333333334, "is_disabled": 0, "type": "electric_bike", "lon": -76.99353333333333, "bike_id": "3c1a1d9bac8d9c9ae3097697e3630e29", "fusion_lat": 0.0, "name": "3c1a1d9bac8d9c9ae3097697e3630e29", "is_reserved": 0, "rental_uris": {"android": "https://dc.lft.to/lastmile_qr_scan", "ios": "https://dc.lft.to/lastmile_qr_scan"}, "fusion_lon": 0.0}, {"lat": 38.902865, "is_disabled": 0, "type": "electric_scooter", "lon": -77.03774616666666, "bike_id": "eaeb88ec7eb0323df79ef285446f6417", "fusion_lat": 0.0, "name": "eaeb88ec7eb0323df79ef285446f6417", "is_reserved": 0, "rental_uris": {"android": "https://dc.lft.to/lastmile_qr_scan", "ios": "https://dc.lft.to/lastmile_qr_scan"}, "fusion_lon": 0.0}, {"lat": 38.925495, "is_disabled": 0, "type": "electric_scooter", "lon": -77.05269, "bike_id": "8a87cec90c6d7a759d1fcb388a67b0dc", "fusion_lat": 0.0, "name": "8a87cec90c6d7a759d1fcb388a67b0dc", "is_reserved": 0, "rental_uris": {"android": "https://dc.lft.to/lastmile_qr_scan", "ios": "https://dc.lft.to/lastmile_qr_scan"}, "fusion_lon": 0.0}, {"lat": 38.9126565, "is_disabled": 0, "type": "electric_scooter", "lon": -77.0314245, "bike_id": "a48b1604f4a72a906d7e63c2e3385910", "fusion_lat": 0.0, "name": "a48b1604f4a72a906d7e63c2e3385910", "is_reserved": 0, "rental_uris": {"android": "https://dc.lft.to/lastmile_qr_scan", "ios": "https://dc.lft.to/lastmile_qr_scan"}, "fusion_lon": 0.0}, {"lat": 38.912788166666665, "is_disabled": 0, "type": "electric_scooter", "lon": -77.04513333333334, "bike_id": "291de1acf120fec53b1a7b0eb1678f2d", "fusion_lat": 0.0, "name": "291de1acf120fec53b1a7b0eb1678f2d", "is_reserved": 0, "rental_uris": {"android": "https://dc.lft.to/lastmile_qr_scan", "ios": "https://dc.lft.to/lastmile_qr_scan"}, "fusion_lon": 0.0}, {"lat": 38.91792433333333, "is_disabled": 0, "type": "electric_scooter", "lon": -77.04040416666666, "bike_id": "78633410b2074274a9ecc49097e6a4f8", "fusion_lat": 0.0, "name": "78633410b2074274a9ecc49097e6a4f8", "is_reserved": 0, "rental_uris": {"android": "https://dc.lft.to/lastmile_qr_scan", "ios": "https://dc.lft.to/lastmile_qr_scan"}, "fusion_lon": 0.0}, {"lat": 38.93710083333333, "is_disabled": 0, "type": "electric_scooter", "lon": -77.03638666666667, "bike_id": "a9300c8a8a19596ac0165972739482a9", "fusion_lat": 0.0, "name": "a9300c8a8a19596ac0165972739482a9", "is_reserved": 0, "rental_uris": {"android": "https://dc.lft.to/lastmile_qr_scan", "ios": "https://dc.lft.to/lastmile_qr_scan"}, "fusion_lon": 0.0}, {"lat": 38.9164565, "is_disabled": 0, "type": "electric_scooter", "lon": -77.0478155, "bike_id": "d741d1a7f5d5729a4098e786644ae2d5", "fusion_lat": 0.0, "name": "d741d1a7f5d5729a4098e786644ae2d5", "is_reserved": 0, "rental_uris": {"android": "https://dc.lft.to/lastmile_qr_scan", "ios": "https://dc.lft.to/lastmile_qr_scan"}, "fusion_lon": 0.0}, {"lat": 38.93084116666667, "is_disabled": 0, "type": "electric_scooter", "lon": -77.03741183333334, "bike_id": "a953456f71e1c1e9e0de9fc29b38acde", "fusion_lat": 0.0, "name": "a953456f71e1c1e9e0de9fc29b38acde", "is_reserved": 0, "rental_uris": {"android": "https://dc.lft.to/lastmile_qr_scan", "ios": "https://dc.lft.to/lastmile_qr_scan"}, "fusion_lon": 0.0}, {"lat": 38.917810833333334, "is_disabled": 0, "type": "electric_scooter", "lon": -77.023062, "bike_id": "31e6087fe04cd25b1f1bb203791903e9", "fusion_lat": 0.0, "name": "31e6087fe04cd25b1f1bb203791903e9", "is_reserved": 0, "rental_uris": {"android": "https://dc.lft.to/lastmile_qr_scan", "ios": "https://dc.lft.to/lastmile_qr_scan"}, "fusion_lon": 0.0}, {"lat": 38.91418183333333, "is_disabled": 0, "type": "electric_scooter", "lon": -77.031744, "bike_id": "8a75464ac2e46f7d3568646ccf02b358", "fusion_lat": 0.0, "name": "8a75464ac2e46f7d3568646ccf02b358", "is_reserved": 0, "rental_uris": {"android": "https://dc.lft.to/lastmile_qr_scan", "ios": "https://dc.lft.to/lastmile_qr_scan"}, "fusion_lon": 0.0}, {"lat": 38.935123833333336, "is_disabled": 0, "type": "electric_scooter", "lon": -77.03274083333334, "bike_id": "fdccadc24b27b34bdd926c28321bed75", "fusion_lat": 0.0, "name": "fdccadc24b27b34bdd926c28321bed75", "is_reserved": 0, "rental_uris": {"android": "https://dc.lft.to/lastmile_qr_scan", "ios": "https://dc.lft.to/lastmile_qr_scan"}, "fusion_lon": 0.0}, {"lat": 38.900376333333334, "is_disabled": 0, "type": "electric_scooter", "lon": -76.99384933333333, "bike_id": "cbee6368cb67440e1d729b95a8a9e4ed", "fusion_lat": 0.0, "name": "cbee6368cb67440e1d729b95a8a9e4ed", "is_reserved": 0, "rental_uris": {"android": "https://dc.lft.to/lastmile_qr_scan", "ios": "https://dc.lft.to/lastmile_qr_scan"}, "fusion_lon": 0.0}, {"lat": 38.884627333333334, "is_disabled": 0, "type": "electric_scooter", "lon": -77.0259545, "bike_id": "877cde86cea6d329b2aee74a2e8b090b", "fusion_lat": 0.0, "name": "877cde86cea6d329b2aee74a2e8b090b", "is_reserved": 0, "rental_uris": {"android": "https://dc.lft.to/lastmile_qr_scan", "ios": "https://dc.lft.to/lastmile_qr_scan"}, "fusion_lon": 0.0}, {"lat": 38.93633533333333, "is_disabled": 0, "type": "electric_scooter", "lon": -77.02505283333333, "bike_id": "5616738ca4624bcace24d5a07cb00275", "fusion_lat": 0.0, "name": "5616738ca4624bcace24d5a07cb00275", "is_reserved": 0, "rental_uris": {"android": "https://dc.lft.to/lastmile_qr_scan", "ios": "https://dc.lft.to/lastmile_qr_scan"}, "fusion_lon": 0.0}, {"lat": 38.9168115, "is_disabled": 0, "type": "electric_scooter", "lon": -77.0297095, "bike_id": "9f7f921dc8b4bea41d794629de39bc00", "fusion_lat": 0.0, "name": "9f7f921dc8b4bea41d794629de39bc00", "is_reserved": 0, "rental_uris": {"android": "https://dc.lft.to/lastmile_qr_scan", "ios": "https://dc.lft.to/lastmile_qr_scan"}, "fusion_lon": 0.0}, {"lat": 38.9252835, "is_disabled": 0, "type": "electric_scooter", "lon": -77.0442715, "bike_id": "4355693452bfe9253ecf17e73aaaa12b", "fusion_lat": 0.0, "name": "4355693452bfe9253ecf17e73aaaa12b", "is_reserved": 0, "rental_uris": {"android": "https://dc.lft.to/lastmile_qr_scan", "ios": "https://dc.lft.to/lastmile_qr_scan"}, "fusion_lon": 0.0}, {"lat": 38.911233833333334, "is_disabled": 0, "type": "electric_scooter", "lon": -77.03840183333334, "bike_id": "bbcd5714fa61628e32a9b5b7de4196a3", "fusion_lat": 0.0, "name": "bbcd5714fa61628e32a9b5b7de4196a3", "is_reserved": 0, "rental_uris": {"android": "https://dc.lft.to/lastmile_qr_scan", "ios": "https://dc.lft.to/lastmile_qr_scan"}, "fusion_lon": 0.0}, {"lat": 38.893512333333334, "is_disabled": 0, "type": "electric_scooter", "lon": -77.0413125, "bike_id": "f650adc885e19495f2514b8669cf80cf", "fusion_lat": 0.0, "name": "f650adc885e19495f2514b8669cf80cf", "is_reserved": 0, "rental_uris": {"android": "https://dc.lft.to/lastmile_qr_scan", "ios": "https://dc.lft.to/lastmile_qr_scan"}, "fusion_lon": 0.0}, {"lat": 38.918314333333335, "is_disabled": 0, "type": "electric_scooter", "lon": -77.03161266666666, "bike_id": "3315cdce6dd27368c59a11fa9c5663f0", "fusion_lat": 0.0, "name": "3315cdce6dd27368c59a11fa9c5663f0", "is_reserved": 0, "rental_uris": {"android": "https://dc.lft.to/lastmile_qr_scan", "ios": "https://dc.lft.to/lastmile_qr_scan"}, "fusion_lon": 0.0}, {"lat": 38.877177833333334, "is_disabled": 0, "type": "electric_scooter", "lon": -77.017645, "bike_id": "6eaf97ff86c06b016afa3455b4b17919", "fusion_lat": 0.0, "name": "6eaf97ff86c06b016afa3455b4b17919", "is_reserved": 0, "rental_uris": {"android": "https://dc.lft.to/lastmile_qr_scan", "ios": "https://dc.lft.to/lastmile_qr_scan"}, "fusion_lon": 0.0}, {"lat": 38.932467333333335, "is_disabled": 0, "type": "electric_scooter", "lon": -77.03277183333333, "bike_id": "40fa280388788a6f7b80459026909801", "fusion_lat": 0.0, "name": "40fa280388788a6f7b80459026909801", "is_reserved": 0, "rental_uris": {"android": "https://dc.lft.to/lastmile_qr_scan", "ios": "https://dc.lft.to/lastmile_qr_scan"}, "fusion_lon": 0.0}, {"lat": 38.9191085, "is_disabled": 0, "type": "electric_scooter", "lon": -77.070764, "bike_id": "dbe0c4bd86870d517d107e10560f48f2", "fusion_lat": 0.0, "name": "dbe0c4bd86870d517d107e10560f48f2", "is_reserved": 0, "rental_uris": {"android": "https://dc.lft.to/lastmile_qr_scan", "ios": "https://dc.lft.to/lastmile_qr_scan"}, "fusion_lon": 0.0}, {"lat": 38.919309, "is_disabled": 0, "type": "electric_scooter", "lon": -77.023009, "bike_id": "142e6273c45cd281c18161047738e281", "fusion_lat": 0.0, "name": "142e6273c45cd281c18161047738e281", "is_reserved": 0, "rental_uris": {"android": "https://dc.lft.to/lastmile_qr_scan", "ios": "https://dc.lft.to/lastmile_qr_scan"}, "fusion_lon": 0.0}, {"lat": 38.92237866666667, "is_disabled": 0, "type": "electric_scooter", "lon": -77.04576466666667, "bike_id": "6eec7ab990f6ba2ee7b52aafd052a5ff", "fusion_lat": 0.0, "name": "6eec7ab990f6ba2ee7b52aafd052a5ff", "is_reserved": 0, "rental_uris": {"android": "https://dc.lft.to/lastmile_qr_scan", "ios": "https://dc.lft.to/lastmile_qr_scan"}, "fusion_lon": 0.0}, {"lat": 38.87285216666667, "is_disabled": 0, "type": "electric_scooter", "lon": -76.97730566666667, "bike_id": "c51cc08b69a4536ab68322fdbf8a8851", "fusion_lat": 0.0, "name": "c51cc08b69a4536ab68322fdbf8a8851", "is_reserved": 0, "rental_uris": {"android": "https://dc.lft.to/lastmile_qr_scan", "ios": "https://dc.lft.to/lastmile_qr_scan"}, "fusion_lon": 0.0}, {"lat": 38.905386166666666, "is_disabled": 0, "type": "electric_scooter", "lon": -77.04185133333333, "bike_id": "938e376e3bfbbdf6e2fa145ec8b09605", "fusion_lat": 0.0, "name": "938e376e3bfbbdf6e2fa145ec8b09605", "is_reserved": 0, "rental_uris": {"android": "https://dc.lft.to/lastmile_qr_scan", "ios": "https://dc.lft.to/lastmile_qr_scan"}, "fusion_lon": 0.0}, {"lat": 38.90888316666667, "is_disabled": 0, "type": "electric_scooter", "lon": -76.99626266666667, "bike_id": "5bfb0e55041d07e0fc53254d5081c685", "fusion_lat": 0.0, "name": "5bfb0e55041d07e0fc53254d5081c685", "is_reserved": 0, "rental_uris": {"android": "https://dc.lft.to/lastmile_qr_scan", "ios": "https://dc.lft.to/lastmile_qr_scan"}, "fusion_lon": 0.0}, {"lat": 38.87067483333333, "is_disabled": 0, "type": "electric_bike", "lon": -77.008333, "bike_id": "fdd9249b8e8d455aeac9da4688c912ba", "fusion_lat": 0.0, "name": "fdd9249b8e8d455aeac9da4688c912ba", "is_reserved": 0, "rental_uris": {"android": "https://dc.lft.to/lastmile_qr_scan", "ios": "https://dc.lft.to/lastmile_qr_scan"}, "fusion_lon": 0.0}, {"lat": 38.91610816666667, "is_disabled": 0, "type": "electric_scooter", "lon": -77.0230325, "bike_id": "4234206334b2039fb612304283193c78", "fusion_lat": 0.0, "name": "4234206334b2039fb612304283193c78", "is_reserved": 0, "rental_uris": {"android": "https://dc.lft.to/lastmile_qr_scan", "ios": "https://dc.lft.to/lastmile_qr_scan"}, "fusion_lon": 0.0}, {"lat": 38.892201, "is_disabled": 0, "type": "electric_scooter", "lon": -77.04864783333333, "bike_id": "2d748e224ae118320566e7d42b708b4b", "fusion_lat": 0.0, "name": "2d748e224ae118320566e7d42b708b4b", "is_reserved": 0, "rental_uris": {"android": "https://dc.lft.to/lastmile_qr_scan", "ios": "https://dc.lft.to/lastmile_qr_scan"}, "fusion_lon": 0.0}, {"lat": 38.908207166666664, "is_disabled": 0, "type": "electric_scooter", "lon": -77.0184045, "bike_id": "dbaa1e7ce05ce85d10db3bd24e1349d7", "fusion_lat": 0.0, "name": "dbaa1e7ce05ce85d10db3bd24e1349d7", "is_reserved": 0, "rental_uris": {"android": "https://dc.lft.to/lastmile_qr_scan", "ios": "https://dc.lft.to/lastmile_qr_scan"}, "fusion_lon": 0.0}, {"lat": 38.905303, "is_disabled": 0, "type": "electric_scooter", "lon": -77.05767433333334, "bike_id": "22b5847b2b374319b64ce4a5037286e1", "fusion_lat": 0.0, "name": "22b5847b2b374319b64ce4a5037286e1", "is_reserved": 0, "rental_uris": {"android": "https://dc.lft.to/lastmile_qr_scan", "ios": "https://dc.lft.to/lastmile_qr_scan"}, "fusion_lon": 0.0}, {"lat": 38.9001205, "is_disabled": 0, "type": "electric_scooter", "lon": -77.04653066666667, "bike_id": "fab012151522eef3c9cf51487be30d22", "fusion_lat": 0.0, "name": "fab012151522eef3c9cf51487be30d22", "is_reserved": 0, "rental_uris": {"android": "https://dc.lft.to/lastmile_qr_scan", "ios": "https://dc.lft.to/lastmile_qr_scan"}, "fusion_lon": 0.0}, {"lat": 38.900017166666665, "is_disabled": 0, "type": "electric_scooter", "lon": -76.998503, "bike_id": "f173f7932308dd47908ea0a9c124d370", "fusion_lat": 0.0, "name": "f173f7932308dd47908ea0a9c124d370", "is_reserved": 0, "rental_uris": {"android": "https://dc.lft.to/lastmile_qr_scan", "ios": "https://dc.lft.to/lastmile_qr_scan"}, "fusion_lon": 0.0}, {"lat": 38.92615933333333, "is_disabled": 0, "type": "electric_scooter", "lon": -77.021638, "bike_id": "6ff7ad1390e0f91d674d530f98e22a2c", "fusion_lat": 0.0, "name": "6ff7ad1390e0f91d674d530f98e22a2c", "is_reserved": 0, "rental_uris": {"android": "https://dc.lft.to/lastmile_qr_scan", "ios": "https://dc.lft.to/lastmile_qr_scan"}, "fusion_lon": 0.0}, {"lat": 38.893491833333336, "is_disabled": 0, "type": "electric_scooter", "lon": -77.01354233333333, "bike_id": "320dfa9f754c0ed2d3066aa8bc117715", "fusion_lat": 0.0, "name": "320dfa9f754c0ed2d3066aa8bc117715", "is_reserved": 0, "rental_uris": {"android": "https://dc.lft.to/lastmile_qr_scan", "ios": "https://dc.lft.to/lastmile_qr_scan"}, "fusion_lon": 0.0},