{"data": {"bikes": [{"lat": 38.9134125, "is_disabled": 0, "type": "electric_scooter", "lon": -77.04349833333333, "bike_id": "bc8426847d742840a19aa8d2ea123875", "fusion_lat": 0.0, "name": "bc8426847d742840a19aa8d2ea123875", "is_reserved": 0, "rental_uris": {"android": "https://dc.lft.to/lastmile_qr_scan", "ios": "https://dc.lft.to/lastmile_qr_scan"}, "fusion_lon": 0.0}, {"lat": 39.029315, "is_disabled": 0, "type": "electric_bike", "lon": -77.04924983333333, "bike_id": "eca506d70add4d187cd007e9a85d16d4", "fusion_lat": 0.0, "name": "eca506d70add4d187cd007e9a85d16d4", "is_reserved": 0, "rental_uris": {"android": "https://dc.lft.to/lastmile_qr_scan", "ios": "https://dc.lft.to/lastmile_qr_scan"}, "fusion_lon": 0.0}, {"lat": 38.902731333333335, "is_disabled": 0, "type": "electric_scooter", "lon": -77.0460135, "bike_id": "46f40c0d26b9eb08e7ecb07b80e04d5f", "fusion_lat": 0.0, "name": "46f40c0d26b9eb08e7ecb07b80e04d5f", "is_reserved": 0, "rental_uris": {"android": "https://dc.lft.to/lastmile_qr_scan", "ios": "https://dc.lft.to/lastmile_qr_scan"}, "fusion_lon": 0.0}, {"lat": 38.931105, "is_disabled": 0, "type": "electric_scooter", "lon": -77.03839233333333, "bike_id": "2bb0d8c78db50b95440221f80c57d82f", "fusion_lat": 0.0, "name": "2bb0d8c78db50b95440221f80c57d82f", "is_reserved": 0, "rental_uris": {"android": "https://dc.lft.to/lastmile_qr_scan", "ios": "https://dc.lft.to/lastmile_qr_scan"}, "fusion_lon": 0.0}, {"lat": 38.8849245, "is_disabled": 0, "type": "electric_scooter", "lon": -77.00712666666666, "bike_id": "8ff8d667452b2c05083518c1a7083b59", "fusion_lat": 0.0, "name": "8ff8d667452b2c05083518c1a7083b59", "is_reserved": 0, "rental_uris": {"android": "https://dc.lft.to/lastmile_qr_scan", "ios": "https://dc.lft.to/lastmile_qr_scan"}, "fusion_lon": 0.0}, {"lat": 38.91544716666667, "is_disabled": 0, "type": "electric_scooter", "lon": -77.04187666666667, "bike_id": "11377f0180b1d15cd4990a22d4f3cc17", "fusion_lat": 0.0, "name": "11377f0180b1d15cd4990a22d4f3cc17", "is_reserved": 0, "rental_uris": {"android": "https://dc.lft.to/lastmile_qr_scan", "ios": "https://dc.lft.to/lastmile_qr_scan"}, "fusion_lon": 0.0}, {"lat": 38.91174933333333, "is_disabled": 0, "type": "electric_scooter", "lon": -77.04847966666667, "bike_id": "37277ded080dabdd466a0d2406b345ac", "fusion_lat": 0.0, "name": "37277ded080dabdd466a0d2406b345ac", "is_reserved": 0, "rental_uris": {"android": "https://dc.lft.to/lastmile_qr_scan", "ios": "https://dc.lft.to/lastmile_qr_scan"}, "fusion_lon": 0.0}, {"lat": 38.89208133333333, "is_disabled": 0, "type": "electric_scooter", "lon": -76.99581183333333, "bike_id": "0d523e221b00aa860954742fb71f2eb9", "fusion_lat": 0.0, "name": "0d523e221b00aa860954742fb71f2eb9", "is_reserved": 0, "rental_uris": {"android": "https://dc.lft.to/lastmile_qr_scan", "ios": "https://dc.lft.to/lastmile_qr_scan"}, "fusion_lon": 0.0}, {"lat": 38.8842545, "is_disabled": 0, "type": "electric_scooter", "lon": -76.95753283333333, "bike_id": "9775f613dac27504c384dbf2aaedb667", "fusion_lat": 0.0, "name": "9775f613dac27504c384dbf2aaedb667", "is_reserved": 0, "rental_uris": {"android": "https://dc.lft.to/lastmile_qr_scan", "ios": "https://dc.lft.to/lastmile_qr_scan"}, "fusion_lon": 0.0}, {"lat": 38.907392, "is_disabled": 0, "type": "electric_scooter", "lon": -77.0271115, "bike_id": "1f2acb927d15461262375141d172ed4e", "fusion_lat": 0.0, "name": "1f2acb927d15461262375141d172ed4e", "is_reserved": 0, "rental_uris": {"android": "https://dc.lft.to/lastmile_qr_scan", "ios": "https://dc.lft.to/lastmile_qr_scan"}, "fusion_lon": 0.0}, {"lat": 38.92438633333333, "is_disabled": 0, "type": "electric_scooter", "lon": -77.04024566666666, "bike_id": "a538982cdbd54abe02cc83d7226b6f52", "fusion_lat": 0.0, "name": "a538982cdbd54abe02cc83d7226b6f52", "is_reserved": 0, "rental_uris": {"android": "https://dc.lft.to/lastmile_qr_scan", "ios": "https://dc.lft.to/lastmile_qr_scan"}, "fusion_lon": 0.0}, {"lat": 38.89985466666667, "is_disabled": 0, "type": "electric_scooter", "lon": -77.031822, "bike_id": "28a821e5982b57a8d8e362d854fa9a11", "fusion_lat": 0.0, "name": "28a821e5982b57a8d8e362d854fa9a11", "is_reserved": 0, "rental_uris": {"android": "https://dc.lft.to/lastmile_qr_scan", "ios": "https://dc.lft.to/lastmile_qr_scan"}, "fusion_lon": 0.0}, {"lat": 38.90274133333333, "is_disabled": 0, "type": "electric_scooter", "lon": -77.03850433333334, "bike_id": "e5ecc2803d0626d086bd5a26ce8f0850", "fusion_lat": 0.0, "name": "e5ecc2803d0626d086bd5a26ce8f0850", "is_reserved": 0, "rental_uris": {"android": "https://dc.lft.to/lastmile_qr_scan", "ios": "https://dc.lft.to/lastmile_qr_scan"}, "fusion_lon": 0.0}, {"lat": 38.8960525, "is_disabled": 0, "type": "electric_scooter", "lon": -77.04542266666667, "bike_id": "2e088f53c9cd93b59f63507a1bd38b90", "fusion_lat": 0.0, "name": "2e088f53c9cd93b59f63507a1bd38b90", "is_reserved": 0, "rental_uris": {"android": "https://dc.lft.to/lastmile_qr_scan", "ios": "https://dc.lft.to/lastmile_qr_scan"}, "fusion_lon": 0.0}, {"lat": 38.91672783333333, "is_disabled": 0, "type": "electric_scooter", "lon": -77.0272325, "bike_id": "b62f7a09bca46e640722d8484eb6458d", "fusion_lat": 0.0, "name": "b62f7a09bca46e640722d8484eb6458d", "is_reserved": 0, "rental_uris": {"android": "https://dc.lft.to/lastmile_qr_scan", "ios": "https://dc.lft.to/lastmile_qr_scan"}, "fusion_lon": 0.0}, {"lat": 38.931991333333336, "is_disabled": 0, "type": "electric_scooter", "lon": -77.03855783333333, "bike_id": "ec0212f8b26da1feb2c496912573f0fb", "fusion_lat": 0.0, "name": "ec0212f8b26da1feb2c496912573f0fb", "is_reserved": 0, "rental_uris": {"android": "https://dc.lft.to/lastmile_qr_scan", "ios": "https://dc.lft.to/lastmile_qr_scan"}, "fusion_lon": 0.0}, {"lat": 38.9190025, "is_disabled": 0, "type": "electric_scooter", "lon": -77.04437, "bike_id": "eb46ed923df544cf25ca66d474631bc7", "fusion_lat": 0.0, "name": "eb46ed923df544cf25ca66d474631bc7", "is_reserved": 0, "rental_uris": {"android": "https://dc.lft.to/lastmile_qr_scan", "ios": "https://dc.lft.to/lastmile_qr_scan"}, "fusion_lon": 0.0}, {"lat": 38.923478833333334, "is_disabled": 0, "type": "electric_scooter", "lon": -77.0352915, "bike_id": "2016f324eea71532318bf2969debbbe3", "fusion_lat": 0.0, "name": "2016f324eea71532318bf2969debbbe3", "is_reserved": 0, "rental_uris": {"android": "https://dc.lft.to/lastmile_qr_scan", "ios": "https://dc.lft.to/lastmile_qr_scan"}, "fusion_lon": 0.0}, {"lat": 38.89962766666667, "is_disabled": 0, "type": "electric_scooter", "lon": -76.92728166666667, "bike_id": "993ff7ade588e6b5e0d7a445fcc67d36", "fusion_lat": 0.0, "name": "993ff7ade588e6b5e0d7a445fcc67d36", "is_reserved": 0, "rental_uris": {"android": "https://dc.lft.to/lastmile_qr_scan", "ios": "https://dc.lft.to/lastmile_qr_scan"}, "fusion_lon": 0.0}, {"lat": 38.901688666666665, "is_disabled": 0, "type": "electric_scooter", "lon": -77.024955, "bike_id": "8b036d93df46f49c4dbe8528fdea9b47", "fusion_lat": 0.0, "name": "8b036d93df46f49c4dbe8528fdea9b47", "is_reserved": 0, "rental_uris": {"android": "https://dc.lft.to/lastmile_qr_scan", "ios": "https://dc.lft.to/lastmile_qr_scan"}, "fusion_lon": 0.0}, {"lat": 38.90960583333333, "is_disabled": 0, "type": "electric_scooter", "lon": -77.032493, "bike_id": "a420a5f9d12b6f664d6767e0a43f139c", "fusion_lat": 0.0, "name": "a420a5f9d12b6f664d6767e0a43f139c", "is_reserved": 0, "rental_uris": {"android": "https://dc.lft.to/lastmile_qr_scan", "ios": "https://dc.lft.to/lastmile_qr_scan"}, "fusion_lon": 0.0}, {"lat": 38.90310616666667, "is_disabled": 0, "type": "electric_scooter", "lon": -77.01197083333334, "bike_id": "45002447009bad271ab9e1a0fd168527", "fusion_lat": 0.0, "name": "45002447009bad271ab9e1a0fd168527", "is_reserved": 0, "rental_uris": {"android": "https://dc.lft.to/lastmile_qr_scan", "ios": "https://dc.lft.to/lastmile_qr_scan"}, "fusion_lon": 0.0}, {"lat": 38.906713, "is_disabled": 0, "type": "electric_scooter", "lon": -77.038274, "bike_id": "523955e97d429273c7c8a036c344b474", "fusion_lat": 0.0, "name": "523955e97d429273c7c8a036c344b474", "is_reserved": 0, "rental_uris": {"android": "https://dc.lft.to/lastmile_qr_scan", "ios": "https://dc.lft.to/lastmile_qr_scan"}, "fusion_lon": 0.0}, {"lat": 38.9156095, "is_disabled": 0, "type": "electric_scooter", "lon": -77.02000833333334, "bike_id": "3772954e3d0a4927abc2be04ea4fdd1e", "fusion_lat": 0.0, "name": "3772954e3d0a4927abc2be04ea4fdd1e", "is_reserved": 0, "rental_uris": {"android": "https://dc.lft.to/lastmile_qr_scan", "ios": "https://dc.lft.to/lastmile_qr_scan"}, "fusion_lon": 0.0}, {"lat": 38.944306, "is_disabled": 0, "type": "electric_scooter", "lon": -77.0632055, "bike_id": "c19f6b66ede056c97f5b56599c1025bd", "fusion_lat": 0.0, "name": "c19f6b66ede056c97f5b56599c1025bd", "is_reserved": 0, "rental_uris": {"android": "https://dc.lft.to/lastmile_qr_scan", "ios": "https://dc.lft.to/lastmile_qr_scan"}, "fusion_lon": 0.0}, {"lat": 38.89495183333333, "is_disabled": 0, "type": "electric_scooter", "lon": -77.0020655, "bike_id": "117561227ddc6359b905a4c2e23edc12", "fusion_lat": 0.0, "name": "117561227ddc6359b905a4c2e23edc12", "is_reserved": 0, "rental_uris": {"android": "https://dc.lft.to/lastmile_qr_scan", "ios": "https://dc.lft.to/lastmile_qr_scan"}, "fusion_lon": 0.0}, {"lat": 38.912538, "is_disabled": 0, "type": "electric_scooter", "lon": -77.0386915, "bike_id": "666fdb6e76e38615020769c7c7c3acb7", "fusion_lat": 0.0, "name": "666fdb6e76e38615020769c7c7c3acb7", "is_reserved": 0, "rental_uris": {"android": "https://dc.lft.to/lastmile_qr_scan", "ios": "https://dc.lft.to/lastmile_qr_scan"}, "fusion_lon": 0.0}, {"lat": 38.9129415, "is_disabled": 0, "type": "electric_scooter", "lon": -77.00661916666667, "bike_id": "868afc446be8c424745b8330c37982c2", "fusion_lat": 0.0, "name": "868afc446be8c424745b8330c37982c2", "is_reserved": 0, "rental_uris": {"android": "https://dc.lft.to/lastmile_qr_scan", "ios": "https://dc.lft.to/lastmile_qr_scan"}, "fusion_lon": 0.0}, {"lat": 38.90672266666667, "is_disabled": 0, "type": "electric_scooter", "lon": -77.02688516666667, "bike_id": "b73a7135b02c65537cb16992384f3896", "fusion_lat": 0.0, "name": "b73a7135b02c65537cb16992384f3896", "is_reserved": 0, "rental_uris": {"android": "https://dc.lft.to/lastmile_qr_scan", "ios": "https://dc.lft.to/lastmile_qr_scan"}, "fusion_lon": 0.0}, {"lat": 38.9057915, "is_disabled": 0, "type": "electric_scooter", "lon": -77.027037, "bike_id": "466df87e0a1e2bbd9d037cd3ad4fd8ad", "fusion_lat": 0.0, "name": "466df87e0a1e2bbd9d037cd3ad4fd8ad", "is_reserved": 0, "rental_uris": {"android": "https://dc.lft.to/lastmile_qr_scan", "ios": "https://dc.lft.to/lastmile_qr_scan"}, "fusion_lon": 0.0}, {"lat": 38.907456333333336, "is_disabled": 0, "type": "electric_scooter", "lon": -76.99902633333333, "bike_id": "9e1ae39edb106b526c3b19edfd36fdaf", "fusion_lat": 0.0, "name": "9e1ae39edb106b526c3b19edfd36fdaf", "is_reserved": 0, "rental_uris": {"android": "https://dc.lft.to/lastmile_qr_scan", "ios": "https://dc.lft.to/lastmile_qr_scan"}, "fusion_lon": 0.0}, {"lat": 38.928707333333335, "is_disabled": 0, "type": "electric_bike", "lon": -77.012443, "bike_id": "247e0ccfd743f60338d7accf74bc987a", "fusion_lat": 0.0, "name": "247e0ccfd743f60338d7accf74bc987a", "is_reserved": 0, "rental_uris": {"android": "https://dc.lft.to/lastmile_qr_scan", "ios": "https://dc.lft.to/lastmile_qr_scan"}, "fusion_lon": 0.0}, {"lat": 38.93746266666667, "is_disabled": 0, "type": "electric_scooter", "lon": -77.0345355, "bike_id": "aa72a742426e963455ed2719ca94f8d6", "fusion_lat": 0.0, "name": "aa72a742426e963455ed2719ca94f8d6", "is_reserved": 0, "rental_uris": {"android": "https://dc.lft.to/lastmile_qr_scan", "ios": "https://dc.lft.to/lastmile_qr_scan"}, "fusion_lon": 0.0}, {"lat": 38.896223166666665, "is_disabled": 0, "type": "electric_scooter", "lon": -77.04480583333333, "bike_id": "aacf0e37b6fa73cf965617256ec7667a", "fusion_lat": 0.0, "name": "aacf0e37b6fa73cf965617256ec7667a", "is_reserved": 0, "rental_uris": {"android": "https://dc.lft.to/lastmile_qr_scan", "ios": "https://dc.lft.to/lastmile_qr_scan"}, "fusion_lon": 0.0}, {"lat": 38.905740333333334, "is_disabled": 0, "type": "electric_scooter", "lon": -77.0434775, "bike_id": "1a269f9dd9b22fce65b2acb58d11e1f2", "fusion_lat": 0.0, "name": "1a269f9dd9b22fce65b2acb58d11e1f2", "is_reserved": 0, "rental_uris": {"android": "https://dc.lft.to/lastmile_qr_scan", "ios": "https://dc.lft.to/lastmile_qr_scan"}, "fusion_lon": 0.0}, {"lat": 38.90770833333333, "is_disabled": 0, "type": "electric_scooter", "lon": -77.03854966666667, "bike_id": "b77d6555e0a9506f6f059cc0a119ab9f", "fusion_lat": 0.0, "name": "b77d6555e0a9506f6f059cc0a119ab9f", "is_reserved": 0, "rental_uris": {"android": "https://dc.lft.to/lastmile_qr_scan", "ios": "https://dc.lft.to/lastmile_qr_scan"}, "fusion_lon": 0.0}, {"lat": 38.93188333333333, "is_disabled": 0, "type": "electric_scooter", "lon": -77.0283235, "bike_id": "19e41ef4ce51d54da7685b2378ce4386", "fusion_lat": 0.0, "name": "19e41ef4ce51d54da7685b2378ce4386", "is_reserved": 0, "rental_uris": {"android": "https://dc.lft.to/lastmile_qr_scan", "ios": "https://dc.lft.to/lastmile_qr_scan"}, "fusion_lon": 0.0}, {"lat": 38.907672, "is_disabled": 0, "type": "electric_scooter", "lon": -77.038604, "bike_id": "482c4b9342b848e2669173138f8e6b01", "fusion_lat": 0.0, "name": "482c4b9342b848e2669173138f8e6b01", "is_reserved": 0, "rental_uris": {"android": "https://dc.lft.to/lastmile_qr_scan", "ios": "https://dc.lft.to/lastmile_qr_scan"}, "fusion_lon": 0.0}, {"lat": 38.82781666666666, "is_disabled": 0, "type": "electric_bike", "lon": -77.00917333333334, "bike_id": "57c26f8f24b38ccffb301f2f7204174d", "fusion_lat": 0.0, "name": "57c26f8f24b38ccffb301f2f7204174d", "is_reserved": 0, "rental_uris": {"android": "https://dc.lft.to/lastmile_qr_scan", "ios": "https://dc.lft.to/lastmile_qr_scan"}, "fusion_lon": 0.0}, {"lat": 38.93736416666667, "is_disabled": 0, "type": "electric_scooter", "lon": -77.03633516666666, "bike_id": "b8991a3f65c4604abe4e1940b4ddab65", "fusion_lat": 0.0, "name": "b8991a3f65c4604abe4e1940b4ddab65", "is_reserved": 0, "rental_uris": {"android": "https://dc.lft.to/lastmile_qr_scan", "ios": "https://dc.lft.to/lastmile_qr_scan"}, "fusion_lon": 0.0}, {"lat": 38.91799966666667, "is_disabled": 0, "type": "electric_scooter", "lon": -77.040161, "bike_id": "e81dd80cab349f5e3694839574424da5", "fusion_lat": 0.0, "name": "e81dd80cab349f5e3694839574424da5", "is_reserved": 0, "rental_uris": {"android": "https://dc.lft.to/lastmile_qr_scan", "ios": "https://dc.lft.to/lastmile_qr_scan"}, "fusion_lon": 0.0}, {"lat": 38.914756833333335, "is_disabled": 0, "type": "electric_scooter", "lon": -77.00355583333334, "bike_id": "8b935d2f06210c6a068246519351c405", "fusion_lat": 0.0, "name": "8b935d2f06210c6a068246519351c405", "is_reserved": 0, "rental_uris": {"android": "https://dc.lft.to/lastmile_qr_scan", "ios": "https://dc.lft.to/lastmile_qr_scan"}, "fusion_lon": 0.0}, {"lat": 38.844220666666665, "is_disabled": 0, "type": "electric_scooter", "lon": -76.99778316666666, "bike_id": "c2083de6f310bc728ffc87c87bc83c4f", "fusion_lat": 0.0, "name": "c2083de6f310bc728ffc87c87bc83c4f", "is_reserved": 0, "rental_uris": {"android": "https://dc.lft.to/lastmile_qr_scan", "ios": "https://dc.lft.to/lastmile_qr_scan"}, "fusion_lon": 0.0}, {"lat": 38.98648283333333, "is_disabled": 0, "type": "electric_bike", "lon": -77.05633066666667, "bike_id": "e42f7825ecde5aeaf8cf3e4c16cbc663", "fusion_lat": 0.0, "name": "e42f7825ecde5aeaf8cf3e4c16cbc663", "is_reserved": 0, "rental_uris": {"android": "https://dc.lft.to/lastmile_qr_scan", "ios": "https://dc.lft.to/lastmile_qr_scan"}, "fusion_lon": 0.0}, {"lat": 38.917235166666664, "is_disabled": 0, "type": "electric_scooter", "lon": -77.03209016666666, "bike_id": "d40263b8a2acf5ee263bd43734ce69e5", "fusion_lat": 0.0, "name": "d40263b8a2acf5ee263bd43734ce69e5", "is_reserved": 0, "rental_uris": {"android": "https://dc.lft.to/lastmile_qr_scan", "ios": "https://dc.lft.to/lastmile_qr_scan"}, "fusion_lon": 0.0}, {"lat": 38.906378, "is_disabled": 0, "type": "electric_scooter", "lon": -77.06286133333333, "bike_id": "71aa25c95661f5f81d866d2bf6d0b644", "fusion_lat": 0.0, "name": "71aa25c95661f5f81d866d2bf6d0b644", "is_reserved": 0, "rental_uris": {"android": "https://dc.lft.to/lastmile_qr_scan", "ios": "https://dc.lft.to/lastmile_qr_scan"}, "fusion_lon": 0.0}, {"lat": 38.921875666666665, "is_disabled": 0, "type": "electric_scooter", "lon": -77.0398345, "bike_id": "1df9648e1577a5020f8d7b009230754a", "fusion_lat": 0.0, "name": "1df9648e1577a5020f8d7b009230754a", "is_reserved": 0, "rental_uris": {"android": "https://dc.lft.to/lastmile_qr_scan", "ios": "https://dc.lft.to/lastmile_qr_scan"}, "fusion_lon": 0.0}, {"lat": 38.884849833333334, "is_disabled": 0, "type": "electric_scooter", "lon": -77.03474483333333, "bike_id": "0e3b1d4b4ba9ed9754560c3077769608", "fusion_lat": 0.0, "name": "0e3b1d4b4ba9ed9754560c3077769608", "is_reserved": 0, "rental_uris": {"android": "https://dc.lft.to/lastmile_qr_scan", "ios": "https://dc.lft.to/lastmile_qr_scan"}, "fusion_lon": 0.0}, {"lat": 38.91938416666667, "is_disabled": 0, "type": "electric_scooter", "lon": -77.02594666666667, "bike_id": "b54d9b1aecfbfc738fe316f0bcb23dbb", "fusion_lat": 0.0, "name": "b54d9b1aecfbfc738fe316f0bcb23dbb", "is_reserved": 0, "rental_uris": {"android": "https://dc.lft.to/lastmile_qr_scan", "ios": "https://dc.lft.to/lastmile_qr_scan"}, "fusion_lon": 0.0}, {"lat": 38.9224245, "is_disabled": 0, "type": "electric_scooter", "lon": -77.043556, "bike_id": "9d92ed8f7fba2e2c723e4a34adddfe65", "fusion_lat": 0.0, "name": "9d92ed8f7fba2e2c723e4a34adddfe65", "is_reserved": 0, "rental_uris": {"android": "https://dc.lft.to/lastmile_qr_scan", "ios": "https://dc.lft.to/lastmile_qr_scan"}, "fusion_lon": 0.0}, {"lat": 38.902518666666666, "is_disabled": 0, "type": "electric_scooter", "lon": -77.04367166666667, "bike_id": "268cebd55d393d44892d609af7dd9b0d", "fusion_lat": 0.0, "name": "268cebd55d393d44892d609af7dd9b0d", "is_reserved": 0, "rental_uris": {"android": "https://dc.lft.to/lastmile_qr_scan", "ios": "https://dc.lft.to/lastmile_qr_scan"}, "fusion_lon": 0.0}, {"lat": 38.919488333333334, "is_disabled": 0, "type": "electric_scooter", "lon": -76.96981966666667, "bike_id": "7a63c2861aa84c489e382091f7f17ab3", "fusion_lat": 0.0, "name": "7a63c2861aa84c489e382091f7f17ab3", "is_reserved": 0, "rental_uris": {"android": "https://dc.lft.to/lastmile_qr_scan", "ios": "https://dc.lft.to/lastmile_qr_scan"}, "fusion_lon": 0.0}, {"lat": 38.87761166666667, "is_disabled": 0, "type": "electric_scooter", "lon": -77.01752516666667, "bike_id": "d7e2a9907ec168c735c95cbd32c4e713", "fusion_lat": 0.0, "name": "d7e2a9907ec168c735c95cbd32c4e713", "is_reserved": 0, "rental_uris": {"android": "https://dc.lft.to/lastmile_qr_scan", "ios": "https://dc.lft.to/lastmile_qr_scan"}, "fusion_lon": 0.0}, {"lat": 38.8635495, "is_disabled": 0, "type": "electric_scooter", "lon": -76.99038366666667, "bike_id": "bd2a88ec7c08b93b10b6e8a6cf1cd4a1", "fusion_lat": 0.0, "name": "bd2a88ec7c08b93b10b6e8a6cf1cd4a1", "is_reserved": 0, "rental_uris": {"android": "https://dc.lft.to/lastmile_qr_scan", "ios": "https://dc.lft.to/lastmile_qr_scan"}, "fusion_lon": 0.0}, {"lat": 38.80223483333333, "is_disabled": 0, "type": "electric_bike", "lon": -77.079158, "bike_id": "5aa91d629bc2033f43e1a86e75f601b3", "fusion_lat": 0.0, "name": "5aa91d629bc2033f43e1a86e75f601b3", "is_reserved": 0, "rental_uris": {"android": "https://dc.lft.to/lastmile_qr_scan", "ios": "https://dc.lft.to/lastmile_qr_scan"}, "fusion_lon": 0.0}, {"lat": 38.927141166666665, "is_disabled": 0, "type": "electric_scooter", "lon": -77.02287383333334, "bike_id": "f964258af2713665b44782f5081bf13a", "fusion_lat": 0.0, "name": "f964258af2713665b44782f5081bf13a", "is_reserved": 0, "rental_uris": {"android": "https://dc.lft.to/lastmile_qr_scan", "ios": "https://dc.lft.to/lastmile_qr_scan"}, "fusion_lon": 0.0}, {"lat": 38.9096255, "is_disabled": 0, "type": "electric_scooter", "lon": -77.033761, "bike_id": "163a4b60a66e0e952dab4c8de9b4952b", "fusion_lat": 0.0, "name": "163a4b60a66e0e952dab4c8de9b4952b", "is_reserved": 0, "rental_uris": {"android": "https://dc.lft.to/lastmile_qr_scan", "ios": "https://dc.lft.to/lastmile_qr_scan"}, "fusion_lon": 0.0}, {"lat": 38.96664883333333, "is_disabled": 0, "type": "electric_bike", "lon": -76.97447566666666, "bike_id": "b6a25424e9aae7a70e6f2bc0d7fc5f18", "fusion_lat": 0.0, "name": "b6a25424e9aae7a70e6f2bc0d7fc5f18", "is_reserved": 0, "rental_uris": {"android": "https://dc.lft.to/lastmile_qr_scan", "ios": "https://dc.lft.to/lastmile_qr_scan"}, "fusion_lon": 0.0}, {"lat": 38.913215, "is_disabled": 0, "type": "electric_scooter", "lon": -77.0319025, "bike_id": "235f4a0a9e78c40ac0a87356299417fb", "fusion_lat": 0.0, "name": "235f4a0a9e78c40ac0a87356299417fb", "is_reserved": 0, "rental_uris": {"android": "https://dc.lft.to/lastmile_qr_scan", "ios": "https://dc.lft.to/lastmile_qr_scan"}, "fusion_lon": 0.0}, {"lat": 38.9284965, "is_disabled": 0, "type": "electric_scooter", "lon": -77.01418166666667, "bike_id": "22e59601afd25b83a4fa5443c9ab63d3", "fusion_lat": 0.0, "name": "22e59601afd25b83a4fa5443c9ab63d3", "is_reserved": 0, "rental_uris": {"android": "https://dc.lft.to/lastmile_qr_scan", "ios": "https://dc.lft.to/lastmile_qr_scan"}, "fusion_lon": 0.0}, {"lat": 38.903012833333335, "is_disabled": 0, "type": "electric_scooter", "lon": -77.00892766666666, "bike_id": "25e5c3776a204a86d4da8098cdccfa03", "fusion_lat": 0.0, "name": "25e5c3776a204a86d4da8098cdccfa03", "is_reserved": 0, "rental_uris": {"android": "https://dc.lft.to/lastmile_qr_scan", "ios": "https://dc.lft.to/lastmile_qr_scan"}, "fusion_lon": 0.0}, {"lat": 38.90207066666667, "is_disabled": 0, "type": "electric_scooter", "lon": -77.02374633333334, "bike_id": "7f8f1443cfcf36d1ebb8106b250e3a8f", "fusion_lat": 0.0, "name": "7f8f1443cfcf36d1ebb8106b250e3a8f", "is_reserved": 0, "rental_uris": {"android": "https://dc.lft.to/lastmile_qr_scan", "ios": "https://dc.lft.to/lastmile_qr_scan"}, "fusion_lon": 0.0}, {"lat": 38.900627166666666, "is_disabled": 0, "type": "electric_scooter", "lon": -77.001967, "bike_id": "bac9ec795204237be0b9134be38e7694", "fusion_lat": 0.0, "name": "bac9ec795204237be0b9134be38e7694", "is_reserved": 0, "rental_uris": {"android": "https://dc.lft.to/lastmile_qr_scan", "ios": "https://dc.lft.to/lastmile_qr_scan"}, "fusion_lon": 0.0}, {"lat": 38.917155, "is_disabled": 0, "type": "electric_scooter", "lon": -77.03344183333333, "bike_id": "88d425dfee4432b3c736ffae653b9ffa", "fusion_lat": 0.0, "name": "88d425dfee4432b3c736ffae653b9ffa", "is_reserved": 0, "rental_uris": {"android": "https://dc.lft.to/lastmile_qr_scan", "ios": "https://dc.lft.to/lastmile_qr_scan"}, "fusion_lon": 0.0}, {"lat": 38.87239733333333, "is_disabled": 0, "type": "electric_scooter", "lon": -76.97720816666667, "bike_id": "8d72609e50d4d7c50f0fc00afafb04c5", "fusion_lat": 0.0, "name": "8d72609e50d4d7c50f0fc00afafb04c5", "is_reserved": 0, "rental_uris": {"android": "https://dc.lft.to/lastmile_qr_scan", "ios": "https://dc.lft.to/lastmile_qr_scan"}, "fusion_lon": 0.0}, {"lat": 38.92035333333333, "is_disabled": 0, "type": "electric_bike", "lon": -77.03705166666667, "bike_id": "9609972527af01ca2befae2c9fdb0e0d", "fusion_lat": 0.0, "name": "9609972527af01ca2befae2c9fdb0e0d", "is_reserved": 0, "rental_uris": {"android": "https://dc.lft.to/lastmile_qr_scan", "ios": "https://dc.lft.to/lastmile_qr_scan"}, "fusion_lon": 0.0}, {"lat": 38.901104, "is_disabled": 0, "type": "electric_scooter", "lon": -77.03203916666666, "bike_id": "06e7e72bb3f9d28581f8988e9c5b5c1e", "fusion_lat": 0.0, "name": "06e7e72bb3f9d28581f8988e9c5b5c1e", "is_reserved": 0, "rental_uris": {"android": "https://dc.lft.to/lastmile_qr_scan", "ios": "https://dc.lft.to/lastmile_qr_scan"}, "fusion_lon": 0.0}, {"lat": 38.87073733333333, "is_disabled": 0, "type": "electric_scooter", "lon": -76.9685905, "bike_id": "b69171c706bdc7817c4f4cefb4297432", "fusion_lat": 0.0, "name": "b69171c706bdc7817c4f4cefb4297432", "is_reserved": 0, "rental_uris": {"android": "https://dc.lft.to/lastmile_qr_scan", "ios": "https://dc.lft.to/lastmile_qr_scan"}, "fusion_lon": 0.0}, {"lat": 38.88921233333333, "is_disabled": 0, "type": "electric_scooter", "lon": -76.97375983333333, "bike_id": "f922c56cbbca979b29dc4460aa16d745", "fusion_lat": 0.0, "name": "f922c56cbbca979b29dc4460aa16d745", "is_reserved": 0, "rental_uris": {"android": "https://dc.lft.to/lastmile_qr_scan", "ios": "https://dc.lft.to/lastmile_qr_scan"}, "fusion_lon": 0.0}, {"lat": 38.90261483333333, "is_disabled": 0, "type": "electric_scooter", "lon": -77.030625, "bike_id": "f10e314ab8d35fbcb6e466eeff4b56b8", "fusion_lat": 0.0, "name": "f10e314ab8d35fbcb6e466eeff4b56b8", "is_reserved": 0, "rental_uris": {"android": "https://dc.lft.to/lastmile_qr_scan", "ios": "https://dc.lft.to/lastmile_qr_scan"}, "fusion_lon": 0.0}, {"lat": 38.9129095, "is_disabled": 0, "type": "electric_bike", "lon": -77.04489566666666, "bike_id": "e07970e89e6da18a1adbbeed164d6310", "fusion_lat": 0.0, "name": "e07970e89e6da18a1adbbeed164d6310", "is_reserved": 0, "rental_uris": {"android": "https://dc.lft.to/lastmile_qr_scan", "ios": "https://dc.lft.to/lastmile_qr_scan"}, "fusion_lon": 0.0}, {"lat": 38.944029, "is_disabled": 0, "type": "electric_scooter", "lon": -77.02653033333333, "bike_id": "aeeb21d586ede22bba8ecdb614115a99", "fusion_lat": 0.0, "name": "aeeb21d586ede22bba8ecdb614115a99", "is_reserved": 0, "rental_uris": {"android": "https://dc.lft.to/lastmile_qr_scan", "ios": "https://dc.lft.to/lastmile_qr_scan"}, "fusion_lon": 0.0}, {"lat": 38.90858766666667, "is_disabled": 0, "type": "electric_scooter", "lon": -77.04772416666667, "bike_id": "dd9fdad6386db3353cf833967a58a8bf", "fusion_lat": 0.0, "name": "dd9fdad6386db3353cf833967a58a8bf", "is_reserved": 0, "rental_uris": {"android": "https://dc.lft.to/lastmile_qr_scan", "ios": "https://dc.lft.to/lastmile_qr_scan"}, "fusion_lon": 0.0}, {"lat": 38.85509366666667, "is_disabled": 0, "type": "electric_bike", "lon": -76.9841575, "bike_id": "718b3c4819e5f300dae0c8d792610f9f", "fusion_lat": 0.0, "name": "718b3c4819e5f300dae0c8d792610f9f", "is_reserved": 0, "rental_uris": {"android": "https://dc.lft.to/lastmile_qr_scan", "ios": "https://dc.lft.to/lastmile_qr_scan"}, "fusion_lon": 0.0}, {"lat": 38.934849666666665, "is_disabled": 0, "type": "electric_scooter", "lon": -77.07272583333334, "bike_id": "a88a2136d6c6422942c305d3ac3b00a5", "fusion_lat": 0.0, "name": "a88a2136d6c6422942c305d3ac3b00a5", "is_reserved": 0, "rental_uris": {"android": "https://dc.lft.to/lastmile_qr_scan", "ios": "https://dc.lft.to/lastmile_qr_scan"}, "fusion_lon": 0.0}, {"lat": 38.90309116666667, "is_disabled": 0, "type": "electric_scooter", "lon": -77.03319666666667, "bike_id": "4d164c53332cc2a5521048c7476e7a28", "fusion_lat": 0.0, "name": "4d164c53332cc2a5521048c7476e7a28", "is_reserved": 0, "rental_uris": {"android": "https://dc.lft.to/lastmile_qr_scan", "ios": "https://dc.lft.to/lastmile_qr_scan"}, "fusion_lon": 0.0}, {"lat": 38.91413883333333, "is_disabled": 0, "type": "electric_scooter", "lon": -77.0317765, "bike_id": "05c4cd2e738e9f105abb31d1875004a7", "fusion_lat": 0.0, "name": "05c4cd2e738e9f105abb31d1875004a7", "is_reserved": 0, "rental_uris": {"android": "https://dc.lft.to/lastmile_qr_scan", "ios": "https://dc.lft.to/lastmile_qr_scan"}, "fusion_lon": 0.0}, {"lat": 38.900044333333334, "is_disabled": 0, "type": "electric_scooter", "lon": -76.99851083333333, "bike_id": "3774aee95d1db36d1ddcfa45c3f821e8", "fusion_lat": 0.0, "name": "3774aee95d1db36d1ddcfa45c3f821e8", "is_reserved": 0, "rental_uris": {"android": "https://dc.lft.to/lastmile_qr_scan", "ios": "https://dc.lft.to/lastmile_qr_scan"}, "fusion_lon": 0.0}, {"lat": 38.90203666666667, "is_disabled": 0, "type": "electric_scooter", "lon": -77.04871983333334, "bike_id": "485713809a27b8f3f5e5c00157c5ee6b", "fusion_lat": 0.0, "name": "485713809a27b8f3f5e5c00157c5ee6b", "is_reserved": 0, "rental_uris": {"android": "https://dc.lft.to/lastmile_qr_scan", "ios": "https://dc.lft.to/lastmile_qr_scan"}, "fusion_lon": 0.0}, {"lat": 38.93396116666667, "is_disabled": 0, "type": "electric_scooter", "lon": -77.04120083333333, "bike_id": "fd0b1b48b0a090d2d8899b5f1dd11fcc", "fusion_lat": 0.0, "name": "fd0b1b48b0a090d2d8899b5f1dd11fcc", "is_reserved": 0, "rental_uris": {"android": "https://dc.lft.to/lastmile_qr_scan", "ios": "https://dc.lft.to/lastmile_qr_scan"}, "fusion_lon": 0.0}, {"lat": 38.92591216666667, "is_disabled": 0, "type": "electric_scooter", "lon": -77.02143816666667, "bike_id": "3274c5a5c8b8d392dbf6da62ba8bbc70", "fusion_lat": 0.0, "name": "3274c5a5c8b8d392dbf6da62ba8bbc70", "is_reserved": 0, "rental_uris": {"android": "https://dc.lft.to/lastmile_qr_scan", "ios": "https://dc.lft.to/lastmile_qr_scan"}, "fusion_lon": 0.0}, {"lat": 38.960956833333334, "is_disabled": 0, "type": "electric_scooter", "lon": -77.08283683333333, "bike_id": "043886bf43aca78dc8a3d0f6c14b45cb", "fusion_lat": 0.0, "name": "043886bf43aca78dc8a3d0f6c14b45cb", "is_reserved": 0, "rental_uris": {"android": "https://dc.lft.to/lastmile_qr_scan", "ios": "https://dc.lft.to/lastmile_qr_scan"}, "fusion_lon": 0.0}, {"lat": 38.879244166666666, "is_disabled": 0, "type": "electric_bike", "lon": -77.023747, "bike_id": "73243e221112125343fcacd83b612038", "fusion_lat": 0.0, "name": "73243e221112125343fcacd83b612038", "is_reserved": 0, "rental_uris": {"android": "https://dc.lft.to/lastmile_qr_scan", "ios": "https://dc.lft.to/lastmile_qr_scan"}, "fusion_lon": 0.0}, {"lat": 38.91783616666667, "is_disabled": 0, "type": "electric_bike", "lon": -76.97188466666667, "bike_id": "e2b0946667ed53a333943a2fd7c71243", "fusion_lat": 0.0, "name": "e2b0946667ed53a333943a2fd7c71243", "is_reserved": 0, "rental_uris": {"android": "https://dc.lft.to/lastmile_qr_scan", "ios": "https://dc.lft.to/lastmile_qr_scan"}, "fusion_lon": 0.0}, {"lat": 38.866945666666666, "is_disabled": 0, "type": "electric_scooter", "lon": -76.9870755, "bike_id": "0c2df641378db1ef70f7f0315035e082", "fusion_lat": 0.0, "name": "0c2df641378db1ef70f7f0315035e082", "is_reserved": 0, "rental_uris": {"android": "https://dc.lft.to/lastmile_qr_scan", "ios": "https://dc.lft.to/lastmile_qr_scan"}, "fusion_lon": 0.0}, {"lat": 38.917410333333336, "is_disabled": 0, "type": "electric_scooter", "lon": -77.031866, "bike_id": "3aeb2a8c39050373f5c6f7e0ff16ab9a", "fusion_lat": 0.0, "name": "3aeb2a8c39050373f5c6f7e0ff16ab9a", "is_reserved": 0, "rental_uris": {"android": "https://dc.lft.to/lastmile_qr_scan", "ios": "https://dc.lft.to/lastmile_qr_scan"}, "fusion_lon": 0.0}, {"lat": 38.9055995, "is_disabled": 0, "type": "electric_scooter", "lon": -77.01769833333333, "bike_id": "c050b99b710505438e8e29d795736d79", "fusion_lat": 0.0, "name": "c050b99b710505438e8e29d795736d79", "is_reserved": 0, "rental_uris": {"android": "https://dc.lft.to/lastmile_qr_scan", "ios": "https://dc.lft.to/lastmile_qr_scan"}, "fusion_lon": 0.0}, {"lat": 38.903688333333335, "is_disabled": 0, "type": "electric_scooter", "lon": -77.04501666666667, "bike_id": "b9670d588c7108179a35e951ef3f4e0c", "fusion_lat": 0.0, "name": "b9670d588c7108179a35e951ef3f4e0c", "is_reserved": 0, "rental_uris": {"android": "https://dc.lft.to/lastmile_qr_scan", "ios": "https://dc.lft.to/lastmile_qr_scan"}, "fusion_lon": 0.0}, {"lat": 38.964393, "is_disabled": 0, "type": "electric_bike", "lon": -77.02067666666666, "bike_id": "18387fbef0567234772153980294ea3a", "fusion_lat": 0.0, "name": "18387fbef0567234772153980294ea3a", "is_reserved": 0, "rental_uris": {"android": "https://dc.lft.to/lastmile_qr_scan", "ios": "https://dc.lft.to/lastmile_qr_scan"}, "fusion_lon": 0.0}, {"lat": 38.885174166666665, "is_disabled": 0, "type": "electric_scooter", "lon": -77.01133933333334, "bike_id": "4c0e43825f3f0f1afcdae3fdb737043f", "fusion_lat": 0.0, "name": "4c0e43825f3f0f1afcdae3fdb737043f", "is_reserved": 0, "rental_uris": {"android": "https://dc.lft.to/lastmile_qr_scan", "ios": "https://dc.lft.to/lastmile_qr_scan"}, "fusion_lon": 0.0}, {"lat": 38.90673266666667, "is_disabled": 0, "type": "electric_scooter", "lon": -77.0268775, "bike_id": "9084f304d548d39d5bdd94bc286dcfc3", "fusion_lat": 0.0, "name": "9084f304d548d39d5bdd94bc286dcfc3", "is_reserved": 0, "rental_uris": {"android": "https://dc.lft.to/lastmile_qr_scan", "ios": "https://dc.lft.to/lastmile_qr_scan"}, "fusion_lon": 0.0}, {"lat": 38.861674, "is_disabled": 0, "type": "electric_bike", "lon": -77.13147183333334, "bike_id": "a10872a4f476c7f194caea110a09b5de", "fusion_lat": 0.0, "name": "a10872a4f476c7f194caea110a09b5de", "is_reserved": 0, "rental_uris": {"android": "https://dc.lft.to/lastmile_qr_scan", "ios": "https://dc.lft.to/lastmile_qr_scan"}, "fusion_lon": 0.0}, {"lat": 38.91761233333333, "is_disabled": 0, "type": "electric_scooter", "lon": -77.02302116666667, "bike_id": "2a7e662058d7096992f08ca3273c2337", "fusion_lat": 0.0, "name": "2a7e662058d7096992f08ca3273c2337", "is_reserved": 0, "rental_uris": {"android": "https://dc.lft.to/lastmile_qr_scan", "ios": "https://dc.lft.to/lastmile_qr_scan"}, "fusion_lon": 0.0}, {"lat": 38.877176666666664, "is_disabled": 0, "type": "electric_scooter", "lon": -77.01759933333334, "bike_id": "261a369c3e782d0d2e74e21f90333654", "fusion_lat": 0.0, "name": "261a369c3e782d0d2e74e21f90333654", "is_reserved": 0, "rental_uris": {"android": "https://dc.lft.to/lastmile_qr_scan", "ios": "https://dc.lft.to/lastmile_qr_scan"}, "fusion_lon": 0.0}, {"lat": 38.937099333333336, "is_disabled": 0, "type": "electric_scooter", "lon": -77.03641133333333, "bike_id": "fbf5e9497fb75e473ad0b3499e2e5170", "fusion_lat": 0.0, "name": "fbf5e9497fb75e473ad0b3499e2e5170", "is_reserved": 0, "rental_uris": {"android": "https://dc.lft.to/lastmile_qr_scan", "ios": "https://dc.lft.to/lastmile_qr_scan"}, "fusion_lon": 0.0}, {"lat": 38.916362666666664, "is_disabled": 0, "type": "electric_scooter", "lon": -77.04785133333333, "bike_id": "3fc97852884118edd514b0a75749fcef", "fusion_lat": 0.0, "name": "3fc97852884118edd514b0a75749fcef", "is_reserved": 0, "rental_uris": {"android": "https://dc.lft.to/lastmile_qr_scan", "ios": "https://dc.lft.to/lastmile_qr_scan"}, "fusion_lon": 0.0}, {"lat": 38.9307605, "is_disabled": 0, "type": "electric_scooter", "lon": -77.03748883333333, "bike_id": "a59bde0c74c636824ec495d0a96a6aa6", "fusion_lat": 0.0, "name": "a59bde0c74c636824ec495d0a96a6aa6", "is_reserved": 0, "rental_uris": {"android": "https://dc.lft.to/lastmile_qr_scan", "ios": "https://dc.lft.to/lastmile_qr_scan"}, "fusion_lon": 0.0}, {"lat": 38.9089885, "is_disabled": 0, "type": "electric_scooter", "lon": -77.03153016666667, "bike_id": "3ad88f9786ade72260a3ea1699cb8abb", "fusion_lat": 0.0, "name": "3ad88f9786ade72260a3ea1699cb8abb", "is_reserved": 0, "rental_uris": {"android": "https://dc.lft.to/lastmile_qr_scan", "ios": "https://dc.lft.to/lastmile_qr_scan"}, "fusion_lon": 0.0}, {"lat": 38.91819733333333, "is_disabled": 0, "type": "electric_scooter", "lon": -77.0317055, "bike_id": "43cb54ed17ad81ce251814e838ae50e8", "fusion_lat": 0.0, "name": "43cb54ed17ad81ce251814e838ae50e8", "is_reserved": 0, "rental_uris": {"android": "https://dc.lft.to/lastmile_qr_scan", "ios": "https://dc.lft.to/lastmile_qr_scan"}, "fusion_lon": 0.0}, {"lat": 38.93247933333333, "is_disabled": 0, "type": "electric_scooter", "lon": -77.03267183333334, "bike_id": "817b1a1718000bc93b4e97158ef18233", "fusion_lat": 0.0, "name": "817b1a1718000bc93b4e97158ef18233", "is_reserved": 0, "rental_uris": {"android": "https://dc.lft.to/lastmile_qr_scan", "ios": "https://dc.lft.to/lastmile_qr_scan"}, "fusion_lon": 0.0}, {"lat": 38.91414916666667, "is_disabled": 0, "type": "electric_scooter", "lon": -77.03175616666667, "bike_id": "d299441018e11f4cf61c9ac5ca036ba1", "fusion_lat": 0.0, "name": "d299441018e11f4cf61c9ac5ca036ba1", "is_reserved": 0, "rental_uris": {"android": "https://dc.lft.to/lastmile_qr_scan", "ios": "https://dc.lft.to/lastmile_qr_scan"}, "fusion_lon": 0.0}, {"lat": 38.93508966666667, "is_disabled": 0, "type": "electric_scooter", "lon": -77.0326515, "bike_id": "7af7469dabac8df27f074b73ca684b07", "fusion_lat": 0.0, "name": "7af7469dabac8df27f074b73ca684b07", "is_reserved": 0, "rental_uris": {"android": "https://dc.lft.to/lastmile_qr_scan", "ios": "https://dc.lft.to/lastmile_qr_scan"}, "fusion_lon": 0.0}, {"lat": 38.89343733333333, "is_disabled": 0, "type": "electric_scooter", "lon": -77.04142266666666, "bike_id": "26e834bafc1811d7c501652ce5c76a42", "fusion_lat": 0.0, "name": "26e834bafc1811d7c501652ce5c76a42", "is_reserved": 0, "rental_uris": {"android": "https://dc.lft.to/lastmile_qr_scan", "ios": "https://dc.lft.to/lastmile_qr_scan"}, "fusion_lon": 0.0}, {"lat": 38.8846175, "is_disabled": 0, "type": "electric_scooter", "lon": -77.0260705, "bike_id": "d1d8b8f34a237403b65cb730f9b19d70", "fusion_lat": 0.0, "name": "d1d8b8f34a237403b65cb730f9b19d70", "is_reserved": 0, "rental_uris": {"android": "https://dc.lft.to/lastmile_qr_scan", "ios": "https://dc.lft.to/lastmile_qr_scan"}, "fusion_lon": 0.0}, {"lat": 38.936395833333336, "is_disabled": 0, "type": "electric_scooter", "lon": -77.02481816666666, "bike_id": "eb3250b697ec47c3254f2b2ec5f5cedf", "fusion_lat": 0.0, "name": "eb3250b697ec47c3254f2b2ec5f5cedf", "is_reserved": 0, "rental_uris": {"android": "https://dc.lft.to/lastmile_qr_scan", "ios": "https://dc.lft.to/lastmile_qr_scan"}, "fusion_lon": 0.0}, {"lat": 38.9112425, "is_disabled": 0, "type": "electric_scooter", "lon": -77.03833383333334, "bike_id": "777e1c475a178cad3eb03da15e63874a", "fusion_lat": 0.0, "name": "777e1c475a178cad3eb03da15e63874a", "is_reserved": 0, "rental_uris": {"android": "https://dc.lft.to/lastmile_qr_scan", "ios": "https://dc.lft.to/lastmile_qr_scan"}, "fusion_lon": 0.0}, {"lat": 38.900346166666665, "is_disabled": 0, "type": "electric_scooter", "lon": -76.99377833333334, "bike_id": "f2956ef3964ef2474278f72ab9f41118", "fusion_lat": 0.0, "name": "f2956ef3964ef2474278f72ab9f41118", "is_reserved": 0, "rental_uris": {"android": "https://dc.lft.to/lastmile_qr_scan", "ios": "https://dc.lft.to/lastmile_qr_scan"}, "fusion_lon": 0.0}, {"lat": 38.91789416666667, "is_disabled": 0, "type": "electric_scooter", "lon": -77.0403975, "bike_id": "623726567ee95100000340fca107486a", "fusion_lat": 0.0, "name": "623726567ee95100000340fca107486a", "is_reserved": 0, "rental_uris": {"android": "https://dc.lft.to/lastmile_qr_scan", "ios": "https://dc.lft.to/lastmile_qr_scan"}, "fusion_lon": 0.0}, {"lat": 38.913279833333334, "is_disabled": 0, "type": "electric_scooter", "lon": -77.03992816666667, "bike_id": "b60c7a2a8a68c277d638b0bac37b1f76", "fusion_lat": 0.0, "name": "b60c7a2a8a68c277d638b0bac37b1f76", "is_reserved": 0, "rental_uris": {"android": "https://dc.lft.to/lastmile_qr_scan", "ios": "https://dc.lft.to/lastmile_qr_scan"}, "fusion_lon": 0.0}, {"lat": 38.90570733333333, "is_disabled": 0, "type": "electric_scooter", "lon": -77.02806316666667, "bike_id": "0a46c6c56e65c050caaeaee5805327f7", "fusion_lat": 0.0, "name": "0a46c6c56e65c050caaeaee5805327f7", "is_reserved": 0, "rental_uris": {"android": "https://dc.lft.to/lastmile_qr_scan", "ios": "https://dc.lft.to/lastmile_qr_scan"}, "fusion_lon": 0.0}, {"lat": 38.92632733333333, "is_disabled": 0, "type": "electric_bike", "lon": -77.02562666666667, "bike_id": "481a17f009b9cc435c4feeecb7e7a23e", "fusion_lat": 0.0, "name": "481a17f009b9cc435c4feeecb7e7a23e", "is_reserved": 0, "rental_uris": {"android": "https://dc.lft.to/lastmile_qr_scan", "ios": "https://dc.lft.to/lastmile_qr_scan"}, "fusion_lon": 0.0}, {"lat": 38.92746116666667, "is_disabled": 0, "type": "electric_scooter", "lon": -77.0242125, "bike_id": "0cddce6f2fa6b15d255d023e6369bc7c", "fusion_lat": 0.0, "name": "0cddce6f2fa6b15d255d023e6369bc7c", "is_reserved": 0, "rental_uris": {"android": "https://dc.lft.to/lastmile_qr_scan", "ios": "https://dc.lft.to/lastmile_qr_scan"}, "fusion_lon": 0.0}, {"lat": 38.8922405, "is_disabled": 0, "type": "electric_scooter", "lon": -77.03164116666666, "bike_id": "fb2f58b5113e38b2ca3c0f7abff10ca3", "fusion_lat": 0.0, "name": "fb2f58b5113e38b2ca3c0f7abff10ca3", "is_reserved": 0, "rental_uris": {"android": "https://dc.lft.to/lastmile_qr_scan", "ios": "https://dc.lft.to/lastmile_qr_scan"}, "fusion_lon": 0.0}, {"lat": 38.91715766666667, "is_disabled": 0, "type": "electric_scooter", "lon": -77.04575783333334, "bike_id": "9b5de659065da12170c36c2db7b202d6", "fusion_lat": 0.0, "name": "9b5de659065da12170c36c2db7b202d6", "is_reserved": 0, "rental_uris": {"android": "https://dc.lft.to/lastmile_qr_scan", "ios": "https://dc.lft.to/lastmile_qr_scan"}, "fusion_lon": 0.0}, {"lat": 38.9010585, "is_disabled": 0, "type": "electric_scooter", "lon": -76.99620933333334, "bike_id": "e7026124569bedcec356577ff9f93127", "fusion_lat": 0.0, "name": "e7026124569bedcec356577ff9f93127", "is_reserved": 0, "rental_uris": {"android": "https://dc.lft.to/lastmile_qr_scan", "ios": "https://dc.lft.to/lastmile_qr_scan"}, "fusion_lon": 0.0}, {"lat": 38.903668, "is_disabled": 0, "type": "electric_scooter", "lon": -77.0450655, "bike_id": "e94925128d82d591c6fa192b95df486c", "fusion_lat": 0.0, "name": "e94925128d82d591c6fa192b95df486c", "is_reserved": 0, "rental_uris": {"android": "https://dc.lft.to/lastmile_qr_scan", "ios": "https://dc.lft.to/lastmile_qr_scan"}, "fusion_lon": 0.0}, {"lat": 38.89730566666667, "is_disabled": 0, "type": "electric_scooter", "lon": -77.04716533333334, "bike_id": "5ab880206af297282cf662edef6e1081", "fusion_lat": 0.0, "name": "5ab880206af297282cf662edef6e1081", "is_reserved": 0, "rental_uris": {"android": "https://dc.lft.to/lastmile_qr_scan", "ios": "https://dc.lft.to/lastmile_qr_scan"}, "fusion_lon": 0.0}, {"lat": 38.88573516666666, "is_disabled": 0, "type": "electric_scooter", "lon": -76.9190995, "bike_id": "3f18a01a552f7bc101c912006c87411f", "fusion_lat": 0.0, "name": "3f18a01a552f7bc101c912006c87411f", "is_reserved": 0, "rental_uris": {"android": "https://dc.lft.to/lastmile_qr_scan", "ios": "https://dc.lft.to/lastmile_qr_scan"}, "fusion_lon": 0.0}, {"lat": 38.935272499999996, "is_disabled": 0, "type": "electric_scooter", "lon": -77.03475966666667, "bike_id": "178aed5db51c72f7634bc43784dc8479", "fusion_lat": 0.0, "name": "178aed5db51c72f7634bc43784dc8479", "is_reserved": 0, "rental_uris": {"android": "https://dc.lft.to/lastmile_qr_scan", "ios": "https://dc.lft.to/lastmile_qr_scan"}, "fusion_lon": 0.0}, {"lat": 38.9218025, "is_disabled": 0, "type": "electric_scooter", "lon": -77.04713166666667, "bike_id": "1650af77309e64c3e435495104e45b06", "fusion_lat": 0.0, "name": "1650af77309e64c3e435495104e45b06", "is_reserved": 0, "rental_uris": {"android": "https://dc.lft.to/lastmile_qr_scan", "ios": "https://dc.lft.to/lastmile_qr_scan"}, "fusion_lon": 0.0}, {"lat": 38.910511, "is_disabled": 0, "type": "electric_scooter", "lon": -77.05595466666666, "bike_id": "61e426db349e92e7cd533bd01edc7428", "fusion_lat": 0.0, "name": "61e426db349e92e7cd533bd01edc7428", "is_reserved": 0, "rental_uris": {"android": "https://dc.lft.to/lastmile_qr_scan", "ios": "https://dc.lft.to/lastmile_qr_scan"}, "fusion_lon": 0.0}, {"lat": 38.836707833333335, "is_disabled": 0, "type": "electric_scooter", "lon": -77.0059485, "bike_id": "9694393d5d2746370289d065e0dea783", "fusion_lat": 0.0, "name": "9694393d5d2746370289d065e0dea783", "is_reserved": 0, "rental_uris": {"android": "https://dc.lft.to/lastmile_qr_scan", "ios": "https://dc.lft.to/lastmile_qr_scan"}, "fusion_lon": 0.0}, {"lat": 38.908615, "is_disabled": 0, "type": "electric_scooter", "lon": -77.045954, "bike_id": "cff5aa3f3747666a60b3e2fe14fb7fa4", "fusion_lat": 0.0, "name": "cff5aa3f3747666a60b3e2fe14fb7fa4", "is_reserved": 0, "rental_uris": {"android": "https://dc.lft.to/lastmile_qr_scan", "ios": "https://dc.lft.to/lastmile_qr_scan"}, "fusion_lon": 0.0}, {"lat": 38.90817933333334, "is_disabled": 0, "type": "electric_scooter", "lon": -77.01796616666667, "bike_id": "a373a0222e88e351d298397ff6d9d9c2", "fusion_lat": 0.0, "name": "a373a0222e88e351d298397ff6d9d9c2", "is_reserved": 0, "rental_uris": {"android": "https://dc.lft.to/lastmile_qr_scan", "ios": "https://dc.lft.to/lastmile_qr_scan"}, "fusion_lon": 0.0}, {"lat": 38.900565, "is_disabled": 0, "type": "electric_scooter", "lon": -77.002037, "bike_id": "cf0e384ba8299e17624554f5a3e841a1", "fusion_lat": 0.0, "name": "cf0e384ba8299e17624554f5a3e841a1", "is_reserved": 0, "rental_uris": {"android": "https://dc.lft.to/lastmile_qr_scan", "ios": "https://dc.lft.to/lastmile_qr_scan"}, "fusion_lon": 0.0}, {"lat": 38.915498666666664, "is_disabled": 0, "type": "electric_scooter", "lon": -77.0204915, "bike_id": "f1e82dce90c6571130284c86b69b5685", "fusion_lat": 0.0, "name": "f1e82dce90c6571130284c86b69b5685", "is_reserved": 0, "rental_uris": {"android": "https://dc.lft.to/lastmile_qr_scan", "ios": "https://dc.lft.to/lastmile_qr_scan"}, "fusion_lon": 0.0}, {"lat": 38.91327833333333, "is_disabled": 0, "type": "electric_scooter", "lon": -77.03193716666667, "bike_id": "47912f41b9ad7ce170612b6a1fa625f2", "fusion_lat": 0.0, "name": "47912f41b9ad7ce170612b6a1fa625f2", "is_reserved": 0, "rental_uris": {"android": "https://dc.lft.to/lastmile_qr_scan", "ios": "https://dc.lft.to/lastmile_qr_scan"}, "fusion_lon": 0.0}, {"lat": 38.90973983333333, "is_disabled": 0, "type": "electric_scooter", "lon": -77.03375366666667, "bike_id": "6d1be7b87a0ca733b530966ed10a1fe1", "fusion_lat": 0.0, "name": "6d1be7b87a0ca733b530966ed10a1fe1", "is_reserved": 0, "rental_uris": {"android": "https://dc.lft.to/lastmile_qr_scan", "ios": "https://dc.lft.to/lastmile_qr_scan"}, "fusion_lon": 0.0}, {"lat": 38.93244983333334, "is_disabled": 0, "type": "electric_scooter", "lon": -77.0327715, "bike_id": "8333384da99e0dba4ea7d2095e7f2907", "fusion_lat": 0.0, "name": "8333384da99e0dba4ea7d2095e7f2907", "is_reserved": 0, "rental_uris": {"android": "https://dc.lft.to/lastmile_qr_scan", "ios": "https://dc.lft.to/lastmile_qr_scan"}, "fusion_lon": 0.0}, {"lat": 38.9045375, "is_disabled": 0, "type": "electric_scooter", "lon": -76.98248633333333, "bike_id": "f79642f8e3e184b681a0b7bf025153dc", "fusion_lat": 0.0, "name": "f79642f8e3e184b681a0b7bf025153dc", "is_reserved": 0, "rental_uris": {"android": "https://dc.lft.to/lastmile_qr_scan", "ios": "https://dc.lft.to/lastmile_qr_scan"}, "fusion_lon": 0.0}, {"lat": 38.923622333333334, "is_disabled": 0, "type": "electric_scooter", "lon": -77.0513605, "bike_id": "4d9026ec83ba89d127f5888f560f8589", "fusion_lat": 0.0, "name": "4d9026ec83ba89d127f5888f560f8589", "is_reserved": 0, "rental_uris": {"android": "https://dc.lft.to/lastmile_qr_scan", "ios": "https://dc.lft.to/lastmile_qr_scan"}, "fusion_lon": 0.0}, {"lat": 38.91252466666667, "is_disabled": 0, "type": "electric_scooter", "lon": -77.04545833333333, "bike_id": "edfcb14afc0a4a87136970f7c4aab05c", "fusion_lat": 0.0, "name": "edfcb14afc0a4a87136970f7c4aab05c", "is_reserved": 0, "rental_uris": {"android": "https://dc.lft.to/lastmile_qr_scan", "ios": "https://dc.lft.to/lastmile_qr_scan"}, "fusion_lon": 0.0}, {"lat": 38.908139, "is_disabled": 0, "type": "electric_scooter", "lon": -77.03425583333333, "bike_id": "3566321c969f7ff63afff6f56fe3448b", "fusion_lat": 0.0, "name": "3566321c969f7ff63afff6f56fe3448b", "is_reserved": 0, "rental_uris": {"android": "https://dc.lft.to/lastmile_qr_scan", "ios": "https://dc.lft.to/lastmile_qr_scan"}, "fusion_lon": 0.0}, {"lat": 38.9236975, "is_disabled": 0, "type": "electric_scooter", "lon": -77.02540383333333, "bike_id": "ebda6997fc1d1416c3b2a7b976ccbd93", "fusion_lat": 0.0, "name": "ebda6997fc1d1416c3b2a7b976ccbd93", "is_reserved": 0, "rental_uris": {"android": "https://dc.lft.to/lastmile_qr_scan", "ios": "https://dc.lft.to/lastmile_qr_scan"}, "fusion_lon": 0.0}, {"lat": 38.923, "is_disabled": 0, "type": "electric_scooter", "lon": -77.02330866666667, "bike_id": "804517d24ba50846759c746011cc6937", "fusion_lat": 0.0, "name": "804517d24ba50846759c746011cc6937", "is_reserved": 0, "rental_uris": {"android": "https://dc.lft.to/lastmile_qr_scan", "ios": "https://dc.lft.to/lastmile_qr_scan"}, "fusion_lon": 0.0}, {"lat": 38.89913833333333, "is_disabled": 0, "type": "electric_scooter", "lon": -77.07223533333334, "bike_id": "b2087823b31e33483ff97eeca308df03", "fusion_lat": 0.0, "name": "b2087823b31e33483ff97eeca308df03", "is_reserved": 0, "rental_uris": {"android": "https://dc.lft.to/lastmile_qr_scan", "ios": "https://dc.lft.to/lastmile_qr_scan"}, "fusion_lon": 0.0}, {"lat": 38.89514766666667, "is_disabled": 0, "type": "electric_scooter", "lon": -77.019858, "bike_id": "1863479b21e05000891bbf0d2fa09bf6", "fusion_lat": 0.0, "name": "1863479b21e05000891bbf0d2fa09bf6", "is_reserved": 0, "rental_uris": {"android": "https://dc.lft.to/lastmile_qr_scan", "ios": "https://dc.lft.to/lastmile_qr_scan"}, "fusion_lon": 0.0}, {"lat": 38.951896166666664, "is_disabled": 0, "type": "electric_bike", "lon": -77.02394216666667, "bike_id": "f2b34afd67d73e55fdd07c7fb7c02b6c", "fusion_lat": 0.0, "name": "f2b34afd67d73e55fdd07c7fb7c02b6c", "is_reserved": 0, "rental_uris": {"android": "https://dc.lft.to/lastmile_qr_scan", "ios": "https://dc.lft.to/lastmile_qr_scan"}, "fusion_lon": 0.0}, {"lat": 38.909853166666664, "is_disabled": 0, "type": "electric_scooter", "lon": -77.03200266666667, "bike_id": "bfdaa6755043ee399d8a8b7f79ec1f5e", "fusion_lat": 0.0, "name": "bfdaa6755043ee399d8a8b7f79ec1f5e", "is_reserved": 0, "rental_uris": {"android": "https://dc.lft.to/lastmile_qr_scan", "ios": "https://dc.lft.to/lastmile_qr_scan"}, "fusion_lon": 0.0}, {"lat": 38.932909333333335, "is_disabled": 0, "type": "electric_scooter", "lon": -77.021952, "bike_id": "fdd9e2df6696d12467f755e14e6ce30e", "fusion_lat": 0.0, "name": "fdd9e2df6696d12467f755e14e6ce30e", "is_reserved": 0, "rental_uris": {"android": "https://dc.lft.to/lastmile_qr_scan", "ios": "https://dc.lft.to/lastmile_qr_scan"}, "fusion_lon": 0.0}, {"lat": 38.8778065, "is_disabled": 0, "type": "electric_scooter", "lon": -76.9941095, "bike_id": "2011f76004bb96560e26b2414ab1e014", "fusion_lat": 0.0, "name": "2011f76004bb96560e26b2414ab1e014", "is_reserved": 0, "rental_uris": {"android": "https://dc.lft.to/lastmile_qr_scan", "ios": "https://dc.lft.to/lastmile_qr_scan"}, "fusion_lon": 0.0}, {"lat": 38.901871, "is_disabled": 0, "type": "electric_scooter", "lon": -77.0217985, "bike_id": "c5634513eb7bc2cf2c50cdd541ca4575", "fusion_lat": 0.0, "name": "c5634513eb7bc2cf2c50cdd541ca4575", "is_reserved": 0, "rental_uris": {"android": "https://dc.lft.to/lastmile_qr_scan", "ios": "https://dc.lft.to/lastmile_qr_scan"}, "fusion_lon": 0.0}, {"lat": 39.03895416666667, "is_disabled": 0, "type": "electric_bike", "lon": -77.05035633333334, "bike_id": "7c43f9b80f5497e0b7c98c53e3436380", "fusion_lat": 0.0, "name": "7c43f9b80f5497e0b7c98c53e3436380", "is_reserved": 0, "rental_uris": {"android": "https://dc.lft.to/lastmile_qr_scan", "ios": "https://dc.lft.to/lastmile_qr_scan"}, "fusion_lon": 0.0}, {"lat": 38.915599666666665, "is_disabled": 0, "type": "electric_scooter", "lon": -77.0315615, "bike_id": "629e9a5add9fe0407e1bb18ec2a7b986", "fusion_lat": 0.0, "name": "629e9a5add9fe0407e1bb18ec2a7b986", "is_reserved": 0, "rental_uris": {"android": "https://dc.lft.to/lastmile_qr_scan", "ios": "https://dc.lft.to/lastmile_qr_scan"}, "fusion_lon": 0.0}, {"lat": 38.92210166666667, "is_disabled": 0, "type": "electric_bike", "lon": -76.9880595, "bike_id": "c900a3c0dda8b073465836b9c546a068", "fusion_lat": 0.0, "name": "c900a3c0dda8b073465836b9c546a068", "is_reserved": 0, "rental_uris": {"android": "https://dc.lft.to/lastmile_qr_scan", "ios": "https://dc.lft.to/lastmile_qr_scan"}, "fusion_lon": 0.0}, {"lat": 38.893726, "is_disabled": 0, "type": "electric_scooter", "lon": -77.05021933333333, "bike_id": "c131ed8eb676420a3200e8aec35475e8", "fusion_lat": 0.0, "name": "c131ed8eb676420a3200e8aec35475e8", "is_reserved": 0, "rental_uris": {"android": "https://dc.lft.to/lastmile_qr_scan", "ios": "https://dc.lft.to/lastmile_qr_scan"}, "fusion_lon": 0.0}, {"lat": 38.932992, "is_disabled": 0, "type": "electric_scooter", "lon": -77.0359355, "bike_id": "dc92501de6ee0174a3e42575e890d5b8", "fusion_lat": 0.0, "name": "dc92501de6ee0174a3e42575e890d5b8", "is_reserved": 0, "rental_uris": {"android": "https://dc.lft.to/lastmile_qr_scan", "ios": "https://dc.lft.to/lastmile_qr_scan"}, "fusion_lon": 0.0}, {"lat": 38.924795, "is_disabled": 0, "type": "electric_scooter", "lon": -77.02217783333333, "bike_id": "47df2b0ff4a3dae56409fdaa5eab2b7b", "fusion_lat": 0.0, "name": "47df2b0ff4a3dae56409fdaa5eab2b7b", "is_reserved": 0, "rental_uris": {"android": "https://dc.lft.to/lastmile_qr_scan", "ios": "https://dc.lft.to/lastmile_qr_scan"}, "fusion_lon": 0.0}, {"lat": 38.922323166666665, "is_disabled": 0, "type": "electric_scooter", "lon": -77.042551, "bike_id": "0c49d468619e8246b9dd23961913b891", "fusion_lat": 0.0, "name": "0c49d468619e8246b9dd23961913b891", "is_reserved": 0, "rental_uris": {"android": "https://dc.lft.to/lastmile_qr_scan", "ios": "https://dc.lft.to/lastmile_qr_scan"}, "fusion_lon": 0.0}, {"lat": 38.93199083333333, "is_disabled": 0, "type": "electric_scooter", "lon": -77.04427933333334, "bike_id": "fc86eea307e0d3313f9d282c7a633417", "fusion_lat": 0.0, "name": "fc86eea307e0d3313f9d282c7a633417", "is_reserved": 0, "rental_uris": {"android": "https://dc.lft.to/lastmile_qr_scan", "ios": "https://dc.lft.to/lastmile_qr_scan"}, "fusion_lon": 0.0}, {"lat": 38.892181, "is_disabled": 0, "type": "electric_scooter", "lon": -77.02629683333333, "bike_id": "e8fd6f53bfcbd1b59b475c5de3c7bffe", "fusion_lat": 0.0, "name": "e8fd6f53bfcbd1b59b475c5de3c7bffe", "is_reserved": 0, "rental_uris": {"android": "https://dc.lft.to/lastmile_qr_scan", "ios": "https://dc.lft.to/lastmile_qr_scan"}, "fusion_lon": 0.0}, {"lat": 38.92449333333333, "is_disabled": 0, "type": "electric_scooter", "lon": -77.04019733333334, "bike_id": "e7cd930b429c948fce5c28d4122ba8fd", "fusion_lat": 0.0, "name": "e7cd930b429c948fce5c28d4122ba8fd", "is_reserved": 0, "rental_uris": {"android": "https://dc.lft.to/lastmile_qr_scan", "ios": "https://dc.lft.to/lastmile_qr_scan"}, "fusion_lon": 0.0}, {"lat": 38.86517583333333, "is_disabled": 0, "type": "electric_scooter", "lon": -76.9903085, "bike_id": "640cb38e28c240567b498d34e6334b80", "fusion_lat": 0.0, "name": "640cb38e28c240567b498d34e6334b80", "is_reserved": 0, "rental_uris": {"android": "https://dc.lft.to/lastmile_qr_scan", "ios": "https://dc.lft.to/lastmile_qr_scan"}, "fusion_lon": 0.0}, {"lat": 38.885358, "is_disabled": 0, "type": "electric_scooter", "lon": -77.01518166666666, "bike_id": "d53338e57ba98f3f7c9b497ae18655ba", "fusion_lat": 0.0, "name": "d53338e57ba98f3f7c9b497ae18655ba", "is_reserved": 0, "rental_uris": {"android": "https://dc.lft.to/lastmile_qr_scan", "ios": "https://dc.lft.to/lastmile_qr_scan"}, "fusion_lon": 0.0}, {"lat": 38.92809316666666, "is_disabled": 0, "type": "electric_scooter", "lon": -77.043603, "bike_id": "68148fa49a10a697dfa0a00d0cd10319", "fusion_lat": 0.0, "name": "68148fa49a10a697dfa0a00d0cd10319", "is_reserved": 0, "rental_uris": {"android": "https://dc.lft.to/lastmile_qr_scan", "ios": "https://dc.lft.to/lastmile_qr_scan"}, "fusion_lon": 0.0}, {"lat": 38.957362833333335, "is_disabled": 0, "type": "electric_bike", "lon": -77.02170866666667, "bike_id": "f267114b6f7c881af33b413a7ca96874", "fusion_lat": 0.0, "name": "f267114b6f7c881af33b413a7ca96874", "is_reserved": 0, "rental_uris": {"android": "https://dc.lft.to/lastmile_qr_scan", "ios": "https://dc.lft.to/lastmile_qr_scan"}, "fusion_lon": 0.0}, {"lat": 38.90066266666667, "is_disabled": 0, "type": "electric_scooter", "lon": -77.00746116666667, "bike_id": "84fc327ffa8c9c1070cf5e48781d278c", "fusion_lat": 0.0, "name": "84fc327ffa8c9c1070cf5e48781d278c", "is_reserved": 0, "rental_uris": {"android": "https://dc.lft.to/lastmile_qr_scan", "ios": "https://dc.lft.to/lastmile_qr_scan"}, "fusion_lon": 0.0}, {"lat": 38.91910083333333, "is_disabled": 0, "type": "electric_scooter", "lon": -77.03173866666667, "bike_id": "f70f63b1aeac5d8743293307ec4677fa", "fusion_lat": 0.0, "name": "f70f63b1aeac5d8743293307ec4677fa", "is_reserved": 0, "rental_uris": {"android": "https://dc.lft.to/lastmile_qr_scan", "ios": "https://dc.lft.to/lastmile_qr_scan"}, "fusion_lon": 0.0}, {"lat": 38.89217983333333, "is_disabled": 0, "type": "electric_scooter", "lon": -77.02625983333333, "bike_id": "3b88c121f69a1d73f39c91ea2af55c3d", "fusion_lat": 0.0, "name": "3b88c121f69a1d73f39c91ea2af55c3d", "is_reserved": 0, "rental_uris": {"android": "https://dc.lft.to/lastmile_qr_scan", "ios": "https://dc.lft.to/lastmile_qr_scan"}, "fusion_lon": 0.0}, {"lat": 38.909901166666664, "is_disabled": 0, "type": "electric_scooter", "lon": -77.04008483333334, "bike_id": "f53488a2c06fa29543d67bc15f3dadf8", "fusion_lat": 0.0, "name": "f53488a2c06fa29543d67bc15f3dadf8", "is_reserved": 0, "rental_uris": {"android": "https://dc.lft.to/lastmile_qr_scan", "ios": "https://dc.lft.to/lastmile_qr_scan"}, "fusion_lon": 0.0}, {"lat": 38.86593166666667, "is_disabled": 0, "type": "electric_bike", "lon": -76.93226283333334, "bike_id": "20a8c524e78dfea5bd2027118e5dd2e5", "fusion_lat": 0.0, "name": "20a8c524e78dfea5bd2027118e5dd2e5", "is_reserved": 0, "rental_uris": {"android": "https://dc.lft.to/lastmile_qr_scan", "ios": "https://dc.lft.to/lastmile_qr_scan"}, "fusion_lon": 0.0}, {"lat": 38.904915, "is_disabled": 0, "type": "electric_scooter", "lon": -77.00207666666667, "bike_id": "677c1c5457b1f624024f1b389f7314c5", "fusion_lat": 0.0, "name": "677c1c5457b1f624024f1b389f7314c5", "is_reserved": 0, "rental_uris": {"android": "https://dc.lft.to/lastmile_qr_scan", "ios": "https://dc.lft.to/lastmile_qr_scan"}, "fusion_lon": 0.0}, {"lat": 38.9139615, "is_disabled": 0, "type": "electric_scooter", "lon": -77.03185616666667, "bike_id": "71a77e376a5d7a3ae5a8e52c320bfab8", "fusion_lat": 0.0, "name": "71a77e376a5d7a3ae5a8e52c320bfab8", "is_reserved": 0, "rental_uris": {"android": "https://dc.lft.to/lastmile_qr_scan", "ios": "https://dc.lft.to/lastmile_qr_scan"}, "fusion_lon": 0.0}, {"lat": 38.91798133333333, "is_disabled": 0, "type": "electric_scooter", "lon": -77.04015483333333, "bike_id": "3048bb2e6be729e6161be5aae827d3ba", "fusion_lat": 0.0, "name": "3048bb2e6be729e6161be5aae827d3ba", "is_reserved": 0, "rental_uris": {"android": "https://dc.lft.to/lastmile_qr_scan", "ios": "https://dc.lft.to/lastmile_qr_scan"}, "fusion_lon": 0.0}, {"lat": 38.852103666666665, "is_disabled": 0, "type": "electric_bike", "lon": -77.12952283333334, "bike_id": "0c5ab799a59eac3c3916eb9ff686d58a", "fusion_lat": 0.0, "name": "0c5ab799a59eac3c3916eb9ff686d58a", "is_reserved": 0, "rental_uris": {"android": "https://dc.lft.to/lastmile_qr_scan", "ios": "https://dc.lft.to/lastmile_qr_scan"}, "fusion_lon": 0.0}, {"lat": 38.907027166666666, "is_disabled": 0, "type": "electric_scooter", "lon": -77.0320425, "bike_id": "1641b3d51dda15d6fcb584f1945f9c8d", "fusion_lat": 0.0, "name": "1641b3d51dda15d6fcb584f1945f9c8d", "is_reserved": 0, "rental_uris": {"android": "https://dc.lft.to/lastmile_qr_scan", "ios": "https://dc.lft.to/lastmile_qr_scan"}, "fusion_lon": 0.0}, {"lat": 38.9535495, "is_disabled": 0, "type": "electric_bike", "lon": -76.98100683333334, "bike_id": "6c3e87ff66e755fade637f4f62a7d5af", "fusion_lat": 0.0, "name": "6c3e87ff66e755fade637f4f62a7d5af", "is_reserved": 0, "rental_uris": {"android": "https://dc.lft.to/lastmile_qr_scan", "ios": "https://dc.lft.to/lastmile_qr_scan"}, "fusion_lon": 0.0}, {"lat": 38.896314333333336, "is_disabled": 0, "type": "electric_scooter", "lon": -77.01237383333333, "bike_id": "d6f0884c76c59cc6581065c29c9ead31", "fusion_lat": 0.0, "name": "d6f0884c76c59cc6581065c29c9ead31", "is_reserved": 0, "rental_uris": {"android": "https://dc.lft.to/lastmile_qr_scan", "ios": "https://dc.lft.to/lastmile_qr_scan"}, "fusion_lon": 0.0}, {"lat": 38.89223066666667, "is_disabled": 0, "type": "electric_scooter", "lon": -77.048718, "bike_id": "62c6b0f6a62357cdcc32b14f22e8b476", "fusion_lat": 0.0, "name": "62c6b0f6a62357cdcc32b14f22e8b476", "is_reserved": 0, "rental_uris": {"android": "https://dc.lft.to/lastmile_qr_scan", "ios": "https://dc.lft.to/lastmile_qr_scan"}, "fusion_lon": 0.0}, {"lat": 38.91699333333333, "is_disabled": 0, "type": "electric_scooter", "lon": -77.03971466666667, "bike_id": "0dd19e03af7625eb314b1ca7d2d1e26d", "fusion_lat": 0.0, "name": "0dd19e03af7625eb314b1ca7d2d1e26d", "is_reserved": 0, "rental_uris": {"android": "https://dc.lft.to/lastmile_qr_scan", "ios": "https://dc.lft.to/lastmile_qr_scan"}, "fusion_lon": 0.0}, {"lat": 38.928843666666666, "is_disabled": 0, "type": "electric_scooter", "lon": -77.0329075, "bike_id": "21d63beac722bcc616ec6d5f65a96069", "fusion_lat": 0.0, "name": "21d63beac722bcc616ec6d5f65a96069", "is_reserved": 0, "rental_uris": {"android": "https://dc.lft.to/lastmile_qr_scan", "ios": "https://dc.lft.to/lastmile_qr_scan"}, "fusion_lon": 0.0}, {"lat": 38.923215166666665, "is_disabled": 0, "type": "electric_scooter", "lon": -77.02970983333333, "bike_id": "a4f9775a9bf7fe5f11d999001cbe4d04", "fusion_lat": 0.0, "name": "a4f9775a9bf7fe5f11d999001cbe4d04", "is_reserved": 0, "rental_uris": {"android": "https://dc.lft.to/lastmile_qr_scan", "ios": "https://dc.lft.to/lastmile_qr_scan"}, "fusion_lon": 0.0}, {"lat": 38.902610833333334, "is_disabled": 0, "type": "electric_scooter", "lon": -77.04355066666666, "bike_id": "bff8e2ec8b8f4fa317877db21f1b539d", "fusion_lat": 0.0, "name": "bff8e2ec8b8f4fa317877db21f1b539d", "is_reserved": 0, "rental_uris": {"android": "https://dc.lft.to/lastmile_qr_scan", "ios": "https://dc.lft.to/lastmile_qr_scan"}, "fusion_lon": 0.0}, {"lat": 38.92112483333333, "is_disabled": 0, "type": "electric_scooter", "lon": -77.03182066666666, "bike_id": "ef38a70d8eb5a82a0a6e1d7b9e616b72", "fusion_lat": 0.0, "name": "ef38a70d8eb5a82a0a6e1d7b9e616b72", "is_reserved": 0, "rental_uris": {"android": "https://dc.lft.to/lastmile_qr_scan", "ios": "https://dc.lft.to/lastmile_qr_scan"}, "fusion_lon": 0.0}, {"lat": 38.903460833333334, "is_disabled": 0, "type": "electric_scooter", "lon": -77.03543333333333, "bike_id": "8ca3c4c7e914acb134e7ba245b72defb", "fusion_lat": 0.0, "name": "8ca3c4c7e914acb134e7ba245b72defb", "is_reserved": 0, "rental_uris": {"android": "https://dc.lft.to/lastmile_qr_scan", "ios": "https://dc.lft.to/lastmile_qr_scan"}, "fusion_lon": 0.0}, {"lat": 38.917067, "is_disabled": 0, "type": "electric_scooter", "lon": -77.046793, "bike_id": "5e4df5ceb848124c8ad844641336d3b3", "fusion_lat": 0.0, "name": "5e4df5ceb848124c8ad844641336d3b3", "is_reserved": 0, "rental_uris": {"android": "https://dc.lft.to/lastmile_qr_scan", "ios": "https://dc.lft.to/lastmile_qr_scan"}, "fusion_lon": 0.0}, {"lat": 38.913424666666664, "is_disabled": 0, "type": "electric_scooter", "lon": -77.0318485, "bike_id": "9ed4b8e08b7d8b5e5b121ca3ef4ee9ab", "fusion_lat": 0.0, "name": "9ed4b8e08b7d8b5e5b121ca3ef4ee9ab", "is_reserved": 0, "rental_uris": {"android": "https://dc.lft.to/lastmile_qr_scan", "ios": "https://dc.lft.to/lastmile_qr_scan"}, "fusion_lon": 0.0}, {"lat": 38.914622333333334, "is_disabled": 0, "type": "electric_scooter", "lon": -77.03208666666667, "bike_id": "f3d0c8d180a2db90dcfe51aa04491b67", "fusion_lat": 0.0, "name": "f3d0c8d180a2db90dcfe51aa04491b67", "is_reserved": 0, "rental_uris": {"android": "https://dc.lft.to/lastmile_qr_scan", "ios": "https://dc.lft.to/lastmile_qr_scan"}, "fusion_lon": 0.0}, {"lat": 38.9297535, "is_disabled": 0, "type": "electric_scooter", "lon": -77.03264333333334, "bike_id": "23a2b1a8749e82baf5aa89bb405afd17", "fusion_lat": 0.0, "name": "23a2b1a8749e82baf5aa89bb405afd17", "is_reserved": 0, "rental_uris": {"android": "https://dc.lft.to/lastmile_qr_scan", "ios": "https://dc.lft.to/lastmile_qr_scan"}, "fusion_lon": 0.0}, {"lat": 38.91546566666667, "is_disabled": 0, "type": "electric_scooter", "lon": -77.03493933333333, "bike_id": "21009d8ebc11745129b1538d03610700", "fusion_lat": 0.0, "name": "21009d8ebc11745129b1538d03610700", "is_reserved": 0, "rental_uris": {"android": "https://dc.lft.to/lastmile_qr_scan", "ios": "https://dc.lft.to/lastmile_qr_scan"}, "fusion_lon": 0.0}, {"lat": 38.8954925, "is_disabled": 0, "type": "electric_scooter", "lon": -76.9336805, "bike_id": "ad59e1d7a688d9e0917aee01d2c9c354", "fusion_lat": 0.0, "name": "ad59e1d7a688d9e0917aee01d2c9c354", "is_reserved": 0, "rental_uris": {"android": "https://dc.lft.to/lastmile_qr_scan", "ios": "https://dc.lft.to/lastmile_qr_scan"}, "fusion_lon": 0.0}, {"lat": 38.8921945, "is_disabled": 0, "type": "electric_scooter", "lon": -77.041964, "bike_id": "5999305cf3d906866c5f752d858d9974", "fusion_lat": 0.0, "name": "5999305cf3d906866c5f752d858d9974", "is_reserved": 0, "rental_uris": {"android": "https://dc.lft.to/lastmile_qr_scan", "ios": "https://dc.lft.to/lastmile_qr_scan"}, "fusion_lon": 0.0}, {"lat": 38.952889, "is_disabled": 0, "type": "electric_bike", "lon": -76.946109, "bike_id": "31502f4c01c390f89fa7af6835f1013a", "fusion_lat": 0.0, "name": "31502f4c01c390f89fa7af6835f1013a", "is_reserved": 0, "rental_uris": {"android": "https://dc.lft.to/lastmile_qr_scan", "ios": "https://dc.lft.to/lastmile_qr_scan"}, "fusion_lon": 0.0}, {"lat": 38.92252083333333, "is_disabled": 0, "type": "electric_scooter", "lon": -77.04697883333333, "bike_id": "0ce52468f015f55f3c1ef7aab1e8c78d", "fusion_lat": 0.0, "name": "0ce52468f015f55f3c1ef7aab1e8c78d", "is_reserved": 0, "rental_uris": {"android": "https://dc.lft.to/lastmile_qr_scan", "ios": "https://dc.lft.to/lastmile_qr_scan"}, "fusion_lon": 0.0}, {"lat": 38.93361683333333, "is_disabled": 0, "type": "electric_scooter", "lon": -77.05728383333333, "bike_id": "43948b4a77d4bfa6069fc88c767bbeb0", "fusion_lat": 0.0, "name": "43948b4a77d4bfa6069fc88c767bbeb0", "is_reserved": 0, "rental_uris": {"android": "https://dc.lft.to/lastmile_qr_scan", "ios": "https://dc.lft.to/lastmile_qr_scan"}, "fusion_lon": 0.0}, {"lat": 38.895707, "is_disabled": 0, "type": "electric_scooter", "lon": -76.930403, "bike_id": "5ac881273aa1ca89b74e8bda0e5cf7bb", "fusion_lat": 0.0, "name": "5ac881273aa1ca89b74e8bda0e5cf7bb", "is_reserved": 0, "rental_uris": {"android": "https://dc.lft.to/lastmile_qr_scan", "ios": "https://dc.lft.to/lastmile_qr_scan"}, "fusion_lon": 0.0}, {"lat": 38.903446333333335, "is_disabled": 0, "type": "electric_scooter", "lon": -77.044634, "bike_id": "cf020eda17a7ff6e1d229e60fd8c25a2", "fusion_lat": 0.0, "name": "cf020eda17a7ff6e1d229e60fd8c25a2", "is_reserved": 0, "rental_uris": {"android": "https://dc.lft.to/lastmile_qr_scan", "ios": "https://dc.lft.to/lastmile_qr_scan"}, "fusion_lon": 0.0}, {"lat": 38.90293616666666, "is_disabled": 0, "type": "electric_scooter", "lon": -77.03847316666666, "bike_id": "288c0c685b2eb1f90858edc44238194d", "fusion_lat": 0.0, "name": "288c0c685b2eb1f90858edc44238194d", "is_reserved": 0, "rental_uris": {"android": "https://dc.lft.to/lastmile_qr_scan", "ios": "https://dc.lft.to/lastmile_qr_scan"}, "fusion_lon": 0.0}, {"lat": 38.899027333333336, "is_disabled": 0, "type": "electric_scooter", "lon": -76.93352483333334, "bike_id": "e4887d3082aef68ae4d2110d975f4c31", "fusion_lat": 0.0, "name": "e4887d3082aef68ae4d2110d975f4c31", "is_reserved": 0, "rental_uris": {"android": "https://dc.lft.to/lastmile_qr_scan", "ios": "https://dc.lft.to/lastmile_qr_scan"}, "fusion_lon": 0.0}, {"lat": 38.9140995, "is_disabled": 0, "type": "electric_scooter", "lon": -77.02954283333334, "bike_id": "5ab138673f3a48ac7212e14d6b168183", "fusion_lat": 0.0, "name": "5ab138673f3a48ac7212e14d6b168183", "is_reserved": 0, "rental_uris": {"android": "https://dc.lft.to/lastmile_qr_scan", "ios": "https://dc.lft.to/lastmile_qr_scan"}, "fusion_lon": 0.0}, {"lat": 38.935967, "is_disabled": 0, "type": "electric_scooter", "lon": -77.03749416666666, "bike_id": "a941cf9295ff505e85ebcfe4a460d4b0", "fusion_lat": 0.0, "name": "a941cf9295ff505e85ebcfe4a460d4b0", "is_reserved": 0, "rental_uris": {"android": "https://dc.lft.to/lastmile_qr_scan", "ios": "https://dc.lft.to/lastmile_qr_scan"}, "fusion_lon": 0.0}, {"lat": 38.93955366666667, "is_disabled": 0, "type": "electric_bike", "lon": -77.36090616666667, "bike_id": "c00d217a1a133924f7b35ddf72425953", "fusion_lat": 0.0, "name": "c00d217a1a133924f7b35ddf72425953", "is_reserved": 0, "rental_uris": {"android": "https://dc.lft.to/lastmile_qr_scan", "ios": "https://dc.lft.to/lastmile_qr_scan"}, "fusion_lon": 0.0}, {"lat": 38.9838165, "is_disabled": 0, "type": "electric_bike", "lon": -77.00534616666667, "bike_id": "61294e2ec06e939aa55b7cbdb042cff4", "fusion_lat": 0.0, "name": "61294e2ec06e939aa55b7cbdb042cff4", "is_reserved": 0, "rental_uris": {"android": "https://dc.lft.to/lastmile_qr_scan", "ios": "https://dc.lft.to/lastmile_qr_scan"}, "fusion_lon": 0.0}, {"lat": 38.91772233333333, "is_disabled": 0, "type": "electric_scooter", "lon": -77.03184883333333, "bike_id": "17263b13912f93f351da082ea7beafc3", "fusion_lat": 0.0, "name": "17263b13912f93f351da082ea7beafc3", "is_reserved": 0, "rental_uris": {"android": "https://dc.lft.to/lastmile_qr_scan", "ios": "https://dc.lft.to/lastmile_qr_scan"}, "fusion_lon": 0.0}, {"lat": 38.89381216666666, "is_disabled": 0, "type": "electric_scooter", "lon": -76.95002733333334, "bike_id": "2596479c97f472b853cd711da416a5fd", "fusion_lat": 0.0, "name": "2596479c97f472b853cd711da416a5fd", "is_reserved": 0, "rental_uris": {"android": "https://dc.lft.to/lastmile_qr_scan", "ios": "https://dc.lft.to/lastmile_qr_scan"}, "fusion_lon": 0.0}, {"lat": 38.930727166666664, "is_disabled": 0, "type": "electric_scooter", "lon": -77.03730583333333, "bike_id": "e7931b0ad546b072aca2ec03e5dfdd1d", "fusion_lat": 0.0, "name": "e7931b0ad546b072aca2ec03e5dfdd1d", "is_reserved": 0, "rental_uris": {"android": "https://dc.lft.to/lastmile_qr_scan", "ios": "https://dc.lft.to/lastmile_qr_scan"}, "fusion_lon": 0.0}, {"lat": 38.9233715, "is_disabled": 0, "type": "electric_scooter", "lon": -77.03617433333334, "bike_id": "bb0d205123984fb866977e1020750982", "fusion_lat": 0.0, "name": "bb0d205123984fb866977e1020750982", "is_reserved": 0, "rental_uris": {"android": "https://dc.lft.to/lastmile_qr_scan", "ios": "https://dc.lft.to/lastmile_qr_scan"}, "fusion_lon": 0.0}, {"lat": 38.89002816666667, "is_disabled": 0, "type": "electric_scooter", "lon": -76.93762016666666, "bike_id": "64758546c9616b1683eac9896fcdbd47", "fusion_lat": 0.0, "name": "64758546c9616b1683eac9896fcdbd47", "is_reserved": 0, "rental_uris": {"android": "https://dc.lft.to/lastmile_qr_scan", "ios": "https://dc.lft.to/lastmile_qr_scan"}, "fusion_lon": 0.0}, {"lat": 38.88667616666667, "is_disabled": 0, "type": "electric_scooter", "lon": -76.99035633333334, "bike_id": "77609ee95268bc7bad6c30628b34c1a8", "fusion_lat": 0.0, "name": "77609ee95268bc7bad6c30628b34c1a8", "is_reserved": 0, "rental_uris": {"android": "https://dc.lft.to/lastmile_qr_scan", "ios": "https://dc.lft.to/lastmile_qr_scan"}, "fusion_lon": 0.0}, {"lat": 38.912591, "is_disabled": 0, "type": "electric_scooter", "lon": -77.022457, "bike_id": "5eb6420defa29dc7e7b0199074481786", "fusion_lat": 0.0, "name": "5eb6420defa29dc7e7b0199074481786", "is_reserved": 0, "rental_uris": {"android": "https://dc.lft.to/lastmile_qr_scan", "ios": "https://dc.lft.to/lastmile_qr_scan"}, "fusion_lon": 0.0}, {"lat": 38.90195383333333, "is_disabled": 0, "type": "electric_scooter", "lon": -77.0217565, "bike_id": "129eeb4410209524214cd9e8c4a32e62", "fusion_lat": 0.0, "name": "129eeb4410209524214cd9e8c4a32e62", "is_reserved": 0, "rental_uris": {"android": "https://dc.lft.to/lastmile_qr_scan", "ios": "https://dc.lft.to/lastmile_qr_scan"}, "fusion_lon": 0.0}, {"lat": 39.074993666666664, "is_disabled": 0, "type": "electric_bike", "lon": -77.11899883333334, "bike_id": "78ab478e1e8fa01212cb40cb4f16f1e6", "fusion_lat": 0.0, "name": "78ab478e1e8fa01212cb40cb4f16f1e6", "is_reserved": 0, "rental_uris": {"android": "https://dc.lft.to/lastmile_qr_scan", "ios": "https://dc.lft.to/lastmile_qr_scan"}, "fusion_lon": 0.0}, {"lat": 38.93053466666667, "is_disabled": 0, "type": "electric_scooter", "lon": -77.0363255, "bike_id": "0d5903f922af46a7280196dfca23b87e", "fusion_lat": 0.0, "name": "0d5903f922af46a7280196dfca23b87e", "is_reserved": 0, "rental_uris": {"android": "https://dc.lft.to/lastmile_qr_scan", "ios": "https://dc.lft.to/lastmile_qr_scan"}, "fusion_lon": 0.0}, {"lat": 38.93418, "is_disabled": 0, "type": "electric_scooter", "lon": -77.05556816666666, "bike_id": "2832b38c1eaf24d4d005903574c438d6", "fusion_lat": 0.0, "name": "2832b38c1eaf24d4d005903574c438d6", "is_reserved": 0, "rental_uris": {"android": "https://dc.lft.to/lastmile_qr_scan", "ios": "https://dc.lft.to/lastmile_qr_scan"}, "fusion_lon": 0.0}, {"lat": 38.903298666666664, "is_disabled": 0, "type": "electric_scooter", "lon": -77.06305633333334, "bike_id": "cd7cd576411626a5a3bb7bcd9de6f17e", "fusion_lat": 0.0, "name": "cd7cd576411626a5a3bb7bcd9de6f17e", "is_reserved": 0, "rental_uris": {"android": "https://dc.lft.to/lastmile_qr_scan", "ios": "https://dc.lft.to/lastmile_qr_scan"}, "fusion_lon": 0.0}, {"lat": 38.813387, "is_disabled": 0, "type": "electric_bike", "lon": -77.04921083333333, "bike_id": "338fade2e1b1d6e8169240c1d8826249", "fusion_lat": 0.0, "name": "338fade2e1b1d6e8169240c1d8826249", "is_reserved": 0, "rental_uris": {"android": "https://dc.lft.to/lastmile_qr_scan", "ios": "https://dc.lft.to/lastmile_qr_scan"}, "fusion_lon": 0.0}, {"lat": 38.9336405, "is_disabled": 0, "type": "electric_scooter", "lon": -77.05733666666667, "bike_id": "534b73c8c0f5ee2c2fdcd69f5b0a5f9e", "fusion_lat": 0.0, "name": "534b73c8c0f5ee2c2fdcd69f5b0a5f9e", "is_reserved": 0, "rental_uris": {"android": "https://dc.lft.to/lastmile_qr_scan", "ios": "https://dc.lft.to/lastmile_qr_scan"}, "fusion_lon": 0.0}, {"lat": 38.911088, "is_disabled": 0, "type": "electric_scooter", "lon": -77.048197, "bike_id": "5af1efeb73e8dc1aad3b5404e7ade8e2", "fusion_lat": 0.0, "name": "5af1efeb73e8dc1aad3b5404e7ade8e2", "is_reserved": 0, "rental_uris": {"android": "https://dc.lft.to/lastmile_qr_scan", "ios": "https://dc.lft.to/lastmile_qr_scan"}, "fusion_lon": 0.0}, {"lat": 38.91803866666667, "is_disabled": 0, "type": "electric_scooter", "lon": -77.036748, "bike_id": "84b149d9a8c6185dcc9435392bbfa4b4", "fusion_lat": 0.0, "name": "84b149d9a8c6185dcc9435392bbfa4b4", "is_reserved": 0, "rental_uris": {"android": "https://dc.lft.to/lastmile_qr_scan", "ios": "https://dc.lft.to/lastmile_qr_scan"}, "fusion_lon": 0.0}, {"lat": 38.90529033333333, "is_disabled": 0, "type": "electric_scooter", "lon": -77.049297, "bike_id": "4bfc8705885189360b3c45538c152f0d", "fusion_lat": 0.0, "name": "4bfc8705885189360b3c45538c152f0d", "is_reserved": 0, "rental_uris": {"android": "https://dc.lft.to/lastmile_qr_scan", "ios": "https://dc.lft.to/lastmile_qr_scan"}, "fusion_lon": 0.0}, {"lat": 38.9110405, "is_disabled": 0, "type": "electric_scooter", "lon": -77.02013316666667, "bike_id": "8918795f1cdc19bc97f937b1c895d98a", "fusion_lat": 0.0, "name": "8918795f1cdc19bc97f937b1c895d98a", "is_reserved": 0, "rental_uris": {"android": "https://dc.lft.to/lastmile_qr_scan", "ios": "https://dc.lft.to/lastmile_qr_scan"}, "fusion_lon": 0.0}, {"lat": 38.92247316666667, "is_disabled": 0, "type": "electric_scooter", "lon": -77.01949733333333, "bike_id": "7b059549e250a98031bf449806b9d93f", "fusion_lat": 0.0, "name": "7b059549e250a98031bf449806b9d93f", "is_reserved": 0, "rental_uris": {"android": "https://dc.lft.to/lastmile_qr_scan", "ios": "https://dc.lft.to/lastmile_qr_scan"}, "fusion_lon": 0.0}, {"lat": 38.920039333333335, "is_disabled": 0, "type": "electric_scooter", "lon": -77.03230466666666, "bike_id": "9d55b2cf78cce0f62bb1becdf6e41321", "fusion_lat": 0.0, "name": "9d55b2cf78cce0f62bb1becdf6e41321", "is_reserved": 0, "rental_uris": {"android": "https://dc.lft.to/lastmile_qr_scan", "ios": "https://dc.lft.to/lastmile_qr_scan"}, "fusion_lon": 0.0}, {"lat": 38.85497083333333, "is_disabled": 0, "type": "electric_bike", "lon": -76.98398716666667, "bike_id": "f7270bf7dbbfbe4b30b2ca3dea6eebbd", "fusion_lat": 0.0, "name": "f7270bf7dbbfbe4b30b2ca3dea6eebbd", "is_reserved": 0, "rental_uris": {"android": "https://dc.lft.to/lastmile_qr_scan", "ios": "https://dc.lft.to/lastmile_qr_scan"}, "fusion_lon": 0.0}, {"lat": 38.92462783333333, "is_disabled": 0, "type": "electric_scooter", "lon": -77.05238816666666, "bike_id": "5bdd51e2b9f690a62b48f9d8625045e4", "fusion_lat": 0.0, "name": "5bdd51e2b9f690a62b48f9d8625045e4", "is_reserved": 0, "rental_uris": {"android": "https://dc.lft.to/lastmile_qr_scan", "ios": "https://dc.lft.to/lastmile_qr_scan"}, "fusion_lon": 0.0}, {"lat": 38.88411416666667, "is_disabled": 0, "type": "electric_scooter", "lon": -77.01775133333334, "bike_id": "313b3898bbafbebd86ae1bcd4e90a670", "fusion_lat": 0.0, "name": "313b3898bbafbebd86ae1bcd4e90a670", "is_reserved": 0, "rental_uris": {"android": "https://dc.lft.to/lastmile_qr_scan", "ios": "https://dc.lft.to/lastmile_qr_scan"}, "fusion_lon": 0.0}, {"lat": 38.91561, "is_disabled": 0, "type": "electric_scooter", "lon": -77.03167266666667, "bike_id": "9b9cc13056916bec87f25c2be099e0e5", "fusion_lat": 0.0, "name": "9b9cc13056916bec87f25c2be099e0e5", "is_reserved": 0, "rental_uris": {"android": "https://dc.lft.to/lastmile_qr_scan", "ios": "https://dc.lft.to/lastmile_qr_scan"}, "fusion_lon": 0.0}, {"lat": 38.93191083333333, "is_disabled": 0, "type": "electric_scooter", "lon": -77.02833716666666, "bike_id": "330be5fa1d1a0b8a6c57f2a015a23063", "fusion_lat": 0.0, "name": "330be5fa1d1a0b8a6c57f2a015a23063", "is_reserved": 0, "rental_uris": {"android": "https://dc.lft.to/lastmile_qr_scan", "ios": "https://dc.lft.to/lastmile_qr_scan"}, "fusion_lon": 0.0}, {"lat": 38.9268265, "is_disabled": 0, "type": "electric_scooter", "lon": -77.01574183333334, "bike_id": "e667a6783df911df3c1661a3345da4a1", "fusion_lat": 0.0, "name": "e667a6783df911df3c1661a3345da4a1", "is_reserved": 0, "rental_uris": {"android": "https://dc.lft.to/lastmile_qr_scan", "ios": "https://dc.lft.to/lastmile_qr_scan"}, "fusion_lon": 0.0}, {"lat": 38.90675616666667, "is_disabled": 0, "type": "electric_scooter", "lon": -77.02688516666667, "bike_id": "112424522ecfd965851fa848298fb8ee", "fusion_lat": 0.0, "name": "112424522ecfd965851fa848298fb8ee", "is_reserved": 0, "rental_uris": {"android": "https://dc.lft.to/lastmile_qr_scan", "ios": "https://dc.lft.to/lastmile_qr_scan"}, "fusion_lon": 0.0}, {"lat": 38.88371083333333, "is_disabled": 0, "type": "electric_scooter", "lon": -76.99514066666667, "bike_id": "307d3237f1e34b9336b71c9e6c195fb9", "fusion_lat": 0.0, "name": "307d3237f1e34b9336b71c9e6c195fb9", "is_reserved": 0, "rental_uris": {"android": "https://dc.lft.to/lastmile_qr_scan", "ios": "https://dc.lft.to/lastmile_qr_scan"}, "fusion_lon": 0.0}, {"lat": 38.898867, "is_disabled": 0, "type": "electric_scooter", "lon": -77.03227766666667, "bike_id": "f569976b7f5d11245e9b4e4458fe1535", "fusion_lat": 0.0, "name": "f569976b7f5d11245e9b4e4458fe1535", "is_reserved": 0, "rental_uris": {"android": "https://dc.lft.to/lastmile_qr_scan", "ios": "https://dc.lft.to/lastmile_qr_scan"}, "fusion_lon": 0.0}, {"lat": 38.91321116666667, "is_disabled": 0, "type": "electric_scooter", "lon": -77.03209383333333, "bike_id": "0c25102e4fe7dc23af0e223151497f73", "fusion_lat": 0.0, "name": "0c25102e4fe7dc23af0e223151497f73", "is_reserved": 0, "rental_uris": {"android": "https://dc.lft.to/lastmile_qr_scan", "ios": "https://dc.lft.to/lastmile_qr_scan"}, "fusion_lon": 0.0}, {"lat": 38.9015495, "is_disabled": 0, "type": "electric_scooter", "lon": -77.01532983333334, "bike_id": "69e5b8a30bd887ee80c9d8dda31f5899", "fusion_lat": 0.0, "name": "69e5b8a30bd887ee80c9d8dda31f5899", "is_reserved": 0, "rental_uris": {"android": "https://dc.lft.to/lastmile_qr_scan", "ios": "https://dc.lft.to/lastmile_qr_scan"}, "fusion_lon": 0.0}, {"lat": 38.873696, "is_disabled": 0, "type": "electric_bike", "lon": -77.118027, "bike_id": "68081a3f2c54548df2c8257e54cc1d25", "fusion_lat": 0.0, "name": "68081a3f2c54548df2c8257e54cc1d25", "is_reserved": 0, "rental_uris": {"android": "https://dc.lft.to/lastmile_qr_scan", "ios": "https://dc.lft.to/lastmile_qr_scan"}, "fusion_lon": 0.0}, {"lat": 38.883289, "is_disabled": 0, "type": "electric_scooter", "lon": -77.00929766666667, "bike_id": "96fed6bb6c2d103a71e2752244ee36a1", "fusion_lat": 0.0, "name": "96fed6bb6c2d103a71e2752244ee36a1", "is_reserved": 0, "rental_uris": {"android": "https://dc.lft.to/lastmile_qr_scan", "ios": "https://dc.lft.to/lastmile_qr_scan"}, "fusion_lon": 0.0}, {"lat": 38.7931565, "is_disabled": 0, "type": "electric_bike", "lon": -77.04015933333334, "bike_id": "3765a2a907f9ce99e9d4031bd6131315", "fusion_lat": 0.0, "name": "3765a2a907f9ce99e9d4031bd6131315", "is_reserved": 0, "rental_uris": {"android": "https://dc.lft.to/lastmile_qr_scan", "ios": "https://dc.lft.to/lastmile_qr_scan"}, "fusion_lon": 0.0}, {"lat": 38.90147116666667, "is_disabled": 0, "type": "electric_scooter", "lon": -77.04383116666666, "bike_id": "2e3aaf909a652f72d4c2303561b89691", "fusion_lat": 0.0, "name": "2e3aaf909a652f72d4c2303561b89691", "is_reserved": 0, "rental_uris": {"android": "https://dc.lft.to/lastmile_qr_scan", "ios": "https://dc.lft.to/lastmile_qr_scan"}, "fusion_lon": 0.0}, {"lat": 38.8921695, "is_disabled": 0, "type": "electric_scooter", "lon": -77.02626416666666, "bike_id": "688aa38be9a35ede94b0bb87b087bfcc", "fusion_lat": 0.0, "name": "688aa38be9a35ede94b0bb87b087bfcc", "is_reserved": 0, "rental_uris": {"android": "https://dc.lft.to/lastmile_qr_scan", "ios": "https://dc.lft.to/lastmile_qr_scan"}, "fusion_lon": 0.0}, {"lat": 38.91422283333333, "is_disabled": 0, "type": "electric_scooter", "lon": -77.03187866666667, "bike_id": "8c308c453d2d2ec6750c694cd6722437", "fusion_lat": 0.0, "name": "8c308c453d2d2ec6750c694cd6722437", "is_reserved": 0, "rental_uris": {"android": "https://dc.lft.to/lastmile_qr_scan", "ios": "https://dc.lft.to/lastmile_qr_scan"}, "fusion_lon": 0.0}, {"lat": 38.94897116666667, "is_disabled": 0, "type": "electric_bike", "lon": -76.97235866666666, "bike_id": "97aeac317361dd7b9420c4b0c72915a0", "fusion_lat": 0.0, "name": "97aeac317361dd7b9420c4b0c72915a0", "is_reserved": 0, "rental_uris": {"android": "https://dc.lft.to/lastmile_qr_scan", "ios": "https://dc.lft.to/lastmile_qr_scan"}, "fusion_lon": 0.0}, {"lat": 38.92438583333333, "is_disabled": 0, "type": "electric_scooter", "lon": -77.0402535, "bike_id": "f24cac2e63ca8a63181c8625e10f3a7d", "fusion_lat": 0.0, "name": "f24cac2e63ca8a63181c8625e10f3a7d", "is_reserved": 0, "rental_uris": {"android": "https://dc.lft.to/lastmile_qr_scan", "ios": "https://dc.lft.to/lastmile_qr_scan"}, "fusion_lon": 0.0}, {"lat": 38.8839885, "is_disabled": 0, "type": "electric_scooter", "lon": -77.01506933333333, "bike_id": "c02c87e2493df3a2844023de443526dd", "fusion_lat": 0.0, "name": "c02c87e2493df3a2844023de443526dd", "is_reserved": 0, "rental_uris": {"android": "https://dc.lft.to/lastmile_qr_scan", "ios": "https://dc.lft.to/lastmile_qr_scan"}, "fusion_lon": 0.0}, {"lat": 38.924041333333335, "is_disabled": 0, "type": "electric_scooter", "lon": -77.02753033333333, "bike_id": "ad0b273e03e6559d9389bd6396ffe614", "fusion_lat": 0.0, "name": "ad0b273e03e6559d9389bd6396ffe614", "is_reserved": 0, "rental_uris": {"android": "https://dc.lft.to/lastmile_qr_scan", "ios": "https://dc.lft.to/lastmile_qr_scan"}, "fusion_lon": 0.0}, {"lat": 38.904736666666665, "is_disabled": 0, "type": "electric_scooter", "lon": -77.00215716666666, "bike_id": "f91f254ece2a91fbe7116a093430cce3", "fusion_lat": 0.0, "name": "f91f254ece2a91fbe7116a093430cce3", "is_reserved": 0, "rental_uris": {"android": "https://dc.lft.to/lastmile_qr_scan", "ios": "https://dc.lft.to/lastmile_qr_scan"}, "fusion_lon": 0.0}, {"lat": 38.88592833333333, "is_disabled": 0, "type": "electric_bike", "lon": -77.10144066666666, "bike_id": "e2f722b3e48f21f713db21345af3db1e", "fusion_lat": 0.0, "name": "e2f722b3e48f21f713db21345af3db1e", "is_reserved": 0, "rental_uris": {"android": "https://dc.lft.to/lastmile_qr_scan", "ios": "https://dc.lft.to/lastmile_qr_scan"}, "fusion_lon": 0.0}, {"lat": 38.949149, "is_disabled": 0, "type": "electric_bike", "lon": -77.00799166666667, "bike_id": "5d4705acb72d04bfe0e9afedde4d5f65", "fusion_lat": 0.0, "name": "5d4705acb72d04bfe0e9afedde4d5f65", "is_reserved": 0, "rental_uris": {"android": "https://dc.lft.to/lastmile_qr_scan", "ios": "https://dc.lft.to/lastmile_qr_scan"}, "fusion_lon": 0.0}, {"lat": 38.91425666666667, "is_disabled": 0, "type": "electric_scooter", "lon": -77.0319505, "bike_id": "0673e21026354dc9276caf7366c086ca", "fusion_lat": 0.0, "name": "0673e21026354dc9276caf7366c086ca", "is_reserved": 0, "rental_uris": {"android": "https://dc.lft.to/lastmile_qr_scan", "ios": "https://dc.lft.to/lastmile_qr_scan"}, "fusion_lon": 0.0}, {"lat": 38.9060995, "is_disabled": 0, "type": "electric_scooter", "lon": -76.989847, "bike_id": "91de06b6f0dc1b20513abf8efb5e851a", "fusion_lat": 0.0, "name": "91de06b6f0dc1b20513abf8efb5e851a", "is_reserved": 0, "rental_uris": {"android": "https://dc.lft.to/lastmile_qr_scan", "ios": "https://dc.lft.to/lastmile_qr_scan"}, "fusion_lon": 0.0}, {"lat": 38.869920666666665, "is_disabled": 0, "type": "electric_bike", "lon": -77.06570083333334, "bike_id": "0212514d2266db2ea093d05b90bd2c90", "fusion_lat": 0.0, "name": "0212514d2266db2ea093d05b90bd2c90", "is_reserved": 0, "rental_uris": {"android": "https://dc.lft.to/lastmile_qr_scan", "ios": "https://dc.lft.to/lastmile_qr_scan"}, "fusion_lon": 0.0}, {"lat": 38.911913, "is_disabled": 0, "type": "electric_scooter", "lon": -77.0319955, "bike_id": "20bdc4a78c8f872dc791f38394987255", "fusion_lat": 0.0, "name": "20bdc4a78c8f872dc791f38394987255", "is_reserved": 0, "rental_uris": {"android": "https://dc.lft.to/lastmile_qr_scan", "ios": "https://dc.lft.to/lastmile_qr_scan"}, "fusion_lon": 0.0}, {"lat": 38.917474, "is_disabled": 0, "type": "electric_scooter", "lon": -77.02291866666667, "bike_id": "5d7802b25a551f93e6121ef44306011e", "fusion_lat": 0.0, "name": "5d7802b25a551f93e6121ef44306011e", "is_reserved": 0, "rental_uris": {"android": "https://dc.lft.to/lastmile_qr_scan", "ios": "https://dc.lft.to/lastmile_qr_scan"}, "fusion_lon": 0.0}, {"lat": 38.912477, "is_disabled": 0, "type": "electric_scooter", "lon": -77.0252605, "bike_id": "27f20c39e97d4926372925d41b8198ec", "fusion_lat": 0.0, "name": "27f20c39e97d4926372925d41b8198ec", "is_reserved": 0, "rental_uris": {"android": "https://dc.lft.to/lastmile_qr_scan", "ios": "https://dc.lft.to/lastmile_qr_scan"}, "fusion_lon": 0.0}, {"lat": 38.909025666666665, "is_disabled": 0, "type": "electric_scooter", "lon": -77.043968, "bike_id": "a224b5fc5c4c29b0d1d567d7a7def4c6", "fusion_lat": 0.0, "name": "a224b5fc5c4c29b0d1d567d7a7def4c6", "is_reserved": 0, "rental_uris": {"android": "https://dc.lft.to/lastmile_qr_scan", "ios": "https://dc.lft.to/lastmile_qr_scan"}, "fusion_lon": 0.0}, {"lat": 38.9034195, "is_disabled": 0, "type": "electric_scooter", "lon": -77.042433, "bike_id": "d7f45d8c729abeb6a409086b92f2175b", "fusion_lat": 0.0, "name": "d7f45d8c729abeb6a409086b92f2175b", "is_reserved": 0, "rental_uris": {"android": "https://dc.lft.to/lastmile_qr_scan", "ios": "https://dc.lft.to/lastmile_qr_scan"}, "fusion_lon": 0.0}, {"lat": 38.929564166666665, "is_disabled": 0, "type": "electric_scooter", "lon": -77.02782483333333, "bike_id": "0b90a20063efb2a18050003a7a99ce4b", "fusion_lat": 0.0, "name": "0b90a20063efb2a18050003a7a99ce4b", "is_reserved": 0, "rental_uris": {"android": "https://dc.lft.to/lastmile_qr_scan", "ios": "https://dc.lft.to/lastmile_qr_scan"}, "fusion_lon": 0.0}, {"lat": 38.91130316666667, "is_disabled": 0, "type": "electric_scooter", "lon": -77.01899266666666, "bike_id": "d6afaddbd18d8f2bd74c3ede104b2cd3", "fusion_lat": 0.0, "name": "d6afaddbd18d8f2bd74c3ede104b2cd3", "is_reserved": 0, "rental_uris": {"android": "https://dc.lft.to/lastmile_qr_scan", "ios": "https://dc.lft.to/lastmile_qr_scan"}, "fusion_lon": 0.0}, {"lat": 38.85507416666667, "is_disabled": 0, "type": "electric_bike", "lon": -77.12025883333334, "bike_id": "7d32e4841207d4c2f16a9e5cd4d4bab0", "fusion_lat": 0.0, "name": "7d32e4841207d4c2f16a9e5cd4d4bab0", "is_reserved": 0, "rental_uris": {"android": "https://dc.lft.to/lastmile_qr_scan", "ios": "https://dc.lft.to/lastmile_qr_scan"}, "fusion_lon": 0.0}, {"lat": 38.94433566666667, "is_disabled": 0, "type": "electric_scooter", "lon": -77.01517033333333, "bike_id": "18e6798d3e2a56e3bdd358ca92c295f2", "fusion_lat": 0.0, "name": "18e6798d3e2a56e3bdd358ca92c295f2", "is_reserved": 0, "rental_uris": {"android": "https://dc.lft.to/lastmile_qr_scan", "ios": "https://dc.lft.to/lastmile_qr_scan"}, "fusion_lon": 0.0}, {"lat": 38.92250666666666, "is_disabled": 0, "type": "electric_scooter", "lon": -77.03352016666666, "bike_id": "ba92e99bffec4b4005bcfcd7f6e8fec2", "fusion_lat": 0.0, "name": "ba92e99bffec4b4005bcfcd7f6e8fec2", "is_reserved": 0, "rental_uris": {"android": "https://dc.lft.to/lastmile_qr_scan", "ios": "https://dc.lft.to/lastmile_qr_scan"}, "fusion_lon": 0.0}, {"lat": 38.90063416666667, "is_disabled": 0, "type": "electric_scooter", "lon": -77.00193516666667, "bike_id": "5b27af9363c3413457e952ef0bc1bf35", "fusion_lat": 0.0, "name": "5b27af9363c3413457e952ef0bc1bf35", "is_reserved": 0, "rental_uris": {"android": "https://dc.lft.to/lastmile_qr_scan", "ios": "https://dc.lft.to/lastmile_qr_scan"}, "fusion_lon": 0.0}, {"lat": 38.915594, "is_disabled": 0, "type": "electric_scooter", "lon": -77.031488, "bike_id": "ba6cebe8b0ac75f30b94b439a063c18c", "fusion_lat": 0.0, "name": "ba6cebe8b0ac75f30b94b439a063c18c", "is_reserved": 0, "rental_uris": {"android": "https://dc.lft.to/lastmile_qr_scan", "ios": "https://dc.lft.to/lastmile_qr_scan"}, "fusion_lon": 0.0}, {"lat": 38.940942166666666, "is_disabled": 0, "type": "electric_scooter", "lon": -77.02112, "bike_id": "cce31b1ea1a5c959911edf74beb70f2c", "fusion_lat": 0.0, "name": "cce31b1ea1a5c959911edf74beb70f2c", "is_reserved": 0, "rental_uris": {"android": "https://dc.lft.to/lastmile_qr_scan", "ios": "https://dc.lft.to/lastmile_qr_scan"}, "fusion_lon": 0.0}, {"lat": 38.851853166666665, "is_disabled": 0, "type": "electric_bike", "lon": -76.96111166666667, "bike_id": "d6c0e48f419ead26de2f920a7fe9a37f", "fusion_lat": 0.0, "name": "d6c0e48f419ead26de2f920a7fe9a37f", "is_reserved": 0, "rental_uris": {"android": "https://dc.lft.to/lastmile_qr_scan", "ios": "https://dc.lft.to/lastmile_qr_scan"}, "fusion_lon": 0.0}, {"lat": 38.898425, "is_disabled": 0, "type": "electric_scooter", "lon": -76.94634233333333, "bike_id": "ef49079a6dc4662f9a468979d94469db", "fusion_lat": 0.0, "name": "ef49079a6dc4662f9a468979d94469db", "is_reserved": 0, "rental_uris": {"android": "https://dc.lft.to/lastmile_qr_scan", "ios": "https://dc.lft.to/lastmile_qr_scan"}, "fusion_lon": 0.0}, {"lat": 38.90246, "is_disabled": 0, "type": "electric_scooter", "lon": -77.03926283333334, "bike_id": "4f7a9b9af70adb872ae7f3ad66b1ddde", "fusion_lat": 0.0, "name": "4f7a9b9af70adb872ae7f3ad66b1ddde", "is_reserved": 0, "rental_uris": {"android": "https://dc.lft.to/lastmile_qr_scan", "ios": "https://dc.lft.to/lastmile_qr_scan"}, "fusion_lon": 0.0}, {"lat": 38.90196616666667, "is_disabled": 0, "type": "electric_scooter", "lon": -77.02681216666667, "bike_id": "2c4247db3e14530166e4febd6311ce1f", "fusion_lat": 0.0, "name": "2c4247db3e14530166e4febd6311ce1f", "is_reserved": 0, "rental_uris": {"android": "https://dc.lft.to/lastmile_qr_scan", "ios": "https://dc.lft.to/lastmile_qr_scan"}, "fusion_lon": 0.0}, {"lat": 38.9179655, "is_disabled": 0, "type": "electric_scooter", "lon": -77.04032116666667, "bike_id": "884dfb924681f537d939987d914b4267", "fusion_lat": 0.0, "name": "884dfb924681f537d939987d914b4267", "is_reserved": 0, "rental_uris": {"android": "https://dc.lft.to/lastmile_qr_scan", "ios": "https://dc.lft.to/lastmile_qr_scan"}, "fusion_lon": 0.0}, {"lat": 38.90517716666667, "is_disabled": 0, "type": "electric_scooter", "lon": -77.06443766666666, "bike_id": "98b3793d442fa19db032816965d61f03", "fusion_lat": 0.0, "name": "98b3793d442fa19db032816965d61f03", "is_reserved": 0, "rental_uris": {"android": "https://dc.lft.to/lastmile_qr_scan", "ios": "https://dc.lft.to/lastmile_qr_scan"}, "fusion_lon": 0.0}, {"lat": 38.92157566666667, "is_disabled": 0, "type": "electric_scooter", "lon": -77.03230933333333, "bike_id": "367af72e6a57e7914844ce1133555b68", "fusion_lat": 0.0, "name": "367af72e6a57e7914844ce1133555b68", "is_reserved": 0, "rental_uris": {"android": "https://dc.lft.to/lastmile_qr_scan", "ios": "https://dc.lft.to/lastmile_qr_scan"}, "fusion_lon": 0.0}, {"lat": 38.89216833333333, "is_disabled": 0, "type": "electric_scooter", "lon": -77.023174, "bike_id": "3624e7b6eb40dee813f71f13ce8d957f", "fusion_lat": 0.0, "name": "3624e7b6eb40dee813f71f13ce8d957f", "is_reserved": 0, "rental_uris": {"android": "https://dc.lft.to/lastmile_qr_scan", "ios": "https://dc.lft.to/lastmile_qr_scan"}, "fusion_lon": 0.0}, {"lat": 38.91690833333333, "is_disabled": 0, "type": "electric_scooter", "lon": -77.04273783333333, "bike_id": "fc7a973874d8d5a101f46124e3da7ff0", "fusion_lat": 0.0, "name": "fc7a973874d8d5a101f46124e3da7ff0", "is_reserved": 0, "rental_uris": {"android": "https://dc.lft.to/lastmile_qr_scan", "ios": "https://dc.lft.to/lastmile_qr_scan"}, "fusion_lon": 0.0}, {"lat": 38.92463, "is_disabled": 0, "type": "electric_bike", "lon": -77.20844783333334, "bike_id": "7ebe06ce22e0861ae9636833297e56c7", "fusion_lat": 0.0, "name": "7ebe06ce22e0861ae9636833297e56c7", "is_reserved": 0, "rental_uris": {"android": "https://dc.lft.to/lastmile_qr_scan", "ios": "https://dc.lft.to/lastmile_qr_scan"}, "fusion_lon": 0.0}, {"lat": 38.84255016666667, "is_disabled": 0, "type": "electric_bike", "lon": -77.05835666666667, "bike_id": "589d8d018bad9a20da449c2024dbdaf4", "fusion_lat": 0.0, "name": "589d8d018bad9a20da449c2024dbdaf4", "is_reserved": 0, "rental_uris": {"android": "https://dc.lft.to/lastmile_qr_scan", "ios": "https://dc.lft.to/lastmile_qr_scan"}, "fusion_lon": 0.0}, {"lat": 38.909297333333335, "is_disabled": 0, "type": "electric_scooter", "lon": -77.06387283333333, "bike_id": "2801d98ccfa0ea6a78eda90fb333b1aa", "fusion_lat": 0.0, "name": "2801d98ccfa0ea6a78eda90fb333b1aa", "is_reserved": 0, "rental_uris": {"android": "https://dc.lft.to/lastmile_qr_scan", "ios": "https://dc.lft.to/lastmile_qr_scan"}, "fusion_lon": 0.0}, {"lat": 38.902319, "is_disabled": 0, "type": "electric_scooter", "lon": -77.00201683333333, "bike_id": "e13be8ba1c8ffe0d8604c6f00cbbc72d", "fusion_lat": 0.0, "name": "e13be8ba1c8ffe0d8604c6f00cbbc72d", "is_reserved": 0, "rental_uris": {"android": "https://dc.lft.to/lastmile_qr_scan", "ios": "https://dc.lft.to/lastmile_qr_scan"}, "fusion_lon": 0.0}, {"lat": 38.9082495, "is_disabled": 0, "type": "electric_scooter", "lon": -76.9970595, "bike_id": "a08c867549e7ac3669682ca16e29eb1b", "fusion_lat": 0.0, "name": "a08c867549e7ac3669682ca16e29eb1b", "is_reserved": 0, "rental_uris": {"android": "https://dc.lft.to/lastmile_qr_scan", "ios": "https://dc.lft.to/lastmile_qr_scan"}, "fusion_lon": 0.0}, {"lat": 38.90561, "is_disabled": 0, "type": "electric_scooter", "lon": -77.006022, "bike_id": "ee1b7580a9e39bfa18bbe58511c8b5ec", "fusion_lat": 0.0, "name": "ee1b7580a9e39bfa18bbe58511c8b5ec", "is_reserved": 0, "rental_uris": {"android": "https://dc.lft.to/lastmile_qr_scan", "ios": "https://dc.lft.to/lastmile_qr_scan"}, "fusion_lon": 0.0}, {"lat": 38.9170415, "is_disabled": 0, "type": "electric_scooter", "lon": -77.0324395, "bike_id": "c8a009f6f8553fa60e11d09b37bffc61", "fusion_lat": 0.0, "name": "c8a009f6f8553fa60e11d09b37bffc61", "is_reserved": 0, "rental_uris": {"android": "https://dc.lft.to/lastmile_qr_scan", "ios": "https://dc.lft.to/lastmile_qr_scan"}, "fusion_lon": 0.0}, {"lat": 38.9170415, "is_disabled": 0, "type": "electric_scooter", "lon": -77.03895266666666, "bike_id": "88bf2cb115a7c35888c6e6d43605d415", "fusion_lat": 0.0, "name": "88bf2cb115a7c35888c6e6d43605d415", "is_reserved": 0, "rental_uris": {"android": "https://dc.lft.to/lastmile_qr_scan", "ios": "https://dc.lft.to/lastmile_qr_scan"}, "fusion_lon": 0.0}, {"lat": 38.90065283333333, "is_disabled": 0, "type": "electric_scooter", "lon": -77.0262055, "bike_id": "e02b5b2dd733b9237462d10862965e1c", "fusion_lat": 0.0, "name": "e02b5b2dd733b9237462d10862965e1c", "is_reserved": 0, "rental_uris": {"android": "https://dc.lft.to/lastmile_qr_scan", "ios": "https://dc.lft.to/lastmile_qr_scan"}, "fusion_lon": 0.0}, {"lat": 38.905437166666665, "is_disabled": 0, "type": "electric_scooter", "lon": -77.04138983333333, "bike_id": "91daefc17a2f7cf39fa3b2e36c2967b6", "fusion_lat": 0.0, "name": "91daefc17a2f7cf39fa3b2e36c2967b6", "is_reserved": 0, "rental_uris": {"android": "https://dc.lft.to/lastmile_qr_scan", "ios": "https://dc.lft.to/lastmile_qr_scan"}, "fusion_lon": 0.0}, {"lat": 38.905578, "is_disabled": 0, "type": "electric_scooter", "lon": -77.0443645, "bike_id": "cad473013bad83d95ff1cba1d29ae1df", "fusion_lat": 0.0, "name": "cad473013bad83d95ff1cba1d29ae1df", "is_reserved": 0, "rental_uris": {"android": "https://dc.lft.to/lastmile_qr_scan", "ios": "https://dc.lft.to/lastmile_qr_scan"}, "fusion_lon": 0.0}, {"lat": 38.8995665, "is_disabled": 0, "type": "electric_scooter", "lon": -77.02592866666667, "bike_id": "e897894945e9a30da7b70170faf07cfb", "fusion_lat": 0.0, "name": "e897894945e9a30da7b70170faf07cfb", "is_reserved": 0, "rental_uris": {"android": "https://dc.lft.to/lastmile_qr_scan", "ios": "https://dc.lft.to/lastmile_qr_scan"}, "fusion_lon": 0.0}, {"lat": 38.944269166666665, "is_disabled": 0, "type": "electric_scooter", "lon": -77.0633775, "bike_id": "d195e4f06b0e72e4b723506a23bd2a9c", "fusion_lat": 0.0, "name": "d195e4f06b0e72e4b723506a23bd2a9c", "is_reserved": 0, "rental_uris": {"android": "https://dc.lft.to/lastmile_qr_scan", "ios": "https://dc.lft.to/lastmile_qr_scan"}, "fusion_lon": 0.0}, {"lat": 38.90739266666667, "is_disabled": 0, "type": "electric_scooter", "lon": -77.03460316666667, "bike_id": "8858d8ea1e1af08d0078e601d04697d3", "fusion_lat": 0.0, "name": "8858d8ea1e1af08d0078e601d04697d3", "is_reserved": 0, "rental_uris": {"android": "https://dc.lft.to/lastmile_qr_scan", "ios": "https://dc.lft.to/lastmile_qr_scan"}, "fusion_lon": 0.0}, {"lat": 38.89601066666667, "is_disabled": 0, "type": "electric_scooter", "lon": -77.05469766666667, "bike_id": "a0e1f32c696f61eb325b76600fbd1d58", "fusion_lat": 0.0, "name": "a0e1f32c696f61eb325b76600fbd1d58", "is_reserved": 0, "rental_uris": {"android": "https://dc.lft.to/lastmile_qr_scan", "ios": "https://dc.lft.to/lastmile_qr_scan"}, "fusion_lon": 0.0}, {"lat": 38.91700433333333, "is_disabled": 0, "type": "electric_scooter", "lon": -77.0403715, "bike_id": "64770a078b65f18088b80464ad48e812", "fusion_lat": 0.0, "name": "64770a078b65f18088b80464ad48e812", "is_reserved": 0, "rental_uris": {"android": "https://dc.lft.to/lastmile_qr_scan", "ios": "https://dc.lft.to/lastmile_qr_scan"}, "fusion_lon": 0.0}, {"lat": 38.91034233333333, "is_disabled": 0, "type": "electric_scooter", "lon": -77.03205333333334, "bike_id": "b2a7fe2af7c29126a99d793512a15708", "fusion_lat": 0.0, "name": "b2a7fe2af7c29126a99d793512a15708", "is_reserved": 0, "rental_uris": {"android": "https://dc.lft.to/lastmile_qr_scan", "ios": "https://dc.lft.to/lastmile_qr_scan"}, "fusion_lon": 0.0}, {"lat": 38.917692, "is_disabled": 0, "type": "electric_scooter", "lon": -77.023, "bike_id": "88bff6b993e4292c426baeae48e6b02c", "fusion_lat": 0.0, "name": "88bff6b993e4292c426baeae48e6b02c", "is_reserved": 0, "rental_uris": {"android": "https://dc.lft.to/lastmile_qr_scan", "ios": "https://dc.lft.to/lastmile_qr_scan"}, "fusion_lon": 0.0}, {"lat": 38.914285, "is_disabled": 0, "type": "electric_scooter", "lon": -77.02344033333334, "bike_id": "34a0a931d14b81c8451cea5a33f80874", "fusion_lat": 0.0, "name": "34a0a931d14b81c8451cea5a33f80874", "is_reserved": 0, "rental_uris": {"android": "https://dc.lft.to/lastmile_qr_scan", "ios": "https://dc.lft.to/lastmile_qr_scan"}, "fusion_lon": 0.0}, {"lat": 38.88742633333333, "is_disabled": 0, "type": "electric_scooter", "lon": -77.03222, "bike_id": "ce557c90b269a373b459a400c9a77f5c", "fusion_lat": 0.0, "name": "ce557c90b269a373b459a400c9a77f5c", "is_reserved": 0, "rental_uris": {"android": "https://dc.lft.to/lastmile_qr_scan", "ios": "https://dc.lft.to/lastmile_qr_scan"}, "fusion_lon": 0.0},