{"data": {"bikes": [{"name": "003e34d277a5c09afd855b00f933b6f8", "type": "electric_scooter", "lat": 38.86654166666667, "is_reserved": 0, "lon": -76.99014233333334, "fusion_lon": 0.0, "is_disabled": 0, "fusion_lat": 0.0, "bike_id": "003e34d277a5c09afd855b00f933b6f8", "rental_uris": {"ios": "https://dc.lft.to/lastmile_qr_scan", "android": "https://dc.lft.to/lastmile_qr_scan"}}, {"name": "8b2ae87f01e401bf9410e10cba3a23ca", "type": "electric_scooter", "lat": 38.90074416666667, "is_reserved": 0, "lon": -77.05038283333333, "fusion_lon": 0.0, "is_disabled": 0, "fusion_lat": 0.0, "bike_id": "8b2ae87f01e401bf9410e10cba3a23ca", "rental_uris": {"ios": "https://dc.lft.to/lastmile_qr_scan", "android": "https://dc.lft.to/lastmile_qr_scan"}}, {"name": "288050fb114f5064bc9fa6767df8a200", "type": "electric_bike", "lat": 38.83981383333333, "is_reserved": 0, "lon": -77.005693, "fusion_lon": 0.0, "is_disabled": 0, "fusion_lat": 0.0, "bike_id": "288050fb114f5064bc9fa6767df8a200", "rental_uris": {"ios": "https://dc.lft.to/lastmile_qr_scan", "android": "https://dc.lft.to/lastmile_qr_scan"}}, {"name": "ead81075c4454c9efc639f2530f79c7f", "type": "electric_scooter", "lat": 38.900505333333335, "is_reserved": 0, "lon": -77.05142066666667, "fusion_lon": 0.0, "is_disabled": 0, "fusion_lat": 0.0, "bike_id": "ead81075c4454c9efc639f2530f79c7f", "rental_uris": {"ios": "https://dc.lft.to/lastmile_qr_scan", "android": "https://dc.lft.to/lastmile_qr_scan"}}, {"name": "80e3539a504e161b705cae7870d93e7e", "type": "electric_scooter", "lat": 38.91988716666667, "is_reserved": 0, "lon": -77.03474933333334, "fusion_lon": 0.0, "is_disabled": 0, "fusion_lat": 0.0, "bike_id": "80e3539a504e161b705cae7870d93e7e", "rental_uris": {"ios": "https://dc.lft.to/lastmile_qr_scan", "android": "https://dc.lft.to/lastmile_qr_scan"}}, {"name": "ac087e855a4e196ace2f90d97def5e7c", "type": "electric_scooter", "lat": 38.9053195, "is_reserved": 0, "lon": -77.05996116666667, "fusion_lon": 0.0, "is_disabled": 0, "fusion_lat": 0.0, "bike_id": "ac087e855a4e196ace2f90d97def5e7c", "rental_uris": {"ios": "https://dc.lft.to/lastmile_qr_scan", "android": "https://dc.lft.to/lastmile_qr_scan"}}, {"name": "2f45f6bf580001e85c5689ab1945df7c", "type": "electric_scooter", "lat": 38.90150883333333, "is_reserved": 0, "lon": -77.02905233333334, "fusion_lon": 0.0, "is_disabled": 0, "fusion_lat": 0.0, "bike_id": "2f45f6bf580001e85c5689ab1945df7c", "rental_uris": {"ios": "https://dc.lft.to/lastmile_qr_scan", "android": "https://dc.lft.to/lastmile_qr_scan"}}, {"name": "e322a418c574f25f8db673d26401e9d5", "type": "electric_scooter", "lat": 38.89821516666667, "is_reserved": 0, "lon": -76.94652416666666, "fusion_lon": 0.0, "is_disabled": 0, "fusion_lat": 0.0, "bike_id": "e322a418c574f25f8db673d26401e9d5", "rental_uris": {"ios": "https://dc.lft.to/lastmile_qr_scan", "android": "https://dc.lft.to/lastmile_qr_scan"}}, {"name": "b334c4df81359f1750c3a77282488e35", "type": "electric_scooter", "lat": 38.930774666666665, "is_reserved": 0, "lon": -77.02802266666667, "fusion_lon": 0.0, "is_disabled": 0, "fusion_lat": 0.0, "bike_id": "b334c4df81359f1750c3a77282488e35", "rental_uris": {"ios": "https://dc.lft.to/lastmile_qr_scan", "android": "https://dc.lft.to/lastmile_qr_scan"}}, {"name": "1abd6583ec717ce4231bfa4e8b802143", "type": "electric_scooter", "lat": 38.9375985, "is_reserved": 0, "lon": -77.02266533333334, "fusion_lon": 0.0, "is_disabled": 0, "fusion_lat": 0.0, "bike_id": "1abd6583ec717ce4231bfa4e8b802143", "rental_uris": {"ios": "https://dc.lft.to/lastmile_qr_scan", "android": "https://dc.lft.to/lastmile_qr_scan"}}, {"name": "2a640ddc709faef03c7c581c128d0a23", "type": "electric_scooter", "lat": 38.892328166666665, "is_reserved": 0, "lon": -77.02206466666667, "fusion_lon": 0.0, "is_disabled": 0, "fusion_lat": 0.0, "bike_id": "2a640ddc709faef03c7c581c128d0a23", "rental_uris": {"ios": "https://dc.lft.to/lastmile_qr_scan", "android": "https://dc.lft.to/lastmile_qr_scan"}}, {"name": "7eb41f69978e715e7150786404d71815", "type": "electric_scooter", "lat": 38.9179685, "is_reserved": 0, "lon": -77.034655, "fusion_lon": 0.0, "is_disabled": 0, "fusion_lat": 0.0, "bike_id": "7eb41f69978e715e7150786404d71815", "rental_uris": {"ios": "https://dc.lft.to/lastmile_qr_scan", "android": "https://dc.lft.to/lastmile_qr_scan"}}, {"name": "1212a83e166a3094230c422d8329a3e9", "type": "electric_bike", "lat": 38.828694166666665, "is_reserved": 0, "lon": -77.11222266666667, "fusion_lon": 0.0, "is_disabled": 0, "fusion_lat": 0.0, "bike_id": "1212a83e166a3094230c422d8329a3e9", "rental_uris": {"ios": "https://dc.lft.to/lastmile_qr_scan", "android": "https://dc.lft.to/lastmile_qr_scan"}}, {"name": "45f0d383bce5deb00228f7807b3755d7", "type": "electric_scooter", "lat": 38.901377833333335, "is_reserved": 0, "lon": -77.04383166666666, "fusion_lon": 0.0, "is_disabled": 0, "fusion_lat": 0.0, "bike_id": "45f0d383bce5deb00228f7807b3755d7", "rental_uris": {"ios": "https://dc.lft.to/lastmile_qr_scan", "android": "https://dc.lft.to/lastmile_qr_scan"}}, {"name": "4854367a2cf085b98163aef411f23dc0", "type": "electric_scooter", "lat": 38.90012516666667, "is_reserved": 0, "lon": -77.040031, "fusion_lon": 0.0, "is_disabled": 0, "fusion_lat": 0.0, "bike_id": "4854367a2cf085b98163aef411f23dc0", "rental_uris": {"ios": "https://dc.lft.to/lastmile_qr_scan", "android": "https://dc.lft.to/lastmile_qr_scan"}}, {"name": "4f7d84ce72704c00843951e5ffc41952", "type": "electric_scooter", "lat": 38.87712716666667, "is_reserved": 0, "lon": -77.01683483333333, "fusion_lon": 0.0, "is_disabled": 0, "fusion_lat": 0.0, "bike_id": "4f7d84ce72704c00843951e5ffc41952", "rental_uris": {"ios": "https://dc.lft.to/lastmile_qr_scan", "android": "https://dc.lft.to/lastmile_qr_scan"}}, {"name": "0ae52951c4b147e44f961f7bdf245220", "type": "electric_scooter", "lat": 38.90761166666667, "is_reserved": 0, "lon": -77.04352283333333, "fusion_lon": 0.0, "is_disabled": 0, "fusion_lat": 0.0, "bike_id": "0ae52951c4b147e44f961f7bdf245220", "rental_uris": {"ios": "https://dc.lft.to/lastmile_qr_scan", "android": "https://dc.lft.to/lastmile_qr_scan"}}, {"name": "e7c69c0cb53aa2966d9f378d49ed165b", "type": "electric_scooter", "lat": 38.91671516666667, "is_reserved": 0, "lon": -77.0363755, "fusion_lon": 0.0, "is_disabled": 0, "fusion_lat": 0.0, "bike_id": "e7c69c0cb53aa2966d9f378d49ed165b", "rental_uris": {"ios": "https://dc.lft.to/lastmile_qr_scan", "android": "https://dc.lft.to/lastmile_qr_scan"}}, {"name": "d7e8c144ef8fc81618e93c1f6c4ed7c5", "type": "electric_scooter", "lat": 38.93603133333333, "is_reserved": 0, "lon": -77.05862733333333, "fusion_lon": 0.0, "is_disabled": 0, "fusion_lat": 0.0, "bike_id": "d7e8c144ef8fc81618e93c1f6c4ed7c5", "rental_uris": {"ios": "https://dc.lft.to/lastmile_qr_scan", "android": "https://dc.lft.to/lastmile_qr_scan"}}, {"name": "1c10cbba39d8fb46e070e452cbddf073", "type": "electric_scooter", "lat": 38.88399233333333, "is_reserved": 0, "lon": -77.01528683333333, "fusion_lon": 0.0, "is_disabled": 0, "fusion_lat": 0.0, "bike_id": "1c10cbba39d8fb46e070e452cbddf073", "rental_uris": {"ios": "https://dc.lft.to/lastmile_qr_scan", "android": "https://dc.lft.to/lastmile_qr_scan"}}, {"name": "d2d4c230a6e7e67a9685124b74b0127a", "type": "electric_bike", "lat": 38.990882, "is_reserved": 0, "lon": -76.87498766666667, "fusion_lon": 0.0, "is_disabled": 0, "fusion_lat": 0.0, "bike_id": "d2d4c230a6e7e67a9685124b74b0127a", "rental_uris": {"ios": "https://dc.lft.to/lastmile_qr_scan", "android": "https://dc.lft.to/lastmile_qr_scan"}}, {"name": "24f1ad8494f9a2984c490397e48a9b82", "type": "electric_scooter", "lat": 38.906339333333335, "is_reserved": 0, "lon": -77.051527, "fusion_lon": 0.0, "is_disabled": 0, "fusion_lat": 0.0, "bike_id": "24f1ad8494f9a2984c490397e48a9b82", "rental_uris": {"ios": "https://dc.lft.to/lastmile_qr_scan", "android": "https://dc.lft.to/lastmile_qr_scan"}}, {"name": "4db2561241d87a406c626c441ef4547a", "type": "electric_scooter", "lat": 38.9015545, "is_reserved": 0, "lon": -77.03327766666666, "fusion_lon": 0.0, "is_disabled": 0, "fusion_lat": 0.0, "bike_id": "4db2561241d87a406c626c441ef4547a", "rental_uris": {"ios": "https://dc.lft.to/lastmile_qr_scan", "android": "https://dc.lft.to/lastmile_qr_scan"}}, {"name": "b15ccd25bcbd2002eb54f29b80ad00a9", "type": "electric_scooter", "lat": 38.914046, "is_reserved": 0, "lon": -77.045687, "fusion_lon": 0.0, "is_disabled": 0, "fusion_lat": 0.0, "bike_id": "b15ccd25bcbd2002eb54f29b80ad00a9", "rental_uris": {"ios": "https://dc.lft.to/lastmile_qr_scan", "android": "https://dc.lft.to/lastmile_qr_scan"}}, {"name": "ec65ace204ece76ee752bedf63b084b2", "type": "electric_scooter", "lat": 38.859002333333336, "is_reserved": 0, "lon": -76.967098, "fusion_lon": 0.0, "is_disabled": 0, "fusion_lat": 0.0, "bike_id": "ec65ace204ece76ee752bedf63b084b2", "rental_uris": {"ios": "https://dc.lft.to/lastmile_qr_scan", "android": "https://dc.lft.to/lastmile_qr_scan"}}, {"name": "7ce95c45ae40550f8b445fffc8ebc0d2", "type": "electric_scooter", "lat": 38.924419666666665, "is_reserved": 0, "lon": -77.02039833333333, "fusion_lon": 0.0, "is_disabled": 0, "fusion_lat": 0.0, "bike_id": "7ce95c45ae40550f8b445fffc8ebc0d2", "rental_uris": {"ios": "https://dc.lft.to/lastmile_qr_scan", "android": "https://dc.lft.to/lastmile_qr_scan"}}, {"name": "f4a24dffb8357a69400497e809900bbb", "type": "electric_scooter", "lat": 38.91805, "is_reserved": 0, "lon": -77.03565316666666, "fusion_lon": 0.0, "is_disabled": 0, "fusion_lat": 0.0, "bike_id": "f4a24dffb8357a69400497e809900bbb", "rental_uris": {"ios": "https://dc.lft.to/lastmile_qr_scan", "android": "https://dc.lft.to/lastmile_qr_scan"}}, {"name": "b4d418bda999374d175bd19b14f177eb", "type": "electric_scooter", "lat": 38.894044, "is_reserved": 0, "lon": -76.948007, "fusion_lon": 0.0, "is_disabled": 0, "fusion_lat": 0.0, "bike_id": "b4d418bda999374d175bd19b14f177eb", "rental_uris": {"ios": "https://dc.lft.to/lastmile_qr_scan", "android": "https://dc.lft.to/lastmile_qr_scan"}}, {"name": "440399939920beb7b2a2fae2e175d618", "type": "electric_scooter", "lat": 38.932001, "is_reserved": 0, "lon": -77.03856566666667, "fusion_lon": 0.0, "is_disabled": 0, "fusion_lat": 0.0, "bike_id": "440399939920beb7b2a2fae2e175d618", "rental_uris": {"ios": "https://dc.lft.to/lastmile_qr_scan", "android": "https://dc.lft.to/lastmile_qr_scan"}}, {"name": "ef8302ffc82a9813ccd78cc465c52a98", "type": "electric_scooter", "lat": 38.91957816666667, "is_reserved": 0, "lon": -77.03179233333333, "fusion_lon": 0.0, "is_disabled": 0, "fusion_lat": 0.0, "bike_id": "ef8302ffc82a9813ccd78cc465c52a98", "rental_uris": {"ios": "https://dc.lft.to/lastmile_qr_scan", "android": "https://dc.lft.to/lastmile_qr_scan"}}, {"name": "b931dfbd7892894af69ba195427c0c72", "type": "electric_scooter", "lat": 38.86418, "is_reserved": 0, "lon": -76.98040666666667, "fusion_lon": 0.0, "is_disabled": 0, "fusion_lat": 0.0, "bike_id": "b931dfbd7892894af69ba195427c0c72", "rental_uris": {"ios": "https://dc.lft.to/lastmile_qr_scan", "android": "https://dc.lft.to/lastmile_qr_scan"}}, {"name": "08e5d1afbca65df34e08b3e2096451a7", "type": "electric_scooter", "lat": 38.94096, "is_reserved": 0, "lon": -77.03280616666666, "fusion_lon": 0.0, "is_disabled": 0, "fusion_lat": 0.0, "bike_id": "08e5d1afbca65df34e08b3e2096451a7", "rental_uris": {"ios": "https://dc.lft.to/lastmile_qr_scan", "android": "https://dc.lft.to/lastmile_qr_scan"}}, {"name": "543804d2c7d819537786600e401dfcc5", "type": "electric_scooter", "lat": 38.899913166666664, "is_reserved": 0, "lon": -76.99508483333334, "fusion_lon": 0.0, "is_disabled": 0, "fusion_lat": 0.0, "bike_id": "543804d2c7d819537786600e401dfcc5", "rental_uris": {"ios": "https://dc.lft.to/lastmile_qr_scan", "android": "https://dc.lft.to/lastmile_qr_scan"}}, {"name": "06c4ee94fe1716fb51b1db8044cb31af", "type": "electric_scooter", "lat": 38.924486333333334, "is_reserved": 0, "lon": -77.0337145, "fusion_lon": 0.0, "is_disabled": 0, "fusion_lat": 0.0, "bike_id": "06c4ee94fe1716fb51b1db8044cb31af", "rental_uris": {"ios": "https://dc.lft.to/lastmile_qr_scan", "android": "https://dc.lft.to/lastmile_qr_scan"}}, {"name": "7dd6f451f18565e268e3e41ae2df9d66", "type": "electric_scooter", "lat": 38.905793333333335, "is_reserved": 0, "lon": -77.03854866666667, "fusion_lon": 0.0, "is_disabled": 0, "fusion_lat": 0.0, "bike_id": "7dd6f451f18565e268e3e41ae2df9d66", "rental_uris": {"ios": "https://dc.lft.to/lastmile_qr_scan", "android": "https://dc.lft.to/lastmile_qr_scan"}}, {"name": "1ff9e5bbb56622900469f6d6984e04d0", "type": "electric_bike", "lat": 38.94510866666667, "is_reserved": 0, "lon": -77.00683466666666, "fusion_lon": 0.0, "is_disabled": 0, "fusion_lat": 0.0, "bike_id": "1ff9e5bbb56622900469f6d6984e04d0", "rental_uris": {"ios": "https://dc.lft.to/lastmile_qr_scan", "android": "https://dc.lft.to/lastmile_qr_scan"}}, {"name": "daa4647cdaa758b95dd55bd79926fb75", "type": "electric_scooter", "lat": 38.89524516666667, "is_reserved": 0, "lon": -77.03351866666667, "fusion_lon": 0.0, "is_disabled": 0, "fusion_lat": 0.0, "bike_id": "daa4647cdaa758b95dd55bd79926fb75", "rental_uris": {"ios": "https://dc.lft.to/lastmile_qr_scan", "android": "https://dc.lft.to/lastmile_qr_scan"}}, {"name": "84f02632d92bdd837273581538c64c2b", "type": "electric_scooter", "lat": 38.972335, "is_reserved": 0, "lon": -77.02711783333334, "fusion_lon": 0.0, "is_disabled": 0, "fusion_lat": 0.0, "bike_id": "84f02632d92bdd837273581538c64c2b", "rental_uris": {"ios": "https://dc.lft.to/lastmile_qr_scan", "android": "https://dc.lft.to/lastmile_qr_scan"}}, {"name": "e46bfe3b9b714d5412707a8f46838f2e", "type": "electric_scooter", "lat": 38.900232333333335, "is_reserved": 0, "lon": -77.04029066666666, "fusion_lon": 0.0, "is_disabled": 0, "fusion_lat": 0.0, "bike_id": "e46bfe3b9b714d5412707a8f46838f2e", "rental_uris": {"ios": "https://dc.lft.to/lastmile_qr_scan", "android": "https://dc.lft.to/lastmile_qr_scan"}}, {"name": "78b304eff7f0854870119c1f493df070", "type": "electric_scooter", "lat": 38.8972895, "is_reserved": 0, "lon": -77.04342883333334, "fusion_lon": 0.0, "is_disabled": 0, "fusion_lat": 0.0, "bike_id": "78b304eff7f0854870119c1f493df070", "rental_uris": {"ios": "https://dc.lft.to/lastmile_qr_scan", "android": "https://dc.lft.to/lastmile_qr_scan"}}, {"name": "d42cdf4b02671a67396e08c1b79d3901", "type": "electric_scooter", "lat": 38.90652383333333, "is_reserved": 0, "lon": -77.05144716666666, "fusion_lon": 0.0, "is_disabled": 0, "fusion_lat": 0.0, "bike_id": "d42cdf4b02671a67396e08c1b79d3901", "rental_uris": {"ios": "https://dc.lft.to/lastmile_qr_scan", "android": "https://dc.lft.to/lastmile_qr_scan"}}, {"name": "63f4971250ccdd49ae4992d43e7f9c36", "type": "electric_scooter", "lat": 38.900289, "is_reserved": 0, "lon": -77.01184533333333, "fusion_lon": 0.0, "is_disabled": 0, "fusion_lat": 0.0, "bike_id": "63f4971250ccdd49ae4992d43e7f9c36", "rental_uris": {"ios": "https://dc.lft.to/lastmile_qr_scan", "android": "https://dc.lft.to/lastmile_qr_scan"}}, {"name": "fedf54df1e913e6884af2a4ae2d0ab4e", "type": "electric_scooter", "lat": 38.91942183333333, "is_reserved": 0, "lon": -77.03152483333334, "fusion_lon": 0.0, "is_disabled": 0, "fusion_lat": 0.0, "bike_id": "fedf54df1e913e6884af2a4ae2d0ab4e", "rental_uris": {"ios": "https://dc.lft.to/lastmile_qr_scan", "android": "https://dc.lft.to/lastmile_qr_scan"}}, {"name": "be23b96de92d80709bb64c3b239e1254", "type": "electric_scooter", "lat": 38.90739333333333, "is_reserved": 0, "lon": -77.04171833333334, "fusion_lon": 0.0, "is_disabled": 0, "fusion_lat": 0.0, "bike_id": "be23b96de92d80709bb64c3b239e1254", "rental_uris": {"ios": "https://dc.lft.to/lastmile_qr_scan", "android": "https://dc.lft.to/lastmile_qr_scan"}}, {"name": "d1de223cb2aad4cc1606a17fe50bf850", "type": "electric_scooter", "lat": 38.906072, "is_reserved": 0, "lon": -77.0398455, "fusion_lon": 0.0, "is_disabled": 0, "fusion_lat": 0.0, "bike_id": "d1de223cb2aad4cc1606a17fe50bf850", "rental_uris": {"ios": "https://dc.lft.to/lastmile_qr_scan", "android": "https://dc.lft.to/lastmile_qr_scan"}}, {"name": "a62b891030975b12acec191d6efcf447", "type": "electric_scooter", "lat": 38.9057085, "is_reserved": 0, "lon": -77.0344675, "fusion_lon": 0.0, "is_disabled": 0, "fusion_lat": 0.0, "bike_id": "a62b891030975b12acec191d6efcf447", "rental_uris": {"ios": "https://dc.lft.to/lastmile_qr_scan", "android": "https://dc.lft.to/lastmile_qr_scan"}}, {"name": "20d16543a0e01735cdd8f780b5d05a72", "type": "electric_scooter", "lat": 38.914593333333336, "is_reserved": 0, "lon": -77.01432433333333, "fusion_lon": 0.0, "is_disabled": 0, "fusion_lat": 0.0, "bike_id": "20d16543a0e01735cdd8f780b5d05a72", "rental_uris": {"ios": "https://dc.lft.to/lastmile_qr_scan", "android": "https://dc.lft.to/lastmile_qr_scan"}}, {"name": "1488e29f621d4dbf05487e51df41f2ed", "type": "electric_scooter", "lat": 38.9071115, "is_reserved": 0, "lon": -77.01022083333334, "fusion_lon": 0.0, "is_disabled": 0, "fusion_lat": 0.0, "bike_id": "1488e29f621d4dbf05487e51df41f2ed", "rental_uris": {"ios": "https://dc.lft.to/lastmile_qr_scan", "android": "https://dc.lft.to/lastmile_qr_scan"}}, {"name": "a77692c0a4fe30b88c37a70a211fb218", "type": "electric_scooter", "lat": 38.903376, "is_reserved": 0, "lon": -77.03448166666666, "fusion_lon": 0.0, "is_disabled": 0, "fusion_lat": 0.0, "bike_id": "a77692c0a4fe30b88c37a70a211fb218", "rental_uris": {"ios": "https://dc.lft.to/lastmile_qr_scan", "android": "https://dc.lft.to/lastmile_qr_scan"}}, {"name": "a97d19cb4bde151f19ca07fe11758e1d", "type": "electric_scooter", "lat": 38.89864016666667, "is_reserved": 0, "lon": -77.0331465, "fusion_lon": 0.0, "is_disabled": 0, "fusion_lat": 0.0, "bike_id": "a97d19cb4bde151f19ca07fe11758e1d", "rental_uris": {"ios": "https://dc.lft.to/lastmile_qr_scan", "android": "https://dc.lft.to/lastmile_qr_scan"}}, {"name": "0a33d1b9a06865470413cde9231ca4e1", "type": "electric_scooter", "lat": 38.903274333333336, "is_reserved": 0, "lon": -76.98975216666666, "fusion_lon": 0.0, "is_disabled": 0, "fusion_lat": 0.0, "bike_id": "0a33d1b9a06865470413cde9231ca4e1", "rental_uris": {"ios": "https://dc.lft.to/lastmile_qr_scan", "android": "https://dc.lft.to/lastmile_qr_scan"}}, {"name": "6f3fedeb83d0115c576aff548dd59a1f", "type": "electric_scooter", "lat": 38.93117216666667, "is_reserved": 0, "lon": -77.038299, "fusion_lon": 0.0, "is_disabled": 0, "fusion_lat": 0.0, "bike_id": "6f3fedeb83d0115c576aff548dd59a1f", "rental_uris": {"ios": "https://dc.lft.to/lastmile_qr_scan", "android": "https://dc.lft.to/lastmile_qr_scan"}}, {"name": "7aaa6b117023756112cd99de9bee21af", "type": "electric_scooter", "lat": 38.87888933333333, "is_reserved": 0, "lon": -76.99163033333333, "fusion_lon": 0.0, "is_disabled": 0, "fusion_lat": 0.0, "bike_id": "7aaa6b117023756112cd99de9bee21af", "rental_uris": {"ios": "https://dc.lft.to/lastmile_qr_scan", "android": "https://dc.lft.to/lastmile_qr_scan"}}, {"name": "1dadb7e760bff85cd74a7639b544e4db", "type": "electric_scooter", "lat": 38.882176666666666, "is_reserved": 0, "lon": -76.941837, "fusion_lon": 0.0, "is_disabled": 0, "fusion_lat": 0.0, "bike_id": "1dadb7e760bff85cd74a7639b544e4db", "rental_uris": {"ios": "https://dc.lft.to/lastmile_qr_scan", "android": "https://dc.lft.to/lastmile_qr_scan"}}, {"name": "08c66f0debfeba4cb4f7b4b8c276cd65", "type": "electric_scooter", "lat": 38.90172833333333, "is_reserved": 0, "lon": -77.00000016666667, "fusion_lon": 0.0, "is_disabled": 0, "fusion_lat": 0.0, "bike_id": "08c66f0debfeba4cb4f7b4b8c276cd65", "rental_uris": {"ios": "https://dc.lft.to/lastmile_qr_scan", "android": "https://dc.lft.to/lastmile_qr_scan"}}, {"name": "db19c846463df857e66ebe1bc28cdc75", "type": "electric_bike", "lat": 38.88708416666667, "is_reserved": 0, "lon": -77.133103, "fusion_lon": 0.0, "is_disabled": 0, "fusion_lat": 0.0, "bike_id": "db19c846463df857e66ebe1bc28cdc75", "rental_uris": {"ios": "https://dc.lft.to/lastmile_qr_scan", "android": "https://dc.lft.to/lastmile_qr_scan"}}, {"name": "3bb71f58ad05737caeda400a87af2074", "type": "electric_scooter", "lat": 38.86353833333333, "is_reserved": 0, "lon": -76.9906595, "fusion_lon": 0.0, "is_disabled": 0, "fusion_lat": 0.0, "bike_id": "3bb71f58ad05737caeda400a87af2074", "rental_uris": {"ios": "https://dc.lft.to/lastmile_qr_scan", "android": "https://dc.lft.to/lastmile_qr_scan"}}, {"name": "9daa3c0e1f719f68b2be2aa42ad71310", "type": "electric_scooter", "lat": 38.904488666666666, "is_reserved": 0, "lon": -77.05923416666667, "fusion_lon": 0.0, "is_disabled": 0, "fusion_lat": 0.0, "bike_id": "9daa3c0e1f719f68b2be2aa42ad71310", "rental_uris": {"ios": "https://dc.lft.to/lastmile_qr_scan", "android": "https://dc.lft.to/lastmile_qr_scan"}}, {"name": "31e7274e097776cf425884c4b3fd645d", "type": "electric_scooter", "lat": 38.90358783333333, "is_reserved": 0, "lon": -77.04463233333334, "fusion_lon": 0.0, "is_disabled": 0, "fusion_lat": 0.0, "bike_id": "31e7274e097776cf425884c4b3fd645d", "rental_uris": {"ios": "https://dc.lft.to/lastmile_qr_scan", "android": "https://dc.lft.to/lastmile_qr_scan"}}, {"name": "f7d9158246a407085ca958d75236f435", "type": "electric_scooter", "lat": 38.9051295, "is_reserved": 0, "lon": -77.06588266666667, "fusion_lon": 0.0, "is_disabled": 0, "fusion_lat": 0.0, "bike_id": "f7d9158246a407085ca958d75236f435", "rental_uris": {"ios": "https://dc.lft.to/lastmile_qr_scan", "android": "https://dc.lft.to/lastmile_qr_scan"}}, {"name": "24b5ebed5a3774704ae68669fd7190f3", "type": "electric_scooter", "lat": 38.91008766666667, "is_reserved": 0, "lon": -77.01885216666666, "fusion_lon": 0.0, "is_disabled": 0, "fusion_lat": 0.0, "bike_id": "24b5ebed5a3774704ae68669fd7190f3", "rental_uris": {"ios": "https://dc.lft.to/lastmile_qr_scan", "android": "https://dc.lft.to/lastmile_qr_scan"}}, {"name": "32d44f413004cefd0d167dc8de7738bb", "type": "electric_bike", "lat": 38.9581105, "is_reserved": 0, "lon": -77.0138265, "fusion_lon": 0.0, "is_disabled": 0, "fusion_lat": 0.0, "bike_id": "32d44f413004cefd0d167dc8de7738bb", "rental_uris": {"ios": "https://dc.lft.to/lastmile_qr_scan", "android": "https://dc.lft.to/lastmile_qr_scan"}}, {"name": "5f9cc1d261a835f6613accc15ac49233", "type": "electric_scooter", "lat": 38.916705, "is_reserved": 0, "lon": -77.0363685, "fusion_lon": 0.0, "is_disabled": 0, "fusion_lat": 0.0, "bike_id": "5f9cc1d261a835f6613accc15ac49233", "rental_uris": {"ios": "https://dc.lft.to/lastmile_qr_scan", "android": "https://dc.lft.to/lastmile_qr_scan"}}, {"name": "82f4a6b51f78567ae35994bd69292d32", "type": "electric_scooter", "lat": 38.88715716666667, "is_reserved": 0, "lon": -77.02838583333333, "fusion_lon": 0.0, "is_disabled": 0, "fusion_lat": 0.0, "bike_id": "82f4a6b51f78567ae35994bd69292d32", "rental_uris": {"ios": "https://dc.lft.to/lastmile_qr_scan", "android": "https://dc.lft.to/lastmile_qr_scan"}}, {"name": "dd154517566a588d991a98ee111c4d48", "type": "electric_scooter", "lat": 38.8903975, "is_reserved": 0, "lon": -77.02571266666666, "fusion_lon": 0.0, "is_disabled": 0, "fusion_lat": 0.0, "bike_id": "dd154517566a588d991a98ee111c4d48", "rental_uris": {"ios": "https://dc.lft.to/lastmile_qr_scan", "android": "https://dc.lft.to/lastmile_qr_scan"}}, {"name": "cbcaefcaa585f9e3c9273de3e6be987f", "type": "electric_scooter", "lat": 38.89850033333333, "is_reserved": 0, "lon": -76.9818035, "fusion_lon": 0.0, "is_disabled": 0, "fusion_lat": 0.0, "bike_id": "cbcaefcaa585f9e3c9273de3e6be987f", "rental_uris": {"ios": "https://dc.lft.to/lastmile_qr_scan", "android": "https://dc.lft.to/lastmile_qr_scan"}}, {"name": "04f1681361afef6d7dbf90a54aed0d9d", "type": "electric_scooter", "lat": 38.91050583333333, "is_reserved": 0, "lon": -77.016851, "fusion_lon": 0.0, "is_disabled": 0, "fusion_lat": 0.0, "bike_id": "04f1681361afef6d7dbf90a54aed0d9d", "rental_uris": {"ios": "https://dc.lft.to/lastmile_qr_scan", "android": "https://dc.lft.to/lastmile_qr_scan"}}, {"name": "7a070776edf98f7358e69908c0a0ddc3", "type": "electric_scooter", "lat": 38.919745666666664, "is_reserved": 0, "lon": -77.04151483333334, "fusion_lon": 0.0, "is_disabled": 0, "fusion_lat": 0.0, "bike_id": "7a070776edf98f7358e69908c0a0ddc3", "rental_uris": {"ios": "https://dc.lft.to/lastmile_qr_scan", "android": "https://dc.lft.to/lastmile_qr_scan"}}, {"name": "3ef4e45ca02f6086d1ba2889754dc6fe", "type": "electric_scooter", "lat": 38.842896833333334, "is_reserved": 0, "lon": -76.99946533333333, "fusion_lon": 0.0, "is_disabled": 0, "fusion_lat": 0.0, "bike_id": "3ef4e45ca02f6086d1ba2889754dc6fe", "rental_uris": {"ios": "https://dc.lft.to/lastmile_qr_scan", "android": "https://dc.lft.to/lastmile_qr_scan"}}, {"name": "6585ba5d9ff115206e73562ee8241cdf", "type": "electric_scooter", "lat": 38.93294783333333, "is_reserved": 0, "lon": -77.02803866666666, "fusion_lon": 0.0, "is_disabled": 0, "fusion_lat": 0.0, "bike_id": "6585ba5d9ff115206e73562ee8241cdf", "rental_uris": {"ios": "https://dc.lft.to/lastmile_qr_scan", "android": "https://dc.lft.to/lastmile_qr_scan"}}, {"name": "22b4978bc404652e86f7e208bafafe67", "type": "electric_scooter", "lat": 38.917061833333335, "is_reserved": 0, "lon": -77.03230316666667, "fusion_lon": 0.0, "is_disabled": 0, "fusion_lat": 0.0, "bike_id": "22b4978bc404652e86f7e208bafafe67", "rental_uris": {"ios": "https://dc.lft.to/lastmile_qr_scan", "android": "https://dc.lft.to/lastmile_qr_scan"}}, {"name": "93352fc3fcef9946103ae684490f41a0", "type": "electric_bike", "lat": 38.857969833333335, "is_reserved": 0, "lon": -76.987588, "fusion_lon": 0.0, "is_disabled": 0, "fusion_lat": 0.0, "bike_id": "93352fc3fcef9946103ae684490f41a0", "rental_uris": {"ios": "https://dc.lft.to/lastmile_qr_scan", "android": "https://dc.lft.to/lastmile_qr_scan"}}, {"name": "08e9350a4e7e04cb278f08a7ff745eb7", "type": "electric_scooter", "lat": 38.92030966666667, "is_reserved": 0, "lon": -77.01118333333334, "fusion_lon": 0.0, "is_disabled": 0, "fusion_lat": 0.0, "bike_id": "08e9350a4e7e04cb278f08a7ff745eb7", "rental_uris": {"ios": "https://dc.lft.to/lastmile_qr_scan", "android": "https://dc.lft.to/lastmile_qr_scan"}}, {"name": "24a47e248fed2bfd73d163cee9188ce6", "type": "electric_scooter", "lat": 38.961057833333335, "is_reserved": 0, "lon": -77.0280135, "fusion_lon": 0.0, "is_disabled": 0, "fusion_lat": 0.0, "bike_id": "24a47e248fed2bfd73d163cee9188ce6", "rental_uris": {"ios": "https://dc.lft.to/lastmile_qr_scan", "android": "https://dc.lft.to/lastmile_qr_scan"}}, {"name": "72dd079a90e613bb8530aa5f6b60fe4a", "type": "electric_scooter", "lat": 38.90374716666667, "is_reserved": 0, "lon": -77.04197866666667, "fusion_lon": 0.0, "is_disabled": 0, "fusion_lat": 0.0, "bike_id": "72dd079a90e613bb8530aa5f6b60fe4a", "rental_uris": {"ios": "https://dc.lft.to/lastmile_qr_scan", "android": "https://dc.lft.to/lastmile_qr_scan"}}, {"name": "014b3f988b84b1e5ee33d931ce08be91", "type": "electric_scooter", "lat": 38.91554133333333, "is_reserved": 0, "lon": -77.072776, "fusion_lon": 0.0, "is_disabled": 0, "fusion_lat": 0.0, "bike_id": "014b3f988b84b1e5ee33d931ce08be91", "rental_uris": {"ios": "https://dc.lft.to/lastmile_qr_scan", "android": "https://dc.lft.to/lastmile_qr_scan"}}, {"name": "7bc6fd710988d1487975536b823e203e", "type": "electric_scooter", "lat": 38.884948, "is_reserved": 0, "lon": -77.00726916666666, "fusion_lon": 0.0, "is_disabled": 0, "fusion_lat": 0.0, "bike_id": "7bc6fd710988d1487975536b823e203e", "rental_uris": {"ios": "https://dc.lft.to/lastmile_qr_scan", "android": "https://dc.lft.to/lastmile_qr_scan"}}, {"name": "eb8a1e8278e34a15793a1698ad3f5000", "type": "electric_scooter", "lat": 38.93207133333333, "is_reserved": 0, "lon": -77.02738683333334, "fusion_lon": 0.0, "is_disabled": 0, "fusion_lat": 0.0, "bike_id": "eb8a1e8278e34a15793a1698ad3f5000", "rental_uris": {"ios": "https://dc.lft.to/lastmile_qr_scan", "android": "https://dc.lft.to/lastmile_qr_scan"}}, {"name": "25aaa04e3a4731dff1144573b471ac3d", "type": "electric_scooter", "lat": 38.911921666666665, "is_reserved": 0, "lon": -77.06099316666666, "fusion_lon": 0.0, "is_disabled": 0, "fusion_lat": 0.0, "bike_id": "25aaa04e3a4731dff1144573b471ac3d", "rental_uris": {"ios": "https://dc.lft.to/lastmile_qr_scan", "android": "https://dc.lft.to/lastmile_qr_scan"}}, {"name": "d519800cc1c6c3adcbb42ae4ac3fba20", "type": "electric_bike", "lat": 38.9358165, "is_reserved": 0, "lon": -77.05847316666667, "fusion_lon": 0.0, "is_disabled": 0, "fusion_lat": 0.0, "bike_id": "d519800cc1c6c3adcbb42ae4ac3fba20", "rental_uris": {"ios": "https://dc.lft.to/lastmile_qr_scan", "android": "https://dc.lft.to/lastmile_qr_scan"}}, {"name": "7d1a301224ec5e2931b3505925bde920", "type": "electric_scooter", "lat": 38.90272783333333, "is_reserved": 0, "lon": -77.05963683333333, "fusion_lon": 0.0, "is_disabled": 0, "fusion_lat": 0.0, "bike_id": "7d1a301224ec5e2931b3505925bde920", "rental_uris": {"ios": "https://dc.lft.to/lastmile_qr_scan", "android": "https://dc.lft.to/lastmile_qr_scan"}}, {"name": "9d4874e61f0e6c68ddd0df5b66cdd243", "type": "electric_scooter", "lat": 38.90268616666667, "is_reserved": 0, "lon": -77.02985, "fusion_lon": 0.0, "is_disabled": 0, "fusion_lat": 0.0, "bike_id": "9d4874e61f0e6c68ddd0df5b66cdd243", "rental_uris": {"ios": "https://dc.lft.to/lastmile_qr_scan", "android": "https://dc.lft.to/lastmile_qr_scan"}}, {"name": "5a86f0bce4842f9f54705cfce44611c7", "type": "electric_scooter", "lat": 38.90665883333333, "is_reserved": 0, "lon": -77.009105, "fusion_lon": 0.0, "is_disabled": 0, "fusion_lat": 0.0, "bike_id": "5a86f0bce4842f9f54705cfce44611c7", "rental_uris": {"ios": "https://dc.lft.to/lastmile_qr_scan", "android": "https://dc.lft.to/lastmile_qr_scan"}}, {"name": "925235ffb72633d62119444f7aa4d2bc", "type": "electric_scooter", "lat": 38.89759033333333, "is_reserved": 0, "lon": -77.02730116666666, "fusion_lon": 0.0, "is_disabled": 0, "fusion_lat": 0.0, "bike_id": "925235ffb72633d62119444f7aa4d2bc", "rental_uris": {"ios": "https://dc.lft.to/lastmile_qr_scan", "android": "https://dc.lft.to/lastmile_qr_scan"}}, {"name": "9bb918a7c7aa1777e4a661d36ffdfe16", "type": "electric_scooter", "lat": 38.91806, "is_reserved": 0, "lon": -77.02294, "fusion_lon": 0.0, "is_disabled": 0, "fusion_lat": 0.0, "bike_id": "9bb918a7c7aa1777e4a661d36ffdfe16", "rental_uris": {"ios": "https://dc.lft.to/lastmile_qr_scan", "android": "https://dc.lft.to/lastmile_qr_scan"}}, {"name": "6fc02414993f1b23d7b286918ebc3c24", "type": "electric_scooter", "lat": 38.911959833333334, "is_reserved": 0, "lon": -77.07315116666666, "fusion_lon": 0.0, "is_disabled": 0, "fusion_lat": 0.0, "bike_id": "6fc02414993f1b23d7b286918ebc3c24", "rental_uris": {"ios": "https://dc.lft.to/lastmile_qr_scan", "android": "https://dc.lft.to/lastmile_qr_scan"}}, {"name": "f8014e788a36a646098e8cfed1a9d5d5", "type": "electric_scooter", "lat": 38.90404, "is_reserved": 0, "lon": -77.04352616666667, "fusion_lon": 0.0, "is_disabled": 0, "fusion_lat": 0.0, "bike_id": "f8014e788a36a646098e8cfed1a9d5d5", "rental_uris": {"ios": "https://dc.lft.to/lastmile_qr_scan", "android": "https://dc.lft.to/lastmile_qr_scan"}}, {"name": "5b4edd40eff681cc093917662ceb004a", "type": "electric_scooter", "lat": 38.922125333333334, "is_reserved": 0, "lon": -77.04240733333333, "fusion_lon": 0.0, "is_disabled": 0, "fusion_lat": 0.0, "bike_id": "5b4edd40eff681cc093917662ceb004a", "rental_uris": {"ios": "https://dc.lft.to/lastmile_qr_scan", "android": "https://dc.lft.to/lastmile_qr_scan"}}, {"name": "53cf66500bf245a44944872db1d495d5", "type": "electric_scooter", "lat": 38.92985483333333, "is_reserved": 0, "lon": -77.02482366666666, "fusion_lon": 0.0, "is_disabled": 0, "fusion_lat": 0.0, "bike_id": "53cf66500bf245a44944872db1d495d5", "rental_uris": {"ios": "https://dc.lft.to/lastmile_qr_scan", "android": "https://dc.lft.to/lastmile_qr_scan"}}, {"name": "96180b795247245a151c9631809d9332", "type": "electric_scooter", "lat": 38.9215105, "is_reserved": 0, "lon": -77.03532466666667, "fusion_lon": 0.0, "is_disabled": 0, "fusion_lat": 0.0, "bike_id": "96180b795247245a151c9631809d9332", "rental_uris": {"ios": "https://dc.lft.to/lastmile_qr_scan", "android": "https://dc.lft.to/lastmile_qr_scan"}}, {"name": "adf1fb5123eff13ebcdbd04a094d28e5", "type": "electric_scooter", "lat": 38.89505883333333, "is_reserved": 0, "lon": -77.00338383333333, "fusion_lon": 0.0, "is_disabled": 0, "fusion_lat": 0.0, "bike_id": "adf1fb5123eff13ebcdbd04a094d28e5", "rental_uris": {"ios": "https://dc.lft.to/lastmile_qr_scan", "android": "https://dc.lft.to/lastmile_qr_scan"}}, {"name": "703b36c915898771e101379d168c6122", "type": "electric_bike", "lat": 38.8767585, "is_reserved": 0, "lon": -77.014531, "fusion_lon": 0.0, "is_disabled": 0, "fusion_lat": 0.0, "bike_id": "703b36c915898771e101379d168c6122", "rental_uris": {"ios": "https://dc.lft.to/lastmile_qr_scan", "android": "https://dc.lft.to/lastmile_qr_scan"}}, {"name": "3f609ccbb12e4554b7cf05a245c9f379", "type": "electric_scooter", "lat": 38.9138815, "is_reserved": 0, "lon": -77.04572183333333, "fusion_lon": 0.0, "is_disabled": 0, "fusion_lat": 0.0, "bike_id": "3f609ccbb12e4554b7cf05a245c9f379", "rental_uris": {"ios": "https://dc.lft.to/lastmile_qr_scan", "android": "https://dc.lft.to/lastmile_qr_scan"}}, {"name": "944c7d51742467fb22e172ffab318c96", "type": "electric_scooter", "lat": 38.895481833333335, "is_reserved": 0, "lon": -77.0092465, "fusion_lon": 0.0, "is_disabled": 0, "fusion_lat": 0.0, "bike_id": "944c7d51742467fb22e172ffab318c96", "rental_uris": {"ios": "https://dc.lft.to/lastmile_qr_scan", "android": "https://dc.lft.to/lastmile_qr_scan"}}, {"name": "84de673f898bb921214ab10a78afda69", "type": "electric_bike", "lat": 38.959546333333336, "is_reserved": 0, "lon": -77.10091166666666, "fusion_lon": 0.0, "is_disabled": 0, "fusion_lat": 0.0, "bike_id": "84de673f898bb921214ab10a78afda69", "rental_uris": {"ios": "https://dc.lft.to/lastmile_qr_scan", "android": "https://dc.lft.to/lastmile_qr_scan"}}, {"name": "776ab1559fb6fd9e084418a4978093cc", "type": "electric_scooter", "lat": 38.9056055, "is_reserved": 0, "lon": -77.03905233333333, "fusion_lon": 0.0, "is_disabled": 0, "fusion_lat": 0.0, "bike_id": "776ab1559fb6fd9e084418a4978093cc", "rental_uris": {"ios": "https://dc.lft.to/lastmile_qr_scan", "android": "https://dc.lft.to/lastmile_qr_scan"}}, {"name": "c71b975f3f4b8b498ac4f6da9f5e7d2f", "type": "electric_scooter", "lat": 38.91813783333333, "is_reserved": 0, "lon": -77.02784666666666, "fusion_lon": 0.0, "is_disabled": 0, "fusion_lat": 0.0, "bike_id": "c71b975f3f4b8b498ac4f6da9f5e7d2f", "rental_uris": {"ios": "https://dc.lft.to/lastmile_qr_scan", "android": "https://dc.lft.to/lastmile_qr_scan"}}, {"name": "15ec6df96db84f558ab21f7fca38680f", "type": "electric_scooter", "lat": 38.91756133333333, "is_reserved": 0, "lon": -77.02489833333334, "fusion_lon": 0.0, "is_disabled": 0, "fusion_lat": 0.0, "bike_id": "15ec6df96db84f558ab21f7fca38680f", "rental_uris": {"ios": "https://dc.lft.to/lastmile_qr_scan", "android": "https://dc.lft.to/lastmile_qr_scan"}}, {"name": "45110ddcec163bb6606b89df251a859d", "type": "electric_scooter", "lat": 38.892247, "is_reserved": 0, "lon": -77.03211333333333, "fusion_lon": 0.0, "is_disabled": 0, "fusion_lat": 0.0, "bike_id": "45110ddcec163bb6606b89df251a859d", "rental_uris": {"ios": "https://dc.lft.to/lastmile_qr_scan", "android": "https://dc.lft.to/lastmile_qr_scan"}}, {"name": "700781a3506fb7c3530dbec5a533561d", "type": "electric_scooter", "lat": 38.885208166666665, "is_reserved": 0, "lon": -76.97713166666666, "fusion_lon": 0.0, "is_disabled": 0, "fusion_lat": 0.0, "bike_id": "700781a3506fb7c3530dbec5a533561d", "rental_uris": {"ios": "https://dc.lft.to/lastmile_qr_scan", "android": "https://dc.lft.to/lastmile_qr_scan"}}, {"name": "71a1ee133f4d688ff72a438f9dbb6db1", "type": "electric_scooter", "lat": 38.931691, "is_reserved": 0, "lon": -77.0285075, "fusion_lon": 0.0, "is_disabled": 0, "fusion_lat": 0.0, "bike_id": "71a1ee133f4d688ff72a438f9dbb6db1", "rental_uris": {"ios": "https://dc.lft.to/lastmile_qr_scan", "android": "https://dc.lft.to/lastmile_qr_scan"}}, {"name": "2edc55bd3e0b60695a0c153871c22da9", "type": "electric_scooter", "lat": 38.94010433333333, "is_reserved": 0, "lon": -77.0717435, "fusion_lon": 0.0, "is_disabled": 0, "fusion_lat": 0.0, "bike_id": "2edc55bd3e0b60695a0c153871c22da9", "rental_uris": {"ios": "https://dc.lft.to/lastmile_qr_scan", "android": "https://dc.lft.to/lastmile_qr_scan"}}, {"name": "e0e93001bd36ef9f9ebaa8203a4ab16d", "type": "electric_scooter", "lat": 38.91922816666667, "is_reserved": 0, "lon": -77.00974566666666, "fusion_lon": 0.0, "is_disabled": 0, "fusion_lat": 0.0, "bike_id": "e0e93001bd36ef9f9ebaa8203a4ab16d", "rental_uris": {"ios": "https://dc.lft.to/lastmile_qr_scan", "android": "https://dc.lft.to/lastmile_qr_scan"}}, {"name": "27aff3f5062cf2456dd676fc583a3869", "type": "electric_scooter", "lat": 38.904406333333334, "is_reserved": 0, "lon": -76.98494216666667, "fusion_lon": 0.0, "is_disabled": 0, "fusion_lat": 0.0, "bike_id": "27aff3f5062cf2456dd676fc583a3869", "rental_uris": {"ios": "https://dc.lft.to/lastmile_qr_scan", "android": "https://dc.lft.to/lastmile_qr_scan"}}, {"name": "bd96b58d85b73701cdc8a280eebdeb6f", "type": "electric_scooter", "lat": 38.88518066666666, "is_reserved": 0, "lon": -77.03353866666667, "fusion_lon": 0.0, "is_disabled": 0, "fusion_lat": 0.0, "bike_id": "bd96b58d85b73701cdc8a280eebdeb6f", "rental_uris": {"ios": "https://dc.lft.to/lastmile_qr_scan", "android": "https://dc.lft.to/lastmile_qr_scan"}}, {"name": "83949b936e4b056ab6d4c37b080a6d3f", "type": "electric_scooter", "lat": 38.92018616666667, "is_reserved": 0, "lon": -77.03866216666667, "fusion_lon": 0.0, "is_disabled": 0, "fusion_lat": 0.0, "bike_id": "83949b936e4b056ab6d4c37b080a6d3f", "rental_uris": {"ios": "https://dc.lft.to/lastmile_qr_scan", "android": "https://dc.lft.to/lastmile_qr_scan"}}, {"name": "02ee2171fc86896dc44026195755e77f", "type": "electric_scooter", "lat": 38.90381, "is_reserved": 0, "lon": -77.01765733333333, "fusion_lon": 0.0, "is_disabled": 0, "fusion_lat": 0.0, "bike_id": "02ee2171fc86896dc44026195755e77f", "rental_uris": {"ios": "https://dc.lft.to/lastmile_qr_scan", "android": "https://dc.lft.to/lastmile_qr_scan"}}, {"name": "17210dee0550d36f57e40c1402420f5f", "type": "electric_scooter", "lat": 38.903793666666665, "is_reserved": 0, "lon": -77.04193416666666, "fusion_lon": 0.0, "is_disabled": 0, "fusion_lat": 0.0, "bike_id": "17210dee0550d36f57e40c1402420f5f", "rental_uris": {"ios": "https://dc.lft.to/lastmile_qr_scan", "android": "https://dc.lft.to/lastmile_qr_scan"}}, {"name": "01216056ff55e4581be9847122d0a439", "type": "electric_scooter", "lat": 38.900197, "is_reserved": 0, "lon": -76.994458, "fusion_lon": 0.0, "is_disabled": 0, "fusion_lat": 0.0, "bike_id": "01216056ff55e4581be9847122d0a439", "rental_uris": {"ios": "https://dc.lft.to/lastmile_qr_scan", "android": "https://dc.lft.to/lastmile_qr_scan"}}, {"name": "9725fbf8e690d01a099355936774ee50", "type": "electric_scooter", "lat": 38.93223666666667, "is_reserved": 0, "lon": -77.03541033333333, "fusion_lon": 0.0, "is_disabled": 0, "fusion_lat": 0.0, "bike_id": "9725fbf8e690d01a099355936774ee50", "rental_uris": {"ios": "https://dc.lft.to/lastmile_qr_scan", "android": "https://dc.lft.to/lastmile_qr_scan"}}, {"name": "15435dfc9f40e9e7acf00b2d5ad8581d", "type": "electric_scooter", "lat": 38.925549, "is_reserved": 0, "lon": -77.03261683333334, "fusion_lon": 0.0, "is_disabled": 0, "fusion_lat": 0.0, "bike_id": "15435dfc9f40e9e7acf00b2d5ad8581d", "rental_uris": {"ios": "https://dc.lft.to/lastmile_qr_scan", "android": "https://dc.lft.to/lastmile_qr_scan"}}, {"name": "0c1f4042100d37d77a63b59c54c58622", "type": "electric_bike", "lat": 38.97320783333333, "is_reserved": 0, "lon": -77.02149283333334, "fusion_lon": 0.0, "is_disabled": 0, "fusion_lat": 0.0, "bike_id": "0c1f4042100d37d77a63b59c54c58622", "rental_uris": {"ios": "https://dc.lft.to/lastmile_qr_scan", "android": "https://dc.lft.to/lastmile_qr_scan"}}, {"name": "fafeaf9b95c992192c08f08df131771f", "type": "electric_scooter", "lat": 38.917091166666665, "is_reserved": 0, "lon": -77.032374, "fusion_lon": 0.0, "is_disabled": 0, "fusion_lat": 0.0, "bike_id": "fafeaf9b95c992192c08f08df131771f", "rental_uris": {"ios": "https://dc.lft.to/lastmile_qr_scan", "android": "https://dc.lft.to/lastmile_qr_scan"}}, {"name": "92738713396df18fa7e0f7ecea007732", "type": "electric_scooter", "lat": 38.90419116666666, "is_reserved": 0, "lon": -77.0295485, "fusion_lon": 0.0, "is_disabled": 0, "fusion_lat": 0.0, "bike_id": "92738713396df18fa7e0f7ecea007732", "rental_uris": {"ios": "https://dc.lft.to/lastmile_qr_scan", "android": "https://dc.lft.to/lastmile_qr_scan"}}, {"name": "2b6a2727a8dd5dd411316acbbdb6bce8", "type": "electric_bike", "lat": 38.838561, "is_reserved": 0, "lon": -77.08870833333333, "fusion_lon": 0.0, "is_disabled": 0, "fusion_lat": 0.0, "bike_id": "2b6a2727a8dd5dd411316acbbdb6bce8", "rental_uris": {"ios": "https://dc.lft.to/lastmile_qr_scan", "android": "https://dc.lft.to/lastmile_qr_scan"}}, {"name": "b9f5d1922a3468ba72ecd86b4bd99f70", "type": "electric_bike", "lat": 38.9008505, "is_reserved": 0, "lon": -76.98014416666666, "fusion_lon": 0.0, "is_disabled": 0, "fusion_lat": 0.0, "bike_id": "b9f5d1922a3468ba72ecd86b4bd99f70", "rental_uris": {"ios": "https://dc.lft.to/lastmile_qr_scan", "android": "https://dc.lft.to/lastmile_qr_scan"}}, {"name": "c1fcd8f306b6178738c3efca63767986", "type": "electric_scooter", "lat": 38.90337233333333, "is_reserved": 0, "lon": -77.038607, "fusion_lon": 0.0, "is_disabled": 0, "fusion_lat": 0.0, "bike_id": "c1fcd8f306b6178738c3efca63767986", "rental_uris": {"ios": "https://dc.lft.to/lastmile_qr_scan", "android": "https://dc.lft.to/lastmile_qr_scan"}}, {"name": "90b634a5e828ff9e93f3b0a15bbab802", "type": "electric_scooter", "lat": 38.8904355, "is_reserved": 0, "lon": -76.93751116666667, "fusion_lon": 0.0, "is_disabled": 0, "fusion_lat": 0.0, "bike_id": "90b634a5e828ff9e93f3b0a15bbab802", "rental_uris": {"ios": "https://dc.lft.to/lastmile_qr_scan", "android": "https://dc.lft.to/lastmile_qr_scan"}}, {"name": "75f7179de3022f529ddc8b8787b0c492", "type": "electric_scooter", "lat": 38.909951666666664, "is_reserved": 0, "lon": -77.0218395, "fusion_lon": 0.0, "is_disabled": 0, "fusion_lat": 0.0, "bike_id": "75f7179de3022f529ddc8b8787b0c492", "rental_uris": {"ios": "https://dc.lft.to/lastmile_qr_scan", "android": "https://dc.lft.to/lastmile_qr_scan"}}, {"name": "b68a14eadcce96e0922a0bee63a4283f", "type": "electric_scooter", "lat": 38.9199345, "is_reserved": 0, "lon": -77.03483883333334, "fusion_lon": 0.0, "is_disabled": 0, "fusion_lat": 0.0, "bike_id": "b68a14eadcce96e0922a0bee63a4283f", "rental_uris": {"ios": "https://dc.lft.to/lastmile_qr_scan", "android": "https://dc.lft.to/lastmile_qr_scan"}}, {"name": "7745f982b1578fee1566c5e21247a185", "type": "electric_scooter", "lat": 38.897281666666665, "is_reserved": 0, "lon": -77.04343033333333, "fusion_lon": 0.0, "is_disabled": 0, "fusion_lat": 0.0, "bike_id": "7745f982b1578fee1566c5e21247a185", "rental_uris": {"ios": "https://dc.lft.to/lastmile_qr_scan", "android": "https://dc.lft.to/lastmile_qr_scan"}}, {"name": "d9fd3cee4e925221eb0931bd9bbbbe48", "type": "electric_scooter", "lat": 38.8990275, "is_reserved": 0, "lon": -77.03935966666667, "fusion_lon": 0.0, "is_disabled": 0, "fusion_lat": 0.0, "bike_id": "d9fd3cee4e925221eb0931bd9bbbbe48", "rental_uris": {"ios": "https://dc.lft.to/lastmile_qr_scan", "android": "https://dc.lft.to/lastmile_qr_scan"}}, {"name": "992b4ac93659b12b6fd61c348bd8ceb3", "type": "electric_scooter", "lat": 38.90277783333333, "is_reserved": 0, "lon": -77.038587, "fusion_lon": 0.0, "is_disabled": 0, "fusion_lat": 0.0, "bike_id": "992b4ac93659b12b6fd61c348bd8ceb3", "rental_uris": {"ios": "https://dc.lft.to/lastmile_qr_scan", "android": "https://dc.lft.to/lastmile_qr_scan"}}, {"name": "e49f4bef99d06887d3ceaeedfbf2938c", "type": "electric_scooter", "lat": 38.885310833333335, "is_reserved": 0, "lon": -77.00585866666667, "fusion_lon": 0.0, "is_disabled": 0, "fusion_lat": 0.0, "bike_id": "e49f4bef99d06887d3ceaeedfbf2938c", "rental_uris": {"ios": "https://dc.lft.to/lastmile_qr_scan", "android": "https://dc.lft.to/lastmile_qr_scan"}}, {"name": "5e92f62a02deef7c1c3500fb4edc0b38", "type": "electric_scooter", "lat": 38.887776333333335, "is_reserved": 0, "lon": -76.95533816666666, "fusion_lon": 0.0, "is_disabled": 0, "fusion_lat": 0.0, "bike_id": "5e92f62a02deef7c1c3500fb4edc0b38", "rental_uris": {"ios": "https://dc.lft.to/lastmile_qr_scan", "android": "https://dc.lft.to/lastmile_qr_scan"}}, {"name": "021a25b2395b201d097c246e942239b0", "type": "electric_scooter", "lat": 38.891979166666665, "is_reserved": 0, "lon": -77.00241833333334, "fusion_lon": 0.0, "is_disabled": 0, "fusion_lat": 0.0, "bike_id": "021a25b2395b201d097c246e942239b0", "rental_uris": {"ios": "https://dc.lft.to/lastmile_qr_scan", "android": "https://dc.lft.to/lastmile_qr_scan"}}, {"name": "50d2988f36041aff14e53bf00589554f", "type": "electric_scooter", "lat": 38.93352, "is_reserved": 0, "lon": -77.0693635, "fusion_lon": 0.0, "is_disabled": 0, "fusion_lat": 0.0, "bike_id": "50d2988f36041aff14e53bf00589554f", "rental_uris": {"ios": "https://dc.lft.to/lastmile_qr_scan", "android": "https://dc.lft.to/lastmile_qr_scan"}}, {"name": "286f93910108bd7bc10577c4577949c8", "type": "electric_scooter", "lat": 38.90028983333333, "is_reserved": 0, "lon": -77.0116055, "fusion_lon": 0.0, "is_disabled": 0, "fusion_lat": 0.0, "bike_id": "286f93910108bd7bc10577c4577949c8", "rental_uris": {"ios": "https://dc.lft.to/lastmile_qr_scan", "android": "https://dc.lft.to/lastmile_qr_scan"}}, {"name": "3644f4126dc1302903c1b4bde612eea2", "type": "electric_scooter", "lat": 38.929731, "is_reserved": 0, "lon": -77.03276083333333, "fusion_lon": 0.0, "is_disabled": 0, "fusion_lat": 0.0, "bike_id": "3644f4126dc1302903c1b4bde612eea2", "rental_uris": {"ios": "https://dc.lft.to/lastmile_qr_scan", "android": "https://dc.lft.to/lastmile_qr_scan"}}, {"name": "a1fe4ee392a3ee406469f757ff4963e0", "type": "electric_scooter", "lat": 38.87731133333333, "is_reserved": 0, "lon": -76.972844, "fusion_lon": 0.0, "is_disabled": 0, "fusion_lat": 0.0, "bike_id": "a1fe4ee392a3ee406469f757ff4963e0", "rental_uris": {"ios": "https://dc.lft.to/lastmile_qr_scan", "android": "https://dc.lft.to/lastmile_qr_scan"}}, {"name": "7d710b5865031197506c890ebe411f38", "type": "electric_scooter", "lat": 38.948321166666666, "is_reserved": 0, "lon": -77.02551083333333, "fusion_lon": 0.0, "is_disabled": 0, "fusion_lat": 0.0, "bike_id": "7d710b5865031197506c890ebe411f38", "rental_uris": {"ios": "https://dc.lft.to/lastmile_qr_scan", "android": "https://dc.lft.to/lastmile_qr_scan"}}, {"name": "a2daad0b94850efc0f26a34a6faf204e", "type": "electric_scooter", "lat": 38.9037315, "is_reserved": 0, "lon": -77.017529, "fusion_lon": 0.0, "is_disabled": 0, "fusion_lat": 0.0, "bike_id": "a2daad0b94850efc0f26a34a6faf204e", "rental_uris": {"ios": "https://dc.lft.to/lastmile_qr_scan", "android": "https://dc.lft.to/lastmile_qr_scan"}}, {"name": "ffd151199582dce67ebf07d0bd82e905", "type": "electric_scooter", "lat": 38.93495466666667, "is_reserved": 0, "lon": -77.02725766666667, "fusion_lon": 0.0, "is_disabled": 0, "fusion_lat": 0.0, "bike_id": "ffd151199582dce67ebf07d0bd82e905", "rental_uris": {"ios": "https://dc.lft.to/lastmile_qr_scan", "android": "https://dc.lft.to/lastmile_qr_scan"}}, {"name": "85d8af034b2387ea2fd4f608a35cd2ba", "type": "electric_scooter", "lat": 38.90448216666667, "is_reserved": 0, "lon": -77.0289695, "fusion_lon": 0.0, "is_disabled": 0, "fusion_lat": 0.0, "bike_id": "85d8af034b2387ea2fd4f608a35cd2ba", "rental_uris": {"ios": "https://dc.lft.to/lastmile_qr_scan", "android": "https://dc.lft.to/lastmile_qr_scan"}}, {"name": "9a640e0fc2e6fc5caf90a9090fb2b0d4", "type": "electric_scooter", "lat": 38.89476483333333, "is_reserved": 0, "lon": -77.05013666666666, "fusion_lon": 0.0, "is_disabled": 0, "fusion_lat": 0.0, "bike_id": "9a640e0fc2e6fc5caf90a9090fb2b0d4", "rental_uris": {"ios": "https://dc.lft.to/lastmile_qr_scan", "android": "https://dc.lft.to/lastmile_qr_scan"}}, {"name": "a962b3091faaff5575b930e7da7fee33", "type": "electric_bike", "lat": 38.903430166666666, "is_reserved": 0, "lon": -77.0450125, "fusion_lon": 0.0, "is_disabled": 0, "fusion_lat": 0.0, "bike_id": "a962b3091faaff5575b930e7da7fee33", "rental_uris": {"ios": "https://dc.lft.to/lastmile_qr_scan", "android": "https://dc.lft.to/lastmile_qr_scan"}}, {"name": "667dfbde63552195012b1545730f5fdc", "type": "electric_scooter", "lat": 38.9397345, "is_reserved": 0, "lon": -77.03589566666666, "fusion_lon": 0.0, "is_disabled": 0, "fusion_lat": 0.0, "bike_id": "667dfbde63552195012b1545730f5fdc", "rental_uris": {"ios": "https://dc.lft.to/lastmile_qr_scan", "android": "https://dc.lft.to/lastmile_qr_scan"}}, {"name": "530984cb4f80c57ebf49e46e4406217a", "type": "electric_scooter", "lat": 38.932502166666666, "is_reserved": 0, "lon": -77.0328645, "fusion_lon": 0.0, "is_disabled": 0, "fusion_lat": 0.0, "bike_id": "530984cb4f80c57ebf49e46e4406217a", "rental_uris": {"ios": "https://dc.lft.to/lastmile_qr_scan", "android": "https://dc.lft.to/lastmile_qr_scan"}}, {"name": "df77240c90d1b4513484d02ace94f0d4", "type": "electric_scooter", "lat": 38.86200383333333, "is_reserved": 0, "lon": -76.994666, "fusion_lon": 0.0, "is_disabled": 0, "fusion_lat": 0.0, "bike_id": "df77240c90d1b4513484d02ace94f0d4", "rental_uris": {"ios": "https://dc.lft.to/lastmile_qr_scan", "android": "https://dc.lft.to/lastmile_qr_scan"}}, {"name": "0356020f4dd18937f6db4320085d9def", "type": "electric_scooter", "lat": 38.914204166666664, "is_reserved": 0, "lon": -77.03902983333333, "fusion_lon": 0.0, "is_disabled": 0, "fusion_lat": 0.0, "bike_id": "0356020f4dd18937f6db4320085d9def", "rental_uris": {"ios": "https://dc.lft.to/lastmile_qr_scan", "android": "https://dc.lft.to/lastmile_qr_scan"}}, {"name": "34e7e991971a17af4b7b0160b9a757d9", "type": "electric_scooter", "lat": 38.90505783333333, "is_reserved": 0, "lon": -77.06753433333333, "fusion_lon": 0.0, "is_disabled": 0, "fusion_lat": 0.0, "bike_id": "34e7e991971a17af4b7b0160b9a757d9", "rental_uris": {"ios": "https://dc.lft.to/lastmile_qr_scan", "android": "https://dc.lft.to/lastmile_qr_scan"}}, {"name": "4ff91139a9a7222ae313e4fb1edd852b", "type": "electric_scooter", "lat": 38.93112566666667, "is_reserved": 0, "lon": -77.0381845, "fusion_lon": 0.0, "is_disabled": 0, "fusion_lat": 0.0, "bike_id": "4ff91139a9a7222ae313e4fb1edd852b", "rental_uris": {"ios": "https://dc.lft.to/lastmile_qr_scan", "android": "https://dc.lft.to/lastmile_qr_scan"}}, {"name": "d2c2d8fd204426a4ced527cefd517d90", "type": "electric_scooter", "lat": 38.94286966666667, "is_reserved": 0, "lon": -77.02173516666667, "fusion_lon": 0.0, "is_disabled": 0, "fusion_lat": 0.0, "bike_id": "d2c2d8fd204426a4ced527cefd517d90", "rental_uris": {"ios": "https://dc.lft.to/lastmile_qr_scan", "android": "https://dc.lft.to/lastmile_qr_scan"}}, {"name": "4b15550b498a83d180eb3cd9a514cb95", "type": "electric_scooter", "lat": 38.92058383333333, "is_reserved": 0, "lon": -77.04289783333333, "fusion_lon": 0.0, "is_disabled": 0, "fusion_lat": 0.0, "bike_id": "4b15550b498a83d180eb3cd9a514cb95", "rental_uris": {"ios": "https://dc.lft.to/lastmile_qr_scan", "android": "https://dc.lft.to/lastmile_qr_scan"}}, {"name": "2d875c2b0574efb53e52b7c01337b10e", "type": "electric_scooter", "lat": 38.9339025, "is_reserved": 0, "lon": -77.03583116666667, "fusion_lon": 0.0, "is_disabled": 0, "fusion_lat": 0.0, "bike_id": "2d875c2b0574efb53e52b7c01337b10e", "rental_uris": {"ios": "https://dc.lft.to/lastmile_qr_scan", "android": "https://dc.lft.to/lastmile_qr_scan"}}, {"name": "467dd78ce9834ee136e4b75aca6201e5", "type": "electric_scooter", "lat": 38.932496666666665, "is_reserved": 0, "lon": -77.03290366666667, "fusion_lon": 0.0, "is_disabled": 0, "fusion_lat": 0.0, "bike_id": "467dd78ce9834ee136e4b75aca6201e5", "rental_uris": {"ios": "https://dc.lft.to/lastmile_qr_scan", "android": "https://dc.lft.to/lastmile_qr_scan"}}, {"name": "ae80e610023c1b3e0938bffd61ffdf2e", "type": "electric_bike", "lat": 38.892161, "is_reserved": 0, "lon": -77.10785633333333, "fusion_lon": 0.0, "is_disabled": 0, "fusion_lat": 0.0, "bike_id": "ae80e610023c1b3e0938bffd61ffdf2e", "rental_uris": {"ios": "https://dc.lft.to/lastmile_qr_scan", "android": "https://dc.lft.to/lastmile_qr_scan"}}, {"name": "ca0dfd5457e260dfd943ed859cddad2c", "type": "electric_scooter", "lat": 38.903629333333335, "is_reserved": 0, "lon": -77.04348483333334, "fusion_lon": 0.0, "is_disabled": 0, "fusion_lat": 0.0, "bike_id": "ca0dfd5457e260dfd943ed859cddad2c", "rental_uris": {"ios": "https://dc.lft.to/lastmile_qr_scan", "android": "https://dc.lft.to/lastmile_qr_scan"}}, {"name": "108f16e90355a7bf2f392d76f50d9516", "type": "electric_scooter", "lat": 38.9002345, "is_reserved": 0, "lon": -77.0146185, "fusion_lon": 0.0, "is_disabled": 0, "fusion_lat": 0.0, "bike_id": "108f16e90355a7bf2f392d76f50d9516", "rental_uris": {"ios": "https://dc.lft.to/lastmile_qr_scan", "android": "https://dc.lft.to/lastmile_qr_scan"}}, {"name": "342efab5d5373768f0da40b9ec950eaa", "type": "electric_scooter", "lat": 38.908493, "is_reserved": 0, "lon": -77.02728333333333, "fusion_lon": 0.0, "is_disabled": 0, "fusion_lat": 0.0, "bike_id": "342efab5d5373768f0da40b9ec950eaa", "rental_uris": {"ios": "https://dc.lft.to/lastmile_qr_scan", "android": "https://dc.lft.to/lastmile_qr_scan"}}, {"name": "473f812e6455b18f168e3c075f365e43", "type": "electric_scooter", "lat": 38.932986666666665, "is_reserved": 0, "lon": -77.02845166666667, "fusion_lon": 0.0, "is_disabled": 0, "fusion_lat": 0.0, "bike_id": "473f812e6455b18f168e3c075f365e43", "rental_uris": {"ios": "https://dc.lft.to/lastmile_qr_scan", "android": "https://dc.lft.to/lastmile_qr_scan"}}, {"name": "38a9ffdd326bd82624c5bd1da87e8d64", "type": "electric_scooter", "lat": 38.90269816666667, "is_reserved": 0, "lon": -77.04621333333333, "fusion_lon": 0.0, "is_disabled": 0, "fusion_lat": 0.0, "bike_id": "38a9ffdd326bd82624c5bd1da87e8d64", "rental_uris": {"ios": "https://dc.lft.to/lastmile_qr_scan", "android": "https://dc.lft.to/lastmile_qr_scan"}}, {"name": "e293bde034891745c952b9f78340c6b9", "type": "electric_scooter", "lat": 38.91802116666667, "is_reserved": 0, "lon": -77.03300466666667, "fusion_lon": 0.0, "is_disabled": 0, "fusion_lat": 0.0, "bike_id": "e293bde034891745c952b9f78340c6b9", "rental_uris": {"ios": "https://dc.lft.to/lastmile_qr_scan", "android": "https://dc.lft.to/lastmile_qr_scan"}}, {"name": "9192197a6f2be89eff5a224aa6ccbfe4", "type": "electric_scooter", "lat": 38.92852116666667, "is_reserved": 0, "lon": -77.01374216666666, "fusion_lon": 0.0, "is_disabled": 0, "fusion_lat": 0.0, "bike_id": "9192197a6f2be89eff5a224aa6ccbfe4", "rental_uris": {"ios": "https://dc.lft.to/lastmile_qr_scan", "android": "https://dc.lft.to/lastmile_qr_scan"}}, {"name": "c83a866c7fad9517517aa42f5a6c96d3", "type": "electric_scooter", "lat": 38.92919233333333, "is_reserved": 0, "lon": -77.02007733333333, "fusion_lon": 0.0, "is_disabled": 0, "fusion_lat": 0.0, "bike_id": "c83a866c7fad9517517aa42f5a6c96d3", "rental_uris": {"ios": "https://dc.lft.to/lastmile_qr_scan", "android": "https://dc.lft.to/lastmile_qr_scan"}}, {"name": "a74c24aa064299832f9dded15d5939b0", "type": "electric_bike", "lat": 38.81305483333333, "is_reserved": 0, "lon": -77.05097216666667, "fusion_lon": 0.0, "is_disabled": 0, "fusion_lat": 0.0, "bike_id": "a74c24aa064299832f9dded15d5939b0", "rental_uris": {"ios": "https://dc.lft.to/lastmile_qr_scan", "android": "https://dc.lft.to/lastmile_qr_scan"}}, {"name": "db11c9517087e44ac4ed709fa124da77", "type": "electric_scooter", "lat": 38.9132525, "is_reserved": 0, "lon": -77.03272883333334, "fusion_lon": 0.0, "is_disabled": 0, "fusion_lat": 0.0, "bike_id": "db11c9517087e44ac4ed709fa124da77", "rental_uris": {"ios": "https://dc.lft.to/lastmile_qr_scan", "android": "https://dc.lft.to/lastmile_qr_scan"}}, {"name": "ab7bf1e31a590f34dd394d487c389374", "type": "electric_scooter", "lat": 38.86207816666667, "is_reserved": 0, "lon": -76.99471616666666, "fusion_lon": 0.0, "is_disabled": 0, "fusion_lat": 0.0, "bike_id": "ab7bf1e31a590f34dd394d487c389374", "rental_uris": {"ios": "https://dc.lft.to/lastmile_qr_scan", "android": "https://dc.lft.to/lastmile_qr_scan"}}, {"name": "0730868faec13796c8220ecb0dc6e4df", "type": "electric_scooter", "lat": 38.89553933333333, "is_reserved": 0, "lon": -76.95030733333333, "fusion_lon": 0.0, "is_disabled": 0, "fusion_lat": 0.0, "bike_id": "0730868faec13796c8220ecb0dc6e4df", "rental_uris": {"ios": "https://dc.lft.to/lastmile_qr_scan", "android": "https://dc.lft.to/lastmile_qr_scan"}}, {"name": "78285726fd2312a6ab34854d0a188f7a", "type": "electric_scooter", "lat": 38.925420833333334, "is_reserved": 0, "lon": -77.022658, "fusion_lon": 0.0, "is_disabled": 0, "fusion_lat": 0.0, "bike_id": "78285726fd2312a6ab34854d0a188f7a", "rental_uris": {"ios": "https://dc.lft.to/lastmile_qr_scan", "android": "https://dc.lft.to/lastmile_qr_scan"}}, {"name": "76f87bc0b7823efb64917dd385d6a415", "type": "electric_scooter", "lat": 38.91862833333333, "is_reserved": 0, "lon": -77.03218483333333, "fusion_lon": 0.0, "is_disabled": 0, "fusion_lat": 0.0, "bike_id": "76f87bc0b7823efb64917dd385d6a415", "rental_uris": {"ios": "https://dc.lft.to/lastmile_qr_scan", "android": "https://dc.lft.to/lastmile_qr_scan"}}, {"name": "192fa9686ebcb07392ce60dd41f017a1", "type": "electric_scooter", "lat": 38.902535, "is_reserved": 0, "lon": -77.04333133333333, "fusion_lon": 0.0, "is_disabled": 0, "fusion_lat": 0.0, "bike_id": "192fa9686ebcb07392ce60dd41f017a1", "rental_uris": {"ios": "https://dc.lft.to/lastmile_qr_scan", "android": "https://dc.lft.to/lastmile_qr_scan"}}, {"name": "dcdd6c73b12c141db79e7b1bd5ec5a20", "type": "electric_scooter", "lat": 38.9027465, "is_reserved": 0, "lon": -77.03366116666666, "fusion_lon": 0.0, "is_disabled": 0, "fusion_lat": 0.0, "bike_id": "dcdd6c73b12c141db79e7b1bd5ec5a20", "rental_uris": {"ios": "https://dc.lft.to/lastmile_qr_scan", "android": "https://dc.lft.to/lastmile_qr_scan"}}, {"name": "b1b3f35ef26634beb1a3576a5ce5f6d3", "type": "electric_scooter", "lat": 38.8797565, "is_reserved": 0, "lon": -77.02398333333333, "fusion_lon": 0.0, "is_disabled": 0, "fusion_lat": 0.0, "bike_id": "b1b3f35ef26634beb1a3576a5ce5f6d3", "rental_uris": {"ios": "https://dc.lft.to/lastmile_qr_scan", "android": "https://dc.lft.to/lastmile_qr_scan"}}, {"name": "2c000425c07d44e588951c4429e7bbb2", "type": "electric_scooter", "lat": 38.90473983333333, "is_reserved": 0, "lon": -77.0021915, "fusion_lon": 0.0, "is_disabled": 0, "fusion_lat": 0.0, "bike_id": "2c000425c07d44e588951c4429e7bbb2", "rental_uris": {"ios": "https://dc.lft.to/lastmile_qr_scan", "android": "https://dc.lft.to/lastmile_qr_scan"}}, {"name": "d56aa78934950155f760d1074615868e", "type": "electric_scooter", "lat": 38.885782666666664, "is_reserved": 0, "lon": -77.01491266666666, "fusion_lon": 0.0, "is_disabled": 0, "fusion_lat": 0.0, "bike_id": "d56aa78934950155f760d1074615868e", "rental_uris": {"ios": "https://dc.lft.to/lastmile_qr_scan", "android": "https://dc.lft.to/lastmile_qr_scan"}}, {"name": "790acdb8836b78e059282472cd0740ed", "type": "electric_scooter", "lat": 38.898543333333336, "is_reserved": 0, "lon": -77.03206566666667, "fusion_lon": 0.0, "is_disabled": 0, "fusion_lat": 0.0, "bike_id": "790acdb8836b78e059282472cd0740ed", "rental_uris": {"ios": "https://dc.lft.to/lastmile_qr_scan", "android": "https://dc.lft.to/lastmile_qr_scan"}}, {"name": "478865ddf2242cdbfd3b660fa8d87f34", "type": "electric_scooter", "lat": 38.8947525, "is_reserved": 0, "lon": -76.99539966666667, "fusion_lon": 0.0, "is_disabled": 0, "fusion_lat": 0.0, "bike_id": "478865ddf2242cdbfd3b660fa8d87f34", "rental_uris": {"ios": "https://dc.lft.to/lastmile_qr_scan", "android": "https://dc.lft.to/lastmile_qr_scan"}}, {"name": "fbfe59e0284fb4bb6986d76459c4206e", "type": "electric_scooter", "lat": 38.90375366666667, "is_reserved": 0, "lon": -77.0383245, "fusion_lon": 0.0, "is_disabled": 0, "fusion_lat": 0.0, "bike_id": "fbfe59e0284fb4bb6986d76459c4206e", "rental_uris": {"ios": "https://dc.lft.to/lastmile_qr_scan", "android": "https://dc.lft.to/lastmile_qr_scan"}}, {"name": "90faf63640655448b14691670d54c9dc", "type": "electric_scooter", "lat": 38.900188666666665, "is_reserved": 0, "lon": -77.03015233333333, "fusion_lon": 0.0, "is_disabled": 0, "fusion_lat": 0.0, "bike_id": "90faf63640655448b14691670d54c9dc", "rental_uris": {"ios": "https://dc.lft.to/lastmile_qr_scan", "android": "https://dc.lft.to/lastmile_qr_scan"}}, {"name": "1aa764626c606cb4e2067822dbc31fc9", "type": "electric_scooter", "lat": 38.931973666666664, "is_reserved": 0, "lon": -77.0385765, "fusion_lon": 0.0, "is_disabled": 0, "fusion_lat": 0.0, "bike_id": "1aa764626c606cb4e2067822dbc31fc9", "rental_uris": {"ios": "https://dc.lft.to/lastmile_qr_scan", "android": "https://dc.lft.to/lastmile_qr_scan"}}, {"name": "d5d0f38bde491d8e01a9fe9ec1cbf604", "type": "electric_scooter", "lat": 38.92866816666667, "is_reserved": 0, "lon": -77.03479866666666, "fusion_lon": 0.0, "is_disabled": 0, "fusion_lat": 0.0, "bike_id": "d5d0f38bde491d8e01a9fe9ec1cbf604", "rental_uris": {"ios": "https://dc.lft.to/lastmile_qr_scan", "android": "https://dc.lft.to/lastmile_qr_scan"}}, {"name": "cf0e9c89507084aff81e91cfee005e87", "type": "electric_scooter", "lat": 38.92468366666667, "is_reserved": 0, "lon": -77.028354, "fusion_lon": 0.0, "is_disabled": 0, "fusion_lat": 0.0, "bike_id": "cf0e9c89507084aff81e91cfee005e87", "rental_uris": {"ios": "https://dc.lft.to/lastmile_qr_scan", "android": "https://dc.lft.to/lastmile_qr_scan"}}, {"name": "d5d717c3e0d219e0b1a214090fd64681", "type": "electric_scooter", "lat": 38.9307945, "is_reserved": 0, "lon": -77.02798216666666, "fusion_lon": 0.0, "is_disabled": 0, "fusion_lat": 0.0, "bike_id": "d5d717c3e0d219e0b1a214090fd64681", "rental_uris": {"ios": "https://dc.lft.to/lastmile_qr_scan", "android": "https://dc.lft.to/lastmile_qr_scan"}}, {"name": "8e463a1dce55dd987e823b526e4f8cae", "type": "electric_scooter", "lat": 38.884036333333334, "is_reserved": 0, "lon": -77.01770116666667, "fusion_lon": 0.0, "is_disabled": 0, "fusion_lat": 0.0, "bike_id": "8e463a1dce55dd987e823b526e4f8cae", "rental_uris": {"ios": "https://dc.lft.to/lastmile_qr_scan", "android": "https://dc.lft.to/lastmile_qr_scan"}}, {"name": "89fc2e8b9b5aeacdbf216444ee977cbd", "type": "electric_scooter", "lat": 38.88450733333333, "is_reserved": 0, "lon": -77.0057455, "fusion_lon": 0.0, "is_disabled": 0, "fusion_lat": 0.0, "bike_id": "89fc2e8b9b5aeacdbf216444ee977cbd", "rental_uris": {"ios": "https://dc.lft.to/lastmile_qr_scan", "android": "https://dc.lft.to/lastmile_qr_scan"}}, {"name": "b3b8bccae300b8b2a23e7f1fe9da0b8d", "type": "electric_scooter", "lat": 38.90333483333333, "is_reserved": 0, "lon": -77.0401835, "fusion_lon": 0.0, "is_disabled": 0, "fusion_lat": 0.0, "bike_id": "b3b8bccae300b8b2a23e7f1fe9da0b8d", "rental_uris": {"ios": "https://dc.lft.to/lastmile_qr_scan", "android": "https://dc.lft.to/lastmile_qr_scan"}}, {"name": "55607ba34030d2e00fb2eccd2297f4a3", "type": "electric_scooter", "lat": 38.917132, "is_reserved": 0, "lon": -77.03858466666667, "fusion_lon": 0.0, "is_disabled": 0, "fusion_lat": 0.0, "bike_id": "55607ba34030d2e00fb2eccd2297f4a3", "rental_uris": {"ios": "https://dc.lft.to/lastmile_qr_scan", "android": "https://dc.lft.to/lastmile_qr_scan"}}, {"name": "5462d11f9f65d150e2fab8a3c878c6f3", "type": "electric_scooter", "lat": 38.92756333333333, "is_reserved": 0, "lon": -77.02419883333333, "fusion_lon": 0.0, "is_disabled": 0, "fusion_lat": 0.0, "bike_id": "5462d11f9f65d150e2fab8a3c878c6f3", "rental_uris": {"ios": "https://dc.lft.to/lastmile_qr_scan", "android": "https://dc.lft.to/lastmile_qr_scan"}}, {"name": "aa10d742e61fd86bcd3a2a9627e1c5a9", "type": "electric_scooter", "lat": 38.89882566666667, "is_reserved": 0, "lon": -76.93174516666667, "fusion_lon": 0.0, "is_disabled": 0, "fusion_lat": 0.0, "bike_id": "aa10d742e61fd86bcd3a2a9627e1c5a9", "rental_uris": {"ios": "https://dc.lft.to/lastmile_qr_scan", "android": "https://dc.lft.to/lastmile_qr_scan"}}, {"name": "aca349cdf837f3668d514ce1b31b34b7", "type": "electric_scooter", "lat": 38.917992166666664, "is_reserved": 0, "lon": -77.0346175, "fusion_lon": 0.0, "is_disabled": 0, "fusion_lat": 0.0, "bike_id": "aca349cdf837f3668d514ce1b31b34b7", "rental_uris": {"ios": "https://dc.lft.to/lastmile_qr_scan", "android": "https://dc.lft.to/lastmile_qr_scan"}}, {"name": "399cb68bf20f078a2eb38b7f4c3d3658", "type": "electric_scooter", "lat": 38.94637183333333, "is_reserved": 0, "lon": -77.01926766666666, "fusion_lon": 0.0, "is_disabled": 0, "fusion_lat": 0.0, "bike_id": "399cb68bf20f078a2eb38b7f4c3d3658", "rental_uris": {"ios": "https://dc.lft.to/lastmile_qr_scan", "android": "https://dc.lft.to/lastmile_qr_scan"}}, {"name": "26131a50a0b1b7fb541bdcd03ce6adb8", "type": "electric_bike", "lat": 38.95759833333334, "is_reserved": 0, "lon": -77.011539, "fusion_lon": 0.0, "is_disabled": 0, "fusion_lat": 0.0, "bike_id": "26131a50a0b1b7fb541bdcd03ce6adb8", "rental_uris": {"ios": "https://dc.lft.to/lastmile_qr_scan", "android": "https://dc.lft.to/lastmile_qr_scan"}}, {"name": "5c9818a241fa213750f0c7dcc861dc32", "type": "electric_scooter", "lat": 38.89398116666667, "is_reserved": 0, "lon": -76.99354583333333, "fusion_lon": 0.0, "is_disabled": 0, "fusion_lat": 0.0, "bike_id": "5c9818a241fa213750f0c7dcc861dc32", "rental_uris": {"ios": "https://dc.lft.to/lastmile_qr_scan", "android": "https://dc.lft.to/lastmile_qr_scan"}}, {"name": "578d6d3e9fd5483c4df541f318c6ce64", "type": "electric_scooter", "lat": 38.896035, "is_reserved": 0, "lon": -77.04514383333333, "fusion_lon": 0.0, "is_disabled": 0, "fusion_lat": 0.0, "bike_id": "578d6d3e9fd5483c4df541f318c6ce64", "rental_uris": {"ios": "https://dc.lft.to/lastmile_qr_scan", "android": "https://dc.lft.to/lastmile_qr_scan"}}, {"name": "edb5e32b44593ad867bb02304311dfab", "type": "electric_bike", "lat": 38.911871, "is_reserved": 0, "lon": -77.01813533333333, "fusion_lon": 0.0, "is_disabled": 0, "fusion_lat": 0.0, "bike_id": "edb5e32b44593ad867bb02304311dfab", "rental_uris": {"ios": "https://dc.lft.to/lastmile_qr_scan", "android": "https://dc.lft.to/lastmile_qr_scan"}}, {"name": "f43be134f3a37dfe9f93628a97702f40", "type": "electric_scooter", "lat": 38.9393445, "is_reserved": 0, "lon": -77.01706916666667, "fusion_lon": 0.0, "is_disabled": 0, "fusion_lat": 0.0, "bike_id": "f43be134f3a37dfe9f93628a97702f40", "rental_uris": {"ios": "https://dc.lft.to/lastmile_qr_scan", "android": "https://dc.lft.to/lastmile_qr_scan"}}, {"name": "6fa73417109f4be9013c0fc4ace6b737", "type": "electric_scooter", "lat": 38.934519333333334, "is_reserved": 0, "lon": -77.07240016666667, "fusion_lon": 0.0, "is_disabled": 0, "fusion_lat": 0.0, "bike_id": "6fa73417109f4be9013c0fc4ace6b737", "rental_uris": {"ios": "https://dc.lft.to/lastmile_qr_scan", "android": "https://dc.lft.to/lastmile_qr_scan"}}, {"name": "57fd5862e4d29e90dfe11a148a963031", "type": "electric_scooter", "lat": 38.90528333333334, "is_reserved": 0, "lon": -77.0597255, "fusion_lon": 0.0, "is_disabled": 0, "fusion_lat": 0.0, "bike_id": "57fd5862e4d29e90dfe11a148a963031", "rental_uris": {"ios": "https://dc.lft.to/lastmile_qr_scan", "android": "https://dc.lft.to/lastmile_qr_scan"}}, {"name": "187ddb0a85baf8930727064495a6fc04", "type": "electric_bike", "lat": 38.87477, "is_reserved": 0, "lon": -76.96525666666666, "fusion_lon": 0.0, "is_disabled": 0, "fusion_lat": 0.0, "bike_id": "187ddb0a85baf8930727064495a6fc04", "rental_uris": {"ios": "https://dc.lft.to/lastmile_qr_scan", "android": "https://dc.lft.to/lastmile_qr_scan"}}, {"name": "55328efddc81bb33f03daff49233cee7", "type": "electric_scooter", "lat": 38.88312583333333, "is_reserved": 0, "lon": -77.009395, "fusion_lon": 0.0, "is_disabled": 0, "fusion_lat": 0.0, "bike_id": "55328efddc81bb33f03daff49233cee7", "rental_uris": {"ios": "https://dc.lft.to/lastmile_qr_scan", "android": "https://dc.lft.to/lastmile_qr_scan"}}, {"name": "6005ad0cb99537813004e432ddad406f", "type": "electric_scooter", "lat": 38.905295833333334, "is_reserved": 0, "lon": -77.05023316666667, "fusion_lon": 0.0, "is_disabled": 0, "fusion_lat": 0.0, "bike_id": "6005ad0cb99537813004e432ddad406f", "rental_uris": {"ios": "https://dc.lft.to/lastmile_qr_scan", "android": "https://dc.lft.to/lastmile_qr_scan"}}, {"name": "b0d11ecb2a29ef4841d511d067b4b9c9", "type": "electric_scooter", "lat": 38.9080325, "is_reserved": 0, "lon": -77.043651, "fusion_lon": 0.0, "is_disabled": 0, "fusion_lat": 0.0, "bike_id": "b0d11ecb2a29ef4841d511d067b4b9c9", "rental_uris": {"ios": "https://dc.lft.to/lastmile_qr_scan", "android": "https://dc.lft.to/lastmile_qr_scan"}}, {"name": "0305cd9930473fe47c67a1b0079aeab3", "type": "electric_bike", "lat": 38.94268533333333, "is_reserved": 0, "lon": -76.98072866666666, "fusion_lon": 0.0, "is_disabled": 0, "fusion_lat": 0.0, "bike_id": "0305cd9930473fe47c67a1b0079aeab3", "rental_uris": {"ios": "https://dc.lft.to/lastmile_qr_scan", "android": "https://dc.lft.to/lastmile_qr_scan"}}, {"name": "f433062080487e9d0ff97abbb2cf143e", "type": "electric_scooter", "lat": 38.916296, "is_reserved": 0, "lon": -77.02293883333333, "fusion_lon": 0.0, "is_disabled": 0, "fusion_lat": 0.0, "bike_id": "f433062080487e9d0ff97abbb2cf143e", "rental_uris": {"ios": "https://dc.lft.to/lastmile_qr_scan", "android": "https://dc.lft.to/lastmile_qr_scan"}}, {"name": "c9f3bd7d0e6d639585e9a44855b42a3a", "type": "electric_scooter", "lat": 38.905478333333335, "is_reserved": 0, "lon": -77.0529985, "fusion_lon": 0.0, "is_disabled": 0, "fusion_lat": 0.0, "bike_id": "c9f3bd7d0e6d639585e9a44855b42a3a", "rental_uris": {"ios": "https://dc.lft.to/lastmile_qr_scan", "android": "https://dc.lft.to/lastmile_qr_scan"}}, {"name": "0222c7d7d6e9a3e5982a118b885ac1bc", "type": "electric_scooter", "lat": 38.9197805, "is_reserved": 0, "lon": -77.02189716666666, "fusion_lon": 0.0, "is_disabled": 0, "fusion_lat": 0.0, "bike_id": "0222c7d7d6e9a3e5982a118b885ac1bc", "rental_uris": {"ios": "https://dc.lft.to/lastmile_qr_scan", "android": "https://dc.lft.to/lastmile_qr_scan"}}, {"name": "2968a2584236a62b0a2eb43a9a059d31", "type": "electric_scooter", "lat": 38.927907166666664, "is_reserved": 0, "lon": -77.05357566666666, "fusion_lon": 0.0, "is_disabled": 0, "fusion_lat": 0.0, "bike_id": "2968a2584236a62b0a2eb43a9a059d31", "rental_uris": {"ios": "https://dc.lft.to/lastmile_qr_scan", "android": "https://dc.lft.to/lastmile_qr_scan"}}, {"name": "378b2ff9e7cbb3b5ed1463cf845dde0d", "type": "electric_scooter", "lat": 38.900296833333336, "is_reserved": 0, "lon": -77.0321585, "fusion_lon": 0.0, "is_disabled": 0, "fusion_lat": 0.0, "bike_id": "378b2ff9e7cbb3b5ed1463cf845dde0d", "rental_uris": {"ios": "https://dc.lft.to/lastmile_qr_scan", "android": "https://dc.lft.to/lastmile_qr_scan"}}, {"name": "1fa00d32db89fc6dcafbf50f0c23dadf", "type": "electric_scooter", "lat": 38.902326333333335, "is_reserved": 0, "lon": -77.043698, "fusion_lon": 0.0, "is_disabled": 0, "fusion_lat": 0.0, "bike_id": "1fa00d32db89fc6dcafbf50f0c23dadf", "rental_uris": {"ios": "https://dc.lft.to/lastmile_qr_scan", "android": "https://dc.lft.to/lastmile_qr_scan"}}, {"name": "213aa3524cf0c061976ecc11b4ce31ec", "type": "electric_bike", "lat": 38.827272, "is_reserved": 0, "lon": -77.0086525, "fusion_lon": 0.0, "is_disabled": 0, "fusion_lat": 0.0, "bike_id": "213aa3524cf0c061976ecc11b4ce31ec", "rental_uris": {"ios": "https://dc.lft.to/lastmile_qr_scan", "android": "https://dc.lft.to/lastmile_qr_scan"}}, {"name": "ae01733ebaf9f1128c1a0636e5c0bec8", "type": "electric_scooter", "lat": 38.905726333333334, "is_reserved": 0, "lon": -77.04030333333333, "fusion_lon": 0.0, "is_disabled": 0, "fusion_lat": 0.0, "bike_id": "ae01733ebaf9f1128c1a0636e5c0bec8", "rental_uris": {"ios": "https://dc.lft.to/lastmile_qr_scan", "android": "https://dc.lft.to/lastmile_qr_scan"}}, {"name": "adade42c129da2264543e006b0897208", "type": "electric_scooter", "lat": 38.918719333333335, "is_reserved": 0, "lon": -77.043096, "fusion_lon": 0.0, "is_disabled": 0, "fusion_lat": 0.0, "bike_id": "adade42c129da2264543e006b0897208", "rental_uris": {"ios": "https://dc.lft.to/lastmile_qr_scan", "android": "https://dc.lft.to/lastmile_qr_scan"}}, {"name": "381bbaca25ad44738a2e6c9210c2a610", "type": "electric_scooter", "lat": 38.88496133333334, "is_reserved": 0, "lon": -77.00727683333334, "fusion_lon": 0.0, "is_disabled": 0, "fusion_lat": 0.0, "bike_id": "381bbaca25ad44738a2e6c9210c2a610", "rental_uris": {"ios": "https://dc.lft.to/lastmile_qr_scan", "android": "https://dc.lft.to/lastmile_qr_scan"}}, {"name": "9c58b48452c40ada67650c72dcba41a9", "type": "electric_scooter", "lat": 38.89915333333333, "is_reserved": 0, "lon": -77.03294716666667, "fusion_lon": 0.0, "is_disabled": 0, "fusion_lat": 0.0, "bike_id": "9c58b48452c40ada67650c72dcba41a9", "rental_uris": {"ios": "https://dc.lft.to/lastmile_qr_scan", "android": "https://dc.lft.to/lastmile_qr_scan"}}, {"name": "0997fc617affb64db7ad356de9f7a774", "type": "electric_scooter", "lat": 38.90853966666667, "is_reserved": 0, "lon": -77.02732633333333, "fusion_lon": 0.0, "is_disabled": 0, "fusion_lat": 0.0, "bike_id": "0997fc617affb64db7ad356de9f7a774", "rental_uris": {"ios": "https://dc.lft.to/lastmile_qr_scan", "android": "https://dc.lft.to/lastmile_qr_scan"}}, {"name": "126e0d1cd12cce8c3ace82aeb175fe30", "type": "electric_scooter", "lat": 38.88021033333333, "is_reserved": 0, "lon": -76.9314615, "fusion_lon": 0.0, "is_disabled": 0, "fusion_lat": 0.0, "bike_id": "126e0d1cd12cce8c3ace82aeb175fe30", "rental_uris": {"ios": "https://dc.lft.to/lastmile_qr_scan", "android": "https://dc.lft.to/lastmile_qr_scan"}}, {"name": "acd5cdfaeb00fd78a195b327286ea6e8", "type": "electric_scooter", "lat": 38.89731833333333, "is_reserved": 0, "lon": -76.94721116666666, "fusion_lon": 0.0, "is_disabled": 0, "fusion_lat": 0.0, "bike_id": "acd5cdfaeb00fd78a195b327286ea6e8", "rental_uris": {"ios": "https://dc.lft.to/lastmile_qr_scan", "android": "https://dc.lft.to/lastmile_qr_scan"}}, {"name": "58ab4ac04794efa11e0f604d08b0516e", "type": "electric_scooter", "lat": 38.900657833333334, "is_reserved": 0, "lon": -77.03178433333333, "fusion_lon": 0.0, "is_disabled": 0, "fusion_lat": 0.0, "bike_id": "58ab4ac04794efa11e0f604d08b0516e", "rental_uris": {"ios": "https://dc.lft.to/lastmile_qr_scan", "android": "https://dc.lft.to/lastmile_qr_scan"}}, {"name": "e82f372352fd2263000e225934f94f6f", "type": "electric_scooter", "lat": 38.89493616666667, "is_reserved": 0, "lon": -77.02418166666666, "fusion_lon": 0.0, "is_disabled": 0, "fusion_lat": 0.0, "bike_id": "e82f372352fd2263000e225934f94f6f", "rental_uris": {"ios": "https://dc.lft.to/lastmile_qr_scan", "android": "https://dc.lft.to/lastmile_qr_scan"}}, {"name": "880c170383f9d8489227b2d22dee459a", "type": "electric_bike", "lat": 38.89835516666667, "is_reserved": 0, "lon": -77.0057945, "fusion_lon": 0.0, "is_disabled": 0, "fusion_lat": 0.0, "bike_id": "880c170383f9d8489227b2d22dee459a", "rental_uris": {"ios": "https://dc.lft.to/lastmile_qr_scan", "android": "https://dc.lft.to/lastmile_qr_scan"}}, {"name": "c36e4e77faf7780a20bde45c549e4669", "type": "electric_scooter", "lat": 38.899145, "is_reserved": 0, "lon": -76.933837, "fusion_lon": 0.0, "is_disabled": 0, "fusion_lat": 0.0, "bike_id": "c36e4e77faf7780a20bde45c549e4669", "rental_uris": {"ios": "https://dc.lft.to/lastmile_qr_scan", "android": "https://dc.lft.to/lastmile_qr_scan"}}, {"name": "f649c12aba7eab127e1a07bf00ab789d", "type": "electric_scooter", "lat": 38.90139633333333, "is_reserved": 0, "lon": -77.04493216666667, "fusion_lon": 0.0, "is_disabled": 0, "fusion_lat": 0.0, "bike_id": "f649c12aba7eab127e1a07bf00ab789d", "rental_uris": {"ios": "https://dc.lft.to/lastmile_qr_scan", "android": "https://dc.lft.to/lastmile_qr_scan"}}, {"name": "0b2103673ecc39494d97c66d4b4eea8e", "type": "electric_scooter", "lat": 38.88725516666667, "is_reserved": 0, "lon": -77.02824316666667, "fusion_lon": 0.0, "is_disabled": 0, "fusion_lat": 0.0, "bike_id": "0b2103673ecc39494d97c66d4b4eea8e", "rental_uris": {"ios": "https://dc.lft.to/lastmile_qr_scan", "android": "https://dc.lft.to/lastmile_qr_scan"}}, {"name": "6077e2120f2102925246da3b0a43e3f4", "type": "electric_scooter", "lat": 38.9306365, "is_reserved": 0, "lon": -77.03945233333333, "fusion_lon": 0.0, "is_disabled": 0, "fusion_lat": 0.0, "bike_id": "6077e2120f2102925246da3b0a43e3f4", "rental_uris": {"ios": "https://dc.lft.to/lastmile_qr_scan", "android": "https://dc.lft.to/lastmile_qr_scan"}}, {"name": "20bd76944f1de33be211159969608d88", "type": "electric_scooter", "lat": 38.902415166666664, "is_reserved": 0, "lon": -76.97931, "fusion_lon": 0.0, "is_disabled": 0, "fusion_lat": 0.0, "bike_id": "20bd76944f1de33be211159969608d88", "rental_uris": {"ios": "https://dc.lft.to/lastmile_qr_scan", "android": "https://dc.lft.to/lastmile_qr_scan"}}, {"name": "f9882d8513ddfece3f59331b53e48ffe", "type": "electric_scooter", "lat": 38.90646266666667, "is_reserved": 0, "lon": -77.04274683333334, "fusion_lon": 0.0, "is_disabled": 0, "fusion_lat": 0.0, "bike_id": "f9882d8513ddfece3f59331b53e48ffe", "rental_uris": {"ios": "https://dc.lft.to/lastmile_qr_scan", "android": "https://dc.lft.to/lastmile_qr_scan"}}, {"name": "e6492aca3414ec2d541b4347fed734bb", "type": "electric_scooter", "lat": 38.894728666666666, "is_reserved": 0, "lon": -76.98407033333334, "fusion_lon": 0.0, "is_disabled": 0, "fusion_lat": 0.0, "bike_id": "e6492aca3414ec2d541b4347fed734bb", "rental_uris": {"ios": "https://dc.lft.to/lastmile_qr_scan", "android": "https://dc.lft.to/lastmile_qr_scan"}}, {"name": "6aba97690714625754d0c1378d47bdf1", "type": "electric_scooter", "lat": 38.94312033333333, "is_reserved": 0, "lon": -77.0591945, "fusion_lon": 0.0, "is_disabled": 0, "fusion_lat": 0.0, "bike_id": "6aba97690714625754d0c1378d47bdf1", "rental_uris": {"ios": "https://dc.lft.to/lastmile_qr_scan", "android": "https://dc.lft.to/lastmile_qr_scan"}}, {"name": "efacb97d946099a802b0dd2d1ff20b3d", "type": "electric_scooter", "lat": 38.917103, "is_reserved": 0, "lon": -77.03230466666666, "fusion_lon": 0.0, "is_disabled": 0, "fusion_lat": 0.0, "bike_id": "efacb97d946099a802b0dd2d1ff20b3d", "rental_uris": {"ios": "https://dc.lft.to/lastmile_qr_scan", "android": "https://dc.lft.to/lastmile_qr_scan"}}, {"name": "1211b8afd5186ad22515a47a34303eb8", "type": "electric_scooter", "lat": 38.95731766666667, "is_reserved": 0, "lon": -77.0240375, "fusion_lon": 0.0, "is_disabled": 0, "fusion_lat": 0.0, "bike_id": "1211b8afd5186ad22515a47a34303eb8", "rental_uris": {"ios": "https://dc.lft.to/lastmile_qr_scan", "android": "https://dc.lft.to/lastmile_qr_scan"}}, {"name": "61888f76931f5985f095403e011e16bb", "type": "electric_scooter", "lat": 38.898018666666665, "is_reserved": 0, "lon": -77.02823583333333, "fusion_lon": 0.0, "is_disabled": 0, "fusion_lat": 0.0, "bike_id": "61888f76931f5985f095403e011e16bb", "rental_uris": {"ios": "https://dc.lft.to/lastmile_qr_scan", "android": "https://dc.lft.to/lastmile_qr_scan"}}, {"name": "df882bdadddfaa5a4ccadf856e2e1769", "type": "electric_bike", "lat": 38.883992166666665, "is_reserved": 0, "lon": -77.04647283333334, "fusion_lon": 0.0, "is_disabled": 0, "fusion_lat": 0.0, "bike_id": "df882bdadddfaa5a4ccadf856e2e1769", "rental_uris": {"ios": "https://dc.lft.to/lastmile_qr_scan", "android": "https://dc.lft.to/lastmile_qr_scan"}}, {"name": "28d6f5eba532c7db84be607a518dcb2c", "type": "electric_scooter", "lat": 38.865671666666664, "is_reserved": 0, "lon": -76.98951883333334, "fusion_lon": 0.0, "is_disabled": 0, "fusion_lat": 0.0, "bike_id": "28d6f5eba532c7db84be607a518dcb2c", "rental_uris": {"ios": "https://dc.lft.to/lastmile_qr_scan", "android": "https://dc.lft.to/lastmile_qr_scan"}}, {"name": "6c45d7366d0786fd36b838f6046c0229", "type": "electric_bike", "lat": 38.85154133333333, "is_reserved": 0, "lon": -77.12878866666667, "fusion_lon": 0.0, "is_disabled": 0, "fusion_lat": 0.0, "bike_id": "6c45d7366d0786fd36b838f6046c0229", "rental_uris": {"ios": "https://dc.lft.to/lastmile_qr_scan", "android": "https://dc.lft.to/lastmile_qr_scan"}}, {"name": "d8d809111d28c9a047ee5f06d7e2770c", "type": "electric_scooter", "lat": 38.903474833333334, "is_reserved": 0, "lon": -77.03845816666667, "fusion_lon": 0.0, "is_disabled": 0, "fusion_lat": 0.0, "bike_id": "d8d809111d28c9a047ee5f06d7e2770c", "rental_uris": {"ios": "https://dc.lft.to/lastmile_qr_scan", "android": "https://dc.lft.to/lastmile_qr_scan"}}, {"name": "247c929fa4146b9be5f6c0728b2f0755", "type": "electric_scooter", "lat": 38.894025, "is_reserved": 0, "lon": -77.02368583333333, "fusion_lon": 0.0, "is_disabled": 0, "fusion_lat": 0.0, "bike_id": "247c929fa4146b9be5f6c0728b2f0755", "rental_uris": {"ios": "https://dc.lft.to/lastmile_qr_scan", "android": "https://dc.lft.to/lastmile_qr_scan"}}, {"name": "7e70c60e8b0526e9c47fd592b5ed87f5", "type": "electric_scooter", "lat": 38.905180333333334, "is_reserved": 0, "lon": -77.06939616666666, "fusion_lon": 0.0, "is_disabled": 0, "fusion_lat": 0.0, "bike_id": "7e70c60e8b0526e9c47fd592b5ed87f5", "rental_uris": {"ios": "https://dc.lft.to/lastmile_qr_scan", "android": "https://dc.lft.to/lastmile_qr_scan"}}, {"name": "636cffdc72f39761a2a61ecb4ab6cbe9", "type": "electric_scooter", "lat": 38.923381666666664, "is_reserved": 0, "lon": -77.01904566666667, "fusion_lon": 0.0, "is_disabled": 0, "fusion_lat": 0.0, "bike_id": "636cffdc72f39761a2a61ecb4ab6cbe9", "rental_uris": {"ios": "https://dc.lft.to/lastmile_qr_scan", "android": "https://dc.lft.to/lastmile_qr_scan"}}, {"name": "ee8a174b96fa05f985c6c5533a30b87a", "type": "electric_scooter", "lat": 38.89241416666667, "is_reserved": 0, "lon": -77.032026, "fusion_lon": 0.0, "is_disabled": 0, "fusion_lat": 0.0, "bike_id": "ee8a174b96fa05f985c6c5533a30b87a", "rental_uris": {"ios": "https://dc.lft.to/lastmile_qr_scan", "android": "https://dc.lft.to/lastmile_qr_scan"}}, {"name": "c6cdd94d184746409ebc13f37e7c12ba", "type": "electric_scooter", "lat": 38.92328833333333, "is_reserved": 0, "lon": -77.03911866666667, "fusion_lon": 0.0, "is_disabled": 0, "fusion_lat": 0.0, "bike_id": "c6cdd94d184746409ebc13f37e7c12ba", "rental_uris": {"ios": "https://dc.lft.to/lastmile_qr_scan", "android": "https://dc.lft.to/lastmile_qr_scan"}}, {"name": "e3da96be7e6ea683b2c82bf2be99ef44", "type": "electric_scooter", "lat": 38.90125916666667, "is_reserved": 0, "lon": -77.04465833333333, "fusion_lon": 0.0, "is_disabled": 0, "fusion_lat": 0.0, "bike_id": "e3da96be7e6ea683b2c82bf2be99ef44", "rental_uris": {"ios": "https://dc.lft.to/lastmile_qr_scan", "android": "https://dc.lft.to/lastmile_qr_scan"}}, {"name": "e4d1f579494d7ef2b084ccc3421cb527", "type": "electric_bike", "lat": 38.86165233333333, "is_reserved": 0, "lon": -76.95066616666666, "fusion_lon": 0.0, "is_disabled": 0, "fusion_lat": 0.0, "bike_id": "e4d1f579494d7ef2b084ccc3421cb527", "rental_uris": {"ios": "https://dc.lft.to/lastmile_qr_scan", "android": "https://dc.lft.to/lastmile_qr_scan"}}, {"name": "9fd1d0d611f086b1669ec314eaa07b3d", "type": "electric_scooter", "lat": 38.91711983333333, "is_reserved": 0, "lon": -77.03860183333333, "fusion_lon": 0.0, "is_disabled": 0, "fusion_lat": 0.0, "bike_id": "9fd1d0d611f086b1669ec314eaa07b3d", "rental_uris": {"ios": "https://dc.lft.to/lastmile_qr_scan", "android": "https://dc.lft.to/lastmile_qr_scan"}}, {"name": "588fba3ab1dce53fb8ba95a5ab7dc40b", "type": "electric_scooter", "lat": 38.903127, "is_reserved": 0, "lon": -77.0435475, "fusion_lon": 0.0, "is_disabled": 0, "fusion_lat": 0.0, "bike_id": "588fba3ab1dce53fb8ba95a5ab7dc40b", "rental_uris": {"ios": "https://dc.lft.to/lastmile_qr_scan", "android": "https://dc.lft.to/lastmile_qr_scan"}}, {"name": "51d9a7fc0baba69504a031b34deab8da", "type": "electric_scooter", "lat": 38.900173833333334, "is_reserved": 0, "lon": -77.02397266666667, "fusion_lon": 0.0, "is_disabled": 0, "fusion_lat": 0.0, "bike_id": "51d9a7fc0baba69504a031b34deab8da", "rental_uris": {"ios": "https://dc.lft.to/lastmile_qr_scan", "android": "https://dc.lft.to/lastmile_qr_scan"}}, {"name": "1513c61acdb123efe86eee4db4cce794", "type": "electric_scooter", "lat": 38.90075933333333, "is_reserved": 0, "lon": -77.04899666666667, "fusion_lon": 0.0, "is_disabled": 0, "fusion_lat": 0.0, "bike_id": "1513c61acdb123efe86eee4db4cce794", "rental_uris": {"ios": "https://dc.lft.to/lastmile_qr_scan", "android": "https://dc.lft.to/lastmile_qr_scan"}}, {"name": "08d4da29abef51563c7346aacbedd43a", "type": "electric_scooter", "lat": 38.918233666666666, "is_reserved": 0, "lon": -77.034435, "fusion_lon": 0.0, "is_disabled": 0, "fusion_lat": 0.0, "bike_id": "08d4da29abef51563c7346aacbedd43a", "rental_uris": {"ios": "https://dc.lft.to/lastmile_qr_scan", "android": "https://dc.lft.to/lastmile_qr_scan"}}, {"name": "2405b2e5c6b143226eeaeea081184598", "type": "electric_scooter", "lat": 38.91939766666667, "is_reserved": 0, "lon": -77.04550866666666, "fusion_lon": 0.0, "is_disabled": 0, "fusion_lat": 0.0, "bike_id": "2405b2e5c6b143226eeaeea081184598", "rental_uris": {"ios": "https://dc.lft.to/lastmile_qr_scan", "android": "https://dc.lft.to/lastmile_qr_scan"}}, {"name": "076bc8ec2d456b1367b32f24c54f921c", "type": "electric_scooter", "lat": 38.94082916666667, "is_reserved": 0, "lon": -77.06189883333333, "fusion_lon": 0.0, "is_disabled": 0, "fusion_lat": 0.0, "bike_id": "076bc8ec2d456b1367b32f24c54f921c", "rental_uris": {"ios": "https://dc.lft.to/lastmile_qr_scan", "android": "https://dc.lft.to/lastmile_qr_scan"}}, {"name": "005f5e748571cfd942717540740d2c4e", "type": "electric_scooter", "lat": 38.929138, "is_reserved": 0, "lon": -77.03233883333333, "fusion_lon": 0.0, "is_disabled": 0, "fusion_lat": 0.0, "bike_id": "005f5e748571cfd942717540740d2c4e", "rental_uris": {"ios": "https://dc.lft.to/lastmile_qr_scan", "android": "https://dc.lft.to/lastmile_qr_scan"}}, {"name": "e97af91381e5b58e2185aa1c32a7f157", "type": "electric_scooter", "lat": 38.865316, "is_reserved": 0, "lon": -76.99025983333334, "fusion_lon": 0.0, "is_disabled": 0, "fusion_lat": 0.0, "bike_id": "e97af91381e5b58e2185aa1c32a7f157", "rental_uris": {"ios": "https://dc.lft.to/lastmile_qr_scan", "android": "https://dc.lft.to/lastmile_qr_scan"}}, {"name": "d0cb2b72490c5c1849d744a5a5f08c36", "type": "electric_scooter", "lat": 38.91856833333333, "is_reserved": 0, "lon": -77.04470233333333, "fusion_lon": 0.0, "is_disabled": 0, "fusion_lat": 0.0, "bike_id": "d0cb2b72490c5c1849d744a5a5f08c36", "rental_uris": {"ios": "https://dc.lft.to/lastmile_qr_scan", "android": "https://dc.lft.to/lastmile_qr_scan"}}, {"name": "c172554e77344b0705b7fbc30b6e8c36", "type": "electric_scooter", "lat": 38.92258133333333, "is_reserved": 0, "lon": -77.03643933333333, "fusion_lon": 0.0, "is_disabled": 0, "fusion_lat": 0.0, "bike_id": "c172554e77344b0705b7fbc30b6e8c36", "rental_uris": {"ios": "https://dc.lft.to/lastmile_qr_scan", "android": "https://dc.lft.to/lastmile_qr_scan"}}, {"name": "caa7ee660368836f2c11a570bd17e788", "type": "electric_scooter", "lat": 38.90626133333333, "is_reserved": 0, "lon": -77.03971283333334, "fusion_lon": 0.0, "is_disabled": 0, "fusion_lat": 0.0, "bike_id": "caa7ee660368836f2c11a570bd17e788", "rental_uris": {"ios": "https://dc.lft.to/lastmile_qr_scan", "android": "https://dc.lft.to/lastmile_qr_scan"}}, {"name": "867b9c393b8ea3079ec3c40ca2d46468", "type": "electric_scooter", "lat": 38.924714333333334, "is_reserved": 0, "lon": -77.02674716666667, "fusion_lon": 0.0, "is_disabled": 0, "fusion_lat": 0.0, "bike_id": "867b9c393b8ea3079ec3c40ca2d46468", "rental_uris": {"ios": "https://dc.lft.to/lastmile_qr_scan", "android": "https://dc.lft.to/lastmile_qr_scan"}}, {"name": "7b6135a7abe92c6e1338f68c570ec33e", "type": "electric_scooter", "lat": 38.89261066666667, "is_reserved": 0, "lon": -77.02597666666666, "fusion_lon": 0.0, "is_disabled": 0, "fusion_lat": 0.0, "bike_id": "7b6135a7abe92c6e1338f68c570ec33e", "rental_uris": {"ios": "https://dc.lft.to/lastmile_qr_scan", "android": "https://dc.lft.to/lastmile_qr_scan"}}, {"name": "0a791f41f19f2ab61aa6ff0df83d1fec", "type": "electric_scooter", "lat": 38.90278816666667, "is_reserved": 0, "lon": -77.0367585, "fusion_lon": 0.0, "is_disabled": 0, "fusion_lat": 0.0, "bike_id": "0a791f41f19f2ab61aa6ff0df83d1fec", "rental_uris": {"ios": "https://dc.lft.to/lastmile_qr_scan", "android": "https://dc.lft.to/lastmile_qr_scan"}}, {"name": "d20f52a96caaa98c698d4ee2790aad66", "type": "electric_scooter", "lat": 38.904817666666666, "is_reserved": 0, "lon": -76.984309, "fusion_lon": 0.0, "is_disabled": 0, "fusion_lat": 0.0, "bike_id": "d20f52a96caaa98c698d4ee2790aad66", "rental_uris": {"ios": "https://dc.lft.to/lastmile_qr_scan", "android": "https://dc.lft.to/lastmile_qr_scan"}}, {"name": "447bbcf192f21e4988b4faf6b185e0a9", "type": "electric_bike", "lat": 38.870852, "is_reserved": 0, "lon": -77.0121005, "fusion_lon": 0.0, "is_disabled": 0, "fusion_lat": 0.0, "bike_id": "447bbcf192f21e4988b4faf6b185e0a9", "rental_uris": {"ios": "https://dc.lft.to/lastmile_qr_scan", "android": "https://dc.lft.to/lastmile_qr_scan"}}, {"name": "f6d894b7122df35a6f6510a8c627fae7", "type": "electric_scooter", "lat": 38.91802783333333, "is_reserved": 0, "lon": -77.03566816666667, "fusion_lon": 0.0, "is_disabled": 0, "fusion_lat": 0.0, "bike_id": "f6d894b7122df35a6f6510a8c627fae7", "rental_uris": {"ios": "https://dc.lft.to/lastmile_qr_scan", "android": "https://dc.lft.to/lastmile_qr_scan"}}, {"name": "20bbdca800d1c5db2077909e354a95bc", "type": "electric_scooter", "lat": 38.862063, "is_reserved": 0, "lon": -76.99469116666667, "fusion_lon": 0.0, "is_disabled": 0, "fusion_lat": 0.0, "bike_id": "20bbdca800d1c5db2077909e354a95bc", "rental_uris": {"ios": "https://dc.lft.to/lastmile_qr_scan", "android": "https://dc.lft.to/lastmile_qr_scan"}}, {"name": "ff7abd707a088ebdcab1bbae52ce8deb", "type": "electric_scooter", "lat": 38.874673, "is_reserved": 0, "lon": -77.01868683333333, "fusion_lon": 0.0, "is_disabled": 0, "fusion_lat": 0.0, "bike_id": "ff7abd707a088ebdcab1bbae52ce8deb", "rental_uris": {"ios": "https://dc.lft.to/lastmile_qr_scan", "android": "https://dc.lft.to/lastmile_qr_scan"}}, {"name": "c59161395f8db2dd5263611aee61a093", "type": "electric_scooter", "lat": 38.89602683333333, "is_reserved": 0, "lon": -77.045105, "fusion_lon": 0.0, "is_disabled": 0, "fusion_lat": 0.0, "bike_id": "c59161395f8db2dd5263611aee61a093", "rental_uris": {"ios": "https://dc.lft.to/lastmile_qr_scan", "android": "https://dc.lft.to/lastmile_qr_scan"}}, {"name": "b2d7864012d3aa97688e2703ff1c2ecc", "type": "electric_scooter", "lat": 38.891, "is_reserved": 0, "lon": -76.98706366666667, "fusion_lon": 0.0, "is_disabled": 0, "fusion_lat": 0.0, "bike_id": "b2d7864012d3aa97688e2703ff1c2ecc", "rental_uris": {"ios": "https://dc.lft.to/lastmile_qr_scan", "android": "https://dc.lft.to/lastmile_qr_scan"}}, {"name": "86ef1b3086718a37b0313282127b530f", "type": "electric_scooter", "lat": 38.89681433333333, "is_reserved": 0, "lon": -76.9963005, "fusion_lon": 0.0, "is_disabled": 0, "fusion_lat": 0.0, "bike_id": "86ef1b3086718a37b0313282127b530f", "rental_uris": {"ios": "https://dc.lft.to/lastmile_qr_scan", "android": "https://dc.lft.to/lastmile_qr_scan"}}, {"name": "4fea915e522d33ed446cfa9a05abaa5a", "type": "electric_scooter", "lat": 38.915708333333335, "is_reserved": 0, "lon": -77.0464955, "fusion_lon": 0.0, "is_disabled": 0, "fusion_lat": 0.0, "bike_id": "4fea915e522d33ed446cfa9a05abaa5a", "rental_uris": {"ios": "https://dc.lft.to/lastmile_qr_scan", "android": "https://dc.lft.to/lastmile_qr_scan"}}, {"name": "6b45a1001b19cc360a7102f5edc28e2d", "type": "electric_scooter", "lat": 38.975145, "is_reserved": 0, "lon": -77.01742983333334, "fusion_lon": 0.0, "is_disabled": 0, "fusion_lat": 0.0, "bike_id": "6b45a1001b19cc360a7102f5edc28e2d", "rental_uris": {"ios": "https://dc.lft.to/lastmile_qr_scan", "android": "https://dc.lft.to/lastmile_qr_scan"}}, {"name": "0ce8a3d25cf590e0bc1e84c651a3f1e3", "type": "electric_scooter", "lat": 38.8429295, "is_reserved": 0, "lon": -76.99948866666666, "fusion_lon": 0.0, "is_disabled": 0, "fusion_lat": 0.0, "bike_id": "0ce8a3d25cf590e0bc1e84c651a3f1e3", "rental_uris": {"ios": "https://dc.lft.to/lastmile_qr_scan", "android": "https://dc.lft.to/lastmile_qr_scan"}}, {"name": "12f032737cb5cfcba0581e5b8ebd2763", "type": "electric_scooter", "lat": 38.899511833333335, "is_reserved": 0, "lon": -77.02982233333333, "fusion_lon": 0.0, "is_disabled": 0, "fusion_lat": 0.0, "bike_id": "12f032737cb5cfcba0581e5b8ebd2763", "rental_uris": {"ios": "https://dc.lft.to/lastmile_qr_scan", "android": "https://dc.lft.to/lastmile_qr_scan"}}, {"name": "c54a621adeb7efdda4f900228718adc9", "type": "electric_scooter", "lat": 38.9052535, "is_reserved": 0, "lon": -77.063823, "fusion_lon": 0.0, "is_disabled": 0, "fusion_lat": 0.0, "bike_id": "c54a621adeb7efdda4f900228718adc9", "rental_uris": {"ios": "https://dc.lft.to/lastmile_qr_scan", "android": "https://dc.lft.to/lastmile_qr_scan"}}, {"name": "219cd238bf1eb86f0f558b0b196b0009", "type": "electric_scooter", "lat": 38.9048165, "is_reserved": 0, "lon": -77.041801, "fusion_lon": 0.0, "is_disabled": 0, "fusion_lat": 0.0, "bike_id": "219cd238bf1eb86f0f558b0b196b0009", "rental_uris": {"ios": "https://dc.lft.to/lastmile_qr_scan", "android": "https://dc.lft.to/lastmile_qr_scan"}}, {"name": "f5d42b23a4cf96d713762871d38cd792", "type": "electric_scooter", "lat": 38.90124933333333, "is_reserved": 0, "lon": -77.04992433333334, "fusion_lon": 0.0, "is_disabled": 0, "fusion_lat": 0.0, "bike_id": "f5d42b23a4cf96d713762871d38cd792", "rental_uris": {"ios": "https://dc.lft.to/lastmile_qr_scan", "android": "https://dc.lft.to/lastmile_qr_scan"}}, {"name": "9a51c5131f2ac8ebc2a99f27b6e33d32", "type": "electric_bike", "lat": 38.8524415, "is_reserved": 0, "lon": -77.11426533333334, "fusion_lon": 0.0, "is_disabled": 0, "fusion_lat": 0.0, "bike_id": "9a51c5131f2ac8ebc2a99f27b6e33d32", "rental_uris": {"ios": "https://dc.lft.to/lastmile_qr_scan", "android": "https://dc.lft.to/lastmile_qr_scan"}}, {"name": "d24d8aaca5732a10a436c19bbecba5ec", "type": "electric_scooter", "lat": 38.883841, "is_reserved": 0, "lon": -77.019662, "fusion_lon": 0.0, "is_disabled": 0, "fusion_lat": 0.0, "bike_id": "d24d8aaca5732a10a436c19bbecba5ec", "rental_uris": {"ios": "https://dc.lft.to/lastmile_qr_scan", "android": "https://dc.lft.to/lastmile_qr_scan"}}, {"name": "fd7b13299a4cf56c8c6a6a2e3ca8eb50", "type": "electric_scooter", "lat": 38.918025666666665, "is_reserved": 0, "lon": -77.02496266666667, "fusion_lon": 0.0, "is_disabled": 0, "fusion_lat": 0.0, "bike_id": "fd7b13299a4cf56c8c6a6a2e3ca8eb50", "rental_uris": {"ios": "https://dc.lft.to/lastmile_qr_scan", "android": "https://dc.lft.to/lastmile_qr_scan"}}, {"name": "2577740258a31e2dad4be524b6603d49", "type": "electric_scooter", "lat": 38.9019555, "is_reserved": 0, "lon": -77.02184583333333, "fusion_lon": 0.0, "is_disabled": 0, "fusion_lat": 0.0, "bike_id": "2577740258a31e2dad4be524b6603d49", "rental_uris": {"ios": "https://dc.lft.to/lastmile_qr_scan", "android": "https://dc.lft.to/lastmile_qr_scan"}}, {"name": "fbc21a3ce6ec663ec53eac36426c4136", "type": "electric_scooter", "lat": 38.88672116666667, "is_reserved": 0, "lon": -77.01370533333333, "fusion_lon": 0.0, "is_disabled": 0, "fusion_lat": 0.0, "bike_id": "fbc21a3ce6ec663ec53eac36426c4136", "rental_uris": {"ios": "https://dc.lft.to/lastmile_qr_scan", "android": "https://dc.lft.to/lastmile_qr_scan"}}, {"name": "434d6be6a66948eae284910b24576902", "type": "electric_scooter", "lat": 38.9274585, "is_reserved": 0, "lon": -77.05404733333333, "fusion_lon": 0.0, "is_disabled": 0, "fusion_lat": 0.0, "bike_id": "434d6be6a66948eae284910b24576902", "rental_uris": {"ios": "https://dc.lft.to/lastmile_qr_scan", "android": "https://dc.lft.to/lastmile_qr_scan"}}, {"name": "aa672117bfa4e2786f1684c1ed88a71e", "type": "electric_scooter", "lat": 38.90269816666667, "is_reserved": 0, "lon": -77.03862933333333, "fusion_lon": 0.0, "is_disabled": 0, "fusion_lat": 0.0, "bike_id": "aa672117bfa4e2786f1684c1ed88a71e", "rental_uris": {"ios": "https://dc.lft.to/lastmile_qr_scan", "android": "https://dc.lft.to/lastmile_qr_scan"}}, {"name": "4c6a8aca80e1becb0ae87c0f9e95e3ca", "type": "electric_scooter", "lat": 38.90641816666667, "is_reserved": 0, "lon": -77.00940133333333, "fusion_lon": 0.0, "is_disabled": 0, "fusion_lat": 0.0, "bike_id": "4c6a8aca80e1becb0ae87c0f9e95e3ca", "rental_uris": {"ios": "https://dc.lft.to/lastmile_qr_scan", "android": "https://dc.lft.to/lastmile_qr_scan"}}, {"name": "e8820222418cf80cbd2f7b27f028c89f", "type": "electric_scooter", "lat": 38.93508033333333, "is_reserved": 0, "lon": -77.033017, "fusion_lon": 0.0, "is_disabled": 0, "fusion_lat": 0.0, "bike_id": "e8820222418cf80cbd2f7b27f028c89f", "rental_uris": {"ios": "https://dc.lft.to/lastmile_qr_scan", "android": "https://dc.lft.to/lastmile_qr_scan"}}, {"name": "1f5c024751c80284bf14c11a7753ddb9", "type": "electric_scooter", "lat": 38.90261866666667, "is_reserved": 0, "lon": -77.03448266666666, "fusion_lon": 0.0, "is_disabled": 0, "fusion_lat": 0.0, "bike_id": "1f5c024751c80284bf14c11a7753ddb9", "rental_uris": {"ios": "https://dc.lft.to/lastmile_qr_scan", "android": "https://dc.lft.to/lastmile_qr_scan"}}, {"name": "705ca20394969ed8c160e80bcc929ceb", "type": "electric_scooter", "lat": 38.924201833333335, "is_reserved": 0, "lon": -77.019485, "fusion_lon": 0.0, "is_disabled": 0, "fusion_lat": 0.0, "bike_id": "705ca20394969ed8c160e80bcc929ceb", "rental_uris": {"ios": "https://dc.lft.to/lastmile_qr_scan", "android": "https://dc.lft.to/lastmile_qr_scan"}}, {"name": "c20286ef5e97c2b969a2daff58e5472d", "type": "electric_scooter", "lat": 38.896609833333336, "is_reserved": 0, "lon": -76.94722766666666, "fusion_lon": 0.0, "is_disabled": 0, "fusion_lat": 0.0, "bike_id": "c20286ef5e97c2b969a2daff58e5472d", "rental_uris": {"ios": "https://dc.lft.to/lastmile_qr_scan", "android": "https://dc.lft.to/lastmile_qr_scan"}}, {"name": "0ed112e83c3e23fa4919a7f26fddfd1d", "type": "electric_scooter", "lat": 38.918593, "is_reserved": 0, "lon": -77.03215283333333, "fusion_lon": 0.0, "is_disabled": 0, "fusion_lat": 0.0, "bike_id": "0ed112e83c3e23fa4919a7f26fddfd1d", "rental_uris": {"ios": "https://dc.lft.to/lastmile_qr_scan", "android": "https://dc.lft.to/lastmile_qr_scan"}}, {"name": "20de6f800fe9b8fb61ba4d588734fe92", "type": "electric_scooter", "lat": 38.902524666666665, "is_reserved": 0, "lon": -77.04358483333333, "fusion_lon": 0.0, "is_disabled": 0, "fusion_lat": 0.0, "bike_id": "20de6f800fe9b8fb61ba4d588734fe92", "rental_uris": {"ios": "https://dc.lft.to/lastmile_qr_scan", "android": "https://dc.lft.to/lastmile_qr_scan"}}, {"name": "b1d7ad2972ff53a752e89b2be42718c7", "type": "electric_bike", "lat": 38.882440333333335, "is_reserved": 0, "lon": -76.99509716666667, "fusion_lon": 0.0, "is_disabled": 0, "fusion_lat": 0.0, "bike_id": "b1d7ad2972ff53a752e89b2be42718c7", "rental_uris": {"ios": "https://dc.lft.to/lastmile_qr_scan", "android": "https://dc.lft.to/lastmile_qr_scan"}}, {"name": "0fe9d65132ffa10dd382cab3a2dbec60", "type": "electric_scooter", "lat": 38.91642733333333, "is_reserved": 0, "lon": -77.03205333333334, "fusion_lon": 0.0, "is_disabled": 0, "fusion_lat": 0.0, "bike_id": "0fe9d65132ffa10dd382cab3a2dbec60", "rental_uris": {"ios": "https://dc.lft.to/lastmile_qr_scan", "android": "https://dc.lft.to/lastmile_qr_scan"}}, {"name": "a5f065ad8e4a90a93abaa3cfe36ae398", "type": "electric_scooter", "lat": 38.91659166666667, "is_reserved": 0, "lon": -77.00512816666667, "fusion_lon": 0.0, "is_disabled": 0, "fusion_lat": 0.0, "bike_id": "a5f065ad8e4a90a93abaa3cfe36ae398", "rental_uris": {"ios": "https://dc.lft.to/lastmile_qr_scan", "android": "https://dc.lft.to/lastmile_qr_scan"}}, {"name": "2a603a2f867c21ffac83bfd8035d7128", "type": "electric_scooter", "lat": 38.903902, "is_reserved": 0, "lon": -77.02977416666667, "fusion_lon": 0.0, "is_disabled": 0, "fusion_lat": 0.0, "bike_id": "2a603a2f867c21ffac83bfd8035d7128", "rental_uris": {"ios": "https://dc.lft.to/lastmile_qr_scan", "android": "https://dc.lft.to/lastmile_qr_scan"}}, {"name": "701b9f18468a79712b3d17e805d5cd70", "type": "electric_scooter", "lat": 38.8980115, "is_reserved": 0, "lon": -77.0275795, "fusion_lon": 0.0, "is_disabled": 0, "fusion_lat": 0.0, "bike_id": "701b9f18468a79712b3d17e805d5cd70", "rental_uris": {"ios": "https://dc.lft.to/lastmile_qr_scan", "android": "https://dc.lft.to/lastmile_qr_scan"}},