{"data": {"bikes": [{"bike_id": "002c7e221cb2471e6d9b2307ce5a5fba", "type": "electric_scooter", "is_disabled": 0, "lat": 38.878651, "rental_uris": {"ios": "https://dc.lft.to/lastmile_qr_scan", "android": "https://dc.lft.to/lastmile_qr_scan"}, "is_reserved": 0, "fusion_lon": 0.0, "fusion_lat": 0.0, "lon": -76.96984566666667, "name": "002c7e221cb2471e6d9b2307ce5a5fba"}, {"bike_id": "f5612bb32205583bdd7f3b095f769fc7", "type": "electric_scooter", "is_disabled": 0, "lat": 38.87421066666667, "rental_uris": {"ios": "https://dc.lft.to/lastmile_qr_scan", "android": "https://dc.lft.to/lastmile_qr_scan"}, "is_reserved": 0, "fusion_lon": 0.0, "fusion_lat": 0.0, "lon": -76.96909733333334, "name": "f5612bb32205583bdd7f3b095f769fc7"}, {"bike_id": "848f52e006a4ce75c524e5c989bed44e", "type": "electric_scooter", "is_disabled": 0, "lat": 38.908579333333336, "rental_uris": {"ios": "https://dc.lft.to/lastmile_qr_scan", "android": "https://dc.lft.to/lastmile_qr_scan"}, "is_reserved": 0, "fusion_lon": 0.0, "fusion_lat": 0.0, "lon": -76.99917066666667, "name": "848f52e006a4ce75c524e5c989bed44e"}, {"bike_id": "145537ff2242c3ae75371e1b09abffec", "type": "electric_scooter", "is_disabled": 0, "lat": 38.915765, "rental_uris": {"ios": "https://dc.lft.to/lastmile_qr_scan", "android": "https://dc.lft.to/lastmile_qr_scan"}, "is_reserved": 0, "fusion_lon": 0.0, "fusion_lat": 0.0, "lon": -77.02052183333333, "name": "145537ff2242c3ae75371e1b09abffec"}, {"bike_id": "465a4b3a1c084c6e474095532dd6fb1b", "type": "electric_scooter", "is_disabled": 0, "lat": 38.94270616666667, "rental_uris": {"ios": "https://dc.lft.to/lastmile_qr_scan", "android": "https://dc.lft.to/lastmile_qr_scan"}, "is_reserved": 0, "fusion_lon": 0.0, "fusion_lat": 0.0, "lon": -77.03261083333334, "name": "465a4b3a1c084c6e474095532dd6fb1b"}, {"bike_id": "82ff9743805976faa9974f8dc20da635", "type": "electric_scooter", "is_disabled": 0, "lat": 38.866861166666666, "rental_uris": {"ios": "https://dc.lft.to/lastmile_qr_scan", "android": "https://dc.lft.to/lastmile_qr_scan"}, "is_reserved": 0, "fusion_lon": 0.0, "fusion_lat": 0.0, "lon": -76.98588716666667, "name": "82ff9743805976faa9974f8dc20da635"}, {"bike_id": "4dcbc141529c0eded912b4c141f2fb1a", "type": "electric_scooter", "is_disabled": 0, "lat": 38.954726, "rental_uris": {"ios": "https://dc.lft.to/lastmile_qr_scan", "android": "https://dc.lft.to/lastmile_qr_scan"}, "is_reserved": 0, "fusion_lon": 0.0, "fusion_lat": 0.0, "lon": -77.082224, "name": "4dcbc141529c0eded912b4c141f2fb1a"}, {"bike_id": "918f6dcda15e40bb7b60ae798553f36a", "type": "electric_scooter", "is_disabled": 0, "lat": 38.85316916666667, "rental_uris": {"ios": "https://dc.lft.to/lastmile_qr_scan", "android": "https://dc.lft.to/lastmile_qr_scan"}, "is_reserved": 0, "fusion_lon": 0.0, "fusion_lat": 0.0, "lon": -76.980066, "name": "918f6dcda15e40bb7b60ae798553f36a"}, {"bike_id": "4e022d8cc6bd0219abad72bdc279ffb3", "type": "electric_scooter", "is_disabled": 0, "lat": 38.89005216666666, "rental_uris": {"ios": "https://dc.lft.to/lastmile_qr_scan", "android": "https://dc.lft.to/lastmile_qr_scan"}, "is_reserved": 0, "fusion_lon": 0.0, "fusion_lat": 0.0, "lon": -76.9375075, "name": "4e022d8cc6bd0219abad72bdc279ffb3"}, {"bike_id": "6b4ee62e0da3f6fc847b2b6d7859f9b1", "type": "electric_scooter", "is_disabled": 0, "lat": 38.924764333333336, "rental_uris": {"ios": "https://dc.lft.to/lastmile_qr_scan", "android": "https://dc.lft.to/lastmile_qr_scan"}, "is_reserved": 0, "fusion_lon": 0.0, "fusion_lat": 0.0, "lon": -77.02834816666666, "name": "6b4ee62e0da3f6fc847b2b6d7859f9b1"}, {"bike_id": "ce1e37a40c0cb98d901a9f63a4a912a3", "type": "electric_scooter", "is_disabled": 0, "lat": 38.890102166666665, "rental_uris": {"ios": "https://dc.lft.to/lastmile_qr_scan", "android": "https://dc.lft.to/lastmile_qr_scan"}, "is_reserved": 0, "fusion_lon": 0.0, "fusion_lat": 0.0, "lon": -76.93750283333333, "name": "ce1e37a40c0cb98d901a9f63a4a912a3"}, {"bike_id": "49b3782f3c0737f5e1ba72d236310ce9", "type": "electric_scooter", "is_disabled": 0, "lat": 38.911051, "rental_uris": {"ios": "https://dc.lft.to/lastmile_qr_scan", "android": "https://dc.lft.to/lastmile_qr_scan"}, "is_reserved": 0, "fusion_lon": 0.0, "fusion_lat": 0.0, "lon": -77.0242705, "name": "49b3782f3c0737f5e1ba72d236310ce9"}, {"bike_id": "4038b09cd9c6e71be3c5e1050de70b0b", "type": "electric_scooter", "is_disabled": 0, "lat": 38.930087666666665, "rental_uris": {"ios": "https://dc.lft.to/lastmile_qr_scan", "android": "https://dc.lft.to/lastmile_qr_scan"}, "is_reserved": 0, "fusion_lon": 0.0, "fusion_lat": 0.0, "lon": -77.014322, "name": "4038b09cd9c6e71be3c5e1050de70b0b"}, {"bike_id": "6e58f5f60d7b364925997174b3d1ccb5", "type": "electric_scooter", "is_disabled": 0, "lat": 38.909704833333336, "rental_uris": {"ios": "https://dc.lft.to/lastmile_qr_scan", "android": "https://dc.lft.to/lastmile_qr_scan"}, "is_reserved": 0, "fusion_lon": 0.0, "fusion_lat": 0.0, "lon": -77.04871783333333, "name": "6e58f5f60d7b364925997174b3d1ccb5"}, {"bike_id": "428ed2ab7a6e52e24346f51a2129c487", "type": "electric_scooter", "is_disabled": 0, "lat": 38.920467, "rental_uris": {"ios": "https://dc.lft.to/lastmile_qr_scan", "android": "https://dc.lft.to/lastmile_qr_scan"}, "is_reserved": 0, "fusion_lon": 0.0, "fusion_lat": 0.0, "lon": -77.03394116666666, "name": "428ed2ab7a6e52e24346f51a2129c487"}, {"bike_id": "2efce3bff285218e47df1558d83f5d9a", "type": "electric_scooter", "is_disabled": 0, "lat": 38.91949183333333, "rental_uris": {"ios": "https://dc.lft.to/lastmile_qr_scan", "android": "https://dc.lft.to/lastmile_qr_scan"}, "is_reserved": 0, "fusion_lon": 0.0, "fusion_lat": 0.0, "lon": -77.024938, "name": "2efce3bff285218e47df1558d83f5d9a"}, {"bike_id": "18ca89b2a7319c9f6e4a1f285b7f9b62", "type": "electric_scooter", "is_disabled": 0, "lat": 38.871209, "rental_uris": {"ios": "https://dc.lft.to/lastmile_qr_scan", "android": "https://dc.lft.to/lastmile_qr_scan"}, "is_reserved": 0, "fusion_lon": 0.0, "fusion_lat": 0.0, "lon": -76.98241466666667, "name": "18ca89b2a7319c9f6e4a1f285b7f9b62"}, {"bike_id": "6f49572440f3fcf684cce7ac8dbf6302", "type": "electric_bike", "is_disabled": 0, "lat": 39.057920333333335, "rental_uris": {"ios": "https://dc.lft.to/lastmile_qr_scan", "android": "https://dc.lft.to/lastmile_qr_scan"}, "is_reserved": 0, "fusion_lon": 0.0, "fusion_lat": 0.0, "lon": -77.15027916666666, "name": "6f49572440f3fcf684cce7ac8dbf6302"}, {"bike_id": "41d077254461b17b761bf13479e5c069", "type": "electric_scooter", "is_disabled": 0, "lat": 38.9006085, "rental_uris": {"ios": "https://dc.lft.to/lastmile_qr_scan", "android": "https://dc.lft.to/lastmile_qr_scan"}, "is_reserved": 0, "fusion_lon": 0.0, "fusion_lat": 0.0, "lon": -76.93474383333333, "name": "41d077254461b17b761bf13479e5c069"}, {"bike_id": "a7ff8fdae7af2ee52dad39f780d0ae10", "type": "electric_scooter", "is_disabled": 0, "lat": 38.90316216666667, "rental_uris": {"ios": "https://dc.lft.to/lastmile_qr_scan", "android": "https://dc.lft.to/lastmile_qr_scan"}, "is_reserved": 0, "fusion_lon": 0.0, "fusion_lat": 0.0, "lon": -76.99430866666667, "name": "a7ff8fdae7af2ee52dad39f780d0ae10"}, {"bike_id": "044ef8e232e27e6dac8f78aa78e8ec08", "type": "electric_bike", "is_disabled": 0, "lat": 38.87992333333333, "rental_uris": {"ios": "https://dc.lft.to/lastmile_qr_scan", "android": "https://dc.lft.to/lastmile_qr_scan"}, "is_reserved": 0, "fusion_lon": 0.0, "fusion_lat": 0.0, "lon": -76.98511283333333, "name": "044ef8e232e27e6dac8f78aa78e8ec08"}, {"bike_id": "54dcefdddde3e17572b13b828401dd19", "type": "electric_scooter", "is_disabled": 0, "lat": 38.93202466666666, "rental_uris": {"ios": "https://dc.lft.to/lastmile_qr_scan", "android": "https://dc.lft.to/lastmile_qr_scan"}, "is_reserved": 0, "fusion_lon": 0.0, "fusion_lat": 0.0, "lon": -77.03667316666667, "name": "54dcefdddde3e17572b13b828401dd19"}, {"bike_id": "534a55efae4b3eaeb42eab0056556148", "type": "electric_scooter", "is_disabled": 0, "lat": 38.85698283333333, "rental_uris": {"ios": "https://dc.lft.to/lastmile_qr_scan", "android": "https://dc.lft.to/lastmile_qr_scan"}, "is_reserved": 0, "fusion_lon": 0.0, "fusion_lat": 0.0, "lon": -76.98973033333333, "name": "534a55efae4b3eaeb42eab0056556148"}, {"bike_id": "4c6928942c6b2d5334247ae16b1a4aed", "type": "electric_bike", "is_disabled": 0, "lat": 38.905756833333335, "rental_uris": {"ios": "https://dc.lft.to/lastmile_qr_scan", "android": "https://dc.lft.to/lastmile_qr_scan"}, "is_reserved": 0, "fusion_lon": 0.0, "fusion_lat": 0.0, "lon": -76.97915366666666, "name": "4c6928942c6b2d5334247ae16b1a4aed"}, {"bike_id": "98f22a96a04406007062243ec2e46297", "type": "electric_scooter", "is_disabled": 0, "lat": 38.9842505, "rental_uris": {"ios": "https://dc.lft.to/lastmile_qr_scan", "android": "https://dc.lft.to/lastmile_qr_scan"}, "is_reserved": 0, "fusion_lon": 0.0, "fusion_lat": 0.0, "lon": -77.02665566666667, "name": "98f22a96a04406007062243ec2e46297"}, {"bike_id": "c706c0693067fb53fb038b621dcca959", "type": "electric_scooter", "is_disabled": 0, "lat": 38.87058833333333, "rental_uris": {"ios": "https://dc.lft.to/lastmile_qr_scan", "android": "https://dc.lft.to/lastmile_qr_scan"}, "is_reserved": 0, "fusion_lon": 0.0, "fusion_lat": 0.0, "lon": -77.007471, "name": "c706c0693067fb53fb038b621dcca959"}, {"bike_id": "776879e3c72c8ceee2004cefeba5c46c", "type": "electric_scooter", "is_disabled": 0, "lat": 38.902455833333335, "rental_uris": {"ios": "https://dc.lft.to/lastmile_qr_scan", "android": "https://dc.lft.to/lastmile_qr_scan"}, "is_reserved": 0, "fusion_lon": 0.0, "fusion_lat": 0.0, "lon": -77.00078333333333, "name": "776879e3c72c8ceee2004cefeba5c46c"}, {"bike_id": "a506dcd9ef78f3c12198566414d30f46", "type": "electric_scooter", "is_disabled": 0, "lat": 38.9317795, "rental_uris": {"ios": "https://dc.lft.to/lastmile_qr_scan", "android": "https://dc.lft.to/lastmile_qr_scan"}, "is_reserved": 0, "fusion_lon": 0.0, "fusion_lat": 0.0, "lon": -77.02353316666667, "name": "a506dcd9ef78f3c12198566414d30f46"}, {"bike_id": "dc66bdab49bb7c7f7297b6bd5d260f76", "type": "electric_scooter", "is_disabled": 0, "lat": 38.921317333333334, "rental_uris": {"ios": "https://dc.lft.to/lastmile_qr_scan", "android": "https://dc.lft.to/lastmile_qr_scan"}, "is_reserved": 0, "fusion_lon": 0.0, "fusion_lat": 0.0, "lon": -77.01807816666667, "name": "dc66bdab49bb7c7f7297b6bd5d260f76"}, {"bike_id": "3ea83b0443770ae3cef0e76a61390263", "type": "electric_scooter", "is_disabled": 0, "lat": 38.928322333333334, "rental_uris": {"ios": "https://dc.lft.to/lastmile_qr_scan", "android": "https://dc.lft.to/lastmile_qr_scan"}, "is_reserved": 0, "fusion_lon": 0.0, "fusion_lat": 0.0, "lon": -77.05512, "name": "3ea83b0443770ae3cef0e76a61390263"}, {"bike_id": "3f70b954ec96dbe713f4f9e0442cc488", "type": "electric_scooter", "is_disabled": 0, "lat": 38.86374516666667, "rental_uris": {"ios": "https://dc.lft.to/lastmile_qr_scan", "android": "https://dc.lft.to/lastmile_qr_scan"}, "is_reserved": 0, "fusion_lon": 0.0, "fusion_lat": 0.0, "lon": -76.9906095, "name": "3f70b954ec96dbe713f4f9e0442cc488"}, {"bike_id": "bc5bf841fb9372210565b10aad0f14c9", "type": "electric_scooter", "is_disabled": 0, "lat": 38.884182833333334, "rental_uris": {"ios": "https://dc.lft.to/lastmile_qr_scan", "android": "https://dc.lft.to/lastmile_qr_scan"}, "is_reserved": 0, "fusion_lon": 0.0, "fusion_lat": 0.0, "lon": -77.00743083333333, "name": "bc5bf841fb9372210565b10aad0f14c9"}, {"bike_id": "014cc83526de4dec337392d688d8d5e6", "type": "electric_scooter", "is_disabled": 0, "lat": 38.89271333333333, "rental_uris": {"ios": "https://dc.lft.to/lastmile_qr_scan", "android": "https://dc.lft.to/lastmile_qr_scan"}, "is_reserved": 0, "fusion_lon": 0.0, "fusion_lat": 0.0, "lon": -77.04487466666667, "name": "014cc83526de4dec337392d688d8d5e6"}, {"bike_id": "6954ab409efb262cad3b10c583b45c20", "type": "electric_bike", "is_disabled": 0, "lat": 38.95626633333333, "rental_uris": {"ios": "https://dc.lft.to/lastmile_qr_scan", "android": "https://dc.lft.to/lastmile_qr_scan"}, "is_reserved": 0, "fusion_lon": 0.0, "fusion_lat": 0.0, "lon": -76.93880583333333, "name": "6954ab409efb262cad3b10c583b45c20"}, {"bike_id": "24a0b74c85bddd0b6aa00e7c73e85a61", "type": "electric_scooter", "is_disabled": 0, "lat": 38.91755583333333, "rental_uris": {"ios": "https://dc.lft.to/lastmile_qr_scan", "android": "https://dc.lft.to/lastmile_qr_scan"}, "is_reserved": 0, "fusion_lon": 0.0, "fusion_lat": 0.0, "lon": -77.04767283333334, "name": "24a0b74c85bddd0b6aa00e7c73e85a61"}, {"bike_id": "7f1ec3b5b9af5b084fa65bec5a6ee1b2", "type": "electric_scooter", "is_disabled": 0, "lat": 38.92797183333333, "rental_uris": {"ios": "https://dc.lft.to/lastmile_qr_scan", "android": "https://dc.lft.to/lastmile_qr_scan"}, "is_reserved": 0, "fusion_lon": 0.0, "fusion_lat": 0.0, "lon": -77.02602366666666, "name": "7f1ec3b5b9af5b084fa65bec5a6ee1b2"}, {"bike_id": "a8584ada073041f1636fd91a049cd8de", "type": "electric_bike", "is_disabled": 0, "lat": 38.94018333333333, "rental_uris": {"ios": "https://dc.lft.to/lastmile_qr_scan", "android": "https://dc.lft.to/lastmile_qr_scan"}, "is_reserved": 0, "fusion_lon": 0.0, "fusion_lat": 0.0, "lon": -76.97617916666667, "name": "a8584ada073041f1636fd91a049cd8de"}, {"bike_id": "967c187437b5bffccb58c2b09442151e", "type": "electric_scooter", "is_disabled": 0, "lat": 38.90278, "rental_uris": {"ios": "https://dc.lft.to/lastmile_qr_scan", "android": "https://dc.lft.to/lastmile_qr_scan"}, "is_reserved": 0, "fusion_lon": 0.0, "fusion_lat": 0.0, "lon": -77.044781, "name": "967c187437b5bffccb58c2b09442151e"}, {"bike_id": "73f2149752ecb141610b908cbe234875", "type": "electric_scooter", "is_disabled": 0, "lat": 38.917032, "rental_uris": {"ios": "https://dc.lft.to/lastmile_qr_scan", "android": "https://dc.lft.to/lastmile_qr_scan"}, "is_reserved": 0, "fusion_lon": 0.0, "fusion_lat": 0.0, "lon": -77.01018783333333, "name": "73f2149752ecb141610b908cbe234875"}, {"bike_id": "5ff5d69a525f41997a57a62f27f22826", "type": "electric_scooter", "is_disabled": 0, "lat": 38.90033316666667, "rental_uris": {"ios": "https://dc.lft.to/lastmile_qr_scan", "android": "https://dc.lft.to/lastmile_qr_scan"}, "is_reserved": 0, "fusion_lon": 0.0, "fusion_lat": 0.0, "lon": -77.01302833333334, "name": "5ff5d69a525f41997a57a62f27f22826"}, {"bike_id": "2509fed3307e9678dd39af3338996cff", "type": "electric_scooter", "is_disabled": 0, "lat": 38.90845766666666, "rental_uris": {"ios": "https://dc.lft.to/lastmile_qr_scan", "android": "https://dc.lft.to/lastmile_qr_scan"}, "is_reserved": 0, "fusion_lon": 0.0, "fusion_lat": 0.0, "lon": -76.998007, "name": "2509fed3307e9678dd39af3338996cff"}, {"bike_id": "c92a94ed8d33ada329a7397e832a4ed1", "type": "electric_scooter", "is_disabled": 0, "lat": 38.90624666666667, "rental_uris": {"ios": "https://dc.lft.to/lastmile_qr_scan", "android": "https://dc.lft.to/lastmile_qr_scan"}, "is_reserved": 0, "fusion_lon": 0.0, "fusion_lat": 0.0, "lon": -77.05558833333333, "name": "c92a94ed8d33ada329a7397e832a4ed1"}, {"bike_id": "8dd771ae0a1a7b0bd61f92ae1c36ad30", "type": "electric_bike", "is_disabled": 0, "lat": 38.9368565, "rental_uris": {"ios": "https://dc.lft.to/lastmile_qr_scan", "android": "https://dc.lft.to/lastmile_qr_scan"}, "is_reserved": 0, "fusion_lon": 0.0, "fusion_lat": 0.0, "lon": -77.056516, "name": "8dd771ae0a1a7b0bd61f92ae1c36ad30"}, {"bike_id": "3bbefc9e99659c23d84c8d1bdad1a75d", "type": "electric_scooter", "is_disabled": 0, "lat": 38.899187833333336, "rental_uris": {"ios": "https://dc.lft.to/lastmile_qr_scan", "android": "https://dc.lft.to/lastmile_qr_scan"}, "is_reserved": 0, "fusion_lon": 0.0, "fusion_lat": 0.0, "lon": -76.93369783333333, "name": "3bbefc9e99659c23d84c8d1bdad1a75d"}, {"bike_id": "b425dc2d3c462281f2908153ce76b3ac", "type": "electric_scooter", "is_disabled": 0, "lat": 38.908159833333336, "rental_uris": {"ios": "https://dc.lft.to/lastmile_qr_scan", "android": "https://dc.lft.to/lastmile_qr_scan"}, "is_reserved": 0, "fusion_lon": 0.0, "fusion_lat": 0.0, "lon": -77.06378116666667, "name": "b425dc2d3c462281f2908153ce76b3ac"}, {"bike_id": "4e9d02ad0aff1d007547cc91fe1040c2", "type": "electric_scooter", "is_disabled": 0, "lat": 38.91690633333333, "rental_uris": {"ios": "https://dc.lft.to/lastmile_qr_scan", "android": "https://dc.lft.to/lastmile_qr_scan"}, "is_reserved": 0, "fusion_lon": 0.0, "fusion_lat": 0.0, "lon": -77.03162016666667, "name": "4e9d02ad0aff1d007547cc91fe1040c2"}, {"bike_id": "14ebf9ea5c8b6a9591f5bd2ea3d85b0f", "type": "electric_scooter", "is_disabled": 0, "lat": 38.9237185, "rental_uris": {"ios": "https://dc.lft.to/lastmile_qr_scan", "android": "https://dc.lft.to/lastmile_qr_scan"}, "is_reserved": 0, "fusion_lon": 0.0, "fusion_lat": 0.0, "lon": -77.04125366666666, "name": "14ebf9ea5c8b6a9591f5bd2ea3d85b0f"}, {"bike_id": "f12bc87cb7d3542c24a2d6e126a352f7", "type": "electric_scooter", "is_disabled": 0, "lat": 38.87642666666667, "rental_uris": {"ios": "https://dc.lft.to/lastmile_qr_scan", "android": "https://dc.lft.to/lastmile_qr_scan"}, "is_reserved": 0, "fusion_lon": 0.0, "fusion_lat": 0.0, "lon": -77.00815266666666, "name": "f12bc87cb7d3542c24a2d6e126a352f7"}, {"bike_id": "5cdb1d61dbf947482ba1deb472fc4434", "type": "electric_scooter", "is_disabled": 0, "lat": 38.921443833333335, "rental_uris": {"ios": "https://dc.lft.to/lastmile_qr_scan", "android": "https://dc.lft.to/lastmile_qr_scan"}, "is_reserved": 0, "fusion_lon": 0.0, "fusion_lat": 0.0, "lon": -77.01806816666667, "name": "5cdb1d61dbf947482ba1deb472fc4434"}, {"bike_id": "97ffb1d73f98c21ea1c971ae3b376a14", "type": "electric_scooter", "is_disabled": 0, "lat": 38.91692, "rental_uris": {"ios": "https://dc.lft.to/lastmile_qr_scan", "android": "https://dc.lft.to/lastmile_qr_scan"}, "is_reserved": 0, "fusion_lon": 0.0, "fusion_lat": 0.0, "lon": -77.0334885, "name": "97ffb1d73f98c21ea1c971ae3b376a14"}, {"bike_id": "fbacb8cd93d13f04a5b55ec4a8a05313", "type": "electric_scooter", "is_disabled": 0, "lat": 38.92262983333333, "rental_uris": {"ios": "https://dc.lft.to/lastmile_qr_scan", "android": "https://dc.lft.to/lastmile_qr_scan"}, "is_reserved": 0, "fusion_lon": 0.0, "fusion_lat": 0.0, "lon": -77.03398116666666, "name": "fbacb8cd93d13f04a5b55ec4a8a05313"}, {"bike_id": "e652c2c8766ed1948a46996b93a4fce7", "type": "electric_scooter", "is_disabled": 0, "lat": 38.902648, "rental_uris": {"ios": "https://dc.lft.to/lastmile_qr_scan", "android": "https://dc.lft.to/lastmile_qr_scan"}, "is_reserved": 0, "fusion_lon": 0.0, "fusion_lat": 0.0, "lon": -77.03858033333333, "name": "e652c2c8766ed1948a46996b93a4fce7"}, {"bike_id": "b0c3066e409932ec23872d3bf0189051", "type": "electric_scooter", "is_disabled": 0, "lat": 38.901216166666664, "rental_uris": {"ios": "https://dc.lft.to/lastmile_qr_scan", "android": "https://dc.lft.to/lastmile_qr_scan"}, "is_reserved": 0, "fusion_lon": 0.0, "fusion_lat": 0.0, "lon": -77.04047783333333, "name": "b0c3066e409932ec23872d3bf0189051"}, {"bike_id": "92426caa2745deaaea07f618bf456253", "type": "electric_scooter", "is_disabled": 0, "lat": 38.905834666666664, "rental_uris": {"ios": "https://dc.lft.to/lastmile_qr_scan", "android": "https://dc.lft.to/lastmile_qr_scan"}, "is_reserved": 0, "fusion_lon": 0.0, "fusion_lat": 0.0, "lon": -77.03006566666667, "name": "92426caa2745deaaea07f618bf456253"}, {"bike_id": "770659299e47f658cdd453d64241bc0e", "type": "electric_scooter", "is_disabled": 0, "lat": 38.88151883333333, "rental_uris": {"ios": "https://dc.lft.to/lastmile_qr_scan", "android": "https://dc.lft.to/lastmile_qr_scan"}, "is_reserved": 0, "fusion_lon": 0.0, "fusion_lat": 0.0, "lon": -77.0276095, "name": "770659299e47f658cdd453d64241bc0e"}, {"bike_id": "8205ceec9e83ae5a3e31e9249d051c1d", "type": "electric_scooter", "is_disabled": 0, "lat": 38.90844383333334, "rental_uris": {"ios": "https://dc.lft.to/lastmile_qr_scan", "android": "https://dc.lft.to/lastmile_qr_scan"}, "is_reserved": 0, "fusion_lon": 0.0, "fusion_lat": 0.0, "lon": -77.04173266666666, "name": "8205ceec9e83ae5a3e31e9249d051c1d"}, {"bike_id": "e2705ec7f1f33039043092e6e908f2a7", "type": "electric_scooter", "is_disabled": 0, "lat": 38.900263833333334, "rental_uris": {"ios": "https://dc.lft.to/lastmile_qr_scan", "android": "https://dc.lft.to/lastmile_qr_scan"}, "is_reserved": 0, "fusion_lon": 0.0, "fusion_lat": 0.0, "lon": -77.03509933333333, "name": "e2705ec7f1f33039043092e6e908f2a7"}, {"bike_id": "eca01a129468706469dec07da68cc8d4", "type": "electric_scooter", "is_disabled": 0, "lat": 38.90662233333333, "rental_uris": {"ios": "https://dc.lft.to/lastmile_qr_scan", "android": "https://dc.lft.to/lastmile_qr_scan"}, "is_reserved": 0, "fusion_lon": 0.0, "fusion_lat": 0.0, "lon": -77.07186783333333, "name": "eca01a129468706469dec07da68cc8d4"}, {"bike_id": "d0bbf9769442532031eb8a969a77e0b7", "type": "electric_scooter", "is_disabled": 0, "lat": 38.90731133333333, "rental_uris": {"ios": "https://dc.lft.to/lastmile_qr_scan", "android": "https://dc.lft.to/lastmile_qr_scan"}, "is_reserved": 0, "fusion_lon": 0.0, "fusion_lat": 0.0, "lon": -77.0296005, "name": "d0bbf9769442532031eb8a969a77e0b7"}, {"bike_id": "8460afc33498419f2d9dca7dcf1e7959", "type": "electric_scooter", "is_disabled": 0, "lat": 38.984308666666664, "rental_uris": {"ios": "https://dc.lft.to/lastmile_qr_scan", "android": "https://dc.lft.to/lastmile_qr_scan"}, "is_reserved": 0, "fusion_lon": 0.0, "fusion_lat": 0.0, "lon": -77.0267385, "name": "8460afc33498419f2d9dca7dcf1e7959"}, {"bike_id": "f8ae8bb554fab4a23b71f7f08b23b423", "type": "electric_scooter", "is_disabled": 0, "lat": 38.90646133333333, "rental_uris": {"ios": "https://dc.lft.to/lastmile_qr_scan", "android": "https://dc.lft.to/lastmile_qr_scan"}, "is_reserved": 0, "fusion_lon": 0.0, "fusion_lat": 0.0, "lon": -77.01460333333333, "name": "f8ae8bb554fab4a23b71f7f08b23b423"}, {"bike_id": "e65d3639f7c9a00c6232037a75f725db", "type": "electric_scooter", "is_disabled": 0, "lat": 38.925733, "rental_uris": {"ios": "https://dc.lft.to/lastmile_qr_scan", "android": "https://dc.lft.to/lastmile_qr_scan"}, "is_reserved": 0, "fusion_lon": 0.0, "fusion_lat": 0.0, "lon": -77.03760616666666, "name": "e65d3639f7c9a00c6232037a75f725db"}, {"bike_id": "e2555c8ccb7b9b1692ead928f6f36508", "type": "electric_scooter", "is_disabled": 0, "lat": 38.895180333333336, "rental_uris": {"ios": "https://dc.lft.to/lastmile_qr_scan", "android": "https://dc.lft.to/lastmile_qr_scan"}, "is_reserved": 0, "fusion_lon": 0.0, "fusion_lat": 0.0, "lon": -77.01130966666666, "name": "e2555c8ccb7b9b1692ead928f6f36508"}, {"bike_id": "95aeedcc1bfa87c0bbab2a5d87ee87fb", "type": "electric_scooter", "is_disabled": 0, "lat": 38.9656635, "rental_uris": {"ios": "https://dc.lft.to/lastmile_qr_scan", "android": "https://dc.lft.to/lastmile_qr_scan"}, "is_reserved": 0, "fusion_lon": 0.0, "fusion_lat": 0.0, "lon": -77.02776616666667, "name": "95aeedcc1bfa87c0bbab2a5d87ee87fb"}, {"bike_id": "ff2e2d7d68dcf392f27a58e9d4bc740a", "type": "electric_scooter", "is_disabled": 0, "lat": 38.903309666666665, "rental_uris": {"ios": "https://dc.lft.to/lastmile_qr_scan", "android": "https://dc.lft.to/lastmile_qr_scan"}, "is_reserved": 0, "fusion_lon": 0.0, "fusion_lat": 0.0, "lon": -77.069309, "name": "ff2e2d7d68dcf392f27a58e9d4bc740a"}, {"bike_id": "855360f6a104351aa79526dd23f1d306", "type": "electric_scooter", "is_disabled": 0, "lat": 38.8624585, "rental_uris": {"ios": "https://dc.lft.to/lastmile_qr_scan", "android": "https://dc.lft.to/lastmile_qr_scan"}, "is_reserved": 0, "fusion_lon": 0.0, "fusion_lat": 0.0, "lon": -76.99503683333333, "name": "855360f6a104351aa79526dd23f1d306"}, {"bike_id": "d1c2b616781a8a8640f32db6c5fefeb2", "type": "electric_scooter", "is_disabled": 0, "lat": 38.8764665, "rental_uris": {"ios": "https://dc.lft.to/lastmile_qr_scan", "android": "https://dc.lft.to/lastmile_qr_scan"}, "is_reserved": 0, "fusion_lon": 0.0, "fusion_lat": 0.0, "lon": -76.96506483333333, "name": "d1c2b616781a8a8640f32db6c5fefeb2"}, {"bike_id": "9b5944080f53235f733f01a822fcb13b", "type": "electric_scooter", "is_disabled": 0, "lat": 38.927446833333335, "rental_uris": {"ios": "https://dc.lft.to/lastmile_qr_scan", "android": "https://dc.lft.to/lastmile_qr_scan"}, "is_reserved": 0, "fusion_lon": 0.0, "fusion_lat": 0.0, "lon": -77.00600433333334, "name": "9b5944080f53235f733f01a822fcb13b"}, {"bike_id": "8b84b4866c4fb3670482041cd8f7b474", "type": "electric_scooter", "is_disabled": 0, "lat": 38.9158435, "rental_uris": {"ios": "https://dc.lft.to/lastmile_qr_scan", "android": "https://dc.lft.to/lastmile_qr_scan"}, "is_reserved": 0, "fusion_lon": 0.0, "fusion_lat": 0.0, "lon": -77.04490533333333, "name": "8b84b4866c4fb3670482041cd8f7b474"}, {"bike_id": "a3e61a2cca0072414b073afdfaef4318", "type": "electric_scooter", "is_disabled": 0, "lat": 38.9113155, "rental_uris": {"ios": "https://dc.lft.to/lastmile_qr_scan", "android": "https://dc.lft.to/lastmile_qr_scan"}, "is_reserved": 0, "fusion_lon": 0.0, "fusion_lat": 0.0, "lon": -77.04418533333333, "name": "a3e61a2cca0072414b073afdfaef4318"}, {"bike_id": "2c10e46c7822257c0f90186afb423e4a", "type": "electric_scooter", "is_disabled": 0, "lat": 38.911914, "rental_uris": {"ios": "https://dc.lft.to/lastmile_qr_scan", "android": "https://dc.lft.to/lastmile_qr_scan"}, "is_reserved": 0, "fusion_lon": 0.0, "fusion_lat": 0.0, "lon": -77.00223066666666, "name": "2c10e46c7822257c0f90186afb423e4a"}, {"bike_id": "198a0df459d2c5669dea1b0984877475", "type": "electric_scooter", "is_disabled": 0, "lat": 38.866237, "rental_uris": {"ios": "https://dc.lft.to/lastmile_qr_scan", "android": "https://dc.lft.to/lastmile_qr_scan"}, "is_reserved": 0, "fusion_lon": 0.0, "fusion_lat": 0.0, "lon": -76.98718066666666, "name": "198a0df459d2c5669dea1b0984877475"}, {"bike_id": "ca5c3f936d3d04c13715b9b26f7b4303", "type": "electric_scooter", "is_disabled": 0, "lat": 38.9056085, "rental_uris": {"ios": "https://dc.lft.to/lastmile_qr_scan", "android": "https://dc.lft.to/lastmile_qr_scan"}, "is_reserved": 0, "fusion_lon": 0.0, "fusion_lat": 0.0, "lon": -77.0163765, "name": "ca5c3f936d3d04c13715b9b26f7b4303"}, {"bike_id": "073fec20542e56c70f4ac149f58a3e7e", "type": "electric_scooter", "is_disabled": 0, "lat": 38.93358883333333, "rental_uris": {"ios": "https://dc.lft.to/lastmile_qr_scan", "android": "https://dc.lft.to/lastmile_qr_scan"}, "is_reserved": 0, "fusion_lon": 0.0, "fusion_lat": 0.0, "lon": -77.08860466666667, "name": "073fec20542e56c70f4ac149f58a3e7e"}, {"bike_id": "2b5899f59dd5b02ae452df81a6e1fbf5", "type": "electric_scooter", "is_disabled": 0, "lat": 38.9340465, "rental_uris": {"ios": "https://dc.lft.to/lastmile_qr_scan", "android": "https://dc.lft.to/lastmile_qr_scan"}, "is_reserved": 0, "fusion_lon": 0.0, "fusion_lat": 0.0, "lon": -77.0389765, "name": "2b5899f59dd5b02ae452df81a6e1fbf5"}, {"bike_id": "573bd136c2b13d9648aa3183f3e10470", "type": "electric_scooter", "is_disabled": 0, "lat": 38.9019635, "rental_uris": {"ios": "https://dc.lft.to/lastmile_qr_scan", "android": "https://dc.lft.to/lastmile_qr_scan"}, "is_reserved": 0, "fusion_lon": 0.0, "fusion_lat": 0.0, "lon": -77.05095766666666, "name": "573bd136c2b13d9648aa3183f3e10470"}, {"bike_id": "54449f3003d5b4920c3f417f71cef35a", "type": "electric_scooter", "is_disabled": 0, "lat": 38.88640566666667, "rental_uris": {"ios": "https://dc.lft.to/lastmile_qr_scan", "android": "https://dc.lft.to/lastmile_qr_scan"}, "is_reserved": 0, "fusion_lon": 0.0, "fusion_lat": 0.0, "lon": -77.02138933333333, "name": "54449f3003d5b4920c3f417f71cef35a"}, {"bike_id": "cd7cab8cd3839f3359c609a1bcf8f993", "type": "electric_scooter", "is_disabled": 0, "lat": 38.905095, "rental_uris": {"ios": "https://dc.lft.to/lastmile_qr_scan", "android": "https://dc.lft.to/lastmile_qr_scan"}, "is_reserved": 0, "fusion_lon": 0.0, "fusion_lat": 0.0, "lon": -77.04168416666667, "name": "cd7cab8cd3839f3359c609a1bcf8f993"}, {"bike_id": "05efa0f0b1f8648ddd817c8f283db239", "type": "electric_scooter", "is_disabled": 0, "lat": 38.907509, "rental_uris": {"ios": "https://dc.lft.to/lastmile_qr_scan", "android": "https://dc.lft.to/lastmile_qr_scan"}, "is_reserved": 0, "fusion_lon": 0.0, "fusion_lat": 0.0, "lon": -77.0318835, "name": "05efa0f0b1f8648ddd817c8f283db239"}, {"bike_id": "e3d856049745b144c6db34f1ba14580b", "type": "electric_bike", "is_disabled": 0, "lat": 38.96117866666667, "rental_uris": {"ios": "https://dc.lft.to/lastmile_qr_scan", "android": "https://dc.lft.to/lastmile_qr_scan"}, "is_reserved": 0, "fusion_lon": 0.0, "fusion_lat": 0.0, "lon": -77.06924733333334, "name": "e3d856049745b144c6db34f1ba14580b"}, {"bike_id": "527013c34958e09a6be4d0ff90bd8113", "type": "electric_scooter", "is_disabled": 0, "lat": 38.914436, "rental_uris": {"ios": "https://dc.lft.to/lastmile_qr_scan", "android": "https://dc.lft.to/lastmile_qr_scan"}, "is_reserved": 0, "fusion_lon": 0.0, "fusion_lat": 0.0, "lon": -77.01999183333334, "name": "527013c34958e09a6be4d0ff90bd8113"}, {"bike_id": "385a4653aac56006476d65bb02f8f10a", "type": "electric_scooter", "is_disabled": 0, "lat": 38.830892, "rental_uris": {"ios": "https://dc.lft.to/lastmile_qr_scan", "android": "https://dc.lft.to/lastmile_qr_scan"}, "is_reserved": 0, "fusion_lon": 0.0, "fusion_lat": 0.0, "lon": -77.05160433333333, "name": "385a4653aac56006476d65bb02f8f10a"}, {"bike_id": "752f7d40faaba14ddd46377da730a23c", "type": "electric_scooter", "is_disabled": 0, "lat": 38.908172666666665, "rental_uris": {"ios": "https://dc.lft.to/lastmile_qr_scan", "android": "https://dc.lft.to/lastmile_qr_scan"}, "is_reserved": 0, "fusion_lon": 0.0, "fusion_lat": 0.0, "lon": -77.04490183333333, "name": "752f7d40faaba14ddd46377da730a23c"}, {"bike_id": "4e12196bcc035e451ed0040d5952ce7b", "type": "electric_scooter", "is_disabled": 0, "lat": 38.91699633333333, "rental_uris": {"ios": "https://dc.lft.to/lastmile_qr_scan", "android": "https://dc.lft.to/lastmile_qr_scan"}, "is_reserved": 0, "fusion_lon": 0.0, "fusion_lat": 0.0, "lon": -77.03220266666666, "name": "4e12196bcc035e451ed0040d5952ce7b"}, {"bike_id": "9002a8c2045653a5e5af05d70f290d59", "type": "electric_scooter", "is_disabled": 0, "lat": 38.907338333333335, "rental_uris": {"ios": "https://dc.lft.to/lastmile_qr_scan", "android": "https://dc.lft.to/lastmile_qr_scan"}, "is_reserved": 0, "fusion_lon": 0.0, "fusion_lat": 0.0, "lon": -76.97969616666667, "name": "9002a8c2045653a5e5af05d70f290d59"}, {"bike_id": "3dae26dc169feec06c8c8f10459475cc", "type": "electric_scooter", "is_disabled": 0, "lat": 38.917631, "rental_uris": {"ios": "https://dc.lft.to/lastmile_qr_scan", "android": "https://dc.lft.to/lastmile_qr_scan"}, "is_reserved": 0, "fusion_lon": 0.0, "fusion_lat": 0.0, "lon": -77.034414, "name": "3dae26dc169feec06c8c8f10459475cc"}, {"bike_id": "fa69e5c6a784f2fe668828b2ffcac9a6", "type": "electric_scooter", "is_disabled": 0, "lat": 38.86730716666667, "rental_uris": {"ios": "https://dc.lft.to/lastmile_qr_scan", "android": "https://dc.lft.to/lastmile_qr_scan"}, "is_reserved": 0, "fusion_lon": 0.0, "fusion_lat": 0.0, "lon": -76.97862933333333, "name": "fa69e5c6a784f2fe668828b2ffcac9a6"}, {"bike_id": "b1c59492dcab1c0961d39078aadccfa6", "type": "electric_scooter", "is_disabled": 0, "lat": 38.914002833333335, "rental_uris": {"ios": "https://dc.lft.to/lastmile_qr_scan", "android": "https://dc.lft.to/lastmile_qr_scan"}, "is_reserved": 0, "fusion_lon": 0.0, "fusion_lat": 0.0, "lon": -77.03149983333333, "name": "b1c59492dcab1c0961d39078aadccfa6"}, {"bike_id": "bc7c4f854fe49c4c75b112d13737c395", "type": "electric_scooter", "is_disabled": 0, "lat": 38.91244866666667, "rental_uris": {"ios": "https://dc.lft.to/lastmile_qr_scan", "android": "https://dc.lft.to/lastmile_qr_scan"}, "is_reserved": 0, "fusion_lon": 0.0, "fusion_lat": 0.0, "lon": -77.03861366666666, "name": "bc7c4f854fe49c4c75b112d13737c395"}, {"bike_id": "408ba29c80eddfba14fdc264b2b31fef", "type": "electric_scooter", "is_disabled": 0, "lat": 38.892286, "rental_uris": {"ios": "https://dc.lft.to/lastmile_qr_scan", "android": "https://dc.lft.to/lastmile_qr_scan"}, "is_reserved": 0, "fusion_lon": 0.0, "fusion_lat": 0.0, "lon": -77.05001283333333, "name": "408ba29c80eddfba14fdc264b2b31fef"}, {"bike_id": "40b4fc6ec98a768ba1d9868509824ac5", "type": "electric_scooter", "is_disabled": 0, "lat": 38.910984666666664, "rental_uris": {"ios": "https://dc.lft.to/lastmile_qr_scan", "android": "https://dc.lft.to/lastmile_qr_scan"}, "is_reserved": 0, "fusion_lon": 0.0, "fusion_lat": 0.0, "lon": -77.04208083333333, "name": "40b4fc6ec98a768ba1d9868509824ac5"}, {"bike_id": "ec0e339aa18a5eb367824a6ff5295ed2", "type": "electric_bike", "is_disabled": 0, "lat": 38.831574833333335, "rental_uris": {"ios": "https://dc.lft.to/lastmile_qr_scan", "android": "https://dc.lft.to/lastmile_qr_scan"}, "is_reserved": 0, "fusion_lon": 0.0, "fusion_lat": 0.0, "lon": -76.99546416666666, "name": "ec0e339aa18a5eb367824a6ff5295ed2"}, {"bike_id": "f53ea7995f9bafcb4faf2d298c82ed27", "type": "electric_scooter", "is_disabled": 0, "lat": 38.902683333333336, "rental_uris": {"ios": "https://dc.lft.to/lastmile_qr_scan", "android": "https://dc.lft.to/lastmile_qr_scan"}, "is_reserved": 0, "fusion_lon": 0.0, "fusion_lat": 0.0, "lon": -77.01819733333333, "name": "f53ea7995f9bafcb4faf2d298c82ed27"}, {"bike_id": "c29e063f64b7317bbb7d16fb86cc1023", "type": "electric_scooter", "is_disabled": 0, "lat": 38.904683166666665, "rental_uris": {"ios": "https://dc.lft.to/lastmile_qr_scan", "android": "https://dc.lft.to/lastmile_qr_scan"}, "is_reserved": 0, "fusion_lon": 0.0, "fusion_lat": 0.0, "lon": -77.04869483333333, "name": "c29e063f64b7317bbb7d16fb86cc1023"}, {"bike_id": "168e6f0ae48516b4b973871084b7db3b", "type": "electric_bike", "is_disabled": 0, "lat": 38.8936905, "rental_uris": {"ios": "https://dc.lft.to/lastmile_qr_scan", "android": "https://dc.lft.to/lastmile_qr_scan"}, "is_reserved": 0, "fusion_lon": 0.0, "fusion_lat": 0.0, "lon": -77.18687733333333, "name": "168e6f0ae48516b4b973871084b7db3b"}, {"bike_id": "07061168fb89dcc7a8f7beec2fea6bed", "type": "electric_scooter", "is_disabled": 0, "lat": 38.9103345, "rental_uris": {"ios": "https://dc.lft.to/lastmile_qr_scan", "android": "https://dc.lft.to/lastmile_qr_scan"}, "is_reserved": 0, "fusion_lon": 0.0, "fusion_lat": 0.0, "lon": -77.0380045, "name": "07061168fb89dcc7a8f7beec2fea6bed"}, {"bike_id": "d2ec75be43388214080b2c0e8caa2e47", "type": "electric_scooter", "is_disabled": 0, "lat": 38.902627833333334, "rental_uris": {"ios": "https://dc.lft.to/lastmile_qr_scan", "android": "https://dc.lft.to/lastmile_qr_scan"}, "is_reserved": 0, "fusion_lon": 0.0, "fusion_lat": 0.0, "lon": -77.03461983333334, "name": "d2ec75be43388214080b2c0e8caa2e47"}, {"bike_id": "a2153308332440d563c406e71d672304", "type": "electric_scooter", "is_disabled": 0, "lat": 38.90641216666667, "rental_uris": {"ios": "https://dc.lft.to/lastmile_qr_scan", "android": "https://dc.lft.to/lastmile_qr_scan"}, "is_reserved": 0, "fusion_lon": 0.0, "fusion_lat": 0.0, "lon": -77.01733183333333, "name": "a2153308332440d563c406e71d672304"}, {"bike_id": "a160db717df96d607a6cc19e1865ad33", "type": "electric_scooter", "is_disabled": 0, "lat": 38.900731, "rental_uris": {"ios": "https://dc.lft.to/lastmile_qr_scan", "android": "https://dc.lft.to/lastmile_qr_scan"}, "is_reserved": 0, "fusion_lon": 0.0, "fusion_lat": 0.0, "lon": -77.030816, "name": "a160db717df96d607a6cc19e1865ad33"}, {"bike_id": "0f87c2240b6919569598d721ff25ace4", "type": "electric_scooter", "is_disabled": 0, "lat": 38.9359555, "rental_uris": {"ios": "https://dc.lft.to/lastmile_qr_scan", "android": "https://dc.lft.to/lastmile_qr_scan"}, "is_reserved": 0, "fusion_lon": 0.0, "fusion_lat": 0.0, "lon": -77.03663716666667, "name": "0f87c2240b6919569598d721ff25ace4"}, {"bike_id": "da745c89cf6afb24e380391d3f4041de", "type": "electric_scooter", "is_disabled": 0, "lat": 38.93537283333333, "rental_uris": {"ios": "https://dc.lft.to/lastmile_qr_scan", "android": "https://dc.lft.to/lastmile_qr_scan"}, "is_reserved": 0, "fusion_lon": 0.0, "fusion_lat": 0.0, "lon": -77.05827916666667, "name": "da745c89cf6afb24e380391d3f4041de"}, {"bike_id": "b483458a99199f5d94654929c983bc4d", "type": "electric_bike", "is_disabled": 0, "lat": 38.85527416666667, "rental_uris": {"ios": "https://dc.lft.to/lastmile_qr_scan", "android": "https://dc.lft.to/lastmile_qr_scan"}, "is_reserved": 0, "fusion_lon": 0.0, "fusion_lat": 0.0, "lon": -77.1201665, "name": "b483458a99199f5d94654929c983bc4d"}, {"bike_id": "a2ff4a1b44f4aa3810711bf45092e0d1", "type": "electric_scooter", "is_disabled": 0, "lat": 38.916791, "rental_uris": {"ios": "https://dc.lft.to/lastmile_qr_scan", "android": "https://dc.lft.to/lastmile_qr_scan"}, "is_reserved": 0, "fusion_lon": 0.0, "fusion_lat": 0.0, "lon": -77.02977583333333, "name": "a2ff4a1b44f4aa3810711bf45092e0d1"}, {"bike_id": "85fcb3fecbde540735920b2d29f255b0", "type": "electric_scooter", "is_disabled": 0, "lat": 38.9002005, "rental_uris": {"ios": "https://dc.lft.to/lastmile_qr_scan", "android": "https://dc.lft.to/lastmile_qr_scan"}, "is_reserved": 0, "fusion_lon": 0.0, "fusion_lat": 0.0, "lon": -76.99061833333333, "name": "85fcb3fecbde540735920b2d29f255b0"}, {"bike_id": "94c1bf608e49a5bdd3adb41f92b462b7", "type": "electric_scooter", "is_disabled": 0, "lat": 38.9140005, "rental_uris": {"ios": "https://dc.lft.to/lastmile_qr_scan", "android": "https://dc.lft.to/lastmile_qr_scan"}, "is_reserved": 0, "fusion_lon": 0.0, "fusion_lat": 0.0, "lon": -76.98192133333333, "name": "94c1bf608e49a5bdd3adb41f92b462b7"}, {"bike_id": "b6f869680867f1dc3ca6fb74fbab2677", "type": "electric_scooter", "is_disabled": 0, "lat": 38.908970333333336, "rental_uris": {"ios": "https://dc.lft.to/lastmile_qr_scan", "android": "https://dc.lft.to/lastmile_qr_scan"}, "is_reserved": 0, "fusion_lon": 0.0, "fusion_lat": 0.0, "lon": -77.03210283333334, "name": "b6f869680867f1dc3ca6fb74fbab2677"}, {"bike_id": "458e9cee168b1b5fb3e6babb49ae073e", "type": "electric_scooter", "is_disabled": 0, "lat": 38.91726083333333, "rental_uris": {"ios": "https://dc.lft.to/lastmile_qr_scan", "android": "https://dc.lft.to/lastmile_qr_scan"}, "is_reserved": 0, "fusion_lon": 0.0, "fusion_lat": 0.0, "lon": -77.0192285, "name": "458e9cee168b1b5fb3e6babb49ae073e"}, {"bike_id": "ad01a4e18b42e043ae23614510600ce6", "type": "electric_scooter", "is_disabled": 0, "lat": 38.907193166666666, "rental_uris": {"ios": "https://dc.lft.to/lastmile_qr_scan", "android": "https://dc.lft.to/lastmile_qr_scan"}, "is_reserved": 0, "fusion_lon": 0.0, "fusion_lat": 0.0, "lon": -77.04180083333334, "name": "ad01a4e18b42e043ae23614510600ce6"}, {"bike_id": "83ac56acbe53bf097ed0c7d422883141", "type": "electric_scooter", "is_disabled": 0, "lat": 38.905792, "rental_uris": {"ios": "https://dc.lft.to/lastmile_qr_scan", "android": "https://dc.lft.to/lastmile_qr_scan"}, "is_reserved": 0, "fusion_lon": 0.0, "fusion_lat": 0.0, "lon": -77.04214033333334, "name": "83ac56acbe53bf097ed0c7d422883141"}, {"bike_id": "a58561f425e25ff0128115af6a59d1b2", "type": "electric_scooter", "is_disabled": 0, "lat": 38.92326033333333, "rental_uris": {"ios": "https://dc.lft.to/lastmile_qr_scan", "android": "https://dc.lft.to/lastmile_qr_scan"}, "is_reserved": 0, "fusion_lon": 0.0, "fusion_lat": 0.0, "lon": -77.0418915, "name": "a58561f425e25ff0128115af6a59d1b2"}, {"bike_id": "97ed4da8f2c918b25bd2f3d606581619", "type": "electric_scooter", "is_disabled": 0, "lat": 38.917731833333335, "rental_uris": {"ios": "https://dc.lft.to/lastmile_qr_scan", "android": "https://dc.lft.to/lastmile_qr_scan"}, "is_reserved": 0, "fusion_lon": 0.0, "fusion_lat": 0.0, "lon": -77.023131, "name": "97ed4da8f2c918b25bd2f3d606581619"}, {"bike_id": "6152975ca86bf0c0bc7415d515828350", "type": "electric_bike", "is_disabled": 0, "lat": 38.951038833333335, "rental_uris": {"ios": "https://dc.lft.to/lastmile_qr_scan", "android": "https://dc.lft.to/lastmile_qr_scan"}, "is_reserved": 0, "fusion_lon": 0.0, "fusion_lat": 0.0, "lon": -77.055212, "name": "6152975ca86bf0c0bc7415d515828350"}, {"bike_id": "cfd7dcba6dfc05fcbb522d4ea93a3d24", "type": "electric_bike", "is_disabled": 0, "lat": 38.87833666666667, "rental_uris": {"ios": "https://dc.lft.to/lastmile_qr_scan", "android": "https://dc.lft.to/lastmile_qr_scan"}, "is_reserved": 0, "fusion_lon": 0.0, "fusion_lat": 0.0, "lon": -76.98736333333333, "name": "cfd7dcba6dfc05fcbb522d4ea93a3d24"}, {"bike_id": "717e0155f9a6c054d07de6b937b30a37", "type": "electric_scooter", "is_disabled": 0, "lat": 38.906324166666664, "rental_uris": {"ios": "https://dc.lft.to/lastmile_qr_scan", "android": "https://dc.lft.to/lastmile_qr_scan"}, "is_reserved": 0, "fusion_lon": 0.0, "fusion_lat": 0.0, "lon": -77.0250325, "name": "717e0155f9a6c054d07de6b937b30a37"}, {"bike_id": "4561482b5915362657ec3a38b0fe8be4", "type": "electric_scooter", "is_disabled": 0, "lat": 38.912597, "rental_uris": {"ios": "https://dc.lft.to/lastmile_qr_scan", "android": "https://dc.lft.to/lastmile_qr_scan"}, "is_reserved": 0, "fusion_lon": 0.0, "fusion_lat": 0.0, "lon": -77.04243933333333, "name": "4561482b5915362657ec3a38b0fe8be4"}, {"bike_id": "2dcc54cde61eac6a07c781c0fbb2f545", "type": "electric_scooter", "is_disabled": 0, "lat": 38.91457583333333, "rental_uris": {"ios": "https://dc.lft.to/lastmile_qr_scan", "android": "https://dc.lft.to/lastmile_qr_scan"}, "is_reserved": 0, "fusion_lon": 0.0, "fusion_lat": 0.0, "lon": -77.0710475, "name": "2dcc54cde61eac6a07c781c0fbb2f545"}, {"bike_id": "e26bb4daafe7ae6dc3893ec73a88da40", "type": "electric_scooter", "is_disabled": 0, "lat": 38.89884983333334, "rental_uris": {"ios": "https://dc.lft.to/lastmile_qr_scan", "android": "https://dc.lft.to/lastmile_qr_scan"}, "is_reserved": 0, "fusion_lon": 0.0, "fusion_lat": 0.0, "lon": -76.97699366666667, "name": "e26bb4daafe7ae6dc3893ec73a88da40"}, {"bike_id": "19eca504301eb30c635191f52d1fc59b", "type": "electric_scooter", "is_disabled": 0, "lat": 38.92544133333333, "rental_uris": {"ios": "https://dc.lft.to/lastmile_qr_scan", "android": "https://dc.lft.to/lastmile_qr_scan"}, "is_reserved": 0, "fusion_lon": 0.0, "fusion_lat": 0.0, "lon": -77.04126233333334, "name": "19eca504301eb30c635191f52d1fc59b"}, {"bike_id": "1216bb69fe94a8e095329414b94e1447", "type": "electric_scooter", "is_disabled": 0, "lat": 38.938975166666665, "rental_uris": {"ios": "https://dc.lft.to/lastmile_qr_scan", "android": "https://dc.lft.to/lastmile_qr_scan"}, "is_reserved": 0, "fusion_lon": 0.0, "fusion_lat": 0.0, "lon": -77.01679616666667, "name": "1216bb69fe94a8e095329414b94e1447"}, {"bike_id": "e95c3c0ae6f8c217cc9c3c282bed5962", "type": "electric_scooter", "is_disabled": 0, "lat": 38.8960655, "rental_uris": {"ios": "https://dc.lft.to/lastmile_qr_scan", "android": "https://dc.lft.to/lastmile_qr_scan"}, "is_reserved": 0, "fusion_lon": 0.0, "fusion_lat": 0.0, "lon": -77.0033835, "name": "e95c3c0ae6f8c217cc9c3c282bed5962"}, {"bike_id": "6191b41d96d4d8e56c4c3dd227b2487e", "type": "electric_scooter", "is_disabled": 0, "lat": 38.914138, "rental_uris": {"ios": "https://dc.lft.to/lastmile_qr_scan", "android": "https://dc.lft.to/lastmile_qr_scan"}, "is_reserved": 0, "fusion_lon": 0.0, "fusion_lat": 0.0, "lon": -77.0211485, "name": "6191b41d96d4d8e56c4c3dd227b2487e"}, {"bike_id": "39de2dc57871ea16698d048c2949dd85", "type": "electric_bike", "is_disabled": 0, "lat": 38.954013333333336, "rental_uris": {"ios": "https://dc.lft.to/lastmile_qr_scan", "android": "https://dc.lft.to/lastmile_qr_scan"}, "is_reserved": 0, "fusion_lon": 0.0, "fusion_lat": 0.0, "lon": -76.98052033333333, "name": "39de2dc57871ea16698d048c2949dd85"}, {"bike_id": "03a4a764607e1ac1c128b8ec19d6c46c", "type": "electric_scooter", "is_disabled": 0, "lat": 38.9247085, "rental_uris": {"ios": "https://dc.lft.to/lastmile_qr_scan", "android": "https://dc.lft.to/lastmile_qr_scan"}, "is_reserved": 0, "fusion_lon": 0.0, "fusion_lat": 0.0, "lon": -77.02250483333333, "name": "03a4a764607e1ac1c128b8ec19d6c46c"}, {"bike_id": "23d599981509966796820600bc779ff5", "type": "electric_bike", "is_disabled": 0, "lat": 38.838266833333336, "rental_uris": {"ios": "https://dc.lft.to/lastmile_qr_scan", "android": "https://dc.lft.to/lastmile_qr_scan"}, "is_reserved": 0, "fusion_lon": 0.0, "fusion_lat": 0.0, "lon": -77.002806, "name": "23d599981509966796820600bc779ff5"}, {"bike_id": "94cd15fa97e09e9a23feb0bc215e85ac", "type": "electric_scooter", "is_disabled": 0, "lat": 38.905697833333335, "rental_uris": {"ios": "https://dc.lft.to/lastmile_qr_scan", "android": "https://dc.lft.to/lastmile_qr_scan"}, "is_reserved": 0, "fusion_lon": 0.0, "fusion_lat": 0.0, "lon": -76.97633733333333, "name": "94cd15fa97e09e9a23feb0bc215e85ac"}, {"bike_id": "bcddb2216094bf06dff380a1f934b102", "type": "electric_bike", "is_disabled": 0, "lat": 38.90845133333333, "rental_uris": {"ios": "https://dc.lft.to/lastmile_qr_scan", "android": "https://dc.lft.to/lastmile_qr_scan"}, "is_reserved": 0, "fusion_lon": 0.0, "fusion_lat": 0.0, "lon": -76.9344755, "name": "bcddb2216094bf06dff380a1f934b102"}, {"bike_id": "f5922ed5a06de0d9ddf153c31234825f", "type": "electric_scooter", "is_disabled": 0, "lat": 38.909118666666664, "rental_uris": {"ios": "https://dc.lft.to/lastmile_qr_scan", "android": "https://dc.lft.to/lastmile_qr_scan"}, "is_reserved": 0, "fusion_lon": 0.0, "fusion_lat": 0.0, "lon": -77.04496733333333, "name": "f5922ed5a06de0d9ddf153c31234825f"}, {"bike_id": "a267864ca5fd880b76919056bf8d4be5", "type": "electric_scooter", "is_disabled": 0, "lat": 38.89478833333333, "rental_uris": {"ios": "https://dc.lft.to/lastmile_qr_scan", "android": "https://dc.lft.to/lastmile_qr_scan"}, "is_reserved": 0, "fusion_lon": 0.0, "fusion_lat": 0.0, "lon": -76.94863283333333, "name": "a267864ca5fd880b76919056bf8d4be5"}, {"bike_id": "5ea16a8c016f1841c0028b196a63c639", "type": "electric_scooter", "is_disabled": 0, "lat": 38.94357516666667, "rental_uris": {"ios": "https://dc.lft.to/lastmile_qr_scan", "android": "https://dc.lft.to/lastmile_qr_scan"}, "is_reserved": 0, "fusion_lon": 0.0, "fusion_lat": 0.0, "lon": -77.03236933333334, "name": "5ea16a8c016f1841c0028b196a63c639"}, {"bike_id": "28f170ac8bbb476007ba0b6f52869011", "type": "electric_scooter", "is_disabled": 0, "lat": 38.905116166666666, "rental_uris": {"ios": "https://dc.lft.to/lastmile_qr_scan", "android": "https://dc.lft.to/lastmile_qr_scan"}, "is_reserved": 0, "fusion_lon": 0.0, "fusion_lat": 0.0, "lon": -77.05018183333334, "name": "28f170ac8bbb476007ba0b6f52869011"}, {"bike_id": "a4c11b13c3b9cc0ad761299782c9ae53", "type": "electric_scooter", "is_disabled": 0, "lat": 38.91067616666667, "rental_uris": {"ios": "https://dc.lft.to/lastmile_qr_scan", "android": "https://dc.lft.to/lastmile_qr_scan"}, "is_reserved": 0, "fusion_lon": 0.0, "fusion_lat": 0.0, "lon": -77.03732666666667, "name": "a4c11b13c3b9cc0ad761299782c9ae53"}, {"bike_id": "c7dea59623d869934a1cc95f2901912b", "type": "electric_scooter", "is_disabled": 0, "lat": 38.884007833333335, "rental_uris": {"ios": "https://dc.lft.to/lastmile_qr_scan", "android": "https://dc.lft.to/lastmile_qr_scan"}, "is_reserved": 0, "fusion_lon": 0.0, "fusion_lat": 0.0, "lon": -76.9540395, "name": "c7dea59623d869934a1cc95f2901912b"}, {"bike_id": "f410a067421f41d49980405e0d274184", "type": "electric_scooter", "is_disabled": 0, "lat": 38.91521683333333, "rental_uris": {"ios": "https://dc.lft.to/lastmile_qr_scan", "android": "https://dc.lft.to/lastmile_qr_scan"}, "is_reserved": 0, "fusion_lon": 0.0, "fusion_lat": 0.0, "lon": -77.04859933333333, "name": "f410a067421f41d49980405e0d274184"}, {"bike_id": "ed2e27e42f1afc0cac287cf0344854ff", "type": "electric_scooter", "is_disabled": 0, "lat": 38.870921, "rental_uris": {"ios": "https://dc.lft.to/lastmile_qr_scan", "android": "https://dc.lft.to/lastmile_qr_scan"}, "is_reserved": 0, "fusion_lon": 0.0, "fusion_lat": 0.0, "lon": -77.01208883333334, "name": "ed2e27e42f1afc0cac287cf0344854ff"}, {"bike_id": "6dd34385d34a7f3c864379b3b3e2829d", "type": "electric_scooter", "is_disabled": 0, "lat": 38.908796833333334, "rental_uris": {"ios": "https://dc.lft.to/lastmile_qr_scan", "android": "https://dc.lft.to/lastmile_qr_scan"}, "is_reserved": 0, "fusion_lon": 0.0, "fusion_lat": 0.0, "lon": -77.04324783333334, "name": "6dd34385d34a7f3c864379b3b3e2829d"}, {"bike_id": "8a1d036c6f61b7bbf82e49d1c64c5aee", "type": "electric_scooter", "is_disabled": 0, "lat": 38.907007666666665, "rental_uris": {"ios": "https://dc.lft.to/lastmile_qr_scan", "android": "https://dc.lft.to/lastmile_qr_scan"}, "is_reserved": 0, "fusion_lon": 0.0, "fusion_lat": 0.0, "lon": -76.98699666666667, "name": "8a1d036c6f61b7bbf82e49d1c64c5aee"}, {"bike_id": "6c3dc10ff0cf8da4d933b946036978be", "type": "electric_scooter", "is_disabled": 0, "lat": 38.882974833333336, "rental_uris": {"ios": "https://dc.lft.to/lastmile_qr_scan", "android": "https://dc.lft.to/lastmile_qr_scan"}, "is_reserved": 0, "fusion_lon": 0.0, "fusion_lat": 0.0, "lon": -76.94857383333333, "name": "6c3dc10ff0cf8da4d933b946036978be"}, {"bike_id": "54f81b843aa6f033aaccc0e56a2124ce", "type": "electric_scooter", "is_disabled": 0, "lat": 38.9246835, "rental_uris": {"ios": "https://dc.lft.to/lastmile_qr_scan", "android": "https://dc.lft.to/lastmile_qr_scan"}, "is_reserved": 0, "fusion_lon": 0.0, "fusion_lat": 0.0, "lon": -77.02842116666666, "name": "54f81b843aa6f033aaccc0e56a2124ce"}, {"bike_id": "607daf9f8148fe952547c2d534e2d55b", "type": "electric_bike", "is_disabled": 0, "lat": 38.96956516666667, "rental_uris": {"ios": "https://dc.lft.to/lastmile_qr_scan", "android": "https://dc.lft.to/lastmile_qr_scan"}, "is_reserved": 0, "fusion_lon": 0.0, "fusion_lat": 0.0, "lon": -76.95752566666667, "name": "607daf9f8148fe952547c2d534e2d55b"}, {"bike_id": "edd88f4eef5b8e8fad26ff8f735cf663", "type": "electric_scooter", "is_disabled": 0, "lat": 38.923262, "rental_uris": {"ios": "https://dc.lft.to/lastmile_qr_scan", "android": "https://dc.lft.to/lastmile_qr_scan"}, "is_reserved": 0, "fusion_lon": 0.0, "fusion_lat": 0.0, "lon": -77.0562035, "name": "edd88f4eef5b8e8fad26ff8f735cf663"}, {"bike_id": "aaff44a2d59d4f6d236b770ba35922ab", "type": "electric_scooter", "is_disabled": 0, "lat": 38.9246815, "rental_uris": {"ios": "https://dc.lft.to/lastmile_qr_scan", "android": "https://dc.lft.to/lastmile_qr_scan"}, "is_reserved": 0, "fusion_lon": 0.0, "fusion_lat": 0.0, "lon": -77.022504, "name": "aaff44a2d59d4f6d236b770ba35922ab"}, {"bike_id": "b5e625df781823666bf8cd21a31a454b", "type": "electric_scooter", "is_disabled": 0, "lat": 38.86470533333333, "rental_uris": {"ios": "https://dc.lft.to/lastmile_qr_scan", "android": "https://dc.lft.to/lastmile_qr_scan"}, "is_reserved": 0, "fusion_lon": 0.0, "fusion_lat": 0.0, "lon": -76.97742383333333, "name": "b5e625df781823666bf8cd21a31a454b"}, {"bike_id": "32328325218f8962a24b4abb87fb194b", "type": "electric_scooter", "is_disabled": 0, "lat": 38.935372, "rental_uris": {"ios": "https://dc.lft.to/lastmile_qr_scan", "android": "https://dc.lft.to/lastmile_qr_scan"}, "is_reserved": 0, "fusion_lon": 0.0, "fusion_lat": 0.0, "lon": -77.05867216666667, "name": "32328325218f8962a24b4abb87fb194b"}, {"bike_id": "dba8e4fb4b5f3f3adcdfed43f3f1f930", "type": "electric_scooter", "is_disabled": 0, "lat": 38.92151, "rental_uris": {"ios": "https://dc.lft.to/lastmile_qr_scan", "android": "https://dc.lft.to/lastmile_qr_scan"}, "is_reserved": 0, "fusion_lon": 0.0, "fusion_lat": 0.0, "lon": -77.0424625, "name": "dba8e4fb4b5f3f3adcdfed43f3f1f930"}, {"bike_id": "69dfe7e354b31d32ad9bc349dbc2a423", "type": "electric_scooter", "is_disabled": 0, "lat": 38.92103083333333, "rental_uris": {"ios": "https://dc.lft.to/lastmile_qr_scan", "android": "https://dc.lft.to/lastmile_qr_scan"}, "is_reserved": 0, "fusion_lon": 0.0, "fusion_lat": 0.0, "lon": -77.031815, "name": "69dfe7e354b31d32ad9bc349dbc2a423"}, {"bike_id": "0c7618d8ae41344e4a20e19120752ae4", "type": "electric_scooter", "is_disabled": 0, "lat": 38.89842733333333, "rental_uris": {"ios": "https://dc.lft.to/lastmile_qr_scan", "android": "https://dc.lft.to/lastmile_qr_scan"}, "is_reserved": 0, "fusion_lon": 0.0, "fusion_lat": 0.0, "lon": -76.9463565, "name": "0c7618d8ae41344e4a20e19120752ae4"}, {"bike_id": "6f1af2ecd1bf9d01feeb2130feabca5a", "type": "electric_scooter", "is_disabled": 0, "lat": 38.904915, "rental_uris": {"ios": "https://dc.lft.to/lastmile_qr_scan", "android": "https://dc.lft.to/lastmile_qr_scan"}, "is_reserved": 0, "fusion_lon": 0.0, "fusion_lat": 0.0, "lon": -77.04112466666666, "name": "6f1af2ecd1bf9d01feeb2130feabca5a"}, {"bike_id": "efc330603ce0a3f59ee292a135a5f520", "type": "electric_scooter", "is_disabled": 0, "lat": 38.899161, "rental_uris": {"ios": "https://dc.lft.to/lastmile_qr_scan", "android": "https://dc.lft.to/lastmile_qr_scan"}, "is_reserved": 0, "fusion_lon": 0.0, "fusion_lat": 0.0, "lon": -76.93367, "name": "efc330603ce0a3f59ee292a135a5f520"}, {"bike_id": "5c9735a46291e10436b29c6f275320d4", "type": "electric_bike", "is_disabled": 0, "lat": 39.00110133333333, "rental_uris": {"ios": "https://dc.lft.to/lastmile_qr_scan", "android": "https://dc.lft.to/lastmile_qr_scan"}, "is_reserved": 0, "fusion_lon": 0.0, "fusion_lat": 0.0, "lon": -77.02528, "name": "5c9735a46291e10436b29c6f275320d4"}, {"bike_id": "1e95e1b6069f1f0fd69df1b4572fb229", "type": "electric_scooter", "is_disabled": 0, "lat": 38.90937616666667, "rental_uris": {"ios": "https://dc.lft.to/lastmile_qr_scan", "android": "https://dc.lft.to/lastmile_qr_scan"}, "is_reserved": 0, "fusion_lon": 0.0, "fusion_lat": 0.0, "lon": -77.02320733333333, "name": "1e95e1b6069f1f0fd69df1b4572fb229"}, {"bike_id": "3e77ff33b376a79534270bc4140d93f7", "type": "electric_scooter", "is_disabled": 0, "lat": 38.917494, "rental_uris": {"ios": "https://dc.lft.to/lastmile_qr_scan", "android": "https://dc.lft.to/lastmile_qr_scan"}, "is_reserved": 0, "fusion_lon": 0.0, "fusion_lat": 0.0, "lon": -77.036666, "name": "3e77ff33b376a79534270bc4140d93f7"}, {"bike_id": "35124caa6734d771cca9434e2629ed38", "type": "electric_scooter", "is_disabled": 0, "lat": 38.92604516666667, "rental_uris": {"ios": "https://dc.lft.to/lastmile_qr_scan", "android": "https://dc.lft.to/lastmile_qr_scan"}, "is_reserved": 0, "fusion_lon": 0.0, "fusion_lat": 0.0, "lon": -77.10244416666667, "name": "35124caa6734d771cca9434e2629ed38"}, {"bike_id": "f843eacf6167341eb1e219963d9ef427", "type": "electric_scooter", "is_disabled": 0, "lat": 38.921364, "rental_uris": {"ios": "https://dc.lft.to/lastmile_qr_scan", "android": "https://dc.lft.to/lastmile_qr_scan"}, "is_reserved": 0, "fusion_lon": 0.0, "fusion_lat": 0.0, "lon": -77.02524766666667, "name": "f843eacf6167341eb1e219963d9ef427"}, {"bike_id": "a43053921a4df12f2e18845fcd86d33b", "type": "electric_scooter", "is_disabled": 0, "lat": 38.915999166666666, "rental_uris": {"ios": "https://dc.lft.to/lastmile_qr_scan", "android": "https://dc.lft.to/lastmile_qr_scan"}, "is_reserved": 0, "fusion_lon": 0.0, "fusion_lat": 0.0, "lon": -77.02393533333333, "name": "a43053921a4df12f2e18845fcd86d33b"}, {"bike_id": "c2700c89d2bde1eebf72889aa633a370", "type": "electric_bike", "is_disabled": 0, "lat": 39.05056783333333, "rental_uris": {"ios": "https://dc.lft.to/lastmile_qr_scan", "android": "https://dc.lft.to/lastmile_qr_scan"}, "is_reserved": 0, "fusion_lon": 0.0, "fusion_lat": 0.0, "lon": -77.0514795, "name": "c2700c89d2bde1eebf72889aa633a370"}, {"bike_id": "6868002514c3aa2b5224d75ac0032437", "type": "electric_scooter", "is_disabled": 0, "lat": 38.900099, "rental_uris": {"ios": "https://dc.lft.to/lastmile_qr_scan", "android": "https://dc.lft.to/lastmile_qr_scan"}, "is_reserved": 0, "fusion_lon": 0.0, "fusion_lat": 0.0, "lon": -77.04490966666667, "name": "6868002514c3aa2b5224d75ac0032437"}, {"bike_id": "32f3bf8ee41712223c5129a2322bb6fe", "type": "electric_bike", "is_disabled": 0, "lat": 38.960625, "rental_uris": {"ios": "https://dc.lft.to/lastmile_qr_scan", "android": "https://dc.lft.to/lastmile_qr_scan"}, "is_reserved": 0, "fusion_lon": 0.0, "fusion_lat": 0.0, "lon": -77.00505633333333, "name": "32f3bf8ee41712223c5129a2322bb6fe"}, {"bike_id": "8c028bd94a9f8b3f4c2f73303a987115", "type": "electric_scooter", "is_disabled": 0, "lat": 38.876288333333335, "rental_uris": {"ios": "https://dc.lft.to/lastmile_qr_scan", "android": "https://dc.lft.to/lastmile_qr_scan"}, "is_reserved": 0, "fusion_lon": 0.0, "fusion_lat": 0.0, "lon": -77.00955316666666, "name": "8c028bd94a9f8b3f4c2f73303a987115"}, {"bike_id": "ecdc7427c418af0739ef946ecdd32f7e", "type": "electric_scooter", "is_disabled": 0, "lat": 38.92564466666666, "rental_uris": {"ios": "https://dc.lft.to/lastmile_qr_scan", "android": "https://dc.lft.to/lastmile_qr_scan"}, "is_reserved": 0, "fusion_lon": 0.0, "fusion_lat": 0.0, "lon": -77.03786033333333, "name": "ecdc7427c418af0739ef946ecdd32f7e"}, {"bike_id": "85868ea95610ff8350375823444a9f07", "type": "electric_scooter", "is_disabled": 0, "lat": 38.91104283333333, "rental_uris": {"ios": "https://dc.lft.to/lastmile_qr_scan", "android": "https://dc.lft.to/lastmile_qr_scan"}, "is_reserved": 0, "fusion_lon": 0.0, "fusion_lat": 0.0, "lon": -77.04361616666667, "name": "85868ea95610ff8350375823444a9f07"}, {"bike_id": "3963f8a3cf1884806a097dc9892d9f18", "type": "electric_scooter", "is_disabled": 0, "lat": 38.936217666666664, "rental_uris": {"ios": "https://dc.lft.to/lastmile_qr_scan", "android": "https://dc.lft.to/lastmile_qr_scan"}, "is_reserved": 0, "fusion_lon": 0.0, "fusion_lat": 0.0, "lon": -77.03684283333334, "name": "3963f8a3cf1884806a097dc9892d9f18"}, {"bike_id": "08c1fc91c1a88c04047f9c3c326b9230", "type": "electric_scooter", "is_disabled": 0, "lat": 38.930494, "rental_uris": {"ios": "https://dc.lft.to/lastmile_qr_scan", "android": "https://dc.lft.to/lastmile_qr_scan"}, "is_reserved": 0, "fusion_lon": 0.0, "fusion_lat": 0.0, "lon": -77.023538, "name": "08c1fc91c1a88c04047f9c3c326b9230"}, {"bike_id": "4050e99e6127aaa4a925aa63d8e2f3d7", "type": "electric_scooter", "is_disabled": 0, "lat": 38.919772, "rental_uris": {"ios": "https://dc.lft.to/lastmile_qr_scan", "android": "https://dc.lft.to/lastmile_qr_scan"}, "is_reserved": 0, "fusion_lon": 0.0, "fusion_lat": 0.0, "lon": -77.0332825, "name": "4050e99e6127aaa4a925aa63d8e2f3d7"}, {"bike_id": "c88b54d6d0601ae74d37269d9c3469a2", "type": "electric_scooter", "is_disabled": 0, "lat": 38.890049, "rental_uris": {"ios": "https://dc.lft.to/lastmile_qr_scan", "android": "https://dc.lft.to/lastmile_qr_scan"}, "is_reserved": 0, "fusion_lon": 0.0, "fusion_lat": 0.0, "lon": -76.93745866666667, "name": "c88b54d6d0601ae74d37269d9c3469a2"}, {"bike_id": "dadb6dfc9d83ef433ec04bf8da727183", "type": "electric_scooter", "is_disabled": 0, "lat": 38.90694716666667, "rental_uris": {"ios": "https://dc.lft.to/lastmile_qr_scan", "android": "https://dc.lft.to/lastmile_qr_scan"}, "is_reserved": 0, "fusion_lon": 0.0, "fusion_lat": 0.0, "lon": -77.00054833333333, "name": "dadb6dfc9d83ef433ec04bf8da727183"}, {"bike_id": "0812b24a8214064b074ff7ae05a07f78", "type": "electric_scooter", "is_disabled": 0, "lat": 38.910561, "rental_uris": {"ios": "https://dc.lft.to/lastmile_qr_scan", "android": "https://dc.lft.to/lastmile_qr_scan"}, "is_reserved": 0, "fusion_lon": 0.0, "fusion_lat": 0.0, "lon": -77.0426705, "name": "0812b24a8214064b074ff7ae05a07f78"}, {"bike_id": "cfb99cc414f5b1736e1f5fcbf0a0cc8a", "type": "electric_bike", "is_disabled": 0, "lat": 38.83237583333333, "rental_uris": {"ios": "https://dc.lft.to/lastmile_qr_scan", "android": "https://dc.lft.to/lastmile_qr_scan"}, "is_reserved": 0, "fusion_lon": 0.0, "fusion_lat": 0.0, "lon": -76.946265, "name": "cfb99cc414f5b1736e1f5fcbf0a0cc8a"}, {"bike_id": "70f9f43de86b86b91cc5cf986ad31107", "type": "electric_scooter", "is_disabled": 0, "lat": 38.90019916666667, "rental_uris": {"ios": "https://dc.lft.to/lastmile_qr_scan", "android": "https://dc.lft.to/lastmile_qr_scan"}, "is_reserved": 0, "fusion_lon": 0.0, "fusion_lat": 0.0, "lon": -76.9893205, "name": "70f9f43de86b86b91cc5cf986ad31107"}, {"bike_id": "0130411891e403254f88645b291a9f56", "type": "electric_scooter", "is_disabled": 0, "lat": 38.9041075, "rental_uris": {"ios": "https://dc.lft.to/lastmile_qr_scan", "android": "https://dc.lft.to/lastmile_qr_scan"}, "is_reserved": 0, "fusion_lon": 0.0, "fusion_lat": 0.0, "lon": -76.973325, "name": "0130411891e403254f88645b291a9f56"}, {"bike_id": "29f913ea5537e63e85cf98c674976b92", "type": "electric_scooter", "is_disabled": 0, "lat": 38.924486, "rental_uris": {"ios": "https://dc.lft.to/lastmile_qr_scan", "android": "https://dc.lft.to/lastmile_qr_scan"}, "is_reserved": 0, "fusion_lon": 0.0, "fusion_lat": 0.0, "lon": -77.0241255, "name": "29f913ea5537e63e85cf98c674976b92"}, {"bike_id": "d5ab458ace45d38b9b224a2f4f8fe506", "type": "electric_scooter", "is_disabled": 0, "lat": 38.86243, "rental_uris": {"ios": "https://dc.lft.to/lastmile_qr_scan", "android": "https://dc.lft.to/lastmile_qr_scan"}, "is_reserved": 0, "fusion_lon": 0.0, "fusion_lat": 0.0, "lon": -76.99505333333333, "name": "d5ab458ace45d38b9b224a2f4f8fe506"}, {"bike_id": "27cf63352a95ff7768632827346026d4", "type": "electric_scooter", "is_disabled": 0, "lat": 38.94284966666667, "rental_uris": {"ios": "https://dc.lft.to/lastmile_qr_scan", "android": "https://dc.lft.to/lastmile_qr_scan"}, "is_reserved": 0, "fusion_lon": 0.0, "fusion_lat": 0.0, "lon": -77.0217645, "name": "27cf63352a95ff7768632827346026d4"}, {"bike_id": "45178a9d6d106427aba3df9453216714", "type": "electric_scooter", "is_disabled": 0, "lat": 38.915530333333336, "rental_uris": {"ios": "https://dc.lft.to/lastmile_qr_scan", "android": "https://dc.lft.to/lastmile_qr_scan"}, "is_reserved": 0, "fusion_lon": 0.0, "fusion_lat": 0.0, "lon": -77.04180933333333, "name": "45178a9d6d106427aba3df9453216714"}, {"bike_id": "11ad48198b591f82bab047d035b899cf", "type": "electric_bike", "is_disabled": 0, "lat": 38.854196, "rental_uris": {"ios": "https://dc.lft.to/lastmile_qr_scan", "android": "https://dc.lft.to/lastmile_qr_scan"}, "is_reserved": 0, "fusion_lon": 0.0, "fusion_lat": 0.0, "lon": -77.1207605, "name": "11ad48198b591f82bab047d035b899cf"}, {"bike_id": "56ab1bff361c44e1b7f57b53b4b0c661", "type": "electric_scooter", "is_disabled": 0, "lat": 38.91564183333333, "rental_uris": {"ios": "https://dc.lft.to/lastmile_qr_scan", "android": "https://dc.lft.to/lastmile_qr_scan"}, "is_reserved": 0, "fusion_lon": 0.0, "fusion_lat": 0.0, "lon": -77.03338716666667, "name": "56ab1bff361c44e1b7f57b53b4b0c661"}, {"bike_id": "10fee41d14d37bcd9c437b5b23a85548", "type": "electric_scooter", "is_disabled": 0, "lat": 38.934198333333335, "rental_uris": {"ios": "https://dc.lft.to/lastmile_qr_scan", "android": "https://dc.lft.to/lastmile_qr_scan"}, "is_reserved": 0, "fusion_lon": 0.0, "fusion_lat": 0.0, "lon": -77.03916, "name": "10fee41d14d37bcd9c437b5b23a85548"}, {"bike_id": "50fb161fd60063da57048b37648c641f", "type": "electric_scooter", "is_disabled": 0, "lat": 38.94840516666667, "rental_uris": {"ios": "https://dc.lft.to/lastmile_qr_scan", "android": "https://dc.lft.to/lastmile_qr_scan"}, "is_reserved": 0, "fusion_lon": 0.0, "fusion_lat": 0.0, "lon": -77.02545083333334, "name": "50fb161fd60063da57048b37648c641f"}, {"bike_id": "2e6c07292f99fdc570ea6171a61abe45", "type": "electric_scooter", "is_disabled": 0, "lat": 38.93322533333333, "rental_uris": {"ios": "https://dc.lft.to/lastmile_qr_scan", "android": "https://dc.lft.to/lastmile_qr_scan"}, "is_reserved": 0, "fusion_lon": 0.0, "fusion_lat": 0.0, "lon": -77.02929083333333, "name": "2e6c07292f99fdc570ea6171a61abe45"}, {"bike_id": "0164360015cc611e9541808922826682", "type": "electric_scooter", "is_disabled": 0, "lat": 38.90171266666667, "rental_uris": {"ios": "https://dc.lft.to/lastmile_qr_scan", "android": "https://dc.lft.to/lastmile_qr_scan"}, "is_reserved": 0, "fusion_lon": 0.0, "fusion_lat": 0.0, "lon": -76.9844835, "name": "0164360015cc611e9541808922826682"}, {"bike_id": "e3fe8f4320d4be4c684bbd1d29b25845", "type": "electric_scooter", "is_disabled": 0, "lat": 38.8544545, "rental_uris": {"ios": "https://dc.lft.to/lastmile_qr_scan", "android": "https://dc.lft.to/lastmile_qr_scan"}, "is_reserved": 0, "fusion_lon": 0.0, "fusion_lat": 0.0, "lon": -76.98608783333333, "name": "e3fe8f4320d4be4c684bbd1d29b25845"}, {"bike_id": "c0e2d840ecc541ae28526db88a99215e", "type": "electric_scooter", "is_disabled": 0, "lat": 38.90419633333333, "rental_uris": {"ios": "https://dc.lft.to/lastmile_qr_scan", "android": "https://dc.lft.to/lastmile_qr_scan"}, "is_reserved": 0, "fusion_lon": 0.0, "fusion_lat": 0.0, "lon": -76.973782, "name": "c0e2d840ecc541ae28526db88a99215e"}, {"bike_id": "23ba34d53e633086acff2d57e1b9367c", "type": "electric_scooter", "is_disabled": 0, "lat": 38.88740966666667, "rental_uris": {"ios": "https://dc.lft.to/lastmile_qr_scan", "android": "https://dc.lft.to/lastmile_qr_scan"}, "is_reserved": 0, "fusion_lon": 0.0, "fusion_lat": 0.0, "lon": -76.9963145, "name": "23ba34d53e633086acff2d57e1b9367c"}, {"bike_id": "ee947022c3f189486b61e6462f0d48ae", "type": "electric_scooter", "is_disabled": 0, "lat": 38.90509216666667, "rental_uris": {"ios": "https://dc.lft.to/lastmile_qr_scan", "android": "https://dc.lft.to/lastmile_qr_scan"}, "is_reserved": 0, "fusion_lon": 0.0, "fusion_lat": 0.0, "lon": -77.06740816666667, "name": "ee947022c3f189486b61e6462f0d48ae"}, {"bike_id": "c060c56a65fdd742e83c13880e909816", "type": "electric_scooter", "is_disabled": 0, "lat": 38.884924833333336, "rental_uris": {"ios": "https://dc.lft.to/lastmile_qr_scan", "android": "https://dc.lft.to/lastmile_qr_scan"}, "is_reserved": 0, "fusion_lon": 0.0, "fusion_lat": 0.0, "lon": -77.0071325, "name": "c060c56a65fdd742e83c13880e909816"}, {"bike_id": "053578e9ca440a2d8b923f388dd3ccef", "type": "electric_scooter", "is_disabled": 0, "lat": 38.9024355, "rental_uris": {"ios": "https://dc.lft.to/lastmile_qr_scan", "android": "https://dc.lft.to/lastmile_qr_scan"}, "is_reserved": 0, "fusion_lon": 0.0, "fusion_lat": 0.0, "lon": -77.0010435, "name": "053578e9ca440a2d8b923f388dd3ccef"}, {"bike_id": "fc21ebbef23cd01ddaecdf2539be57eb", "type": "electric_bike", "is_disabled": 0, "lat": 38.87555666666667, "rental_uris": {"ios": "https://dc.lft.to/lastmile_qr_scan", "android": "https://dc.lft.to/lastmile_qr_scan"}, "is_reserved": 0, "fusion_lon": 0.0, "fusion_lat": 0.0, "lon": -76.96510066666667, "name": "fc21ebbef23cd01ddaecdf2539be57eb"}, {"bike_id": "e6ed5d4e6b252016e7a50570653f5113", "type": "electric_scooter", "is_disabled": 0, "lat": 38.91044133333333, "rental_uris": {"ios": "https://dc.lft.to/lastmile_qr_scan", "android": "https://dc.lft.to/lastmile_qr_scan"}, "is_reserved": 0, "fusion_lon": 0.0, "fusion_lat": 0.0, "lon": -77.033524, "name": "e6ed5d4e6b252016e7a50570653f5113"}, {"bike_id": "310d37662c15b078e6d9101dc8bf247c", "type": "electric_scooter", "is_disabled": 0, "lat": 38.90734333333333, "rental_uris": {"ios": "https://dc.lft.to/lastmile_qr_scan", "android": "https://dc.lft.to/lastmile_qr_scan"}, "is_reserved": 0, "fusion_lon": 0.0, "fusion_lat": 0.0, "lon": -76.9991295, "name": "310d37662c15b078e6d9101dc8bf247c"}, {"bike_id": "d9dec4614e80bfeff6273b02e1767faa", "type": "electric_scooter", "is_disabled": 0, "lat": 38.894757166666665, "rental_uris": {"ios": "https://dc.lft.to/lastmile_qr_scan", "android": "https://dc.lft.to/lastmile_qr_scan"}, "is_reserved": 0, "fusion_lon": 0.0, "fusion_lat": 0.0, "lon": -76.94860916666667, "name": "d9dec4614e80bfeff6273b02e1767faa"}, {"bike_id": "64948840853dd6a4de02bd2fa449e783", "type": "electric_scooter", "is_disabled": 0, "lat": 38.912394166666665, "rental_uris": {"ios": "https://dc.lft.to/lastmile_qr_scan", "android": "https://dc.lft.to/lastmile_qr_scan"}, "is_reserved": 0, "fusion_lon": 0.0, "fusion_lat": 0.0, "lon": -77.03860683333333, "name": "64948840853dd6a4de02bd2fa449e783"}, {"bike_id": "581a18befe0240c2d932839a3e3abbf8", "type": "electric_scooter", "is_disabled": 0, "lat": 38.9079495, "rental_uris": {"ios": "https://dc.lft.to/lastmile_qr_scan", "android": "https://dc.lft.to/lastmile_qr_scan"}, "is_reserved": 0, "fusion_lon": 0.0, "fusion_lat": 0.0, "lon": -77.03427316666667, "name": "581a18befe0240c2d932839a3e3abbf8"}, {"bike_id": "3f4fcc1af1352141d579a7a6947f877b", "type": "electric_scooter", "is_disabled": 0, "lat": 38.915719833333334, "rental_uris": {"ios": "https://dc.lft.to/lastmile_qr_scan", "android": "https://dc.lft.to/lastmile_qr_scan"}, "is_reserved": 0, "fusion_lon": 0.0, "fusion_lat": 0.0, "lon": -77.03186233333334, "name": "3f4fcc1af1352141d579a7a6947f877b"}, {"bike_id": "fb5b5c37c4974bf03ef17217f5747061", "type": "electric_scooter", "is_disabled": 0, "lat": 38.90723716666667, "rental_uris": {"ios": "https://dc.lft.to/lastmile_qr_scan", "android": "https://dc.lft.to/lastmile_qr_scan"}, "is_reserved": 0, "fusion_lon": 0.0, "fusion_lat": 0.0, "lon": -77.02316916666666, "name": "fb5b5c37c4974bf03ef17217f5747061"}, {"bike_id": "ef8c6a8e743d823352734e4f123c580c", "type": "electric_scooter", "is_disabled": 0, "lat": 38.877899666666664, "rental_uris": {"ios": "https://dc.lft.to/lastmile_qr_scan", "android": "https://dc.lft.to/lastmile_qr_scan"}, "is_reserved": 0, "fusion_lon": 0.0, "fusion_lat": 0.0, "lon": -76.93082833333334, "name": "ef8c6a8e743d823352734e4f123c580c"}, {"bike_id": "e3cf01fe83095bd8ddcea2d278cee29a", "type": "electric_scooter", "is_disabled": 0, "lat": 38.902680333333336, "rental_uris": {"ios": "https://dc.lft.to/lastmile_qr_scan", "android": "https://dc.lft.to/lastmile_qr_scan"}, "is_reserved": 0, "fusion_lon": 0.0, "fusion_lat": 0.0, "lon": -77.05481433333334, "name": "e3cf01fe83095bd8ddcea2d278cee29a"}, {"bike_id": "8b9d56c261f5c0959cd67dc8917bece4", "type": "electric_scooter", "is_disabled": 0, "lat": 38.93510783333333, "rental_uris": {"ios": "https://dc.lft.to/lastmile_qr_scan", "android": "https://dc.lft.to/lastmile_qr_scan"}, "is_reserved": 0, "fusion_lon": 0.0, "fusion_lat": 0.0, "lon": -77.0584455, "name": "8b9d56c261f5c0959cd67dc8917bece4"}, {"bike_id": "a5699d76349c8b10f0a3aa3fc9f76598", "type": "electric_scooter", "is_disabled": 0, "lat": 38.89841083333334, "rental_uris": {"ios": "https://dc.lft.to/lastmile_qr_scan", "android": "https://dc.lft.to/lastmile_qr_scan"}, "is_reserved": 0, "fusion_lon": 0.0, "fusion_lat": 0.0, "lon": -76.94633983333334, "name": "a5699d76349c8b10f0a3aa3fc9f76598"}, {"bike_id": "abe878d1afdfdcb35eb3f26369ad5fc7", "type": "electric_scooter", "is_disabled": 0, "lat": 38.89539416666667, "rental_uris": {"ios": "https://dc.lft.to/lastmile_qr_scan", "android": "https://dc.lft.to/lastmile_qr_scan"}, "is_reserved": 0, "fusion_lon": 0.0, "fusion_lat": 0.0, "lon": -77.03983666666667, "name": "abe878d1afdfdcb35eb3f26369ad5fc7"}, {"bike_id": "07d4e02a390393a78bcdbec18fabb0b2", "type": "electric_scooter", "is_disabled": 0, "lat": 38.9234085, "rental_uris": {"ios": "https://dc.lft.to/lastmile_qr_scan", "android": "https://dc.lft.to/lastmile_qr_scan"}, "is_reserved": 0, "fusion_lon": 0.0, "fusion_lat": 0.0, "lon": -77.033548, "name": "07d4e02a390393a78bcdbec18fabb0b2"}, {"bike_id": "0b1f0216951ad595e5ba8547642ca86c", "type": "electric_scooter", "is_disabled": 0, "lat": 38.906841666666665, "rental_uris": {"ios": "https://dc.lft.to/lastmile_qr_scan", "android": "https://dc.lft.to/lastmile_qr_scan"}, "is_reserved": 0, "fusion_lon": 0.0, "fusion_lat": 0.0, "lon": -77.05324116666667, "name": "0b1f0216951ad595e5ba8547642ca86c"}, {"bike_id": "f9d42710a00cc2619a4f73101564501f", "type": "electric_bike", "is_disabled": 0, "lat": 38.809070166666665, "rental_uris": {"ios": "https://dc.lft.to/lastmile_qr_scan", "android": "https://dc.lft.to/lastmile_qr_scan"}, "is_reserved": 0, "fusion_lon": 0.0, "fusion_lat": 0.0, "lon": -77.0865875, "name": "f9d42710a00cc2619a4f73101564501f"}, {"bike_id": "15740549dcc3ab70948e3b532b402786", "type": "electric_scooter", "is_disabled": 0, "lat": 38.92088416666667, "rental_uris": {"ios": "https://dc.lft.to/lastmile_qr_scan", "android": "https://dc.lft.to/lastmile_qr_scan"}, "is_reserved": 0, "fusion_lon": 0.0, "fusion_lat": 0.0, "lon": -77.025391, "name": "15740549dcc3ab70948e3b532b402786"}, {"bike_id": "8f8691bca1232411f366de3a37d52cb1", "type": "electric_scooter", "is_disabled": 0, "lat": 38.904938666666666, "rental_uris": {"ios": "https://dc.lft.to/lastmile_qr_scan", "android": "https://dc.lft.to/lastmile_qr_scan"}, "is_reserved": 0, "fusion_lon": 0.0, "fusion_lat": 0.0, "lon": -77.0281545, "name": "8f8691bca1232411f366de3a37d52cb1"}, {"bike_id": "0ff47bc8f0eaa3d0f690f3f2814f82dc", "type": "electric_scooter", "is_disabled": 0, "lat": 38.92424783333333, "rental_uris": {"ios": "https://dc.lft.to/lastmile_qr_scan", "android": "https://dc.lft.to/lastmile_qr_scan"}, "is_reserved": 0, "fusion_lon": 0.0, "fusion_lat": 0.0, "lon": -77.02970816666667, "name": "0ff47bc8f0eaa3d0f690f3f2814f82dc"}, {"bike_id": "9a077f814a29b59086dd724a4044d310", "type": "electric_bike", "is_disabled": 0, "lat": 38.91111133333333, "rental_uris": {"ios": "https://dc.lft.to/lastmile_qr_scan", "android": "https://dc.lft.to/lastmile_qr_scan"}, "is_reserved": 0, "fusion_lon": 0.0, "fusion_lat": 0.0, "lon": -77.032531, "name": "9a077f814a29b59086dd724a4044d310"}, {"bike_id": "10a65489d4843108d6bdb749d5d4a60e", "type": "electric_scooter", "is_disabled": 0, "lat": 38.916754833333336, "rental_uris": {"ios": "https://dc.lft.to/lastmile_qr_scan", "android": "https://dc.lft.to/lastmile_qr_scan"}, "is_reserved": 0, "fusion_lon": 0.0, "fusion_lat": 0.0, "lon": -77.02977933333334, "name": "10a65489d4843108d6bdb749d5d4a60e"}, {"bike_id": "64690a994a2041e8e5adb0a282e4c428", "type": "electric_scooter", "is_disabled": 0, "lat": 38.898826166666666, "rental_uris": {"ios": "https://dc.lft.to/lastmile_qr_scan", "android": "https://dc.lft.to/lastmile_qr_scan"}, "is_reserved": 0, "fusion_lon": 0.0, "fusion_lat": 0.0, "lon": -76.93178216666666, "name": "64690a994a2041e8e5adb0a282e4c428"}, {"bike_id": "0fa7953315425ca624de979a9ad44b86", "type": "electric_scooter", "is_disabled": 0, "lat": 38.90280633333333, "rental_uris": {"ios": "https://dc.lft.to/lastmile_qr_scan", "android": "https://dc.lft.to/lastmile_qr_scan"}, "is_reserved": 0, "fusion_lon": 0.0, "fusion_lat": 0.0, "lon": -77.0034275, "name": "0fa7953315425ca624de979a9ad44b86"}, {"bike_id": "71abb3a5167719ef6476ee7fd83912f5", "type": "electric_scooter", "is_disabled": 0, "lat": 38.908112333333335, "rental_uris": {"ios": "https://dc.lft.to/lastmile_qr_scan", "android": "https://dc.lft.to/lastmile_qr_scan"}, "is_reserved": 0, "fusion_lon": 0.0, "fusion_lat": 0.0, "lon": -77.0637525, "name": "71abb3a5167719ef6476ee7fd83912f5"}, {"bike_id": "bbd7e2bf85dad6b64ea9afbf70a01ef2", "type": "electric_scooter", "is_disabled": 0, "lat": 38.93371633333334, "rental_uris": {"ios": "https://dc.lft.to/lastmile_qr_scan", "android": "https://dc.lft.to/lastmile_qr_scan"}, "is_reserved": 0, "fusion_lon": 0.0, "fusion_lat": 0.0, "lon": -77.057384, "name": "bbd7e2bf85dad6b64ea9afbf70a01ef2"}, {"bike_id": "1ffe7ae0bbbbd42606a7eedab0f6c02f", "type": "electric_scooter", "is_disabled": 0, "lat": 38.9258115, "rental_uris": {"ios": "https://dc.lft.to/lastmile_qr_scan", "android": "https://dc.lft.to/lastmile_qr_scan"}, "is_reserved": 0, "fusion_lon": 0.0, "fusion_lat": 0.0, "lon": -77.0305385, "name": "1ffe7ae0bbbbd42606a7eedab0f6c02f"}, {"bike_id": "729a9c9f75dbb4e977000d2751aa4b1b", "type": "electric_scooter", "is_disabled": 0, "lat": 38.931300666666665, "rental_uris": {"ios": "https://dc.lft.to/lastmile_qr_scan", "android": "https://dc.lft.to/lastmile_qr_scan"}, "is_reserved": 0, "fusion_lon": 0.0, "fusion_lat": 0.0, "lon": -76.99577783333334, "name": "729a9c9f75dbb4e977000d2751aa4b1b"}, {"bike_id": "1549217485ace1b5eaf123cdc39bb754", "type": "electric_scooter", "is_disabled": 0, "lat": 38.94434916666667, "rental_uris": {"ios": "https://dc.lft.to/lastmile_qr_scan", "android": "https://dc.lft.to/lastmile_qr_scan"}, "is_reserved": 0, "fusion_lon": 0.0, "fusion_lat": 0.0, "lon": -77.01456983333334, "name": "1549217485ace1b5eaf123cdc39bb754"}, {"bike_id": "3d15adb84ca2a6b404a8d9bbeca19832", "type": "electric_scooter", "is_disabled": 0, "lat": 38.902808666666665, "rental_uris": {"ios": "https://dc.lft.to/lastmile_qr_scan", "android": "https://dc.lft.to/lastmile_qr_scan"}, "is_reserved": 0, "fusion_lon": 0.0, "fusion_lat": 0.0, "lon": -77.017455, "name": "3d15adb84ca2a6b404a8d9bbeca19832"}, {"bike_id": "150c3909058698aa40ca9656366a8090", "type": "electric_bike", "is_disabled": 0, "lat": 39.052795, "rental_uris": {"ios": "https://dc.lft.to/lastmile_qr_scan", "android": "https://dc.lft.to/lastmile_qr_scan"}, "is_reserved": 0, "fusion_lon": 0.0, "fusion_lat": 0.0, "lon": -77.0807655, "name": "150c3909058698aa40ca9656366a8090"}, {"bike_id": "f832cc13c2e2b3cce79e62c0b28becfb", "type": "electric_scooter", "is_disabled": 0, "lat": 38.95617716666667, "rental_uris": {"ios": "https://dc.lft.to/lastmile_qr_scan", "android": "https://dc.lft.to/lastmile_qr_scan"}, "is_reserved": 0, "fusion_lon": 0.0, "fusion_lat": 0.0, "lon": -77.0115635, "name": "f832cc13c2e2b3cce79e62c0b28becfb"}, {"bike_id": "098d5b01031c385af6ab71b8ccf834f0", "type": "electric_scooter", "is_disabled": 0, "lat": 38.91702466666667, "rental_uris": {"ios": "https://dc.lft.to/lastmile_qr_scan", "android": "https://dc.lft.to/lastmile_qr_scan"}, "is_reserved": 0, "fusion_lon": 0.0, "fusion_lat": 0.0, "lon": -77.00658083333333, "name": "098d5b01031c385af6ab71b8ccf834f0"}, {"bike_id": "9e513cbc6ea8d7982c9b69e862b83956", "type": "electric_scooter", "is_disabled": 0, "lat": 38.913135, "rental_uris": {"ios": "https://dc.lft.to/lastmile_qr_scan", "android": "https://dc.lft.to/lastmile_qr_scan"}, "is_reserved": 0, "fusion_lon": 0.0, "fusion_lat": 0.0, "lon": -77.06308633333333, "name": "9e513cbc6ea8d7982c9b69e862b83956"}, {"bike_id": "f4d8c4df07554d79c6107da8baa77806", "type": "electric_scooter", "is_disabled": 0, "lat": 38.91822966666667, "rental_uris": {"ios": "https://dc.lft.to/lastmile_qr_scan", "android": "https://dc.lft.to/lastmile_qr_scan"}, "is_reserved": 0, "fusion_lon": 0.0, "fusion_lat": 0.0, "lon": -77.0494635, "name": "f4d8c4df07554d79c6107da8baa77806"}, {"bike_id": "daf261be1f4f4ec7d5a02609f11af670", "type": "electric_scooter", "is_disabled": 0, "lat": 38.866962, "rental_uris": {"ios": "https://dc.lft.to/lastmile_qr_scan", "android": "https://dc.lft.to/lastmile_qr_scan"}, "is_reserved": 0, "fusion_lon": 0.0, "fusion_lat": 0.0, "lon": -76.9871985, "name": "daf261be1f4f4ec7d5a02609f11af670"}, {"bike_id": "03d422a92558cbef13f456c492dcb3a0", "type": "electric_scooter", "is_disabled": 0, "lat": 38.89715133333333, "rental_uris": {"ios": "https://dc.lft.to/lastmile_qr_scan", "android": "https://dc.lft.to/lastmile_qr_scan"}, "is_reserved": 0, "fusion_lon": 0.0, "fusion_lat": 0.0, "lon": -77.02149116666666, "name": "03d422a92558cbef13f456c492dcb3a0"}, {"bike_id": "e5d24070afeaf37eb6616bd11903cccf", "type": "electric_scooter", "is_disabled": 0, "lat": 38.900165666666666, "rental_uris": {"ios": "https://dc.lft.to/lastmile_qr_scan", "android": "https://dc.lft.to/lastmile_qr_scan"}, "is_reserved": 0, "fusion_lon": 0.0, "fusion_lat": 0.0, "lon": -77.04139466666666, "name": "e5d24070afeaf37eb6616bd11903cccf"}, {"bike_id": "1c81229a23b7996fe74a51a5ab338a8d", "type": "electric_scooter", "is_disabled": 0, "lat": 38.905218166666664, "rental_uris": {"ios": "https://dc.lft.to/lastmile_qr_scan", "android": "https://dc.lft.to/lastmile_qr_scan"}, "is_reserved": 0, "fusion_lon": 0.0, "fusion_lat": 0.0, "lon": -77.06448833333333, "name": "1c81229a23b7996fe74a51a5ab338a8d"}, {"bike_id": "80cdfab9f76d08208f0145657d2e8dd3", "type": "electric_scooter", "is_disabled": 0, "lat": 38.936392833333336, "rental_uris": {"ios": "https://dc.lft.to/lastmile_qr_scan", "android": "https://dc.lft.to/lastmile_qr_scan"}, "is_reserved": 0, "fusion_lon": 0.0, "fusion_lat": 0.0, "lon": -77.05888916666666, "name": "80cdfab9f76d08208f0145657d2e8dd3"}, {"bike_id": "60b4e5a764220c06a52626d5c00fd19a", "type": "electric_scooter", "is_disabled": 0, "lat": 38.914014333333334, "rental_uris": {"ios": "https://dc.lft.to/lastmile_qr_scan", "android": "https://dc.lft.to/lastmile_qr_scan"}, "is_reserved": 0, "fusion_lon": 0.0, "fusion_lat": 0.0, "lon": -77.032686, "name": "60b4e5a764220c06a52626d5c00fd19a"}, {"bike_id": "766139bc80dbc53bf60bcadc5d39d823", "type": "electric_scooter", "is_disabled": 0, "lat": 38.9421115, "rental_uris": {"ios": "https://dc.lft.to/lastmile_qr_scan", "android": "https://dc.lft.to/lastmile_qr_scan"}, "is_reserved": 0, "fusion_lon": 0.0, "fusion_lat": 0.0, "lon": -77.0258595, "name": "766139bc80dbc53bf60bcadc5d39d823"}, {"bike_id": "18d28d3d4e94271acd5ac649e374bfb0", "type": "electric_scooter", "is_disabled": 0, "lat": 38.91263933333333, "rental_uris": {"ios": "https://dc.lft.to/lastmile_qr_scan", "android": "https://dc.lft.to/lastmile_qr_scan"}, "is_reserved": 0, "fusion_lon": 0.0, "fusion_lat": 0.0, "lon": -77.01462033333334, "name": "18d28d3d4e94271acd5ac649e374bfb0"}, {"bike_id": "feda8d431ce2fcbcbbae9407c07dd674", "type": "electric_scooter", "is_disabled": 0, "lat": 38.92976733333333, "rental_uris": {"ios": "https://dc.lft.to/lastmile_qr_scan", "android": "https://dc.lft.to/lastmile_qr_scan"}, "is_reserved": 0, "fusion_lon": 0.0, "fusion_lat": 0.0, "lon": -77.0326785, "name": "feda8d431ce2fcbcbbae9407c07dd674"}, {"bike_id": "06cc63dd9f31fea09c5e2ad9db089e83", "type": "electric_scooter", "is_disabled": 0, "lat": 38.92481683333333, "rental_uris": {"ios": "https://dc.lft.to/lastmile_qr_scan", "android": "https://dc.lft.to/lastmile_qr_scan"}, "is_reserved": 0, "fusion_lon": 0.0, "fusion_lat": 0.0, "lon": -77.02722116666666, "name": "06cc63dd9f31fea09c5e2ad9db089e83"}, {"bike_id": "f13e266fd7fd7b3b107efca7ecb85e07", "type": "electric_scooter", "is_disabled": 0, "lat": 38.911717, "rental_uris": {"ios": "https://dc.lft.to/lastmile_qr_scan", "android": "https://dc.lft.to/lastmile_qr_scan"}, "is_reserved": 0, "fusion_lon": 0.0, "fusion_lat": 0.0, "lon": -77.03181666666667, "name": "f13e266fd7fd7b3b107efca7ecb85e07"}, {"bike_id": "f339eefd353e043cca66697615c71a3b", "type": "electric_scooter", "is_disabled": 0, "lat": 38.905310666666665, "rental_uris": {"ios": "https://dc.lft.to/lastmile_qr_scan", "android": "https://dc.lft.to/lastmile_qr_scan"}, "is_reserved": 0, "fusion_lon": 0.0, "fusion_lat": 0.0, "lon": -77.05680816666667, "name": "f339eefd353e043cca66697615c71a3b"}, {"bike_id": "d3dd51cc7dcfc86cf04c3ca6d5b5870f", "type": "electric_scooter", "is_disabled": 0, "lat": 38.924884, "rental_uris": {"ios": "https://dc.lft.to/lastmile_qr_scan", "android": "https://dc.lft.to/lastmile_qr_scan"}, "is_reserved": 0, "fusion_lon": 0.0, "fusion_lat": 0.0, "lon": -77.0576235, "name": "d3dd51cc7dcfc86cf04c3ca6d5b5870f"}, {"bike_id": "15037c8dbb35a788938997120e1c82c5", "type": "electric_scooter", "is_disabled": 0, "lat": 38.9234065, "rental_uris": {"ios": "https://dc.lft.to/lastmile_qr_scan", "android": "https://dc.lft.to/lastmile_qr_scan"}, "is_reserved": 0, "fusion_lon": 0.0, "fusion_lat": 0.0, "lon": -77.05100883333333, "name": "15037c8dbb35a788938997120e1c82c5"}, {"bike_id": "5f45b3627593ca19d269de150d85cde4", "type": "electric_scooter", "is_disabled": 0, "lat": 38.90877, "rental_uris": {"ios": "https://dc.lft.to/lastmile_qr_scan", "android": "https://dc.lft.to/lastmile_qr_scan"}, "is_reserved": 0, "fusion_lon": 0.0, "fusion_lat": 0.0, "lon": -77.00275133333334, "name": "5f45b3627593ca19d269de150d85cde4"}, {"bike_id": "47c36b22369b8cbf8daffda741600f19", "type": "electric_scooter", "is_disabled": 0, "lat": 38.91000433333333, "rental_uris": {"ios": "https://dc.lft.to/lastmile_qr_scan", "android": "https://dc.lft.to/lastmile_qr_scan"}, "is_reserved": 0, "fusion_lon": 0.0, "fusion_lat": 0.0, "lon": -77.05275183333333, "name": "47c36b22369b8cbf8daffda741600f19"}, {"bike_id": "86b40501acc83f944cdd0138a6d0eeda", "type": "electric_scooter", "is_disabled": 0, "lat": 38.927366666666664, "rental_uris": {"ios": "https://dc.lft.to/lastmile_qr_scan", "android": "https://dc.lft.to/lastmile_qr_scan"}, "is_reserved": 0, "fusion_lon": 0.0, "fusion_lat": 0.0, "lon": -77.03444733333333, "name": "86b40501acc83f944cdd0138a6d0eeda"}, {"bike_id": "73db00cf7fc3318dbf51990ffa9422ec", "type": "electric_scooter", "is_disabled": 0, "lat": 38.866659166666665, "rental_uris": {"ios": "https://dc.lft.to/lastmile_qr_scan", "android": "https://dc.lft.to/lastmile_qr_scan"}, "is_reserved": 0, "fusion_lon": 0.0, "fusion_lat": 0.0, "lon": -77.01080333333333, "name": "73db00cf7fc3318dbf51990ffa9422ec"}, {"bike_id": "54562171021c19b50085c75780f134d1", "type": "electric_scooter", "is_disabled": 0, "lat": 38.931878833333336, "rental_uris": {"ios": "https://dc.lft.to/lastmile_qr_scan", "android": "https://dc.lft.to/lastmile_qr_scan"}, "is_reserved": 0, "fusion_lon": 0.0, "fusion_lat": 0.0, "lon": -77.0202325, "name": "54562171021c19b50085c75780f134d1"}, {"bike_id": "c06a71aaeb2ef0ce98ce651baa9b6abe", "type": "electric_scooter", "is_disabled": 0, "lat": 38.914177, "rental_uris": {"ios": "https://dc.lft.to/lastmile_qr_scan", "android": "https://dc.lft.to/lastmile_qr_scan"}, "is_reserved": 0, "fusion_lon": 0.0, "fusion_lat": 0.0, "lon": -77.03174816666667, "name": "c06a71aaeb2ef0ce98ce651baa9b6abe"}, {"bike_id": "756ecb9f500f18d73c2df04a84a2dc8c", "type": "electric_scooter", "is_disabled": 0, "lat": 38.90867266666667, "rental_uris": {"ios": "https://dc.lft.to/lastmile_qr_scan", "android": "https://dc.lft.to/lastmile_qr_scan"}, "is_reserved": 0, "fusion_lon": 0.0, "fusion_lat": 0.0, "lon": -77.02711583333334, "name": "756ecb9f500f18d73c2df04a84a2dc8c"}, {"bike_id": "4b06d9ca8c7fbfc2c8e557cf8d6405f9", "type": "electric_scooter", "is_disabled": 0, "lat": 38.91400933333333, "rental_uris": {"ios": "https://dc.lft.to/lastmile_qr_scan", "android": "https://dc.lft.to/lastmile_qr_scan"}, "is_reserved": 0, "fusion_lon": 0.0, "fusion_lat": 0.0, "lon": -77.04551816666667, "name": "4b06d9ca8c7fbfc2c8e557cf8d6405f9"}, {"bike_id": "f08775040f9e8f975efcde6f4da87cdd", "type": "electric_scooter", "is_disabled": 0, "lat": 38.93045933333333, "rental_uris": {"ios": "https://dc.lft.to/lastmile_qr_scan", "android": "https://dc.lft.to/lastmile_qr_scan"}, "is_reserved": 0, "fusion_lon": 0.0, "fusion_lat": 0.0, "lon": -77.02353566666666, "name": "f08775040f9e8f975efcde6f4da87cdd"}, {"bike_id": "2a77924b3b887da8bbbeb2eac238e268", "type": "electric_scooter", "is_disabled": 0, "lat": 38.865021666666664, "rental_uris": {"ios": "https://dc.lft.to/lastmile_qr_scan", "android": "https://dc.lft.to/lastmile_qr_scan"}, "is_reserved": 0, "fusion_lon": 0.0, "fusion_lat": 0.0, "lon": -76.99004233333334, "name": "2a77924b3b887da8bbbeb2eac238e268"}, {"bike_id": "5e5b31fe53e375c8986438f9222764e8", "type": "electric_scooter", "is_disabled": 0, "lat": 38.880771, "rental_uris": {"ios": "https://dc.lft.to/lastmile_qr_scan", "android": "https://dc.lft.to/lastmile_qr_scan"}, "is_reserved": 0, "fusion_lon": 0.0, "fusion_lat": 0.0, "lon": -76.99510316666667, "name": "5e5b31fe53e375c8986438f9222764e8"}, {"bike_id": "6bb149d1269fecd9d17a00375637f8d5", "type": "electric_scooter", "is_disabled": 0, "lat": 38.9147945, "rental_uris": {"ios": "https://dc.lft.to/lastmile_qr_scan", "android": "https://dc.lft.to/lastmile_qr_scan"}, "is_reserved": 0, "fusion_lon": 0.0, "fusion_lat": 0.0, "lon": -77.01326966666667, "name": "6bb149d1269fecd9d17a00375637f8d5"}, {"bike_id": "30af49005bb5d33006720e8edc4871e7", "type": "electric_bike", "is_disabled": 0, "lat": 38.853542166666664, "rental_uris": {"ios": "https://dc.lft.to/lastmile_qr_scan", "android": "https://dc.lft.to/lastmile_qr_scan"}, "is_reserved": 0, "fusion_lon": 0.0, "fusion_lat": 0.0, "lon": -77.08687883333333, "name": "30af49005bb5d33006720e8edc4871e7"}, {"bike_id": "bc9d3ed8341df20dd06c63561756d9d4", "type": "electric_scooter", "is_disabled": 0, "lat": 38.862019, "rental_uris": {"ios": "https://dc.lft.to/lastmile_qr_scan", "android": "https://dc.lft.to/lastmile_qr_scan"}, "is_reserved": 0, "fusion_lon": 0.0, "fusion_lat": 0.0, "lon": -76.99465733333334, "name": "bc9d3ed8341df20dd06c63561756d9d4"}, {"bike_id": "84c47b09a328dbba60ea82ecbf9cebf9", "type": "electric_scooter", "is_disabled": 0, "lat": 38.909664166666666, "rental_uris": {"ios": "https://dc.lft.to/lastmile_qr_scan", "android": "https://dc.lft.to/lastmile_qr_scan"}, "is_reserved": 0, "fusion_lon": 0.0, "fusion_lat": 0.0, "lon": -77.0229715, "name": "84c47b09a328dbba60ea82ecbf9cebf9"}, {"bike_id": "9af32c4cc95a04e054bb59c7f64cb49b", "type": "electric_scooter", "is_disabled": 0, "lat": 38.86694816666667, "rental_uris": {"ios": "https://dc.lft.to/lastmile_qr_scan", "android": "https://dc.lft.to/lastmile_qr_scan"}, "is_reserved": 0, "fusion_lon": 0.0, "fusion_lat": 0.0, "lon": -76.987116, "name": "9af32c4cc95a04e054bb59c7f64cb49b"}, {"bike_id": "ea217e611c7666490f0f6fe14e7f5d5b", "type": "electric_scooter", "is_disabled": 0, "lat": 38.938187166666665, "rental_uris": {"ios": "https://dc.lft.to/lastmile_qr_scan", "android": "https://dc.lft.to/lastmile_qr_scan"}, "is_reserved": 0, "fusion_lon": 0.0, "fusion_lat": 0.0, "lon": -77.02719916666666, "name": "ea217e611c7666490f0f6fe14e7f5d5b"}, {"bike_id": "3d7942731f44a74990ce343514a6fee5", "type": "electric_scooter", "is_disabled": 0, "lat": 38.91331983333333, "rental_uris": {"ios": "https://dc.lft.to/lastmile_qr_scan", "android": "https://dc.lft.to/lastmile_qr_scan"}, "is_reserved": 0, "fusion_lon": 0.0, "fusion_lat": 0.0, "lon": -77.03176916666666, "name": "3d7942731f44a74990ce343514a6fee5"}, {"bike_id": "8b956f7fe38937f1efdcb9b54b74e018", "type": "electric_scooter", "is_disabled": 0, "lat": 38.92507716666667, "rental_uris": {"ios": "https://dc.lft.to/lastmile_qr_scan", "android": "https://dc.lft.to/lastmile_qr_scan"}, "is_reserved": 0, "fusion_lon": 0.0, "fusion_lat": 0.0, "lon": -77.00890733333334, "name": "8b956f7fe38937f1efdcb9b54b74e018"}, {"bike_id": "df59c839cd3ee6ba68d559bd28ca4057", "type": "electric_scooter", "is_disabled": 0, "lat": 38.918258333333334, "rental_uris": {"ios": "https://dc.lft.to/lastmile_qr_scan", "android": "https://dc.lft.to/lastmile_qr_scan"}, "is_reserved": 0, "fusion_lon": 0.0, "fusion_lat": 0.0, "lon": -77.04565366666667, "name": "df59c839cd3ee6ba68d559bd28ca4057"}, {"bike_id": "a86e1e5a60e0ba8da2e38ba6b623a6ed", "type": "electric_scooter", "is_disabled": 0, "lat": 38.908445, "rental_uris": {"ios": "https://dc.lft.to/lastmile_qr_scan", "android": "https://dc.lft.to/lastmile_qr_scan"}, "is_reserved": 0, "fusion_lon": 0.0, "fusion_lat": 0.0, "lon": -76.99951083333333, "name": "a86e1e5a60e0ba8da2e38ba6b623a6ed"}, {"bike_id": "54c502d16efdf8c851696dfd562e8ad6", "type": "electric_scooter", "is_disabled": 0, "lat": 38.9312875, "rental_uris": {"ios": "https://dc.lft.to/lastmile_qr_scan", "android": "https://dc.lft.to/lastmile_qr_scan"}, "is_reserved": 0, "fusion_lon": 0.0, "fusion_lat": 0.0, "lon": -77.05725716666667, "name": "54c502d16efdf8c851696dfd562e8ad6"}, {"bike_id": "2dd1c733acade4b718d95a77b66c9e8e", "type": "electric_scooter", "is_disabled": 0, "lat": 38.86671916666667, "rental_uris": {"ios": "https://dc.lft.to/lastmile_qr_scan", "android": "https://dc.lft.to/lastmile_qr_scan"}, "is_reserved": 0, "fusion_lon": 0.0, "fusion_lat": 0.0, "lon": -76.98529566666667, "name": "2dd1c733acade4b718d95a77b66c9e8e"}, {"bike_id": "e38033713599721b5d21f871b45fab7f", "type": "electric_scooter", "is_disabled": 0, "lat": 38.92397483333333, "rental_uris": {"ios": "https://dc.lft.to/lastmile_qr_scan", "android": "https://dc.lft.to/lastmile_qr_scan"}, "is_reserved": 0, "fusion_lon": 0.0, "fusion_lat": 0.0, "lon": -77.05063333333334, "name": "e38033713599721b5d21f871b45fab7f"}, {"bike_id": "f9db317182acf2dcd1afe8024e0e3887", "type": "electric_scooter", "is_disabled": 0, "lat": 38.86207533333334, "rental_uris": {"ios": "https://dc.lft.to/lastmile_qr_scan", "android": "https://dc.lft.to/lastmile_qr_scan"}, "is_reserved": 0, "fusion_lon": 0.0, "fusion_lat": 0.0, "lon": -76.99477166666667, "name": "f9db317182acf2dcd1afe8024e0e3887"}, {"bike_id": "2c4653f02a3ff4d53f4d3fad06b91c7c", "type": "electric_scooter", "is_disabled": 0, "lat": 38.917276666666666, "rental_uris": {"ios": "https://dc.lft.to/lastmile_qr_scan", "android": "https://dc.lft.to/lastmile_qr_scan"}, "is_reserved": 0, "fusion_lon": 0.0, "fusion_lat": 0.0, "lon": -77.04177, "name": "2c4653f02a3ff4d53f4d3fad06b91c7c"}, {"bike_id": "40950fd992424ed2f636ba26b7103f07", "type": "electric_scooter", "is_disabled": 0, "lat": 38.93370483333333, "rental_uris": {"ios": "https://dc.lft.to/lastmile_qr_scan", "android": "https://dc.lft.to/lastmile_qr_scan"}, "is_reserved": 0, "fusion_lon": 0.0, "fusion_lat": 0.0, "lon": -77.05731316666666, "name": "40950fd992424ed2f636ba26b7103f07"}, {"bike_id": "77c5bf067fcad07a1bf990096e6a9e21", "type": "electric_scooter", "is_disabled": 0, "lat": 38.911069833333336, "rental_uris": {"ios": "https://dc.lft.to/lastmile_qr_scan", "android": "https://dc.lft.to/lastmile_qr_scan"}, "is_reserved": 0, "fusion_lon": 0.0, "fusion_lat": 0.0, "lon": -77.02449183333333, "name": "77c5bf067fcad07a1bf990096e6a9e21"}, {"bike_id": "1cae11be7bd90d226fa51db3468bb853", "type": "electric_scooter", "is_disabled": 0, "lat": 38.927844, "rental_uris": {"ios": "https://dc.lft.to/lastmile_qr_scan", "android": "https://dc.lft.to/lastmile_qr_scan"}, "is_reserved": 0, "fusion_lon": 0.0, "fusion_lat": 0.0, "lon": -77.05263666666667, "name": "1cae11be7bd90d226fa51db3468bb853"}, {"bike_id": "44bb1c146c8ac43ba69a3367c9d4eb67", "type": "electric_scooter", "is_disabled": 0, "lat": 38.903744833333334, "rental_uris": {"ios": "https://dc.lft.to/lastmile_qr_scan", "android": "https://dc.lft.to/lastmile_qr_scan"}, "is_reserved": 0, "fusion_lon": 0.0, "fusion_lat": 0.0, "lon": -77.00890666666666, "name": "44bb1c146c8ac43ba69a3367c9d4eb67"}, {"bike_id": "65ad17a59d7b080268075ef2c106053e", "type": "electric_scooter", "is_disabled": 0, "lat": 38.94713383333333, "rental_uris": {"ios": "https://dc.lft.to/lastmile_qr_scan", "android": "https://dc.lft.to/lastmile_qr_scan"}, "is_reserved": 0, "fusion_lon": 0.0, "fusion_lat": 0.0, "lon": -77.02778033333334, "name": "65ad17a59d7b080268075ef2c106053e"}, {"bike_id": "1e4ce0560bb0f25535ddbce5dc06801f", "type": "electric_scooter", "is_disabled": 0, "lat": 38.90280116666667, "rental_uris": {"ios": "https://dc.lft.to/lastmile_qr_scan", "android": "https://dc.lft.to/lastmile_qr_scan"}, "is_reserved": 0, "fusion_lon": 0.0, "fusion_lat": 0.0, "lon": -77.06123083333334, "name": "1e4ce0560bb0f25535ddbce5dc06801f"}, {"bike_id": "4f957dfeddb01c36cdb8715d51f40b36", "type": "electric_scooter", "is_disabled": 0, "lat": 38.9005635, "rental_uris": {"ios": "https://dc.lft.to/lastmile_qr_scan", "android": "https://dc.lft.to/lastmile_qr_scan"}, "is_reserved": 0, "fusion_lon": 0.0, "fusion_lat": 0.0, "lon": -77.0366215, "name": "4f957dfeddb01c36cdb8715d51f40b36"}, {"bike_id": "a59e3169084b0ec7134295e9ad4bca33", "type": "electric_scooter", "is_disabled": 0, "lat": 38.914071, "rental_uris": {"ios": "https://dc.lft.to/lastmile_qr_scan", "android": "https://dc.lft.to/lastmile_qr_scan"}, "is_reserved": 0, "fusion_lon": 0.0, "fusion_lat": 0.0, "lon": -77.02116916666667, "name": "a59e3169084b0ec7134295e9ad4bca33"}, {"bike_id": "89d76a6ab6e24e7b2b3368267e12c5ea", "type": "electric_scooter", "is_disabled": 0, "lat": 38.933577166666666, "rental_uris": {"ios": "https://dc.lft.to/lastmile_qr_scan", "android": "https://dc.lft.to/lastmile_qr_scan"}, "is_reserved": 0, "fusion_lon": 0.0, "fusion_lat": 0.0, "lon": -77.07313416666666, "name": "89d76a6ab6e24e7b2b3368267e12c5ea"}, {"bike_id": "e3d3ff1a0411aa64acb1def7549eebd7", "type": "electric_scooter", "is_disabled": 0, "lat": 38.8431025, "rental_uris": {"ios": "https://dc.lft.to/lastmile_qr_scan", "android": "https://dc.lft.to/lastmile_qr_scan"}, "is_reserved": 0, "fusion_lon": 0.0, "fusion_lat": 0.0, "lon": -76.99919216666666, "name": "e3d3ff1a0411aa64acb1def7549eebd7"}, {"bike_id": "9c57cd82cba0c725c28107a98e7d80bf", "type": "electric_scooter", "is_disabled": 0, "lat": 38.92880916666667, "rental_uris": {"ios": "https://dc.lft.to/lastmile_qr_scan", "android": "https://dc.lft.to/lastmile_qr_scan"}, "is_reserved": 0, "fusion_lon": 0.0, "fusion_lat": 0.0, "lon": -77.03438983333334, "name": "9c57cd82cba0c725c28107a98e7d80bf"}, {"bike_id": "8b8815a619045f60f8732a084cc693a8", "type": "electric_scooter", "is_disabled": 0, "lat": 38.9309665, "rental_uris": {"ios": "https://dc.lft.to/lastmile_qr_scan", "android": "https://dc.lft.to/lastmile_qr_scan"}, "is_reserved": 0, "fusion_lon": 0.0, "fusion_lat": 0.0, "lon": -77.0266325, "name": "8b8815a619045f60f8732a084cc693a8"}, {"bike_id": "c31a1c2e89e93092c9b358a8eacab7d3", "type": "electric_scooter", "is_disabled": 0, "lat": 38.914048666666666, "rental_uris": {"ios": "https://dc.lft.to/lastmile_qr_scan", "android": "https://dc.lft.to/lastmile_qr_scan"}, "is_reserved": 0, "fusion_lon": 0.0, "fusion_lat": 0.0, "lon": -77.03602033333334, "name": "c31a1c2e89e93092c9b358a8eacab7d3"}, {"bike_id": "203e0c0a125af05a3257c056b022224b", "type": "electric_scooter", "is_disabled": 0, "lat": 38.928203, "rental_uris": {"ios": "https://dc.lft.to/lastmile_qr_scan", "android": "https://dc.lft.to/lastmile_qr_scan"}, "is_reserved": 0, "fusion_lon": 0.0, "fusion_lat": 0.0, "lon": -77.02260583333333, "name": "203e0c0a125af05a3257c056b022224b"}, {"bike_id": "e1656a6d3c068824923bf92dcdd6b18b", "type": "electric_scooter", "is_disabled": 0, "lat": 38.90800216666667, "rental_uris": {"ios": "https://dc.lft.to/lastmile_qr_scan", "android": "https://dc.lft.to/lastmile_qr_scan"}, "is_reserved": 0, "fusion_lon": 0.0, "fusion_lat": 0.0, "lon": -77.0305525, "name": "e1656a6d3c068824923bf92dcdd6b18b"}, {"bike_id": "f2720349c5b365525916917ba3280653", "type": "electric_scooter", "is_disabled": 0, "lat": 38.912772833333335, "rental_uris": {"ios": "https://dc.lft.to/lastmile_qr_scan", "android": "https://dc.lft.to/lastmile_qr_scan"}, "is_reserved": 0, "fusion_lon": 0.0, "fusion_lat": 0.0, "lon": -77.06116616666667, "name": "f2720349c5b365525916917ba3280653"}, {"bike_id": "1a43de13d9c7da495fdc1c7efc974bb5", "type": "electric_scooter", "is_disabled": 0, "lat": 38.92666033333333, "rental_uris": {"ios": "https://dc.lft.to/lastmile_qr_scan", "android": "https://dc.lft.to/lastmile_qr_scan"}, "is_reserved": 0, "fusion_lon": 0.0, "fusion_lat": 0.0, "lon": -77.01475066666667, "name": "1a43de13d9c7da495fdc1c7efc974bb5"}, {"bike_id": "16fbcec634994aa4c53db0d6dd278d6d", "type": "electric_bike", "is_disabled": 0, "lat": 38.86193433333333, "rental_uris": {"ios": "https://dc.lft.to/lastmile_qr_scan", "android": "https://dc.lft.to/lastmile_qr_scan"}, "is_reserved": 0, "fusion_lon": 0.0, "fusion_lat": 0.0, "lon": -76.948104, "name": "16fbcec634994aa4c53db0d6dd278d6d"}, {"bike_id": "40bd799038e568c5d8d3783055028a2f", "type": "electric_scooter", "is_disabled": 0, "lat": 38.88208316666667, "rental_uris": {"ios": "https://dc.lft.to/lastmile_qr_scan", "android": "https://dc.lft.to/lastmile_qr_scan"}, "is_reserved": 0, "fusion_lon": 0.0, "fusion_lat": 0.0, "lon": -76.98924533333333, "name": "40bd799038e568c5d8d3783055028a2f"}, {"bike_id": "684095abb58cfd583c861340d67ec03d", "type": "electric_scooter", "is_disabled": 0, "lat": 38.92371683333333, "rental_uris": {"ios": "https://dc.lft.to/lastmile_qr_scan", "android": "https://dc.lft.to/lastmile_qr_scan"}, "is_reserved": 0, "fusion_lon": 0.0, "fusion_lat": 0.0, "lon": -77.02991983333334, "name": "684095abb58cfd583c861340d67ec03d"}, {"bike_id": "4c3e3e156c32c61b99318981583d8b36", "type": "electric_scooter", "is_disabled": 0, "lat": 38.93845966666667, "rental_uris": {"ios": "https://dc.lft.to/lastmile_qr_scan", "android": "https://dc.lft.to/lastmile_qr_scan"}, "is_reserved": 0, "fusion_lon": 0.0, "fusion_lat": 0.0, "lon": -77.032678, "name": "4c3e3e156c32c61b99318981583d8b36"}, {"bike_id": "092314a6afbf35e68f6a2eb078c2e86c", "type": "electric_scooter", "is_disabled": 0, "lat": 38.913375333333335, "rental_uris": {"ios": "https://dc.lft.to/lastmile_qr_scan", "android": "https://dc.lft.to/lastmile_qr_scan"}, "is_reserved": 0, "fusion_lon": 0.0, "fusion_lat": 0.0, "lon": -77.04229183333334, "name": "092314a6afbf35e68f6a2eb078c2e86c"}, {"bike_id": "d5b9a7d612acd79c8f7beb925e4383d3", "type": "electric_scooter", "is_disabled": 0, "lat": 38.89874, "rental_uris": {"ios": "https://dc.lft.to/lastmile_qr_scan", "android": "https://dc.lft.to/lastmile_qr_scan"}, "is_reserved": 0, "fusion_lon": 0.0, "fusion_lat": 0.0, "lon": -76.93190883333334, "name": "d5b9a7d612acd79c8f7beb925e4383d3"},