{"data": {"bikes": [{"lat": 38.91103866666667, "fusion_lon": 0.0, "fusion_lat": 0.0, "is_disabled": 0, "type": "electric_scooter", "lon": -77.02131816666666, "rental_uris": {"android": "https://dc.lft.to/lastmile_qr_scan", "ios": "https://dc.lft.to/lastmile_qr_scan"}, "is_reserved": 0, "bike_id": "96b044cbc0e2acc899a3b7076b92a5cd", "name": "96b044cbc0e2acc899a3b7076b92a5cd"}, {"lat": 38.90872433333333, "fusion_lon": 0.0, "fusion_lat": 0.0, "is_disabled": 0, "type": "electric_scooter", "lon": -77.03237516666667, "rental_uris": {"android": "https://dc.lft.to/lastmile_qr_scan", "ios": "https://dc.lft.to/lastmile_qr_scan"}, "is_reserved": 0, "bike_id": "7e69915892dfdfe19bbf9a3e79cf3ce3", "name": "7e69915892dfdfe19bbf9a3e79cf3ce3"}, {"lat": 38.9501935, "fusion_lon": 0.0, "fusion_lat": 0.0, "is_disabled": 0, "type": "electric_scooter", "lon": -77.06716866666666, "rental_uris": {"android": "https://dc.lft.to/lastmile_qr_scan", "ios": "https://dc.lft.to/lastmile_qr_scan"}, "is_reserved": 0, "bike_id": "2bc47f1fd7a69f119cca3b4dc606683c", "name": "2bc47f1fd7a69f119cca3b4dc606683c"}, {"lat": 38.907547, "fusion_lon": 0.0, "fusion_lat": 0.0, "is_disabled": 0, "type": "electric_scooter", "lon": -77.0320405, "rental_uris": {"android": "https://dc.lft.to/lastmile_qr_scan", "ios": "https://dc.lft.to/lastmile_qr_scan"}, "is_reserved": 0, "bike_id": "ec2fc57f80e9430c05673433b162b498", "name": "ec2fc57f80e9430c05673433b162b498"}, {"lat": 38.8604705, "fusion_lon": 0.0, "fusion_lat": 0.0, "is_disabled": 0, "type": "electric_scooter", "lon": -76.9849625, "rental_uris": {"android": "https://dc.lft.to/lastmile_qr_scan", "ios": "https://dc.lft.to/lastmile_qr_scan"}, "is_reserved": 0, "bike_id": "d4222dd143e2c80b2bf9b950adb158e4", "name": "d4222dd143e2c80b2bf9b950adb158e4"}, {"lat": 38.858694, "fusion_lon": 0.0, "fusion_lat": 0.0, "is_disabled": 0, "type": "electric_scooter", "lon": -76.99016533333334, "rental_uris": {"android": "https://dc.lft.to/lastmile_qr_scan", "ios": "https://dc.lft.to/lastmile_qr_scan"}, "is_reserved": 0, "bike_id": "12a7881e815e4bb10e3163627b0b1008", "name": "12a7881e815e4bb10e3163627b0b1008"}, {"lat": 38.90252483333333, "fusion_lon": 0.0, "fusion_lat": 0.0, "is_disabled": 0, "type": "electric_scooter", "lon": -77.046926, "rental_uris": {"android": "https://dc.lft.to/lastmile_qr_scan", "ios": "https://dc.lft.to/lastmile_qr_scan"}, "is_reserved": 0, "bike_id": "53acedf7f8284eb1bc02730447097d86", "name": "53acedf7f8284eb1bc02730447097d86"}, {"lat": 38.89226716666667, "fusion_lon": 0.0, "fusion_lat": 0.0, "is_disabled": 0, "type": "electric_scooter", "lon": -77.0254605, "rental_uris": {"android": "https://dc.lft.to/lastmile_qr_scan", "ios": "https://dc.lft.to/lastmile_qr_scan"}, "is_reserved": 0, "bike_id": "3c454fcab6f1f77b1491d891fdab5237", "name": "3c454fcab6f1f77b1491d891fdab5237"}, {"lat": 38.9033735, "fusion_lon": 0.0, "fusion_lat": 0.0, "is_disabled": 0, "type": "electric_scooter", "lon": -77.043413, "rental_uris": {"android": "https://dc.lft.to/lastmile_qr_scan", "ios": "https://dc.lft.to/lastmile_qr_scan"}, "is_reserved": 0, "bike_id": "a3055212aa2a015b63822dfef882153a", "name": "a3055212aa2a015b63822dfef882153a"}, {"lat": 38.914878, "fusion_lon": 0.0, "fusion_lat": 0.0, "is_disabled": 0, "type": "electric_scooter", "lon": -77.0027665, "rental_uris": {"android": "https://dc.lft.to/lastmile_qr_scan", "ios": "https://dc.lft.to/lastmile_qr_scan"}, "is_reserved": 0, "bike_id": "254d5023985e23194aa02152cff26ecd", "name": "254d5023985e23194aa02152cff26ecd"}, {"lat": 38.8834005, "fusion_lon": 0.0, "fusion_lat": 0.0, "is_disabled": 0, "type": "electric_bike", "lon": -77.1828685, "rental_uris": {"android": "https://dc.lft.to/lastmile_qr_scan", "ios": "https://dc.lft.to/lastmile_qr_scan"}, "is_reserved": 0, "bike_id": "c3d259e2a05644856ac2c3f22ae96b45", "name": "c3d259e2a05644856ac2c3f22ae96b45"}, {"lat": 38.9392275, "fusion_lon": 0.0, "fusion_lat": 0.0, "is_disabled": 0, "type": "electric_scooter", "lon": -77.02470616666666, "rental_uris": {"android": "https://dc.lft.to/lastmile_qr_scan", "ios": "https://dc.lft.to/lastmile_qr_scan"}, "is_reserved": 0, "bike_id": "1d39e1d0c733c06fc85e27edb8dd033d", "name": "1d39e1d0c733c06fc85e27edb8dd033d"}, {"lat": 38.921367333333336, "fusion_lon": 0.0, "fusion_lat": 0.0, "is_disabled": 0, "type": "electric_scooter", "lon": -77.00957966666667, "rental_uris": {"android": "https://dc.lft.to/lastmile_qr_scan", "ios": "https://dc.lft.to/lastmile_qr_scan"}, "is_reserved": 0, "bike_id": "a675ef5cb55444eac8a392a7861b5ca4", "name": "a675ef5cb55444eac8a392a7861b5ca4"}, {"lat": 38.90505566666667, "fusion_lon": 0.0, "fusion_lat": 0.0, "is_disabled": 0, "type": "electric_scooter", "lon": -77.03437266666667, "rental_uris": {"android": "https://dc.lft.to/lastmile_qr_scan", "ios": "https://dc.lft.to/lastmile_qr_scan"}, "is_reserved": 0, "bike_id": "7d58c4297e3a9dfd41db695c644ac3c1", "name": "7d58c4297e3a9dfd41db695c644ac3c1"}, {"lat": 38.828738333333334, "fusion_lon": 0.0, "fusion_lat": 0.0, "is_disabled": 0, "type": "electric_bike", "lon": -77.1121875, "rental_uris": {"android": "https://dc.lft.to/lastmile_qr_scan", "ios": "https://dc.lft.to/lastmile_qr_scan"}, "is_reserved": 0, "bike_id": "09d40bb0c4ed216eb6135bd3dcbdb79b", "name": "09d40bb0c4ed216eb6135bd3dcbdb79b"}, {"lat": 38.990936166666664, "fusion_lon": 0.0, "fusion_lat": 0.0, "is_disabled": 0, "type": "electric_bike", "lon": -76.87493516666666, "rental_uris": {"android": "https://dc.lft.to/lastmile_qr_scan", "ios": "https://dc.lft.to/lastmile_qr_scan"}, "is_reserved": 0, "bike_id": "ad021fdc5742c862a6170613c0bde13a", "name": "ad021fdc5742c862a6170613c0bde13a"}, {"lat": 38.912122333333336, "fusion_lon": 0.0, "fusion_lat": 0.0, "is_disabled": 0, "type": "electric_scooter", "lon": -77.038389, "rental_uris": {"android": "https://dc.lft.to/lastmile_qr_scan", "ios": "https://dc.lft.to/lastmile_qr_scan"}, "is_reserved": 0, "bike_id": "053812ec7b7a9a2ce2d03f3de03252f1", "name": "053812ec7b7a9a2ce2d03f3de03252f1"}, {"lat": 38.898860666666664, "fusion_lon": 0.0, "fusion_lat": 0.0, "is_disabled": 0, "type": "electric_scooter", "lon": -76.93160233333333, "rental_uris": {"android": "https://dc.lft.to/lastmile_qr_scan", "ios": "https://dc.lft.to/lastmile_qr_scan"}, "is_reserved": 0, "bike_id": "c85fe68321812b86e7e5169fe5aa328d", "name": "c85fe68321812b86e7e5169fe5aa328d"}, {"lat": 38.8984825, "fusion_lon": 0.0, "fusion_lat": 0.0, "is_disabled": 0, "type": "electric_scooter", "lon": -77.033218, "rental_uris": {"android": "https://dc.lft.to/lastmile_qr_scan", "ios": "https://dc.lft.to/lastmile_qr_scan"}, "is_reserved": 0, "bike_id": "baa552693d9e3c266b4407672e436214", "name": "baa552693d9e3c266b4407672e436214"}, {"lat": 38.8968055, "fusion_lon": 0.0, "fusion_lat": 0.0, "is_disabled": 0, "type": "electric_scooter", "lon": -76.94212366666666, "rental_uris": {"android": "https://dc.lft.to/lastmile_qr_scan", "ios": "https://dc.lft.to/lastmile_qr_scan"}, "is_reserved": 0, "bike_id": "3464e2fe8fe3d32ad276afaa34abec6d", "name": "3464e2fe8fe3d32ad276afaa34abec6d"}, {"lat": 38.876640333333334, "fusion_lon": 0.0, "fusion_lat": 0.0, "is_disabled": 0, "type": "electric_scooter", "lon": -77.01579366666667, "rental_uris": {"android": "https://dc.lft.to/lastmile_qr_scan", "ios": "https://dc.lft.to/lastmile_qr_scan"}, "is_reserved": 0, "bike_id": "e28d4d99e57c79e5814888baf8e448e7", "name": "e28d4d99e57c79e5814888baf8e448e7"}, {"lat": 38.901151, "fusion_lon": 0.0, "fusion_lat": 0.0, "is_disabled": 0, "type": "electric_scooter", "lon": -77.0447905, "rental_uris": {"android": "https://dc.lft.to/lastmile_qr_scan", "ios": "https://dc.lft.to/lastmile_qr_scan"}, "is_reserved": 0, "bike_id": "f1336ec17b9590c248bb339587744c1a", "name": "f1336ec17b9590c248bb339587744c1a"}, {"lat": 38.92781016666667, "fusion_lon": 0.0, "fusion_lat": 0.0, "is_disabled": 0, "type": "electric_scooter", "lon": -77.055915, "rental_uris": {"android": "https://dc.lft.to/lastmile_qr_scan", "ios": "https://dc.lft.to/lastmile_qr_scan"}, "is_reserved": 0, "bike_id": "8dfd2cd0096b7014736a156684f8420b", "name": "8dfd2cd0096b7014736a156684f8420b"}, {"lat": 38.904258, "fusion_lon": 0.0, "fusion_lat": 0.0, "is_disabled": 0, "type": "electric_scooter", "lon": -77.043594, "rental_uris": {"android": "https://dc.lft.to/lastmile_qr_scan", "ios": "https://dc.lft.to/lastmile_qr_scan"}, "is_reserved": 0, "bike_id": "a40d346465d08722408e9aa3be1ebdd5", "name": "a40d346465d08722408e9aa3be1ebdd5"}, {"lat": 38.838109833333334, "fusion_lon": 0.0, "fusion_lat": 0.0, "is_disabled": 0, "type": "electric_bike", "lon": -77.09521333333333, "rental_uris": {"android": "https://dc.lft.to/lastmile_qr_scan", "ios": "https://dc.lft.to/lastmile_qr_scan"}, "is_reserved": 0, "bike_id": "ce3b7ab61058458c15a9cb26df07dd15", "name": "ce3b7ab61058458c15a9cb26df07dd15"}, {"lat": 38.912567, "fusion_lon": 0.0, "fusion_lat": 0.0, "is_disabled": 0, "type": "electric_scooter", "lon": -77.037505, "rental_uris": {"android": "https://dc.lft.to/lastmile_qr_scan", "ios": "https://dc.lft.to/lastmile_qr_scan"}, "is_reserved": 0, "bike_id": "3055f0004b9af8f65fbfa7fbde189918", "name": "3055f0004b9af8f65fbfa7fbde189918"}, {"lat": 38.907829166666666, "fusion_lon": 0.0, "fusion_lat": 0.0, "is_disabled": 0, "type": "electric_scooter", "lon": -77.07171033333333, "rental_uris": {"android": "https://dc.lft.to/lastmile_qr_scan", "ios": "https://dc.lft.to/lastmile_qr_scan"}, "is_reserved": 0, "bike_id": "271ca1f4af85c9786cf5fb9f07c8e096", "name": "271ca1f4af85c9786cf5fb9f07c8e096"}, {"lat": 38.91489266666667, "fusion_lon": 0.0, "fusion_lat": 0.0, "is_disabled": 0, "type": "electric_scooter", "lon": -77.04176916666667, "rental_uris": {"android": "https://dc.lft.to/lastmile_qr_scan", "ios": "https://dc.lft.to/lastmile_qr_scan"}, "is_reserved": 0, "bike_id": "2ae676e5280015bee28bbb0c6a13cdcb", "name": "2ae676e5280015bee28bbb0c6a13cdcb"}, {"lat": 38.90270233333333, "fusion_lon": 0.0, "fusion_lat": 0.0, "is_disabled": 0, "type": "electric_scooter", "lon": -77.00210633333333, "rental_uris": {"android": "https://dc.lft.to/lastmile_qr_scan", "ios": "https://dc.lft.to/lastmile_qr_scan"}, "is_reserved": 0, "bike_id": "2ce2ef59fff80f38548dfca0894655df", "name": "2ce2ef59fff80f38548dfca0894655df"}, {"lat": 38.87707133333333, "fusion_lon": 0.0, "fusion_lat": 0.0, "is_disabled": 0, "type": "electric_scooter", "lon": -77.01729883333333, "rental_uris": {"android": "https://dc.lft.to/lastmile_qr_scan", "ios": "https://dc.lft.to/lastmile_qr_scan"}, "is_reserved": 0, "bike_id": "a4d8ea82b3d2ed8e4a5ed3455386c9ca", "name": "a4d8ea82b3d2ed8e4a5ed3455386c9ca"}, {"lat": 38.92143933333333, "fusion_lon": 0.0, "fusion_lat": 0.0, "is_disabled": 0, "type": "electric_scooter", "lon": -77.0457935, "rental_uris": {"android": "https://dc.lft.to/lastmile_qr_scan", "ios": "https://dc.lft.to/lastmile_qr_scan"}, "is_reserved": 0, "bike_id": "b0c80ea81815a0f57d45e038987961ff", "name": "b0c80ea81815a0f57d45e038987961ff"}, {"lat": 38.89220066666667, "fusion_lon": 0.0, "fusion_lat": 0.0, "is_disabled": 0, "type": "electric_scooter", "lon": -77.02842583333333, "rental_uris": {"android": "https://dc.lft.to/lastmile_qr_scan", "ios": "https://dc.lft.to/lastmile_qr_scan"}, "is_reserved": 0, "bike_id": "7c9f1acbb986bce411ae8fc69acda01b", "name": "7c9f1acbb986bce411ae8fc69acda01b"}, {"lat": 38.926177, "fusion_lon": 0.0, "fusion_lat": 0.0, "is_disabled": 0, "type": "electric_scooter", "lon": -76.99602466666667, "rental_uris": {"android": "https://dc.lft.to/lastmile_qr_scan", "ios": "https://dc.lft.to/lastmile_qr_scan"}, "is_reserved": 0, "bike_id": "3de6b4c692d5565ceb34d8c20eadbf9c", "name": "3de6b4c692d5565ceb34d8c20eadbf9c"}, {"lat": 38.900605, "fusion_lon": 0.0, "fusion_lat": 0.0, "is_disabled": 0, "type": "electric_scooter", "lon": -77.00050833333333, "rental_uris": {"android": "https://dc.lft.to/lastmile_qr_scan", "ios": "https://dc.lft.to/lastmile_qr_scan"}, "is_reserved": 0, "bike_id": "aa40d884f09ec9999813f3f3e22a23ae", "name": "aa40d884f09ec9999813f3f3e22a23ae"}, {"lat": 38.8842125, "fusion_lon": 0.0, "fusion_lat": 0.0, "is_disabled": 0, "type": "electric_scooter", "lon": -76.99543266666667, "rental_uris": {"android": "https://dc.lft.to/lastmile_qr_scan", "ios": "https://dc.lft.to/lastmile_qr_scan"}, "is_reserved": 0, "bike_id": "3eb469ad0e48dca9c5204ef7572ec5e6", "name": "3eb469ad0e48dca9c5204ef7572ec5e6"}, {"lat": 38.934741333333335, "fusion_lon": 0.0, "fusion_lat": 0.0, "is_disabled": 0, "type": "electric_scooter", "lon": -77.06531016666666, "rental_uris": {"android": "https://dc.lft.to/lastmile_qr_scan", "ios": "https://dc.lft.to/lastmile_qr_scan"}, "is_reserved": 0, "bike_id": "01ff915a9b0d4c0a41b21c67c7579106", "name": "01ff915a9b0d4c0a41b21c67c7579106"}, {"lat": 38.89718516666667, "fusion_lon": 0.0, "fusion_lat": 0.0, "is_disabled": 0, "type": "electric_scooter", "lon": -77.02653183333334, "rental_uris": {"android": "https://dc.lft.to/lastmile_qr_scan", "ios": "https://dc.lft.to/lastmile_qr_scan"}, "is_reserved": 0, "bike_id": "20896594addf849e5debccfe895c5b86", "name": "20896594addf849e5debccfe895c5b86"}, {"lat": 38.907216166666664, "fusion_lon": 0.0, "fusion_lat": 0.0, "is_disabled": 0, "type": "electric_scooter", "lon": -77.0076205, "rental_uris": {"android": "https://dc.lft.to/lastmile_qr_scan", "ios": "https://dc.lft.to/lastmile_qr_scan"}, "is_reserved": 0, "bike_id": "2883e0e1b8ba465ef9b44e61f9a08b26", "name": "2883e0e1b8ba465ef9b44e61f9a08b26"}, {"lat": 38.880106, "fusion_lon": 0.0, "fusion_lat": 0.0, "is_disabled": 0, "type": "electric_bike", "lon": -76.915929, "rental_uris": {"android": "https://dc.lft.to/lastmile_qr_scan", "ios": "https://dc.lft.to/lastmile_qr_scan"}, "is_reserved": 0, "bike_id": "722949fe2e9038d0e642dd2f10aec40f", "name": "722949fe2e9038d0e642dd2f10aec40f"}, {"lat": 38.86225783333333, "fusion_lon": 0.0, "fusion_lat": 0.0, "is_disabled": 0, "type": "electric_scooter", "lon": -76.99459733333333, "rental_uris": {"android": "https://dc.lft.to/lastmile_qr_scan", "ios": "https://dc.lft.to/lastmile_qr_scan"}, "is_reserved": 0, "bike_id": "8d81f3f0b14e0eea9ea503d4376ef094", "name": "8d81f3f0b14e0eea9ea503d4376ef094"}, {"lat": 38.84534333333333, "fusion_lon": 0.0, "fusion_lat": 0.0, "is_disabled": 0, "type": "electric_bike", "lon": -76.98785583333333, "rental_uris": {"android": "https://dc.lft.to/lastmile_qr_scan", "ios": "https://dc.lft.to/lastmile_qr_scan"}, "is_reserved": 0, "bike_id": "7e53129224dccf85de093a6d7b69494b", "name": "7e53129224dccf85de093a6d7b69494b"}, {"lat": 38.89764983333333, "fusion_lon": 0.0, "fusion_lat": 0.0, "is_disabled": 0, "type": "electric_scooter", "lon": -77.00340866666667, "rental_uris": {"android": "https://dc.lft.to/lastmile_qr_scan", "ios": "https://dc.lft.to/lastmile_qr_scan"}, "is_reserved": 0, "bike_id": "d3d57dd536a2967006a5e5bed16b4f11", "name": "d3d57dd536a2967006a5e5bed16b4f11"}, {"lat": 38.9337105, "fusion_lon": 0.0, "fusion_lat": 0.0, "is_disabled": 0, "type": "electric_scooter", "lon": -77.05721583333333, "rental_uris": {"android": "https://dc.lft.to/lastmile_qr_scan", "ios": "https://dc.lft.to/lastmile_qr_scan"}, "is_reserved": 0, "bike_id": "c8621defa026aeacf0af5477cc966ba7", "name": "c8621defa026aeacf0af5477cc966ba7"}, {"lat": 38.920049666666664, "fusion_lon": 0.0, "fusion_lat": 0.0, "is_disabled": 0, "type": "electric_scooter", "lon": -76.98537683333333, "rental_uris": {"android": "https://dc.lft.to/lastmile_qr_scan", "ios": "https://dc.lft.to/lastmile_qr_scan"}, "is_reserved": 0, "bike_id": "945f215c362c1ef341b9c4886d5ff4ad", "name": "945f215c362c1ef341b9c4886d5ff4ad"}, {"lat": 38.90529933333333, "fusion_lon": 0.0, "fusion_lat": 0.0, "is_disabled": 0, "type": "electric_scooter", "lon": -77.06223716666666, "rental_uris": {"android": "https://dc.lft.to/lastmile_qr_scan", "ios": "https://dc.lft.to/lastmile_qr_scan"}, "is_reserved": 0, "bike_id": "c49b8a90012fdd3fd9eb9a63a439cb48", "name": "c49b8a90012fdd3fd9eb9a63a439cb48"}, {"lat": 38.9133345, "fusion_lon": 0.0, "fusion_lat": 0.0, "is_disabled": 0, "type": "electric_scooter", "lon": -77.0481615, "rental_uris": {"android": "https://dc.lft.to/lastmile_qr_scan", "ios": "https://dc.lft.to/lastmile_qr_scan"}, "is_reserved": 0, "bike_id": "ceee5cdf3f3ebec548856b4a719d8799", "name": "ceee5cdf3f3ebec548856b4a719d8799"}, {"lat": 38.9945525, "fusion_lon": 0.0, "fusion_lat": 0.0, "is_disabled": 0, "type": "electric_bike", "lon": -76.90817583333333, "rental_uris": {"android": "https://dc.lft.to/lastmile_qr_scan", "ios": "https://dc.lft.to/lastmile_qr_scan"}, "is_reserved": 0, "bike_id": "047c0e52561ee63a7257d78117242607", "name": "047c0e52561ee63a7257d78117242607"}, {"lat": 38.929771333333335, "fusion_lon": 0.0, "fusion_lat": 0.0, "is_disabled": 0, "type": "electric_scooter", "lon": -77.032065, "rental_uris": {"android": "https://dc.lft.to/lastmile_qr_scan", "ios": "https://dc.lft.to/lastmile_qr_scan"}, "is_reserved": 0, "bike_id": "d8b1f2b7823a7f82827240fe327cae47", "name": "d8b1f2b7823a7f82827240fe327cae47"}, {"lat": 38.89234366666667, "fusion_lon": 0.0, "fusion_lat": 0.0, "is_disabled": 0, "type": "electric_scooter", "lon": -77.02831166666667, "rental_uris": {"android": "https://dc.lft.to/lastmile_qr_scan", "ios": "https://dc.lft.to/lastmile_qr_scan"}, "is_reserved": 0, "bike_id": "9bf8425554eea826f6faa5276f228a0f", "name": "9bf8425554eea826f6faa5276f228a0f"}, {"lat": 38.91697716666667, "fusion_lon": 0.0, "fusion_lat": 0.0, "is_disabled": 0, "type": "electric_scooter", "lon": -77.03343116666667, "rental_uris": {"android": "https://dc.lft.to/lastmile_qr_scan", "ios": "https://dc.lft.to/lastmile_qr_scan"}, "is_reserved": 0, "bike_id": "02b5dee66476824459397ba53be70c89", "name": "02b5dee66476824459397ba53be70c89"}, {"lat": 38.85244816666667, "fusion_lon": 0.0, "fusion_lat": 0.0, "is_disabled": 0, "type": "electric_bike", "lon": -77.11429733333334, "rental_uris": {"android": "https://dc.lft.to/lastmile_qr_scan", "ios": "https://dc.lft.to/lastmile_qr_scan"}, "is_reserved": 0, "bike_id": "fc91eed2b4a2e5f941f37d419e0ef7e8", "name": "fc91eed2b4a2e5f941f37d419e0ef7e8"}, {"lat": 38.89266, "fusion_lon": 0.0, "fusion_lat": 0.0, "is_disabled": 0, "type": "electric_scooter", "lon": -77.02013316666667, "rental_uris": {"android": "https://dc.lft.to/lastmile_qr_scan", "ios": "https://dc.lft.to/lastmile_qr_scan"}, "is_reserved": 0, "bike_id": "988a88e0d55864648394de7edcab1c29", "name": "988a88e0d55864648394de7edcab1c29"}, {"lat": 38.92284883333333, "fusion_lon": 0.0, "fusion_lat": 0.0, "is_disabled": 0, "type": "electric_scooter", "lon": -76.99776966666667, "rental_uris": {"android": "https://dc.lft.to/lastmile_qr_scan", "ios": "https://dc.lft.to/lastmile_qr_scan"}, "is_reserved": 0, "bike_id": "69f4813e467b5b2598f607d3e2dda034", "name": "69f4813e467b5b2598f607d3e2dda034"}, {"lat": 38.9408625, "fusion_lon": 0.0, "fusion_lat": 0.0, "is_disabled": 0, "type": "electric_scooter", "lon": -77.02167066666667, "rental_uris": {"android": "https://dc.lft.to/lastmile_qr_scan", "ios": "https://dc.lft.to/lastmile_qr_scan"}, "is_reserved": 0, "bike_id": "fdfcf484dc9d8dd30569f34479e19b91", "name": "fdfcf484dc9d8dd30569f34479e19b91"}, {"lat": 38.92377366666667, "fusion_lon": 0.0, "fusion_lat": 0.0, "is_disabled": 0, "type": "electric_scooter", "lon": -77.04029966666667, "rental_uris": {"android": "https://dc.lft.to/lastmile_qr_scan", "ios": "https://dc.lft.to/lastmile_qr_scan"}, "is_reserved": 0, "bike_id": "b82a5d2733334d32cbf235a2acd73665", "name": "b82a5d2733334d32cbf235a2acd73665"}, {"lat": 38.905007499999996, "fusion_lon": 0.0, "fusion_lat": 0.0, "is_disabled": 0, "type": "electric_scooter", "lon": -77.04090566666666, "rental_uris": {"android": "https://dc.lft.to/lastmile_qr_scan", "ios": "https://dc.lft.to/lastmile_qr_scan"}, "is_reserved": 0, "bike_id": "6ba5874005ad60b12afa42d45fb074f5", "name": "6ba5874005ad60b12afa42d45fb074f5"}, {"lat": 38.88770566666667, "fusion_lon": 0.0, "fusion_lat": 0.0, "is_disabled": 0, "type": "electric_scooter", "lon": -77.0216865, "rental_uris": {"android": "https://dc.lft.to/lastmile_qr_scan", "ios": "https://dc.lft.to/lastmile_qr_scan"}, "is_reserved": 0, "bike_id": "4eb0fc981f903490b25a722ea491f5ff", "name": "4eb0fc981f903490b25a722ea491f5ff"}, {"lat": 38.90793716666667, "fusion_lon": 0.0, "fusion_lat": 0.0, "is_disabled": 0, "type": "electric_scooter", "lon": -76.99732116666667, "rental_uris": {"android": "https://dc.lft.to/lastmile_qr_scan", "ios": "https://dc.lft.to/lastmile_qr_scan"}, "is_reserved": 0, "bike_id": "5ba4e34d9accbac8be7c8bb303fc1d4f", "name": "5ba4e34d9accbac8be7c8bb303fc1d4f"}, {"lat": 38.87663633333333, "fusion_lon": 0.0, "fusion_lat": 0.0, "is_disabled": 0, "type": "electric_scooter", "lon": -76.99334283333333, "rental_uris": {"android": "https://dc.lft.to/lastmile_qr_scan", "ios": "https://dc.lft.to/lastmile_qr_scan"}, "is_reserved": 0, "bike_id": "c7b259f941fed0421da6bc485436bcdb", "name": "c7b259f941fed0421da6bc485436bcdb"}, {"lat": 38.86476533333333, "fusion_lon": 0.0, "fusion_lat": 0.0, "is_disabled": 0, "type": "electric_scooter", "lon": -76.98361433333334, "rental_uris": {"android": "https://dc.lft.to/lastmile_qr_scan", "ios": "https://dc.lft.to/lastmile_qr_scan"}, "is_reserved": 0, "bike_id": "b9c860309fc2022708ca6faf4e63ab95", "name": "b9c860309fc2022708ca6faf4e63ab95"}, {"lat": 38.904875833333335, "fusion_lon": 0.0, "fusion_lat": 0.0, "is_disabled": 0, "type": "electric_scooter", "lon": -77.0294135, "rental_uris": {"android": "https://dc.lft.to/lastmile_qr_scan", "ios": "https://dc.lft.to/lastmile_qr_scan"}, "is_reserved": 0, "bike_id": "2fc705789003148420fe9a22a0b26772", "name": "2fc705789003148420fe9a22a0b26772"}, {"lat": 38.92815083333333, "fusion_lon": 0.0, "fusion_lat": 0.0, "is_disabled": 0, "type": "electric_scooter", "lon": -77.03375983333333, "rental_uris": {"android": "https://dc.lft.to/lastmile_qr_scan", "ios": "https://dc.lft.to/lastmile_qr_scan"}, "is_reserved": 0, "bike_id": "2d8372391462d2e1b78c728dc1961d27", "name": "2d8372391462d2e1b78c728dc1961d27"}, {"lat": 38.934352833333335, "fusion_lon": 0.0, "fusion_lat": 0.0, "is_disabled": 0, "type": "electric_scooter", "lon": -77.0344475, "rental_uris": {"android": "https://dc.lft.to/lastmile_qr_scan", "ios": "https://dc.lft.to/lastmile_qr_scan"}, "is_reserved": 0, "bike_id": "7df711ef97953912b0a1701fa1fca89a", "name": "7df711ef97953912b0a1701fa1fca89a"}, {"lat": 38.87893533333333, "fusion_lon": 0.0, "fusion_lat": 0.0, "is_disabled": 0, "type": "electric_scooter", "lon": -77.014167, "rental_uris": {"android": "https://dc.lft.to/lastmile_qr_scan", "ios": "https://dc.lft.to/lastmile_qr_scan"}, "is_reserved": 0, "bike_id": "0d1d2fe6c114ebc0183798a36dc63456", "name": "0d1d2fe6c114ebc0183798a36dc63456"}, {"lat": 38.92217083333333, "fusion_lon": 0.0, "fusion_lat": 0.0, "is_disabled": 0, "type": "electric_scooter", "lon": -77.03279716666667, "rental_uris": {"android": "https://dc.lft.to/lastmile_qr_scan", "ios": "https://dc.lft.to/lastmile_qr_scan"}, "is_reserved": 0, "bike_id": "88268613e1bb6a746a095b69c53e59d2", "name": "88268613e1bb6a746a095b69c53e59d2"}, {"lat": 38.900115, "fusion_lon": 0.0, "fusion_lat": 0.0, "is_disabled": 0, "type": "electric_scooter", "lon": -77.0402735, "rental_uris": {"android": "https://dc.lft.to/lastmile_qr_scan", "ios": "https://dc.lft.to/lastmile_qr_scan"}, "is_reserved": 0, "bike_id": "d8fcd303d6eb3d9614cf24ae2196ce20", "name": "d8fcd303d6eb3d9614cf24ae2196ce20"}, {"lat": 38.892273833333334, "fusion_lon": 0.0, "fusion_lat": 0.0, "is_disabled": 0, "type": "electric_bike", "lon": -77.0137335, "rental_uris": {"android": "https://dc.lft.to/lastmile_qr_scan", "ios": "https://dc.lft.to/lastmile_qr_scan"}, "is_reserved": 0, "bike_id": "2befba242fbc987f1526acb3e7d7350a", "name": "2befba242fbc987f1526acb3e7d7350a"}, {"lat": 38.920608333333334, "fusion_lon": 0.0, "fusion_lat": 0.0, "is_disabled": 0, "type": "electric_scooter", "lon": -77.031858, "rental_uris": {"android": "https://dc.lft.to/lastmile_qr_scan", "ios": "https://dc.lft.to/lastmile_qr_scan"}, "is_reserved": 0, "bike_id": "83da488f10aa7ba54793f4b819b8fe58", "name": "83da488f10aa7ba54793f4b819b8fe58"}, {"lat": 38.900368, "fusion_lon": 0.0, "fusion_lat": 0.0, "is_disabled": 0, "type": "electric_scooter", "lon": -76.99619283333334, "rental_uris": {"android": "https://dc.lft.to/lastmile_qr_scan", "ios": "https://dc.lft.to/lastmile_qr_scan"}, "is_reserved": 0, "bike_id": "f25a6d3c842da8068b3dc89110830f84", "name": "f25a6d3c842da8068b3dc89110830f84"}, {"lat": 38.877936, "fusion_lon": 0.0, "fusion_lat": 0.0, "is_disabled": 0, "type": "electric_scooter", "lon": -77.00119516666666, "rental_uris": {"android": "https://dc.lft.to/lastmile_qr_scan", "ios": "https://dc.lft.to/lastmile_qr_scan"}, "is_reserved": 0, "bike_id": "9783dc62949ebca9a4d6b08eb276f3ed", "name": "9783dc62949ebca9a4d6b08eb276f3ed"}, {"lat": 38.91739583333333, "fusion_lon": 0.0, "fusion_lat": 0.0, "is_disabled": 0, "type": "electric_scooter", "lon": -77.02114816666666, "rental_uris": {"android": "https://dc.lft.to/lastmile_qr_scan", "ios": "https://dc.lft.to/lastmile_qr_scan"}, "is_reserved": 0, "bike_id": "471ec4097f0d1c1fd6dbecf90110b6f9", "name": "471ec4097f0d1c1fd6dbecf90110b6f9"}, {"lat": 38.905717, "fusion_lon": 0.0, "fusion_lat": 0.0, "is_disabled": 0, "type": "electric_scooter", "lon": -77.0378465, "rental_uris": {"android": "https://dc.lft.to/lastmile_qr_scan", "ios": "https://dc.lft.to/lastmile_qr_scan"}, "is_reserved": 0, "bike_id": "d2f7430c974f2a379ecb4f2c46250fa2", "name": "d2f7430c974f2a379ecb4f2c46250fa2"}, {"lat": 38.94068816666667, "fusion_lon": 0.0, "fusion_lat": 0.0, "is_disabled": 0, "type": "electric_scooter", "lon": -77.02974733333333, "rental_uris": {"android": "https://dc.lft.to/lastmile_qr_scan", "ios": "https://dc.lft.to/lastmile_qr_scan"}, "is_reserved": 0, "bike_id": "36da8aecb9594fb09255a09c1c929c0c", "name": "36da8aecb9594fb09255a09c1c929c0c"}, {"lat": 38.94295616666667, "fusion_lon": 0.0, "fusion_lat": 0.0, "is_disabled": 0, "type": "electric_scooter", "lon": -77.02168, "rental_uris": {"android": "https://dc.lft.to/lastmile_qr_scan", "ios": "https://dc.lft.to/lastmile_qr_scan"}, "is_reserved": 0, "bike_id": "3f197b0adf7c48ddd3f55e544f983a76", "name": "3f197b0adf7c48ddd3f55e544f983a76"}, {"lat": 38.934742, "fusion_lon": 0.0, "fusion_lat": 0.0, "is_disabled": 0, "type": "electric_scooter", "lon": -77.03576783333334, "rental_uris": {"android": "https://dc.lft.to/lastmile_qr_scan", "ios": "https://dc.lft.to/lastmile_qr_scan"}, "is_reserved": 0, "bike_id": "c651682512ddf14ad78e6414360e64d8", "name": "c651682512ddf14ad78e6414360e64d8"}, {"lat": 38.903575333333336, "fusion_lon": 0.0, "fusion_lat": 0.0, "is_disabled": 0, "type": "electric_scooter", "lon": -77.01111466666667, "rental_uris": {"android": "https://dc.lft.to/lastmile_qr_scan", "ios": "https://dc.lft.to/lastmile_qr_scan"}, "is_reserved": 0, "bike_id": "ac3865e2bb6e1323e76be688469c5fdb", "name": "ac3865e2bb6e1323e76be688469c5fdb"}, {"lat": 38.907608333333336, "fusion_lon": 0.0, "fusion_lat": 0.0, "is_disabled": 0, "type": "electric_scooter", "lon": -77.03199466666666, "rental_uris": {"android": "https://dc.lft.to/lastmile_qr_scan", "ios": "https://dc.lft.to/lastmile_qr_scan"}, "is_reserved": 0, "bike_id": "32989db2ca6f5a7538d2980610d93af6", "name": "32989db2ca6f5a7538d2980610d93af6"}, {"lat": 38.935062333333335, "fusion_lon": 0.0, "fusion_lat": 0.0, "is_disabled": 0, "type": "electric_bike", "lon": -76.94958683333333, "rental_uris": {"android": "https://dc.lft.to/lastmile_qr_scan", "ios": "https://dc.lft.to/lastmile_qr_scan"}, "is_reserved": 0, "bike_id": "12bcd5ec1b05331ce323deba3e7a6cef", "name": "12bcd5ec1b05331ce323deba3e7a6cef"}, {"lat": 38.90724216666667, "fusion_lon": 0.0, "fusion_lat": 0.0, "is_disabled": 0, "type": "electric_scooter", "lon": -77.02484133333333, "rental_uris": {"android": "https://dc.lft.to/lastmile_qr_scan", "ios": "https://dc.lft.to/lastmile_qr_scan"}, "is_reserved": 0, "bike_id": "5aac6d2c5db49773f0609fc7aa6d8c08", "name": "5aac6d2c5db49773f0609fc7aa6d8c08"}, {"lat": 38.905909333333334, "fusion_lon": 0.0, "fusion_lat": 0.0, "is_disabled": 0, "type": "electric_bike", "lon": -77.0471405, "rental_uris": {"android": "https://dc.lft.to/lastmile_qr_scan", "ios": "https://dc.lft.to/lastmile_qr_scan"}, "is_reserved": 0, "bike_id": "21f7aa67fd965691c702c29e0f31ff36", "name": "21f7aa67fd965691c702c29e0f31ff36"}, {"lat": 38.892142666666665, "fusion_lon": 0.0, "fusion_lat": 0.0, "is_disabled": 0, "type": "electric_scooter", "lon": -77.02710366666666, "rental_uris": {"android": "https://dc.lft.to/lastmile_qr_scan", "ios": "https://dc.lft.to/lastmile_qr_scan"}, "is_reserved": 0, "bike_id": "ac1775e73da5bf96eddff79dd4ab0c9c", "name": "ac1775e73da5bf96eddff79dd4ab0c9c"}, {"lat": 38.90136016666666, "fusion_lon": 0.0, "fusion_lat": 0.0, "is_disabled": 0, "type": "electric_bike", "lon": -77.0498685, "rental_uris": {"android": "https://dc.lft.to/lastmile_qr_scan", "ios": "https://dc.lft.to/lastmile_qr_scan"}, "is_reserved": 0, "bike_id": "49d1836314697a7e3dca1131a90185e7", "name": "49d1836314697a7e3dca1131a90185e7"}, {"lat": 38.96230933333333, "fusion_lon": 0.0, "fusion_lat": 0.0, "is_disabled": 0, "type": "electric_scooter", "lon": -77.029762, "rental_uris": {"android": "https://dc.lft.to/lastmile_qr_scan", "ios": "https://dc.lft.to/lastmile_qr_scan"}, "is_reserved": 0, "bike_id": "97f3c26b0645f3be3cfc73b25fec103d", "name": "97f3c26b0645f3be3cfc73b25fec103d"}, {"lat": 38.852158, "fusion_lon": 0.0, "fusion_lat": 0.0, "is_disabled": 0, "type": "electric_bike", "lon": -77.10127933333334, "rental_uris": {"android": "https://dc.lft.to/lastmile_qr_scan", "ios": "https://dc.lft.to/lastmile_qr_scan"}, "is_reserved": 0, "bike_id": "a62cd42a8789157eeaee97488e4e63ed", "name": "a62cd42a8789157eeaee97488e4e63ed"}, {"lat": 38.87708966666667, "fusion_lon": 0.0, "fusion_lat": 0.0, "is_disabled": 0, "type": "electric_scooter", "lon": -77.00582516666667, "rental_uris": {"android": "https://dc.lft.to/lastmile_qr_scan", "ios": "https://dc.lft.to/lastmile_qr_scan"}, "is_reserved": 0, "bike_id": "f6f9179d1fe95a1736a3d1057bdfdae2", "name": "f6f9179d1fe95a1736a3d1057bdfdae2"}, {"lat": 38.86221883333333, "fusion_lon": 0.0, "fusion_lat": 0.0, "is_disabled": 0, "type": "electric_scooter", "lon": -76.99491466666667, "rental_uris": {"android": "https://dc.lft.to/lastmile_qr_scan", "ios": "https://dc.lft.to/lastmile_qr_scan"}, "is_reserved": 0, "bike_id": "f84f939ece4d55e669edcfaf840145d9", "name": "f84f939ece4d55e669edcfaf840145d9"}, {"lat": 38.931342666666666, "fusion_lon": 0.0, "fusion_lat": 0.0, "is_disabled": 0, "type": "electric_scooter", "lon": -77.02344516666666, "rental_uris": {"android": "https://dc.lft.to/lastmile_qr_scan", "ios": "https://dc.lft.to/lastmile_qr_scan"}, "is_reserved": 0, "bike_id": "ae9ec16edd6f315f3373e4a64529f622", "name": "ae9ec16edd6f315f3373e4a64529f622"}, {"lat": 38.923557833333334, "fusion_lon": 0.0, "fusion_lat": 0.0, "is_disabled": 0, "type": "electric_scooter", "lon": -77.044012, "rental_uris": {"android": "https://dc.lft.to/lastmile_qr_scan", "ios": "https://dc.lft.to/lastmile_qr_scan"}, "is_reserved": 0, "bike_id": "17774bfc163e65bd0fb8ee11374315b3", "name": "17774bfc163e65bd0fb8ee11374315b3"}, {"lat": 38.982288833333335, "fusion_lon": 0.0, "fusion_lat": 0.0, "is_disabled": 0, "type": "electric_bike", "lon": -77.026453, "rental_uris": {"android": "https://dc.lft.to/lastmile_qr_scan", "ios": "https://dc.lft.to/lastmile_qr_scan"}, "is_reserved": 0, "bike_id": "f88782eff0b84058b88c8cd9c8ce676f", "name": "f88782eff0b84058b88c8cd9c8ce676f"}, {"lat": 38.903751, "fusion_lon": 0.0, "fusion_lat": 0.0, "is_disabled": 0, "type": "electric_scooter", "lon": -77.03481233333333, "rental_uris": {"android": "https://dc.lft.to/lastmile_qr_scan", "ios": "https://dc.lft.to/lastmile_qr_scan"}, "is_reserved": 0, "bike_id": "99614b8739dd25fcad97ba6bcd69c949", "name": "99614b8739dd25fcad97ba6bcd69c949"}, {"lat": 38.936811166666665, "fusion_lon": 0.0, "fusion_lat": 0.0, "is_disabled": 0, "type": "electric_scooter", "lon": -77.0361925, "rental_uris": {"android": "https://dc.lft.to/lastmile_qr_scan", "ios": "https://dc.lft.to/lastmile_qr_scan"}, "is_reserved": 0, "bike_id": "fff52b671780e3ac1dea03f71015e9bc", "name": "fff52b671780e3ac1dea03f71015e9bc"}, {"lat": 38.90409833333333, "fusion_lon": 0.0, "fusion_lat": 0.0, "is_disabled": 0, "type": "electric_scooter", "lon": -77.00135916666666, "rental_uris": {"android": "https://dc.lft.to/lastmile_qr_scan", "ios": "https://dc.lft.to/lastmile_qr_scan"}, "is_reserved": 0, "bike_id": "16c60a28d8cce53de3f5d54142349f03", "name": "16c60a28d8cce53de3f5d54142349f03"}, {"lat": 38.90220683333333, "fusion_lon": 0.0, "fusion_lat": 0.0, "is_disabled": 0, "type": "electric_scooter", "lon": -77.04580216666666, "rental_uris": {"android": "https://dc.lft.to/lastmile_qr_scan", "ios": "https://dc.lft.to/lastmile_qr_scan"}, "is_reserved": 0, "bike_id": "c433a2953bb09cfe985d282155d69599", "name": "c433a2953bb09cfe985d282155d69599"}, {"lat": 38.911935666666665, "fusion_lon": 0.0, "fusion_lat": 0.0, "is_disabled": 0, "type": "electric_scooter", "lon": -77.03861633333334, "rental_uris": {"android": "https://dc.lft.to/lastmile_qr_scan", "ios": "https://dc.lft.to/lastmile_qr_scan"}, "is_reserved": 0, "bike_id": "64195c7c672ba74565ac9de7d105fe30", "name": "64195c7c672ba74565ac9de7d105fe30"}, {"lat": 38.903878166666665, "fusion_lon": 0.0, "fusion_lat": 0.0, "is_disabled": 0, "type": "electric_scooter", "lon": -77.013546, "rental_uris": {"android": "https://dc.lft.to/lastmile_qr_scan", "ios": "https://dc.lft.to/lastmile_qr_scan"}, "is_reserved": 0, "bike_id": "b9e0afb8312f77b565e238f933aeffa0", "name": "b9e0afb8312f77b565e238f933aeffa0"}, {"lat": 38.889862, "fusion_lon": 0.0, "fusion_lat": 0.0, "is_disabled": 0, "type": "electric_scooter", "lon": -76.99814716666667, "rental_uris": {"android": "https://dc.lft.to/lastmile_qr_scan", "ios": "https://dc.lft.to/lastmile_qr_scan"}, "is_reserved": 0, "bike_id": "1abf67048f1e33dfd58d5b55d14c7e90", "name": "1abf67048f1e33dfd58d5b55d14c7e90"}, {"lat": 38.90393183333333, "fusion_lon": 0.0, "fusion_lat": 0.0, "is_disabled": 0, "type": "electric_scooter", "lon": -76.97910616666667, "rental_uris": {"android": "https://dc.lft.to/lastmile_qr_scan", "ios": "https://dc.lft.to/lastmile_qr_scan"}, "is_reserved": 0, "bike_id": "f214c26d5b3836116273ab97afda9139", "name": "f214c26d5b3836116273ab97afda9139"}, {"lat": 39.010397833333336, "fusion_lon": 0.0, "fusion_lat": 0.0, "is_disabled": 0, "type": "electric_bike", "lon": -76.91120216666667, "rental_uris": {"android": "https://dc.lft.to/lastmile_qr_scan", "ios": "https://dc.lft.to/lastmile_qr_scan"}, "is_reserved": 0, "bike_id": "2c996d619309ccb27683864cce2d54d0", "name": "2c996d619309ccb27683864cce2d54d0"}, {"lat": 38.893681666666666, "fusion_lon": 0.0, "fusion_lat": 0.0, "is_disabled": 0, "type": "electric_scooter", "lon": -77.047955, "rental_uris": {"android": "https://dc.lft.to/lastmile_qr_scan", "ios": "https://dc.lft.to/lastmile_qr_scan"}, "is_reserved": 0, "bike_id": "a18fb68809c768bf1c6acca8f5d94fd6", "name": "a18fb68809c768bf1c6acca8f5d94fd6"}, {"lat": 38.884511833333335, "fusion_lon": 0.0, "fusion_lat": 0.0, "is_disabled": 0, "type": "electric_scooter", "lon": -77.010375, "rental_uris": {"android": "https://dc.lft.to/lastmile_qr_scan", "ios": "https://dc.lft.to/lastmile_qr_scan"}, "is_reserved": 0, "bike_id": "fc42ebaaf4d49a5844ac4ba070afbde4", "name": "fc42ebaaf4d49a5844ac4ba070afbde4"}, {"lat": 38.8909985, "fusion_lon": 0.0, "fusion_lat": 0.0, "is_disabled": 0, "type": "electric_scooter", "lon": -76.942981, "rental_uris": {"android": "https://dc.lft.to/lastmile_qr_scan", "ios": "https://dc.lft.to/lastmile_qr_scan"}, "is_reserved": 0, "bike_id": "805f6f81019d6750a85e3f9c2185979a", "name": "805f6f81019d6750a85e3f9c2185979a"}, {"lat": 38.923807333333336, "fusion_lon": 0.0, "fusion_lat": 0.0, "is_disabled": 0, "type": "electric_scooter", "lon": -77.03052583333333, "rental_uris": {"android": "https://dc.lft.to/lastmile_qr_scan", "ios": "https://dc.lft.to/lastmile_qr_scan"}, "is_reserved": 0, "bike_id": "8037bea79a4b2dd3b7fd719e97774ba1", "name": "8037bea79a4b2dd3b7fd719e97774ba1"}, {"lat": 38.905856166666666, "fusion_lon": 0.0, "fusion_lat": 0.0, "is_disabled": 0, "type": "electric_scooter", "lon": -77.04671166666667, "rental_uris": {"android": "https://dc.lft.to/lastmile_qr_scan", "ios": "https://dc.lft.to/lastmile_qr_scan"}, "is_reserved": 0, "bike_id": "56f905d0482dd9a51afea6e3347de605", "name": "56f905d0482dd9a51afea6e3347de605"}, {"lat": 38.90048816666667, "fusion_lon": 0.0, "fusion_lat": 0.0, "is_disabled": 0, "type": "electric_scooter", "lon": -77.0295495, "rental_uris": {"android": "https://dc.lft.to/lastmile_qr_scan", "ios": "https://dc.lft.to/lastmile_qr_scan"}, "is_reserved": 0, "bike_id": "3762455c8c23cf818140e48ff717d201", "name": "3762455c8c23cf818140e48ff717d201"}, {"lat": 38.911389, "fusion_lon": 0.0, "fusion_lat": 0.0, "is_disabled": 0, "type": "electric_scooter", "lon": -76.99011516666667, "rental_uris": {"android": "https://dc.lft.to/lastmile_qr_scan", "ios": "https://dc.lft.to/lastmile_qr_scan"}, "is_reserved": 0, "bike_id": "ea129f81081a4114c5429b1d4f70eb96", "name": "ea129f81081a4114c5429b1d4f70eb96"}, {"lat": 38.8973675, "fusion_lon": 0.0, "fusion_lat": 0.0, "is_disabled": 0, "type": "electric_scooter", "lon": -76.94727583333334, "rental_uris": {"android": "https://dc.lft.to/lastmile_qr_scan", "ios": "https://dc.lft.to/lastmile_qr_scan"}, "is_reserved": 0, "bike_id": "472c199a43f2d5327a8e452bc8a70687", "name": "472c199a43f2d5327a8e452bc8a70687"}, {"lat": 38.908039, "fusion_lon": 0.0, "fusion_lat": 0.0, "is_disabled": 0, "type": "electric_scooter", "lon": -77.0514455, "rental_uris": {"android": "https://dc.lft.to/lastmile_qr_scan", "ios": "https://dc.lft.to/lastmile_qr_scan"}, "is_reserved": 0, "bike_id": "e2de5fadac1eb1bf7b9d73c90f093fe8", "name": "e2de5fadac1eb1bf7b9d73c90f093fe8"}, {"lat": 38.936668833333336, "fusion_lon": 0.0, "fusion_lat": 0.0, "is_disabled": 0, "type": "electric_scooter", "lon": -77.03257416666666, "rental_uris": {"android": "https://dc.lft.to/lastmile_qr_scan", "ios": "https://dc.lft.to/lastmile_qr_scan"}, "is_reserved": 0, "bike_id": "e9539c65707d6bd3d5943630ee2640aa", "name": "e9539c65707d6bd3d5943630ee2640aa"}, {"lat": 38.899646833333335, "fusion_lon": 0.0, "fusion_lat": 0.0, "is_disabled": 0, "type": "electric_scooter", "lon": -76.93432283333334, "rental_uris": {"android": "https://dc.lft.to/lastmile_qr_scan", "ios": "https://dc.lft.to/lastmile_qr_scan"}, "is_reserved": 0, "bike_id": "a0e2577fb1c81ceb7ab3603a2b90f0ba", "name": "a0e2577fb1c81ceb7ab3603a2b90f0ba"}, {"lat": 38.9257925, "fusion_lon": 0.0, "fusion_lat": 0.0, "is_disabled": 0, "type": "electric_bike", "lon": -76.994903, "rental_uris": {"android": "https://dc.lft.to/lastmile_qr_scan", "ios": "https://dc.lft.to/lastmile_qr_scan"}, "is_reserved": 0, "bike_id": "4b48ab2d4acf52342d065108f994c97a", "name": "4b48ab2d4acf52342d065108f994c97a"}, {"lat": 38.86505416666667, "fusion_lon": 0.0, "fusion_lat": 0.0, "is_disabled": 0, "type": "electric_scooter", "lon": -76.99000533333333, "rental_uris": {"android": "https://dc.lft.to/lastmile_qr_scan", "ios": "https://dc.lft.to/lastmile_qr_scan"}, "is_reserved": 0, "bike_id": "8bac04fb1da9814c4ba5c2f53e2b1e4c", "name": "8bac04fb1da9814c4ba5c2f53e2b1e4c"}, {"lat": 38.92237016666667, "fusion_lon": 0.0, "fusion_lat": 0.0, "is_disabled": 0, "type": "electric_scooter", "lon": -77.02856566666667, "rental_uris": {"android": "https://dc.lft.to/lastmile_qr_scan", "ios": "https://dc.lft.to/lastmile_qr_scan"}, "is_reserved": 0, "bike_id": "6ef7bf3bd69396f9eeb45ee7d9c8d0c2", "name": "6ef7bf3bd69396f9eeb45ee7d9c8d0c2"}, {"lat": 38.898337166666664, "fusion_lon": 0.0, "fusion_lat": 0.0, "is_disabled": 0, "type": "electric_scooter", "lon": -77.02937216666666, "rental_uris": {"android": "https://dc.lft.to/lastmile_qr_scan", "ios": "https://dc.lft.to/lastmile_qr_scan"}, "is_reserved": 0, "bike_id": "8dd20ee9eff986b887d13fb212996871", "name": "8dd20ee9eff986b887d13fb212996871"}, {"lat": 38.923613833333334, "fusion_lon": 0.0, "fusion_lat": 0.0, "is_disabled": 0, "type": "electric_scooter", "lon": -77.05027116666666, "rental_uris": {"android": "https://dc.lft.to/lastmile_qr_scan", "ios": "https://dc.lft.to/lastmile_qr_scan"}, "is_reserved": 0, "bike_id": "18d0566d062b5690eb29dc2c32162afa", "name": "18d0566d062b5690eb29dc2c32162afa"}, {"lat": 38.8922845, "fusion_lon": 0.0, "fusion_lat": 0.0, "is_disabled": 0, "type": "electric_bike", "lon": -77.01374666666666, "rental_uris": {"android": "https://dc.lft.to/lastmile_qr_scan", "ios": "https://dc.lft.to/lastmile_qr_scan"}, "is_reserved": 0, "bike_id": "7569d4e75648e91bab33426dc8c245a8", "name": "7569d4e75648e91bab33426dc8c245a8"}, {"lat": 38.887469333333335, "fusion_lon": 0.0, "fusion_lat": 0.0, "is_disabled": 0, "type": "electric_scooter", "lon": -77.01600066666667, "rental_uris": {"android": "https://dc.lft.to/lastmile_qr_scan", "ios": "https://dc.lft.to/lastmile_qr_scan"}, "is_reserved": 0, "bike_id": "20c4fcdb2fb29430adb6a099f12cdc4e", "name": "20c4fcdb2fb29430adb6a099f12cdc4e"}, {"lat": 38.91950516666667, "fusion_lon": 0.0, "fusion_lat": 0.0, "is_disabled": 0, "type": "electric_scooter", "lon": -77.0008825, "rental_uris": {"android": "https://dc.lft.to/lastmile_qr_scan", "ios": "https://dc.lft.to/lastmile_qr_scan"}, "is_reserved": 0, "bike_id": "1796161a3e30dc0e49924a08b031c6ef", "name": "1796161a3e30dc0e49924a08b031c6ef"}, {"lat": 38.992268833333334, "fusion_lon": 0.0, "fusion_lat": 0.0, "is_disabled": 0, "type": "electric_bike", "lon": -76.87780583333333, "rental_uris": {"android": "https://dc.lft.to/lastmile_qr_scan", "ios": "https://dc.lft.to/lastmile_qr_scan"}, "is_reserved": 0, "bike_id": "185be8f1fa8daa31da22c349b7cbf6a9", "name": "185be8f1fa8daa31da22c349b7cbf6a9"}, {"lat": 38.893572166666665, "fusion_lon": 0.0, "fusion_lat": 0.0, "is_disabled": 0, "type": "electric_scooter", "lon": -77.00333983333333, "rental_uris": {"android": "https://dc.lft.to/lastmile_qr_scan", "ios": "https://dc.lft.to/lastmile_qr_scan"}, "is_reserved": 0, "bike_id": "2b6db58eb6c93f433d84c3b260e512e7", "name": "2b6db58eb6c93f433d84c3b260e512e7"}, {"lat": 38.900297333333334, "fusion_lon": 0.0, "fusion_lat": 0.0, "is_disabled": 0, "type": "electric_scooter", "lon": -76.98778916666667, "rental_uris": {"android": "https://dc.lft.to/lastmile_qr_scan", "ios": "https://dc.lft.to/lastmile_qr_scan"}, "is_reserved": 0, "bike_id": "5e919b5be2687164d47698f31f338d00", "name": "5e919b5be2687164d47698f31f338d00"}, {"lat": 38.88960816666667, "fusion_lon": 0.0, "fusion_lat": 0.0, "is_disabled": 0, "type": "electric_bike", "lon": -76.94865783333333, "rental_uris": {"android": "https://dc.lft.to/lastmile_qr_scan", "ios": "https://dc.lft.to/lastmile_qr_scan"}, "is_reserved": 0, "bike_id": "9399a268e0f045672d9b6fd13323be25", "name": "9399a268e0f045672d9b6fd13323be25"}, {"lat": 38.9757835, "fusion_lon": 0.0, "fusion_lat": 0.0, "is_disabled": 0, "type": "electric_bike", "lon": -76.96388966666666, "rental_uris": {"android": "https://dc.lft.to/lastmile_qr_scan", "ios": "https://dc.lft.to/lastmile_qr_scan"}, "is_reserved": 0, "bike_id": "f131835ce58edf1218cd2869f1c7282f", "name": "f131835ce58edf1218cd2869f1c7282f"}, {"lat": 38.898354166666664, "fusion_lon": 0.0, "fusion_lat": 0.0, "is_disabled": 0, "type": "electric_scooter", "lon": -77.027846, "rental_uris": {"android": "https://dc.lft.to/lastmile_qr_scan", "ios": "https://dc.lft.to/lastmile_qr_scan"}, "is_reserved": 0, "bike_id": "93256e0295211b2b6ec98f62ada840bf", "name": "93256e0295211b2b6ec98f62ada840bf"}, {"lat": 38.909655666666666, "fusion_lon": 0.0, "fusion_lat": 0.0, "is_disabled": 0, "type": "electric_scooter", "lon": -77.03367666666666, "rental_uris": {"android": "https://dc.lft.to/lastmile_qr_scan", "ios": "https://dc.lft.to/lastmile_qr_scan"}, "is_reserved": 0, "bike_id": "1d77a3acab0267464099d3a38a501e49", "name": "1d77a3acab0267464099d3a38a501e49"}, {"lat": 38.9003405, "fusion_lon": 0.0, "fusion_lat": 0.0, "is_disabled": 0, "type": "electric_scooter", "lon": -76.987782, "rental_uris": {"android": "https://dc.lft.to/lastmile_qr_scan", "ios": "https://dc.lft.to/lastmile_qr_scan"}, "is_reserved": 0, "bike_id": "57aae640ddcb1e936257b629066bcc93", "name": "57aae640ddcb1e936257b629066bcc93"}, {"lat": 38.862665666666665, "fusion_lon": 0.0, "fusion_lat": 0.0, "is_disabled": 0, "type": "electric_bike", "lon": -76.99468416666667, "rental_uris": {"android": "https://dc.lft.to/lastmile_qr_scan", "ios": "https://dc.lft.to/lastmile_qr_scan"}, "is_reserved": 0, "bike_id": "b46bd40a610de7cac27c4bb75b8233b2", "name": "b46bd40a610de7cac27c4bb75b8233b2"}, {"lat": 38.855185666666664, "fusion_lon": 0.0, "fusion_lat": 0.0, "is_disabled": 0, "type": "electric_bike", "lon": -77.10707933333333, "rental_uris": {"android": "https://dc.lft.to/lastmile_qr_scan", "ios": "https://dc.lft.to/lastmile_qr_scan"}, "is_reserved": 0, "bike_id": "77b1a555d037aa45dc2a3c59b53f2f37", "name": "77b1a555d037aa45dc2a3c59b53f2f37"}, {"lat": 38.919955333333334, "fusion_lon": 0.0, "fusion_lat": 0.0, "is_disabled": 0, "type": "electric_bike", "lon": -76.9852825, "rental_uris": {"android": "https://dc.lft.to/lastmile_qr_scan", "ios": "https://dc.lft.to/lastmile_qr_scan"}, "is_reserved": 0, "bike_id": "122377b83fadef7875080f2e81610c54", "name": "122377b83fadef7875080f2e81610c54"}, {"lat": 38.901399166666664, "fusion_lon": 0.0, "fusion_lat": 0.0, "is_disabled": 0, "type": "electric_scooter", "lon": -77.039689, "rental_uris": {"android": "https://dc.lft.to/lastmile_qr_scan", "ios": "https://dc.lft.to/lastmile_qr_scan"}, "is_reserved": 0, "bike_id": "f8ad005219901a9a531c8a716c19f647", "name": "f8ad005219901a9a531c8a716c19f647"}, {"lat": 38.926285166666666, "fusion_lon": 0.0, "fusion_lat": 0.0, "is_disabled": 0, "type": "electric_scooter", "lon": -77.037877, "rental_uris": {"android": "https://dc.lft.to/lastmile_qr_scan", "ios": "https://dc.lft.to/lastmile_qr_scan"}, "is_reserved": 0, "bike_id": "9bf2c82429223b3d06686d5c287149d0", "name": "9bf2c82429223b3d06686d5c287149d0"}, {"lat": 38.89881783333333, "fusion_lon": 0.0, "fusion_lat": 0.0, "is_disabled": 0, "type": "electric_scooter", "lon": -77.0329015, "rental_uris": {"android": "https://dc.lft.to/lastmile_qr_scan", "ios": "https://dc.lft.to/lastmile_qr_scan"}, "is_reserved": 0, "bike_id": "d1e33fd5f2292cd31cf8021722a6c6f4", "name": "d1e33fd5f2292cd31cf8021722a6c6f4"}, {"lat": 38.903236166666666, "fusion_lon": 0.0, "fusion_lat": 0.0, "is_disabled": 0, "type": "electric_bike", "lon": -77.05168183333333, "rental_uris": {"android": "https://dc.lft.to/lastmile_qr_scan", "ios": "https://dc.lft.to/lastmile_qr_scan"}, "is_reserved": 0, "bike_id": "e11b4b1c98fe3555fbce6edc6179a646", "name": "e11b4b1c98fe3555fbce6edc6179a646"}, {"lat": 38.92352416666667, "fusion_lon": 0.0, "fusion_lat": 0.0, "is_disabled": 0, "type": "electric_scooter", "lon": -77.01901683333334, "rental_uris": {"android": "https://dc.lft.to/lastmile_qr_scan", "ios": "https://dc.lft.to/lastmile_qr_scan"}, "is_reserved": 0, "bike_id": "5468d96ed6db08bede0ae4fc89f07e1d", "name": "5468d96ed6db08bede0ae4fc89f07e1d"}, {"lat": 38.87493383333333, "fusion_lon": 0.0, "fusion_lat": 0.0, "is_disabled": 0, "type": "electric_bike", "lon": -77.04898266666666, "rental_uris": {"android": "https://dc.lft.to/lastmile_qr_scan", "ios": "https://dc.lft.to/lastmile_qr_scan"}, "is_reserved": 0, "bike_id": "0e28a56c490df71537da9c4d7251449c", "name": "0e28a56c490df71537da9c4d7251449c"}, {"lat": 38.893467333333334, "fusion_lon": 0.0, "fusion_lat": 0.0, "is_disabled": 0, "type": "electric_scooter", "lon": -77.01598533333333, "rental_uris": {"android": "https://dc.lft.to/lastmile_qr_scan", "ios": "https://dc.lft.to/lastmile_qr_scan"}, "is_reserved": 0, "bike_id": "d6ea1cba6368e354fad7bc9869f0c0d2", "name": "d6ea1cba6368e354fad7bc9869f0c0d2"}, {"lat": 38.929184666666664, "fusion_lon": 0.0, "fusion_lat": 0.0, "is_disabled": 0, "type": "electric_scooter", "lon": -77.02963316666667, "rental_uris": {"android": "https://dc.lft.to/lastmile_qr_scan", "ios": "https://dc.lft.to/lastmile_qr_scan"}, "is_reserved": 0, "bike_id": "5fad9f51300768838aad018bc9c1e6db", "name": "5fad9f51300768838aad018bc9c1e6db"}, {"lat": 38.924890166666664, "fusion_lon": 0.0, "fusion_lat": 0.0, "is_disabled": 0, "type": "electric_scooter", "lon": -77.02142133333334, "rental_uris": {"android": "https://dc.lft.to/lastmile_qr_scan", "ios": "https://dc.lft.to/lastmile_qr_scan"}, "is_reserved": 0, "bike_id": "03a996a031be83647cfc92eadd8bbe40", "name": "03a996a031be83647cfc92eadd8bbe40"}, {"lat": 38.89357733333333, "fusion_lon": 0.0, "fusion_lat": 0.0, "is_disabled": 0, "type": "electric_scooter", "lon": -77.00328116666667, "rental_uris": {"android": "https://dc.lft.to/lastmile_qr_scan", "ios": "https://dc.lft.to/lastmile_qr_scan"}, "is_reserved": 0, "bike_id": "2667a72c03802399a896fef93d420ed0", "name": "2667a72c03802399a896fef93d420ed0"}, {"lat": 38.922396, "fusion_lon": 0.0, "fusion_lat": 0.0, "is_disabled": 0, "type": "electric_scooter", "lon": -77.02420383333333, "rental_uris": {"android": "https://dc.lft.to/lastmile_qr_scan", "ios": "https://dc.lft.to/lastmile_qr_scan"}, "is_reserved": 0, "bike_id": "8f76f6021885de1aa01606d5fc7e0f57", "name": "8f76f6021885de1aa01606d5fc7e0f57"}, {"lat": 38.91634, "fusion_lon": 0.0, "fusion_lat": 0.0, "is_disabled": 0, "type": "electric_scooter", "lon": -77.02551283333334, "rental_uris": {"android": "https://dc.lft.to/lastmile_qr_scan", "ios": "https://dc.lft.to/lastmile_qr_scan"}, "is_reserved": 0, "bike_id": "73c98e9e4168d374c476517fca9486fd", "name": "73c98e9e4168d374c476517fca9486fd"}, {"lat": 38.898699666666666, "fusion_lon": 0.0, "fusion_lat": 0.0, "is_disabled": 0, "type": "electric_scooter", "lon": -77.03949383333334, "rental_uris": {"android": "https://dc.lft.to/lastmile_qr_scan", "ios": "https://dc.lft.to/lastmile_qr_scan"}, "is_reserved": 0, "bike_id": "66fdbd0a50fed25f8c84d20438ec8cb6", "name": "66fdbd0a50fed25f8c84d20438ec8cb6"}, {"lat": 38.91679833333333, "fusion_lon": 0.0, "fusion_lat": 0.0, "is_disabled": 0, "type": "electric_scooter", "lon": -77.0319655, "rental_uris": {"android": "https://dc.lft.to/lastmile_qr_scan", "ios": "https://dc.lft.to/lastmile_qr_scan"}, "is_reserved": 0, "bike_id": "5a65a3fa244bfbeffe6426a3789fce5c", "name": "5a65a3fa244bfbeffe6426a3789fce5c"}, {"lat": 38.9387945, "fusion_lon": 0.0, "fusion_lat": 0.0, "is_disabled": 0, "type": "electric_scooter", "lon": -77.02478766666667, "rental_uris": {"android": "https://dc.lft.to/lastmile_qr_scan", "ios": "https://dc.lft.to/lastmile_qr_scan"}, "is_reserved": 0, "bike_id": "0c43aee1be0717bb77a564024add0e41", "name": "0c43aee1be0717bb77a564024add0e41"}, {"lat": 38.9070395, "fusion_lon": 0.0, "fusion_lat": 0.0, "is_disabled": 0, "type": "electric_scooter", "lon": -77.00572083333333, "rental_uris": {"android": "https://dc.lft.to/lastmile_qr_scan", "ios": "https://dc.lft.to/lastmile_qr_scan"}, "is_reserved": 0, "bike_id": "80352ec7bbd3fcd27e09634686ed51db", "name": "80352ec7bbd3fcd27e09634686ed51db"}, {"lat": 38.9141035, "fusion_lon": 0.0, "fusion_lat": 0.0, "is_disabled": 0, "type": "electric_scooter", "lon": -77.03872433333333, "rental_uris": {"android": "https://dc.lft.to/lastmile_qr_scan", "ios": "https://dc.lft.to/lastmile_qr_scan"}, "is_reserved": 0, "bike_id": "05176b5cf55da023c1b50025dbbd6a18", "name": "05176b5cf55da023c1b50025dbbd6a18"}, {"lat": 38.900939, "fusion_lon": 0.0, "fusion_lat": 0.0, "is_disabled": 0, "type": "electric_scooter", "lon": -77.043922, "rental_uris": {"android": "https://dc.lft.to/lastmile_qr_scan", "ios": "https://dc.lft.to/lastmile_qr_scan"}, "is_reserved": 0, "bike_id": "e187ceb364c5d68665a8923a080c8df1", "name": "e187ceb364c5d68665a8923a080c8df1"}, {"lat": 38.89886816666667, "fusion_lon": 0.0, "fusion_lat": 0.0, "is_disabled": 0, "type": "electric_scooter", "lon": -77.00907183333334, "rental_uris": {"android": "https://dc.lft.to/lastmile_qr_scan", "ios": "https://dc.lft.to/lastmile_qr_scan"}, "is_reserved": 0, "bike_id": "2b7b500d2ee423182268f8c0a8e6fc88", "name": "2b7b500d2ee423182268f8c0a8e6fc88"}, {"lat": 38.9386175, "fusion_lon": 0.0, "fusion_lat": 0.0, "is_disabled": 0, "type": "electric_scooter", "lon": -77.0264795, "rental_uris": {"android": "https://dc.lft.to/lastmile_qr_scan", "ios": "https://dc.lft.to/lastmile_qr_scan"}, "is_reserved": 0, "bike_id": "4ce16237cff7a9ca8bf2c82f0a0bd3bb", "name": "4ce16237cff7a9ca8bf2c82f0a0bd3bb"}, {"lat": 38.884171, "fusion_lon": 0.0, "fusion_lat": 0.0, "is_disabled": 0, "type": "electric_scooter", "lon": -77.03053166666666, "rental_uris": {"android": "https://dc.lft.to/lastmile_qr_scan", "ios": "https://dc.lft.to/lastmile_qr_scan"}, "is_reserved": 0, "bike_id": "b2760514a3134365ed2cb12878eb1ae3", "name": "b2760514a3134365ed2cb12878eb1ae3"}, {"lat": 38.990679666666665, "fusion_lon": 0.0, "fusion_lat": 0.0, "is_disabled": 0, "type": "electric_bike", "lon": -77.10024766666666, "rental_uris": {"android": "https://dc.lft.to/lastmile_qr_scan", "ios": "https://dc.lft.to/lastmile_qr_scan"}, "is_reserved": 0, "bike_id": "fb7abccaa8a7ecf73a9a1b38617bc985", "name": "fb7abccaa8a7ecf73a9a1b38617bc985"}, {"lat": 38.92929016666667, "fusion_lon": 0.0, "fusion_lat": 0.0, "is_disabled": 0, "type": "electric_scooter", "lon": -77.037512, "rental_uris": {"android": "https://dc.lft.to/lastmile_qr_scan", "ios": "https://dc.lft.to/lastmile_qr_scan"}, "is_reserved": 0, "bike_id": "019e44fb8d1af29f01cec5027d7999da", "name": "019e44fb8d1af29f01cec5027d7999da"}, {"lat": 38.898849166666665, "fusion_lon": 0.0, "fusion_lat": 0.0, "is_disabled": 0, "type": "electric_scooter", "lon": -76.98570383333333, "rental_uris": {"android": "https://dc.lft.to/lastmile_qr_scan", "ios": "https://dc.lft.to/lastmile_qr_scan"}, "is_reserved": 0, "bike_id": "eaece36fbea4382b62a9987a38b2fcfb", "name": "eaece36fbea4382b62a9987a38b2fcfb"}, {"lat": 38.9026625, "fusion_lon": 0.0, "fusion_lat": 0.0, "is_disabled": 0, "type": "electric_scooter", "lon": -77.028394, "rental_uris": {"android": "https://dc.lft.to/lastmile_qr_scan", "ios": "https://dc.lft.to/lastmile_qr_scan"}, "is_reserved": 0, "bike_id": "802bd6af07b5a1050f16b1d30ef33a4a", "name": "802bd6af07b5a1050f16b1d30ef33a4a"}, {"lat": 38.929641333333336, "fusion_lon": 0.0, "fusion_lat": 0.0, "is_disabled": 0, "type": "electric_scooter", "lon": -77.032608, "rental_uris": {"android": "https://dc.lft.to/lastmile_qr_scan", "ios": "https://dc.lft.to/lastmile_qr_scan"}, "is_reserved": 0, "bike_id": "06151b8d7a3c1e10800996196b3ed968", "name": "06151b8d7a3c1e10800996196b3ed968"}, {"lat": 38.8967995, "fusion_lon": 0.0, "fusion_lat": 0.0, "is_disabled": 0, "type": "electric_bike", "lon": -76.981154, "rental_uris": {"android": "https://dc.lft.to/lastmile_qr_scan", "ios": "https://dc.lft.to/lastmile_qr_scan"}, "is_reserved": 0, "bike_id": "c2987a3b8d469de394b981d616b3b32b", "name": "c2987a3b8d469de394b981d616b3b32b"}, {"lat": 38.901537166666664, "fusion_lon": 0.0, "fusion_lat": 0.0, "is_disabled": 0, "type": "electric_scooter", "lon": -77.0231465, "rental_uris": {"android": "https://dc.lft.to/lastmile_qr_scan", "ios": "https://dc.lft.to/lastmile_qr_scan"}, "is_reserved": 0, "bike_id": "985332b7e8a32ecbed163642551376b2", "name": "985332b7e8a32ecbed163642551376b2"}, {"lat": 38.929262666666666, "fusion_lon": 0.0, "fusion_lat": 0.0, "is_disabled": 0, "type": "electric_scooter", "lon": -77.03745616666667, "rental_uris": {"android": "https://dc.lft.to/lastmile_qr_scan", "ios": "https://dc.lft.to/lastmile_qr_scan"}, "is_reserved": 0, "bike_id": "c3a42e0d621986b8694c2c8673b8065c", "name": "c3a42e0d621986b8694c2c8673b8065c"}, {"lat": 38.89713233333333, "fusion_lon": 0.0, "fusion_lat": 0.0, "is_disabled": 0, "type": "electric_scooter", "lon": -77.032506, "rental_uris": {"android": "https://dc.lft.to/lastmile_qr_scan", "ios": "https://dc.lft.to/lastmile_qr_scan"}, "is_reserved": 0, "bike_id": "2a6f43cef215d76662181f4902acd793", "name": "2a6f43cef215d76662181f4902acd793"}, {"lat": 38.812236666666664, "fusion_lon": 0.0, "fusion_lat": 0.0, "is_disabled": 0, "type": "electric_bike", "lon": -77.1123025, "rental_uris": {"android": "https://dc.lft.to/lastmile_qr_scan", "ios": "https://dc.lft.to/lastmile_qr_scan"}, "is_reserved": 0, "bike_id": "bb694249b3867d26080345be41cb3598", "name": "bb694249b3867d26080345be41cb3598"}, {"lat": 38.887242, "fusion_lon": 0.0, "fusion_lat": 0.0, "is_disabled": 0, "type": "electric_scooter", "lon": -77.02204483333334, "rental_uris": {"android": "https://dc.lft.to/lastmile_qr_scan", "ios": "https://dc.lft.to/lastmile_qr_scan"}, "is_reserved": 0, "bike_id": "7d900dae6f65888ce75c48b69f8d24d7", "name": "7d900dae6f65888ce75c48b69f8d24d7"}, {"lat": 38.966070333333334, "fusion_lon": 0.0, "fusion_lat": 0.0, "is_disabled": 0, "type": "electric_bike", "lon": -76.98325866666667, "rental_uris": {"android": "https://dc.lft.to/lastmile_qr_scan", "ios": "https://dc.lft.to/lastmile_qr_scan"}, "is_reserved": 0, "bike_id": "abb64b3f487d7a37e047bff24cad41c7", "name": "abb64b3f487d7a37e047bff24cad41c7"}, {"lat": 38.9181315, "fusion_lon": 0.0, "fusion_lat": 0.0, "is_disabled": 0, "type": "electric_bike", "lon": -77.10177533333334, "rental_uris": {"android": "https://dc.lft.to/lastmile_qr_scan", "ios": "https://dc.lft.to/lastmile_qr_scan"}, "is_reserved": 0, "bike_id": "b16b85860afb9bd1171b0e9ba19655c7", "name": "b16b85860afb9bd1171b0e9ba19655c7"}, {"lat": 38.885004, "fusion_lon": 0.0, "fusion_lat": 0.0, "is_disabled": 0, "type": "electric_scooter", "lon": -77.0061835, "rental_uris": {"android": "https://dc.lft.to/lastmile_qr_scan", "ios": "https://dc.lft.to/lastmile_qr_scan"}, "is_reserved": 0, "bike_id": "3a2ddcefb1ce4f74e9bdadd658b06fcd", "name": "3a2ddcefb1ce4f74e9bdadd658b06fcd"}, {"lat": 38.92603666666667, "fusion_lon": 0.0, "fusion_lat": 0.0, "is_disabled": 0, "type": "electric_scooter", "lon": -77.02155533333334, "rental_uris": {"android": "https://dc.lft.to/lastmile_qr_scan", "ios": "https://dc.lft.to/lastmile_qr_scan"}, "is_reserved": 0, "bike_id": "27f63874d9a5edca83d3950d20e4e058", "name": "27f63874d9a5edca83d3950d20e4e058"}, {"lat": 38.93688316666667, "fusion_lon": 0.0, "fusion_lat": 0.0, "is_disabled": 0, "type": "electric_scooter", "lon": -77.03287266666666, "rental_uris": {"android": "https://dc.lft.to/lastmile_qr_scan", "ios": "https://dc.lft.to/lastmile_qr_scan"}, "is_reserved": 0, "bike_id": "2362bdf3a1a6bb595fe06d9b2b940657", "name": "2362bdf3a1a6bb595fe06d9b2b940657"}, {"lat": 38.902780666666665, "fusion_lon": 0.0, "fusion_lat": 0.0, "is_disabled": 0, "type": "electric_scooter", "lon": -77.03264916666667, "rental_uris": {"android": "https://dc.lft.to/lastmile_qr_scan", "ios": "https://dc.lft.to/lastmile_qr_scan"}, "is_reserved": 0, "bike_id": "619938a585995818d545e95a04b551ce", "name": "619938a585995818d545e95a04b551ce"}, {"lat": 38.928718833333335, "fusion_lon": 0.0, "fusion_lat": 0.0, "is_disabled": 0, "type": "electric_scooter", "lon": -77.0327885, "rental_uris": {"android": "https://dc.lft.to/lastmile_qr_scan", "ios": "https://dc.lft.to/lastmile_qr_scan"}, "is_reserved": 0, "bike_id": "55b57e069291b068726449c107b0bfb9", "name": "55b57e069291b068726449c107b0bfb9"}, {"lat": 38.88746583333333, "fusion_lon": 0.0, "fusion_lat": 0.0, "is_disabled": 0, "type": "electric_scooter", "lon": -77.02167566666667, "rental_uris": {"android": "https://dc.lft.to/lastmile_qr_scan", "ios": "https://dc.lft.to/lastmile_qr_scan"}, "is_reserved": 0, "bike_id": "9b40199efb2691dc1e8a1ff4cd9f9b87", "name": "9b40199efb2691dc1e8a1ff4cd9f9b87"}, {"lat": 38.92377116666667, "fusion_lon": 0.0, "fusion_lat": 0.0, "is_disabled": 0, "type": "electric_scooter", "lon": -77.052409, "rental_uris": {"android": "https://dc.lft.to/lastmile_qr_scan", "ios": "https://dc.lft.to/lastmile_qr_scan"}, "is_reserved": 0, "bike_id": "4d503c703a01f218641e616c4ad13157", "name": "4d503c703a01f218641e616c4ad13157"}, {"lat": 38.94411016666667, "fusion_lon": 0.0, "fusion_lat": 0.0, "is_disabled": 0, "type": "electric_scooter", "lon": -77.05518383333333, "rental_uris": {"android": "https://dc.lft.to/lastmile_qr_scan", "ios": "https://dc.lft.to/lastmile_qr_scan"}, "is_reserved": 0, "bike_id": "e8480b98f6b4e6e2372468cc841c9e09", "name": "e8480b98f6b4e6e2372468cc841c9e09"}, {"lat": 38.901431, "fusion_lon": 0.0, "fusion_lat": 0.0, "is_disabled": 0, "type": "electric_scooter", "lon": -77.0320395, "rental_uris": {"android": "https://dc.lft.to/lastmile_qr_scan", "ios": "https://dc.lft.to/lastmile_qr_scan"}, "is_reserved": 0, "bike_id": "03ba6e22eb8f5faf81dd5820dcdd5fdc", "name": "03ba6e22eb8f5faf81dd5820dcdd5fdc"}, {"lat": 38.9155105, "fusion_lon": 0.0, "fusion_lat": 0.0, "is_disabled": 0, "type": "electric_scooter", "lon": -77.00829483333334, "rental_uris": {"android": "https://dc.lft.to/lastmile_qr_scan", "ios": "https://dc.lft.to/lastmile_qr_scan"}, "is_reserved": 0, "bike_id": "19a901df26aec6992ecfc1a449b24167", "name": "19a901df26aec6992ecfc1a449b24167"}, {"lat": 38.89292066666667, "fusion_lon": 0.0, "fusion_lat": 0.0, "is_disabled": 0, "type": "electric_scooter", "lon": -77.0259115, "rental_uris": {"android": "https://dc.lft.to/lastmile_qr_scan", "ios": "https://dc.lft.to/lastmile_qr_scan"}, "is_reserved": 0, "bike_id": "27a2ba7908913e6468a7441deb53e249", "name": "27a2ba7908913e6468a7441deb53e249"}, {"lat": 38.90875966666667, "fusion_lon": 0.0, "fusion_lat": 0.0, "is_disabled": 0, "type": "electric_scooter", "lon": -77.04333716666666, "rental_uris": {"android": "https://dc.lft.to/lastmile_qr_scan", "ios": "https://dc.lft.to/lastmile_qr_scan"}, "is_reserved": 0, "bike_id": "1080c80e3135687ded6845fd5a0bf88a", "name": "1080c80e3135687ded6845fd5a0bf88a"}, {"lat": 38.89787916666667, "fusion_lon": 0.0, "fusion_lat": 0.0, "is_disabled": 0, "type": "electric_scooter", "lon": -77.02731783333333, "rental_uris": {"android": "https://dc.lft.to/lastmile_qr_scan", "ios": "https://dc.lft.to/lastmile_qr_scan"}, "is_reserved": 0, "bike_id": "114aa0e51a336199ffb0ee6a0b1a86c1", "name": "114aa0e51a336199ffb0ee6a0b1a86c1"}, {"lat": 38.93707216666667, "fusion_lon": 0.0, "fusion_lat": 0.0, "is_disabled": 0, "type": "electric_scooter", "lon": -77.024006, "rental_uris": {"android": "https://dc.lft.to/lastmile_qr_scan", "ios": "https://dc.lft.to/lastmile_qr_scan"}, "is_reserved": 0, "bike_id": "2a5bdbfbf041fea802921fe4b33d3474", "name": "2a5bdbfbf041fea802921fe4b33d3474"}, {"lat": 38.906868333333335, "fusion_lon": 0.0, "fusion_lat": 0.0, "is_disabled": 0, "type": "electric_scooter", "lon": -77.02691516666667, "rental_uris": {"android": "https://dc.lft.to/lastmile_qr_scan", "ios": "https://dc.lft.to/lastmile_qr_scan"}, "is_reserved": 0, "bike_id": "6d7067a15ac7b020639a2af2b78a62c4", "name": "6d7067a15ac7b020639a2af2b78a62c4"}, {"lat": 38.897374666666664, "fusion_lon": 0.0, "fusion_lat": 0.0, "is_disabled": 0, "type": "electric_bike", "lon": -76.90535, "rental_uris": {"android": "https://dc.lft.to/lastmile_qr_scan", "ios": "https://dc.lft.to/lastmile_qr_scan"}, "is_reserved": 0, "bike_id": "472983afbfee83eaf9f16019a2103e9e", "name": "472983afbfee83eaf9f16019a2103e9e"}, {"lat": 38.926500833333336, "fusion_lon": 0.0, "fusion_lat": 0.0, "is_disabled": 0, "type": "electric_scooter", "lon": -77.04058183333333, "rental_uris": {"android": "https://dc.lft.to/lastmile_qr_scan", "ios": "https://dc.lft.to/lastmile_qr_scan"}, "is_reserved": 0, "bike_id": "4afe4e59fdf7cda7228e49a044e9ff8a", "name": "4afe4e59fdf7cda7228e49a044e9ff8a"}, {"lat": 38.898084833333336, "fusion_lon": 0.0, "fusion_lat": 0.0, "is_disabled": 0, "type": "electric_scooter", "lon": -77.02834333333334, "rental_uris": {"android": "https://dc.lft.to/lastmile_qr_scan", "ios": "https://dc.lft.to/lastmile_qr_scan"}, "is_reserved": 0, "bike_id": "a4b43455b0c67b8c37255b3d5af063ba", "name": "a4b43455b0c67b8c37255b3d5af063ba"}, {"lat": 38.900941333333336, "fusion_lon": 0.0, "fusion_lat": 0.0, "is_disabled": 0, "type": "electric_scooter", "lon": -76.9948695, "rental_uris": {"android": "https://dc.lft.to/lastmile_qr_scan", "ios": "https://dc.lft.to/lastmile_qr_scan"}, "is_reserved": 0, "bike_id": "3d538e30b1b874a793c5392ed799906f", "name": "3d538e30b1b874a793c5392ed799906f"}, {"lat": 38.90541016666667, "fusion_lon": 0.0, "fusion_lat": 0.0, "is_disabled": 0, "type": "electric_bike", "lon": -77.050355, "rental_uris": {"android": "https://dc.lft.to/lastmile_qr_scan", "ios": "https://dc.lft.to/lastmile_qr_scan"}, "is_reserved": 0, "bike_id": "4cdf37eb91e151f395bb072dd9fecce6", "name": "4cdf37eb91e151f395bb072dd9fecce6"}, {"lat": 38.903728666666666, "fusion_lon": 0.0, "fusion_lat": 0.0, "is_disabled": 0, "type": "electric_scooter", "lon": -77.05814266666667, "rental_uris": {"android": "https://dc.lft.to/lastmile_qr_scan", "ios": "https://dc.lft.to/lastmile_qr_scan"}, "is_reserved": 0, "bike_id": "74b300883287d34dbef50b04b3b02229", "name": "74b300883287d34dbef50b04b3b02229"}, {"lat": 38.91109433333333, "fusion_lon": 0.0, "fusion_lat": 0.0, "is_disabled": 0, "type": "electric_scooter", "lon": -77.020991, "rental_uris": {"android": "https://dc.lft.to/lastmile_qr_scan", "ios": "https://dc.lft.to/lastmile_qr_scan"}, "is_reserved": 0, "bike_id": "37013592facfa65e488b92dfd914409e", "name": "37013592facfa65e488b92dfd914409e"}, {"lat": 38.869760166666666, "fusion_lon": 0.0, "fusion_lat": 0.0, "is_disabled": 0, "type": "electric_bike", "lon": -77.13228683333334, "rental_uris": {"android": "https://dc.lft.to/lastmile_qr_scan", "ios": "https://dc.lft.to/lastmile_qr_scan"}, "is_reserved": 0, "bike_id": "e4e3dcdc0f01aba9373720f01d2813d4", "name": "e4e3dcdc0f01aba9373720f01d2813d4"}, {"lat": 38.91190533333334, "fusion_lon": 0.0, "fusion_lat": 0.0, "is_disabled": 0, "type": "electric_scooter", "lon": -77.01882516666667, "rental_uris": {"android": "https://dc.lft.to/lastmile_qr_scan", "ios": "https://dc.lft.to/lastmile_qr_scan"}, "is_reserved": 0, "bike_id": "ba11efe1dec619ffa90fe4152ff89201", "name": "ba11efe1dec619ffa90fe4152ff89201"}, {"lat": 38.87666933333333, "fusion_lon": 0.0, "fusion_lat": 0.0, "is_disabled": 0, "type": "electric_scooter", "lon": -77.00576283333334, "rental_uris": {"android": "https://dc.lft.to/lastmile_qr_scan", "ios": "https://dc.lft.to/lastmile_qr_scan"}, "is_reserved": 0, "bike_id": "8f81451bf1a742c7d83a0c12243b91d4", "name": "8f81451bf1a742c7d83a0c12243b91d4"}, {"lat": 38.90269716666667, "fusion_lon": 0.0, "fusion_lat": 0.0, "is_disabled": 0, "type": "electric_scooter", "lon": -77.04007883333334, "rental_uris": {"android": "https://dc.lft.to/lastmile_qr_scan", "ios": "https://dc.lft.to/lastmile_qr_scan"}, "is_reserved": 0, "bike_id": "776a9e90422967f61d31249bfdc4c600", "name": "776a9e90422967f61d31249bfdc4c600"}, {"lat": 38.92234283333333, "fusion_lon": 0.0, "fusion_lat": 0.0, "is_disabled": 0, "type": "electric_scooter", "lon": -77.0424355, "rental_uris": {"android": "https://dc.lft.to/lastmile_qr_scan", "ios": "https://dc.lft.to/lastmile_qr_scan"}, "is_reserved": 0, "bike_id": "08b03ec56a818e744bc45fafb300e22c", "name": "08b03ec56a818e744bc45fafb300e22c"}, {"lat": 38.883917833333335, "fusion_lon": 0.0, "fusion_lat": 0.0, "is_disabled": 0, "type": "electric_scooter", "lon": -76.98539633333333, "rental_uris": {"android": "https://dc.lft.to/lastmile_qr_scan", "ios": "https://dc.lft.to/lastmile_qr_scan"}, "is_reserved": 0, "bike_id": "45ccf142d7898e838c023599e4700a11", "name": "45ccf142d7898e838c023599e4700a11"}, {"lat": 38.94433216666667, "fusion_lon": 0.0, "fusion_lat": 0.0, "is_disabled": 0, "type": "electric_bike", "lon": -76.98736366666667, "rental_uris": {"android": "https://dc.lft.to/lastmile_qr_scan", "ios": "https://dc.lft.to/lastmile_qr_scan"}, "is_reserved": 0, "bike_id": "28402377e21dbb852da09f7e21e1c168", "name": "28402377e21dbb852da09f7e21e1c168"}, {"lat": 38.89192383333334, "fusion_lon": 0.0, "fusion_lat": 0.0, "is_disabled": 0, "type": "electric_bike", "lon": -77.1225435, "rental_uris": {"android": "https://dc.lft.to/lastmile_qr_scan", "ios": "https://dc.lft.to/lastmile_qr_scan"}, "is_reserved": 0, "bike_id": "728d44fdcd26f2443ed78fe9db16bdc0", "name": "728d44fdcd26f2443ed78fe9db16bdc0"}, {"lat": 38.879183833333336, "fusion_lon": 0.0, "fusion_lat": 0.0, "is_disabled": 0, "type": "electric_scooter", "lon": -76.99157816666667, "rental_uris": {"android": "https://dc.lft.to/lastmile_qr_scan", "ios": "https://dc.lft.to/lastmile_qr_scan"}, "is_reserved": 0, "bike_id": "2fe37438673779c6afa84ec3a3121a0a", "name": "2fe37438673779c6afa84ec3a3121a0a"}, {"lat": 38.9289545, "fusion_lon": 0.0, "fusion_lat": 0.0, "is_disabled": 0, "type": "electric_scooter", "lon": -77.03215666666667, "rental_uris": {"android": "https://dc.lft.to/lastmile_qr_scan", "ios": "https://dc.lft.to/lastmile_qr_scan"}, "is_reserved": 0, "bike_id": "7a840bd55d14e34032c4fc20af0711a8", "name": "7a840bd55d14e34032c4fc20af0711a8"}, {"lat": 38.95593866666667, "fusion_lon": 0.0, "fusion_lat": 0.0, "is_disabled": 0, "type": "electric_scooter", "lon": -77.03647433333333, "rental_uris": {"android": "https://dc.lft.to/lastmile_qr_scan", "ios": "https://dc.lft.to/lastmile_qr_scan"}, "is_reserved": 0, "bike_id": "6c371b69d00bf1713e6aa27828611046", "name": "6c371b69d00bf1713e6aa27828611046"}, {"lat": 38.89223416666667, "fusion_lon": 0.0, "fusion_lat": 0.0, "is_disabled": 0, "type": "electric_scooter", "lon": -77.0242325, "rental_uris": {"android": "https://dc.lft.to/lastmile_qr_scan", "ios": "https://dc.lft.to/lastmile_qr_scan"}, "is_reserved": 0, "bike_id": "8c8a77f04469bf2a54e5d873c6f7b34f", "name": "8c8a77f04469bf2a54e5d873c6f7b34f"}, {"lat": 38.877464833333335, "fusion_lon": 0.0, "fusion_lat": 0.0, "is_disabled": 0, "type": "electric_scooter", "lon": -77.00210666666666, "rental_uris": {"android": "https://dc.lft.to/lastmile_qr_scan", "ios": "https://dc.lft.to/lastmile_qr_scan"}, "is_reserved": 0, "bike_id": "e44d9939acdae9cbc20d4ed4060babba", "name": "e44d9939acdae9cbc20d4ed4060babba"}, {"lat": 38.90298033333333, "fusion_lon": 0.0, "fusion_lat": 0.0, "is_disabled": 0, "type": "electric_scooter", "lon": -77.03482033333333, "rental_uris": {"android": "https://dc.lft.to/lastmile_qr_scan", "ios": "https://dc.lft.to/lastmile_qr_scan"}, "is_reserved": 0, "bike_id": "3a42d1ddf45b55bf21e1b440f3846096", "name": "3a42d1ddf45b55bf21e1b440f3846096"}, {"lat": 38.9022465, "fusion_lon": 0.0, "fusion_lat": 0.0, "is_disabled": 0, "type": "electric_scooter", "lon": -77.04736916666667, "rental_uris": {"android": "https://dc.lft.to/lastmile_qr_scan", "ios": "https://dc.lft.to/lastmile_qr_scan"}, "is_reserved": 0, "bike_id": "66c66e9dccfc61c0d829e30f8fe08369", "name": "66c66e9dccfc61c0d829e30f8fe08369"}, {"lat": 38.905612833333336, "fusion_lon": 0.0, "fusion_lat": 0.0, "is_disabled": 0, "type": "electric_scooter", "lon": -77.0108865, "rental_uris": {"android": "https://dc.lft.to/lastmile_qr_scan", "ios": "https://dc.lft.to/lastmile_qr_scan"}, "is_reserved": 0, "bike_id": "351c2dd0486ce3d0b2dd576a09153dad", "name": "351c2dd0486ce3d0b2dd576a09153dad"}, {"lat": 38.946943166666664, "fusion_lon": 0.0, "fusion_lat": 0.0, "is_disabled": 0, "type": "electric_scooter", "lon": -77.06987783333334, "rental_uris": {"android": "https://dc.lft.to/lastmile_qr_scan", "ios": "https://dc.lft.to/lastmile_qr_scan"}, "is_reserved": 0, "bike_id": "e196044b06aed019a03cbacc79880bf6", "name": "e196044b06aed019a03cbacc79880bf6"}, {"lat": 38.88293566666667, "fusion_lon": 0.0, "fusion_lat": 0.0, "is_disabled": 0, "type": "electric_scooter", "lon": -76.99352416666666, "rental_uris": {"android": "https://dc.lft.to/lastmile_qr_scan", "ios": "https://dc.lft.to/lastmile_qr_scan"}, "is_reserved": 0, "bike_id": "bbde2dda57ff9d041abfcda057c0f1f8", "name": "bbde2dda57ff9d041abfcda057c0f1f8"}, {"lat": 38.91948683333333, "fusion_lon": 0.0, "fusion_lat": 0.0, "is_disabled": 0, "type": "electric_scooter", "lon": -77.024992, "rental_uris": {"android": "https://dc.lft.to/lastmile_qr_scan", "ios": "https://dc.lft.to/lastmile_qr_scan"}, "is_reserved": 0, "bike_id": "f2245ee4d3bb5eafd3870a8a7ff5c14a", "name": "f2245ee4d3bb5eafd3870a8a7ff5c14a"}, {"lat": 38.914667666666666, "fusion_lon": 0.0, "fusion_lat": 0.0, "is_disabled": 0, "type": "electric_scooter", "lon": -77.01558866666667, "rental_uris": {"android": "https://dc.lft.to/lastmile_qr_scan", "ios": "https://dc.lft.to/lastmile_qr_scan"}, "is_reserved": 0, "bike_id": "a820d6d0986a1e241822b64d476abe86", "name": "a820d6d0986a1e241822b64d476abe86"}, {"lat": 38.95617083333333, "fusion_lon": 0.0, "fusion_lat": 0.0, "is_disabled": 0, "type": "electric_scooter", "lon": -77.02812333333334, "rental_uris": {"android": "https://dc.lft.to/lastmile_qr_scan", "ios": "https://dc.lft.to/lastmile_qr_scan"}, "is_reserved": 0, "bike_id": "db000bdf3caae4e3660ca74ada4475b2", "name": "db000bdf3caae4e3660ca74ada4475b2"}, {"lat": 38.828742166666665, "fusion_lon": 0.0, "fusion_lat": 0.0, "is_disabled": 0, "type": "electric_bike", "lon": -77.11227516666666, "rental_uris": {"android": "https://dc.lft.to/lastmile_qr_scan", "ios": "https://dc.lft.to/lastmile_qr_scan"}, "is_reserved": 0, "bike_id": "ae9b73b18fa375080849ccea3128913c", "name": "ae9b73b18fa375080849ccea3128913c"}, {"lat": 38.92423683333333, "fusion_lon": 0.0, "fusion_lat": 0.0, "is_disabled": 0, "type": "electric_scooter", "lon": -77.05615866666666, "rental_uris": {"android": "https://dc.lft.to/lastmile_qr_scan", "ios": "https://dc.lft.to/lastmile_qr_scan"}, "is_reserved": 0, "bike_id": "78dced19ee12356ceac3810b876bf17e", "name": "78dced19ee12356ceac3810b876bf17e"}, {"lat": 38.90231166666667, "fusion_lon": 0.0, "fusion_lat": 0.0, "is_disabled": 0, "type": "electric_scooter", "lon": -77.04760516666667, "rental_uris": {"android": "https://dc.lft.to/lastmile_qr_scan", "ios": "https://dc.lft.to/lastmile_qr_scan"}, "is_reserved": 0, "bike_id": "936133b4ee788f35b7f3dbfef813685c", "name": "936133b4ee788f35b7f3dbfef813685c"}, {"lat": 38.90362016666667, "fusion_lon": 0.0, "fusion_lat": 0.0, "is_disabled": 0, "type": "electric_scooter", "lon": -77.06760133333333, "rental_uris": {"android": "https://dc.lft.to/lastmile_qr_scan", "ios": "https://dc.lft.to/lastmile_qr_scan"}, "is_reserved": 0, "bike_id": "ccabb22479eca40914618628aafcc379", "name": "ccabb22479eca40914618628aafcc379"}, {"lat": 38.955527333333336, "fusion_lon": 0.0, "fusion_lat": 0.0, "is_disabled": 0, "type": "electric_bike", "lon": -76.93541833333333, "rental_uris": {"android": "https://dc.lft.to/lastmile_qr_scan", "ios": "https://dc.lft.to/lastmile_qr_scan"}, "is_reserved": 0, "bike_id": "e67ce623c494b809db8e554a4cfec37c", "name": "e67ce623c494b809db8e554a4cfec37c"}, {"lat": 38.831933166666666, "fusion_lon": 0.0, "fusion_lat": 0.0, "is_disabled": 0, "type": "electric_bike", "lon": -77.07680683333334, "rental_uris": {"android": "https://dc.lft.to/lastmile_qr_scan", "ios": "https://dc.lft.to/lastmile_qr_scan"}, "is_reserved": 0, "bike_id": "2354f074447d833072aa29262c4435d3", "name": "2354f074447d833072aa29262c4435d3"}, {"lat": 38.901500166666665, "fusion_lon": 0.0, "fusion_lat": 0.0, "is_disabled": 0, "type": "electric_scooter", "lon": -77.04491416666667, "rental_uris": {"android": "https://dc.lft.to/lastmile_qr_scan", "ios": "https://dc.lft.to/lastmile_qr_scan"}, "is_reserved": 0, "bike_id": "de1aac22ac6e9db9315dfaac7c20a958", "name": "de1aac22ac6e9db9315dfaac7c20a958"}, {"lat": 38.8925575, "fusion_lon": 0.0, "fusion_lat": 0.0, "is_disabled": 0, "type": "electric_scooter", "lon": -77.03212333333333, "rental_uris": {"android": "https://dc.lft.to/lastmile_qr_scan", "ios": "https://dc.lft.to/lastmile_qr_scan"}, "is_reserved": 0, "bike_id": "aab0f27020d7901d2ab9299b7e916512", "name": "aab0f27020d7901d2ab9299b7e916512"}, {"lat": 38.9336825, "fusion_lon": 0.0, "fusion_lat": 0.0, "is_disabled": 0, "type": "electric_bike", "lon": -76.9909445, "rental_uris": {"android": "https://dc.lft.to/lastmile_qr_scan", "ios": "https://dc.lft.to/lastmile_qr_scan"}, "is_reserved": 0, "bike_id": "51c1aa30401420e6b6219b174eaca392", "name": "51c1aa30401420e6b6219b174eaca392"}, {"lat": 38.92032966666667, "fusion_lon": 0.0, "fusion_lat": 0.0, "is_disabled": 0, "type": "electric_scooter", "lon": -76.970115, "rental_uris": {"android": "https://dc.lft.to/lastmile_qr_scan", "ios": "https://dc.lft.to/lastmile_qr_scan"}, "is_reserved": 0, "bike_id": "e782526395d53d5efc97cc0d4d1ff329", "name": "e782526395d53d5efc97cc0d4d1ff329"}, {"lat": 38.8851355, "fusion_lon": 0.0, "fusion_lat": 0.0, "is_disabled": 0, "type": "electric_scooter", "lon": -77.02091233333333, "rental_uris": {"android": "https://dc.lft.to/lastmile_qr_scan", "ios": "https://dc.lft.to/lastmile_qr_scan"}, "is_reserved": 0, "bike_id": "6cbbf434921d1acccc912219921db829", "name": "6cbbf434921d1acccc912219921db829"}, {"lat": 38.89252533333333, "fusion_lon": 0.0, "fusion_lat": 0.0, "is_disabled": 0, "type": "electric_scooter", "lon": -77.03346883333333, "rental_uris": {"android": "https://dc.lft.to/lastmile_qr_scan", "ios": "https://dc.lft.to/lastmile_qr_scan"}, "is_reserved": 0, "bike_id": "2da47f23423ed2d189e82ec5e925f40e", "name": "2da47f23423ed2d189e82ec5e925f40e"}, {"lat": 38.92317216666667, "fusion_lon": 0.0, "fusion_lat": 0.0, "is_disabled": 0, "type": "electric_scooter", "lon": -77.0297915, "rental_uris": {"android": "https://dc.lft.to/lastmile_qr_scan", "ios": "https://dc.lft.to/lastmile_qr_scan"}, "is_reserved": 0, "bike_id": "d6eada1d26ee78121c949d4b5bfdf0ef", "name": "d6eada1d26ee78121c949d4b5bfdf0ef"}, {"lat": 38.902074166666665, "fusion_lon": 0.0, "fusion_lat": 0.0, "is_disabled": 0, "type": "electric_scooter", "lon": -77.0237815, "rental_uris": {"android": "https://dc.lft.to/lastmile_qr_scan", "ios": "https://dc.lft.to/lastmile_qr_scan"}, "is_reserved": 0, "bike_id": "28897d802d41e2ba5ea8c6865d6a6e4b", "name": "28897d802d41e2ba5ea8c6865d6a6e4b"}, {"lat": 38.9041725, "fusion_lon": 0.0, "fusion_lat": 0.0, "is_disabled": 0, "type": "electric_scooter", "lon": -77.0511345, "rental_uris": {"android": "https://dc.lft.to/lastmile_qr_scan", "ios": "https://dc.lft.to/lastmile_qr_scan"}, "is_reserved": 0, "bike_id": "f113f168e5cdb04a0fdc024129ef6077", "name": "f113f168e5cdb04a0fdc024129ef6077"}, {"lat": 38.84287, "fusion_lon": 0.0, "fusion_lat": 0.0, "is_disabled": 0, "type": "electric_scooter", "lon": -76.99078516666667, "rental_uris": {"android": "https://dc.lft.to/lastmile_qr_scan", "ios": "https://dc.lft.to/lastmile_qr_scan"}, "is_reserved": 0, "bike_id": "f3a7fec004f52b57ce3d57e1ae640b3f", "name": "f3a7fec004f52b57ce3d57e1ae640b3f"}, {"lat": 38.93918716666667, "fusion_lon": 0.0, "fusion_lat": 0.0, "is_disabled": 0, "type": "electric_scooter", "lon": -77.01897133333334, "rental_uris": {"android": "https://dc.lft.to/lastmile_qr_scan", "ios": "https://dc.lft.to/lastmile_qr_scan"}, "is_reserved": 0, "bike_id": "8755e15126ca9a8d26d6a214a4d7cf56", "name": "8755e15126ca9a8d26d6a214a4d7cf56"}, {"lat": 38.89644283333333, "fusion_lon": 0.0, "fusion_lat": 0.0, "is_disabled": 0, "type": "electric_bike", "lon": -76.94776366666666, "rental_uris": {"android": "https://dc.lft.to/lastmile_qr_scan", "ios": "https://dc.lft.to/lastmile_qr_scan"}, "is_reserved": 0, "bike_id": "3645f8c22e636076ca9efd0b30345ad3", "name": "3645f8c22e636076ca9efd0b30345ad3"}, {"lat": 38.90201033333334, "fusion_lon": 0.0, "fusion_lat": 0.0, "is_disabled": 0, "type": "electric_scooter", "lon": -77.0237715, "rental_uris": {"android": "https://dc.lft.to/lastmile_qr_scan", "ios": "https://dc.lft.to/lastmile_qr_scan"}, "is_reserved": 0, "bike_id": "452fc5f91e6b498f5ffc058b8ed7c46e", "name": "452fc5f91e6b498f5ffc058b8ed7c46e"}, {"lat": 38.887413, "fusion_lon": 0.0, "fusion_lat": 0.0, "is_disabled": 0, "type": "electric_scooter", "lon": -77.02825233333333, "rental_uris": {"android": "https://dc.lft.to/lastmile_qr_scan", "ios": "https://dc.lft.to/lastmile_qr_scan"}, "is_reserved": 0, "bike_id": "fdf9c0b84421a39dfbbdbd1175de36a6", "name": "fdf9c0b84421a39dfbbdbd1175de36a6"}, {"lat": 38.93551983333333, "fusion_lon": 0.0, "fusion_lat": 0.0, "is_disabled": 0, "type": "electric_scooter", "lon": -77.034608, "rental_uris": {"android": "https://dc.lft.to/lastmile_qr_scan", "ios": "https://dc.lft.to/lastmile_qr_scan"}, "is_reserved": 0, "bike_id": "835f83c05b3ac84b651f66f47019fc5b", "name": "835f83c05b3ac84b651f66f47019fc5b"}, {"lat": 38.900328333333334, "fusion_lon": 0.0, "fusion_lat": 0.0, "is_disabled": 0, "type": "electric_scooter", "lon": -77.00205766666667, "rental_uris": {"android": "https://dc.lft.to/lastmile_qr_scan", "ios": "https://dc.lft.to/lastmile_qr_scan"}, "is_reserved": 0, "bike_id": "f28812e49f224640c75f84a4d31c5593", "name": "f28812e49f224640c75f84a4d31c5593"}, {"lat": 38.8030645, "fusion_lon": 0.0, "fusion_lat": 0.0, "is_disabled": 0, "type": "electric_bike", "lon": -77.03982966666666, "rental_uris": {"android": "https://dc.lft.to/lastmile_qr_scan", "ios": "https://dc.lft.to/lastmile_qr_scan"}, "is_reserved": 0, "bike_id": "b52c0033d1c571ec98fbbae0c70b700a", "name": "b52c0033d1c571ec98fbbae0c70b700a"}, {"lat": 38.926849, "fusion_lon": 0.0, "fusion_lat": 0.0, "is_disabled": 0, "type": "electric_scooter", "lon": -77.022814, "rental_uris": {"android": "https://dc.lft.to/lastmile_qr_scan", "ios": "https://dc.lft.to/lastmile_qr_scan"}, "is_reserved": 0, "bike_id": "2071a8472768715b9564d8c545fd4503", "name": "2071a8472768715b9564d8c545fd4503"}, {"lat": 38.92952966666667, "fusion_lon": 0.0, "fusion_lat": 0.0, "is_disabled": 0, "type": "electric_scooter", "lon": -76.99096166666666, "rental_uris": {"android": "https://dc.lft.to/lastmile_qr_scan", "ios": "https://dc.lft.to/lastmile_qr_scan"}, "is_reserved": 0, "bike_id": "e486b288d121781d0ff748e5c8111900", "name": "e486b288d121781d0ff748e5c8111900"}, {"lat": 38.9060125, "fusion_lon": 0.0, "fusion_lat": 0.0, "is_disabled": 0, "type": "electric_scooter", "lon": -77.00357716666667, "rental_uris": {"android": "https://dc.lft.to/lastmile_qr_scan", "ios": "https://dc.lft.to/lastmile_qr_scan"}, "is_reserved": 0, "bike_id": "9a0a3a19800b6d5746295635b99d075b", "name": "9a0a3a19800b6d5746295635b99d075b"}, {"lat": 38.91277383333333, "fusion_lon": 0.0, "fusion_lat": 0.0, "is_disabled": 0, "type": "electric_scooter", "lon": -77.038735, "rental_uris": {"android": "https://dc.lft.to/lastmile_qr_scan", "ios": "https://dc.lft.to/lastmile_qr_scan"}, "is_reserved": 0, "bike_id": "983d6ce9958a8c7293185ff21a3156b6", "name": "983d6ce9958a8c7293185ff21a3156b6"}, {"lat": 38.8922185, "fusion_lon": 0.0, "fusion_lat": 0.0, "is_disabled": 0, "type": "electric_scooter", "lon": -77.02218466666666, "rental_uris": {"android": "https://dc.lft.to/lastmile_qr_scan", "ios": "https://dc.lft.to/lastmile_qr_scan"}, "is_reserved": 0, "bike_id": "4ebc5c366e880ac58bc34299dccb0026", "name": "4ebc5c366e880ac58bc34299dccb0026"}, {"lat": 38.91041416666667, "fusion_lon": 0.0, "fusion_lat": 0.0, "is_disabled": 0, "type": "electric_scooter", "lon": -77.04285583333333, "rental_uris": {"android": "https://dc.lft.to/lastmile_qr_scan", "ios": "https://dc.lft.to/lastmile_qr_scan"}, "is_reserved": 0, "bike_id": "d803b18a59250e8dd6ecabeb7ef0ce51", "name": "d803b18a59250e8dd6ecabeb7ef0ce51"}, {"lat": 38.91562416666667, "fusion_lon": 0.0, "fusion_lat": 0.0, "is_disabled": 0, "type": "electric_scooter", "lon": -77.00618933333334, "rental_uris": {"android": "https://dc.lft.to/lastmile_qr_scan", "ios": "https://dc.lft.to/lastmile_qr_scan"}, "is_reserved": 0, "bike_id": "94ee11fb3965d8c6600cbc1f0c728bb0", "name": "94ee11fb3965d8c6600cbc1f0c728bb0"}, {"lat": 38.844709, "fusion_lon": 0.0, "fusion_lat": 0.0, "is_disabled": 0, "type": "electric_scooter", "lon": -76.99505466666666, "rental_uris": {"android": "https://dc.lft.to/lastmile_qr_scan", "ios": "https://dc.lft.to/lastmile_qr_scan"}, "is_reserved": 0, "bike_id": "f54ace1d075305d18fa771a0c878dd19", "name": "f54ace1d075305d18fa771a0c878dd19"}, {"lat": 38.895165166666665, "fusion_lon": 0.0, "fusion_lat": 0.0, "is_disabled": 0, "type": "electric_scooter", "lon": -77.02412216666667, "rental_uris": {"android": "https://dc.lft.to/lastmile_qr_scan", "ios": "https://dc.lft.to/lastmile_qr_scan"}, "is_reserved": 0, "bike_id": "4735b409434cc810e437a864735af619", "name": "4735b409434cc810e437a864735af619"}, {"lat": 38.8732075, "fusion_lon": 0.0, "fusion_lat": 0.0, "is_disabled": 0, "type": "electric_scooter", "lon": -76.99148116666667, "rental_uris": {"android": "https://dc.lft.to/lastmile_qr_scan", "ios": "https://dc.lft.to/lastmile_qr_scan"}, "is_reserved": 0, "bike_id": "212b47a5b5ca2fffc60175652b2dcf05", "name": "212b47a5b5ca2fffc60175652b2dcf05"}, {"lat": 38.890168833333334, "fusion_lon": 0.0, "fusion_lat": 0.0, "is_disabled": 0, "type": "electric_scooter", "lon": -76.93738116666667, "rental_uris": {"android": "https://dc.lft.to/lastmile_qr_scan", "ios": "https://dc.lft.to/lastmile_qr_scan"}, "is_reserved": 0, "bike_id": "8f4e894b0ac57f98ece1333f8713fd79", "name": "8f4e894b0ac57f98ece1333f8713fd79"}, {"lat": 38.966254166666666, "fusion_lon": 0.0, "fusion_lat": 0.0, "is_disabled": 0, "type": "electric_scooter", "lon": -77.02752233333334, "rental_uris": {"android": "https://dc.lft.to/lastmile_qr_scan", "ios": "https://dc.lft.to/lastmile_qr_scan"}, "is_reserved": 0, "bike_id": "a556c59200c12449dbf30666011bb530", "name": "a556c59200c12449dbf30666011bb530"}, {"lat": 38.917684666666666, "fusion_lon": 0.0, "fusion_lat": 0.0, "is_disabled": 0, "type": "electric_scooter", "lon": -77.018727, "rental_uris": {"android": "https://dc.lft.to/lastmile_qr_scan", "ios": "https://dc.lft.to/lastmile_qr_scan"}, "is_reserved": 0, "bike_id": "95fea27dfe784f36566616d84aea5d49", "name": "95fea27dfe784f36566616d84aea5d49"}, {"lat": 38.8803395, "fusion_lon": 0.0, "fusion_lat": 0.0, "is_disabled": 0, "type": "electric_scooter", "lon": -76.9962405, "rental_uris": {"android": "https://dc.lft.to/lastmile_qr_scan", "ios": "https://dc.lft.to/lastmile_qr_scan"}, "is_reserved": 0, "bike_id": "b037929d40c32d16a0de2fd2e4056b91", "name": "b037929d40c32d16a0de2fd2e4056b91"}, {"lat": 38.9253055, "fusion_lon": 0.0, "fusion_lat": 0.0, "is_disabled": 0, "type": "electric_scooter", "lon": -77.04113383333333, "rental_uris": {"android": "https://dc.lft.to/lastmile_qr_scan", "ios": "https://dc.lft.to/lastmile_qr_scan"}, "is_reserved": 0, "bike_id": "9887549001fd729e1d96089cc07f22d1", "name": "9887549001fd729e1d96089cc07f22d1"}, {"lat": 38.933708333333335, "fusion_lon": 0.0, "fusion_lat": 0.0, "is_disabled": 0, "type": "electric_scooter", "lon": -77.0572205, "rental_uris": {"android": "https://dc.lft.to/lastmile_qr_scan", "ios": "https://dc.lft.to/lastmile_qr_scan"}, "is_reserved": 0, "bike_id": "450a5a2936067385d98adbf0e644d210", "name": "450a5a2936067385d98adbf0e644d210"}, {"lat": 38.9002285, "fusion_lon": 0.0, "fusion_lat": 0.0, "is_disabled": 0, "type": "electric_scooter", "lon": -76.9944635, "rental_uris": {"android": "https://dc.lft.to/lastmile_qr_scan", "ios": "https://dc.lft.to/lastmile_qr_scan"}, "is_reserved": 0, "bike_id": "d822397826388e2f8367785d0b3ddf34", "name": "d822397826388e2f8367785d0b3ddf34"}, {"lat": 38.92238416666667, "fusion_lon": 0.0, "fusion_lat": 0.0, "is_disabled": 0, "type": "electric_scooter", "lon": -77.03887566666667, "rental_uris": {"android": "https://dc.lft.to/lastmile_qr_scan", "ios": "https://dc.lft.to/lastmile_qr_scan"}, "is_reserved": 0, "bike_id": "5adb824bc9dd07a4ff29ba7bac2da428", "name": "5adb824bc9dd07a4ff29ba7bac2da428"}, {"lat": 38.86709466666667, "fusion_lon": 0.0, "fusion_lat": 0.0, "is_disabled": 0, "type": "electric_scooter", "lon": -76.98721183333333, "rental_uris": {"android": "https://dc.lft.to/lastmile_qr_scan", "ios": "https://dc.lft.to/lastmile_qr_scan"}, "is_reserved": 0, "bike_id": "81a2d64b6db2c0e6dc8027dfbd36fb3b", "name": "81a2d64b6db2c0e6dc8027dfbd36fb3b"}, {"lat": 38.87448666666667, "fusion_lon": 0.0, "fusion_lat": 0.0, "is_disabled": 0, "type": "electric_scooter", "lon": -77.009207, "rental_uris": {"android": "https://dc.lft.to/lastmile_qr_scan", "ios": "https://dc.lft.to/lastmile_qr_scan"}, "is_reserved": 0, "bike_id": "ecf81054bba6f1598540af46c0cb07f7", "name": "ecf81054bba6f1598540af46c0cb07f7"}, {"lat": 38.894388, "fusion_lon": 0.0, "fusion_lat": 0.0, "is_disabled": 0, "type": "electric_scooter", "lon": -76.94984583333333, "rental_uris": {"android": "https://dc.lft.to/lastmile_qr_scan", "ios": "https://dc.lft.to/lastmile_qr_scan"}, "is_reserved": 0, "bike_id": "dd17a54e310e890b0dced5c049e90022", "name": "dd17a54e310e890b0dced5c049e90022"}, {"lat": 38.901259, "fusion_lon": 0.0, "fusion_lat": 0.0, "is_disabled": 0, "type": "electric_scooter", "lon": -77.04970833333333, "rental_uris": {"android": "https://dc.lft.to/lastmile_qr_scan", "ios": "https://dc.lft.to/lastmile_qr_scan"}, "is_reserved": 0, "bike_id": "6547f65fcb2ed7f57a40189b4403eec9", "name": "6547f65fcb2ed7f57a40189b4403eec9"}, {"lat": 38.905501666666666, "fusion_lon": 0.0, "fusion_lat": 0.0, "is_disabled": 0, "type": "electric_scooter", "lon": -77.04757766666667, "rental_uris": {"android": "https://dc.lft.to/lastmile_qr_scan", "ios": "https://dc.lft.to/lastmile_qr_scan"}, "is_reserved": 0, "bike_id": "7801f8e996094522c08ed0fc6b0985d5", "name": "7801f8e996094522c08ed0fc6b0985d5"}, {"lat": 38.902833666666666, "fusion_lon": 0.0, "fusion_lat": 0.0, "is_disabled": 0, "type": "electric_scooter", "lon": -77.0366555, "rental_uris": {"android": "https://dc.lft.to/lastmile_qr_scan", "ios": "https://dc.lft.to/lastmile_qr_scan"}, "is_reserved": 0, "bike_id": "e23f04d56eb6928b868ef72f4c1b6716", "name": "e23f04d56eb6928b868ef72f4c1b6716"}, {"lat": 38.92188766666666, "fusion_lon": 0.0, "fusion_lat": 0.0, "is_disabled": 0, "type": "electric_scooter", "lon": -77.04345133333334, "rental_uris": {"android": "https://dc.lft.to/lastmile_qr_scan", "ios": "https://dc.lft.to/lastmile_qr_scan"}, "is_reserved": 0, "bike_id": "718016274ef8c6fd3641e46db8f84673", "name": "718016274ef8c6fd3641e46db8f84673"}, {"lat": 38.912206833333336, "fusion_lon": 0.0, "fusion_lat": 0.0, "is_disabled": 0, "type": "electric_scooter", "lon": -77.03845033333333, "rental_uris": {"android": "https://dc.lft.to/lastmile_qr_scan", "ios": "https://dc.lft.to/lastmile_qr_scan"}, "is_reserved": 0, "bike_id": "21c629b19cd7698fc9c465d67207345a", "name": "21c629b19cd7698fc9c465d67207345a"}, {"lat": 38.9201965, "fusion_lon": 0.0, "fusion_lat": 0.0, "is_disabled": 0, "type": "electric_scooter", "lon": -76.97884183333333, "rental_uris": {"android": "https://dc.lft.to/lastmile_qr_scan", "ios": "https://dc.lft.to/lastmile_qr_scan"}, "is_reserved": 0, "bike_id": "da7073455b78feb846b93a829c125526", "name": "da7073455b78feb846b93a829c125526"}, {"lat": 38.905257666666664, "fusion_lon": 0.0, "fusion_lat": 0.0, "is_disabled": 0, "type": "electric_scooter", "lon": -77.04991383333333, "rental_uris": {"android": "https://dc.lft.to/lastmile_qr_scan", "ios": "https://dc.lft.to/lastmile_qr_scan"}, "is_reserved": 0, "bike_id": "535c3d7c7018a706b37e3f2fbb055515", "name": "535c3d7c7018a706b37e3f2fbb055515"}, {"lat": 38.906170833333334, "fusion_lon": 0.0, "fusion_lat": 0.0, "is_disabled": 0, "type": "electric_scooter", "lon": -77.03887466666667, "rental_uris": {"android": "https://dc.lft.to/lastmile_qr_scan", "ios": "https://dc.lft.to/lastmile_qr_scan"}, "is_reserved": 0, "bike_id": "25bdcd2e9a83ea5e4102b8ddde4c55b4", "name": "25bdcd2e9a83ea5e4102b8ddde4c55b4"}, {"lat": 38.958469, "fusion_lon": 0.0, "fusion_lat": 0.0, "is_disabled": 0, "type": "electric_scooter", "lon": -77.028993, "rental_uris": {"android": "https://dc.lft.to/lastmile_qr_scan", "ios": "https://dc.lft.to/lastmile_qr_scan"}, "is_reserved": 0, "bike_id": "5afacf872514c0599cb55efa40ef7b6d", "name": "5afacf872514c0599cb55efa40ef7b6d"}, {"lat": 38.9142875, "fusion_lon": 0.0, "fusion_lat": 0.0, "is_disabled": 0, "type": "electric_scooter", "lon": -77.0381105, "rental_uris": {"android": "https://dc.lft.to/lastmile_qr_scan", "ios": "https://dc.lft.to/lastmile_qr_scan"}, "is_reserved": 0, "bike_id": "dd197e5011bd03f66d55de0f74a22254", "name": "dd197e5011bd03f66d55de0f74a22254"}, {"lat": 38.8848, "fusion_lon": 0.0, "fusion_lat": 0.0, "is_disabled": 0, "type": "electric_scooter", "lon": -77.02331466666666, "rental_uris": {"android": "https://dc.lft.to/lastmile_qr_scan", "ios": "https://dc.lft.to/lastmile_qr_scan"}, "is_reserved": 0, "bike_id": "b9cfb26dd9f412a1ea441f9686626ac7", "name": "b9cfb26dd9f412a1ea441f9686626ac7"}, {"lat": 38.912732166666665, "fusion_lon": 0.0, "fusion_lat": 0.0, "is_disabled": 0, "type": "electric_scooter", "lon": -77.03865083333334, "rental_uris": {"android": "https://dc.lft.to/lastmile_qr_scan", "ios": "https://dc.lft.to/lastmile_qr_scan"}, "is_reserved": 0, "bike_id": "a9c15c9d31ad63ebaccf2f3d96b587a3", "name": "a9c15c9d31ad63ebaccf2f3d96b587a3"}, {"lat": 38.90719383333333, "fusion_lon": 0.0, "fusion_lat": 0.0, "is_disabled": 0, "type": "electric_scooter", "lon": -77.0404375, "rental_uris": {"android": "https://dc.lft.to/lastmile_qr_scan", "ios": "https://dc.lft.to/lastmile_qr_scan"}, "is_reserved": 0, "bike_id": "c9ac7f7dfd64794dab2571f105e9b19a", "name": "c9ac7f7dfd64794dab2571f105e9b19a"}, {"lat": 38.9367705, "fusion_lon": 0.0, "fusion_lat": 0.0, "is_disabled": 0, "type": "electric_scooter", "lon": -77.03619216666667, "rental_uris": {"android": "https://dc.lft.to/lastmile_qr_scan", "ios": "https://dc.lft.to/lastmile_qr_scan"}, "is_reserved": 0, "bike_id": "f5c65ba247b4eff7f0b564195b0382ba", "name": "f5c65ba247b4eff7f0b564195b0382ba"}, {"lat": 38.92393583333333, "fusion_lon": 0.0, "fusion_lat": 0.0, "is_disabled": 0, "type": "electric_scooter", "lon": -77.0408995, "rental_uris": {"android": "https://dc.lft.to/lastmile_qr_scan", "ios": "https://dc.lft.to/lastmile_qr_scan"}, "is_reserved": 0, "bike_id": "21d0cd2901b864fe7ca9698ac06b97e9", "name": "21d0cd2901b864fe7ca9698ac06b97e9"}, {"lat": 38.907123166666665, "fusion_lon": 0.0, "fusion_lat": 0.0, "is_disabled": 0, "type": "electric_scooter", "lon": -77.00165183333333, "rental_uris": {"android": "https://dc.lft.to/lastmile_qr_scan", "ios": "https://dc.lft.to/lastmile_qr_scan"}, "is_reserved": 0, "bike_id": "6b4d81a07eddc95280d8fdd332619483", "name": "6b4d81a07eddc95280d8fdd332619483"}, {"lat": 38.94706716666666, "fusion_lon": 0.0, "fusion_lat": 0.0, "is_disabled": 0, "type": "electric_scooter", "lon": -77.02978016666667, "rental_uris": {"android": "https://dc.lft.to/lastmile_qr_scan", "ios": "https://dc.lft.to/lastmile_qr_scan"}, "is_reserved": 0, "bike_id": "6894e042884f6733260f3d0e0574d3e4", "name": "6894e042884f6733260f3d0e0574d3e4"}, {"lat": 38.90975266666667, "fusion_lon": 0.0, "fusion_lat": 0.0, "is_disabled": 0, "type": "electric_bike", "lon": -77.08818366666667, "rental_uris": {"android": "https://dc.lft.to/lastmile_qr_scan", "ios": "https://dc.lft.to/lastmile_qr_scan"}, "is_reserved": 0, "bike_id": "c475cdae0e7949c1ded3965e4fd9131e", "name": "c475cdae0e7949c1ded3965e4fd9131e"}, {"lat": 38.867168666666664, "fusion_lon": 0.0, "fusion_lat": 0.0, "is_disabled": 0, "type": "electric_scooter", "lon": -76.98728266666667, "rental_uris": {"android": "https://dc.lft.to/lastmile_qr_scan", "ios": "https://dc.lft.to/lastmile_qr_scan"}, "is_reserved": 0, "bike_id": "cfcc0d8c8fe6c49dc78457d3265f2a3b", "name": "cfcc0d8c8fe6c49dc78457d3265f2a3b"}, {"lat": 38.885873333333336, "fusion_lon": 0.0, "fusion_lat": 0.0, "is_disabled": 0, "type": "electric_scooter", "lon": -77.02570266666666, "rental_uris": {"android": "https://dc.lft.to/lastmile_qr_scan", "ios": "https://dc.lft.to/lastmile_qr_scan"}, "is_reserved": 0, "bike_id": "21a23d6ad18ed66bc70d5290c9062170", "name": "21a23d6ad18ed66bc70d5290c9062170"}, {"lat": 38.900572333333336, "fusion_lon": 0.0, "fusion_lat": 0.0, "is_disabled": 0, "type": "electric_scooter", "lon": -77.01389133333333, "rental_uris": {"android": "https://dc.lft.to/lastmile_qr_scan", "ios": "https://dc.lft.to/lastmile_qr_scan"}, "is_reserved": 0, "bike_id": "ac86b2ec08a7105377442b9cb2db6e09", "name": "ac86b2ec08a7105377442b9cb2db6e09"}, {"lat": 38.89618166666666, "fusion_lon": 0.0, "fusion_lat": 0.0, "is_disabled": 0, "type": "electric_scooter", "lon": -76.99933483333334, "rental_uris": {"android": "https://dc.lft.to/lastmile_qr_scan", "ios": "https://dc.lft.to/lastmile_qr_scan"}, "is_reserved": 0, "bike_id": "5a4f27f6c744ec3895b626d98e785103", "name": "5a4f27f6c744ec3895b626d98e785103"}, {"lat": 38.915539333333335, "fusion_lon": 0.0, "fusion_lat": 0.0, "is_disabled": 0, "type": "electric_scooter", "lon": -77.02823816666667, "rental_uris": {"android": "https://dc.lft.to/lastmile_qr_scan", "ios": "https://dc.lft.to/lastmile_qr_scan"}, "is_reserved": 0, "bike_id": "e3dedd1ef27829ca0200df5243a128a9", "name": "e3dedd1ef27829ca0200df5243a128a9"}, {"lat": 38.907348, "fusion_lon": 0.0, "fusion_lat": 0.0, "is_disabled": 0, "type": "electric_scooter", "lon": -77.03198433333333, "rental_uris": {"android": "https://dc.lft.to/lastmile_qr_scan", "ios": "https://dc.lft.to/lastmile_qr_scan"}, "is_reserved": 0, "bike_id": "997a2e60953850dc3ae421db0d40977a", "name": "997a2e60953850dc3ae421db0d40977a"}, {"lat": 38.8922145, "fusion_lon": 0.0, "fusion_lat": 0.0, "is_disabled": 0, "type": "electric_scooter", "lon": -77.02352033333334, "rental_uris": {"android": "https://dc.lft.to/lastmile_qr_scan", "ios": "https://dc.lft.to/lastmile_qr_scan"}, "is_reserved": 0, "bike_id": "e4edef3971db4eaa4f50caa2828562dd", "name": "e4edef3971db4eaa4f50caa2828562dd"}, {"lat": 38.842849333333334, "fusion_lon": 0.0, "fusion_lat": 0.0, "is_disabled": 0, "type": "electric_bike", "lon": -77.11412883333334, "rental_uris": {"android": "https://dc.lft.to/lastmile_qr_scan", "ios": "https://dc.lft.to/lastmile_qr_scan"}, "is_reserved": 0, "bike_id": "673a4e05a1c231b4c92f18e0505aff5f", "name": "673a4e05a1c231b4c92f18e0505aff5f"}, {"lat": 38.887713833333336, "fusion_lon": 0.0, "fusion_lat": 0.0, "is_disabled": 0, "type": "electric_scooter", "lon": -77.02171416666667, "rental_uris": {"android": "https://dc.lft.to/lastmile_qr_scan", "ios": "https://dc.lft.to/lastmile_qr_scan"}, "is_reserved": 0, "bike_id": "42f310ccc4028d99344b5b0d35764626", "name": "42f310ccc4028d99344b5b0d35764626"}, {"lat": 38.8132875, "fusion_lon": 0.0, "fusion_lat": 0.0, "is_disabled": 0, "type": "electric_bike", "lon": -77.050875, "rental_uris": {"android": "https://dc.lft.to/lastmile_qr_scan", "ios": "https://dc.lft.to/lastmile_qr_scan"}, "is_reserved": 0, "bike_id": "1c47f0cea409311147c309406c75ba41", "name": "1c47f0cea409311147c309406c75ba41"}, {"lat": 38.91196583333333, "fusion_lon": 0.0, "fusion_lat": 0.0, "is_disabled": 0, "type": "electric_scooter", "lon": -77.0321825, "rental_uris": {"android": "https://dc.lft.to/lastmile_qr_scan", "ios": "https://dc.lft.to/lastmile_qr_scan"}, "is_reserved": 0, "bike_id": "2a6a71d14337b4595be3c3b34a084147", "name": "2a6a71d14337b4595be3c3b34a084147"}, {"lat": 38.862152333333334, "fusion_lon": 0.0, "fusion_lat": 0.0, "is_disabled": 0, "type": "electric_scooter", "lon": -76.99481816666666, "rental_uris": {"android": "https://dc.lft.to/lastmile_qr_scan", "ios": "https://dc.lft.to/lastmile_qr_scan"}, "is_reserved": 0, "bike_id": "5dd88714b9f599d004f2aef6b30051b8", "name": "5dd88714b9f599d004f2aef6b30051b8"}, {"lat": 38.915464166666666, "fusion_lon": 0.0, "fusion_lat": 0.0, "is_disabled": 0, "type": "electric_scooter", "lon": -77.01219666666667, "rental_uris": {"android": "https://dc.lft.to/lastmile_qr_scan", "ios": "https://dc.lft.to/lastmile_qr_scan"}, "is_reserved": 0, "bike_id": "5aee2505eaa6516371928fc6e6593ce9", "name": "5aee2505eaa6516371928fc6e6593ce9"}, {"lat": 38.92270033333333, "fusion_lon": 0.0, "fusion_lat": 0.0, "is_disabled": 0, "type": "electric_bike", "lon": -76.99392, "rental_uris": {"android": "https://dc.lft.to/lastmile_qr_scan", "ios": "https://dc.lft.to/lastmile_qr_scan"}, "is_reserved": 0, "bike_id": "8f728ec930b8389de05c6fff68139697", "name": "8f728ec930b8389de05c6fff68139697"}, {"lat": 38.89485583333333, "fusion_lon": 0.0, "fusion_lat": 0.0, "is_disabled": 0, "type": "electric_scooter", "lon": -76.995174, "rental_uris": {"android": "https://dc.lft.to/lastmile_qr_scan", "ios": "https://dc.lft.to/lastmile_qr_scan"}, "is_reserved": 0, "bike_id": "0006a647b00f9ac78d7a864682bce3a3", "name": "0006a647b00f9ac78d7a864682bce3a3"},