{"data": {"bikes": [{"bike_id": "9165e1c849e6df52505673a663110183", "type": "electric_scooter", "is_disabled": 0, "lat": 38.9078025, "rental_uris": {"ios": "https://dc.lft.to/lastmile_qr_scan", "android": "https://dc.lft.to/lastmile_qr_scan"}, "is_reserved": 0, "fusion_lon": 0.0, "fusion_lat": 0.0, "lon": -77.04356366666667, "name": "9165e1c849e6df52505673a663110183"}, {"bike_id": "5e918db4ecbcdb68661474e22815d5db", "type": "electric_scooter", "is_disabled": 0, "lat": 38.8974525, "rental_uris": {"ios": "https://dc.lft.to/lastmile_qr_scan", "android": "https://dc.lft.to/lastmile_qr_scan"}, "is_reserved": 0, "fusion_lon": 0.0, "fusion_lat": 0.0, "lon": -77.02185033333333, "name": "5e918db4ecbcdb68661474e22815d5db"}, {"bike_id": "f389c746c67ae930dcd15d197feef0bc", "type": "electric_scooter", "is_disabled": 0, "lat": 38.955749, "rental_uris": {"ios": "https://dc.lft.to/lastmile_qr_scan", "android": "https://dc.lft.to/lastmile_qr_scan"}, "is_reserved": 0, "fusion_lon": 0.0, "fusion_lat": 0.0, "lon": -77.080391, "name": "f389c746c67ae930dcd15d197feef0bc"}, {"bike_id": "9a92987d68993ecba5551062ca9feb0f", "type": "electric_scooter", "is_disabled": 0, "lat": 38.917105666666664, "rental_uris": {"ios": "https://dc.lft.to/lastmile_qr_scan", "android": "https://dc.lft.to/lastmile_qr_scan"}, "is_reserved": 0, "fusion_lon": 0.0, "fusion_lat": 0.0, "lon": -77.02665216666666, "name": "9a92987d68993ecba5551062ca9feb0f"}, {"bike_id": "30da726063f7aaaacdaf94d5cbb3b11c", "type": "electric_scooter", "is_disabled": 0, "lat": 38.924136, "rental_uris": {"ios": "https://dc.lft.to/lastmile_qr_scan", "android": "https://dc.lft.to/lastmile_qr_scan"}, "is_reserved": 0, "fusion_lon": 0.0, "fusion_lat": 0.0, "lon": -77.02010666666666, "name": "30da726063f7aaaacdaf94d5cbb3b11c"}, {"bike_id": "c27ea622a4dc46cfe358e74f735caec7", "type": "electric_scooter", "is_disabled": 0, "lat": 38.921491833333334, "rental_uris": {"ios": "https://dc.lft.to/lastmile_qr_scan", "android": "https://dc.lft.to/lastmile_qr_scan"}, "is_reserved": 0, "fusion_lon": 0.0, "fusion_lat": 0.0, "lon": -77.03224216666666, "name": "c27ea622a4dc46cfe358e74f735caec7"}, {"bike_id": "f929ac8d01de9ed1a6a37b12f5aa78c1", "type": "electric_scooter", "is_disabled": 0, "lat": 38.9204545, "rental_uris": {"ios": "https://dc.lft.to/lastmile_qr_scan", "android": "https://dc.lft.to/lastmile_qr_scan"}, "is_reserved": 0, "fusion_lon": 0.0, "fusion_lat": 0.0, "lon": -77.02575183333333, "name": "f929ac8d01de9ed1a6a37b12f5aa78c1"}, {"bike_id": "0addc1ec17b9376b8870d2cc5650e62c", "type": "electric_bike", "is_disabled": 0, "lat": 38.993094, "rental_uris": {"ios": "https://dc.lft.to/lastmile_qr_scan", "android": "https://dc.lft.to/lastmile_qr_scan"}, "is_reserved": 0, "fusion_lon": 0.0, "fusion_lat": 0.0, "lon": -77.02305683333333, "name": "0addc1ec17b9376b8870d2cc5650e62c"}, {"bike_id": "a146e98066de4d4f2c88b0067344ff96", "type": "electric_scooter", "is_disabled": 0, "lat": 38.91767266666667, "rental_uris": {"ios": "https://dc.lft.to/lastmile_qr_scan", "android": "https://dc.lft.to/lastmile_qr_scan"}, "is_reserved": 0, "fusion_lon": 0.0, "fusion_lat": 0.0, "lon": -77.04765116666667, "name": "a146e98066de4d4f2c88b0067344ff96"}, {"bike_id": "d0dc4f4498af74e829506129795a567b", "type": "electric_scooter", "is_disabled": 0, "lat": 38.92483433333334, "rental_uris": {"ios": "https://dc.lft.to/lastmile_qr_scan", "android": "https://dc.lft.to/lastmile_qr_scan"}, "is_reserved": 0, "fusion_lon": 0.0, "fusion_lat": 0.0, "lon": -77.031827, "name": "d0dc4f4498af74e829506129795a567b"}, {"bike_id": "1929fa193a8cbde67cc9188b048b70e6", "type": "electric_bike", "is_disabled": 0, "lat": 38.9352535, "rental_uris": {"ios": "https://dc.lft.to/lastmile_qr_scan", "android": "https://dc.lft.to/lastmile_qr_scan"}, "is_reserved": 0, "fusion_lon": 0.0, "fusion_lat": 0.0, "lon": -76.9644795, "name": "1929fa193a8cbde67cc9188b048b70e6"}, {"bike_id": "d9adca7ff689f8d62a2db16c9cb87d89", "type": "electric_scooter", "is_disabled": 0, "lat": 38.90312983333333, "rental_uris": {"ios": "https://dc.lft.to/lastmile_qr_scan", "android": "https://dc.lft.to/lastmile_qr_scan"}, "is_reserved": 0, "fusion_lon": 0.0, "fusion_lat": 0.0, "lon": -76.9913155, "name": "d9adca7ff689f8d62a2db16c9cb87d89"}, {"bike_id": "c2ed2db248803fcc7e848fd72b15aed7", "type": "electric_scooter", "is_disabled": 0, "lat": 38.9022445, "rental_uris": {"ios": "https://dc.lft.to/lastmile_qr_scan", "android": "https://dc.lft.to/lastmile_qr_scan"}, "is_reserved": 0, "fusion_lon": 0.0, "fusion_lat": 0.0, "lon": -77.023691, "name": "c2ed2db248803fcc7e848fd72b15aed7"}, {"bike_id": "7a2faaafe56a6df93f2a8f80a4dab1e0", "type": "electric_scooter", "is_disabled": 0, "lat": 38.863741833333336, "rental_uris": {"ios": "https://dc.lft.to/lastmile_qr_scan", "android": "https://dc.lft.to/lastmile_qr_scan"}, "is_reserved": 0, "fusion_lon": 0.0, "fusion_lat": 0.0, "lon": -76.99059466666667, "name": "7a2faaafe56a6df93f2a8f80a4dab1e0"}, {"bike_id": "6adb7fae2477ec4e9009bf3415504bc0", "type": "electric_scooter", "is_disabled": 0, "lat": 38.8922175, "rental_uris": {"ios": "https://dc.lft.to/lastmile_qr_scan", "android": "https://dc.lft.to/lastmile_qr_scan"}, "is_reserved": 0, "fusion_lon": 0.0, "fusion_lat": 0.0, "lon": -77.03024383333333, "name": "6adb7fae2477ec4e9009bf3415504bc0"}, {"bike_id": "8a0ccbea5c4bf834411c6bb773308561", "type": "electric_scooter", "is_disabled": 0, "lat": 38.88658616666667, "rental_uris": {"ios": "https://dc.lft.to/lastmile_qr_scan", "android": "https://dc.lft.to/lastmile_qr_scan"}, "is_reserved": 0, "fusion_lon": 0.0, "fusion_lat": 0.0, "lon": -77.0282345, "name": "8a0ccbea5c4bf834411c6bb773308561"}, {"bike_id": "9c0c0b4359568c9eb885ac72a042f79e", "type": "electric_scooter", "is_disabled": 0, "lat": 38.91646016666667, "rental_uris": {"ios": "https://dc.lft.to/lastmile_qr_scan", "android": "https://dc.lft.to/lastmile_qr_scan"}, "is_reserved": 0, "fusion_lon": 0.0, "fusion_lat": 0.0, "lon": -77.03215083333333, "name": "9c0c0b4359568c9eb885ac72a042f79e"}, {"bike_id": "ce550d935fd1cbe5483a3d0e5332c223", "type": "electric_scooter", "is_disabled": 0, "lat": 38.903865, "rental_uris": {"ios": "https://dc.lft.to/lastmile_qr_scan", "android": "https://dc.lft.to/lastmile_qr_scan"}, "is_reserved": 0, "fusion_lon": 0.0, "fusion_lat": 0.0, "lon": -77.03180383333333, "name": "ce550d935fd1cbe5483a3d0e5332c223"}, {"bike_id": "c6babab5321191b58034f75bba29affd", "type": "electric_bike", "is_disabled": 0, "lat": 38.80974333333333, "rental_uris": {"ios": "https://dc.lft.to/lastmile_qr_scan", "android": "https://dc.lft.to/lastmile_qr_scan"}, "is_reserved": 0, "fusion_lon": 0.0, "fusion_lat": 0.0, "lon": -77.0862915, "name": "c6babab5321191b58034f75bba29affd"}, {"bike_id": "d91357e8f006d3252c6089f1018b1b0a", "type": "electric_scooter", "is_disabled": 0, "lat": 38.905295333333335, "rental_uris": {"ios": "https://dc.lft.to/lastmile_qr_scan", "android": "https://dc.lft.to/lastmile_qr_scan"}, "is_reserved": 0, "fusion_lon": 0.0, "fusion_lat": 0.0, "lon": -77.070281, "name": "d91357e8f006d3252c6089f1018b1b0a"}, {"bike_id": "009b20f2493428695a70abef9d5048a1", "type": "electric_scooter", "is_disabled": 0, "lat": 38.911172666666666, "rental_uris": {"ios": "https://dc.lft.to/lastmile_qr_scan", "android": "https://dc.lft.to/lastmile_qr_scan"}, "is_reserved": 0, "fusion_lon": 0.0, "fusion_lat": 0.0, "lon": -77.02205983333333, "name": "009b20f2493428695a70abef9d5048a1"}, {"bike_id": "c6666f105c93b7472270182cca74409d", "type": "electric_scooter", "is_disabled": 0, "lat": 38.92329866666667, "rental_uris": {"ios": "https://dc.lft.to/lastmile_qr_scan", "android": "https://dc.lft.to/lastmile_qr_scan"}, "is_reserved": 0, "fusion_lon": 0.0, "fusion_lat": 0.0, "lon": -77.03679416666667, "name": "c6666f105c93b7472270182cca74409d"}, {"bike_id": "52edb666bf69d8470c4012b036e3d3c2", "type": "electric_scooter", "is_disabled": 0, "lat": 38.89885916666667, "rental_uris": {"ios": "https://dc.lft.to/lastmile_qr_scan", "android": "https://dc.lft.to/lastmile_qr_scan"}, "is_reserved": 0, "fusion_lon": 0.0, "fusion_lat": 0.0, "lon": -76.9322575, "name": "52edb666bf69d8470c4012b036e3d3c2"}, {"bike_id": "3001fc0378cbdcdb78a80dd7bb6ea02a", "type": "electric_scooter", "is_disabled": 0, "lat": 38.892206333333334, "rental_uris": {"ios": "https://dc.lft.to/lastmile_qr_scan", "android": "https://dc.lft.to/lastmile_qr_scan"}, "is_reserved": 0, "fusion_lon": 0.0, "fusion_lat": 0.0, "lon": -77.00344283333334, "name": "3001fc0378cbdcdb78a80dd7bb6ea02a"}, {"bike_id": "0f38eaadd96194744b02dca78d84aaa1", "type": "electric_scooter", "is_disabled": 0, "lat": 38.916360166666664, "rental_uris": {"ios": "https://dc.lft.to/lastmile_qr_scan", "android": "https://dc.lft.to/lastmile_qr_scan"}, "is_reserved": 0, "fusion_lon": 0.0, "fusion_lat": 0.0, "lon": -77.03219133333333, "name": "0f38eaadd96194744b02dca78d84aaa1"}, {"bike_id": "d7c80d06a15364c4b0c3f664e36f1cd3", "type": "electric_scooter", "is_disabled": 0, "lat": 38.903805166666665, "rental_uris": {"ios": "https://dc.lft.to/lastmile_qr_scan", "android": "https://dc.lft.to/lastmile_qr_scan"}, "is_reserved": 0, "fusion_lon": 0.0, "fusion_lat": 0.0, "lon": -77.03482066666666, "name": "d7c80d06a15364c4b0c3f664e36f1cd3"}, {"bike_id": "76b83325549a89b9ab5336ba724e99d1", "type": "electric_scooter", "is_disabled": 0, "lat": 38.93478866666667, "rental_uris": {"ios": "https://dc.lft.to/lastmile_qr_scan", "android": "https://dc.lft.to/lastmile_qr_scan"}, "is_reserved": 0, "fusion_lon": 0.0, "fusion_lat": 0.0, "lon": -77.07262666666666, "name": "76b83325549a89b9ab5336ba724e99d1"}, {"bike_id": "b322e4a029d330643bb3da1688d3e631", "type": "electric_scooter", "is_disabled": 0, "lat": 38.8871795, "rental_uris": {"ios": "https://dc.lft.to/lastmile_qr_scan", "android": "https://dc.lft.to/lastmile_qr_scan"}, "is_reserved": 0, "fusion_lon": 0.0, "fusion_lat": 0.0, "lon": -77.02205283333333, "name": "b322e4a029d330643bb3da1688d3e631"}, {"bike_id": "c9ad4682cf61cddf4247bbabba3d985e", "type": "electric_bike", "is_disabled": 0, "lat": 38.963168833333334, "rental_uris": {"ios": "https://dc.lft.to/lastmile_qr_scan", "android": "https://dc.lft.to/lastmile_qr_scan"}, "is_reserved": 0, "fusion_lon": 0.0, "fusion_lat": 0.0, "lon": -76.973713, "name": "c9ad4682cf61cddf4247bbabba3d985e"}, {"bike_id": "ff549d9937c06c6b77f280db73205352", "type": "electric_scooter", "is_disabled": 0, "lat": 38.9552725, "rental_uris": {"ios": "https://dc.lft.to/lastmile_qr_scan", "android": "https://dc.lft.to/lastmile_qr_scan"}, "is_reserved": 0, "fusion_lon": 0.0, "fusion_lat": 0.0, "lon": -77.023106, "name": "ff549d9937c06c6b77f280db73205352"}, {"bike_id": "efea20d8240429b35c956f4a283df6fc", "type": "electric_scooter", "is_disabled": 0, "lat": 38.844409666666664, "rental_uris": {"ios": "https://dc.lft.to/lastmile_qr_scan", "android": "https://dc.lft.to/lastmile_qr_scan"}, "is_reserved": 0, "fusion_lon": 0.0, "fusion_lat": 0.0, "lon": -76.99867266666666, "name": "efea20d8240429b35c956f4a283df6fc"}, {"bike_id": "4f47876706622b339a1f70e6b0e19e06", "type": "electric_scooter", "is_disabled": 0, "lat": 38.9110745, "rental_uris": {"ios": "https://dc.lft.to/lastmile_qr_scan", "android": "https://dc.lft.to/lastmile_qr_scan"}, "is_reserved": 0, "fusion_lon": 0.0, "fusion_lat": 0.0, "lon": -77.01390333333333, "name": "4f47876706622b339a1f70e6b0e19e06"}, {"bike_id": "d23b55cb84746856f61148f6885cd2a4", "type": "electric_scooter", "is_disabled": 0, "lat": 38.905614, "rental_uris": {"ios": "https://dc.lft.to/lastmile_qr_scan", "android": "https://dc.lft.to/lastmile_qr_scan"}, "is_reserved": 0, "fusion_lon": 0.0, "fusion_lat": 0.0, "lon": -77.02813616666667, "name": "d23b55cb84746856f61148f6885cd2a4"}, {"bike_id": "46d97120ddd34cf49a8b54018a8ae1ba", "type": "electric_scooter", "is_disabled": 0, "lat": 38.914732, "rental_uris": {"ios": "https://dc.lft.to/lastmile_qr_scan", "android": "https://dc.lft.to/lastmile_qr_scan"}, "is_reserved": 0, "fusion_lon": 0.0, "fusion_lat": 0.0, "lon": -77.04545633333333, "name": "46d97120ddd34cf49a8b54018a8ae1ba"}, {"bike_id": "38ab5e937577a8a21c16796a2e56b92e", "type": "electric_scooter", "is_disabled": 0, "lat": 38.965028833333335, "rental_uris": {"ios": "https://dc.lft.to/lastmile_qr_scan", "android": "https://dc.lft.to/lastmile_qr_scan"}, "is_reserved": 0, "fusion_lon": 0.0, "fusion_lat": 0.0, "lon": -77.00202983333334, "name": "38ab5e937577a8a21c16796a2e56b92e"}, {"bike_id": "74499f2ad7ab7b412d3706076743b3e8", "type": "electric_scooter", "is_disabled": 0, "lat": 38.9171855, "rental_uris": {"ios": "https://dc.lft.to/lastmile_qr_scan", "android": "https://dc.lft.to/lastmile_qr_scan"}, "is_reserved": 0, "fusion_lon": 0.0, "fusion_lat": 0.0, "lon": -77.046834, "name": "74499f2ad7ab7b412d3706076743b3e8"}, {"bike_id": "947513ba6754f750c26f4178878a8cd6", "type": "electric_scooter", "is_disabled": 0, "lat": 38.91822966666667, "rental_uris": {"ios": "https://dc.lft.to/lastmile_qr_scan", "android": "https://dc.lft.to/lastmile_qr_scan"}, "is_reserved": 0, "fusion_lon": 0.0, "fusion_lat": 0.0, "lon": -77.02693216666667, "name": "947513ba6754f750c26f4178878a8cd6"}, {"bike_id": "bcca1d1dc8f3d7b87c4c21322c1494de", "type": "electric_scooter", "is_disabled": 0, "lat": 38.895090333333336, "rental_uris": {"ios": "https://dc.lft.to/lastmile_qr_scan", "android": "https://dc.lft.to/lastmile_qr_scan"}, "is_reserved": 0, "fusion_lon": 0.0, "fusion_lat": 0.0, "lon": -77.01612583333333, "name": "bcca1d1dc8f3d7b87c4c21322c1494de"}, {"bike_id": "cd87ff8785f9ae1827177da03a9cfea0", "type": "electric_bike", "is_disabled": 0, "lat": 38.93883066666667, "rental_uris": {"ios": "https://dc.lft.to/lastmile_qr_scan", "android": "https://dc.lft.to/lastmile_qr_scan"}, "is_reserved": 0, "fusion_lon": 0.0, "fusion_lat": 0.0, "lon": -77.06357233333334, "name": "cd87ff8785f9ae1827177da03a9cfea0"}, {"bike_id": "15f8a3411357ce150c233ea5be9ef0f3", "type": "electric_scooter", "is_disabled": 0, "lat": 38.911204, "rental_uris": {"ios": "https://dc.lft.to/lastmile_qr_scan", "android": "https://dc.lft.to/lastmile_qr_scan"}, "is_reserved": 0, "fusion_lon": 0.0, "fusion_lat": 0.0, "lon": -77.04222933333334, "name": "15f8a3411357ce150c233ea5be9ef0f3"}, {"bike_id": "e783c3107426892ddc393b5dbfbb595c", "type": "electric_scooter", "is_disabled": 0, "lat": 38.877816, "rental_uris": {"ios": "https://dc.lft.to/lastmile_qr_scan", "android": "https://dc.lft.to/lastmile_qr_scan"}, "is_reserved": 0, "fusion_lon": 0.0, "fusion_lat": 0.0, "lon": -76.99411283333333, "name": "e783c3107426892ddc393b5dbfbb595c"}, {"bike_id": "177be40f2302d52086eb122bbbf4c6c1", "type": "electric_scooter", "is_disabled": 0, "lat": 38.915024, "rental_uris": {"ios": "https://dc.lft.to/lastmile_qr_scan", "android": "https://dc.lft.to/lastmile_qr_scan"}, "is_reserved": 0, "fusion_lon": 0.0, "fusion_lat": 0.0, "lon": -77.0177825, "name": "177be40f2302d52086eb122bbbf4c6c1"}, {"bike_id": "c2d520b7155072b6a2e538f562cec2fe", "type": "electric_scooter", "is_disabled": 0, "lat": 38.9563535, "rental_uris": {"ios": "https://dc.lft.to/lastmile_qr_scan", "android": "https://dc.lft.to/lastmile_qr_scan"}, "is_reserved": 0, "fusion_lon": 0.0, "fusion_lat": 0.0, "lon": -77.01154366666667, "name": "c2d520b7155072b6a2e538f562cec2fe"}, {"bike_id": "3b3e914075bcec3c860f1734befb4303", "type": "electric_scooter", "is_disabled": 0, "lat": 38.937369833333335, "rental_uris": {"ios": "https://dc.lft.to/lastmile_qr_scan", "android": "https://dc.lft.to/lastmile_qr_scan"}, "is_reserved": 0, "fusion_lon": 0.0, "fusion_lat": 0.0, "lon": -77.03258766666667, "name": "3b3e914075bcec3c860f1734befb4303"}, {"bike_id": "19705de63edf6a66e3cb07fc1f33aed2", "type": "electric_scooter", "is_disabled": 0, "lat": 38.956556, "rental_uris": {"ios": "https://dc.lft.to/lastmile_qr_scan", "android": "https://dc.lft.to/lastmile_qr_scan"}, "is_reserved": 0, "fusion_lon": 0.0, "fusion_lat": 0.0, "lon": -77.010022, "name": "19705de63edf6a66e3cb07fc1f33aed2"}, {"bike_id": "a636f493f378ef270b9acc235ef7d9c8", "type": "electric_scooter", "is_disabled": 0, "lat": 38.89902166666667, "rental_uris": {"ios": "https://dc.lft.to/lastmile_qr_scan", "android": "https://dc.lft.to/lastmile_qr_scan"}, "is_reserved": 0, "fusion_lon": 0.0, "fusion_lat": 0.0, "lon": -77.03937, "name": "a636f493f378ef270b9acc235ef7d9c8"}, {"bike_id": "3bfe8de9b1d5f1b832be4b82f543f7ab", "type": "electric_scooter", "is_disabled": 0, "lat": 38.92450683333333, "rental_uris": {"ios": "https://dc.lft.to/lastmile_qr_scan", "android": "https://dc.lft.to/lastmile_qr_scan"}, "is_reserved": 0, "fusion_lon": 0.0, "fusion_lat": 0.0, "lon": -77.04402116666667, "name": "3bfe8de9b1d5f1b832be4b82f543f7ab"}, {"bike_id": "9563c1e0c12c8c5891315fef36e148ce", "type": "electric_bike", "is_disabled": 0, "lat": 38.79852916666667, "rental_uris": {"ios": "https://dc.lft.to/lastmile_qr_scan", "android": "https://dc.lft.to/lastmile_qr_scan"}, "is_reserved": 0, "fusion_lon": 0.0, "fusion_lat": 0.0, "lon": -77.06310083333334, "name": "9563c1e0c12c8c5891315fef36e148ce"}, {"bike_id": "47e62dc2a72960c4b6f28ee966013a7d", "type": "electric_scooter", "is_disabled": 0, "lat": 38.916289, "rental_uris": {"ios": "https://dc.lft.to/lastmile_qr_scan", "android": "https://dc.lft.to/lastmile_qr_scan"}, "is_reserved": 0, "fusion_lon": 0.0, "fusion_lat": 0.0, "lon": -77.03010183333333, "name": "47e62dc2a72960c4b6f28ee966013a7d"}, {"bike_id": "366878bda32ff36aaa15cf4cba3ceef9", "type": "electric_scooter", "is_disabled": 0, "lat": 38.90718116666667, "rental_uris": {"ios": "https://dc.lft.to/lastmile_qr_scan", "android": "https://dc.lft.to/lastmile_qr_scan"}, "is_reserved": 0, "fusion_lon": 0.0, "fusion_lat": 0.0, "lon": -76.9981995, "name": "366878bda32ff36aaa15cf4cba3ceef9"}, {"bike_id": "c502504544fdb322fdf3b4d0d1b4a00f", "type": "electric_scooter", "is_disabled": 0, "lat": 38.923462666666666, "rental_uris": {"ios": "https://dc.lft.to/lastmile_qr_scan", "android": "https://dc.lft.to/lastmile_qr_scan"}, "is_reserved": 0, "fusion_lon": 0.0, "fusion_lat": 0.0, "lon": -77.034899, "name": "c502504544fdb322fdf3b4d0d1b4a00f"}, {"bike_id": "f202ed35a7a23dfc6af48aeb5abd675e", "type": "electric_scooter", "is_disabled": 0, "lat": 38.895163833333335, "rental_uris": {"ios": "https://dc.lft.to/lastmile_qr_scan", "android": "https://dc.lft.to/lastmile_qr_scan"}, "is_reserved": 0, "fusion_lon": 0.0, "fusion_lat": 0.0, "lon": -77.02285116666667, "name": "f202ed35a7a23dfc6af48aeb5abd675e"}, {"bike_id": "a93c033f42c3887296405b29b915af02", "type": "electric_scooter", "is_disabled": 0, "lat": 38.90167066666667, "rental_uris": {"ios": "https://dc.lft.to/lastmile_qr_scan", "android": "https://dc.lft.to/lastmile_qr_scan"}, "is_reserved": 0, "fusion_lon": 0.0, "fusion_lat": 0.0, "lon": -76.93020416666667, "name": "a93c033f42c3887296405b29b915af02"}, {"bike_id": "7791436ea0af6be886ddcc4465abb9ec", "type": "electric_scooter", "is_disabled": 0, "lat": 38.919486, "rental_uris": {"ios": "https://dc.lft.to/lastmile_qr_scan", "android": "https://dc.lft.to/lastmile_qr_scan"}, "is_reserved": 0, "fusion_lon": 0.0, "fusion_lat": 0.0, "lon": -77.02342516666667, "name": "7791436ea0af6be886ddcc4465abb9ec"}, {"bike_id": "57d3dfb31c4868d0ac8f18a7f082ad08", "type": "electric_scooter", "is_disabled": 0, "lat": 38.886532333333335, "rental_uris": {"ios": "https://dc.lft.to/lastmile_qr_scan", "android": "https://dc.lft.to/lastmile_qr_scan"}, "is_reserved": 0, "fusion_lon": 0.0, "fusion_lat": 0.0, "lon": -77.00113033333334, "name": "57d3dfb31c4868d0ac8f18a7f082ad08"}, {"bike_id": "09a87d92ad8addcd30010da5ec2bd70a", "type": "electric_scooter", "is_disabled": 0, "lat": 38.905577666666666, "rental_uris": {"ios": "https://dc.lft.to/lastmile_qr_scan", "android": "https://dc.lft.to/lastmile_qr_scan"}, "is_reserved": 0, "fusion_lon": 0.0, "fusion_lat": 0.0, "lon": -77.0260675, "name": "09a87d92ad8addcd30010da5ec2bd70a"}, {"bike_id": "df3e49aab33e86d2a63a1367dfa661ad", "type": "electric_scooter", "is_disabled": 0, "lat": 38.90198266666667, "rental_uris": {"ios": "https://dc.lft.to/lastmile_qr_scan", "android": "https://dc.lft.to/lastmile_qr_scan"}, "is_reserved": 0, "fusion_lon": 0.0, "fusion_lat": 0.0, "lon": -77.02153016666666, "name": "df3e49aab33e86d2a63a1367dfa661ad"}, {"bike_id": "e07e6b4b8167dd2316ebf8f2baf0eed8", "type": "electric_scooter", "is_disabled": 0, "lat": 38.902376, "rental_uris": {"ios": "https://dc.lft.to/lastmile_qr_scan", "android": "https://dc.lft.to/lastmile_qr_scan"}, "is_reserved": 0, "fusion_lon": 0.0, "fusion_lat": 0.0, "lon": -77.034151, "name": "e07e6b4b8167dd2316ebf8f2baf0eed8"}, {"bike_id": "057375636e99642238a78ecabb44e679", "type": "electric_scooter", "is_disabled": 0, "lat": 38.90969166666667, "rental_uris": {"ios": "https://dc.lft.to/lastmile_qr_scan", "android": "https://dc.lft.to/lastmile_qr_scan"}, "is_reserved": 0, "fusion_lon": 0.0, "fusion_lat": 0.0, "lon": -77.04456433333333, "name": "057375636e99642238a78ecabb44e679"}, {"bike_id": "38429f884fe6a7cb9efef9fb0285e5a0", "type": "electric_scooter", "is_disabled": 0, "lat": 38.88746533333333, "rental_uris": {"ios": "https://dc.lft.to/lastmile_qr_scan", "android": "https://dc.lft.to/lastmile_qr_scan"}, "is_reserved": 0, "fusion_lon": 0.0, "fusion_lat": 0.0, "lon": -77.01729266666666, "name": "38429f884fe6a7cb9efef9fb0285e5a0"}, {"bike_id": "eab4592f4c0d0442dabf056b210ba709", "type": "electric_scooter", "is_disabled": 0, "lat": 38.93226166666667, "rental_uris": {"ios": "https://dc.lft.to/lastmile_qr_scan", "android": "https://dc.lft.to/lastmile_qr_scan"}, "is_reserved": 0, "fusion_lon": 0.0, "fusion_lat": 0.0, "lon": -77.03851933333333, "name": "eab4592f4c0d0442dabf056b210ba709"}, {"bike_id": "264fb64d18bb3a0bfaee93aa1dd8f881", "type": "electric_scooter", "is_disabled": 0, "lat": 38.93217116666667, "rental_uris": {"ios": "https://dc.lft.to/lastmile_qr_scan", "android": "https://dc.lft.to/lastmile_qr_scan"}, "is_reserved": 0, "fusion_lon": 0.0, "fusion_lat": 0.0, "lon": -77.03265416666666, "name": "264fb64d18bb3a0bfaee93aa1dd8f881"}, {"bike_id": "a3c18dc9cd59282dc70f96bd4b59c91c", "type": "electric_scooter", "is_disabled": 0, "lat": 38.913213, "rental_uris": {"ios": "https://dc.lft.to/lastmile_qr_scan", "android": "https://dc.lft.to/lastmile_qr_scan"}, "is_reserved": 0, "fusion_lon": 0.0, "fusion_lat": 0.0, "lon": -77.03181216666667, "name": "a3c18dc9cd59282dc70f96bd4b59c91c"}, {"bike_id": "b4442451496f8c7a9529552a7aeeae7a", "type": "electric_bike", "is_disabled": 0, "lat": 38.87481416666667, "rental_uris": {"ios": "https://dc.lft.to/lastmile_qr_scan", "android": "https://dc.lft.to/lastmile_qr_scan"}, "is_reserved": 0, "fusion_lon": 0.0, "fusion_lat": 0.0, "lon": -76.96528233333333, "name": "b4442451496f8c7a9529552a7aeeae7a"}, {"bike_id": "bb2e0a96d3ec09657a5b28fd8e19a15e", "type": "electric_scooter", "is_disabled": 0, "lat": 38.91610983333333, "rental_uris": {"ios": "https://dc.lft.to/lastmile_qr_scan", "android": "https://dc.lft.to/lastmile_qr_scan"}, "is_reserved": 0, "fusion_lon": 0.0, "fusion_lat": 0.0, "lon": -77.023021, "name": "bb2e0a96d3ec09657a5b28fd8e19a15e"}, {"bike_id": "d4c0ac8c1cd690021729986f9697a37b", "type": "electric_scooter", "is_disabled": 0, "lat": 38.892226666666666, "rental_uris": {"ios": "https://dc.lft.to/lastmile_qr_scan", "android": "https://dc.lft.to/lastmile_qr_scan"}, "is_reserved": 0, "fusion_lon": 0.0, "fusion_lat": 0.0, "lon": -77.03165266666667, "name": "d4c0ac8c1cd690021729986f9697a37b"}, {"bike_id": "99eb4d6eeac6999ab518afa617062017", "type": "electric_scooter", "is_disabled": 0, "lat": 38.89479083333333, "rental_uris": {"ios": "https://dc.lft.to/lastmile_qr_scan", "android": "https://dc.lft.to/lastmile_qr_scan"}, "is_reserved": 0, "fusion_lon": 0.0, "fusion_lat": 0.0, "lon": -76.948616, "name": "99eb4d6eeac6999ab518afa617062017"}, {"bike_id": "ab8c582af39f17298b0181f62186df6a", "type": "electric_scooter", "is_disabled": 0, "lat": 38.911157333333335, "rental_uris": {"ios": "https://dc.lft.to/lastmile_qr_scan", "android": "https://dc.lft.to/lastmile_qr_scan"}, "is_reserved": 0, "fusion_lon": 0.0, "fusion_lat": 0.0, "lon": -77.02207066666666, "name": "ab8c582af39f17298b0181f62186df6a"}, {"bike_id": "af1852c06cec707e4fef0f952178875b", "type": "electric_scooter", "is_disabled": 0, "lat": 38.95280366666667, "rental_uris": {"ios": "https://dc.lft.to/lastmile_qr_scan", "android": "https://dc.lft.to/lastmile_qr_scan"}, "is_reserved": 0, "fusion_lon": 0.0, "fusion_lat": 0.0, "lon": -77.01797616666667, "name": "af1852c06cec707e4fef0f952178875b"}, {"bike_id": "45a524ee9b9b168064d0bcc964744d26", "type": "electric_scooter", "is_disabled": 0, "lat": 38.901975166666666, "rental_uris": {"ios": "https://dc.lft.to/lastmile_qr_scan", "android": "https://dc.lft.to/lastmile_qr_scan"}, "is_reserved": 0, "fusion_lon": 0.0, "fusion_lat": 0.0, "lon": -76.98203766666667, "name": "45a524ee9b9b168064d0bcc964744d26"}, {"bike_id": "cc0c1e21178a4e8e0d3d57244aa5b767", "type": "electric_scooter", "is_disabled": 0, "lat": 38.90538083333333, "rental_uris": {"ios": "https://dc.lft.to/lastmile_qr_scan", "android": "https://dc.lft.to/lastmile_qr_scan"}, "is_reserved": 0, "fusion_lon": 0.0, "fusion_lat": 0.0, "lon": -77.04689966666666, "name": "cc0c1e21178a4e8e0d3d57244aa5b767"}, {"bike_id": "53aeebed5fb6cd8a9ad80e4fe78836c0", "type": "electric_scooter", "is_disabled": 0, "lat": 38.89542616666667, "rental_uris": {"ios": "https://dc.lft.to/lastmile_qr_scan", "android": "https://dc.lft.to/lastmile_qr_scan"}, "is_reserved": 0, "fusion_lon": 0.0, "fusion_lat": 0.0, "lon": -77.01110766666666, "name": "53aeebed5fb6cd8a9ad80e4fe78836c0"}, {"bike_id": "b3e8f5a2ff153610e4730bc4cb22210e", "type": "electric_scooter", "is_disabled": 0, "lat": 38.892209333333334, "rental_uris": {"ios": "https://dc.lft.to/lastmile_qr_scan", "android": "https://dc.lft.to/lastmile_qr_scan"}, "is_reserved": 0, "fusion_lon": 0.0, "fusion_lat": 0.0, "lon": -77.04369933333334, "name": "b3e8f5a2ff153610e4730bc4cb22210e"}, {"bike_id": "4457053606cf9534324fbca6656529bb", "type": "electric_scooter", "is_disabled": 0, "lat": 38.89245716666667, "rental_uris": {"ios": "https://dc.lft.to/lastmile_qr_scan", "android": "https://dc.lft.to/lastmile_qr_scan"}, "is_reserved": 0, "fusion_lon": 0.0, "fusion_lat": 0.0, "lon": -77.05026616666666, "name": "4457053606cf9534324fbca6656529bb"}, {"bike_id": "c5f64adcc823f0d08720422a51a7cbc1", "type": "electric_scooter", "is_disabled": 0, "lat": 38.9076075, "rental_uris": {"ios": "https://dc.lft.to/lastmile_qr_scan", "android": "https://dc.lft.to/lastmile_qr_scan"}, "is_reserved": 0, "fusion_lon": 0.0, "fusion_lat": 0.0, "lon": -77.01696933333334, "name": "c5f64adcc823f0d08720422a51a7cbc1"}, {"bike_id": "e39674a1c477040ae21706bf49c8d33c", "type": "electric_scooter", "is_disabled": 0, "lat": 38.91728533333333, "rental_uris": {"ios": "https://dc.lft.to/lastmile_qr_scan", "android": "https://dc.lft.to/lastmile_qr_scan"}, "is_reserved": 0, "fusion_lon": 0.0, "fusion_lat": 0.0, "lon": -77.045712, "name": "e39674a1c477040ae21706bf49c8d33c"}, {"bike_id": "1045acca3739ff7a8c66db62b3cd6dea", "type": "electric_scooter", "is_disabled": 0, "lat": 38.96553433333333, "rental_uris": {"ios": "https://dc.lft.to/lastmile_qr_scan", "android": "https://dc.lft.to/lastmile_qr_scan"}, "is_reserved": 0, "fusion_lon": 0.0, "fusion_lat": 0.0, "lon": -77.036306, "name": "1045acca3739ff7a8c66db62b3cd6dea"}, {"bike_id": "52d7d462be0c0890c7e74b216e841a19", "type": "electric_scooter", "is_disabled": 0, "lat": 38.928623333333334, "rental_uris": {"ios": "https://dc.lft.to/lastmile_qr_scan", "android": "https://dc.lft.to/lastmile_qr_scan"}, "is_reserved": 0, "fusion_lon": 0.0, "fusion_lat": 0.0, "lon": -77.03711216666666, "name": "52d7d462be0c0890c7e74b216e841a19"}, {"bike_id": "bf67c41edfc3ce4fbe11ac0a546f2423", "type": "electric_scooter", "is_disabled": 0, "lat": 38.90531033333333, "rental_uris": {"ios": "https://dc.lft.to/lastmile_qr_scan", "android": "https://dc.lft.to/lastmile_qr_scan"}, "is_reserved": 0, "fusion_lon": 0.0, "fusion_lat": 0.0, "lon": -77.0448185, "name": "bf67c41edfc3ce4fbe11ac0a546f2423"}, {"bike_id": "e6143beba25ac5c86759b2473fd068c0", "type": "electric_scooter", "is_disabled": 0, "lat": 38.915423833333335, "rental_uris": {"ios": "https://dc.lft.to/lastmile_qr_scan", "android": "https://dc.lft.to/lastmile_qr_scan"}, "is_reserved": 0, "fusion_lon": 0.0, "fusion_lat": 0.0, "lon": -77.02204283333333, "name": "e6143beba25ac5c86759b2473fd068c0"}, {"bike_id": "034fc0f6eb43afa6518f53f2d2e75142", "type": "electric_scooter", "is_disabled": 0, "lat": 38.91676966666667, "rental_uris": {"ios": "https://dc.lft.to/lastmile_qr_scan", "android": "https://dc.lft.to/lastmile_qr_scan"}, "is_reserved": 0, "fusion_lon": 0.0, "fusion_lat": 0.0, "lon": -77.02962366666667, "name": "034fc0f6eb43afa6518f53f2d2e75142"}, {"bike_id": "b5b6a840e069dca5163265990708428d", "type": "electric_scooter", "is_disabled": 0, "lat": 38.89899416666667, "rental_uris": {"ios": "https://dc.lft.to/lastmile_qr_scan", "android": "https://dc.lft.to/lastmile_qr_scan"}, "is_reserved": 0, "fusion_lon": 0.0, "fusion_lat": 0.0, "lon": -77.032702, "name": "b5b6a840e069dca5163265990708428d"}, {"bike_id": "2f4b3c057413193d043ac3e56f23f45c", "type": "electric_scooter", "is_disabled": 0, "lat": 38.9134625, "rental_uris": {"ios": "https://dc.lft.to/lastmile_qr_scan", "android": "https://dc.lft.to/lastmile_qr_scan"}, "is_reserved": 0, "fusion_lon": 0.0, "fusion_lat": 0.0, "lon": -77.02073233333333, "name": "2f4b3c057413193d043ac3e56f23f45c"}, {"bike_id": "c29be4d73a2b94db8a123be1ae3f2554", "type": "electric_scooter", "is_disabled": 0, "lat": 38.885175333333336, "rental_uris": {"ios": "https://dc.lft.to/lastmile_qr_scan", "android": "https://dc.lft.to/lastmile_qr_scan"}, "is_reserved": 0, "fusion_lon": 0.0, "fusion_lat": 0.0, "lon": -76.9908935, "name": "c29be4d73a2b94db8a123be1ae3f2554"}, {"bike_id": "7321dbd23f8e875d896a9087827a07a6", "type": "electric_scooter", "is_disabled": 0, "lat": 38.908698, "rental_uris": {"ios": "https://dc.lft.to/lastmile_qr_scan", "android": "https://dc.lft.to/lastmile_qr_scan"}, "is_reserved": 0, "fusion_lon": 0.0, "fusion_lat": 0.0, "lon": -76.99781133333333, "name": "7321dbd23f8e875d896a9087827a07a6"}, {"bike_id": "48d935617b584423adb5e51258fe1c7d", "type": "electric_scooter", "is_disabled": 0, "lat": 38.8878255, "rental_uris": {"ios": "https://dc.lft.to/lastmile_qr_scan", "android": "https://dc.lft.to/lastmile_qr_scan"}, "is_reserved": 0, "fusion_lon": 0.0, "fusion_lat": 0.0, "lon": -76.955301, "name": "48d935617b584423adb5e51258fe1c7d"}, {"bike_id": "d06d2f05f5fb59cfea373c1e82e35567", "type": "electric_scooter", "is_disabled": 0, "lat": 38.8662655, "rental_uris": {"ios": "https://dc.lft.to/lastmile_qr_scan", "android": "https://dc.lft.to/lastmile_qr_scan"}, "is_reserved": 0, "fusion_lon": 0.0, "fusion_lat": 0.0, "lon": -76.98718766666667, "name": "d06d2f05f5fb59cfea373c1e82e35567"}, {"bike_id": "502cbbb839796526b0dc9e4ee85a0b6a", "type": "electric_scooter", "is_disabled": 0, "lat": 38.897205166666666, "rental_uris": {"ios": "https://dc.lft.to/lastmile_qr_scan", "android": "https://dc.lft.to/lastmile_qr_scan"}, "is_reserved": 0, "fusion_lon": 0.0, "fusion_lat": 0.0, "lon": -77.027253, "name": "502cbbb839796526b0dc9e4ee85a0b6a"}, {"bike_id": "831be85036af87a8cadfb0a37653ffe5", "type": "electric_scooter", "is_disabled": 0, "lat": 38.931736666666666, "rental_uris": {"ios": "https://dc.lft.to/lastmile_qr_scan", "android": "https://dc.lft.to/lastmile_qr_scan"}, "is_reserved": 0, "fusion_lon": 0.0, "fusion_lat": 0.0, "lon": -77.0315525, "name": "831be85036af87a8cadfb0a37653ffe5"}, {"bike_id": "6f85d30dab8fecae04663351282286ed", "type": "electric_scooter", "is_disabled": 0, "lat": 38.8967425, "rental_uris": {"ios": "https://dc.lft.to/lastmile_qr_scan", "android": "https://dc.lft.to/lastmile_qr_scan"}, "is_reserved": 0, "fusion_lon": 0.0, "fusion_lat": 0.0, "lon": -77.07086316666667, "name": "6f85d30dab8fecae04663351282286ed"}, {"bike_id": "75b66327f046c57893b101edef95daaa", "type": "electric_scooter", "is_disabled": 0, "lat": 38.91990366666667, "rental_uris": {"ios": "https://dc.lft.to/lastmile_qr_scan", "android": "https://dc.lft.to/lastmile_qr_scan"}, "is_reserved": 0, "fusion_lon": 0.0, "fusion_lat": 0.0, "lon": -77.02191933333333, "name": "75b66327f046c57893b101edef95daaa"}, {"bike_id": "52c24c4ce3dfa85f781f52edf1f01cdf", "type": "electric_scooter", "is_disabled": 0, "lat": 38.92323416666667, "rental_uris": {"ios": "https://dc.lft.to/lastmile_qr_scan", "android": "https://dc.lft.to/lastmile_qr_scan"}, "is_reserved": 0, "fusion_lon": 0.0, "fusion_lat": 0.0, "lon": -77.05569616666666, "name": "52c24c4ce3dfa85f781f52edf1f01cdf"}, {"bike_id": "7671a6863831959c464e51f1451e5e74", "type": "electric_scooter", "is_disabled": 0, "lat": 38.908727666666664, "rental_uris": {"ios": "https://dc.lft.to/lastmile_qr_scan", "android": "https://dc.lft.to/lastmile_qr_scan"}, "is_reserved": 0, "fusion_lon": 0.0, "fusion_lat": 0.0, "lon": -77.03178283333334, "name": "7671a6863831959c464e51f1451e5e74"}, {"bike_id": "2ebe3e614cbbf1c01085d6c233696740", "type": "electric_scooter", "is_disabled": 0, "lat": 38.899723333333334, "rental_uris": {"ios": "https://dc.lft.to/lastmile_qr_scan", "android": "https://dc.lft.to/lastmile_qr_scan"}, "is_reserved": 0, "fusion_lon": 0.0, "fusion_lat": 0.0, "lon": -77.02000233333334, "name": "2ebe3e614cbbf1c01085d6c233696740"}, {"bike_id": "a63d64ce5793232417345e50920031a1", "type": "electric_scooter", "is_disabled": 0, "lat": 38.90821666666667, "rental_uris": {"ios": "https://dc.lft.to/lastmile_qr_scan", "android": "https://dc.lft.to/lastmile_qr_scan"}, "is_reserved": 0, "fusion_lon": 0.0, "fusion_lat": 0.0, "lon": -77.04349633333334, "name": "a63d64ce5793232417345e50920031a1"}, {"bike_id": "ef71c74acf08a73dd5ce1e415f1c10ed", "type": "electric_scooter", "is_disabled": 0, "lat": 38.92876566666666, "rental_uris": {"ios": "https://dc.lft.to/lastmile_qr_scan", "android": "https://dc.lft.to/lastmile_qr_scan"}, "is_reserved": 0, "fusion_lon": 0.0, "fusion_lat": 0.0, "lon": -77.03921, "name": "ef71c74acf08a73dd5ce1e415f1c10ed"}, {"bike_id": "e6674b41087554ea98bf6c11133d75d3", "type": "electric_scooter", "is_disabled": 0, "lat": 38.89887866666667, "rental_uris": {"ios": "https://dc.lft.to/lastmile_qr_scan", "android": "https://dc.lft.to/lastmile_qr_scan"}, "is_reserved": 0, "fusion_lon": 0.0, "fusion_lat": 0.0, "lon": -76.931735, "name": "e6674b41087554ea98bf6c11133d75d3"}, {"bike_id": "c3da6cb7cae0cdae88cbecbad503e789", "type": "electric_scooter", "is_disabled": 0, "lat": 38.903673166666664, "rental_uris": {"ios": "https://dc.lft.to/lastmile_qr_scan", "android": "https://dc.lft.to/lastmile_qr_scan"}, "is_reserved": 0, "fusion_lon": 0.0, "fusion_lat": 0.0, "lon": -77.03153866666666, "name": "c3da6cb7cae0cdae88cbecbad503e789"}, {"bike_id": "2bef0b112eb06640b71f6ced33e95861", "type": "electric_scooter", "is_disabled": 0, "lat": 38.9148035, "rental_uris": {"ios": "https://dc.lft.to/lastmile_qr_scan", "android": "https://dc.lft.to/lastmile_qr_scan"}, "is_reserved": 0, "fusion_lon": 0.0, "fusion_lat": 0.0, "lon": -77.035666, "name": "2bef0b112eb06640b71f6ced33e95861"}, {"bike_id": "5371bcbd032b5ce44207642e7f36d5fc", "type": "electric_scooter", "is_disabled": 0, "lat": 38.908503833333334, "rental_uris": {"ios": "https://dc.lft.to/lastmile_qr_scan", "android": "https://dc.lft.to/lastmile_qr_scan"}, "is_reserved": 0, "fusion_lon": 0.0, "fusion_lat": 0.0, "lon": -76.99962816666667, "name": "5371bcbd032b5ce44207642e7f36d5fc"}, {"bike_id": "284cd7351ed21eda5b9d184d863dcdc2", "type": "electric_scooter", "is_disabled": 0, "lat": 38.9167285, "rental_uris": {"ios": "https://dc.lft.to/lastmile_qr_scan", "android": "https://dc.lft.to/lastmile_qr_scan"}, "is_reserved": 0, "fusion_lon": 0.0, "fusion_lat": 0.0, "lon": -77.02319516666667, "name": "284cd7351ed21eda5b9d184d863dcdc2"}, {"bike_id": "3eb7d5fa215fedd783898b4182e8358b", "type": "electric_scooter", "is_disabled": 0, "lat": 38.9170715, "rental_uris": {"ios": "https://dc.lft.to/lastmile_qr_scan", "android": "https://dc.lft.to/lastmile_qr_scan"}, "is_reserved": 0, "fusion_lon": 0.0, "fusion_lat": 0.0, "lon": -77.09580166666667, "name": "3eb7d5fa215fedd783898b4182e8358b"}, {"bike_id": "a796f33cba45f24d06ccd3e570a51455", "type": "electric_scooter", "is_disabled": 0, "lat": 38.92772216666667, "rental_uris": {"ios": "https://dc.lft.to/lastmile_qr_scan", "android": "https://dc.lft.to/lastmile_qr_scan"}, "is_reserved": 0, "fusion_lon": 0.0, "fusion_lat": 0.0, "lon": -76.9875655, "name": "a796f33cba45f24d06ccd3e570a51455"}, {"bike_id": "09658324a48e8bb62ceafdbf10cccfa2", "type": "electric_scooter", "is_disabled": 0, "lat": 38.904083, "rental_uris": {"ios": "https://dc.lft.to/lastmile_qr_scan", "android": "https://dc.lft.to/lastmile_qr_scan"}, "is_reserved": 0, "fusion_lon": 0.0, "fusion_lat": 0.0, "lon": -77.04055466666667, "name": "09658324a48e8bb62ceafdbf10cccfa2"}, {"bike_id": "40df3d0f531f3b13acfa8af5b16ad4d4", "type": "electric_bike", "is_disabled": 0, "lat": 38.90033783333333, "rental_uris": {"ios": "https://dc.lft.to/lastmile_qr_scan", "android": "https://dc.lft.to/lastmile_qr_scan"}, "is_reserved": 0, "fusion_lon": 0.0, "fusion_lat": 0.0, "lon": -76.9722795, "name": "40df3d0f531f3b13acfa8af5b16ad4d4"}, {"bike_id": "1419207f6859fd2521dac557886c7d7d", "type": "electric_scooter", "is_disabled": 0, "lat": 38.91550383333333, "rental_uris": {"ios": "https://dc.lft.to/lastmile_qr_scan", "android": "https://dc.lft.to/lastmile_qr_scan"}, "is_reserved": 0, "fusion_lon": 0.0, "fusion_lat": 0.0, "lon": -77.00545316666667, "name": "1419207f6859fd2521dac557886c7d7d"}, {"bike_id": "0124c276784fb2deb26af45b7134be57", "type": "electric_scooter", "is_disabled": 0, "lat": 38.883920333333336, "rental_uris": {"ios": "https://dc.lft.to/lastmile_qr_scan", "android": "https://dc.lft.to/lastmile_qr_scan"}, "is_reserved": 0, "fusion_lon": 0.0, "fusion_lat": 0.0, "lon": -77.01786033333333, "name": "0124c276784fb2deb26af45b7134be57"}, {"bike_id": "8276e19450f3b8ca12747a60082cd588", "type": "electric_scooter", "is_disabled": 0, "lat": 38.89657366666667, "rental_uris": {"ios": "https://dc.lft.to/lastmile_qr_scan", "android": "https://dc.lft.to/lastmile_qr_scan"}, "is_reserved": 0, "fusion_lon": 0.0, "fusion_lat": 0.0, "lon": -77.00936233333333, "name": "8276e19450f3b8ca12747a60082cd588"}, {"bike_id": "4806bebc9c0d4f831e750088b6603b3e", "type": "electric_scooter", "is_disabled": 0, "lat": 38.94348466666667, "rental_uris": {"ios": "https://dc.lft.to/lastmile_qr_scan", "android": "https://dc.lft.to/lastmile_qr_scan"}, "is_reserved": 0, "fusion_lon": 0.0, "fusion_lat": 0.0, "lon": -77.03763683333334, "name": "4806bebc9c0d4f831e750088b6603b3e"}, {"bike_id": "f58f39b5a45af02aa6dfa98cbc734871", "type": "electric_scooter", "is_disabled": 0, "lat": 38.90769866666667, "rental_uris": {"ios": "https://dc.lft.to/lastmile_qr_scan", "android": "https://dc.lft.to/lastmile_qr_scan"}, "is_reserved": 0, "fusion_lon": 0.0, "fusion_lat": 0.0, "lon": -77.07390916666667, "name": "f58f39b5a45af02aa6dfa98cbc734871"}, {"bike_id": "e0ca10db743af1e397115e70b1e7bff6", "type": "electric_scooter", "is_disabled": 0, "lat": 38.866845, "rental_uris": {"ios": "https://dc.lft.to/lastmile_qr_scan", "android": "https://dc.lft.to/lastmile_qr_scan"}, "is_reserved": 0, "fusion_lon": 0.0, "fusion_lat": 0.0, "lon": -76.98576666666666, "name": "e0ca10db743af1e397115e70b1e7bff6"}, {"bike_id": "2538090f7eab88ca62d354d6366c9250", "type": "electric_scooter", "is_disabled": 0, "lat": 38.9024005, "rental_uris": {"ios": "https://dc.lft.to/lastmile_qr_scan", "android": "https://dc.lft.to/lastmile_qr_scan"}, "is_reserved": 0, "fusion_lon": 0.0, "fusion_lat": 0.0, "lon": -77.05902066666667, "name": "2538090f7eab88ca62d354d6366c9250"}, {"bike_id": "dc25b1469b462b8cd582d7c81be221c8", "type": "electric_scooter", "is_disabled": 0, "lat": 38.904149333333336, "rental_uris": {"ios": "https://dc.lft.to/lastmile_qr_scan", "android": "https://dc.lft.to/lastmile_qr_scan"}, "is_reserved": 0, "fusion_lon": 0.0, "fusion_lat": 0.0, "lon": -76.9733335, "name": "dc25b1469b462b8cd582d7c81be221c8"}, {"bike_id": "00850ba37425596e067427d6857f97de", "type": "electric_scooter", "is_disabled": 0, "lat": 38.9232205, "rental_uris": {"ios": "https://dc.lft.to/lastmile_qr_scan", "android": "https://dc.lft.to/lastmile_qr_scan"}, "is_reserved": 0, "fusion_lon": 0.0, "fusion_lat": 0.0, "lon": -77.0213285, "name": "00850ba37425596e067427d6857f97de"}, {"bike_id": "567138f812d5cbb11efa0356eb158e28", "type": "electric_scooter", "is_disabled": 0, "lat": 38.92329183333333, "rental_uris": {"ios": "https://dc.lft.to/lastmile_qr_scan", "android": "https://dc.lft.to/lastmile_qr_scan"}, "is_reserved": 0, "fusion_lon": 0.0, "fusion_lat": 0.0, "lon": -77.0195675, "name": "567138f812d5cbb11efa0356eb158e28"}, {"bike_id": "66e6b182238b54596973a8bee5001d22", "type": "electric_bike", "is_disabled": 0, "lat": 38.907943333333336, "rental_uris": {"ios": "https://dc.lft.to/lastmile_qr_scan", "android": "https://dc.lft.to/lastmile_qr_scan"}, "is_reserved": 0, "fusion_lon": 0.0, "fusion_lat": 0.0, "lon": -77.0716205, "name": "66e6b182238b54596973a8bee5001d22"}, {"bike_id": "37b4c9fd8b826880a7f34d00d9c0d5c0", "type": "electric_scooter", "is_disabled": 0, "lat": 38.90527216666667, "rental_uris": {"ios": "https://dc.lft.to/lastmile_qr_scan", "android": "https://dc.lft.to/lastmile_qr_scan"}, "is_reserved": 0, "fusion_lon": 0.0, "fusion_lat": 0.0, "lon": -77.04170166666667, "name": "37b4c9fd8b826880a7f34d00d9c0d5c0"}, {"bike_id": "947d6361599188b57048a8f0c6599e7c", "type": "electric_scooter", "is_disabled": 0, "lat": 38.89832883333333, "rental_uris": {"ios": "https://dc.lft.to/lastmile_qr_scan", "android": "https://dc.lft.to/lastmile_qr_scan"}, "is_reserved": 0, "fusion_lon": 0.0, "fusion_lat": 0.0, "lon": -76.91953533333333, "name": "947d6361599188b57048a8f0c6599e7c"}, {"bike_id": "61dfccb7876d53e980ba828956f5022e", "type": "electric_scooter", "is_disabled": 0, "lat": 38.91549033333333, "rental_uris": {"ios": "https://dc.lft.to/lastmile_qr_scan", "android": "https://dc.lft.to/lastmile_qr_scan"}, "is_reserved": 0, "fusion_lon": 0.0, "fusion_lat": 0.0, "lon": -77.04445283333334, "name": "61dfccb7876d53e980ba828956f5022e"}, {"bike_id": "3d57c6991b08538bac0b8c48a7f08569", "type": "electric_scooter", "is_disabled": 0, "lat": 38.9296785, "rental_uris": {"ios": "https://dc.lft.to/lastmile_qr_scan", "android": "https://dc.lft.to/lastmile_qr_scan"}, "is_reserved": 0, "fusion_lon": 0.0, "fusion_lat": 0.0, "lon": -77.02790233333333, "name": "3d57c6991b08538bac0b8c48a7f08569"}, {"bike_id": "7e3224c961de08feb4ce481a44a0c588", "type": "electric_scooter", "is_disabled": 0, "lat": 38.86503616666667, "rental_uris": {"ios": "https://dc.lft.to/lastmile_qr_scan", "android": "https://dc.lft.to/lastmile_qr_scan"}, "is_reserved": 0, "fusion_lon": 0.0, "fusion_lat": 0.0, "lon": -76.99002916666667, "name": "7e3224c961de08feb4ce481a44a0c588"}, {"bike_id": "17e87ce19e7cfbada643a5cff3e0ba28", "type": "electric_bike", "is_disabled": 0, "lat": 38.85522783333333, "rental_uris": {"ios": "https://dc.lft.to/lastmile_qr_scan", "android": "https://dc.lft.to/lastmile_qr_scan"}, "is_reserved": 0, "fusion_lon": 0.0, "fusion_lat": 0.0, "lon": -77.1200835, "name": "17e87ce19e7cfbada643a5cff3e0ba28"}, {"bike_id": "b838c2e56bbad04deb16a21d2d5d07dd", "type": "electric_bike", "is_disabled": 0, "lat": 38.8556245, "rental_uris": {"ios": "https://dc.lft.to/lastmile_qr_scan", "android": "https://dc.lft.to/lastmile_qr_scan"}, "is_reserved": 0, "fusion_lon": 0.0, "fusion_lat": 0.0, "lon": -77.11315883333333, "name": "b838c2e56bbad04deb16a21d2d5d07dd"}, {"bike_id": "16b157b3bc1c8ef9691fe12f54c29ea6", "type": "electric_scooter", "is_disabled": 0, "lat": 38.90561016666667, "rental_uris": {"ios": "https://dc.lft.to/lastmile_qr_scan", "android": "https://dc.lft.to/lastmile_qr_scan"}, "is_reserved": 0, "fusion_lon": 0.0, "fusion_lat": 0.0, "lon": -77.016779, "name": "16b157b3bc1c8ef9691fe12f54c29ea6"}, {"bike_id": "2e466a228f42b69f17f72fa83317daab", "type": "electric_scooter", "is_disabled": 0, "lat": 38.914041166666664, "rental_uris": {"ios": "https://dc.lft.to/lastmile_qr_scan", "android": "https://dc.lft.to/lastmile_qr_scan"}, "is_reserved": 0, "fusion_lon": 0.0, "fusion_lat": 0.0, "lon": -77.02006866666666, "name": "2e466a228f42b69f17f72fa83317daab"}, {"bike_id": "71cb2c2604f5abe2e04c5edb2c9ddfcb", "type": "electric_scooter", "is_disabled": 0, "lat": 38.900293833333336, "rental_uris": {"ios": "https://dc.lft.to/lastmile_qr_scan", "android": "https://dc.lft.to/lastmile_qr_scan"}, "is_reserved": 0, "fusion_lon": 0.0, "fusion_lat": 0.0, "lon": -77.00210183333333, "name": "71cb2c2604f5abe2e04c5edb2c9ddfcb"}, {"bike_id": "01a393f3acf8bc3ee8427bcf23428226", "type": "electric_scooter", "is_disabled": 0, "lat": 38.90692816666667, "rental_uris": {"ios": "https://dc.lft.to/lastmile_qr_scan", "android": "https://dc.lft.to/lastmile_qr_scan"}, "is_reserved": 0, "fusion_lon": 0.0, "fusion_lat": 0.0, "lon": -77.0259695, "name": "01a393f3acf8bc3ee8427bcf23428226"}, {"bike_id": "852605d7d46d5413273b07820f110910", "type": "electric_scooter", "is_disabled": 0, "lat": 38.915511, "rental_uris": {"ios": "https://dc.lft.to/lastmile_qr_scan", "android": "https://dc.lft.to/lastmile_qr_scan"}, "is_reserved": 0, "fusion_lon": 0.0, "fusion_lat": 0.0, "lon": -77.00361166666667, "name": "852605d7d46d5413273b07820f110910"}, {"bike_id": "3ec056530b88a247ac763feb06dc19cc", "type": "electric_scooter", "is_disabled": 0, "lat": 38.915652, "rental_uris": {"ios": "https://dc.lft.to/lastmile_qr_scan", "android": "https://dc.lft.to/lastmile_qr_scan"}, "is_reserved": 0, "fusion_lon": 0.0, "fusion_lat": 0.0, "lon": -77.03830733333334, "name": "3ec056530b88a247ac763feb06dc19cc"}, {"bike_id": "0d95a72c45031e6663e73cf330b8f4b9", "type": "electric_scooter", "is_disabled": 0, "lat": 38.947212666666665, "rental_uris": {"ios": "https://dc.lft.to/lastmile_qr_scan", "android": "https://dc.lft.to/lastmile_qr_scan"}, "is_reserved": 0, "fusion_lon": 0.0, "fusion_lat": 0.0, "lon": -77.06541166666666, "name": "0d95a72c45031e6663e73cf330b8f4b9"}, {"bike_id": "b9304f45461845276b78ac0f0af5fe9e", "type": "electric_scooter", "is_disabled": 0, "lat": 38.907334666666664, "rental_uris": {"ios": "https://dc.lft.to/lastmile_qr_scan", "android": "https://dc.lft.to/lastmile_qr_scan"}, "is_reserved": 0, "fusion_lon": 0.0, "fusion_lat": 0.0, "lon": -77.041527, "name": "b9304f45461845276b78ac0f0af5fe9e"}, {"bike_id": "9de693a7bbe4ec01099872d83295b174", "type": "electric_bike", "is_disabled": 0, "lat": 38.992301499999996, "rental_uris": {"ios": "https://dc.lft.to/lastmile_qr_scan", "android": "https://dc.lft.to/lastmile_qr_scan"}, "is_reserved": 0, "fusion_lon": 0.0, "fusion_lat": 0.0, "lon": -76.94442599999999, "name": "9de693a7bbe4ec01099872d83295b174"}, {"bike_id": "80b98f964c6c7556a0c73a0a23b59bbd", "type": "electric_bike", "is_disabled": 0, "lat": 38.854827666666665, "rental_uris": {"ios": "https://dc.lft.to/lastmile_qr_scan", "android": "https://dc.lft.to/lastmile_qr_scan"}, "is_reserved": 0, "fusion_lon": 0.0, "fusion_lat": 0.0, "lon": -77.11605516666667, "name": "80b98f964c6c7556a0c73a0a23b59bbd"}, {"bike_id": "f3451f7a5be4fb395a5e6b75b5de08e9", "type": "electric_scooter", "is_disabled": 0, "lat": 38.917088166666666, "rental_uris": {"ios": "https://dc.lft.to/lastmile_qr_scan", "android": "https://dc.lft.to/lastmile_qr_scan"}, "is_reserved": 0, "fusion_lon": 0.0, "fusion_lat": 0.0, "lon": -77.0255235, "name": "f3451f7a5be4fb395a5e6b75b5de08e9"}, {"bike_id": "69925fc5fd2cf12517c4b98b78471597", "type": "electric_scooter", "is_disabled": 0, "lat": 38.927651833333336, "rental_uris": {"ios": "https://dc.lft.to/lastmile_qr_scan", "android": "https://dc.lft.to/lastmile_qr_scan"}, "is_reserved": 0, "fusion_lon": 0.0, "fusion_lat": 0.0, "lon": -77.02735066666666, "name": "69925fc5fd2cf12517c4b98b78471597"}, {"bike_id": "03ff49c12294c42112b591fcd84b6853", "type": "electric_scooter", "is_disabled": 0, "lat": 38.92960983333333, "rental_uris": {"ios": "https://dc.lft.to/lastmile_qr_scan", "android": "https://dc.lft.to/lastmile_qr_scan"}, "is_reserved": 0, "fusion_lon": 0.0, "fusion_lat": 0.0, "lon": -77.0114835, "name": "03ff49c12294c42112b591fcd84b6853"}, {"bike_id": "5fcdac39945d4fe79f4090e5c6f97da2", "type": "electric_scooter", "is_disabled": 0, "lat": 38.90544, "rental_uris": {"ios": "https://dc.lft.to/lastmile_qr_scan", "android": "https://dc.lft.to/lastmile_qr_scan"}, "is_reserved": 0, "fusion_lon": 0.0, "fusion_lat": 0.0, "lon": -77.0058755, "name": "5fcdac39945d4fe79f4090e5c6f97da2"}, {"bike_id": "625b19c69f5ac2245756d2cc933e01fa", "type": "electric_scooter", "is_disabled": 0, "lat": 38.912509166666666, "rental_uris": {"ios": "https://dc.lft.to/lastmile_qr_scan", "android": "https://dc.lft.to/lastmile_qr_scan"}, "is_reserved": 0, "fusion_lon": 0.0, "fusion_lat": 0.0, "lon": -77.058771, "name": "625b19c69f5ac2245756d2cc933e01fa"}, {"bike_id": "09d7f6a3e7b4f4f4f8cd371b6d587124", "type": "electric_scooter", "is_disabled": 0, "lat": 38.87623116666666, "rental_uris": {"ios": "https://dc.lft.to/lastmile_qr_scan", "android": "https://dc.lft.to/lastmile_qr_scan"}, "is_reserved": 0, "fusion_lon": 0.0, "fusion_lat": 0.0, "lon": -76.96529466666667, "name": "09d7f6a3e7b4f4f4f8cd371b6d587124"}, {"bike_id": "942848d88d1f768a4ae5b37ad8c75e49", "type": "electric_scooter", "is_disabled": 0, "lat": 38.88340933333333, "rental_uris": {"ios": "https://dc.lft.to/lastmile_qr_scan", "android": "https://dc.lft.to/lastmile_qr_scan"}, "is_reserved": 0, "fusion_lon": 0.0, "fusion_lat": 0.0, "lon": -76.994927, "name": "942848d88d1f768a4ae5b37ad8c75e49"}, {"bike_id": "938d1b2610a70fb5cee06d43f6c790c4", "type": "electric_bike", "is_disabled": 0, "lat": 38.9061215, "rental_uris": {"ios": "https://dc.lft.to/lastmile_qr_scan", "android": "https://dc.lft.to/lastmile_qr_scan"}, "is_reserved": 0, "fusion_lon": 0.0, "fusion_lat": 0.0, "lon": -77.07636216666667, "name": "938d1b2610a70fb5cee06d43f6c790c4"}, {"bike_id": "06d40758137222ab6d8d40027b85b834", "type": "electric_scooter", "is_disabled": 0, "lat": 38.9268005, "rental_uris": {"ios": "https://dc.lft.to/lastmile_qr_scan", "android": "https://dc.lft.to/lastmile_qr_scan"}, "is_reserved": 0, "fusion_lon": 0.0, "fusion_lat": 0.0, "lon": -77.01498083333334, "name": "06d40758137222ab6d8d40027b85b834"}, {"bike_id": "6acf400b592a5ce45f0f87339969d8da", "type": "electric_scooter", "is_disabled": 0, "lat": 38.931567, "rental_uris": {"ios": "https://dc.lft.to/lastmile_qr_scan", "android": "https://dc.lft.to/lastmile_qr_scan"}, "is_reserved": 0, "fusion_lon": 0.0, "fusion_lat": 0.0, "lon": -77.02880083333334, "name": "6acf400b592a5ce45f0f87339969d8da"}, {"bike_id": "3c8915ef14c56208f63059a17701277f", "type": "electric_scooter", "is_disabled": 0, "lat": 38.90067766666667, "rental_uris": {"ios": "https://dc.lft.to/lastmile_qr_scan", "android": "https://dc.lft.to/lastmile_qr_scan"}, "is_reserved": 0, "fusion_lon": 0.0, "fusion_lat": 0.0, "lon": -76.927431, "name": "3c8915ef14c56208f63059a17701277f"}, {"bike_id": "c8e65e3fea5af54d25089bba0fc4e8f7", "type": "electric_scooter", "is_disabled": 0, "lat": 38.905199333333336, "rental_uris": {"ios": "https://dc.lft.to/lastmile_qr_scan", "android": "https://dc.lft.to/lastmile_qr_scan"}, "is_reserved": 0, "fusion_lon": 0.0, "fusion_lat": 0.0, "lon": -77.04355833333334, "name": "c8e65e3fea5af54d25089bba0fc4e8f7"}, {"bike_id": "5366fdd7552162eb2a921705e4dfaa5e", "type": "electric_scooter", "is_disabled": 0, "lat": 38.93199233333333, "rental_uris": {"ios": "https://dc.lft.to/lastmile_qr_scan", "android": "https://dc.lft.to/lastmile_qr_scan"}, "is_reserved": 0, "fusion_lon": 0.0, "fusion_lat": 0.0, "lon": -77.02397933333333, "name": "5366fdd7552162eb2a921705e4dfaa5e"}, {"bike_id": "10bcd73eb0843919d76c504497fb6264", "type": "electric_scooter", "is_disabled": 0, "lat": 38.90172366666667, "rental_uris": {"ios": "https://dc.lft.to/lastmile_qr_scan", "android": "https://dc.lft.to/lastmile_qr_scan"}, "is_reserved": 0, "fusion_lon": 0.0, "fusion_lat": 0.0, "lon": -77.0203135, "name": "10bcd73eb0843919d76c504497fb6264"}, {"bike_id": "a8634320d00add559bce89a13a6ebe29", "type": "electric_bike", "is_disabled": 0, "lat": 38.88659966666667, "rental_uris": {"ios": "https://dc.lft.to/lastmile_qr_scan", "android": "https://dc.lft.to/lastmile_qr_scan"}, "is_reserved": 0, "fusion_lon": 0.0, "fusion_lat": 0.0, "lon": -77.16235416666666, "name": "a8634320d00add559bce89a13a6ebe29"}, {"bike_id": "a5b8147772caa910a6937b87622cc69b", "type": "electric_bike", "is_disabled": 0, "lat": 38.90868183333333, "rental_uris": {"ios": "https://dc.lft.to/lastmile_qr_scan", "android": "https://dc.lft.to/lastmile_qr_scan"}, "is_reserved": 0, "fusion_lon": 0.0, "fusion_lat": 0.0, "lon": -77.07643133333333, "name": "a5b8147772caa910a6937b87622cc69b"}, {"bike_id": "6437562bb7565b173863e8a7132c9bed", "type": "electric_scooter", "is_disabled": 0, "lat": 38.90582066666666, "rental_uris": {"ios": "https://dc.lft.to/lastmile_qr_scan", "android": "https://dc.lft.to/lastmile_qr_scan"}, "is_reserved": 0, "fusion_lon": 0.0, "fusion_lat": 0.0, "lon": -77.05144116666666, "name": "6437562bb7565b173863e8a7132c9bed"}, {"bike_id": "db7141f29443697f2b62250f15c191a3", "type": "electric_scooter", "is_disabled": 0, "lat": 38.92322033333333, "rental_uris": {"ios": "https://dc.lft.to/lastmile_qr_scan", "android": "https://dc.lft.to/lastmile_qr_scan"}, "is_reserved": 0, "fusion_lon": 0.0, "fusion_lat": 0.0, "lon": -77.044473, "name": "db7141f29443697f2b62250f15c191a3"}, {"bike_id": "32cce019872212e3a9f1c8f70bc40691", "type": "electric_scooter", "is_disabled": 0, "lat": 38.90980066666667, "rental_uris": {"ios": "https://dc.lft.to/lastmile_qr_scan", "android": "https://dc.lft.to/lastmile_qr_scan"}, "is_reserved": 0, "fusion_lon": 0.0, "fusion_lat": 0.0, "lon": -76.9950245, "name": "32cce019872212e3a9f1c8f70bc40691"}, {"bike_id": "f249b8c84905e78f2ca20f847a3d9966", "type": "electric_scooter", "is_disabled": 0, "lat": 38.949986333333335, "rental_uris": {"ios": "https://dc.lft.to/lastmile_qr_scan", "android": "https://dc.lft.to/lastmile_qr_scan"}, "is_reserved": 0, "fusion_lon": 0.0, "fusion_lat": 0.0, "lon": -77.01830366666667, "name": "f249b8c84905e78f2ca20f847a3d9966"}, {"bike_id": "0a53d5d864d26de3764f3d98827323e3", "type": "electric_scooter", "is_disabled": 0, "lat": 38.89604766666667, "rental_uris": {"ios": "https://dc.lft.to/lastmile_qr_scan", "android": "https://dc.lft.to/lastmile_qr_scan"}, "is_reserved": 0, "fusion_lon": 0.0, "fusion_lat": 0.0, "lon": -77.01210933333333, "name": "0a53d5d864d26de3764f3d98827323e3"}, {"bike_id": "0005d8f8e0f1b54fb500aea99954af87", "type": "electric_scooter", "is_disabled": 0, "lat": 38.88489933333334, "rental_uris": {"ios": "https://dc.lft.to/lastmile_qr_scan", "android": "https://dc.lft.to/lastmile_qr_scan"}, "is_reserved": 0, "fusion_lon": 0.0, "fusion_lat": 0.0, "lon": -77.03471933333333, "name": "0005d8f8e0f1b54fb500aea99954af87"}, {"bike_id": "a701fe0a9253b911aacecfd314ed1065", "type": "electric_scooter", "is_disabled": 0, "lat": 38.920465666666665, "rental_uris": {"ios": "https://dc.lft.to/lastmile_qr_scan", "android": "https://dc.lft.to/lastmile_qr_scan"}, "is_reserved": 0, "fusion_lon": 0.0, "fusion_lat": 0.0, "lon": -77.0257485, "name": "a701fe0a9253b911aacecfd314ed1065"}, {"bike_id": "01ef7aa33ce1b2d99cde24463f7bf682", "type": "electric_scooter", "is_disabled": 0, "lat": 38.90573933333334, "rental_uris": {"ios": "https://dc.lft.to/lastmile_qr_scan", "android": "https://dc.lft.to/lastmile_qr_scan"}, "is_reserved": 0, "fusion_lon": 0.0, "fusion_lat": 0.0, "lon": -77.03422516666667, "name": "01ef7aa33ce1b2d99cde24463f7bf682"}, {"bike_id": "aabe66cdd70f0fb77a2d4cca75e47249", "type": "electric_scooter", "is_disabled": 0, "lat": 38.883717, "rental_uris": {"ios": "https://dc.lft.to/lastmile_qr_scan", "android": "https://dc.lft.to/lastmile_qr_scan"}, "is_reserved": 0, "fusion_lon": 0.0, "fusion_lat": 0.0, "lon": -76.99541816666667, "name": "aabe66cdd70f0fb77a2d4cca75e47249"}, {"bike_id": "273f3988a1af6663893129ea1e5b8cb0", "type": "electric_bike", "is_disabled": 0, "lat": 38.836061, "rental_uris": {"ios": "https://dc.lft.to/lastmile_qr_scan", "android": "https://dc.lft.to/lastmile_qr_scan"}, "is_reserved": 0, "fusion_lon": 0.0, "fusion_lat": 0.0, "lon": -77.00382166666667, "name": "273f3988a1af6663893129ea1e5b8cb0"}, {"bike_id": "b99fb494fa97d1926e8ce7dc9305c179", "type": "electric_scooter", "is_disabled": 0, "lat": 38.932481, "rental_uris": {"ios": "https://dc.lft.to/lastmile_qr_scan", "android": "https://dc.lft.to/lastmile_qr_scan"}, "is_reserved": 0, "fusion_lon": 0.0, "fusion_lat": 0.0, "lon": -76.99516383333334, "name": "b99fb494fa97d1926e8ce7dc9305c179"}, {"bike_id": "2acad9157514702a00d8a8f7c57b12ea", "type": "electric_scooter", "is_disabled": 0, "lat": 38.90043716666667, "rental_uris": {"ios": "https://dc.lft.to/lastmile_qr_scan", "android": "https://dc.lft.to/lastmile_qr_scan"}, "is_reserved": 0, "fusion_lon": 0.0, "fusion_lat": 0.0, "lon": -76.98289466666667, "name": "2acad9157514702a00d8a8f7c57b12ea"}, {"bike_id": "9adf0558ffba0b930c2df80098b9c281", "type": "electric_scooter", "is_disabled": 0, "lat": 38.9019065, "rental_uris": {"ios": "https://dc.lft.to/lastmile_qr_scan", "android": "https://dc.lft.to/lastmile_qr_scan"}, "is_reserved": 0, "fusion_lon": 0.0, "fusion_lat": 0.0, "lon": -76.97882516666667, "name": "9adf0558ffba0b930c2df80098b9c281"}, {"bike_id": "a1aa1baaf49fee4049ce64da1db04096", "type": "electric_scooter", "is_disabled": 0, "lat": 38.920498333333335, "rental_uris": {"ios": "https://dc.lft.to/lastmile_qr_scan", "android": "https://dc.lft.to/lastmile_qr_scan"}, "is_reserved": 0, "fusion_lon": 0.0, "fusion_lat": 0.0, "lon": -77.01620166666666, "name": "a1aa1baaf49fee4049ce64da1db04096"}, {"bike_id": "cef3af8468dae61a7a6f7a207e64f880", "type": "electric_bike", "is_disabled": 0, "lat": 38.972047833333335, "rental_uris": {"ios": "https://dc.lft.to/lastmile_qr_scan", "android": "https://dc.lft.to/lastmile_qr_scan"}, "is_reserved": 0, "fusion_lon": 0.0, "fusion_lat": 0.0, "lon": -77.0332955, "name": "cef3af8468dae61a7a6f7a207e64f880"}, {"bike_id": "815d4564aa6123d36c0f24c41ffed4b2", "type": "electric_scooter", "is_disabled": 0, "lat": 38.916968, "rental_uris": {"ios": "https://dc.lft.to/lastmile_qr_scan", "android": "https://dc.lft.to/lastmile_qr_scan"}, "is_reserved": 0, "fusion_lon": 0.0, "fusion_lat": 0.0, "lon": -77.04085116666667, "name": "815d4564aa6123d36c0f24c41ffed4b2"}, {"bike_id": "b888b38cb9dcce729b7a9731aed12a4a", "type": "electric_scooter", "is_disabled": 0, "lat": 38.922377, "rental_uris": {"ios": "https://dc.lft.to/lastmile_qr_scan", "android": "https://dc.lft.to/lastmile_qr_scan"}, "is_reserved": 0, "fusion_lon": 0.0, "fusion_lat": 0.0, "lon": -77.03902316666667, "name": "b888b38cb9dcce729b7a9731aed12a4a"}, {"bike_id": "70183b28d4595e61dd00ec86d75a7cdf", "type": "electric_scooter", "is_disabled": 0, "lat": 38.907835, "rental_uris": {"ios": "https://dc.lft.to/lastmile_qr_scan", "android": "https://dc.lft.to/lastmile_qr_scan"}, "is_reserved": 0, "fusion_lon": 0.0, "fusion_lat": 0.0, "lon": -77.03204766666667, "name": "70183b28d4595e61dd00ec86d75a7cdf"}, {"bike_id": "2b9ce164d7c66e4c27e28be25ac5626d", "type": "electric_scooter", "is_disabled": 0, "lat": 38.937710833333334, "rental_uris": {"ios": "https://dc.lft.to/lastmile_qr_scan", "android": "https://dc.lft.to/lastmile_qr_scan"}, "is_reserved": 0, "fusion_lon": 0.0, "fusion_lat": 0.0, "lon": -76.99142516666667, "name": "2b9ce164d7c66e4c27e28be25ac5626d"}, {"bike_id": "eb4605d73b33006358ddc17ef7167b9c", "type": "electric_scooter", "is_disabled": 0, "lat": 38.93224716666667, "rental_uris": {"ios": "https://dc.lft.to/lastmile_qr_scan", "android": "https://dc.lft.to/lastmile_qr_scan"}, "is_reserved": 0, "fusion_lon": 0.0, "fusion_lat": 0.0, "lon": -77.038686, "name": "eb4605d73b33006358ddc17ef7167b9c"}, {"bike_id": "576ce7ddd023f299b4d33935857de0c5", "type": "electric_scooter", "is_disabled": 0, "lat": 38.922698, "rental_uris": {"ios": "https://dc.lft.to/lastmile_qr_scan", "android": "https://dc.lft.to/lastmile_qr_scan"}, "is_reserved": 0, "fusion_lon": 0.0, "fusion_lat": 0.0, "lon": -77.03678216666667, "name": "576ce7ddd023f299b4d33935857de0c5"}, {"bike_id": "24c95e94a93bd17592615a6f475350c7", "type": "electric_scooter", "is_disabled": 0, "lat": 38.90030733333333, "rental_uris": {"ios": "https://dc.lft.to/lastmile_qr_scan", "android": "https://dc.lft.to/lastmile_qr_scan"}, "is_reserved": 0, "fusion_lon": 0.0, "fusion_lat": 0.0, "lon": -77.01182466666667, "name": "24c95e94a93bd17592615a6f475350c7"}, {"bike_id": "5fd371a342ef344a4d327fbc92103a2d", "type": "electric_scooter", "is_disabled": 0, "lat": 38.86684016666667, "rental_uris": {"ios": "https://dc.lft.to/lastmile_qr_scan", "android": "https://dc.lft.to/lastmile_qr_scan"}, "is_reserved": 0, "fusion_lon": 0.0, "fusion_lat": 0.0, "lon": -76.9857545, "name": "5fd371a342ef344a4d327fbc92103a2d"}, {"bike_id": "1775070641e45adaf92fb379a87434a0", "type": "electric_scooter", "is_disabled": 0, "lat": 38.933415333333336, "rental_uris": {"ios": "https://dc.lft.to/lastmile_qr_scan", "android": "https://dc.lft.to/lastmile_qr_scan"}, "is_reserved": 0, "fusion_lon": 0.0, "fusion_lat": 0.0, "lon": -77.062031, "name": "1775070641e45adaf92fb379a87434a0"}, {"bike_id": "6b3e0832d943fcd616d7952cd16fa2aa", "type": "electric_scooter", "is_disabled": 0, "lat": 38.925115166666664, "rental_uris": {"ios": "https://dc.lft.to/lastmile_qr_scan", "android": "https://dc.lft.to/lastmile_qr_scan"}, "is_reserved": 0, "fusion_lon": 0.0, "fusion_lat": 0.0, "lon": -77.0232815, "name": "6b3e0832d943fcd616d7952cd16fa2aa"}, {"bike_id": "8df365f17c150b01f057500b4cae9c1c", "type": "electric_scooter", "is_disabled": 0, "lat": 38.923314500000004, "rental_uris": {"ios": "https://dc.lft.to/lastmile_qr_scan", "android": "https://dc.lft.to/lastmile_qr_scan"}, "is_reserved": 0, "fusion_lon": 0.0, "fusion_lat": 0.0, "lon": -77.01947783333334, "name": "8df365f17c150b01f057500b4cae9c1c"}, {"bike_id": "9313d82fa423480039083c3f2aaf218d", "type": "electric_scooter", "is_disabled": 0, "lat": 38.866801, "rental_uris": {"ios": "https://dc.lft.to/lastmile_qr_scan", "android": "https://dc.lft.to/lastmile_qr_scan"}, "is_reserved": 0, "fusion_lon": 0.0, "fusion_lat": 0.0, "lon": -76.985712, "name": "9313d82fa423480039083c3f2aaf218d"}, {"bike_id": "f59b1d1c52b1e76436390f6cd4e7e996", "type": "electric_scooter", "is_disabled": 0, "lat": 38.89242733333333, "rental_uris": {"ios": "https://dc.lft.to/lastmile_qr_scan", "android": "https://dc.lft.to/lastmile_qr_scan"}, "is_reserved": 0, "fusion_lon": 0.0, "fusion_lat": 0.0, "lon": -77.03958866666666, "name": "f59b1d1c52b1e76436390f6cd4e7e996"}, {"bike_id": "63ca4d242d653a031ccff832031302e8", "type": "electric_scooter", "is_disabled": 0, "lat": 38.937708666666666, "rental_uris": {"ios": "https://dc.lft.to/lastmile_qr_scan", "android": "https://dc.lft.to/lastmile_qr_scan"}, "is_reserved": 0, "fusion_lon": 0.0, "fusion_lat": 0.0, "lon": -77.01968683333334, "name": "63ca4d242d653a031ccff832031302e8"}, {"bike_id": "716f028b2a7ed479e1f1cb24ff67ec7c", "type": "electric_scooter", "is_disabled": 0, "lat": 38.878143, "rental_uris": {"ios": "https://dc.lft.to/lastmile_qr_scan", "android": "https://dc.lft.to/lastmile_qr_scan"}, "is_reserved": 0, "fusion_lon": 0.0, "fusion_lat": 0.0, "lon": -76.971723, "name": "716f028b2a7ed479e1f1cb24ff67ec7c"}, {"bike_id": "4a5ee87777f94e7cab1e6e8a9db0f92d", "type": "electric_scooter", "is_disabled": 0, "lat": 38.926291166666665, "rental_uris": {"ios": "https://dc.lft.to/lastmile_qr_scan", "android": "https://dc.lft.to/lastmile_qr_scan"}, "is_reserved": 0, "fusion_lon": 0.0, "fusion_lat": 0.0, "lon": -77.03790366666667, "name": "4a5ee87777f94e7cab1e6e8a9db0f92d"}, {"bike_id": "145162572b90cbbbe8ea1d04890d64ff", "type": "electric_scooter", "is_disabled": 0, "lat": 38.907726, "rental_uris": {"ios": "https://dc.lft.to/lastmile_qr_scan", "android": "https://dc.lft.to/lastmile_qr_scan"}, "is_reserved": 0, "fusion_lon": 0.0, "fusion_lat": 0.0, "lon": -77.00249716666667, "name": "145162572b90cbbbe8ea1d04890d64ff"}, {"bike_id": "c957cae3cac3bcaed5339e0b48454b66", "type": "electric_scooter", "is_disabled": 0, "lat": 38.877587, "rental_uris": {"ios": "https://dc.lft.to/lastmile_qr_scan", "android": "https://dc.lft.to/lastmile_qr_scan"}, "is_reserved": 0, "fusion_lon": 0.0, "fusion_lat": 0.0, "lon": -77.00462483333334, "name": "c957cae3cac3bcaed5339e0b48454b66"}, {"bike_id": "d7b24e9bc8a0fe5b2425fa959c210e10", "type": "electric_bike", "is_disabled": 0, "lat": 38.923154833333335, "rental_uris": {"ios": "https://dc.lft.to/lastmile_qr_scan", "android": "https://dc.lft.to/lastmile_qr_scan"}, "is_reserved": 0, "fusion_lon": 0.0, "fusion_lat": 0.0, "lon": -76.99896, "name": "d7b24e9bc8a0fe5b2425fa959c210e10"}, {"bike_id": "e4120bb45fa2d36167c50355ea5e3c5e", "type": "electric_scooter", "is_disabled": 0, "lat": 38.91562166666667, "rental_uris": {"ios": "https://dc.lft.to/lastmile_qr_scan", "android": "https://dc.lft.to/lastmile_qr_scan"}, "is_reserved": 0, "fusion_lon": 0.0, "fusion_lat": 0.0, "lon": -77.0313865, "name": "e4120bb45fa2d36167c50355ea5e3c5e"}, {"bike_id": "fc7998b131f483dd819f0ead98daab89", "type": "electric_scooter", "is_disabled": 0, "lat": 38.85894166666667, "rental_uris": {"ios": "https://dc.lft.to/lastmile_qr_scan", "android": "https://dc.lft.to/lastmile_qr_scan"}, "is_reserved": 0, "fusion_lon": 0.0, "fusion_lat": 0.0, "lon": -76.997289, "name": "fc7998b131f483dd819f0ead98daab89"}, {"bike_id": "7f8e3e9ea887c6c83d89ac9211a2589a", "type": "electric_bike", "is_disabled": 0, "lat": 38.99094516666667, "rental_uris": {"ios": "https://dc.lft.to/lastmile_qr_scan", "android": "https://dc.lft.to/lastmile_qr_scan"}, "is_reserved": 0, "fusion_lon": 0.0, "fusion_lat": 0.0, "lon": -76.993704, "name": "7f8e3e9ea887c6c83d89ac9211a2589a"}, {"bike_id": "663e7eb023a308ff212228ae6765dd76", "type": "electric_scooter", "is_disabled": 0, "lat": 38.88311816666667, "rental_uris": {"ios": "https://dc.lft.to/lastmile_qr_scan", "android": "https://dc.lft.to/lastmile_qr_scan"}, "is_reserved": 0, "fusion_lon": 0.0, "fusion_lat": 0.0, "lon": -77.0034215, "name": "663e7eb023a308ff212228ae6765dd76"}, {"bike_id": "66e0643cfcd002e2063695f7044a73f3", "type": "electric_scooter", "is_disabled": 0, "lat": 38.90229566666667, "rental_uris": {"ios": "https://dc.lft.to/lastmile_qr_scan", "android": "https://dc.lft.to/lastmile_qr_scan"}, "is_reserved": 0, "fusion_lon": 0.0, "fusion_lat": 0.0, "lon": -77.01912416666667, "name": "66e0643cfcd002e2063695f7044a73f3"}, {"bike_id": "5677117bc58f7e603cc21b07b3a04def", "type": "electric_scooter", "is_disabled": 0, "lat": 38.89239466666667, "rental_uris": {"ios": "https://dc.lft.to/lastmile_qr_scan", "android": "https://dc.lft.to/lastmile_qr_scan"}, "is_reserved": 0, "fusion_lon": 0.0, "fusion_lat": 0.0, "lon": -77.0449885, "name": "5677117bc58f7e603cc21b07b3a04def"}, {"bike_id": "cce81526c70e143aaa690a1343f47e64", "type": "electric_scooter", "is_disabled": 0, "lat": 38.92290666666667, "rental_uris": {"ios": "https://dc.lft.to/lastmile_qr_scan", "android": "https://dc.lft.to/lastmile_qr_scan"}, "is_reserved": 0, "fusion_lon": 0.0, "fusion_lat": 0.0, "lon": -77.02967116666666, "name": "cce81526c70e143aaa690a1343f47e64"}, {"bike_id": "2c9cb60fa3a6997c6de85e7ee54d0776", "type": "electric_scooter", "is_disabled": 0, "lat": 38.892210666666664, "rental_uris": {"ios": "https://dc.lft.to/lastmile_qr_scan", "android": "https://dc.lft.to/lastmile_qr_scan"}, "is_reserved": 0, "fusion_lon": 0.0, "fusion_lat": 0.0, "lon": -77.0397645, "name": "2c9cb60fa3a6997c6de85e7ee54d0776"}, {"bike_id": "d621f83f0d203ed72da433153aca07df", "type": "electric_scooter", "is_disabled": 0, "lat": 38.90088266666667, "rental_uris": {"ios": "https://dc.lft.to/lastmile_qr_scan", "android": "https://dc.lft.to/lastmile_qr_scan"}, "is_reserved": 0, "fusion_lon": 0.0, "fusion_lat": 0.0, "lon": -77.0487015, "name": "d621f83f0d203ed72da433153aca07df"}, {"bike_id": "245cfbba9745272bdfd7bcd7a83b9829", "type": "electric_scooter", "is_disabled": 0, "lat": 38.90007416666667, "rental_uris": {"ios": "https://dc.lft.to/lastmile_qr_scan", "android": "https://dc.lft.to/lastmile_qr_scan"}, "is_reserved": 0, "fusion_lon": 0.0, "fusion_lat": 0.0, "lon": -77.027182, "name": "245cfbba9745272bdfd7bcd7a83b9829"}, {"bike_id": "d28a08436ae480dfa54aa832ae990429", "type": "electric_scooter", "is_disabled": 0, "lat": 38.93973233333333, "rental_uris": {"ios": "https://dc.lft.to/lastmile_qr_scan", "android": "https://dc.lft.to/lastmile_qr_scan"}, "is_reserved": 0, "fusion_lon": 0.0, "fusion_lat": 0.0, "lon": -77.02727283333333, "name": "d28a08436ae480dfa54aa832ae990429"}, {"bike_id": "aafc8279306a2aac4b8585d3e13a0ef5", "type": "electric_scooter", "is_disabled": 0, "lat": 38.90366933333333, "rental_uris": {"ios": "https://dc.lft.to/lastmile_qr_scan", "android": "https://dc.lft.to/lastmile_qr_scan"}, "is_reserved": 0, "fusion_lon": 0.0, "fusion_lat": 0.0, "lon": -77.04504733333333, "name": "aafc8279306a2aac4b8585d3e13a0ef5"}, {"bike_id": "9eafc191a5e23dcb5f671893dbffddde", "type": "electric_scooter", "is_disabled": 0, "lat": 38.9072665, "rental_uris": {"ios": "https://dc.lft.to/lastmile_qr_scan", "android": "https://dc.lft.to/lastmile_qr_scan"}, "is_reserved": 0, "fusion_lon": 0.0, "fusion_lat": 0.0, "lon": -77.03194183333333, "name": "9eafc191a5e23dcb5f671893dbffddde"}, {"bike_id": "fab054dd888471902980347a1f3529ff", "type": "electric_scooter", "is_disabled": 0, "lat": 38.91845083333333, "rental_uris": {"ios": "https://dc.lft.to/lastmile_qr_scan", "android": "https://dc.lft.to/lastmile_qr_scan"}, "is_reserved": 0, "fusion_lon": 0.0, "fusion_lat": 0.0, "lon": -77.03216766666667, "name": "fab054dd888471902980347a1f3529ff"}, {"bike_id": "b9f2b9fa5d87074d2f289023fc337800", "type": "electric_scooter", "is_disabled": 0, "lat": 38.902646833333336, "rental_uris": {"ios": "https://dc.lft.to/lastmile_qr_scan", "android": "https://dc.lft.to/lastmile_qr_scan"}, "is_reserved": 0, "fusion_lon": 0.0, "fusion_lat": 0.0, "lon": -77.01770133333333, "name": "b9f2b9fa5d87074d2f289023fc337800"}, {"bike_id": "9135617fee25107e0bb430ae25d02f33", "type": "electric_scooter", "is_disabled": 0, "lat": 38.907189, "rental_uris": {"ios": "https://dc.lft.to/lastmile_qr_scan", "android": "https://dc.lft.to/lastmile_qr_scan"}, "is_reserved": 0, "fusion_lon": 0.0, "fusion_lat": 0.0, "lon": -77.03975016666666, "name": "9135617fee25107e0bb430ae25d02f33"}, {"bike_id": "f90086c8c63704e2eb20cad6debec560", "type": "electric_scooter", "is_disabled": 0, "lat": 38.89663916666667, "rental_uris": {"ios": "https://dc.lft.to/lastmile_qr_scan", "android": "https://dc.lft.to/lastmile_qr_scan"}, "is_reserved": 0, "fusion_lon": 0.0, "fusion_lat": 0.0, "lon": -76.93216433333333, "name": "f90086c8c63704e2eb20cad6debec560"}, {"bike_id": "cbb96646eed4c42598ed8d4679339dc6", "type": "electric_bike", "is_disabled": 0, "lat": 38.85506983333333, "rental_uris": {"ios": "https://dc.lft.to/lastmile_qr_scan", "android": "https://dc.lft.to/lastmile_qr_scan"}, "is_reserved": 0, "fusion_lon": 0.0, "fusion_lat": 0.0, "lon": -77.12035966666667, "name": "cbb96646eed4c42598ed8d4679339dc6"}, {"bike_id": "c030983ca7c6bb7356b3a4230ccf6d9f", "type": "electric_scooter", "is_disabled": 0, "lat": 38.905338, "rental_uris": {"ios": "https://dc.lft.to/lastmile_qr_scan", "android": "https://dc.lft.to/lastmile_qr_scan"}, "is_reserved": 0, "fusion_lon": 0.0, "fusion_lat": 0.0, "lon": -77.04486066666666, "name": "c030983ca7c6bb7356b3a4230ccf6d9f"}, {"bike_id": "4fff38afa65846c2ffa054812fd615e8", "type": "electric_scooter", "is_disabled": 0, "lat": 38.922884833333335, "rental_uris": {"ios": "https://dc.lft.to/lastmile_qr_scan", "android": "https://dc.lft.to/lastmile_qr_scan"}, "is_reserved": 0, "fusion_lon": 0.0, "fusion_lat": 0.0, "lon": -77.029668, "name": "4fff38afa65846c2ffa054812fd615e8"}, {"bike_id": "6cfd67fa8f38de986e707978119b35f2", "type": "electric_scooter", "is_disabled": 0, "lat": 38.894919333333334, "rental_uris": {"ios": "https://dc.lft.to/lastmile_qr_scan", "android": "https://dc.lft.to/lastmile_qr_scan"}, "is_reserved": 0, "fusion_lon": 0.0, "fusion_lat": 0.0, "lon": -77.02174133333334, "name": "6cfd67fa8f38de986e707978119b35f2"}, {"bike_id": "b42713c3063d7f1db9b4b61951977c63", "type": "electric_scooter", "is_disabled": 0, "lat": 38.92157, "rental_uris": {"ios": "https://dc.lft.to/lastmile_qr_scan", "android": "https://dc.lft.to/lastmile_qr_scan"}, "is_reserved": 0, "fusion_lon": 0.0, "fusion_lat": 0.0, "lon": -77.03459383333333, "name": "b42713c3063d7f1db9b4b61951977c63"}, {"bike_id": "6a5d44a2e6acfd3a5c7421db245a5833", "type": "electric_scooter", "is_disabled": 0, "lat": 38.900646, "rental_uris": {"ios": "https://dc.lft.to/lastmile_qr_scan", "android": "https://dc.lft.to/lastmile_qr_scan"}, "is_reserved": 0, "fusion_lon": 0.0, "fusion_lat": 0.0, "lon": -77.045343, "name": "6a5d44a2e6acfd3a5c7421db245a5833"}, {"bike_id": "59336441eb01a32044c705e2aac233a7", "type": "electric_scooter", "is_disabled": 0, "lat": 38.844318666666666, "rental_uris": {"ios": "https://dc.lft.to/lastmile_qr_scan", "android": "https://dc.lft.to/lastmile_qr_scan"}, "is_reserved": 0, "fusion_lon": 0.0, "fusion_lat": 0.0, "lon": -76.99870883333334, "name": "59336441eb01a32044c705e2aac233a7"}, {"bike_id": "30c9f92b5e2642d2a239c562d0341bbe", "type": "electric_scooter", "is_disabled": 0, "lat": 38.893548, "rental_uris": {"ios": "https://dc.lft.to/lastmile_qr_scan", "android": "https://dc.lft.to/lastmile_qr_scan"}, "is_reserved": 0, "fusion_lon": 0.0, "fusion_lat": 0.0, "lon": -77.022213, "name": "30c9f92b5e2642d2a239c562d0341bbe"}, {"bike_id": "23f08ff923d56efb2dd91f2462be2de0", "type": "electric_scooter", "is_disabled": 0, "lat": 38.950038166666666, "rental_uris": {"ios": "https://dc.lft.to/lastmile_qr_scan", "android": "https://dc.lft.to/lastmile_qr_scan"}, "is_reserved": 0, "fusion_lon": 0.0, "fusion_lat": 0.0, "lon": -77.0184395, "name": "23f08ff923d56efb2dd91f2462be2de0"}, {"bike_id": "965d5afdc52e0c24cc1569913cad59ac", "type": "electric_scooter", "is_disabled": 0, "lat": 38.9244375, "rental_uris": {"ios": "https://dc.lft.to/lastmile_qr_scan", "android": "https://dc.lft.to/lastmile_qr_scan"}, "is_reserved": 0, "fusion_lon": 0.0, "fusion_lat": 0.0, "lon": -77.02963833333334, "name": "965d5afdc52e0c24cc1569913cad59ac"}, {"bike_id": "94fa1e855ddb579aab71d1d9105ad838", "type": "electric_scooter", "is_disabled": 0, "lat": 38.93822566666667, "rental_uris": {"ios": "https://dc.lft.to/lastmile_qr_scan", "android": "https://dc.lft.to/lastmile_qr_scan"}, "is_reserved": 0, "fusion_lon": 0.0, "fusion_lat": 0.0, "lon": -77.0716145, "name": "94fa1e855ddb579aab71d1d9105ad838"}, {"bike_id": "d94db7962e651c406efd4943e86a8ecf", "type": "electric_scooter", "is_disabled": 0, "lat": 38.9110995, "rental_uris": {"ios": "https://dc.lft.to/lastmile_qr_scan", "android": "https://dc.lft.to/lastmile_qr_scan"}, "is_reserved": 0, "fusion_lon": 0.0, "fusion_lat": 0.0, "lon": -77.0386075, "name": "d94db7962e651c406efd4943e86a8ecf"}, {"bike_id": "28e355a9292667c1ba65ebc3f86883e1", "type": "electric_scooter", "is_disabled": 0, "lat": 38.90398716666667, "rental_uris": {"ios": "https://dc.lft.to/lastmile_qr_scan", "android": "https://dc.lft.to/lastmile_qr_scan"}, "is_reserved": 0, "fusion_lon": 0.0, "fusion_lat": 0.0, "lon": -77.065155, "name": "28e355a9292667c1ba65ebc3f86883e1"}, {"bike_id": "403236e55374939c6368f5a16f08975d", "type": "electric_scooter", "is_disabled": 0, "lat": 38.92602983333333, "rental_uris": {"ios": "https://dc.lft.to/lastmile_qr_scan", "android": "https://dc.lft.to/lastmile_qr_scan"}, "is_reserved": 0, "fusion_lon": 0.0, "fusion_lat": 0.0, "lon": -77.0215655, "name": "403236e55374939c6368f5a16f08975d"}, {"bike_id": "2e816b6e3b8d41a1f485f8051e36e492", "type": "electric_scooter", "is_disabled": 0, "lat": 38.908635333333336, "rental_uris": {"ios": "https://dc.lft.to/lastmile_qr_scan", "android": "https://dc.lft.to/lastmile_qr_scan"}, "is_reserved": 0, "fusion_lon": 0.0, "fusion_lat": 0.0, "lon": -77.0270385, "name": "2e816b6e3b8d41a1f485f8051e36e492"}, {"bike_id": "9773c097051fdb20b12733e3bbb667f3", "type": "electric_scooter", "is_disabled": 0, "lat": 38.907594833333334, "rental_uris": {"ios": "https://dc.lft.to/lastmile_qr_scan", "android": "https://dc.lft.to/lastmile_qr_scan"}, "is_reserved": 0, "fusion_lon": 0.0, "fusion_lat": 0.0, "lon": -77.0088405, "name": "9773c097051fdb20b12733e3bbb667f3"}, {"bike_id": "35215694266858f45a89a8c50e95fb68", "type": "electric_scooter", "is_disabled": 0, "lat": 38.90864583333333, "rental_uris": {"ios": "https://dc.lft.to/lastmile_qr_scan", "android": "https://dc.lft.to/lastmile_qr_scan"}, "is_reserved": 0, "fusion_lon": 0.0, "fusion_lat": 0.0, "lon": -77.02682516666667, "name": "35215694266858f45a89a8c50e95fb68"}, {"bike_id": "b87edbf85b82a48c182377a4533c9585", "type": "electric_scooter", "is_disabled": 0, "lat": 38.905629166666664, "rental_uris": {"ios": "https://dc.lft.to/lastmile_qr_scan", "android": "https://dc.lft.to/lastmile_qr_scan"}, "is_reserved": 0, "fusion_lon": 0.0, "fusion_lat": 0.0, "lon": -77.04573966666666, "name": "b87edbf85b82a48c182377a4533c9585"}, {"bike_id": "938fb4595c3a5f4ed6d8f1bdbd29f625", "type": "electric_scooter", "is_disabled": 0, "lat": 38.92343733333333, "rental_uris": {"ios": "https://dc.lft.to/lastmile_qr_scan", "android": "https://dc.lft.to/lastmile_qr_scan"}, "is_reserved": 0, "fusion_lon": 0.0, "fusion_lat": 0.0, "lon": -77.05121133333333, "name": "938fb4595c3a5f4ed6d8f1bdbd29f625"}, {"bike_id": "fcec1a09e29c8dc496b140e6cb59dadd", "type": "electric_bike", "is_disabled": 0, "lat": 39.056333, "rental_uris": {"ios": "https://dc.lft.to/lastmile_qr_scan", "android": "https://dc.lft.to/lastmile_qr_scan"}, "is_reserved": 0, "fusion_lon": 0.0, "fusion_lat": 0.0, "lon": -77.125256, "name": "fcec1a09e29c8dc496b140e6cb59dadd"}, {"bike_id": "89de7692f404a6252412bf05316dd0e5", "type": "electric_scooter", "is_disabled": 0, "lat": 38.91781316666667, "rental_uris": {"ios": "https://dc.lft.to/lastmile_qr_scan", "android": "https://dc.lft.to/lastmile_qr_scan"}, "is_reserved": 0, "fusion_lon": 0.0, "fusion_lat": 0.0, "lon": -77.03179233333333, "name": "89de7692f404a6252412bf05316dd0e5"}, {"bike_id": "82dc01b86642c75359e1f73e0b638c3b", "type": "electric_scooter", "is_disabled": 0, "lat": 38.908311833333336, "rental_uris": {"ios": "https://dc.lft.to/lastmile_qr_scan", "android": "https://dc.lft.to/lastmile_qr_scan"}, "is_reserved": 0, "fusion_lon": 0.0, "fusion_lat": 0.0, "lon": -77.04354816666667, "name": "82dc01b86642c75359e1f73e0b638c3b"}, {"bike_id": "23738d064fafbe17247d3d1c091f0d01", "type": "electric_scooter", "is_disabled": 0, "lat": 38.888199166666666, "rental_uris": {"ios": "https://dc.lft.to/lastmile_qr_scan", "android": "https://dc.lft.to/lastmile_qr_scan"}, "is_reserved": 0, "fusion_lon": 0.0, "fusion_lat": 0.0, "lon": -76.99156983333333, "name": "23738d064fafbe17247d3d1c091f0d01"}, {"bike_id": "217c87d13c326e97f62ddb7bea4f7148", "type": "electric_scooter", "is_disabled": 0, "lat": 38.932788, "rental_uris": {"ios": "https://dc.lft.to/lastmile_qr_scan", "android": "https://dc.lft.to/lastmile_qr_scan"}, "is_reserved": 0, "fusion_lon": 0.0, "fusion_lat": 0.0, "lon": -77.03494233333333, "name": "217c87d13c326e97f62ddb7bea4f7148"}, {"bike_id": "b627387eef8d7c051f0ab5b795d20fba", "type": "electric_scooter", "is_disabled": 0, "lat": 38.9421055, "rental_uris": {"ios": "https://dc.lft.to/lastmile_qr_scan", "android": "https://dc.lft.to/lastmile_qr_scan"}, "is_reserved": 0, "fusion_lon": 0.0, "fusion_lat": 0.0, "lon": -77.025876, "name": "b627387eef8d7c051f0ab5b795d20fba"}, {"bike_id": "45399f449c3161d467a6280d4983ec96", "type": "electric_scooter", "is_disabled": 0, "lat": 38.905202, "rental_uris": {"ios": "https://dc.lft.to/lastmile_qr_scan", "android": "https://dc.lft.to/lastmile_qr_scan"}, "is_reserved": 0, "fusion_lon": 0.0, "fusion_lat": 0.0, "lon": -77.016982, "name": "45399f449c3161d467a6280d4983ec96"}, {"bike_id": "64b3dc022569859c3b83fc8d6d25d185", "type": "electric_scooter", "is_disabled": 0, "lat": 38.912682333333336, "rental_uris": {"ios": "https://dc.lft.to/lastmile_qr_scan", "android": "https://dc.lft.to/lastmile_qr_scan"}, "is_reserved": 0, "fusion_lon": 0.0, "fusion_lat": 0.0, "lon": -77.0222075, "name": "64b3dc022569859c3b83fc8d6d25d185"}, {"bike_id": "8cb0007aaddc082f5de72234804bc0c0", "type": "electric_scooter", "is_disabled": 0, "lat": 38.8742045, "rental_uris": {"ios": "https://dc.lft.to/lastmile_qr_scan", "android": "https://dc.lft.to/lastmile_qr_scan"}, "is_reserved": 0, "fusion_lon": 0.0, "fusion_lat": 0.0, "lon": -76.96905983333333, "name": "8cb0007aaddc082f5de72234804bc0c0"}, {"bike_id": "65361e90be6913710916b05cc4c31f19", "type": "electric_scooter", "is_disabled": 0, "lat": 38.86683516666667, "rental_uris": {"ios": "https://dc.lft.to/lastmile_qr_scan", "android": "https://dc.lft.to/lastmile_qr_scan"}, "is_reserved": 0, "fusion_lon": 0.0, "fusion_lat": 0.0, "lon": -76.985773, "name": "65361e90be6913710916b05cc4c31f19"}, {"bike_id": "83bdce78417185344b44800e4a59bbcb", "type": "electric_scooter", "is_disabled": 0, "lat": 38.901732, "rental_uris": {"ios": "https://dc.lft.to/lastmile_qr_scan", "android": "https://dc.lft.to/lastmile_qr_scan"}, "is_reserved": 0, "fusion_lon": 0.0, "fusion_lat": 0.0, "lon": -77.02304333333333, "name": "83bdce78417185344b44800e4a59bbcb"}, {"bike_id": "5b65dc38ec05a7612299b121af016d67", "type": "electric_scooter", "is_disabled": 0, "lat": 38.928885, "rental_uris": {"ios": "https://dc.lft.to/lastmile_qr_scan", "android": "https://dc.lft.to/lastmile_qr_scan"}, "is_reserved": 0, "fusion_lon": 0.0, "fusion_lat": 0.0, "lon": -77.02305216666667, "name": "5b65dc38ec05a7612299b121af016d67"}, {"bike_id": "40e7760c6f432b109572fbdb8dc5dd06", "type": "electric_scooter", "is_disabled": 0, "lat": 38.8291815, "rental_uris": {"ios": "https://dc.lft.to/lastmile_qr_scan", "android": "https://dc.lft.to/lastmile_qr_scan"}, "is_reserved": 0, "fusion_lon": 0.0, "fusion_lat": 0.0, "lon": -76.99210066666667, "name": "40e7760c6f432b109572fbdb8dc5dd06"}, {"bike_id": "4437a4e11dd14d3c4f1904643b9c2832", "type": "electric_scooter", "is_disabled": 0, "lat": 38.919248, "rental_uris": {"ios": "https://dc.lft.to/lastmile_qr_scan", "android": "https://dc.lft.to/lastmile_qr_scan"}, "is_reserved": 0, "fusion_lon": 0.0, "fusion_lat": 0.0, "lon": -77.0317835, "name": "4437a4e11dd14d3c4f1904643b9c2832"}, {"bike_id": "81585847c3380fd190ff480e7d15bc3a", "type": "electric_scooter", "is_disabled": 0, "lat": 38.92249233333333, "rental_uris": {"ios": "https://dc.lft.to/lastmile_qr_scan", "android": "https://dc.lft.to/lastmile_qr_scan"}, "is_reserved": 0, "fusion_lon": 0.0, "fusion_lat": 0.0, "lon": -77.02148566666666, "name": "81585847c3380fd190ff480e7d15bc3a"}, {"bike_id": "5bb3d01ceade2a3e2f95aa2783feb351", "type": "electric_scooter", "is_disabled": 0, "lat": 38.88848433333333, "rental_uris": {"ios": "https://dc.lft.to/lastmile_qr_scan", "android": "https://dc.lft.to/lastmile_qr_scan"}, "is_reserved": 0, "fusion_lon": 0.0, "fusion_lat": 0.0, "lon": -76.92679283333334, "name": "5bb3d01ceade2a3e2f95aa2783feb351"}, {"bike_id": "7e4e941dd98a0bad26e7b9262869a856", "type": "electric_scooter", "is_disabled": 0, "lat": 38.8922195, "rental_uris": {"ios": "https://dc.lft.to/lastmile_qr_scan", "android": "https://dc.lft.to/lastmile_qr_scan"}, "is_reserved": 0, "fusion_lon": 0.0, "fusion_lat": 0.0, "lon": -77.02232016666666, "name": "7e4e941dd98a0bad26e7b9262869a856"}, {"bike_id": "3d76da045798b17f6c4d77d6c8aa4726", "type": "electric_scooter", "is_disabled": 0, "lat": 38.927495666666665, "rental_uris": {"ios": "https://dc.lft.to/lastmile_qr_scan", "android": "https://dc.lft.to/lastmile_qr_scan"}, "is_reserved": 0, "fusion_lon": 0.0, "fusion_lat": 0.0, "lon": -77.02534633333333, "name": "3d76da045798b17f6c4d77d6c8aa4726"}, {"bike_id": "202205423f256ca3769d7adee74ea563", "type": "electric_scooter", "is_disabled": 0, "lat": 38.878650666666665, "rental_uris": {"ios": "https://dc.lft.to/lastmile_qr_scan", "android": "https://dc.lft.to/lastmile_qr_scan"}, "is_reserved": 0, "fusion_lon": 0.0, "fusion_lat": 0.0, "lon": -76.96982966666667, "name": "202205423f256ca3769d7adee74ea563"}, {"bike_id": "ddc27187421d57ebfd1443d9c6ec3af5", "type": "electric_scooter", "is_disabled": 0, "lat": 38.88746866666666, "rental_uris": {"ios": "https://dc.lft.to/lastmile_qr_scan", "android": "https://dc.lft.to/lastmile_qr_scan"}, "is_reserved": 0, "fusion_lon": 0.0, "fusion_lat": 0.0, "lon": -77.025658, "name": "ddc27187421d57ebfd1443d9c6ec3af5"}, {"bike_id": "bb338b6e25104f1d23c05c975a070191", "type": "electric_scooter", "is_disabled": 0, "lat": 38.915510833333336, "rental_uris": {"ios": "https://dc.lft.to/lastmile_qr_scan", "android": "https://dc.lft.to/lastmile_qr_scan"}, "is_reserved": 0, "fusion_lon": 0.0, "fusion_lat": 0.0, "lon": -77.03850016666667, "name": "bb338b6e25104f1d23c05c975a070191"}, {"bike_id": "12f932f9c905002bf6c5d4c7f5a9963d", "type": "electric_scooter", "is_disabled": 0, "lat": 38.89507483333333, "rental_uris": {"ios": "https://dc.lft.to/lastmile_qr_scan", "android": "https://dc.lft.to/lastmile_qr_scan"}, "is_reserved": 0, "fusion_lon": 0.0, "fusion_lat": 0.0, "lon": -77.00338916666666, "name": "12f932f9c905002bf6c5d4c7f5a9963d"}, {"bike_id": "9ef0b9bcdc3fc642c41669a1b0629d17", "type": "electric_scooter", "is_disabled": 0, "lat": 38.902458, "rental_uris": {"ios": "https://dc.lft.to/lastmile_qr_scan", "android": "https://dc.lft.to/lastmile_qr_scan"}, "is_reserved": 0, "fusion_lon": 0.0, "fusion_lat": 0.0, "lon": -77.01737416666667, "name": "9ef0b9bcdc3fc642c41669a1b0629d17"}, {"bike_id": "ec6b50b77f649fd03c1e2e7c2f1ca15c", "type": "electric_bike", "is_disabled": 0, "lat": 38.848432333333335, "rental_uris": {"ios": "https://dc.lft.to/lastmile_qr_scan", "android": "https://dc.lft.to/lastmile_qr_scan"}, "is_reserved": 0, "fusion_lon": 0.0, "fusion_lat": 0.0, "lon": -77.0791595, "name": "ec6b50b77f649fd03c1e2e7c2f1ca15c"}, {"bike_id": "b1e230a0bf8b939d3337a8e4f22c077c", "type": "electric_scooter", "is_disabled": 0, "lat": 38.86675233333333, "rental_uris": {"ios": "https://dc.lft.to/lastmile_qr_scan", "android": "https://dc.lft.to/lastmile_qr_scan"}, "is_reserved": 0, "fusion_lon": 0.0, "fusion_lat": 0.0, "lon": -76.985433, "name": "b1e230a0bf8b939d3337a8e4f22c077c"}, {"bike_id": "a1a5571c411c335b3bb985b0f56c2115", "type": "electric_scooter", "is_disabled": 0, "lat": 38.89884, "rental_uris": {"ios": "https://dc.lft.to/lastmile_qr_scan", "android": "https://dc.lft.to/lastmile_qr_scan"}, "is_reserved": 0, "fusion_lon": 0.0, "fusion_lat": 0.0, "lon": -76.93174933333333, "name": "a1a5571c411c335b3bb985b0f56c2115"}, {"bike_id": "38f3d0c1f1188dbb71b6ebe25d4917c9", "type": "electric_scooter", "is_disabled": 0, "lat": 38.905353, "rental_uris": {"ios": "https://dc.lft.to/lastmile_qr_scan", "android": "https://dc.lft.to/lastmile_qr_scan"}, "is_reserved": 0, "fusion_lon": 0.0, "fusion_lat": 0.0, "lon": -77.04341833333334, "name": "38f3d0c1f1188dbb71b6ebe25d4917c9"}, {"bike_id": "e7fded1f77030859f7447967b6027bd0", "type": "electric_scooter", "is_disabled": 0, "lat": 38.8935545, "rental_uris": {"ios": "https://dc.lft.to/lastmile_qr_scan", "android": "https://dc.lft.to/lastmile_qr_scan"}, "is_reserved": 0, "fusion_lon": 0.0, "fusion_lat": 0.0, "lon": -77.0222095, "name": "e7fded1f77030859f7447967b6027bd0"}, {"bike_id": "8eccebdf59777cd25d55ee419740e2c4", "type": "electric_bike", "is_disabled": 0, "lat": 38.98468166666667, "rental_uris": {"ios": "https://dc.lft.to/lastmile_qr_scan", "android": "https://dc.lft.to/lastmile_qr_scan"}, "is_reserved": 0, "fusion_lon": 0.0, "fusion_lat": 0.0, "lon": -77.09244766666667, "name": "8eccebdf59777cd25d55ee419740e2c4"}, {"bike_id": "3ccf0a12a5398bc20d1a64fecb0a1fbb", "type": "electric_scooter", "is_disabled": 0, "lat": 38.936105, "rental_uris": {"ios": "https://dc.lft.to/lastmile_qr_scan", "android": "https://dc.lft.to/lastmile_qr_scan"}, "is_reserved": 0, "fusion_lon": 0.0, "fusion_lat": 0.0, "lon": -77.05890916666667, "name": "3ccf0a12a5398bc20d1a64fecb0a1fbb"}, {"bike_id": "2914c715cbf65f7e74e86afce31bca33", "type": "electric_scooter", "is_disabled": 0, "lat": 38.89322816666667, "rental_uris": {"ios": "https://dc.lft.to/lastmile_qr_scan", "android": "https://dc.lft.to/lastmile_qr_scan"}, "is_reserved": 0, "fusion_lon": 0.0, "fusion_lat": 0.0, "lon": -77.04672366666667, "name": "2914c715cbf65f7e74e86afce31bca33"}, {"bike_id": "51697c53e904d58fd85317bc8ef09446", "type": "electric_scooter", "is_disabled": 0, "lat": 38.892437666666666, "rental_uris": {"ios": "https://dc.lft.to/lastmile_qr_scan", "android": "https://dc.lft.to/lastmile_qr_scan"}, "is_reserved": 0, "fusion_lon": 0.0, "fusion_lat": 0.0, "lon": -77.0395805, "name": "51697c53e904d58fd85317bc8ef09446"}, {"bike_id": "347c23581475f3cd963f0c1d8d3cb6f1", "type": "electric_scooter", "is_disabled": 0, "lat": 38.90802733333334, "rental_uris": {"ios": "https://dc.lft.to/lastmile_qr_scan", "android": "https://dc.lft.to/lastmile_qr_scan"}, "is_reserved": 0, "fusion_lon": 0.0, "fusion_lat": 0.0, "lon": -77.0306415, "name": "347c23581475f3cd963f0c1d8d3cb6f1"}, {"bike_id": "c9fe90c781a3e58205e59377b0929e2f", "type": "electric_scooter", "is_disabled": 0, "lat": 38.93226116666666, "rental_uris": {"ios": "https://dc.lft.to/lastmile_qr_scan", "android": "https://dc.lft.to/lastmile_qr_scan"}, "is_reserved": 0, "fusion_lon": 0.0, "fusion_lat": 0.0, "lon": -77.03853516666666, "name": "c9fe90c781a3e58205e59377b0929e2f"}, {"bike_id": "864760c4b26b8e7c5e13b9e2e3dd3a73", "type": "electric_scooter", "is_disabled": 0, "lat": 38.936285833333336, "rental_uris": {"ios": "https://dc.lft.to/lastmile_qr_scan", "android": "https://dc.lft.to/lastmile_qr_scan"}, "is_reserved": 0, "fusion_lon": 0.0, "fusion_lat": 0.0, "lon": -77.02455216666667, "name": "864760c4b26b8e7c5e13b9e2e3dd3a73"}, {"bike_id": "fa857a9b8f6b062e809b93b85fdad2b8", "type": "electric_scooter", "is_disabled": 0, "lat": 38.905368333333335, "rental_uris": {"ios": "https://dc.lft.to/lastmile_qr_scan", "android": "https://dc.lft.to/lastmile_qr_scan"}, "is_reserved": 0, "fusion_lon": 0.0, "fusion_lat": 0.0, "lon": -77.0417615, "name": "fa857a9b8f6b062e809b93b85fdad2b8"}, {"bike_id": "0564859ac73705a151c0060342f7144b", "type": "electric_scooter", "is_disabled": 0, "lat": 38.89863883333334, "rental_uris": {"ios": "https://dc.lft.to/lastmile_qr_scan", "android": "https://dc.lft.to/lastmile_qr_scan"}, "is_reserved": 0, "fusion_lon": 0.0, "fusion_lat": 0.0, "lon": -76.9463945, "name": "0564859ac73705a151c0060342f7144b"}, {"bike_id": "e783d66a11d44fc7140a556d3552034d", "type": "electric_bike", "is_disabled": 0, "lat": 38.9296815, "rental_uris": {"ios": "https://dc.lft.to/lastmile_qr_scan", "android": "https://dc.lft.to/lastmile_qr_scan"}, "is_reserved": 0, "fusion_lon": 0.0, "fusion_lat": 0.0, "lon": -77.18565633333333, "name": "e783d66a11d44fc7140a556d3552034d"}, {"bike_id": "b9317e8ce895b32f484c7914f93b865f", "type": "electric_scooter", "is_disabled": 0, "lat": 38.93391116666667, "rental_uris": {"ios": "https://dc.lft.to/lastmile_qr_scan", "android": "https://dc.lft.to/lastmile_qr_scan"}, "is_reserved": 0, "fusion_lon": 0.0, "fusion_lat": 0.0, "lon": -77.05741733333333, "name": "b9317e8ce895b32f484c7914f93b865f"}, {"bike_id": "d10918e0bffe8f87adaf0c134d4ad6fe", "type": "electric_bike", "is_disabled": 0, "lat": 38.861458666666664, "rental_uris": {"ios": "https://dc.lft.to/lastmile_qr_scan", "android": "https://dc.lft.to/lastmile_qr_scan"}, "is_reserved": 0, "fusion_lon": 0.0, "fusion_lat": 0.0, "lon": -77.09137616666666, "name": "d10918e0bffe8f87adaf0c134d4ad6fe"}, {"bike_id": "8b6e97ceba7724b5ef87dd9f2ccc6897", "type": "electric_scooter", "is_disabled": 0, "lat": 38.90270833333334, "rental_uris": {"ios": "https://dc.lft.to/lastmile_qr_scan", "android": "https://dc.lft.to/lastmile_qr_scan"}, "is_reserved": 0, "fusion_lon": 0.0, "fusion_lat": 0.0, "lon": -77.0580735, "name": "8b6e97ceba7724b5ef87dd9f2ccc6897"}, {"bike_id": "8e2c613dca21f07fa7359d3da667bff4", "type": "electric_scooter", "is_disabled": 0, "lat": 38.889979833333335, "rental_uris": {"ios": "https://dc.lft.to/lastmile_qr_scan", "android": "https://dc.lft.to/lastmile_qr_scan"}, "is_reserved": 0, "fusion_lon": 0.0, "fusion_lat": 0.0, "lon": -77.00207966666666, "name": "8e2c613dca21f07fa7359d3da667bff4"}, {"bike_id": "13375aac438acf1161437c65a1490639", "type": "electric_scooter", "is_disabled": 0, "lat": 38.895534833333336, "rental_uris": {"ios": "https://dc.lft.to/lastmile_qr_scan", "android": "https://dc.lft.to/lastmile_qr_scan"}, "is_reserved": 0, "fusion_lon": 0.0, "fusion_lat": 0.0, "lon": -77.04677183333334, "name": "13375aac438acf1161437c65a1490639"}, {"bike_id": "ed06306390dac4c56a961b840bc90760", "type": "electric_scooter", "is_disabled": 0, "lat": 38.91562916666667, "rental_uris": {"ios": "https://dc.lft.to/lastmile_qr_scan", "android": "https://dc.lft.to/lastmile_qr_scan"}, "is_reserved": 0, "fusion_lon": 0.0, "fusion_lat": 0.0, "lon": -77.02592216666666, "name": "ed06306390dac4c56a961b840bc90760"}, {"bike_id": "5904dae38cbbc8c6c9b929b0086fe0b8", "type": "electric_bike", "is_disabled": 0, "lat": 38.9663795, "rental_uris": {"ios": "https://dc.lft.to/lastmile_qr_scan", "android": "https://dc.lft.to/lastmile_qr_scan"}, "is_reserved": 0, "fusion_lon": 0.0, "fusion_lat": 0.0, "lon": -76.97674366666666, "name": "5904dae38cbbc8c6c9b929b0086fe0b8"}, {"bike_id": "2ead1c21317cb7a348182762af347841", "type": "electric_scooter", "is_disabled": 0, "lat": 38.878742833333334, "rental_uris": {"ios": "https://dc.lft.to/lastmile_qr_scan", "android": "https://dc.lft.to/lastmile_qr_scan"}, "is_reserved": 0, "fusion_lon": 0.0, "fusion_lat": 0.0, "lon": -77.01746566666667, "name": "2ead1c21317cb7a348182762af347841"}, {"bike_id": "05ba2b01fb9c6bf92e54d33aa85367da", "type": "electric_scooter", "is_disabled": 0, "lat": 38.91549833333333, "rental_uris": {"ios": "https://dc.lft.to/lastmile_qr_scan", "android": "https://dc.lft.to/lastmile_qr_scan"}, "is_reserved": 0, "fusion_lon": 0.0, "fusion_lat": 0.0, "lon": -77.04446216666666, "name": "05ba2b01fb9c6bf92e54d33aa85367da"}, {"bike_id": "82b96074a411373e8c6b16548ac44c57", "type": "electric_scooter", "is_disabled": 0, "lat": 38.91695933333333, "rental_uris": {"ios": "https://dc.lft.to/lastmile_qr_scan", "android": "https://dc.lft.to/lastmile_qr_scan"}, "is_reserved": 0, "fusion_lon": 0.0, "fusion_lat": 0.0, "lon": -77.00814616666666, "name": "82b96074a411373e8c6b16548ac44c57"}, {"bike_id": "8a611b7baecdd5ee53758e43497aa869", "type": "electric_scooter", "is_disabled": 0, "lat": 38.9028025, "rental_uris": {"ios": "https://dc.lft.to/lastmile_qr_scan", "android": "https://dc.lft.to/lastmile_qr_scan"}, "is_reserved": 0, "fusion_lon": 0.0, "fusion_lat": 0.0, "lon": -77.0299165, "name": "8a611b7baecdd5ee53758e43497aa869"}, {"bike_id": "43d7317b672b2fc75dfd2da53df95b0c", "type": "electric_scooter", "is_disabled": 0, "lat": 38.93520483333333, "rental_uris": {"ios": "https://dc.lft.to/lastmile_qr_scan", "android": "https://dc.lft.to/lastmile_qr_scan"}, "is_reserved": 0, "fusion_lon": 0.0, "fusion_lat": 0.0, "lon": -77.0335155, "name": "43d7317b672b2fc75dfd2da53df95b0c"}, {"bike_id": "e5536bc754536bf128c33c23ad900a71", "type": "electric_scooter", "is_disabled": 0, "lat": 38.907252, "rental_uris": {"ios": "https://dc.lft.to/lastmile_qr_scan", "android": "https://dc.lft.to/lastmile_qr_scan"}, "is_reserved": 0, "fusion_lon": 0.0, "fusion_lat": 0.0, "lon": -77.03195, "name": "e5536bc754536bf128c33c23ad900a71"}, {"bike_id": "56bbd81d735ce03ec52f41f0237e1cc1", "type": "electric_scooter", "is_disabled": 0, "lat": 38.93462933333333, "rental_uris": {"ios": "https://dc.lft.to/lastmile_qr_scan", "android": "https://dc.lft.to/lastmile_qr_scan"}, "is_reserved": 0, "fusion_lon": 0.0, "fusion_lat": 0.0, "lon": -77.04533366666666, "name": "56bbd81d735ce03ec52f41f0237e1cc1"}, {"bike_id": "91c3336d8431c034d00f18a893084844", "type": "electric_scooter", "is_disabled": 0, "lat": 38.899408333333334, "rental_uris": {"ios": "https://dc.lft.to/lastmile_qr_scan", "android": "https://dc.lft.to/lastmile_qr_scan"}, "is_reserved": 0, "fusion_lon": 0.0, "fusion_lat": 0.0, "lon": -77.014535, "name": "91c3336d8431c034d00f18a893084844"}, {"bike_id": "acbd05d731946331a817a2378070dc8a", "type": "electric_bike", "is_disabled": 0, "lat": 38.93686316666667, "rental_uris": {"ios": "https://dc.lft.to/lastmile_qr_scan", "android": "https://dc.lft.to/lastmile_qr_scan"}, "is_reserved": 0, "fusion_lon": 0.0, "fusion_lat": 0.0, "lon": -76.99060033333333, "name": "acbd05d731946331a817a2378070dc8a"}, {"bike_id": "3bb9e20dca4ad4a9608a7dc24dc59030", "type": "electric_scooter", "is_disabled": 0, "lat": 38.9225295, "rental_uris": {"ios": "https://dc.lft.to/lastmile_qr_scan", "android": "https://dc.lft.to/lastmile_qr_scan"}, "is_reserved": 0, "fusion_lon": 0.0, "fusion_lat": 0.0, "lon": -77.0420205, "name": "3bb9e20dca4ad4a9608a7dc24dc59030"}, {"bike_id": "56acb736a59b4335227f7e31d5d5ea15", "type": "electric_scooter", "is_disabled": 0, "lat": 38.893587333333336, "rental_uris": {"ios": "https://dc.lft.to/lastmile_qr_scan", "android": "https://dc.lft.to/lastmile_qr_scan"}, "is_reserved": 0, "fusion_lon": 0.0, "fusion_lat": 0.0, "lon": -77.0033815, "name": "56acb736a59b4335227f7e31d5d5ea15"}, {"bike_id": "38180cdc45e11aa53acaebcea68dea83", "type": "electric_scooter", "is_disabled": 0, "lat": 38.901902166666666, "rental_uris": {"ios": "https://dc.lft.to/lastmile_qr_scan", "android": "https://dc.lft.to/lastmile_qr_scan"}, "is_reserved": 0, "fusion_lon": 0.0, "fusion_lat": 0.0, "lon": -76.97881316666667, "name": "38180cdc45e11aa53acaebcea68dea83"}, {"bike_id": "b503b8594e03b251dbf1da10c8ae4ac1", "type": "electric_scooter", "is_disabled": 0, "lat": 38.89916233333334, "rental_uris": {"ios": "https://dc.lft.to/lastmile_qr_scan", "android": "https://dc.lft.to/lastmile_qr_scan"}, "is_reserved": 0, "fusion_lon": 0.0, "fusion_lat": 0.0, "lon": -76.93364583333333, "name": "b503b8594e03b251dbf1da10c8ae4ac1"}, {"bike_id": "ca1f28a802b08e53d199aee16190455c", "type": "electric_scooter", "is_disabled": 0, "lat": 38.893991166666666, "rental_uris": {"ios": "https://dc.lft.to/lastmile_qr_scan", "android": "https://dc.lft.to/lastmile_qr_scan"}, "is_reserved": 0, "fusion_lon": 0.0, "fusion_lat": 0.0, "lon": -77.0212235, "name": "ca1f28a802b08e53d199aee16190455c"}, {"bike_id": "5a62aff8838364e6716d8bd0a6653b7e", "type": "electric_scooter", "is_disabled": 0, "lat": 38.92318933333333, "rental_uris": {"ios": "https://dc.lft.to/lastmile_qr_scan", "android": "https://dc.lft.to/lastmile_qr_scan"}, "is_reserved": 0, "fusion_lon": 0.0, "fusion_lat": 0.0, "lon": -77.04640466666666, "name": "5a62aff8838364e6716d8bd0a6653b7e"}, {"bike_id": "efb71b2f234a250e4a425c71bf21d837", "type": "electric_scooter", "is_disabled": 0, "lat": 38.8513575, "rental_uris": {"ios": "https://dc.lft.to/lastmile_qr_scan", "android": "https://dc.lft.to/lastmile_qr_scan"}, "is_reserved": 0, "fusion_lon": 0.0, "fusion_lat": 0.0, "lon": -76.97115483333333, "name": "efb71b2f234a250e4a425c71bf21d837"}, {"bike_id": "4d9ea2049568a72a878bf5ab24bfa84a", "type": "electric_scooter", "is_disabled": 0, "lat": 38.94196766666666, "rental_uris": {"ios": "https://dc.lft.to/lastmile_qr_scan", "android": "https://dc.lft.to/lastmile_qr_scan"}, "is_reserved": 0, "fusion_lon": 0.0, "fusion_lat": 0.0, "lon": -77.03658133333333, "name": "4d9ea2049568a72a878bf5ab24bfa84a"}, {"bike_id": "462db1f1cb600422232049f76709470d", "type": "electric_scooter", "is_disabled": 0, "lat": 38.911109333333336, "rental_uris": {"ios": "https://dc.lft.to/lastmile_qr_scan", "android": "https://dc.lft.to/lastmile_qr_scan"}, "is_reserved": 0, "fusion_lon": 0.0, "fusion_lat": 0.0, "lon": -77.04394083333334, "name": "462db1f1cb600422232049f76709470d"},