{"data": {"bikes": [{"lon": -77.03637133333334, "is_disabled": 0, "lat": 38.917879, "fusion_lat": 0.0, "is_reserved": 0, "rental_uris": {"ios": "https://dc.lft.to/lastmile_qr_scan", "android": "https://dc.lft.to/lastmile_qr_scan"}, "fusion_lon": 0.0, "type": "electric_scooter", "bike_id": "6ab48489fc6e0bc4afa4b5ba2b29e937", "name": "6ab48489fc6e0bc4afa4b5ba2b29e937"}, {"lon": -76.97054383333334, "is_disabled": 0, "lat": 38.98462, "fusion_lat": 0.0, "is_reserved": 0, "rental_uris": {"ios": "https://dc.lft.to/lastmile_qr_scan", "android": "https://dc.lft.to/lastmile_qr_scan"}, "fusion_lon": 0.0, "type": "electric_bike", "bike_id": "15d3a056e46b61a200f0854a3c10a1f3", "name": "15d3a056e46b61a200f0854a3c10a1f3"}, {"lon": -77.0853275, "is_disabled": 0, "lat": 38.916055666666665, "fusion_lat": 0.0, "is_reserved": 0, "rental_uris": {"ios": "https://dc.lft.to/lastmile_qr_scan", "android": "https://dc.lft.to/lastmile_qr_scan"}, "fusion_lon": 0.0, "type": "electric_scooter", "bike_id": "247ef6f349249e25013f321db98d88cf", "name": "247ef6f349249e25013f321db98d88cf"}, {"lon": -76.98574666666667, "is_disabled": 0, "lat": 38.86685533333333, "fusion_lat": 0.0, "is_reserved": 0, "rental_uris": {"ios": "https://dc.lft.to/lastmile_qr_scan", "android": "https://dc.lft.to/lastmile_qr_scan"}, "fusion_lon": 0.0, "type": "electric_scooter", "bike_id": "773b6bd6e5c8fb9564a7142188fcf7fa", "name": "773b6bd6e5c8fb9564a7142188fcf7fa"}, {"lon": -77.03808816666667, "is_disabled": 0, "lat": 38.90256316666667, "fusion_lat": 0.0, "is_reserved": 0, "rental_uris": {"ios": "https://dc.lft.to/lastmile_qr_scan", "android": "https://dc.lft.to/lastmile_qr_scan"}, "fusion_lon": 0.0, "type": "electric_scooter", "bike_id": "21dd0ef061e52a409eb6ee89ab69ed67", "name": "21dd0ef061e52a409eb6ee89ab69ed67"}, {"lon": -76.98815116666667, "is_disabled": 0, "lat": 38.866469, "fusion_lat": 0.0, "is_reserved": 0, "rental_uris": {"ios": "https://dc.lft.to/lastmile_qr_scan", "android": "https://dc.lft.to/lastmile_qr_scan"}, "fusion_lon": 0.0, "type": "electric_scooter", "bike_id": "b239567dce62056b1f2f79e54cc1394a", "name": "b239567dce62056b1f2f79e54cc1394a"}, {"lon": -77.01964133333334, "is_disabled": 0, "lat": 38.95254216666667, "fusion_lat": 0.0, "is_reserved": 0, "rental_uris": {"ios": "https://dc.lft.to/lastmile_qr_scan", "android": "https://dc.lft.to/lastmile_qr_scan"}, "fusion_lon": 0.0, "type": "electric_scooter", "bike_id": "43ec40bd2355e68456afd7ba8f6d39d3", "name": "43ec40bd2355e68456afd7ba8f6d39d3"}, {"lon": -77.04107716666667, "is_disabled": 0, "lat": 38.925220833333334, "fusion_lat": 0.0, "is_reserved": 0, "rental_uris": {"ios": "https://dc.lft.to/lastmile_qr_scan", "android": "https://dc.lft.to/lastmile_qr_scan"}, "fusion_lon": 0.0, "type": "electric_scooter", "bike_id": "abf058ac0109b7ad115c9946a02717f1", "name": "abf058ac0109b7ad115c9946a02717f1"}, {"lon": -77.020026, "is_disabled": 0, "lat": 38.897226333333336, "fusion_lat": 0.0, "is_reserved": 0, "rental_uris": {"ios": "https://dc.lft.to/lastmile_qr_scan", "android": "https://dc.lft.to/lastmile_qr_scan"}, "fusion_lon": 0.0, "type": "electric_scooter", "bike_id": "f10cc8eec0dd182ce40b4593c054c910", "name": "f10cc8eec0dd182ce40b4593c054c910"}, {"lon": -77.020301, "is_disabled": 0, "lat": 38.915546, "fusion_lat": 0.0, "is_reserved": 0, "rental_uris": {"ios": "https://dc.lft.to/lastmile_qr_scan", "android": "https://dc.lft.to/lastmile_qr_scan"}, "fusion_lon": 0.0, "type": "electric_scooter", "bike_id": "6c38d91a9085ed629321c4b9c06c1b12", "name": "6c38d91a9085ed629321c4b9c06c1b12"}, {"lon": -77.02025416666666, "is_disabled": 0, "lat": 38.924486333333334, "fusion_lat": 0.0, "is_reserved": 0, "rental_uris": {"ios": "https://dc.lft.to/lastmile_qr_scan", "android": "https://dc.lft.to/lastmile_qr_scan"}, "fusion_lon": 0.0, "type": "electric_scooter", "bike_id": "0d77e1b535521cf5c5d477c3db33fbd6", "name": "0d77e1b535521cf5c5d477c3db33fbd6"}, {"lon": -77.0295565, "is_disabled": 0, "lat": 38.916794, "fusion_lat": 0.0, "is_reserved": 0, "rental_uris": {"ios": "https://dc.lft.to/lastmile_qr_scan", "android": "https://dc.lft.to/lastmile_qr_scan"}, "fusion_lon": 0.0, "type": "electric_scooter", "bike_id": "8c9fa66b35b8aab9ad8db4a08a6cb4dc", "name": "8c9fa66b35b8aab9ad8db4a08a6cb4dc"}, {"lon": -77.062006, "is_disabled": 0, "lat": 38.93353066666667, "fusion_lat": 0.0, "is_reserved": 0, "rental_uris": {"ios": "https://dc.lft.to/lastmile_qr_scan", "android": "https://dc.lft.to/lastmile_qr_scan"}, "fusion_lon": 0.0, "type": "electric_scooter", "bike_id": "2aa6e30d18b92038b020d5711f3caba6", "name": "2aa6e30d18b92038b020d5711f3caba6"}, {"lon": -77.0476805, "is_disabled": 0, "lat": 38.905026, "fusion_lat": 0.0, "is_reserved": 0, "rental_uris": {"ios": "https://dc.lft.to/lastmile_qr_scan", "android": "https://dc.lft.to/lastmile_qr_scan"}, "fusion_lon": 0.0, "type": "electric_scooter", "bike_id": "8cbea6460a6d0fbe6d02deaaf638b02c", "name": "8cbea6460a6d0fbe6d02deaaf638b02c"}, {"lon": -77.03494666666667, "is_disabled": 0, "lat": 38.934614333333336, "fusion_lat": 0.0, "is_reserved": 0, "rental_uris": {"ios": "https://dc.lft.to/lastmile_qr_scan", "android": "https://dc.lft.to/lastmile_qr_scan"}, "fusion_lon": 0.0, "type": "electric_scooter", "bike_id": "f2e356f37df41f8996964265d36c8c32", "name": "f2e356f37df41f8996964265d36c8c32"}, {"lon": -76.9871575, "is_disabled": 0, "lat": 38.86698366666667, "fusion_lat": 0.0, "is_reserved": 0, "rental_uris": {"ios": "https://dc.lft.to/lastmile_qr_scan", "android": "https://dc.lft.to/lastmile_qr_scan"}, "fusion_lon": 0.0, "type": "electric_scooter", "bike_id": "46b12d1fcf96c28495d7d948ac33f9d1", "name": "46b12d1fcf96c28495d7d948ac33f9d1"}, {"lon": -76.99293016666667, "is_disabled": 0, "lat": 38.8575905, "fusion_lat": 0.0, "is_reserved": 0, "rental_uris": {"ios": "https://dc.lft.to/lastmile_qr_scan", "android": "https://dc.lft.to/lastmile_qr_scan"}, "fusion_lon": 0.0, "type": "electric_scooter", "bike_id": "d4a16aa480cf40cba9d87f13423a9f19", "name": "d4a16aa480cf40cba9d87f13423a9f19"}, {"lon": -77.03189083333334, "is_disabled": 0, "lat": 38.918565, "fusion_lat": 0.0, "is_reserved": 0, "rental_uris": {"ios": "https://dc.lft.to/lastmile_qr_scan", "android": "https://dc.lft.to/lastmile_qr_scan"}, "fusion_lon": 0.0, "type": "electric_scooter", "bike_id": "54f8fb776a3b8ec8d7e6f6c0b5af1baa", "name": "54f8fb776a3b8ec8d7e6f6c0b5af1baa"}, {"lon": -76.99851583333333, "is_disabled": 0, "lat": 38.89624166666667, "fusion_lat": 0.0, "is_reserved": 0, "rental_uris": {"ios": "https://dc.lft.to/lastmile_qr_scan", "android": "https://dc.lft.to/lastmile_qr_scan"}, "fusion_lon": 0.0, "type": "electric_scooter", "bike_id": "27d4fec4fc25eceec01c84909bdb6525", "name": "27d4fec4fc25eceec01c84909bdb6525"}, {"lon": -77.04295633333334, "is_disabled": 0, "lat": 38.90558466666667, "fusion_lat": 0.0, "is_reserved": 0, "rental_uris": {"ios": "https://dc.lft.to/lastmile_qr_scan", "android": "https://dc.lft.to/lastmile_qr_scan"}, "fusion_lon": 0.0, "type": "electric_scooter", "bike_id": "f699a4c814b386d233ae2a30743266e2", "name": "f699a4c814b386d233ae2a30743266e2"}, {"lon": -77.022758, "is_disabled": 0, "lat": 38.89487583333333, "fusion_lat": 0.0, "is_reserved": 0, "rental_uris": {"ios": "https://dc.lft.to/lastmile_qr_scan", "android": "https://dc.lft.to/lastmile_qr_scan"}, "fusion_lon": 0.0, "type": "electric_scooter", "bike_id": "0f97715aab154e962b99300ae42c4ab1", "name": "0f97715aab154e962b99300ae42c4ab1"}, {"lon": -77.04377116666667, "is_disabled": 0, "lat": 38.9255785, "fusion_lat": 0.0, "is_reserved": 0, "rental_uris": {"ios": "https://dc.lft.to/lastmile_qr_scan", "android": "https://dc.lft.to/lastmile_qr_scan"}, "fusion_lon": 0.0, "type": "electric_scooter", "bike_id": "7d30cacfeafc3dc1b6f5aad4e6b10c93", "name": "7d30cacfeafc3dc1b6f5aad4e6b10c93"}, {"lon": -77.02641916666667, "is_disabled": 0, "lat": 38.984670333333334, "fusion_lat": 0.0, "is_reserved": 0, "rental_uris": {"ios": "https://dc.lft.to/lastmile_qr_scan", "android": "https://dc.lft.to/lastmile_qr_scan"}, "fusion_lon": 0.0, "type": "electric_scooter", "bike_id": "862d7f2d964c04926aded961c0918fa1", "name": "862d7f2d964c04926aded961c0918fa1"}, {"lon": -77.038643, "is_disabled": 0, "lat": 38.90808616666666, "fusion_lat": 0.0, "is_reserved": 0, "rental_uris": {"ios": "https://dc.lft.to/lastmile_qr_scan", "android": "https://dc.lft.to/lastmile_qr_scan"}, "fusion_lon": 0.0, "type": "electric_scooter", "bike_id": "6a3d0da3904e6ce7ff0a9573fe31cc7c", "name": "6a3d0da3904e6ce7ff0a9573fe31cc7c"}, {"lon": -77.04142616666667, "is_disabled": 0, "lat": 38.925034, "fusion_lat": 0.0, "is_reserved": 0, "rental_uris": {"ios": "https://dc.lft.to/lastmile_qr_scan", "android": "https://dc.lft.to/lastmile_qr_scan"}, "fusion_lon": 0.0, "type": "electric_scooter", "bike_id": "fcf0ddf0265b9ec6e5fed4ce8bdc36b9", "name": "fcf0ddf0265b9ec6e5fed4ce8bdc36b9"}, {"lon": -77.07358016666667, "is_disabled": 0, "lat": 38.93356283333333, "fusion_lat": 0.0, "is_reserved": 0, "rental_uris": {"ios": "https://dc.lft.to/lastmile_qr_scan", "android": "https://dc.lft.to/lastmile_qr_scan"}, "fusion_lon": 0.0, "type": "electric_scooter", "bike_id": "2fd2b81cc8a02f3f4d8e675ec99cd8e0", "name": "2fd2b81cc8a02f3f4d8e675ec99cd8e0"}, {"lon": -77.02503533333334, "is_disabled": 0, "lat": 38.942714333333335, "fusion_lat": 0.0, "is_reserved": 0, "rental_uris": {"ios": "https://dc.lft.to/lastmile_qr_scan", "android": "https://dc.lft.to/lastmile_qr_scan"}, "fusion_lon": 0.0, "type": "electric_scooter", "bike_id": "330bf78204d6b61ed87739230e460ebb", "name": "330bf78204d6b61ed87739230e460ebb"}, {"lon": -77.02381666666666, "is_disabled": 0, "lat": 38.9167445, "fusion_lat": 0.0, "is_reserved": 0, "rental_uris": {"ios": "https://dc.lft.to/lastmile_qr_scan", "android": "https://dc.lft.to/lastmile_qr_scan"}, "fusion_lon": 0.0, "type": "electric_scooter", "bike_id": "ee375350ca90d5ce56eec923efa30349", "name": "ee375350ca90d5ce56eec923efa30349"}, {"lon": -77.0445705, "is_disabled": 0, "lat": 38.92536333333334, "fusion_lat": 0.0, "is_reserved": 0, "rental_uris": {"ios": "https://dc.lft.to/lastmile_qr_scan", "android": "https://dc.lft.to/lastmile_qr_scan"}, "fusion_lon": 0.0, "type": "electric_scooter", "bike_id": "24de8cbfb6d10ed5c631bccf6f93960c", "name": "24de8cbfb6d10ed5c631bccf6f93960c"}, {"lon": -77.032726, "is_disabled": 0, "lat": 38.92760916666667, "fusion_lat": 0.0, "is_reserved": 0, "rental_uris": {"ios": "https://dc.lft.to/lastmile_qr_scan", "android": "https://dc.lft.to/lastmile_qr_scan"}, "fusion_lon": 0.0, "type": "electric_scooter", "bike_id": "5b72132650ea731c0b0670e777e30c47", "name": "5b72132650ea731c0b0670e777e30c47"}, {"lon": -76.98838766666667, "is_disabled": 0, "lat": 38.8967845, "fusion_lat": 0.0, "is_reserved": 0, "rental_uris": {"ios": "https://dc.lft.to/lastmile_qr_scan", "android": "https://dc.lft.to/lastmile_qr_scan"}, "fusion_lon": 0.0, "type": "electric_scooter", "bike_id": "6fdc6e7a34ff42615daf0458785a2410", "name": "6fdc6e7a34ff42615daf0458785a2410"}, {"lon": -77.11862116666667, "is_disabled": 0, "lat": 38.85891566666667, "fusion_lat": 0.0, "is_reserved": 0, "rental_uris": {"ios": "https://dc.lft.to/lastmile_qr_scan", "android": "https://dc.lft.to/lastmile_qr_scan"}, "fusion_lon": 0.0, "type": "electric_bike", "bike_id": "ed64efa45236e44b245aa820cc93cba1", "name": "ed64efa45236e44b245aa820cc93cba1"}, {"lon": -77.034414, "is_disabled": 0, "lat": 38.90880633333333, "fusion_lat": 0.0, "is_reserved": 0, "rental_uris": {"ios": "https://dc.lft.to/lastmile_qr_scan", "android": "https://dc.lft.to/lastmile_qr_scan"}, "fusion_lon": 0.0, "type": "electric_scooter", "bike_id": "288d706f41a6ba7affaecee55bbabe4e", "name": "288d706f41a6ba7affaecee55bbabe4e"}, {"lon": -77.03199366666666, "is_disabled": 0, "lat": 38.91737333333333, "fusion_lat": 0.0, "is_reserved": 0, "rental_uris": {"ios": "https://dc.lft.to/lastmile_qr_scan", "android": "https://dc.lft.to/lastmile_qr_scan"}, "fusion_lon": 0.0, "type": "electric_scooter", "bike_id": "fd13a23003a9f6b51a3071f48aea3501", "name": "fd13a23003a9f6b51a3071f48aea3501"}, {"lon": -77.022933, "is_disabled": 0, "lat": 38.916920833333336, "fusion_lat": 0.0, "is_reserved": 0, "rental_uris": {"ios": "https://dc.lft.to/lastmile_qr_scan", "android": "https://dc.lft.to/lastmile_qr_scan"}, "fusion_lon": 0.0, "type": "electric_scooter", "bike_id": "715d87d63d74feaabed055ee07eb3f51", "name": "715d87d63d74feaabed055ee07eb3f51"}, {"lon": -77.04025533333333, "is_disabled": 0, "lat": 38.900597833333336, "fusion_lat": 0.0, "is_reserved": 0, "rental_uris": {"ios": "https://dc.lft.to/lastmile_qr_scan", "android": "https://dc.lft.to/lastmile_qr_scan"}, "fusion_lon": 0.0, "type": "electric_scooter", "bike_id": "fc978af7c11cbf984bb19a3d537fe3ad", "name": "fc978af7c11cbf984bb19a3d537fe3ad"}, {"lon": -77.03443166666666, "is_disabled": 0, "lat": 38.9096885, "fusion_lat": 0.0, "is_reserved": 0, "rental_uris": {"ios": "https://dc.lft.to/lastmile_qr_scan", "android": "https://dc.lft.to/lastmile_qr_scan"}, "fusion_lon": 0.0, "type": "electric_scooter", "bike_id": "721d48b73e7888fb110cb594461f7035", "name": "721d48b73e7888fb110cb594461f7035"}, {"lon": -77.00486516666666, "is_disabled": 0, "lat": 38.8746425, "fusion_lat": 0.0, "is_reserved": 0, "rental_uris": {"ios": "https://dc.lft.to/lastmile_qr_scan", "android": "https://dc.lft.to/lastmile_qr_scan"}, "fusion_lon": 0.0, "type": "electric_scooter", "bike_id": "7546f0dd9b8256d62832106fe7f14334", "name": "7546f0dd9b8256d62832106fe7f14334"}, {"lon": -76.98867066666666, "is_disabled": 0, "lat": 38.896052, "fusion_lat": 0.0, "is_reserved": 0, "rental_uris": {"ios": "https://dc.lft.to/lastmile_qr_scan", "android": "https://dc.lft.to/lastmile_qr_scan"}, "fusion_lon": 0.0, "type": "electric_scooter", "bike_id": "cc492d62b0a0b5800bbb8e2d2f302e9d", "name": "cc492d62b0a0b5800bbb8e2d2f302e9d"}, {"lon": -77.02527966666666, "is_disabled": 0, "lat": 38.9205415, "fusion_lat": 0.0, "is_reserved": 0, "rental_uris": {"ios": "https://dc.lft.to/lastmile_qr_scan", "android": "https://dc.lft.to/lastmile_qr_scan"}, "fusion_lon": 0.0, "type": "electric_scooter", "bike_id": "476d102ec1bba27ea224467fa45c6a5e", "name": "476d102ec1bba27ea224467fa45c6a5e"}, {"lon": -77.032711, "is_disabled": 0, "lat": 38.92759016666667, "fusion_lat": 0.0, "is_reserved": 0, "rental_uris": {"ios": "https://dc.lft.to/lastmile_qr_scan", "android": "https://dc.lft.to/lastmile_qr_scan"}, "fusion_lon": 0.0, "type": "electric_scooter", "bike_id": "421daeeb6f6d0b3a16f3e1791c201338", "name": "421daeeb6f6d0b3a16f3e1791c201338"}, {"lon": -77.01213583333333, "is_disabled": 0, "lat": 38.91971, "fusion_lat": 0.0, "is_reserved": 0, "rental_uris": {"ios": "https://dc.lft.to/lastmile_qr_scan", "android": "https://dc.lft.to/lastmile_qr_scan"}, "fusion_lon": 0.0, "type": "electric_scooter", "bike_id": "f2d37ed87d8f050efbd24a8d0b7749e3", "name": "f2d37ed87d8f050efbd24a8d0b7749e3"}, {"lon": -77.04100666666666, "is_disabled": 0, "lat": 38.90479466666667, "fusion_lat": 0.0, "is_reserved": 0, "rental_uris": {"ios": "https://dc.lft.to/lastmile_qr_scan", "android": "https://dc.lft.to/lastmile_qr_scan"}, "fusion_lon": 0.0, "type": "electric_scooter", "bike_id": "b721b3863f5c8a9dd496d0f23e76245d", "name": "b721b3863f5c8a9dd496d0f23e76245d"}, {"lon": -77.02396283333333, "is_disabled": 0, "lat": 38.9191205, "fusion_lat": 0.0, "is_reserved": 0, "rental_uris": {"ios": "https://dc.lft.to/lastmile_qr_scan", "android": "https://dc.lft.to/lastmile_qr_scan"}, "fusion_lon": 0.0, "type": "electric_scooter", "bike_id": "774060524d1417e5293b98f3ccc7b9d9", "name": "774060524d1417e5293b98f3ccc7b9d9"}, {"lon": -77.027126, "is_disabled": 0, "lat": 38.927650666666665, "fusion_lat": 0.0, "is_reserved": 0, "rental_uris": {"ios": "https://dc.lft.to/lastmile_qr_scan", "android": "https://dc.lft.to/lastmile_qr_scan"}, "fusion_lon": 0.0, "type": "electric_scooter", "bike_id": "c3eac7160ab3601dc06a4474f3f3e38b", "name": "c3eac7160ab3601dc06a4474f3f3e38b"}, {"lon": -77.0683635, "is_disabled": 0, "lat": 38.917189666666665, "fusion_lat": 0.0, "is_reserved": 0, "rental_uris": {"ios": "https://dc.lft.to/lastmile_qr_scan", "android": "https://dc.lft.to/lastmile_qr_scan"}, "fusion_lon": 0.0, "type": "electric_scooter", "bike_id": "d2a09edce61ad7d4a51c4339e60bb3ad", "name": "d2a09edce61ad7d4a51c4339e60bb3ad"}, {"lon": -77.0413665, "is_disabled": 0, "lat": 38.90713066666667, "fusion_lat": 0.0, "is_reserved": 0, "rental_uris": {"ios": "https://dc.lft.to/lastmile_qr_scan", "android": "https://dc.lft.to/lastmile_qr_scan"}, "fusion_lon": 0.0, "type": "electric_scooter", "bike_id": "76245b0d778f2885116bbaf863e2d8ff", "name": "76245b0d778f2885116bbaf863e2d8ff"}, {"lon": -77.04446233333333, "is_disabled": 0, "lat": 38.915495666666665, "fusion_lat": 0.0, "is_reserved": 0, "rental_uris": {"ios": "https://dc.lft.to/lastmile_qr_scan", "android": "https://dc.lft.to/lastmile_qr_scan"}, "fusion_lon": 0.0, "type": "electric_scooter", "bike_id": "78c95a85e7ccf7966215ca325c9e41ee", "name": "78c95a85e7ccf7966215ca325c9e41ee"}, {"lon": -76.9901315, "is_disabled": 0, "lat": 38.865019333333336, "fusion_lat": 0.0, "is_reserved": 0, "rental_uris": {"ios": "https://dc.lft.to/lastmile_qr_scan", "android": "https://dc.lft.to/lastmile_qr_scan"}, "fusion_lon": 0.0, "type": "electric_scooter", "bike_id": "625511845b28d12d8e7541c38cf172b3", "name": "625511845b28d12d8e7541c38cf172b3"}, {"lon": -77.01744633333334, "is_disabled": 0, "lat": 38.883878, "fusion_lat": 0.0, "is_reserved": 0, "rental_uris": {"ios": "https://dc.lft.to/lastmile_qr_scan", "android": "https://dc.lft.to/lastmile_qr_scan"}, "fusion_lon": 0.0, "type": "electric_scooter", "bike_id": "f619264558a76a6a2c96ca6c41a01c8e", "name": "f619264558a76a6a2c96ca6c41a01c8e"}, {"lon": -77.023748, "is_disabled": 0, "lat": 38.91991516666667, "fusion_lat": 0.0, "is_reserved": 0, "rental_uris": {"ios": "https://dc.lft.to/lastmile_qr_scan", "android": "https://dc.lft.to/lastmile_qr_scan"}, "fusion_lon": 0.0, "type": "electric_scooter", "bike_id": "dc124fbc912a14960983dc1d8ba036f5", "name": "dc124fbc912a14960983dc1d8ba036f5"}, {"lon": -77.03942466666666, "is_disabled": 0, "lat": 38.91410666666667, "fusion_lat": 0.0, "is_reserved": 0, "rental_uris": {"ios": "https://dc.lft.to/lastmile_qr_scan", "android": "https://dc.lft.to/lastmile_qr_scan"}, "fusion_lon": 0.0, "type": "electric_scooter", "bike_id": "24b147650e81c07e67e112f8aab1d7ac", "name": "24b147650e81c07e67e112f8aab1d7ac"}, {"lon": -76.9856695, "is_disabled": 0, "lat": 38.866829, "fusion_lat": 0.0, "is_reserved": 0, "rental_uris": {"ios": "https://dc.lft.to/lastmile_qr_scan", "android": "https://dc.lft.to/lastmile_qr_scan"}, "fusion_lon": 0.0, "type": "electric_scooter", "bike_id": "1515965a15d4fbf276e37729dc7078e7", "name": "1515965a15d4fbf276e37729dc7078e7"}, {"lon": -77.0278335, "is_disabled": 0, "lat": 38.927729166666666, "fusion_lat": 0.0, "is_reserved": 0, "rental_uris": {"ios": "https://dc.lft.to/lastmile_qr_scan", "android": "https://dc.lft.to/lastmile_qr_scan"}, "fusion_lon": 0.0, "type": "electric_scooter", "bike_id": "4cefffd370759333020d18c6957b223f", "name": "4cefffd370759333020d18c6957b223f"}, {"lon": -77.02188483333333, "is_disabled": 0, "lat": 38.910311666666665, "fusion_lat": 0.0, "is_reserved": 0, "rental_uris": {"ios": "https://dc.lft.to/lastmile_qr_scan", "android": "https://dc.lft.to/lastmile_qr_scan"}, "fusion_lon": 0.0, "type": "electric_scooter", "bike_id": "40bb3cc4fa91a5a278c2c48936c0ec93", "name": "40bb3cc4fa91a5a278c2c48936c0ec93"}, {"lon": -77.050305, "is_disabled": 0, "lat": 38.92367866666667, "fusion_lat": 0.0, "is_reserved": 0, "rental_uris": {"ios": "https://dc.lft.to/lastmile_qr_scan", "android": "https://dc.lft.to/lastmile_qr_scan"}, "fusion_lon": 0.0, "type": "electric_scooter", "bike_id": "a48a8cf6adcd09e257a2055c280a5f00", "name": "a48a8cf6adcd09e257a2055c280a5f00"}, {"lon": -76.981447, "is_disabled": 0, "lat": 38.9056515, "fusion_lat": 0.0, "is_reserved": 0, "rental_uris": {"ios": "https://dc.lft.to/lastmile_qr_scan", "android": "https://dc.lft.to/lastmile_qr_scan"}, "fusion_lon": 0.0, "type": "electric_scooter", "bike_id": "11c4934f54a856835a39f954155d6b00", "name": "11c4934f54a856835a39f954155d6b00"}, {"lon": -77.02469516666666, "is_disabled": 0, "lat": 38.930946166666665, "fusion_lat": 0.0, "is_reserved": 0, "rental_uris": {"ios": "https://dc.lft.to/lastmile_qr_scan", "android": "https://dc.lft.to/lastmile_qr_scan"}, "fusion_lon": 0.0, "type": "electric_scooter", "bike_id": "83ed3771a518f7afd4a440c6f08fee72", "name": "83ed3771a518f7afd4a440c6f08fee72"}, {"lon": -77.02171716666666, "is_disabled": 0, "lat": 38.9018665, "fusion_lat": 0.0, "is_reserved": 0, "rental_uris": {"ios": "https://dc.lft.to/lastmile_qr_scan", "android": "https://dc.lft.to/lastmile_qr_scan"}, "fusion_lon": 0.0, "type": "electric_scooter", "bike_id": "4cba0a4c251d943f6335fe9c8d314fb1", "name": "4cba0a4c251d943f6335fe9c8d314fb1"}, {"lon": -77.04210233333333, "is_disabled": 0, "lat": 38.923169, "fusion_lat": 0.0, "is_reserved": 0, "rental_uris": {"ios": "https://dc.lft.to/lastmile_qr_scan", "android": "https://dc.lft.to/lastmile_qr_scan"}, "fusion_lon": 0.0, "type": "electric_scooter", "bike_id": "762355a327ef8974e68be96e67996db3", "name": "762355a327ef8974e68be96e67996db3"}, {"lon": -77.040037, "is_disabled": 0, "lat": 38.909984333333334, "fusion_lat": 0.0, "is_reserved": 0, "rental_uris": {"ios": "https://dc.lft.to/lastmile_qr_scan", "android": "https://dc.lft.to/lastmile_qr_scan"}, "fusion_lon": 0.0, "type": "electric_scooter", "bike_id": "f5966d2e559eacb2d27b345766705ec7", "name": "f5966d2e559eacb2d27b345766705ec7"}, {"lon": -77.01832666666667, "is_disabled": 0, "lat": 38.94989366666667, "fusion_lat": 0.0, "is_reserved": 0, "rental_uris": {"ios": "https://dc.lft.to/lastmile_qr_scan", "android": "https://dc.lft.to/lastmile_qr_scan"}, "fusion_lon": 0.0, "type": "electric_scooter", "bike_id": "892103fdd2b7dac7d56c628e1d8fae61", "name": "892103fdd2b7dac7d56c628e1d8fae61"}, {"lon": -76.98817149999999, "is_disabled": 0, "lat": 38.90067716666667, "fusion_lat": 0.0, "is_reserved": 0, "rental_uris": {"ios": "https://dc.lft.to/lastmile_qr_scan", "android": "https://dc.lft.to/lastmile_qr_scan"}, "fusion_lon": 0.0, "type": "electric_scooter", "bike_id": "ecf67c723dcb3d4f43e4c351b7140cfd", "name": "ecf67c723dcb3d4f43e4c351b7140cfd"}, {"lon": -76.9859245, "is_disabled": 0, "lat": 38.90015133333333, "fusion_lat": 0.0, "is_reserved": 0, "rental_uris": {"ios": "https://dc.lft.to/lastmile_qr_scan", "android": "https://dc.lft.to/lastmile_qr_scan"}, "fusion_lon": 0.0, "type": "electric_scooter", "bike_id": "3534f4def8b06242110f880565017d20", "name": "3534f4def8b06242110f880565017d20"}, {"lon": -76.92741816666667, "is_disabled": 0, "lat": 38.90068516666667, "fusion_lat": 0.0, "is_reserved": 0, "rental_uris": {"ios": "https://dc.lft.to/lastmile_qr_scan", "android": "https://dc.lft.to/lastmile_qr_scan"}, "fusion_lon": 0.0, "type": "electric_scooter", "bike_id": "cb1517b7d3cdec81f2b7f7f67e917314", "name": "cb1517b7d3cdec81f2b7f7f67e917314"}, {"lon": -77.04873683333334, "is_disabled": 0, "lat": 38.9098375, "fusion_lat": 0.0, "is_reserved": 0, "rental_uris": {"ios": "https://dc.lft.to/lastmile_qr_scan", "android": "https://dc.lft.to/lastmile_qr_scan"}, "fusion_lon": 0.0, "type": "electric_scooter", "bike_id": "909a6ab7afb23efe7c11e00fcf545345", "name": "909a6ab7afb23efe7c11e00fcf545345"}, {"lon": -76.99493883333334, "is_disabled": 0, "lat": 38.883424166666664, "fusion_lat": 0.0, "is_reserved": 0, "rental_uris": {"ios": "https://dc.lft.to/lastmile_qr_scan", "android": "https://dc.lft.to/lastmile_qr_scan"}, "fusion_lon": 0.0, "type": "electric_scooter", "bike_id": "51ce9e2506304804bfbf491b18fd22e3", "name": "51ce9e2506304804bfbf491b18fd22e3"}, {"lon": -77.0208795, "is_disabled": 0, "lat": 38.88183566666667, "fusion_lat": 0.0, "is_reserved": 0, "rental_uris": {"ios": "https://dc.lft.to/lastmile_qr_scan", "android": "https://dc.lft.to/lastmile_qr_scan"}, "fusion_lon": 0.0, "type": "electric_scooter", "bike_id": "a872e03273547309d3a6c3d24d8bf734", "name": "a872e03273547309d3a6c3d24d8bf734"}, {"lon": -77.02120916666667, "is_disabled": 0, "lat": 38.93574983333333, "fusion_lat": 0.0, "is_reserved": 0, "rental_uris": {"ios": "https://dc.lft.to/lastmile_qr_scan", "android": "https://dc.lft.to/lastmile_qr_scan"}, "fusion_lon": 0.0, "type": "electric_bike", "bike_id": "a1b0131586c501bd5e734dae19a919cd", "name": "a1b0131586c501bd5e734dae19a919cd"}, {"lon": -76.96526683333333, "is_disabled": 0, "lat": 38.876189333333336, "fusion_lat": 0.0, "is_reserved": 0, "rental_uris": {"ios": "https://dc.lft.to/lastmile_qr_scan", "android": "https://dc.lft.to/lastmile_qr_scan"}, "fusion_lon": 0.0, "type": "electric_scooter", "bike_id": "7747ac485f09d98881e2d21406343e25", "name": "7747ac485f09d98881e2d21406343e25"}, {"lon": -77.00674116666667, "is_disabled": 0, "lat": 38.945128833333335, "fusion_lat": 0.0, "is_reserved": 0, "rental_uris": {"ios": "https://dc.lft.to/lastmile_qr_scan", "android": "https://dc.lft.to/lastmile_qr_scan"}, "fusion_lon": 0.0, "type": "electric_bike", "bike_id": "9a89c937ddba0560eda36ed3a803a5e4", "name": "9a89c937ddba0560eda36ed3a803a5e4"}, {"lon": -77.016881, "is_disabled": 0, "lat": 38.93902416666667, "fusion_lat": 0.0, "is_reserved": 0, "rental_uris": {"ios": "https://dc.lft.to/lastmile_qr_scan", "android": "https://dc.lft.to/lastmile_qr_scan"}, "fusion_lon": 0.0, "type": "electric_bike", "bike_id": "0d20f62e3661b007289ad6fdf0e568cf", "name": "0d20f62e3661b007289ad6fdf0e568cf"}, {"lon": -77.01581083333333, "is_disabled": 0, "lat": 38.876514, "fusion_lat": 0.0, "is_reserved": 0, "rental_uris": {"ios": "https://dc.lft.to/lastmile_qr_scan", "android": "https://dc.lft.to/lastmile_qr_scan"}, "fusion_lon": 0.0, "type": "electric_scooter", "bike_id": "03d554ca7a6976fe8bdc23f2ca665004", "name": "03d554ca7a6976fe8bdc23f2ca665004"}, {"lon": -77.041569, "is_disabled": 0, "lat": 38.91423483333333, "fusion_lat": 0.0, "is_reserved": 0, "rental_uris": {"ios": "https://dc.lft.to/lastmile_qr_scan", "android": "https://dc.lft.to/lastmile_qr_scan"}, "fusion_lon": 0.0, "type": "electric_scooter", "bike_id": "104a92daa9241d992f3eabc47e08871f", "name": "104a92daa9241d992f3eabc47e08871f"}, {"lon": -76.9912105, "is_disabled": 0, "lat": 38.9086685, "fusion_lat": 0.0, "is_reserved": 0, "rental_uris": {"ios": "https://dc.lft.to/lastmile_qr_scan", "android": "https://dc.lft.to/lastmile_qr_scan"}, "fusion_lon": 0.0, "type": "electric_bike", "bike_id": "5150b34b346b749aaeccc74af20fa45a", "name": "5150b34b346b749aaeccc74af20fa45a"}, {"lon": -76.94893366666666, "is_disabled": 0, "lat": 38.8953255, "fusion_lat": 0.0, "is_reserved": 0, "rental_uris": {"ios": "https://dc.lft.to/lastmile_qr_scan", "android": "https://dc.lft.to/lastmile_qr_scan"}, "fusion_lon": 0.0, "type": "electric_scooter", "bike_id": "f595398b825a0cec09761d59a5c2abda", "name": "f595398b825a0cec09761d59a5c2abda"}, {"lon": -76.94892516666667, "is_disabled": 0, "lat": 38.895325166666666, "fusion_lat": 0.0, "is_reserved": 0, "rental_uris": {"ios": "https://dc.lft.to/lastmile_qr_scan", "android": "https://dc.lft.to/lastmile_qr_scan"}, "fusion_lon": 0.0, "type": "electric_scooter", "bike_id": "add1084f3552e1c3dd8880a81d6e214a", "name": "add1084f3552e1c3dd8880a81d6e214a"}, {"lon": -77.03329216666667, "is_disabled": 0, "lat": 38.9156345, "fusion_lat": 0.0, "is_reserved": 0, "rental_uris": {"ios": "https://dc.lft.to/lastmile_qr_scan", "android": "https://dc.lft.to/lastmile_qr_scan"}, "fusion_lon": 0.0, "type": "electric_scooter", "bike_id": "6bac3894c43794a22022ba49516c38d6", "name": "6bac3894c43794a22022ba49516c38d6"}, {"lon": -77.032109, "is_disabled": 0, "lat": 38.89236116666667, "fusion_lat": 0.0, "is_reserved": 0, "rental_uris": {"ios": "https://dc.lft.to/lastmile_qr_scan", "android": "https://dc.lft.to/lastmile_qr_scan"}, "fusion_lon": 0.0, "type": "electric_scooter", "bike_id": "62f2c77da598f1f37b6f4a05760dbc0a", "name": "62f2c77da598f1f37b6f4a05760dbc0a"}, {"lon": -77.03214516666667, "is_disabled": 0, "lat": 38.89235266666667, "fusion_lat": 0.0, "is_reserved": 0, "rental_uris": {"ios": "https://dc.lft.to/lastmile_qr_scan", "android": "https://dc.lft.to/lastmile_qr_scan"}, "fusion_lon": 0.0, "type": "electric_scooter", "bike_id": "d68c8c94cbe453636e432a1081573ec8", "name": "d68c8c94cbe453636e432a1081573ec8"}, {"lon": -76.91597283333333, "is_disabled": 0, "lat": 38.87985416666667, "fusion_lat": 0.0, "is_reserved": 0, "rental_uris": {"ios": "https://dc.lft.to/lastmile_qr_scan", "android": "https://dc.lft.to/lastmile_qr_scan"}, "fusion_lon": 0.0, "type": "electric_bike", "bike_id": "fc408b3c898d31a44877fbca2dbea1a7", "name": "fc408b3c898d31a44877fbca2dbea1a7"}, {"lon": -77.04875616666666, "is_disabled": 0, "lat": 38.90979216666667, "fusion_lat": 0.0, "is_reserved": 0, "rental_uris": {"ios": "https://dc.lft.to/lastmile_qr_scan", "android": "https://dc.lft.to/lastmile_qr_scan"}, "fusion_lon": 0.0, "type": "electric_scooter", "bike_id": "0dcfdf8bed99f64520f1fb995968a185", "name": "0dcfdf8bed99f64520f1fb995968a185"}, {"lon": -76.98536183333333, "is_disabled": 0, "lat": 38.909540166666666, "fusion_lat": 0.0, "is_reserved": 0, "rental_uris": {"ios": "https://dc.lft.to/lastmile_qr_scan", "android": "https://dc.lft.to/lastmile_qr_scan"}, "fusion_lon": 0.0, "type": "electric_scooter", "bike_id": "dc1f926f9f10d65db604673cae75d1b1", "name": "dc1f926f9f10d65db604673cae75d1b1"}, {"lon": -76.99158833333334, "is_disabled": 0, "lat": 38.9014285, "fusion_lat": 0.0, "is_reserved": 0, "rental_uris": {"ios": "https://dc.lft.to/lastmile_qr_scan", "android": "https://dc.lft.to/lastmile_qr_scan"}, "fusion_lon": 0.0, "type": "electric_scooter", "bike_id": "7b089f027dea63d00ba63dca35b3b07f", "name": "7b089f027dea63d00ba63dca35b3b07f"}, {"lon": -77.05261533333334, "is_disabled": 0, "lat": 38.927827666666666, "fusion_lat": 0.0, "is_reserved": 0, "rental_uris": {"ios": "https://dc.lft.to/lastmile_qr_scan", "android": "https://dc.lft.to/lastmile_qr_scan"}, "fusion_lon": 0.0, "type": "electric_scooter", "bike_id": "c9181451921f8b8c3959cb89c11994b8", "name": "c9181451921f8b8c3959cb89c11994b8"}, {"lon": -77.01413466666666, "is_disabled": 0, "lat": 38.928535, "fusion_lat": 0.0, "is_reserved": 0, "rental_uris": {"ios": "https://dc.lft.to/lastmile_qr_scan", "android": "https://dc.lft.to/lastmile_qr_scan"}, "fusion_lon": 0.0, "type": "electric_scooter", "bike_id": "bdf5848b916c7228c0f400a82adf9631", "name": "bdf5848b916c7228c0f400a82adf9631"}, {"lon": -77.04889016666667, "is_disabled": 0, "lat": 38.90505233333333, "fusion_lat": 0.0, "is_reserved": 0, "rental_uris": {"ios": "https://dc.lft.to/lastmile_qr_scan", "android": "https://dc.lft.to/lastmile_qr_scan"}, "fusion_lon": 0.0, "type": "electric_scooter", "bike_id": "538420381062c22d3c235e28f2e39225", "name": "538420381062c22d3c235e28f2e39225"}, {"lon": -76.96692433333334, "is_disabled": 0, "lat": 38.938035166666666, "fusion_lat": 0.0, "is_reserved": 0, "rental_uris": {"ios": "https://dc.lft.to/lastmile_qr_scan", "android": "https://dc.lft.to/lastmile_qr_scan"}, "fusion_lon": 0.0, "type": "electric_bike", "bike_id": "44eaac459fdbc8c37ec648f020598b7a", "name": "44eaac459fdbc8c37ec648f020598b7a"}, {"lon": -77.0865365, "is_disabled": 0, "lat": 38.8624445, "fusion_lat": 0.0, "is_reserved": 0, "rental_uris": {"ios": "https://dc.lft.to/lastmile_qr_scan", "android": "https://dc.lft.to/lastmile_qr_scan"}, "fusion_lon": 0.0, "type": "electric_bike", "bike_id": "a59accbf5f830119cf35fa3bd783963d", "name": "a59accbf5f830119cf35fa3bd783963d"}, {"lon": -77.02285083333334, "is_disabled": 0, "lat": 38.926931333333336, "fusion_lat": 0.0, "is_reserved": 0, "rental_uris": {"ios": "https://dc.lft.to/lastmile_qr_scan", "android": "https://dc.lft.to/lastmile_qr_scan"}, "fusion_lon": 0.0, "type": "electric_scooter", "bike_id": "3315b37535174cf878763ddbec13d8f0", "name": "3315b37535174cf878763ddbec13d8f0"}, {"lon": -77.024642, "is_disabled": 0, "lat": 38.8998295, "fusion_lat": 0.0, "is_reserved": 0, "rental_uris": {"ios": "https://dc.lft.to/lastmile_qr_scan", "android": "https://dc.lft.to/lastmile_qr_scan"}, "fusion_lon": 0.0, "type": "electric_scooter", "bike_id": "cb4aa511d0fd95a7beee8e69b08fe9af", "name": "cb4aa511d0fd95a7beee8e69b08fe9af"}, {"lon": -76.95755683333333, "is_disabled": 0, "lat": 38.8843215, "fusion_lat": 0.0, "is_reserved": 0, "rental_uris": {"ios": "https://dc.lft.to/lastmile_qr_scan", "android": "https://dc.lft.to/lastmile_qr_scan"}, "fusion_lon": 0.0, "type": "electric_scooter", "bike_id": "f3baac4253fa12d425a85cf9cb48e24e", "name": "f3baac4253fa12d425a85cf9cb48e24e"}, {"lon": -77.02201983333333, "is_disabled": 0, "lat": 38.902026, "fusion_lat": 0.0, "is_reserved": 0, "rental_uris": {"ios": "https://dc.lft.to/lastmile_qr_scan", "android": "https://dc.lft.to/lastmile_qr_scan"}, "fusion_lon": 0.0, "type": "electric_scooter", "bike_id": "742f87912f52ee3a082b6982f0480f8f", "name": "742f87912f52ee3a082b6982f0480f8f"}, {"lon": -76.99793366666667, "is_disabled": 0, "lat": 38.95090183333333, "fusion_lat": 0.0, "is_reserved": 0, "rental_uris": {"ios": "https://dc.lft.to/lastmile_qr_scan", "android": "https://dc.lft.to/lastmile_qr_scan"}, "fusion_lon": 0.0, "type": "electric_bike", "bike_id": "d6fbb31064a0d6e04bc0899b1ca0b7bd", "name": "d6fbb31064a0d6e04bc0899b1ca0b7bd"}, {"lon": -77.00337583333334, "is_disabled": 0, "lat": 38.89508933333333, "fusion_lat": 0.0, "is_reserved": 0, "rental_uris": {"ios": "https://dc.lft.to/lastmile_qr_scan", "android": "https://dc.lft.to/lastmile_qr_scan"}, "fusion_lon": 0.0, "type": "electric_scooter", "bike_id": "71062043b5ba1e382404cc0324c77c2f", "name": "71062043b5ba1e382404cc0324c77c2f"}, {"lon": -77.03058266666666, "is_disabled": 0, "lat": 38.92379433333333, "fusion_lat": 0.0, "is_reserved": 0, "rental_uris": {"ios": "https://dc.lft.to/lastmile_qr_scan", "android": "https://dc.lft.to/lastmile_qr_scan"}, "fusion_lon": 0.0, "type": "electric_scooter", "bike_id": "a3f6cb2fda2c5ace3850a7a6d2034cfd", "name": "a3f6cb2fda2c5ace3850a7a6d2034cfd"}, {"lon": -77.054789, "is_disabled": 0, "lat": 38.800179, "fusion_lat": 0.0, "is_reserved": 0, "rental_uris": {"ios": "https://dc.lft.to/lastmile_qr_scan", "android": "https://dc.lft.to/lastmile_qr_scan"}, "fusion_lon": 0.0, "type": "electric_bike", "bike_id": "b71ccfa6987988197b4f1591d874ce6f", "name": "b71ccfa6987988197b4f1591d874ce6f"}, {"lon": -77.0270345, "is_disabled": 0, "lat": 38.91767133333333, "fusion_lat": 0.0, "is_reserved": 0, "rental_uris": {"ios": "https://dc.lft.to/lastmile_qr_scan", "android": "https://dc.lft.to/lastmile_qr_scan"}, "fusion_lon": 0.0, "type": "electric_scooter", "bike_id": "a27d9770347b7a74718d4a111c965b86", "name": "a27d9770347b7a74718d4a111c965b86"}, {"lon": -77.00884016666667, "is_disabled": 0, "lat": 38.92512516666667, "fusion_lat": 0.0, "is_reserved": 0, "rental_uris": {"ios": "https://dc.lft.to/lastmile_qr_scan", "android": "https://dc.lft.to/lastmile_qr_scan"}, "fusion_lon": 0.0, "type": "electric_scooter", "bike_id": "6dd67e8ba5b5f325927af7a6c6a00748", "name": "6dd67e8ba5b5f325927af7a6c6a00748"}, {"lon": -77.05128433333333, "is_disabled": 0, "lat": 38.89815, "fusion_lat": 0.0, "is_reserved": 0, "rental_uris": {"ios": "https://dc.lft.to/lastmile_qr_scan", "android": "https://dc.lft.to/lastmile_qr_scan"}, "fusion_lon": 0.0, "type": "electric_scooter", "bike_id": "e6cd69e6cf44b871a330416ed3de6087", "name": "e6cd69e6cf44b871a330416ed3de6087"}, {"lon": -77.02235733333333, "is_disabled": 0, "lat": 38.922441666666664, "fusion_lat": 0.0, "is_reserved": 0, "rental_uris": {"ios": "https://dc.lft.to/lastmile_qr_scan", "android": "https://dc.lft.to/lastmile_qr_scan"}, "fusion_lon": 0.0, "type": "electric_scooter", "bike_id": "28640f4e2de6de449fae5fc6ab05a487", "name": "28640f4e2de6de449fae5fc6ab05a487"}, {"lon": -77.03655633333334, "is_disabled": 0, "lat": 38.9359805, "fusion_lat": 0.0, "is_reserved": 0, "rental_uris": {"ios": "https://dc.lft.to/lastmile_qr_scan", "android": "https://dc.lft.to/lastmile_qr_scan"}, "fusion_lon": 0.0, "type": "electric_scooter", "bike_id": "f843f2cdc3774815ada8e9906f797f58", "name": "f843f2cdc3774815ada8e9906f797f58"}, {"lon": -77.02489483333333, "is_disabled": 0, "lat": 38.9387915, "fusion_lat": 0.0, "is_reserved": 0, "rental_uris": {"ios": "https://dc.lft.to/lastmile_qr_scan", "android": "https://dc.lft.to/lastmile_qr_scan"}, "fusion_lon": 0.0, "type": "electric_scooter", "bike_id": "25877cb01bd7e51edbe0f76f6174cf0a", "name": "25877cb01bd7e51edbe0f76f6174cf0a"}, {"lon": -77.0323175, "is_disabled": 0, "lat": 38.91120766666667, "fusion_lat": 0.0, "is_reserved": 0, "rental_uris": {"ios": "https://dc.lft.to/lastmile_qr_scan", "android": "https://dc.lft.to/lastmile_qr_scan"}, "fusion_lon": 0.0, "type": "electric_scooter", "bike_id": "2a7c3b0453865abf7a15c762da59bd02", "name": "2a7c3b0453865abf7a15c762da59bd02"}, {"lon": -77.07905533333333, "is_disabled": 0, "lat": 38.8393195, "fusion_lat": 0.0, "is_reserved": 0, "rental_uris": {"ios": "https://dc.lft.to/lastmile_qr_scan", "android": "https://dc.lft.to/lastmile_qr_scan"}, "fusion_lon": 0.0, "type": "electric_bike", "bike_id": "43319b1bda4052c75c40f84bcbea6d71", "name": "43319b1bda4052c75c40f84bcbea6d71"}, {"lon": -77.02637466666667, "is_disabled": 0, "lat": 38.936537333333334, "fusion_lat": 0.0, "is_reserved": 0, "rental_uris": {"ios": "https://dc.lft.to/lastmile_qr_scan", "android": "https://dc.lft.to/lastmile_qr_scan"}, "fusion_lon": 0.0, "type": "electric_scooter", "bike_id": "a6cf3cd197d0b15ff2746174d492a28a", "name": "a6cf3cd197d0b15ff2746174d492a28a"}, {"lon": -76.94859566666666, "is_disabled": 0, "lat": 38.8947985, "fusion_lat": 0.0, "is_reserved": 0, "rental_uris": {"ios": "https://dc.lft.to/lastmile_qr_scan", "android": "https://dc.lft.to/lastmile_qr_scan"}, "fusion_lon": 0.0, "type": "electric_scooter", "bike_id": "238820c31d3f4b8f78cca79ef9f6e404", "name": "238820c31d3f4b8f78cca79ef9f6e404"}, {"lon": -77.0053545, "is_disabled": 0, "lat": 38.877008833333335, "fusion_lat": 0.0, "is_reserved": 0, "rental_uris": {"ios": "https://dc.lft.to/lastmile_qr_scan", "android": "https://dc.lft.to/lastmile_qr_scan"}, "fusion_lon": 0.0, "type": "electric_scooter", "bike_id": "845a56f9182b5beaca309a777de361ac", "name": "845a56f9182b5beaca309a777de361ac"}, {"lon": -76.97611033333334, "is_disabled": 0, "lat": 38.940212333333335, "fusion_lat": 0.0, "is_reserved": 0, "rental_uris": {"ios": "https://dc.lft.to/lastmile_qr_scan", "android": "https://dc.lft.to/lastmile_qr_scan"}, "fusion_lon": 0.0, "type": "electric_scooter", "bike_id": "67d12c9add01934b52c36bbe9b09bfe0", "name": "67d12c9add01934b52c36bbe9b09bfe0"}, {"lon": -77.01118433333333, "is_disabled": 0, "lat": 38.894967333333334, "fusion_lat": 0.0, "is_reserved": 0, "rental_uris": {"ios": "https://dc.lft.to/lastmile_qr_scan", "android": "https://dc.lft.to/lastmile_qr_scan"}, "fusion_lon": 0.0, "type": "electric_scooter", "bike_id": "518410b976992692d37c5118dabedde2", "name": "518410b976992692d37c5118dabedde2"}, {"lon": -77.05004483333333, "is_disabled": 0, "lat": 38.892275166666664, "fusion_lat": 0.0, "is_reserved": 0, "rental_uris": {"ios": "https://dc.lft.to/lastmile_qr_scan", "android": "https://dc.lft.to/lastmile_qr_scan"}, "fusion_lon": 0.0, "type": "electric_scooter", "bike_id": "a57daabe246b3b0a105fd8cda37dddab", "name": "a57daabe246b3b0a105fd8cda37dddab"}, {"lon": -77.02185983333334, "is_disabled": 0, "lat": 38.90971483333333, "fusion_lat": 0.0, "is_reserved": 0, "rental_uris": {"ios": "https://dc.lft.to/lastmile_qr_scan", "android": "https://dc.lft.to/lastmile_qr_scan"}, "fusion_lon": 0.0, "type": "electric_scooter", "bike_id": "18c26abd74084e1a47c1d31780de97d8", "name": "18c26abd74084e1a47c1d31780de97d8"}, {"lon": -77.03216283333333, "is_disabled": 0, "lat": 38.917132333333335, "fusion_lat": 0.0, "is_reserved": 0, "rental_uris": {"ios": "https://dc.lft.to/lastmile_qr_scan", "android": "https://dc.lft.to/lastmile_qr_scan"}, "fusion_lon": 0.0, "type": "electric_scooter", "bike_id": "9ff3b2266571fa00906bea790c83c386", "name": "9ff3b2266571fa00906bea790c83c386"}, {"lon": -77.04123316666667, "is_disabled": 0, "lat": 38.917091666666664, "fusion_lat": 0.0, "is_reserved": 0, "rental_uris": {"ios": "https://dc.lft.to/lastmile_qr_scan", "android": "https://dc.lft.to/lastmile_qr_scan"}, "fusion_lon": 0.0, "type": "electric_scooter", "bike_id": "5248e8a74fbdf2453b1a3556e65290a6", "name": "5248e8a74fbdf2453b1a3556e65290a6"}, {"lon": -77.07719033333333, "is_disabled": 0, "lat": 38.925251333333335, "fusion_lat": 0.0, "is_reserved": 0, "rental_uris": {"ios": "https://dc.lft.to/lastmile_qr_scan", "android": "https://dc.lft.to/lastmile_qr_scan"}, "fusion_lon": 0.0, "type": "electric_scooter", "bike_id": "4c681eeb2fd653cd1c5e621105fb8c42", "name": "4c681eeb2fd653cd1c5e621105fb8c42"}, {"lon": -77.03348333333334, "is_disabled": 0, "lat": 38.8923855, "fusion_lat": 0.0, "is_reserved": 0, "rental_uris": {"ios": "https://dc.lft.to/lastmile_qr_scan", "android": "https://dc.lft.to/lastmile_qr_scan"}, "fusion_lon": 0.0, "type": "electric_scooter", "bike_id": "b11a671a9d57f144d8ca44ab8a4fcc2b", "name": "b11a671a9d57f144d8ca44ab8a4fcc2b"}, {"lon": -77.03442533333333, "is_disabled": 0, "lat": 38.9132695, "fusion_lat": 0.0, "is_reserved": 0, "rental_uris": {"ios": "https://dc.lft.to/lastmile_qr_scan", "android": "https://dc.lft.to/lastmile_qr_scan"}, "fusion_lon": 0.0, "type": "electric_scooter", "bike_id": "b0b42f323b38cf2efd0e71c17b433bf4", "name": "b0b42f323b38cf2efd0e71c17b433bf4"}, {"lon": -77.047231, "is_disabled": 0, "lat": 38.897323666666665, "fusion_lat": 0.0, "is_reserved": 0, "rental_uris": {"ios": "https://dc.lft.to/lastmile_qr_scan", "android": "https://dc.lft.to/lastmile_qr_scan"}, "fusion_lon": 0.0, "type": "electric_scooter", "bike_id": "57d1f52ef433517d92bc36cb69682e5f", "name": "57d1f52ef433517d92bc36cb69682e5f"}, {"lon": -77.04348416666667, "is_disabled": 0, "lat": 38.901375333333334, "fusion_lat": 0.0, "is_reserved": 0, "rental_uris": {"ios": "https://dc.lft.to/lastmile_qr_scan", "android": "https://dc.lft.to/lastmile_qr_scan"}, "fusion_lon": 0.0, "type": "electric_scooter", "bike_id": "9930a6b8bd4eca5444581fb449275c49", "name": "9930a6b8bd4eca5444581fb449275c49"}, {"lon": -77.0466605, "is_disabled": 0, "lat": 38.905604333333336, "fusion_lat": 0.0, "is_reserved": 0, "rental_uris": {"ios": "https://dc.lft.to/lastmile_qr_scan", "android": "https://dc.lft.to/lastmile_qr_scan"}, "fusion_lon": 0.0, "type": "electric_scooter", "bike_id": "eb3d97924df0f95d67479ecc1b705cc3", "name": "eb3d97924df0f95d67479ecc1b705cc3"}, {"lon": -77.02588366666667, "is_disabled": 0, "lat": 38.91417883333333, "fusion_lat": 0.0, "is_reserved": 0, "rental_uris": {"ios": "https://dc.lft.to/lastmile_qr_scan", "android": "https://dc.lft.to/lastmile_qr_scan"}, "fusion_lon": 0.0, "type": "electric_scooter", "bike_id": "4c951f14d7c8d2f9852b6f0603a95d70", "name": "4c951f14d7c8d2f9852b6f0603a95d70"}, {"lon": -77.03446416666667, "is_disabled": 0, "lat": 38.907639833333334, "fusion_lat": 0.0, "is_reserved": 0, "rental_uris": {"ios": "https://dc.lft.to/lastmile_qr_scan", "android": "https://dc.lft.to/lastmile_qr_scan"}, "fusion_lon": 0.0, "type": "electric_scooter", "bike_id": "a6768bd3dd52436fe2dd95b5a02505c0", "name": "a6768bd3dd52436fe2dd95b5a02505c0"}, {"lon": -77.0431795, "is_disabled": 0, "lat": 38.91265166666667, "fusion_lat": 0.0, "is_reserved": 0, "rental_uris": {"ios": "https://dc.lft.to/lastmile_qr_scan", "android": "https://dc.lft.to/lastmile_qr_scan"}, "fusion_lon": 0.0, "type": "electric_scooter", "bike_id": "9b31de57178e4ae3d9102c51fab7346f", "name": "9b31de57178e4ae3d9102c51fab7346f"}, {"lon": -77.0336805, "is_disabled": 0, "lat": 38.92876116666667, "fusion_lat": 0.0, "is_reserved": 0, "rental_uris": {"ios": "https://dc.lft.to/lastmile_qr_scan", "android": "https://dc.lft.to/lastmile_qr_scan"}, "fusion_lon": 0.0, "type": "electric_scooter", "bike_id": "621bf7e4b7d9da9a4cc3ad19ed4e81bb", "name": "621bf7e4b7d9da9a4cc3ad19ed4e81bb"}, {"lon": -77.04227016666667, "is_disabled": 0, "lat": 38.913425, "fusion_lat": 0.0, "is_reserved": 0, "rental_uris": {"ios": "https://dc.lft.to/lastmile_qr_scan", "android": "https://dc.lft.to/lastmile_qr_scan"}, "fusion_lon": 0.0, "type": "electric_scooter", "bike_id": "00975797bed783af94430c7a3dc5c4f8", "name": "00975797bed783af94430c7a3dc5c4f8"}, {"lon": -77.03309916666667, "is_disabled": 0, "lat": 38.928528166666666, "fusion_lat": 0.0, "is_reserved": 0, "rental_uris": {"ios": "https://dc.lft.to/lastmile_qr_scan", "android": "https://dc.lft.to/lastmile_qr_scan"}, "fusion_lon": 0.0, "type": "electric_scooter", "bike_id": "7adb9227d4f30d52b4dd24ff60d735c0", "name": "7adb9227d4f30d52b4dd24ff60d735c0"}, {"lon": -77.027042, "is_disabled": 0, "lat": 38.9086215, "fusion_lat": 0.0, "is_reserved": 0, "rental_uris": {"ios": "https://dc.lft.to/lastmile_qr_scan", "android": "https://dc.lft.to/lastmile_qr_scan"}, "fusion_lon": 0.0, "type": "electric_scooter", "bike_id": "3316a4938ca26a0f0a628455392de1df", "name": "3316a4938ca26a0f0a628455392de1df"}, {"lon": -77.03123816666667, "is_disabled": 0, "lat": 38.91568083333333, "fusion_lat": 0.0, "is_reserved": 0, "rental_uris": {"ios": "https://dc.lft.to/lastmile_qr_scan", "android": "https://dc.lft.to/lastmile_qr_scan"}, "fusion_lon": 0.0, "type": "electric_scooter", "bike_id": "e01501e8a9c03cd9e0772cae73cdb6a9", "name": "e01501e8a9c03cd9e0772cae73cdb6a9"}, {"lon": -77.04123583333333, "is_disabled": 0, "lat": 38.91707666666667, "fusion_lat": 0.0, "is_reserved": 0, "rental_uris": {"ios": "https://dc.lft.to/lastmile_qr_scan", "android": "https://dc.lft.to/lastmile_qr_scan"}, "fusion_lon": 0.0, "type": "electric_scooter", "bike_id": "b91da2446f6b09903d941d065afa8021", "name": "b91da2446f6b09903d941d065afa8021"}, {"lon": -76.9073535, "is_disabled": 0, "lat": 38.896111833333336, "fusion_lat": 0.0, "is_reserved": 0, "rental_uris": {"ios": "https://dc.lft.to/lastmile_qr_scan", "android": "https://dc.lft.to/lastmile_qr_scan"}, "fusion_lon": 0.0, "type": "electric_bike", "bike_id": "8af2f046f4fc5602f3abd1912f754728", "name": "8af2f046f4fc5602f3abd1912f754728"}, {"lon": -77.02578233333334, "is_disabled": 0, "lat": 38.9181765, "fusion_lat": 0.0, "is_reserved": 0, "rental_uris": {"ios": "https://dc.lft.to/lastmile_qr_scan", "android": "https://dc.lft.to/lastmile_qr_scan"}, "fusion_lon": 0.0, "type": "electric_scooter", "bike_id": "abd4c136d2d0a8cbbf7e0e54923e964d", "name": "abd4c136d2d0a8cbbf7e0e54923e964d"}, {"lon": -77.02951616666667, "is_disabled": 0, "lat": 38.916847833333335, "fusion_lat": 0.0, "is_reserved": 0, "rental_uris": {"ios": "https://dc.lft.to/lastmile_qr_scan", "android": "https://dc.lft.to/lastmile_qr_scan"}, "fusion_lon": 0.0, "type": "electric_scooter", "bike_id": "cf91be470f6fde85737be9a4dc25b874", "name": "cf91be470f6fde85737be9a4dc25b874"}, {"lon": -76.98730116666667, "is_disabled": 0, "lat": 38.863173833333335, "fusion_lat": 0.0, "is_reserved": 0, "rental_uris": {"ios": "https://dc.lft.to/lastmile_qr_scan", "android": "https://dc.lft.to/lastmile_qr_scan"}, "fusion_lon": 0.0, "type": "electric_scooter", "bike_id": "08dde8fbd2c55dd162683750c5dffe95", "name": "08dde8fbd2c55dd162683750c5dffe95"}, {"lon": -77.01766683333334, "is_disabled": 0, "lat": 38.90273216666667, "fusion_lat": 0.0, "is_reserved": 0, "rental_uris": {"ios": "https://dc.lft.to/lastmile_qr_scan", "android": "https://dc.lft.to/lastmile_qr_scan"}, "fusion_lon": 0.0, "type": "electric_scooter", "bike_id": "8b930912a086583c6b783a7691dba6a7", "name": "8b930912a086583c6b783a7691dba6a7"}, {"lon": -77.03860916666666, "is_disabled": 0, "lat": 38.916913, "fusion_lat": 0.0, "is_reserved": 0, "rental_uris": {"ios": "https://dc.lft.to/lastmile_qr_scan", "android": "https://dc.lft.to/lastmile_qr_scan"}, "fusion_lon": 0.0, "type": "electric_scooter", "bike_id": "080ece4e208e37425a57f0183e65f2be", "name": "080ece4e208e37425a57f0183e65f2be"}, {"lon": -77.02083733333333, "is_disabled": 0, "lat": 38.921468, "fusion_lat": 0.0, "is_reserved": 0, "rental_uris": {"ios": "https://dc.lft.to/lastmile_qr_scan", "android": "https://dc.lft.to/lastmile_qr_scan"}, "fusion_lon": 0.0, "type": "electric_scooter", "bike_id": "45daf2356c791b86c5c7080018748658", "name": "45daf2356c791b86c5c7080018748658"}, {"lon": -76.9948045, "is_disabled": 0, "lat": 38.86216116666667, "fusion_lat": 0.0, "is_reserved": 0, "rental_uris": {"ios": "https://dc.lft.to/lastmile_qr_scan", "android": "https://dc.lft.to/lastmile_qr_scan"}, "fusion_lon": 0.0, "type": "electric_scooter", "bike_id": "4008b90b71b276350c73ee5a1dd77407", "name": "4008b90b71b276350c73ee5a1dd77407"}, {"lon": -77.03337533333334, "is_disabled": 0, "lat": 38.921567333333336, "fusion_lat": 0.0, "is_reserved": 0, "rental_uris": {"ios": "https://dc.lft.to/lastmile_qr_scan", "android": "https://dc.lft.to/lastmile_qr_scan"}, "fusion_lon": 0.0, "type": "electric_scooter", "bike_id": "ebe73c7ca05bded2d914bf5a8e22b02b", "name": "ebe73c7ca05bded2d914bf5a8e22b02b"}, {"lon": -77.02193116666666, "is_disabled": 0, "lat": 38.9098845, "fusion_lat": 0.0, "is_reserved": 0, "rental_uris": {"ios": "https://dc.lft.to/lastmile_qr_scan", "android": "https://dc.lft.to/lastmile_qr_scan"}, "fusion_lon": 0.0, "type": "electric_scooter", "bike_id": "d34e8214e2c6baa8f1a2bc56e86ccb39", "name": "d34e8214e2c6baa8f1a2bc56e86ccb39"}, {"lon": -76.982316, "is_disabled": 0, "lat": 38.8646645, "fusion_lat": 0.0, "is_reserved": 0, "rental_uris": {"ios": "https://dc.lft.to/lastmile_qr_scan", "android": "https://dc.lft.to/lastmile_qr_scan"}, "fusion_lon": 0.0, "type": "electric_scooter", "bike_id": "ea6e22a5dacaa04b1bad1f28186ad250", "name": "ea6e22a5dacaa04b1bad1f28186ad250"}, {"lon": -77.0604935, "is_disabled": 0, "lat": 38.93911383333333, "fusion_lat": 0.0, "is_reserved": 0, "rental_uris": {"ios": "https://dc.lft.to/lastmile_qr_scan", "android": "https://dc.lft.to/lastmile_qr_scan"}, "fusion_lon": 0.0, "type": "electric_scooter", "bike_id": "39470f985937a1f4ddc5076f83ffeb00", "name": "39470f985937a1f4ddc5076f83ffeb00"}, {"lon": -77.02477633333334, "is_disabled": 0, "lat": 38.936204000000004, "fusion_lat": 0.0, "is_reserved": 0, "rental_uris": {"ios": "https://dc.lft.to/lastmile_qr_scan", "android": "https://dc.lft.to/lastmile_qr_scan"}, "fusion_lon": 0.0, "type": "electric_scooter", "bike_id": "4da386d6e982ff44d9da3485d9d554a3", "name": "4da386d6e982ff44d9da3485d9d554a3"}, {"lon": -77.00321766666667, "is_disabled": 0, "lat": 38.87696066666667, "fusion_lat": 0.0, "is_reserved": 0, "rental_uris": {"ios": "https://dc.lft.to/lastmile_qr_scan", "android": "https://dc.lft.to/lastmile_qr_scan"}, "fusion_lon": 0.0, "type": "electric_scooter", "bike_id": "c6a3da5dcc832e76253021617a6b307b", "name": "c6a3da5dcc832e76253021617a6b307b"}, {"lon": -77.04815, "is_disabled": 0, "lat": 38.909638666666666, "fusion_lat": 0.0, "is_reserved": 0, "rental_uris": {"ios": "https://dc.lft.to/lastmile_qr_scan", "android": "https://dc.lft.to/lastmile_qr_scan"}, "fusion_lon": 0.0, "type": "electric_scooter", "bike_id": "15f0546f2013e33183999a518d3a7152", "name": "15f0546f2013e33183999a518d3a7152"}, {"lon": -77.04025516666667, "is_disabled": 0, "lat": 38.903835, "fusion_lat": 0.0, "is_reserved": 0, "rental_uris": {"ios": "https://dc.lft.to/lastmile_qr_scan", "android": "https://dc.lft.to/lastmile_qr_scan"}, "fusion_lon": 0.0, "type": "electric_scooter", "bike_id": "cf86ba9cb0665a37879d02604bf388c8", "name": "cf86ba9cb0665a37879d02604bf388c8"}, {"lon": -76.99263466666666, "is_disabled": 0, "lat": 38.862513166666666, "fusion_lat": 0.0, "is_reserved": 0, "rental_uris": {"ios": "https://dc.lft.to/lastmile_qr_scan", "android": "https://dc.lft.to/lastmile_qr_scan"}, "fusion_lon": 0.0, "type": "electric_scooter", "bike_id": "90f904762f1ef8f49e6b08402ee4908c", "name": "90f904762f1ef8f49e6b08402ee4908c"}, {"lon": -77.02986866666667, "is_disabled": 0, "lat": 38.921878166666666, "fusion_lat": 0.0, "is_reserved": 0, "rental_uris": {"ios": "https://dc.lft.to/lastmile_qr_scan", "android": "https://dc.lft.to/lastmile_qr_scan"}, "fusion_lon": 0.0, "type": "electric_scooter", "bike_id": "a2e1d8ad02667af2303a5eb14970b235", "name": "a2e1d8ad02667af2303a5eb14970b235"}, {"lon": -76.99007766666666, "is_disabled": 0, "lat": 38.865055, "fusion_lat": 0.0, "is_reserved": 0, "rental_uris": {"ios": "https://dc.lft.to/lastmile_qr_scan", "android": "https://dc.lft.to/lastmile_qr_scan"}, "fusion_lon": 0.0, "type": "electric_scooter", "bike_id": "8d17ef3644333ac7e9a5d714e266fc66", "name": "8d17ef3644333ac7e9a5d714e266fc66"}, {"lon": -77.05260033333333, "is_disabled": 0, "lat": 38.9278485, "fusion_lat": 0.0, "is_reserved": 0, "rental_uris": {"ios": "https://dc.lft.to/lastmile_qr_scan", "android": "https://dc.lft.to/lastmile_qr_scan"}, "fusion_lon": 0.0, "type": "electric_scooter", "bike_id": "a3fe9e757ae455b38a639d77b496990e", "name": "a3fe9e757ae455b38a639d77b496990e"}, {"lon": -77.00346333333333, "is_disabled": 0, "lat": 38.884365333333335, "fusion_lat": 0.0, "is_reserved": 0, "rental_uris": {"ios": "https://dc.lft.to/lastmile_qr_scan", "android": "https://dc.lft.to/lastmile_qr_scan"}, "fusion_lon": 0.0, "type": "electric_scooter", "bike_id": "3ccc89d7c1ad9777f9decf64fa98bfbe", "name": "3ccc89d7c1ad9777f9decf64fa98bfbe"}, {"lon": -77.02434116666667, "is_disabled": 0, "lat": 38.92054733333333, "fusion_lat": 0.0, "is_reserved": 0, "rental_uris": {"ios": "https://dc.lft.to/lastmile_qr_scan", "android": "https://dc.lft.to/lastmile_qr_scan"}, "fusion_lon": 0.0, "type": "electric_scooter", "bike_id": "c1ab8202578282831d0ef9b708da0272", "name": "c1ab8202578282831d0ef9b708da0272"}, {"lon": -77.01664233333334, "is_disabled": 0, "lat": 38.90719216666667, "fusion_lat": 0.0, "is_reserved": 0, "rental_uris": {"ios": "https://dc.lft.to/lastmile_qr_scan", "android": "https://dc.lft.to/lastmile_qr_scan"}, "fusion_lon": 0.0, "type": "electric_scooter", "bike_id": "d2f5290bf09a344702169f2a0e4f5eec", "name": "d2f5290bf09a344702169f2a0e4f5eec"}, {"lon": -77.03227483333333, "is_disabled": 0, "lat": 38.92880566666667, "fusion_lat": 0.0, "is_reserved": 0, "rental_uris": {"ios": "https://dc.lft.to/lastmile_qr_scan", "android": "https://dc.lft.to/lastmile_qr_scan"}, "fusion_lon": 0.0, "type": "electric_scooter", "bike_id": "75eea64dc28853de660dc76b64f8f260", "name": "75eea64dc28853de660dc76b64f8f260"}, {"lon": -77.01681033333334, "is_disabled": 0, "lat": 38.91264433333333, "fusion_lat": 0.0, "is_reserved": 0, "rental_uris": {"ios": "https://dc.lft.to/lastmile_qr_scan", "android": "https://dc.lft.to/lastmile_qr_scan"}, "fusion_lon": 0.0, "type": "electric_scooter", "bike_id": "97e62b26d1caea1321c5307252edb353", "name": "97e62b26d1caea1321c5307252edb353"}, {"lon": -77.01226133333333, "is_disabled": 0, "lat": 38.92401816666667, "fusion_lat": 0.0, "is_reserved": 0, "rental_uris": {"ios": "https://dc.lft.to/lastmile_qr_scan", "android": "https://dc.lft.to/lastmile_qr_scan"}, "fusion_lon": 0.0, "type": "electric_scooter", "bike_id": "dc56cc33e65a0d999357469e5ca6f4a7", "name": "dc56cc33e65a0d999357469e5ca6f4a7"}, {"lon": -77.03325416666667, "is_disabled": 0, "lat": 38.921586833333336, "fusion_lat": 0.0, "is_reserved": 0, "rental_uris": {"ios": "https://dc.lft.to/lastmile_qr_scan", "android": "https://dc.lft.to/lastmile_qr_scan"}, "fusion_lon": 0.0, "type": "electric_scooter", "bike_id": "d0a2b1d22b3d85c9e49bb5a9994c3e95", "name": "d0a2b1d22b3d85c9e49bb5a9994c3e95"}, {"lon": -77.048928, "is_disabled": 0, "lat": 38.9007585, "fusion_lat": 0.0, "is_reserved": 0, "rental_uris": {"ios": "https://dc.lft.to/lastmile_qr_scan", "android": "https://dc.lft.to/lastmile_qr_scan"}, "fusion_lon": 0.0, "type": "electric_scooter", "bike_id": "99c66de89207f4f51a91ca9f5002fbf8", "name": "99c66de89207f4f51a91ca9f5002fbf8"}, {"lon": -77.03521433333333, "is_disabled": 0, "lat": 38.922406, "fusion_lat": 0.0, "is_reserved": 0, "rental_uris": {"ios": "https://dc.lft.to/lastmile_qr_scan", "android": "https://dc.lft.to/lastmile_qr_scan"}, "fusion_lon": 0.0, "type": "electric_scooter", "bike_id": "07c4426216be77bc84af4852e015977f", "name": "07c4426216be77bc84af4852e015977f"}, {"lon": -77.04176633333333, "is_disabled": 0, "lat": 38.911243999999996, "fusion_lat": 0.0, "is_reserved": 0, "rental_uris": {"ios": "https://dc.lft.to/lastmile_qr_scan", "android": "https://dc.lft.to/lastmile_qr_scan"}, "fusion_lon": 0.0, "type": "electric_scooter", "bike_id": "75acc85f4f9d54501450362a4a03e2e5", "name": "75acc85f4f9d54501450362a4a03e2e5"}, {"lon": -77.0220795, "is_disabled": 0, "lat": 38.915678166666666, "fusion_lat": 0.0, "is_reserved": 0, "rental_uris": {"ios": "https://dc.lft.to/lastmile_qr_scan", "android": "https://dc.lft.to/lastmile_qr_scan"}, "fusion_lon": 0.0, "type": "electric_scooter", "bike_id": "5c0360c347c3cd3d75f56aebd07779ca", "name": "5c0360c347c3cd3d75f56aebd07779ca"}, {"lon": -77.03443916666667, "is_disabled": 0, "lat": 38.905676666666665, "fusion_lat": 0.0, "is_reserved": 0, "rental_uris": {"ios": "https://dc.lft.to/lastmile_qr_scan", "android": "https://dc.lft.to/lastmile_qr_scan"}, "fusion_lon": 0.0, "type": "electric_scooter", "bike_id": "496aa9980d9bf5ecc23eee6cb4ffa714", "name": "496aa9980d9bf5ecc23eee6cb4ffa714"}, {"lon": -76.978643, "is_disabled": 0, "lat": 38.8674595, "fusion_lat": 0.0, "is_reserved": 0, "rental_uris": {"ios": "https://dc.lft.to/lastmile_qr_scan", "android": "https://dc.lft.to/lastmile_qr_scan"}, "fusion_lon": 0.0, "type": "electric_scooter", "bike_id": "b52aa5d4d30adb67b821ba07d3a2bcfc", "name": "b52aa5d4d30adb67b821ba07d3a2bcfc"}, {"lon": -77.03944966666667, "is_disabled": 0, "lat": 38.9141565, "fusion_lat": 0.0, "is_reserved": 0, "rental_uris": {"ios": "https://dc.lft.to/lastmile_qr_scan", "android": "https://dc.lft.to/lastmile_qr_scan"}, "fusion_lon": 0.0, "type": "electric_scooter", "bike_id": "e7b13fb3ec3d3292cfcccfefb5a5bc87", "name": "e7b13fb3ec3d3292cfcccfefb5a5bc87"}, {"lon": -76.98082416666666, "is_disabled": 0, "lat": 38.926286833333336, "fusion_lat": 0.0, "is_reserved": 0, "rental_uris": {"ios": "https://dc.lft.to/lastmile_qr_scan", "android": "https://dc.lft.to/lastmile_qr_scan"}, "fusion_lon": 0.0, "type": "electric_scooter", "bike_id": "2dc04aaa337326d000ca09815d12454f", "name": "2dc04aaa337326d000ca09815d12454f"}, {"lon": -77.020944, "is_disabled": 0, "lat": 38.927042166666666, "fusion_lat": 0.0, "is_reserved": 0, "rental_uris": {"ios": "https://dc.lft.to/lastmile_qr_scan", "android": "https://dc.lft.to/lastmile_qr_scan"}, "fusion_lon": 0.0, "type": "electric_scooter", "bike_id": "b17f49936983b743497b342c3b3c06fa", "name": "b17f49936983b743497b342c3b3c06fa"}, {"lon": -77.00128333333333, "is_disabled": 0, "lat": 38.8736305, "fusion_lat": 0.0, "is_reserved": 0, "rental_uris": {"ios": "https://dc.lft.to/lastmile_qr_scan", "android": "https://dc.lft.to/lastmile_qr_scan"}, "fusion_lon": 0.0, "type": "electric_scooter", "bike_id": "8f57de9c59bd5912525396b78c3c0a2e", "name": "8f57de9c59bd5912525396b78c3c0a2e"}, {"lon": -77.03266533333333, "is_disabled": 0, "lat": 38.927947, "fusion_lat": 0.0, "is_reserved": 0, "rental_uris": {"ios": "https://dc.lft.to/lastmile_qr_scan", "android": "https://dc.lft.to/lastmile_qr_scan"}, "fusion_lon": 0.0, "type": "electric_scooter", "bike_id": "5ba4aeef30a55ac5852aeba0dcf75bda", "name": "5ba4aeef30a55ac5852aeba0dcf75bda"}, {"lon": -77.02302766666666, "is_disabled": 0, "lat": 38.92062933333333, "fusion_lat": 0.0, "is_reserved": 0, "rental_uris": {"ios": "https://dc.lft.to/lastmile_qr_scan", "android": "https://dc.lft.to/lastmile_qr_scan"}, "fusion_lon": 0.0, "type": "electric_scooter", "bike_id": "bb6f3216ef426e0bb3c5fcf5136aa9fe", "name": "bb6f3216ef426e0bb3c5fcf5136aa9fe"}, {"lon": -77.01657716666666, "is_disabled": 0, "lat": 38.88121233333333, "fusion_lat": 0.0, "is_reserved": 0, "rental_uris": {"ios": "https://dc.lft.to/lastmile_qr_scan", "android": "https://dc.lft.to/lastmile_qr_scan"}, "fusion_lon": 0.0, "type": "electric_scooter", "bike_id": "6411fd54f9a144a289e20723aaa4bab3", "name": "6411fd54f9a144a289e20723aaa4bab3"}, {"lon": -76.98002933333333, "is_disabled": 0, "lat": 38.90682316666667, "fusion_lat": 0.0, "is_reserved": 0, "rental_uris": {"ios": "https://dc.lft.to/lastmile_qr_scan", "android": "https://dc.lft.to/lastmile_qr_scan"}, "fusion_lon": 0.0, "type": "electric_scooter", "bike_id": "bb5c6789b8502d29edaa6068f4f56f9d", "name": "bb5c6789b8502d29edaa6068f4f56f9d"}, {"lon": -77.03823466666667, "is_disabled": 0, "lat": 38.9125445, "fusion_lat": 0.0, "is_reserved": 0, "rental_uris": {"ios": "https://dc.lft.to/lastmile_qr_scan", "android": "https://dc.lft.to/lastmile_qr_scan"}, "fusion_lon": 0.0, "type": "electric_scooter", "bike_id": "e8ad1c7f5e6cb6a4e97f12e4736bdb5d", "name": "e8ad1c7f5e6cb6a4e97f12e4736bdb5d"}, {"lon": -77.02697683333334, "is_disabled": 0, "lat": 38.925704333333336, "fusion_lat": 0.0, "is_reserved": 0, "rental_uris": {"ios": "https://dc.lft.to/lastmile_qr_scan", "android": "https://dc.lft.to/lastmile_qr_scan"}, "fusion_lon": 0.0, "type": "electric_scooter", "bike_id": "e7cd85c75847d84d4136c9c9b740a7b6", "name": "e7cd85c75847d84d4136c9c9b740a7b6"}, {"lon": -77.18122716666667, "is_disabled": 0, "lat": 38.9323055, "fusion_lat": 0.0, "is_reserved": 0, "rental_uris": {"ios": "https://dc.lft.to/lastmile_qr_scan", "android": "https://dc.lft.to/lastmile_qr_scan"}, "fusion_lon": 0.0, "type": "electric_bike", "bike_id": "8e0c6316f3cca60627335eb4d4052ac4", "name": "8e0c6316f3cca60627335eb4d4052ac4"}, {"lon": -77.038593, "is_disabled": 0, "lat": 38.91715533333333, "fusion_lat": 0.0, "is_reserved": 0, "rental_uris": {"ios": "https://dc.lft.to/lastmile_qr_scan", "android": "https://dc.lft.to/lastmile_qr_scan"}, "fusion_lon": 0.0, "type": "electric_scooter", "bike_id": "61dc60ce2c816dda0c0daa15c2f94318", "name": "61dc60ce2c816dda0c0daa15c2f94318"}, {"lon": -77.03859633333333, "is_disabled": 0, "lat": 38.9071375, "fusion_lat": 0.0, "is_reserved": 0, "rental_uris": {"ios": "https://dc.lft.to/lastmile_qr_scan", "android": "https://dc.lft.to/lastmile_qr_scan"}, "fusion_lon": 0.0, "type": "electric_scooter", "bike_id": "34a79c9b3da3f324600ad8d183ebb670", "name": "34a79c9b3da3f324600ad8d183ebb670"}, {"lon": -77.001075, "is_disabled": 0, "lat": 38.87376233333333, "fusion_lat": 0.0, "is_reserved": 0, "rental_uris": {"ios": "https://dc.lft.to/lastmile_qr_scan", "android": "https://dc.lft.to/lastmile_qr_scan"}, "fusion_lon": 0.0, "type": "electric_scooter", "bike_id": "10a629862e93e03b1999f7d28338b43e", "name": "10a629862e93e03b1999f7d28338b43e"}, {"lon": -77.02773633333334, "is_disabled": 0, "lat": 38.92872833333333, "fusion_lat": 0.0, "is_reserved": 0, "rental_uris": {"ios": "https://dc.lft.to/lastmile_qr_scan", "android": "https://dc.lft.to/lastmile_qr_scan"}, "fusion_lon": 0.0, "type": "electric_scooter", "bike_id": "cb0121152cc88860b82f513355bf96cc", "name": "cb0121152cc88860b82f513355bf96cc"}, {"lon": -77.0343935, "is_disabled": 0, "lat": 38.909683333333334, "fusion_lat": 0.0, "is_reserved": 0, "rental_uris": {"ios": "https://dc.lft.to/lastmile_qr_scan", "android": "https://dc.lft.to/lastmile_qr_scan"}, "fusion_lon": 0.0, "type": "electric_scooter", "bike_id": "9fb23ca339d07ccc3bf38f66a4655ee0", "name": "9fb23ca339d07ccc3bf38f66a4655ee0"}, {"lon": -77.04999516666666, "is_disabled": 0, "lat": 38.892307, "fusion_lat": 0.0, "is_reserved": 0, "rental_uris": {"ios": "https://dc.lft.to/lastmile_qr_scan", "android": "https://dc.lft.to/lastmile_qr_scan"}, "fusion_lon": 0.0, "type": "electric_scooter", "bike_id": "243273b6e191918dfcc9a061d8c12012", "name": "243273b6e191918dfcc9a061d8c12012"}, {"lon": -76.98563016666667, "is_disabled": 0, "lat": 38.899957, "fusion_lat": 0.0, "is_reserved": 0, "rental_uris": {"ios": "https://dc.lft.to/lastmile_qr_scan", "android": "https://dc.lft.to/lastmile_qr_scan"}, "fusion_lon": 0.0, "type": "electric_scooter", "bike_id": "9ab6ee1482f3d87f7c6c856eeb344633", "name": "9ab6ee1482f3d87f7c6c856eeb344633"}, {"lon": -77.02272, "is_disabled": 0, "lat": 38.927235, "fusion_lat": 0.0, "is_reserved": 0, "rental_uris": {"ios": "https://dc.lft.to/lastmile_qr_scan", "android": "https://dc.lft.to/lastmile_qr_scan"}, "fusion_lon": 0.0, "type": "electric_scooter", "bike_id": "2b8c16cbf841863307c63381c38eb87f", "name": "2b8c16cbf841863307c63381c38eb87f"}, {"lon": -77.02386233333333, "is_disabled": 0, "lat": 38.912737166666666, "fusion_lat": 0.0, "is_reserved": 0, "rental_uris": {"ios": "https://dc.lft.to/lastmile_qr_scan", "android": "https://dc.lft.to/lastmile_qr_scan"}, "fusion_lon": 0.0, "type": "electric_scooter", "bike_id": "eec549e3324ac061b0f198a0c1143abb", "name": "eec549e3324ac061b0f198a0c1143abb"}, {"lon": -77.040064, "is_disabled": 0, "lat": 38.907734, "fusion_lat": 0.0, "is_reserved": 0, "rental_uris": {"ios": "https://dc.lft.to/lastmile_qr_scan", "android": "https://dc.lft.to/lastmile_qr_scan"}, "fusion_lon": 0.0, "type": "electric_scooter", "bike_id": "10b894aca5133f5b9fe3fdca2a0beda8", "name": "10b894aca5133f5b9fe3fdca2a0beda8"}, {"lon": -77.00132716666667, "is_disabled": 0, "lat": 38.90513116666666, "fusion_lat": 0.0, "is_reserved": 0, "rental_uris": {"ios": "https://dc.lft.to/lastmile_qr_scan", "android": "https://dc.lft.to/lastmile_qr_scan"}, "fusion_lon": 0.0, "type": "electric_scooter", "bike_id": "302fe96b451fcbf46023059bcc1d078c", "name": "302fe96b451fcbf46023059bcc1d078c"}, {"lon": -76.95628916666666, "is_disabled": 0, "lat": 38.88514033333333, "fusion_lat": 0.0, "is_reserved": 0, "rental_uris": {"ios": "https://dc.lft.to/lastmile_qr_scan", "android": "https://dc.lft.to/lastmile_qr_scan"}, "fusion_lon": 0.0, "type": "electric_bike", "bike_id": "be739f51b17edf29c553304959d3c349", "name": "be739f51b17edf29c553304959d3c349"}, {"lon": -77.03839866666667, "is_disabled": 0, "lat": 38.909768666666665, "fusion_lat": 0.0, "is_reserved": 0, "rental_uris": {"ios": "https://dc.lft.to/lastmile_qr_scan", "android": "https://dc.lft.to/lastmile_qr_scan"}, "fusion_lon": 0.0, "type": "electric_scooter", "bike_id": "4e9009d440949552c63300e236a5f22c", "name": "4e9009d440949552c63300e236a5f22c"}, {"lon": -77.02485016666667, "is_disabled": 0, "lat": 38.902462166666666, "fusion_lat": 0.0, "is_reserved": 0, "rental_uris": {"ios": "https://dc.lft.to/lastmile_qr_scan", "android": "https://dc.lft.to/lastmile_qr_scan"}, "fusion_lon": 0.0, "type": "electric_scooter", "bike_id": "5c6282d67f315c8a45b1ade5a441a2ff", "name": "5c6282d67f315c8a45b1ade5a441a2ff"}, {"lon": -77.02498933333334, "is_disabled": 0, "lat": 38.9195075, "fusion_lat": 0.0, "is_reserved": 0, "rental_uris": {"ios": "https://dc.lft.to/lastmile_qr_scan", "android": "https://dc.lft.to/lastmile_qr_scan"}, "fusion_lon": 0.0, "type": "electric_scooter", "bike_id": "8e474572003df2989da6e13802bb9415", "name": "8e474572003df2989da6e13802bb9415"}, {"lon": -77.0045665, "is_disabled": 0, "lat": 38.876555833333335, "fusion_lat": 0.0, "is_reserved": 0, "rental_uris": {"ios": "https://dc.lft.to/lastmile_qr_scan", "android": "https://dc.lft.to/lastmile_qr_scan"}, "fusion_lon": 0.0, "type": "electric_scooter", "bike_id": "1505880c4413d19abbc9f646f05b69d9", "name": "1505880c4413d19abbc9f646f05b69d9"}, {"lon": -77.02592516666667, "is_disabled": 0, "lat": 38.904313333333334, "fusion_lat": 0.0, "is_reserved": 0, "rental_uris": {"ios": "https://dc.lft.to/lastmile_qr_scan", "android": "https://dc.lft.to/lastmile_qr_scan"}, "fusion_lon": 0.0, "type": "electric_scooter", "bike_id": "48690cb9840688f9b04f11204033b1c4", "name": "48690cb9840688f9b04f11204033b1c4"}, {"lon": -77.001052, "is_disabled": 0, "lat": 38.886530666666665, "fusion_lat": 0.0, "is_reserved": 0, "rental_uris": {"ios": "https://dc.lft.to/lastmile_qr_scan", "android": "https://dc.lft.to/lastmile_qr_scan"}, "fusion_lon": 0.0, "type": "electric_scooter", "bike_id": "d53fd3d084d94e053e1f5cdb8f121ff3", "name": "d53fd3d084d94e053e1f5cdb8f121ff3"}, {"lon": -77.0226815, "is_disabled": 0, "lat": 38.895211, "fusion_lat": 0.0, "is_reserved": 0, "rental_uris": {"ios": "https://dc.lft.to/lastmile_qr_scan", "android": "https://dc.lft.to/lastmile_qr_scan"}, "fusion_lon": 0.0, "type": "electric_scooter", "bike_id": "244e080de77306e3a13643fc5af41583", "name": "244e080de77306e3a13643fc5af41583"}, {"lon": -77.02119566666667, "is_disabled": 0, "lat": 38.902296666666665, "fusion_lat": 0.0, "is_reserved": 0, "rental_uris": {"ios": "https://dc.lft.to/lastmile_qr_scan", "android": "https://dc.lft.to/lastmile_qr_scan"}, "fusion_lon": 0.0, "type": "electric_scooter", "bike_id": "944a8942c095bf4508313c6caabcf40d", "name": "944a8942c095bf4508313c6caabcf40d"}, {"lon": -76.96530316666667, "is_disabled": 0, "lat": 38.87475533333333, "fusion_lat": 0.0, "is_reserved": 0, "rental_uris": {"ios": "https://dc.lft.to/lastmile_qr_scan", "android": "https://dc.lft.to/lastmile_qr_scan"}, "fusion_lon": 0.0, "type": "electric_bike", "bike_id": "e5fc50f7271b0c67d51be99db2c783f6", "name": "e5fc50f7271b0c67d51be99db2c783f6"}, {"lon": -76.93021516666667, "is_disabled": 0, "lat": 38.90170616666666, "fusion_lat": 0.0, "is_reserved": 0, "rental_uris": {"ios": "https://dc.lft.to/lastmile_qr_scan", "android": "https://dc.lft.to/lastmile_qr_scan"}, "fusion_lon": 0.0, "type": "electric_scooter", "bike_id": "c2a57da69f28003975d09eefd6b17960", "name": "c2a57da69f28003975d09eefd6b17960"}, {"lon": -77.012047, "is_disabled": 0, "lat": 38.917053, "fusion_lat": 0.0, "is_reserved": 0, "rental_uris": {"ios": "https://dc.lft.to/lastmile_qr_scan", "android": "https://dc.lft.to/lastmile_qr_scan"}, "fusion_lon": 0.0, "type": "electric_scooter", "bike_id": "57aa5495fc1676118e593b16cf5b2d6a", "name": "57aa5495fc1676118e593b16cf5b2d6a"}, {"lon": -77.063052, "is_disabled": 0, "lat": 38.798542833333336, "fusion_lat": 0.0, "is_reserved": 0, "rental_uris": {"ios": "https://dc.lft.to/lastmile_qr_scan", "android": "https://dc.lft.to/lastmile_qr_scan"}, "fusion_lon": 0.0, "type": "electric_bike", "bike_id": "aeab9ce0093ca9b6fa020d19882c83c5", "name": "aeab9ce0093ca9b6fa020d19882c83c5"}, {"lon": -77.01003766666666, "is_disabled": 0, "lat": 38.95652166666667, "fusion_lat": 0.0, "is_reserved": 0, "rental_uris": {"ios": "https://dc.lft.to/lastmile_qr_scan", "android": "https://dc.lft.to/lastmile_qr_scan"}, "fusion_lon": 0.0, "type": "electric_scooter", "bike_id": "ce98cb61fb64ad42859f3b3426e5fe48", "name": "ce98cb61fb64ad42859f3b3426e5fe48"}, {"lon": -77.0115555, "is_disabled": 0, "lat": 38.956313, "fusion_lat": 0.0, "is_reserved": 0, "rental_uris": {"ios": "https://dc.lft.to/lastmile_qr_scan", "android": "https://dc.lft.to/lastmile_qr_scan"}, "fusion_lon": 0.0, "type": "electric_scooter", "bike_id": "d1432776bd6cb517461bc42025fc35d2", "name": "d1432776bd6cb517461bc42025fc35d2"}, {"lon": -77.024525, "is_disabled": 0, "lat": 38.94365233333333, "fusion_lat": 0.0, "is_reserved": 0, "rental_uris": {"ios": "https://dc.lft.to/lastmile_qr_scan", "android": "https://dc.lft.to/lastmile_qr_scan"}, "fusion_lon": 0.0, "type": "electric_scooter", "bike_id": "1104a52e5274546c8a02cb9a366993fe", "name": "1104a52e5274546c8a02cb9a366993fe"}, {"lon": -77.0058645, "is_disabled": 0, "lat": 38.90544366666666, "fusion_lat": 0.0, "is_reserved": 0, "rental_uris": {"ios": "https://dc.lft.to/lastmile_qr_scan", "android": "https://dc.lft.to/lastmile_qr_scan"}, "fusion_lon": 0.0, "type": "electric_scooter", "bike_id": "41124448e1ca7209e0ea913046e7a826", "name": "41124448e1ca7209e0ea913046e7a826"}, {"lon": -77.02955633333333, "is_disabled": 0, "lat": 38.904942166666665, "fusion_lat": 0.0, "is_reserved": 0, "rental_uris": {"ios": "https://dc.lft.to/lastmile_qr_scan", "android": "https://dc.lft.to/lastmile_qr_scan"}, "fusion_lon": 0.0, "type": "electric_scooter", "bike_id": "b78d4628d3a5f210a75583a35cb3b1ef", "name": "b78d4628d3a5f210a75583a35cb3b1ef"}, {"lon": -77.02085033333333, "is_disabled": 0, "lat": 38.921341, "fusion_lat": 0.0, "is_reserved": 0, "rental_uris": {"ios": "https://dc.lft.to/lastmile_qr_scan", "android": "https://dc.lft.to/lastmile_qr_scan"}, "fusion_lon": 0.0, "type": "electric_scooter", "bike_id": "06cb44e16e8dccc54c48a69d720425cd", "name": "06cb44e16e8dccc54c48a69d720425cd"}, {"lon": -77.023003, "is_disabled": 0, "lat": 38.9092505, "fusion_lat": 0.0, "is_reserved": 0, "rental_uris": {"ios": "https://dc.lft.to/lastmile_qr_scan", "android": "https://dc.lft.to/lastmile_qr_scan"}, "fusion_lon": 0.0, "type": "electric_scooter", "bike_id": "068df4719a0cea1c0d9fd592b627fd75", "name": "068df4719a0cea1c0d9fd592b627fd75"}, {"lon": -77.01775383333333, "is_disabled": 0, "lat": 38.915047666666666, "fusion_lat": 0.0, "is_reserved": 0, "rental_uris": {"ios": "https://dc.lft.to/lastmile_qr_scan", "android": "https://dc.lft.to/lastmile_qr_scan"}, "fusion_lon": 0.0, "type": "electric_scooter", "bike_id": "edc869cef07d5adae12ebce98e4f258f", "name": "edc869cef07d5adae12ebce98e4f258f"}, {"lon": -77.00825966666666, "is_disabled": 0, "lat": 38.876545166666666, "fusion_lat": 0.0, "is_reserved": 0, "rental_uris": {"ios": "https://dc.lft.to/lastmile_qr_scan", "android": "https://dc.lft.to/lastmile_qr_scan"}, "fusion_lon": 0.0, "type": "electric_scooter", "bike_id": "51a23b9d4ca7a87135d2fd2bc988826d", "name": "51a23b9d4ca7a87135d2fd2bc988826d"}, {"lon": -77.0415425, "is_disabled": 0, "lat": 38.901511166666666, "fusion_lat": 0.0, "is_reserved": 0, "rental_uris": {"ios": "https://dc.lft.to/lastmile_qr_scan", "android": "https://dc.lft.to/lastmile_qr_scan"}, "fusion_lon": 0.0, "type": "electric_scooter", "bike_id": "87635fc9a4a23eb3315b44070050bf86", "name": "87635fc9a4a23eb3315b44070050bf86"}, {"lon": -77.01012666666666, "is_disabled": 0, "lat": 38.95616033333334, "fusion_lat": 0.0, "is_reserved": 0, "rental_uris": {"ios": "https://dc.lft.to/lastmile_qr_scan", "android": "https://dc.lft.to/lastmile_qr_scan"}, "fusion_lon": 0.0, "type": "electric_scooter", "bike_id": "3c16428b1b9aecbe59d097e64121b551", "name": "3c16428b1b9aecbe59d097e64121b551"}, {"lon": -77.05321, "is_disabled": 0, "lat": 38.91053183333333, "fusion_lat": 0.0, "is_reserved": 0, "rental_uris": {"ios": "https://dc.lft.to/lastmile_qr_scan", "android": "https://dc.lft.to/lastmile_qr_scan"}, "fusion_lon": 0.0, "type": "electric_scooter", "bike_id": "460658f4f98f39b3aef28aa963db9549", "name": "460658f4f98f39b3aef28aa963db9549"}, {"lon": -77.01905966666666, "is_disabled": 0, "lat": 38.9172765, "fusion_lat": 0.0, "is_reserved": 0, "rental_uris": {"ios": "https://dc.lft.to/lastmile_qr_scan", "android": "https://dc.lft.to/lastmile_qr_scan"}, "fusion_lon": 0.0, "type": "electric_scooter", "bike_id": "ebbe52cb8fcea78078e1a4ce8fa9e886", "name": "ebbe52cb8fcea78078e1a4ce8fa9e886"}, {"lon": -77.02225466666667, "is_disabled": 0, "lat": 38.92072066666667, "fusion_lat": 0.0, "is_reserved": 0, "rental_uris": {"ios": "https://dc.lft.to/lastmile_qr_scan", "android": "https://dc.lft.to/lastmile_qr_scan"}, "fusion_lon": 0.0, "type": "electric_scooter", "bike_id": "d4fb270198887d2eabcc4557d7a66fbe", "name": "d4fb270198887d2eabcc4557d7a66fbe"}, {"lon": -77.01688883333334, "is_disabled": 0, "lat": 38.900198333333336, "fusion_lat": 0.0, "is_reserved": 0, "rental_uris": {"ios": "https://dc.lft.to/lastmile_qr_scan", "android": "https://dc.lft.to/lastmile_qr_scan"}, "fusion_lon": 0.0, "type": "electric_scooter", "bike_id": "64d2b7ff05c5abaee21062e19b2f4934", "name": "64d2b7ff05c5abaee21062e19b2f4934"}, {"lon": -77.03583883333333, "is_disabled": 0, "lat": 38.90384616666667, "fusion_lat": 0.0, "is_reserved": 0, "rental_uris": {"ios": "https://dc.lft.to/lastmile_qr_scan", "android": "https://dc.lft.to/lastmile_qr_scan"}, "fusion_lon": 0.0, "type": "electric_scooter", "bike_id": "d1a61d19f632488642e42f4c36a79887", "name": "d1a61d19f632488642e42f4c36a79887"}, {"lon": -77.02824016666666, "is_disabled": 0, "lat": 38.899884, "fusion_lat": 0.0, "is_reserved": 0, "rental_uris": {"ios": "https://dc.lft.to/lastmile_qr_scan", "android": "https://dc.lft.to/lastmile_qr_scan"}, "fusion_lon": 0.0, "type": "electric_scooter", "bike_id": "e42b2edcbf1d94c0e9e97200ad963fef", "name": "e42b2edcbf1d94c0e9e97200ad963fef"}, {"lon": -77.0415685, "is_disabled": 0, "lat": 38.916115, "fusion_lat": 0.0, "is_reserved": 0, "rental_uris": {"ios": "https://dc.lft.to/lastmile_qr_scan", "android": "https://dc.lft.to/lastmile_qr_scan"}, "fusion_lon": 0.0, "type": "electric_scooter", "bike_id": "b815f5c37459ac1b20aa7f3263edc26f", "name": "b815f5c37459ac1b20aa7f3263edc26f"}, {"lon": -77.01213916666667, "is_disabled": 0, "lat": 38.874734833333335, "fusion_lat": 0.0, "is_reserved": 0, "rental_uris": {"ios": "https://dc.lft.to/lastmile_qr_scan", "android": "https://dc.lft.to/lastmile_qr_scan"}, "fusion_lon": 0.0, "type": "electric_scooter", "bike_id": "8942f34c00fa80ee3d090579119c9bcf", "name": "8942f34c00fa80ee3d090579119c9bcf"}, {"lon": -77.02200783333333, "is_disabled": 0, "lat": 38.91130116666667, "fusion_lat": 0.0, "is_reserved": 0, "rental_uris": {"ios": "https://dc.lft.to/lastmile_qr_scan", "android": "https://dc.lft.to/lastmile_qr_scan"}, "fusion_lon": 0.0, "type": "electric_scooter", "bike_id": "27f912d6e63787eceec8b506efda2508", "name": "27f912d6e63787eceec8b506efda2508"}, {"lon": -77.0364605, "is_disabled": 0, "lat": 38.924076166666666, "fusion_lat": 0.0, "is_reserved": 0, "rental_uris": {"ios": "https://dc.lft.to/lastmile_qr_scan", "android": "https://dc.lft.to/lastmile_qr_scan"}, "fusion_lon": 0.0, "type": "electric_scooter", "bike_id": "8063281d39ac3f564ce56ac48df8dbc7", "name": "8063281d39ac3f564ce56ac48df8dbc7"}, {"lon": -77.04269116666667, "is_disabled": 0, "lat": 38.92549116666667, "fusion_lat": 0.0, "is_reserved": 0, "rental_uris": {"ios": "https://dc.lft.to/lastmile_qr_scan", "android": "https://dc.lft.to/lastmile_qr_scan"}, "fusion_lon": 0.0, "type": "electric_scooter", "bike_id": "7fbc4f078b5083a70b5b0f86be0acda6", "name": "7fbc4f078b5083a70b5b0f86be0acda6"}, {"lon": -77.03861666666667, "is_disabled": 0, "lat": 38.908048666666666, "fusion_lat": 0.0, "is_reserved": 0, "rental_uris": {"ios": "https://dc.lft.to/lastmile_qr_scan", "android": "https://dc.lft.to/lastmile_qr_scan"}, "fusion_lon": 0.0, "type": "electric_scooter", "bike_id": "7b5f2213a0e375a0bb42c6a3cc74fe53", "name": "7b5f2213a0e375a0bb42c6a3cc74fe53"}, {"lon": -77.03728983333333, "is_disabled": 0, "lat": 38.92655633333333, "fusion_lat": 0.0, "is_reserved": 0, "rental_uris": {"ios": "https://dc.lft.to/lastmile_qr_scan", "android": "https://dc.lft.to/lastmile_qr_scan"}, "fusion_lon": 0.0, "type": "electric_scooter", "bike_id": "05db64f6acd2d758415abfccc39d8d7b", "name": "05db64f6acd2d758415abfccc39d8d7b"}, {"lon": -76.99697683333333, "is_disabled": 0, "lat": 38.907981666666664, "fusion_lat": 0.0, "is_reserved": 0, "rental_uris": {"ios": "https://dc.lft.to/lastmile_qr_scan", "android": "https://dc.lft.to/lastmile_qr_scan"}, "fusion_lon": 0.0, "type": "electric_scooter", "bike_id": "5cda31acfbcfc0476f893c1c6bd45305", "name": "5cda31acfbcfc0476f893c1c6bd45305"}, {"lon": -76.9653175, "is_disabled": 0, "lat": 38.8762635, "fusion_lat": 0.0, "is_reserved": 0, "rental_uris": {"ios": "https://dc.lft.to/lastmile_qr_scan", "android": "https://dc.lft.to/lastmile_qr_scan"}, "fusion_lon": 0.0, "type": "electric_scooter", "bike_id": "6dacad499aed836f78355dd6b6d6c284", "name": "6dacad499aed836f78355dd6b6d6c284"}, {"lon": -77.03213683333334, "is_disabled": 0, "lat": 38.90871716666667, "fusion_lat": 0.0, "is_reserved": 0, "rental_uris": {"ios": "https://dc.lft.to/lastmile_qr_scan", "android": "https://dc.lft.to/lastmile_qr_scan"}, "fusion_lon": 0.0, "type": "electric_scooter", "bike_id": "52d53e841daff6cdce6dad1a7ad97817", "name": "52d53e841daff6cdce6dad1a7ad97817"}, {"lon": -77.12658516666667, "is_disabled": 0, "lat": 38.815053666666664, "fusion_lat": 0.0, "is_reserved": 0, "rental_uris": {"ios": "https://dc.lft.to/lastmile_qr_scan", "android": "https://dc.lft.to/lastmile_qr_scan"}, "fusion_lon": 0.0, "type": "electric_bike", "bike_id": "9835a20a48bf534679c4df3c8d507f6c", "name": "9835a20a48bf534679c4df3c8d507f6c"}, {"lon": -77.03218883333334, "is_disabled": 0, "lat": 38.89230233333333, "fusion_lat": 0.0, "is_reserved": 0, "rental_uris": {"ios": "https://dc.lft.to/lastmile_qr_scan", "android": "https://dc.lft.to/lastmile_qr_scan"}, "fusion_lon": 0.0, "type": "electric_scooter", "bike_id": "a651d8e7bfa1b90d3ccd435b292b609a", "name": "a651d8e7bfa1b90d3ccd435b292b609a"}, {"lon": -77.0249225, "is_disabled": 0, "lat": 38.918087166666666, "fusion_lat": 0.0, "is_reserved": 0, "rental_uris": {"ios": "https://dc.lft.to/lastmile_qr_scan", "android": "https://dc.lft.to/lastmile_qr_scan"}, "fusion_lon": 0.0, "type": "electric_scooter", "bike_id": "32c53c0159c0b466b3d9d8326e14bec6", "name": "32c53c0159c0b466b3d9d8326e14bec6"}, {"lon": -76.9463745, "is_disabled": 0, "lat": 38.898658833333336, "fusion_lat": 0.0, "is_reserved": 0, "rental_uris": {"ios": "https://dc.lft.to/lastmile_qr_scan", "android": "https://dc.lft.to/lastmile_qr_scan"}, "fusion_lon": 0.0, "type": "electric_scooter", "bike_id": "193860928b2bcaf355d4444989922cd8", "name": "193860928b2bcaf355d4444989922cd8"}, {"lon": -77.03230483333333, "is_disabled": 0, "lat": 38.917129333333335, "fusion_lat": 0.0, "is_reserved": 0, "rental_uris": {"ios": "https://dc.lft.to/lastmile_qr_scan", "android": "https://dc.lft.to/lastmile_qr_scan"}, "fusion_lon": 0.0, "type": "electric_scooter", "bike_id": "ddeacf20d7189f687faf6a114e93659e", "name": "ddeacf20d7189f687faf6a114e93659e"}, {"lon": -76.9924675, "is_disabled": 0, "lat": 38.794694, "fusion_lat": 0.0, "is_reserved": 0, "rental_uris": {"ios": "https://dc.lft.to/lastmile_qr_scan", "android": "https://dc.lft.to/lastmile_qr_scan"}, "fusion_lon": 0.0, "type": "electric_bike", "bike_id": "58555fee932cfa779602dd0d43c0a363", "name": "58555fee932cfa779602dd0d43c0a363"}, {"lon": -76.98189666666667, "is_disabled": 0, "lat": 38.895928, "fusion_lat": 0.0, "is_reserved": 0, "rental_uris": {"ios": "https://dc.lft.to/lastmile_qr_scan", "android": "https://dc.lft.to/lastmile_qr_scan"}, "fusion_lon": 0.0, "type": "electric_scooter", "bike_id": "f71f5b6f2a903a5188fcb42a64383b9b", "name": "f71f5b6f2a903a5188fcb42a64383b9b"}, {"lon": -77.0221295, "is_disabled": 0, "lat": 38.9081035, "fusion_lat": 0.0, "is_reserved": 0, "rental_uris": {"ios": "https://dc.lft.to/lastmile_qr_scan", "android": "https://dc.lft.to/lastmile_qr_scan"}, "fusion_lon": 0.0, "type": "electric_scooter", "bike_id": "2ef2fa6598d8cae51280a680a96f0cd2", "name": "2ef2fa6598d8cae51280a680a96f0cd2"}, {"lon": -77.03661233333334, "is_disabled": 0, "lat": 38.92167233333333, "fusion_lat": 0.0, "is_reserved": 0, "rental_uris": {"ios": "https://dc.lft.to/lastmile_qr_scan", "android": "https://dc.lft.to/lastmile_qr_scan"}, "fusion_lon": 0.0, "type": "electric_scooter", "bike_id": "83cbab0b9e121a617ba21fce616ca7c9", "name": "83cbab0b9e121a617ba21fce616ca7c9"}, {"lon": -77.00155116666667, "is_disabled": 0, "lat": 38.87388966666666, "fusion_lat": 0.0, "is_reserved": 0, "rental_uris": {"ios": "https://dc.lft.to/lastmile_qr_scan", "android": "https://dc.lft.to/lastmile_qr_scan"}, "fusion_lon": 0.0, "type": "electric_scooter", "bike_id": "7fd4a1441efbf5af37f3deda286a866f", "name": "7fd4a1441efbf5af37f3deda286a866f"}, {"lon": -76.98846, "is_disabled": 0, "lat": 38.90030083333333, "fusion_lat": 0.0, "is_reserved": 0, "rental_uris": {"ios": "https://dc.lft.to/lastmile_qr_scan", "android": "https://dc.lft.to/lastmile_qr_scan"}, "fusion_lon": 0.0, "type": "electric_scooter", "bike_id": "f6cc9bcbf71c5105db8379da3c2a884c", "name": "f6cc9bcbf71c5105db8379da3c2a884c"}, {"lon": -77.03341683333333, "is_disabled": 0, "lat": 38.92871266666667, "fusion_lat": 0.0, "is_reserved": 0, "rental_uris": {"ios": "https://dc.lft.to/lastmile_qr_scan", "android": "https://dc.lft.to/lastmile_qr_scan"}, "fusion_lon": 0.0, "type": "electric_scooter", "bike_id": "2072a15940765f55a7a7353e1e270569", "name": "2072a15940765f55a7a7353e1e270569"}, {"lon": -76.9790575, "is_disabled": 0, "lat": 38.90425666666667, "fusion_lat": 0.0, "is_reserved": 0, "rental_uris": {"ios": "https://dc.lft.to/lastmile_qr_scan", "android": "https://dc.lft.to/lastmile_qr_scan"}, "fusion_lon": 0.0, "type": "electric_scooter", "bike_id": "55d5a0f2a14b1144293c03a72b530eb3", "name": "55d5a0f2a14b1144293c03a72b530eb3"}, {"lon": -77.0169955, "is_disabled": 0, "lat": 38.9076225, "fusion_lat": 0.0, "is_reserved": 0, "rental_uris": {"ios": "https://dc.lft.to/lastmile_qr_scan", "android": "https://dc.lft.to/lastmile_qr_scan"}, "fusion_lon": 0.0, "type": "electric_scooter", "bike_id": "9340aedc8df924833ce2b0cbe0e1a33b", "name": "9340aedc8df924833ce2b0cbe0e1a33b"}, {"lon": -77.04368366666667, "is_disabled": 0, "lat": 38.89222566666667, "fusion_lat": 0.0, "is_reserved": 0, "rental_uris": {"ios": "https://dc.lft.to/lastmile_qr_scan", "android": "https://dc.lft.to/lastmile_qr_scan"}, "fusion_lon": 0.0, "type": "electric_scooter", "bike_id": "f14ead69eb45d23f18f03ee2fefbcdec", "name": "f14ead69eb45d23f18f03ee2fefbcdec"}, {"lon": -77.04231966666667, "is_disabled": 0, "lat": 38.90112116666667, "fusion_lat": 0.0, "is_reserved": 0, "rental_uris": {"ios": "https://dc.lft.to/lastmile_qr_scan", "android": "https://dc.lft.to/lastmile_qr_scan"}, "fusion_lon": 0.0, "type": "electric_scooter", "bike_id": "460d9c382950e9a1d3f8fa0b8c187ad9", "name": "460d9c382950e9a1d3f8fa0b8c187ad9"}, {"lon": -76.94638716666667, "is_disabled": 0, "lat": 38.898649666666664, "fusion_lat": 0.0, "is_reserved": 0, "rental_uris": {"ios": "https://dc.lft.to/lastmile_qr_scan", "android": "https://dc.lft.to/lastmile_qr_scan"}, "fusion_lon": 0.0, "type": "electric_scooter", "bike_id": "2f1cf2dce4e9bb4ac08d790d8a09da8c", "name": "2f1cf2dce4e9bb4ac08d790d8a09da8c"}, {"lon": -77.02321066666667, "is_disabled": 0, "lat": 38.907251333333335, "fusion_lat": 0.0, "is_reserved": 0, "rental_uris": {"ios": "https://dc.lft.to/lastmile_qr_scan", "android": "https://dc.lft.to/lastmile_qr_scan"}, "fusion_lon": 0.0, "type": "electric_scooter", "bike_id": "f765122036e2ce1497a9f6c9ec193897", "name": "f765122036e2ce1497a9f6c9ec193897"}, {"lon": -77.0176715, "is_disabled": 0, "lat": 38.92046783333333, "fusion_lat": 0.0, "is_reserved": 0, "rental_uris": {"ios": "https://dc.lft.to/lastmile_qr_scan", "android": "https://dc.lft.to/lastmile_qr_scan"}, "fusion_lon": 0.0, "type": "electric_scooter", "bike_id": "2b51df58ef84fc1b89dfa85c4eb363cc", "name": "2b51df58ef84fc1b89dfa85c4eb363cc"}, {"lon": -77.07060766666666, "is_disabled": 0, "lat": 38.901075166666665, "fusion_lat": 0.0, "is_reserved": 0, "rental_uris": {"ios": "https://dc.lft.to/lastmile_qr_scan", "android": "https://dc.lft.to/lastmile_qr_scan"}, "fusion_lon": 0.0, "type": "electric_scooter", "bike_id": "3fa8ae02f11017791cef7dc231868c33", "name": "3fa8ae02f11017791cef7dc231868c33"}, {"lon": -77.039862, "is_disabled": 0, "lat": 38.8922805, "fusion_lat": 0.0, "is_reserved": 0, "rental_uris": {"ios": "https://dc.lft.to/lastmile_qr_scan", "android": "https://dc.lft.to/lastmile_qr_scan"}, "fusion_lon": 0.0, "type": "electric_scooter", "bike_id": "2639035ae3100092e55925740453856a", "name": "2639035ae3100092e55925740453856a"}, {"lon": -77.001989, "is_disabled": 0, "lat": 38.90267133333333, "fusion_lat": 0.0, "is_reserved": 0, "rental_uris": {"ios": "https://dc.lft.to/lastmile_qr_scan", "android": "https://dc.lft.to/lastmile_qr_scan"}, "fusion_lon": 0.0, "type": "electric_scooter", "bike_id": "c686904a7689aeb6f91ec2eb176e73cf", "name": "c686904a7689aeb6f91ec2eb176e73cf"}, {"lon": -77.02201783333334, "is_disabled": 0, "lat": 38.9499775, "fusion_lat": 0.0, "is_reserved": 0, "rental_uris": {"ios": "https://dc.lft.to/lastmile_qr_scan", "android": "https://dc.lft.to/lastmile_qr_scan"}, "fusion_lon": 0.0, "type": "electric_scooter", "bike_id": "08381b8d133c1517f4685b4ba833a6c2", "name": "08381b8d133c1517f4685b4ba833a6c2"}, {"lon": -77.050246, "is_disabled": 0, "lat": 38.8924505, "fusion_lat": 0.0, "is_reserved": 0, "rental_uris": {"ios": "https://dc.lft.to/lastmile_qr_scan", "android": "https://dc.lft.to/lastmile_qr_scan"}, "fusion_lon": 0.0, "type": "electric_scooter", "bike_id": "111fd164017582153b508d58c484f6fb", "name": "111fd164017582153b508d58c484f6fb"}, {"lon": -77.02257933333334, "is_disabled": 0, "lat": 38.9010865, "fusion_lat": 0.0, "is_reserved": 0, "rental_uris": {"ios": "https://dc.lft.to/lastmile_qr_scan", "android": "https://dc.lft.to/lastmile_qr_scan"}, "fusion_lon": 0.0, "type": "electric_scooter", "bike_id": "eb458ce6e011667a05715de555afcc75", "name": "eb458ce6e011667a05715de555afcc75"}, {"lon": -77.02390716666666, "is_disabled": 0, "lat": 38.93457733333334, "fusion_lat": 0.0, "is_reserved": 0, "rental_uris": {"ios": "https://dc.lft.to/lastmile_qr_scan", "android": "https://dc.lft.to/lastmile_qr_scan"}, "fusion_lon": 0.0, "type": "electric_scooter", "bike_id": "8086ac4af8cc3a04ca3c6eb76ed0219f", "name": "8086ac4af8cc3a04ca3c6eb76ed0219f"}, {"lon": -77.03200483333333, "is_disabled": 0, "lat": 38.920106, "fusion_lat": 0.0, "is_reserved": 0, "rental_uris": {"ios": "https://dc.lft.to/lastmile_qr_scan", "android": "https://dc.lft.to/lastmile_qr_scan"}, "fusion_lon": 0.0, "type": "electric_scooter", "bike_id": "41c516e60169571337d4d2fbdb1332f0", "name": "41c516e60169571337d4d2fbdb1332f0"}, {"lon": -77.00552366666666, "is_disabled": 0, "lat": 38.905521, "fusion_lat": 0.0, "is_reserved": 0, "rental_uris": {"ios": "https://dc.lft.to/lastmile_qr_scan", "android": "https://dc.lft.to/lastmile_qr_scan"}, "fusion_lon": 0.0, "type": "electric_scooter", "bike_id": "7d430257349ea892bc1d2b733c3a6331", "name": "7d430257349ea892bc1d2b733c3a6331"}, {"lon": -77.0228285, "is_disabled": 0, "lat": 38.9140775, "fusion_lat": 0.0, "is_reserved": 0, "rental_uris": {"ios": "https://dc.lft.to/lastmile_qr_scan", "android": "https://dc.lft.to/lastmile_qr_scan"}, "fusion_lon": 0.0, "type": "electric_scooter", "bike_id": "b9670b30df6a1d7c383919e8abb49f9e", "name": "b9670b30df6a1d7c383919e8abb49f9e"}, {"lon": -77.0267545, "is_disabled": 0, "lat": 38.897162, "fusion_lat": 0.0, "is_reserved": 0, "rental_uris": {"ios": "https://dc.lft.to/lastmile_qr_scan", "android": "https://dc.lft.to/lastmile_qr_scan"}, "fusion_lon": 0.0, "type": "electric_scooter", "bike_id": "dee40f6bbbed6ef475185cf477765b62", "name": "dee40f6bbbed6ef475185cf477765b62"}, {"lon": -77.028315, "is_disabled": 0, "lat": 38.88733916666666, "fusion_lat": 0.0, "is_reserved": 0, "rental_uris": {"ios": "https://dc.lft.to/lastmile_qr_scan", "android": "https://dc.lft.to/lastmile_qr_scan"}, "fusion_lon": 0.0, "type": "electric_scooter", "bike_id": "a0271c85b155c5d689c60debf2cfe808", "name": "a0271c85b155c5d689c60debf2cfe808"}, {"lon": -77.03183316666667, "is_disabled": 0, "lat": 38.913524833333334, "fusion_lat": 0.0, "is_reserved": 0, "rental_uris": {"ios": "https://dc.lft.to/lastmile_qr_scan", "android": "https://dc.lft.to/lastmile_qr_scan"}, "fusion_lon": 0.0, "type": "electric_scooter", "bike_id": "3b13347f3bfc983857a5b8582efdc57a", "name": "3b13347f3bfc983857a5b8582efdc57a"}, {"lon": -77.0318125, "is_disabled": 0, "lat": 38.91916783333333, "fusion_lat": 0.0, "is_reserved": 0, "rental_uris": {"ios": "https://dc.lft.to/lastmile_qr_scan", "android": "https://dc.lft.to/lastmile_qr_scan"}, "fusion_lon": 0.0, "type": "electric_scooter", "bike_id": "a01f24f3c4819a34b0e26f8f74c2e146", "name": "a01f24f3c4819a34b0e26f8f74c2e146"}, {"lon": -77.05884883333333, "is_disabled": 0, "lat": 38.93634633333333, "fusion_lat": 0.0, "is_reserved": 0, "rental_uris": {"ios": "https://dc.lft.to/lastmile_qr_scan", "android": "https://dc.lft.to/lastmile_qr_scan"}, "fusion_lon": 0.0, "type": "electric_scooter", "bike_id": "5aee9e7463a568153e9df16f37736488", "name": "5aee9e7463a568153e9df16f37736488"}, {"lon": -77.0013025, "is_disabled": 0, "lat": 38.835693166666665, "fusion_lat": 0.0, "is_reserved": 0, "rental_uris": {"ios": "https://dc.lft.to/lastmile_qr_scan", "android": "https://dc.lft.to/lastmile_qr_scan"}, "fusion_lon": 0.0, "type": "electric_scooter", "bike_id": "251611113edb7e9c4c11006ef3afa7ac", "name": "251611113edb7e9c4c11006ef3afa7ac"}, {"lon": -77.03840566666666, "is_disabled": 0, "lat": 38.911505, "fusion_lat": 0.0, "is_reserved": 0, "rental_uris": {"ios": "https://dc.lft.to/lastmile_qr_scan", "android": "https://dc.lft.to/lastmile_qr_scan"}, "fusion_lon": 0.0, "type": "electric_scooter", "bike_id": "1f8eb6e47ea9437bedbbdbbe1e57d17e", "name": "1f8eb6e47ea9437bedbbdbbe1e57d17e"}, {"lon": -77.02350183333333, "is_disabled": 0, "lat": 38.920503, "fusion_lat": 0.0, "is_reserved": 0, "rental_uris": {"ios": "https://dc.lft.to/lastmile_qr_scan", "android": "https://dc.lft.to/lastmile_qr_scan"}, "fusion_lon": 0.0, "type": "electric_scooter", "bike_id": "ef0eb08b150bb6e09c059c4ee8ef116c", "name": "ef0eb08b150bb6e09c059c4ee8ef116c"}, {"lon": -77.003441, "is_disabled": 0, "lat": 38.89462533333333, "fusion_lat": 0.0, "is_reserved": 0, "rental_uris": {"ios": "https://dc.lft.to/lastmile_qr_scan", "android": "https://dc.lft.to/lastmile_qr_scan"}, "fusion_lon": 0.0, "type": "electric_scooter", "bike_id": "46cca8f0b96292ec13a4007344f00d76", "name": "46cca8f0b96292ec13a4007344f00d76"}, {"lon": -76.99794033333333, "is_disabled": 0, "lat": 38.90868833333333, "fusion_lat": 0.0, "is_reserved": 0, "rental_uris": {"ios": "https://dc.lft.to/lastmile_qr_scan", "android": "https://dc.lft.to/lastmile_qr_scan"}, "fusion_lon": 0.0, "type": "electric_scooter", "bike_id": "a9989330ac6f92f011f019bc4802d987", "name": "a9989330ac6f92f011f019bc4802d987"}, {"lon": -77.03434966666667, "is_disabled": 0, "lat": 38.9097445, "fusion_lat": 0.0, "is_reserved": 0, "rental_uris": {"ios": "https://dc.lft.to/lastmile_qr_scan", "android": "https://dc.lft.to/lastmile_qr_scan"}, "fusion_lon": 0.0, "type": "electric_scooter", "bike_id": "34bd5602c9398e9a1ef2e9cc1a41576a", "name": "34bd5602c9398e9a1ef2e9cc1a41576a"}, {"lon": -77.04165783333333, "is_disabled": 0, "lat": 38.90028983333333, "fusion_lat": 0.0, "is_reserved": 0, "rental_uris": {"ios": "https://dc.lft.to/lastmile_qr_scan", "android": "https://dc.lft.to/lastmile_qr_scan"}, "fusion_lon": 0.0, "type": "electric_scooter", "bike_id": "134879c6181cc3d2ce1e7dfe7f3b94f3", "name": "134879c6181cc3d2ce1e7dfe7f3b94f3"}, {"lon": -76.98508133333333, "is_disabled": 0, "lat": 38.9034815, "fusion_lat": 0.0, "is_reserved": 0, "rental_uris": {"ios": "https://dc.lft.to/lastmile_qr_scan", "android": "https://dc.lft.to/lastmile_qr_scan"}, "fusion_lon": 0.0, "type": "electric_scooter", "bike_id": "bd0a878200eb16b5b27d7bed4239f386", "name": "bd0a878200eb16b5b27d7bed4239f386"}, {"lon": -77.04293283333334, "is_disabled": 0, "lat": 38.915664666666665, "fusion_lat": 0.0, "is_reserved": 0, "rental_uris": {"ios": "https://dc.lft.to/lastmile_qr_scan", "android": "https://dc.lft.to/lastmile_qr_scan"}, "fusion_lon": 0.0, "type": "electric_scooter", "bike_id": "b69dcd039ff3f8f6b3ca73549c15a79f", "name": "b69dcd039ff3f8f6b3ca73549c15a79f"}, {"lon": -77.0217665, "is_disabled": 0, "lat": 38.9018585, "fusion_lat": 0.0, "is_reserved": 0, "rental_uris": {"ios": "https://dc.lft.to/lastmile_qr_scan", "android": "https://dc.lft.to/lastmile_qr_scan"}, "fusion_lon": 0.0, "type": "electric_scooter", "bike_id": "95814d09b5e9b95c176f562e06909eab", "name": "95814d09b5e9b95c176f562e06909eab"}, {"lon": -77.0331615, "is_disabled": 0, "lat": 38.92156466666667, "fusion_lat": 0.0, "is_reserved": 0, "rental_uris": {"ios": "https://dc.lft.to/lastmile_qr_scan", "android": "https://dc.lft.to/lastmile_qr_scan"}, "fusion_lon": 0.0, "type": "electric_scooter", "bike_id": "f9e27e4c14fa98bcfb00b570daba2145", "name": "f9e27e4c14fa98bcfb00b570daba2145"}, {"lon": -77.01659466666666, "is_disabled": 0, "lat": 38.88133083333334, "fusion_lat": 0.0, "is_reserved": 0, "rental_uris": {"ios": "https://dc.lft.to/lastmile_qr_scan", "android": "https://dc.lft.to/lastmile_qr_scan"}, "fusion_lon": 0.0, "type": "electric_scooter", "bike_id": "5027405144e9d5cd51880aa206f8df1f", "name": "5027405144e9d5cd51880aa206f8df1f"}, {"lon": -77.0433435, "is_disabled": 0, "lat": 38.92219766666667, "fusion_lat": 0.0, "is_reserved": 0, "rental_uris": {"ios": "https://dc.lft.to/lastmile_qr_scan", "android": "https://dc.lft.to/lastmile_qr_scan"}, "fusion_lon": 0.0, "type": "electric_scooter", "bike_id": "957f4cb48eac7c6ef8bc9d9977565ca1", "name": "957f4cb48eac7c6ef8bc9d9977565ca1"}, {"lon": -77.04157133333334, "is_disabled": 0, "lat": 38.914184666666664, "fusion_lat": 0.0, "is_reserved": 0, "rental_uris": {"ios": "https://dc.lft.to/lastmile_qr_scan", "android": "https://dc.lft.to/lastmile_qr_scan"}, "fusion_lon": 0.0, "type": "electric_scooter", "bike_id": "1b99486778911f79243aede3afc9b74d", "name": "1b99486778911f79243aede3afc9b74d"}, {"lon": -77.044822, "is_disabled": 0, "lat": 38.89907566666667, "fusion_lat": 0.0, "is_reserved": 0, "rental_uris": {"ios": "https://dc.lft.to/lastmile_qr_scan", "android": "https://dc.lft.to/lastmile_qr_scan"}, "fusion_lon": 0.0, "type": "electric_scooter", "bike_id": "37305c9e4685351e4f31cfbdb037250b", "name": "37305c9e4685351e4f31cfbdb037250b"}, {"lon": -77.037765, "is_disabled": 0, "lat": 38.92571083333333, "fusion_lat": 0.0, "is_reserved": 0, "rental_uris": {"ios": "https://dc.lft.to/lastmile_qr_scan", "android": "https://dc.lft.to/lastmile_qr_scan"}, "fusion_lon": 0.0, "type": "electric_scooter", "bike_id": "4b42ede2b74cf4823c862b8ecd9c104d", "name": "4b42ede2b74cf4823c862b8ecd9c104d"}, {"lon": -77.0053435, "is_disabled": 0, "lat": 38.88012616666666, "fusion_lat": 0.0, "is_reserved": 0, "rental_uris": {"ios": "https://dc.lft.to/lastmile_qr_scan", "android": "https://dc.lft.to/lastmile_qr_scan"}, "fusion_lon": 0.0, "type": "electric_scooter", "bike_id": "4be7b6c6f1f0bba22636b4347f51935c", "name": "4be7b6c6f1f0bba22636b4347f51935c"}, {"lon": -77.020494, "is_disabled": 0, "lat": 38.921121166666666, "fusion_lat": 0.0, "is_reserved": 0, "rental_uris": {"ios": "https://dc.lft.to/lastmile_qr_scan", "android": "https://dc.lft.to/lastmile_qr_scan"}, "fusion_lon": 0.0, "type": "electric_scooter", "bike_id": "e8b3559b70ebded956ad4bee94004720", "name": "e8b3559b70ebded956ad4bee94004720"}, {"lon": -77.0178205, "is_disabled": 0, "lat": 38.877148, "fusion_lat": 0.0, "is_reserved": 0, "rental_uris": {"ios": "https://dc.lft.to/lastmile_qr_scan", "android": "https://dc.lft.to/lastmile_qr_scan"}, "fusion_lon": 0.0, "type": "electric_scooter", "bike_id": "e4eac3611d04253bac883e009cc82abe", "name": "e4eac3611d04253bac883e009cc82abe"}, {"lon": -77.03731966666666, "is_disabled": 0, "lat": 38.92659283333333, "fusion_lat": 0.0, "is_reserved": 0, "rental_uris": {"ios": "https://dc.lft.to/lastmile_qr_scan", "android": "https://dc.lft.to/lastmile_qr_scan"}, "fusion_lon": 0.0, "type": "electric_scooter", "bike_id": "58d59b2a704d3d74425ea78a15eecb0e", "name": "58d59b2a704d3d74425ea78a15eecb0e"}, {"lon": -77.02999433333333, "is_disabled": 0, "lat": 38.90186, "fusion_lat": 0.0, "is_reserved": 0, "rental_uris": {"ios": "https://dc.lft.to/lastmile_qr_scan", "android": "https://dc.lft.to/lastmile_qr_scan"}, "fusion_lon": 0.0, "type": "electric_scooter", "bike_id": "6ca189f5eaff29adf67e82e676243407", "name": "6ca189f5eaff29adf67e82e676243407"}, {"lon": -77.03282416666667, "is_disabled": 0, "lat": 38.934406333333335, "fusion_lat": 0.0, "is_reserved": 0, "rental_uris": {"ios": "https://dc.lft.to/lastmile_qr_scan", "android": "https://dc.lft.to/lastmile_qr_scan"}, "fusion_lon": 0.0, "type": "electric_scooter", "bike_id": "9cf3e1787ee8276531ccbfadb254daba", "name": "9cf3e1787ee8276531ccbfadb254daba"}, {"lon": -76.96058166666667, "is_disabled": 0, "lat": 38.88406283333333, "fusion_lat": 0.0, "is_reserved": 0, "rental_uris": {"ios": "https://dc.lft.to/lastmile_qr_scan", "android": "https://dc.lft.to/lastmile_qr_scan"}, "fusion_lon": 0.0, "type": "electric_bike", "bike_id": "b777705d84c6659133c68c050a7d10f4", "name": "b777705d84c6659133c68c050a7d10f4"}, {"lon": -77.02542266666667, "is_disabled": 0, "lat": 38.91924383333333, "fusion_lat": 0.0, "is_reserved": 0, "rental_uris": {"ios": "https://dc.lft.to/lastmile_qr_scan", "android": "https://dc.lft.to/lastmile_qr_scan"}, "fusion_lon": 0.0, "type": "electric_scooter", "bike_id": "c829a30da680dd96c1a7ad20b1a1e476", "name": "c829a30da680dd96c1a7ad20b1a1e476"},