{"data": {"bikes": [{"fusion_lat": 0.0, "name": "38dbc588ffcee45cec2803f0a921acee", "is_disabled": 0, "rental_uris": {"android": "https://dc.lft.to/lastmile_qr_scan", "ios": "https://dc.lft.to/lastmile_qr_scan"}, "fusion_lon": 0.0, "lat": 38.90971316666667, "bike_id": "38dbc588ffcee45cec2803f0a921acee", "type": "electric_scooter", "is_reserved": 0, "lon": -77.038665}, {"fusion_lat": 0.0, "name": "78d76c23e0bbd77afb6b94e8862a9710", "is_disabled": 0, "rental_uris": {"android": "https://dc.lft.to/lastmile_qr_scan", "ios": "https://dc.lft.to/lastmile_qr_scan"}, "fusion_lon": 0.0, "lat": 38.905818333333336, "bike_id": "78d76c23e0bbd77afb6b94e8862a9710", "type": "electric_scooter", "is_reserved": 0, "lon": -77.02208516666667}, {"fusion_lat": 0.0, "name": "5edff6b8a85c7e71ba4cb4a44bc7e8ac", "is_disabled": 0, "rental_uris": {"android": "https://dc.lft.to/lastmile_qr_scan", "ios": "https://dc.lft.to/lastmile_qr_scan"}, "fusion_lon": 0.0, "lat": 38.900547333333336, "bike_id": "5edff6b8a85c7e71ba4cb4a44bc7e8ac", "type": "electric_scooter", "is_reserved": 0, "lon": -77.0160545}, {"fusion_lat": 0.0, "name": "8157e86b1a08908a46343a23ac4a804c", "is_disabled": 0, "rental_uris": {"android": "https://dc.lft.to/lastmile_qr_scan", "ios": "https://dc.lft.to/lastmile_qr_scan"}, "fusion_lon": 0.0, "lat": 38.92294283333333, "bike_id": "8157e86b1a08908a46343a23ac4a804c", "type": "electric_scooter", "is_reserved": 0, "lon": -77.0366575}, {"fusion_lat": 0.0, "name": "bdee346fad04c4ec78e885932ad7a0df", "is_disabled": 0, "rental_uris": {"android": "https://dc.lft.to/lastmile_qr_scan", "ios": "https://dc.lft.to/lastmile_qr_scan"}, "fusion_lon": 0.0, "lat": 38.89311466666667, "bike_id": "bdee346fad04c4ec78e885932ad7a0df", "type": "electric_scooter", "is_reserved": 0, "lon": -77.05587666666666}, {"fusion_lat": 0.0, "name": "55c2b8f0f5a7b4e1b6f2fe0e51bde126", "is_disabled": 0, "rental_uris": {"android": "https://dc.lft.to/lastmile_qr_scan", "ios": "https://dc.lft.to/lastmile_qr_scan"}, "fusion_lon": 0.0, "lat": 38.93630433333333, "bike_id": "55c2b8f0f5a7b4e1b6f2fe0e51bde126", "type": "electric_scooter", "is_reserved": 0, "lon": -77.03617966666667}, {"fusion_lat": 0.0, "name": "b7e3982b2719ade5926b6573a9edbdc3", "is_disabled": 0, "rental_uris": {"android": "https://dc.lft.to/lastmile_qr_scan", "ios": "https://dc.lft.to/lastmile_qr_scan"}, "fusion_lon": 0.0, "lat": 38.9155635, "bike_id": "b7e3982b2719ade5926b6573a9edbdc3", "type": "electric_scooter", "is_reserved": 0, "lon": -77.0208795}, {"fusion_lat": 0.0, "name": "d69d9807887124360745fb3bc84c69d7", "is_disabled": 0, "rental_uris": {"android": "https://dc.lft.to/lastmile_qr_scan", "ios": "https://dc.lft.to/lastmile_qr_scan"}, "fusion_lon": 0.0, "lat": 38.87848066666667, "bike_id": "d69d9807887124360745fb3bc84c69d7", "type": "electric_scooter", "is_reserved": 0, "lon": -77.00557666666667}, {"fusion_lat": 0.0, "name": "bdbe7329aa262f78cd71fad9613b4219", "is_disabled": 0, "rental_uris": {"android": "https://dc.lft.to/lastmile_qr_scan", "ios": "https://dc.lft.to/lastmile_qr_scan"}, "fusion_lon": 0.0, "lat": 38.91737533333333, "bike_id": "bdbe7329aa262f78cd71fad9613b4219", "type": "electric_scooter", "is_reserved": 0, "lon": -77.03180183333333}, {"fusion_lat": 0.0, "name": "2a8300fc944f6740ccbefee4a8a3e305", "is_disabled": 0, "rental_uris": {"android": "https://dc.lft.to/lastmile_qr_scan", "ios": "https://dc.lft.to/lastmile_qr_scan"}, "fusion_lon": 0.0, "lat": 38.861413666666664, "bike_id": "2a8300fc944f6740ccbefee4a8a3e305", "type": "electric_bike", "is_reserved": 0, "lon": -76.97166533333333}, {"fusion_lat": 0.0, "name": "1756ae1cc5d96c80d523e6d04a59120d", "is_disabled": 0, "rental_uris": {"android": "https://dc.lft.to/lastmile_qr_scan", "ios": "https://dc.lft.to/lastmile_qr_scan"}, "fusion_lon": 0.0, "lat": 38.94979333333333, "bike_id": "1756ae1cc5d96c80d523e6d04a59120d", "type": "electric_scooter", "is_reserved": 0, "lon": -77.02694833333334}, {"fusion_lat": 0.0, "name": "437a4818f193cc397ed3df52402bab54", "is_disabled": 0, "rental_uris": {"android": "https://dc.lft.to/lastmile_qr_scan", "ios": "https://dc.lft.to/lastmile_qr_scan"}, "fusion_lon": 0.0, "lat": 38.92468233333334, "bike_id": "437a4818f193cc397ed3df52402bab54", "type": "electric_scooter", "is_reserved": 0, "lon": -77.03528633333333}, {"fusion_lat": 0.0, "name": "b0eacdc2147c19a6d05a81bf35ec012d", "is_disabled": 0, "rental_uris": {"android": "https://dc.lft.to/lastmile_qr_scan", "ios": "https://dc.lft.to/lastmile_qr_scan"}, "fusion_lon": 0.0, "lat": 38.909771166666665, "bike_id": "b0eacdc2147c19a6d05a81bf35ec012d", "type": "electric_scooter", "is_reserved": 0, "lon": -77.03864}, {"fusion_lat": 0.0, "name": "201ae36db8f0b4b78b3ff08f14cc77d7", "is_disabled": 0, "rental_uris": {"android": "https://dc.lft.to/lastmile_qr_scan", "ios": "https://dc.lft.to/lastmile_qr_scan"}, "fusion_lon": 0.0, "lat": 38.918579666666666, "bike_id": "201ae36db8f0b4b78b3ff08f14cc77d7", "type": "electric_scooter", "is_reserved": 0, "lon": -77.04578966666666}, {"fusion_lat": 0.0, "name": "b7794b5ae8e7305d8298da0f67ed9cdc", "is_disabled": 0, "rental_uris": {"android": "https://dc.lft.to/lastmile_qr_scan", "ios": "https://dc.lft.to/lastmile_qr_scan"}, "fusion_lon": 0.0, "lat": 38.92382966666667, "bike_id": "b7794b5ae8e7305d8298da0f67ed9cdc", "type": "electric_scooter", "is_reserved": 0, "lon": -77.02741283333333}, {"fusion_lat": 0.0, "name": "e1163116c3f3111b6edfed5d12d07d38", "is_disabled": 0, "rental_uris": {"android": "https://dc.lft.to/lastmile_qr_scan", "ios": "https://dc.lft.to/lastmile_qr_scan"}, "fusion_lon": 0.0, "lat": 38.913002166666665, "bike_id": "e1163116c3f3111b6edfed5d12d07d38", "type": "electric_scooter", "is_reserved": 0, "lon": -77.04528316666666}, {"fusion_lat": 0.0, "name": "6b8058ba3c3a44a015bd97fbb7ebd0a2", "is_disabled": 0, "rental_uris": {"android": "https://dc.lft.to/lastmile_qr_scan", "ios": "https://dc.lft.to/lastmile_qr_scan"}, "fusion_lon": 0.0, "lat": 38.92257016666667, "bike_id": "6b8058ba3c3a44a015bd97fbb7ebd0a2", "type": "electric_scooter", "is_reserved": 0, "lon": -77.03659616666667}, {"fusion_lat": 0.0, "name": "d833b312db73eeadcafea1ca279cc1cd", "is_disabled": 0, "rental_uris": {"android": "https://dc.lft.to/lastmile_qr_scan", "ios": "https://dc.lft.to/lastmile_qr_scan"}, "fusion_lon": 0.0, "lat": 38.91169166666667, "bike_id": "d833b312db73eeadcafea1ca279cc1cd", "type": "electric_scooter", "is_reserved": 0, "lon": -76.98716133333333}, {"fusion_lat": 0.0, "name": "9c5a27b3eaf74de6d7f246c420d53c8c", "is_disabled": 0, "rental_uris": {"android": "https://dc.lft.to/lastmile_qr_scan", "ios": "https://dc.lft.to/lastmile_qr_scan"}, "fusion_lon": 0.0, "lat": 38.909609833333334, "bike_id": "9c5a27b3eaf74de6d7f246c420d53c8c", "type": "electric_scooter", "is_reserved": 0, "lon": -77.02375583333334}, {"fusion_lat": 0.0, "name": "d84f8eb0c89521c94149c59b7346dc58", "is_disabled": 0, "rental_uris": {"android": "https://dc.lft.to/lastmile_qr_scan", "ios": "https://dc.lft.to/lastmile_qr_scan"}, "fusion_lon": 0.0, "lat": 38.89855816666667, "bike_id": "d84f8eb0c89521c94149c59b7346dc58", "type": "electric_scooter", "is_reserved": 0, "lon": -77.02220483333333}, {"fusion_lat": 0.0, "name": "62620150040e28e7b71e334848a7410c", "is_disabled": 0, "rental_uris": {"android": "https://dc.lft.to/lastmile_qr_scan", "ios": "https://dc.lft.to/lastmile_qr_scan"}, "fusion_lon": 0.0, "lat": 38.90655816666667, "bike_id": "62620150040e28e7b71e334848a7410c", "type": "electric_scooter", "is_reserved": 0, "lon": -77.04878616666667}, {"fusion_lat": 0.0, "name": "7e44cfadf13c1aedd3d6d5e63e95f11a", "is_disabled": 0, "rental_uris": {"android": "https://dc.lft.to/lastmile_qr_scan", "ios": "https://dc.lft.to/lastmile_qr_scan"}, "fusion_lon": 0.0, "lat": 38.87885633333333, "bike_id": "7e44cfadf13c1aedd3d6d5e63e95f11a", "type": "electric_scooter", "is_reserved": 0, "lon": -76.96542933333333}, {"fusion_lat": 0.0, "name": "d9471579f1fab549592c4b75622e521c", "is_disabled": 0, "rental_uris": {"android": "https://dc.lft.to/lastmile_qr_scan", "ios": "https://dc.lft.to/lastmile_qr_scan"}, "fusion_lon": 0.0, "lat": 38.90407883333334, "bike_id": "d9471579f1fab549592c4b75622e521c", "type": "electric_scooter", "is_reserved": 0, "lon": -77.03630166666666}, {"fusion_lat": 0.0, "name": "dd63ae129a23063a3c2dc3a6eca16767", "is_disabled": 0, "rental_uris": {"android": "https://dc.lft.to/lastmile_qr_scan", "ios": "https://dc.lft.to/lastmile_qr_scan"}, "fusion_lon": 0.0, "lat": 38.8951955, "bike_id": "dd63ae129a23063a3c2dc3a6eca16767", "type": "electric_scooter", "is_reserved": 0, "lon": -77.00919666666667}, {"fusion_lat": 0.0, "name": "e1c781cb36fee4ae4e176cde8af70f95", "is_disabled": 0, "rental_uris": {"android": "https://dc.lft.to/lastmile_qr_scan", "ios": "https://dc.lft.to/lastmile_qr_scan"}, "fusion_lon": 0.0, "lat": 38.901693, "bike_id": "e1c781cb36fee4ae4e176cde8af70f95", "type": "electric_scooter", "is_reserved": 0, "lon": -77.03181466666666}, {"fusion_lat": 0.0, "name": "7fa6a00a93ac7d935fd5f4a9d7d30fbe", "is_disabled": 0, "rental_uris": {"android": "https://dc.lft.to/lastmile_qr_scan", "ios": "https://dc.lft.to/lastmile_qr_scan"}, "fusion_lon": 0.0, "lat": 38.922564333333334, "bike_id": "7fa6a00a93ac7d935fd5f4a9d7d30fbe", "type": "electric_scooter", "is_reserved": 0, "lon": -77.04256733333334}, {"fusion_lat": 0.0, "name": "23ebdd6c8f2b76954527667c80c28b79", "is_disabled": 0, "rental_uris": {"android": "https://dc.lft.to/lastmile_qr_scan", "ios": "https://dc.lft.to/lastmile_qr_scan"}, "fusion_lon": 0.0, "lat": 38.903358833333336, "bike_id": "23ebdd6c8f2b76954527667c80c28b79", "type": "electric_bike", "is_reserved": 0, "lon": -76.97529083333333}, {"fusion_lat": 0.0, "name": "c7843cb60ef527993bbe252d51abf85d", "is_disabled": 0, "rental_uris": {"android": "https://dc.lft.to/lastmile_qr_scan", "ios": "https://dc.lft.to/lastmile_qr_scan"}, "fusion_lon": 0.0, "lat": 38.8573795, "bike_id": "c7843cb60ef527993bbe252d51abf85d", "type": "electric_bike", "is_reserved": 0, "lon": -77.05342416666667}, {"fusion_lat": 0.0, "name": "e95e2906de772fa6393de83c0b18737a", "is_disabled": 0, "rental_uris": {"android": "https://dc.lft.to/lastmile_qr_scan", "ios": "https://dc.lft.to/lastmile_qr_scan"}, "fusion_lon": 0.0, "lat": 38.935909333333335, "bike_id": "e95e2906de772fa6393de83c0b18737a", "type": "electric_scooter", "is_reserved": 0, "lon": -77.0284625}, {"fusion_lat": 0.0, "name": "53848e8b550288ef278e19899b15492b", "is_disabled": 0, "rental_uris": {"android": "https://dc.lft.to/lastmile_qr_scan", "ios": "https://dc.lft.to/lastmile_qr_scan"}, "fusion_lon": 0.0, "lat": 38.91126216666667, "bike_id": "53848e8b550288ef278e19899b15492b", "type": "electric_scooter", "is_reserved": 0, "lon": -77.04420983333333}, {"fusion_lat": 0.0, "name": "f780b44c540ee3000935cbc09403064c", "is_disabled": 0, "rental_uris": {"android": "https://dc.lft.to/lastmile_qr_scan", "ios": "https://dc.lft.to/lastmile_qr_scan"}, "fusion_lon": 0.0, "lat": 38.93635616666667, "bike_id": "f780b44c540ee3000935cbc09403064c", "type": "electric_scooter", "is_reserved": 0, "lon": -77.03697866666667}, {"fusion_lat": 0.0, "name": "8c47ac3ab56aefb1004bfbe3da1e2a6e", "is_disabled": 0, "rental_uris": {"android": "https://dc.lft.to/lastmile_qr_scan", "ios": "https://dc.lft.to/lastmile_qr_scan"}, "fusion_lon": 0.0, "lat": 38.92815483333333, "bike_id": "8c47ac3ab56aefb1004bfbe3da1e2a6e", "type": "electric_scooter", "is_reserved": 0, "lon": -77.02333316666666}, {"fusion_lat": 0.0, "name": "38552a9696b15b29295a7b0e9c34ea4b", "is_disabled": 0, "rental_uris": {"android": "https://dc.lft.to/lastmile_qr_scan", "ios": "https://dc.lft.to/lastmile_qr_scan"}, "fusion_lon": 0.0, "lat": 38.892382, "bike_id": "38552a9696b15b29295a7b0e9c34ea4b", "type": "electric_scooter", "is_reserved": 0, "lon": -77.0465425}, {"fusion_lat": 0.0, "name": "3a263bf40499d32dc7cb9b2a9ae2a58e", "is_disabled": 0, "rental_uris": {"android": "https://dc.lft.to/lastmile_qr_scan", "ios": "https://dc.lft.to/lastmile_qr_scan"}, "fusion_lon": 0.0, "lat": 38.927527166666664, "bike_id": "3a263bf40499d32dc7cb9b2a9ae2a58e", "type": "electric_scooter", "is_reserved": 0, "lon": -77.024489}, {"fusion_lat": 0.0, "name": "edcac23748a1018b66df7b0411687d5e", "is_disabled": 0, "rental_uris": {"android": "https://dc.lft.to/lastmile_qr_scan", "ios": "https://dc.lft.to/lastmile_qr_scan"}, "fusion_lon": 0.0, "lat": 38.9222535, "bike_id": "edcac23748a1018b66df7b0411687d5e", "type": "electric_scooter", "is_reserved": 0, "lon": -76.9965445}, {"fusion_lat": 0.0, "name": "bfeb8717f55c8acf6587e39724dfee1f", "is_disabled": 0, "rental_uris": {"android": "https://dc.lft.to/lastmile_qr_scan", "ios": "https://dc.lft.to/lastmile_qr_scan"}, "fusion_lon": 0.0, "lat": 38.90739116666666, "bike_id": "bfeb8717f55c8acf6587e39724dfee1f", "type": "electric_scooter", "is_reserved": 0, "lon": -77.034744}, {"fusion_lat": 0.0, "name": "408db54254007e941a6e83c24ef99859", "is_disabled": 0, "rental_uris": {"android": "https://dc.lft.to/lastmile_qr_scan", "ios": "https://dc.lft.to/lastmile_qr_scan"}, "fusion_lon": 0.0, "lat": 38.90828483333333, "bike_id": "408db54254007e941a6e83c24ef99859", "type": "electric_scooter", "is_reserved": 0, "lon": -77.04295366666666}, {"fusion_lat": 0.0, "name": "3b248ea48d5eac73dfffde5bce271d10", "is_disabled": 0, "rental_uris": {"android": "https://dc.lft.to/lastmile_qr_scan", "ios": "https://dc.lft.to/lastmile_qr_scan"}, "fusion_lon": 0.0, "lat": 38.84283466666667, "bike_id": "3b248ea48d5eac73dfffde5bce271d10", "type": "electric_bike", "is_reserved": 0, "lon": -77.04495733333333}, {"fusion_lat": 0.0, "name": "16000bcc6123d983faf439a12a80c6e8", "is_disabled": 0, "rental_uris": {"android": "https://dc.lft.to/lastmile_qr_scan", "ios": "https://dc.lft.to/lastmile_qr_scan"}, "fusion_lon": 0.0, "lat": 38.93601183333333, "bike_id": "16000bcc6123d983faf439a12a80c6e8", "type": "electric_scooter", "is_reserved": 0, "lon": -77.036496}, {"fusion_lat": 0.0, "name": "c6052af6b47b28b3b68ac001fc7b787b", "is_disabled": 0, "rental_uris": {"android": "https://dc.lft.to/lastmile_qr_scan", "ios": "https://dc.lft.to/lastmile_qr_scan"}, "fusion_lon": 0.0, "lat": 38.92460116666667, "bike_id": "c6052af6b47b28b3b68ac001fc7b787b", "type": "electric_scooter", "is_reserved": 0, "lon": -76.999072}, {"fusion_lat": 0.0, "name": "49802d6d6e640d4a6d605ee7c6b5a8b2", "is_disabled": 0, "rental_uris": {"android": "https://dc.lft.to/lastmile_qr_scan", "ios": "https://dc.lft.to/lastmile_qr_scan"}, "fusion_lon": 0.0, "lat": 38.912956, "bike_id": "49802d6d6e640d4a6d605ee7c6b5a8b2", "type": "electric_scooter", "is_reserved": 0, "lon": -77.045316}, {"fusion_lat": 0.0, "name": "e24c29aa04e43cf482d46d18297445b6", "is_disabled": 0, "rental_uris": {"android": "https://dc.lft.to/lastmile_qr_scan", "ios": "https://dc.lft.to/lastmile_qr_scan"}, "fusion_lon": 0.0, "lat": 38.96593033333333, "bike_id": "e24c29aa04e43cf482d46d18297445b6", "type": "electric_scooter", "is_reserved": 0, "lon": -77.01594716666666}, {"fusion_lat": 0.0, "name": "ac6dd261ef14815d0f3896e6c9b4d015", "is_disabled": 0, "rental_uris": {"android": "https://dc.lft.to/lastmile_qr_scan", "ios": "https://dc.lft.to/lastmile_qr_scan"}, "fusion_lon": 0.0, "lat": 38.90852833333334, "bike_id": "ac6dd261ef14815d0f3896e6c9b4d015", "type": "electric_scooter", "is_reserved": 0, "lon": -77.036523}, {"fusion_lat": 0.0, "name": "2852da36056479126127475a742fa081", "is_disabled": 0, "rental_uris": {"android": "https://dc.lft.to/lastmile_qr_scan", "ios": "https://dc.lft.to/lastmile_qr_scan"}, "fusion_lon": 0.0, "lat": 38.876537666666664, "bike_id": "2852da36056479126127475a742fa081", "type": "electric_scooter", "is_reserved": 0, "lon": -77.00756}, {"fusion_lat": 0.0, "name": "de5b7028adfba60053da1eddeda45537", "is_disabled": 0, "rental_uris": {"android": "https://dc.lft.to/lastmile_qr_scan", "ios": "https://dc.lft.to/lastmile_qr_scan"}, "fusion_lon": 0.0, "lat": 38.874656333333334, "bike_id": "de5b7028adfba60053da1eddeda45537", "type": "electric_scooter", "is_reserved": 0, "lon": -77.00556966666667}, {"fusion_lat": 0.0, "name": "319c961ab05bf71f328241d98d24cbd3", "is_disabled": 0, "rental_uris": {"android": "https://dc.lft.to/lastmile_qr_scan", "ios": "https://dc.lft.to/lastmile_qr_scan"}, "fusion_lon": 0.0, "lat": 38.9338805, "bike_id": "319c961ab05bf71f328241d98d24cbd3", "type": "electric_scooter", "is_reserved": 0, "lon": -77.038873}, {"fusion_lat": 0.0, "name": "fccded4c9a257cf6502efe283bc339ba", "is_disabled": 0, "rental_uris": {"android": "https://dc.lft.to/lastmile_qr_scan", "ios": "https://dc.lft.to/lastmile_qr_scan"}, "fusion_lon": 0.0, "lat": 38.9263915, "bike_id": "fccded4c9a257cf6502efe283bc339ba", "type": "electric_scooter", "is_reserved": 0, "lon": -77.03502683333333}, {"fusion_lat": 0.0, "name": "0c5c7c4d098f71237683e35c6f29f2b8", "is_disabled": 0, "rental_uris": {"android": "https://dc.lft.to/lastmile_qr_scan", "ios": "https://dc.lft.to/lastmile_qr_scan"}, "fusion_lon": 0.0, "lat": 38.911136, "bike_id": "0c5c7c4d098f71237683e35c6f29f2b8", "type": "electric_scooter", "is_reserved": 0, "lon": -77.00766983333334}, {"fusion_lat": 0.0, "name": "ee81dce87e2f2f0792ccc32398b45d5e", "is_disabled": 0, "rental_uris": {"android": "https://dc.lft.to/lastmile_qr_scan", "ios": "https://dc.lft.to/lastmile_qr_scan"}, "fusion_lon": 0.0, "lat": 38.920222833333334, "bike_id": "ee81dce87e2f2f0792ccc32398b45d5e", "type": "electric_scooter", "is_reserved": 0, "lon": -77.0131265}, {"fusion_lat": 0.0, "name": "044aff4af9313cbd41056ad90776e632", "is_disabled": 0, "rental_uris": {"android": "https://dc.lft.to/lastmile_qr_scan", "ios": "https://dc.lft.to/lastmile_qr_scan"}, "fusion_lon": 0.0, "lat": 38.8932995, "bike_id": "044aff4af9313cbd41056ad90776e632", "type": "electric_scooter", "is_reserved": 0, "lon": -77.03198416666666}, {"fusion_lat": 0.0, "name": "6b2ae185291140376b6de95d95744e90", "is_disabled": 0, "rental_uris": {"android": "https://dc.lft.to/lastmile_qr_scan", "ios": "https://dc.lft.to/lastmile_qr_scan"}, "fusion_lon": 0.0, "lat": 38.892222833333335, "bike_id": "6b2ae185291140376b6de95d95744e90", "type": "electric_scooter", "is_reserved": 0, "lon": -77.048724}, {"fusion_lat": 0.0, "name": "c92eb6f67e3cc5fc612bbcf000912c51", "is_disabled": 0, "rental_uris": {"android": "https://dc.lft.to/lastmile_qr_scan", "ios": "https://dc.lft.to/lastmile_qr_scan"}, "fusion_lon": 0.0, "lat": 38.90019083333333, "bike_id": "c92eb6f67e3cc5fc612bbcf000912c51", "type": "electric_scooter", "is_reserved": 0, "lon": -76.98816016666666}, {"fusion_lat": 0.0, "name": "b1ea3c83fb4723b74cdcba99be9252df", "is_disabled": 0, "rental_uris": {"android": "https://dc.lft.to/lastmile_qr_scan", "ios": "https://dc.lft.to/lastmile_qr_scan"}, "fusion_lon": 0.0, "lat": 38.927576, "bike_id": "b1ea3c83fb4723b74cdcba99be9252df", "type": "electric_scooter", "is_reserved": 0, "lon": -77.0327835}, {"fusion_lat": 0.0, "name": "63cbcddf417305d5e7326b966abd5dd5", "is_disabled": 0, "rental_uris": {"android": "https://dc.lft.to/lastmile_qr_scan", "ios": "https://dc.lft.to/lastmile_qr_scan"}, "fusion_lon": 0.0, "lat": 38.88460883333333, "bike_id": "63cbcddf417305d5e7326b966abd5dd5", "type": "electric_scooter", "is_reserved": 0, "lon": -77.02790266666666}, {"fusion_lat": 0.0, "name": "a1471a721907dc1c9c64cc9641eb7e15", "is_disabled": 0, "rental_uris": {"android": "https://dc.lft.to/lastmile_qr_scan", "ios": "https://dc.lft.to/lastmile_qr_scan"}, "fusion_lon": 0.0, "lat": 38.89878516666667, "bike_id": "a1471a721907dc1c9c64cc9641eb7e15", "type": "electric_scooter", "is_reserved": 0, "lon": -76.93187883333333}, {"fusion_lat": 0.0, "name": "11936457be6bfa33c86857b0884ef3ea", "is_disabled": 0, "rental_uris": {"android": "https://dc.lft.to/lastmile_qr_scan", "ios": "https://dc.lft.to/lastmile_qr_scan"}, "fusion_lon": 0.0, "lat": 38.90444733333333, "bike_id": "11936457be6bfa33c86857b0884ef3ea", "type": "electric_scooter", "is_reserved": 0, "lon": -77.02599183333334}, {"fusion_lat": 0.0, "name": "2c84513ef75e353033a0f58e870c331a", "is_disabled": 0, "rental_uris": {"android": "https://dc.lft.to/lastmile_qr_scan", "ios": "https://dc.lft.to/lastmile_qr_scan"}, "fusion_lon": 0.0, "lat": 38.929680833333336, "bike_id": "2c84513ef75e353033a0f58e870c331a", "type": "electric_scooter", "is_reserved": 0, "lon": -77.027911}, {"fusion_lat": 0.0, "name": "20f74f8ac2c90a35253e97d3b12ad74d", "is_disabled": 0, "rental_uris": {"android": "https://dc.lft.to/lastmile_qr_scan", "ios": "https://dc.lft.to/lastmile_qr_scan"}, "fusion_lon": 0.0, "lat": 38.8978655, "bike_id": "20f74f8ac2c90a35253e97d3b12ad74d", "type": "electric_scooter", "is_reserved": 0, "lon": -77.02188866666667}, {"fusion_lat": 0.0, "name": "fb7399c9115effb0ca15141c6ae30f9a", "is_disabled": 0, "rental_uris": {"android": "https://dc.lft.to/lastmile_qr_scan", "ios": "https://dc.lft.to/lastmile_qr_scan"}, "fusion_lon": 0.0, "lat": 38.90199883333333, "bike_id": "fb7399c9115effb0ca15141c6ae30f9a", "type": "electric_scooter", "is_reserved": 0, "lon": -77.02370416666666}, {"fusion_lat": 0.0, "name": "5fd6b869023c978e8c4ac503e11017c8", "is_disabled": 0, "rental_uris": {"android": "https://dc.lft.to/lastmile_qr_scan", "ios": "https://dc.lft.to/lastmile_qr_scan"}, "fusion_lon": 0.0, "lat": 38.89852583333333, "bike_id": "5fd6b869023c978e8c4ac503e11017c8", "type": "electric_bike", "is_reserved": 0, "lon": -76.93192483333333}, {"fusion_lat": 0.0, "name": "b0df7929d46e295454ed5720bb2abe9c", "is_disabled": 0, "rental_uris": {"android": "https://dc.lft.to/lastmile_qr_scan", "ios": "https://dc.lft.to/lastmile_qr_scan"}, "fusion_lon": 0.0, "lat": 38.940934166666665, "bike_id": "b0df7929d46e295454ed5720bb2abe9c", "type": "electric_scooter", "is_reserved": 0, "lon": -77.06187516666667}, {"fusion_lat": 0.0, "name": "f2776b5b73ece46bb536759f92947905", "is_disabled": 0, "rental_uris": {"android": "https://dc.lft.to/lastmile_qr_scan", "ios": "https://dc.lft.to/lastmile_qr_scan"}, "fusion_lon": 0.0, "lat": 38.909714666666666, "bike_id": "f2776b5b73ece46bb536759f92947905", "type": "electric_scooter", "is_reserved": 0, "lon": -77.02078016666667}, {"fusion_lat": 0.0, "name": "c590a812b66a30d3af5d20950110e4cb", "is_disabled": 0, "rental_uris": {"android": "https://dc.lft.to/lastmile_qr_scan", "ios": "https://dc.lft.to/lastmile_qr_scan"}, "fusion_lon": 0.0, "lat": 38.898303166666665, "bike_id": "c590a812b66a30d3af5d20950110e4cb", "type": "electric_scooter", "is_reserved": 0, "lon": -77.02631083333333}, {"fusion_lat": 0.0, "name": "06e0f1cb1c849eebc2b817549dccceca", "is_disabled": 0, "rental_uris": {"android": "https://dc.lft.to/lastmile_qr_scan", "ios": "https://dc.lft.to/lastmile_qr_scan"}, "fusion_lon": 0.0, "lat": 38.857726166666666, "bike_id": "06e0f1cb1c849eebc2b817549dccceca", "type": "electric_bike", "is_reserved": 0, "lon": -76.987662}, {"fusion_lat": 0.0, "name": "740c26a2215092fb988b4d684c469c80", "is_disabled": 0, "rental_uris": {"android": "https://dc.lft.to/lastmile_qr_scan", "ios": "https://dc.lft.to/lastmile_qr_scan"}, "fusion_lon": 0.0, "lat": 38.883864333333335, "bike_id": "740c26a2215092fb988b4d684c469c80", "type": "electric_scooter", "is_reserved": 0, "lon": -76.9304635}, {"fusion_lat": 0.0, "name": "11288ddc579252bbd62040fe806e0c38", "is_disabled": 0, "rental_uris": {"android": "https://dc.lft.to/lastmile_qr_scan", "ios": "https://dc.lft.to/lastmile_qr_scan"}, "fusion_lon": 0.0, "lat": 38.897280333333335, "bike_id": "11288ddc579252bbd62040fe806e0c38", "type": "electric_scooter", "is_reserved": 0, "lon": -77.05521683333333}, {"fusion_lat": 0.0, "name": "e1cbd208683ab8d5c4a9c9df671e4c23", "is_disabled": 0, "rental_uris": {"android": "https://dc.lft.to/lastmile_qr_scan", "ios": "https://dc.lft.to/lastmile_qr_scan"}, "fusion_lon": 0.0, "lat": 38.905501, "bike_id": "e1cbd208683ab8d5c4a9c9df671e4c23", "type": "electric_scooter", "is_reserved": 0, "lon": -76.98338216666667}, {"fusion_lat": 0.0, "name": "172c33ddfcba52a2d2f1deb4e1bfe416", "is_disabled": 0, "rental_uris": {"android": "https://dc.lft.to/lastmile_qr_scan", "ios": "https://dc.lft.to/lastmile_qr_scan"}, "fusion_lon": 0.0, "lat": 38.93388516666667, "bike_id": "172c33ddfcba52a2d2f1deb4e1bfe416", "type": "electric_scooter", "is_reserved": 0, "lon": -77.0388895}, {"fusion_lat": 0.0, "name": "0fa20715587bf65e6c7dece242a4e861", "is_disabled": 0, "rental_uris": {"android": "https://dc.lft.to/lastmile_qr_scan", "ios": "https://dc.lft.to/lastmile_qr_scan"}, "fusion_lon": 0.0, "lat": 38.972854, "bike_id": "0fa20715587bf65e6c7dece242a4e861", "type": "electric_scooter", "is_reserved": 0, "lon": -77.01159433333333}, {"fusion_lat": 0.0, "name": "14cb0923ebd9fcdee853201d5663576a", "is_disabled": 0, "rental_uris": {"android": "https://dc.lft.to/lastmile_qr_scan", "ios": "https://dc.lft.to/lastmile_qr_scan"}, "fusion_lon": 0.0, "lat": 38.854507166666664, "bike_id": "14cb0923ebd9fcdee853201d5663576a", "type": "electric_scooter", "is_reserved": 0, "lon": -76.98574366666666}, {"fusion_lat": 0.0, "name": "8f9337d31853e344b4321a838631b9c5", "is_disabled": 0, "rental_uris": {"android": "https://dc.lft.to/lastmile_qr_scan", "ios": "https://dc.lft.to/lastmile_qr_scan"}, "fusion_lon": 0.0, "lat": 38.898856333333335, "bike_id": "8f9337d31853e344b4321a838631b9c5", "type": "electric_scooter", "is_reserved": 0, "lon": -77.0331835}, {"fusion_lat": 0.0, "name": "f06181e6e6197dfa396ab0ccb05ed8d5", "is_disabled": 0, "rental_uris": {"android": "https://dc.lft.to/lastmile_qr_scan", "ios": "https://dc.lft.to/lastmile_qr_scan"}, "fusion_lon": 0.0, "lat": 38.920676666666665, "bike_id": "f06181e6e6197dfa396ab0ccb05ed8d5", "type": "electric_scooter", "is_reserved": 0, "lon": -77.01469}, {"fusion_lat": 0.0, "name": "fb7f6d83890b89069510e50ec8adce03", "is_disabled": 0, "rental_uris": {"android": "https://dc.lft.to/lastmile_qr_scan", "ios": "https://dc.lft.to/lastmile_qr_scan"}, "fusion_lon": 0.0, "lat": 38.913423, "bike_id": "fb7f6d83890b89069510e50ec8adce03", "type": "electric_scooter", "is_reserved": 0, "lon": -77.03196666666666}, {"fusion_lat": 0.0, "name": "8b2e8376ef615af50c2e5b4149cf6170", "is_disabled": 0, "rental_uris": {"android": "https://dc.lft.to/lastmile_qr_scan", "ios": "https://dc.lft.to/lastmile_qr_scan"}, "fusion_lon": 0.0, "lat": 38.9618565, "bike_id": "8b2e8376ef615af50c2e5b4149cf6170", "type": "electric_bike", "is_reserved": 0, "lon": -77.05265466666667}, {"fusion_lat": 0.0, "name": "2135bf40aa24f7bb98f6ae1481f666c1", "is_disabled": 0, "rental_uris": {"android": "https://dc.lft.to/lastmile_qr_scan", "ios": "https://dc.lft.to/lastmile_qr_scan"}, "fusion_lon": 0.0, "lat": 38.915546666666664, "bike_id": "2135bf40aa24f7bb98f6ae1481f666c1", "type": "electric_scooter", "is_reserved": 0, "lon": -77.03856616666667}, {"fusion_lat": 0.0, "name": "a55df5d1e1bc0e6258d7ae23e7244d6c", "is_disabled": 0, "rental_uris": {"android": "https://dc.lft.to/lastmile_qr_scan", "ios": "https://dc.lft.to/lastmile_qr_scan"}, "fusion_lon": 0.0, "lat": 38.920500833333335, "bike_id": "a55df5d1e1bc0e6258d7ae23e7244d6c", "type": "electric_scooter", "is_reserved": 0, "lon": -77.01806883333333}, {"fusion_lat": 0.0, "name": "823f26c8837a3ddf78a605a631fa5416", "is_disabled": 0, "rental_uris": {"android": "https://dc.lft.to/lastmile_qr_scan", "ios": "https://dc.lft.to/lastmile_qr_scan"}, "fusion_lon": 0.0, "lat": 38.891235333333334, "bike_id": "823f26c8837a3ddf78a605a631fa5416", "type": "electric_scooter", "is_reserved": 0, "lon": -76.94385083333333}, {"fusion_lat": 0.0, "name": "049e0468b49388ca3ae98b7b2bb73432", "is_disabled": 0, "rental_uris": {"android": "https://dc.lft.to/lastmile_qr_scan", "ios": "https://dc.lft.to/lastmile_qr_scan"}, "fusion_lon": 0.0, "lat": 38.897218333333335, "bike_id": "049e0468b49388ca3ae98b7b2bb73432", "type": "electric_scooter", "is_reserved": 0, "lon": -77.01308083333333}, {"fusion_lat": 0.0, "name": "27af63ca929660b6d50ca346d0f18dce", "is_disabled": 0, "rental_uris": {"android": "https://dc.lft.to/lastmile_qr_scan", "ios": "https://dc.lft.to/lastmile_qr_scan"}, "fusion_lon": 0.0, "lat": 38.90002, "bike_id": "27af63ca929660b6d50ca346d0f18dce", "type": "electric_scooter", "is_reserved": 0, "lon": -77.01201733333333}, {"fusion_lat": 0.0, "name": "79e92177a48dd5fe5daa96e00db90533", "is_disabled": 0, "rental_uris": {"android": "https://dc.lft.to/lastmile_qr_scan", "ios": "https://dc.lft.to/lastmile_qr_scan"}, "fusion_lon": 0.0, "lat": 38.902678, "bike_id": "79e92177a48dd5fe5daa96e00db90533", "type": "electric_scooter", "is_reserved": 0, "lon": -77.0531335}, {"fusion_lat": 0.0, "name": "44e5a1ca2edd402a5a9cca4a9e5fe91f", "is_disabled": 0, "rental_uris": {"android": "https://dc.lft.to/lastmile_qr_scan", "ios": "https://dc.lft.to/lastmile_qr_scan"}, "fusion_lon": 0.0, "lat": 38.907850833333335, "bike_id": "44e5a1ca2edd402a5a9cca4a9e5fe91f", "type": "electric_scooter", "is_reserved": 0, "lon": -77.038621}, {"fusion_lat": 0.0, "name": "de98d227b23a108956de88c5b86df87d", "is_disabled": 0, "rental_uris": {"android": "https://dc.lft.to/lastmile_qr_scan", "ios": "https://dc.lft.to/lastmile_qr_scan"}, "fusion_lon": 0.0, "lat": 38.7827305, "bike_id": "de98d227b23a108956de88c5b86df87d", "type": "electric_bike", "is_reserved": 0, "lon": -77.01588716666667}, {"fusion_lat": 0.0, "name": "49b8746a8a3774ad41b2198f75fe302b", "is_disabled": 0, "rental_uris": {"android": "https://dc.lft.to/lastmile_qr_scan", "ios": "https://dc.lft.to/lastmile_qr_scan"}, "fusion_lon": 0.0, "lat": 38.912669, "bike_id": "49b8746a8a3774ad41b2198f75fe302b", "type": "electric_scooter", "is_reserved": 0, "lon": -77.03866116666667}, {"fusion_lat": 0.0, "name": "d07a73da1ff8696e941f3f7211407272", "is_disabled": 0, "rental_uris": {"android": "https://dc.lft.to/lastmile_qr_scan", "ios": "https://dc.lft.to/lastmile_qr_scan"}, "fusion_lon": 0.0, "lat": 38.9268665, "bike_id": "d07a73da1ff8696e941f3f7211407272", "type": "electric_scooter", "is_reserved": 0, "lon": -77.02790316666666}, {"fusion_lat": 0.0, "name": "356831dd6eb7272b3179db4de0e51e75", "is_disabled": 0, "rental_uris": {"android": "https://dc.lft.to/lastmile_qr_scan", "ios": "https://dc.lft.to/lastmile_qr_scan"}, "fusion_lon": 0.0, "lat": 38.92436133333333, "bike_id": "356831dd6eb7272b3179db4de0e51e75", "type": "electric_scooter", "is_reserved": 0, "lon": -77.0445875}, {"fusion_lat": 0.0, "name": "7ca03578b839f2057f202a99cfb54687", "is_disabled": 0, "rental_uris": {"android": "https://dc.lft.to/lastmile_qr_scan", "ios": "https://dc.lft.to/lastmile_qr_scan"}, "fusion_lon": 0.0, "lat": 38.905026, "bike_id": "7ca03578b839f2057f202a99cfb54687", "type": "electric_scooter", "is_reserved": 0, "lon": -77.0315035}, {"fusion_lat": 0.0, "name": "1cfaca67f6bb4a557a7b4c615dd693a2", "is_disabled": 0, "rental_uris": {"android": "https://dc.lft.to/lastmile_qr_scan", "ios": "https://dc.lft.to/lastmile_qr_scan"}, "fusion_lon": 0.0, "lat": 38.9232695, "bike_id": "1cfaca67f6bb4a557a7b4c615dd693a2", "type": "electric_scooter", "is_reserved": 0, "lon": -77.04132216666666}, {"fusion_lat": 0.0, "name": "662c43fdfd3d7420d7560c3e4981d569", "is_disabled": 0, "rental_uris": {"android": "https://dc.lft.to/lastmile_qr_scan", "ios": "https://dc.lft.to/lastmile_qr_scan"}, "fusion_lon": 0.0, "lat": 38.917135333333334, "bike_id": "662c43fdfd3d7420d7560c3e4981d569", "type": "electric_scooter", "is_reserved": 0, "lon": -77.03872466666667}, {"fusion_lat": 0.0, "name": "0d953fb5ba6f90f5c6cb5c2d029f0a4a", "is_disabled": 0, "rental_uris": {"android": "https://dc.lft.to/lastmile_qr_scan", "ios": "https://dc.lft.to/lastmile_qr_scan"}, "fusion_lon": 0.0, "lat": 38.961174166666666, "bike_id": "0d953fb5ba6f90f5c6cb5c2d029f0a4a", "type": "electric_bike", "is_reserved": 0, "lon": -77.03265966666666}, {"fusion_lat": 0.0, "name": "17624806cd3f4e2ed50ede2c74046729", "is_disabled": 0, "rental_uris": {"android": "https://dc.lft.to/lastmile_qr_scan", "ios": "https://dc.lft.to/lastmile_qr_scan"}, "fusion_lon": 0.0, "lat": 38.927440833333335, "bike_id": "17624806cd3f4e2ed50ede2c74046729", "type": "electric_bike", "is_reserved": 0, "lon": -76.99363816666667}, {"fusion_lat": 0.0, "name": "24458288090ef73c4898a8c79d98c101", "is_disabled": 0, "rental_uris": {"android": "https://dc.lft.to/lastmile_qr_scan", "ios": "https://dc.lft.to/lastmile_qr_scan"}, "fusion_lon": 0.0, "lat": 38.90982483333333, "bike_id": "24458288090ef73c4898a8c79d98c101", "type": "electric_scooter", "is_reserved": 0, "lon": -77.031986}, {"fusion_lat": 0.0, "name": "3038d05fb0989ed3b036bfab5a0cd0c0", "is_disabled": 0, "rental_uris": {"android": "https://dc.lft.to/lastmile_qr_scan", "ios": "https://dc.lft.to/lastmile_qr_scan"}, "fusion_lon": 0.0, "lat": 38.9280695, "bike_id": "3038d05fb0989ed3b036bfab5a0cd0c0", "type": "electric_scooter", "is_reserved": 0, "lon": -77.0435915}, {"fusion_lat": 0.0, "name": "dc89e67ce3845d1f3bdb51261f093b12", "is_disabled": 0, "rental_uris": {"android": "https://dc.lft.to/lastmile_qr_scan", "ios": "https://dc.lft.to/lastmile_qr_scan"}, "fusion_lon": 0.0, "lat": 38.913402, "bike_id": "dc89e67ce3845d1f3bdb51261f093b12", "type": "electric_scooter", "is_reserved": 0, "lon": -77.04276433333334}, {"fusion_lat": 0.0, "name": "9f6e8bdb4a7861f7e262e0baeb8c8470", "is_disabled": 0, "rental_uris": {"android": "https://dc.lft.to/lastmile_qr_scan", "ios": "https://dc.lft.to/lastmile_qr_scan"}, "fusion_lon": 0.0, "lat": 38.916889833333336, "bike_id": "9f6e8bdb4a7861f7e262e0baeb8c8470", "type": "electric_scooter", "is_reserved": 0, "lon": -77.029567}, {"fusion_lat": 0.0, "name": "72391d1417f2631ecb650dd1fa0abad3", "is_disabled": 0, "rental_uris": {"android": "https://dc.lft.to/lastmile_qr_scan", "ios": "https://dc.lft.to/lastmile_qr_scan"}, "fusion_lon": 0.0, "lat": 38.90855066666666, "bike_id": "72391d1417f2631ecb650dd1fa0abad3", "type": "electric_scooter", "is_reserved": 0, "lon": -76.99768866666666}, {"fusion_lat": 0.0, "name": "834d6974a27af12e2123e95b593aa295", "is_disabled": 0, "rental_uris": {"android": "https://dc.lft.to/lastmile_qr_scan", "ios": "https://dc.lft.to/lastmile_qr_scan"}, "fusion_lon": 0.0, "lat": 38.9015155, "bike_id": "834d6974a27af12e2123e95b593aa295", "type": "electric_scooter", "is_reserved": 0, "lon": -76.93067633333334}, {"fusion_lat": 0.0, "name": "b387d5b223289a3dcc361b273c36f0ba", "is_disabled": 0, "rental_uris": {"android": "https://dc.lft.to/lastmile_qr_scan", "ios": "https://dc.lft.to/lastmile_qr_scan"}, "fusion_lon": 0.0, "lat": 38.9223785, "bike_id": "b387d5b223289a3dcc361b273c36f0ba", "type": "electric_scooter", "is_reserved": 0, "lon": -77.04245316666666}, {"fusion_lat": 0.0, "name": "87e72d7500f3b568162155e859d20c6c", "is_disabled": 0, "rental_uris": {"android": "https://dc.lft.to/lastmile_qr_scan", "ios": "https://dc.lft.to/lastmile_qr_scan"}, "fusion_lon": 0.0, "lat": 38.90682616666667, "bike_id": "87e72d7500f3b568162155e859d20c6c", "type": "electric_bike", "is_reserved": 0, "lon": -76.94491533333333}, {"fusion_lat": 0.0, "name": "f2692fcb50913e993a5cc0038a821a32", "is_disabled": 0, "rental_uris": {"android": "https://dc.lft.to/lastmile_qr_scan", "ios": "https://dc.lft.to/lastmile_qr_scan"}, "fusion_lon": 0.0, "lat": 38.905528333333336, "bike_id": "f2692fcb50913e993a5cc0038a821a32", "type": "electric_scooter", "is_reserved": 0, "lon": -77.04655933333333}, {"fusion_lat": 0.0, "name": "1e905b73f8292d3bc53449964e7be0d1", "is_disabled": 0, "rental_uris": {"android": "https://dc.lft.to/lastmile_qr_scan", "ios": "https://dc.lft.to/lastmile_qr_scan"}, "fusion_lon": 0.0, "lat": 38.9030655, "bike_id": "1e905b73f8292d3bc53449964e7be0d1", "type": "electric_scooter", "is_reserved": 0, "lon": -76.9764985}, {"fusion_lat": 0.0, "name": "21dc579abbf0d14e249ccbb82bd37041", "is_disabled": 0, "rental_uris": {"android": "https://dc.lft.to/lastmile_qr_scan", "ios": "https://dc.lft.to/lastmile_qr_scan"}, "fusion_lon": 0.0, "lat": 38.934372833333335, "bike_id": "21dc579abbf0d14e249ccbb82bd37041", "type": "electric_scooter", "is_reserved": 0, "lon": -77.02397133333334}, {"fusion_lat": 0.0, "name": "3579e8e6292d198b3a0cfc517eb06089", "is_disabled": 0, "rental_uris": {"android": "https://dc.lft.to/lastmile_qr_scan", "ios": "https://dc.lft.to/lastmile_qr_scan"}, "fusion_lon": 0.0, "lat": 38.92105633333333, "bike_id": "3579e8e6292d198b3a0cfc517eb06089", "type": "electric_scooter", "is_reserved": 0, "lon": -77.03174383333334}, {"fusion_lat": 0.0, "name": "f4bd7923762e1b6af89cfe92073731a4", "is_disabled": 0, "rental_uris": {"android": "https://dc.lft.to/lastmile_qr_scan", "ios": "https://dc.lft.to/lastmile_qr_scan"}, "fusion_lon": 0.0, "lat": 38.923616833333334, "bike_id": "f4bd7923762e1b6af89cfe92073731a4", "type": "electric_scooter", "is_reserved": 0, "lon": -77.050277}, {"fusion_lat": 0.0, "name": "91419ca109ef111b95c048d5d9429615", "is_disabled": 0, "rental_uris": {"android": "https://dc.lft.to/lastmile_qr_scan", "ios": "https://dc.lft.to/lastmile_qr_scan"}, "fusion_lon": 0.0, "lat": 38.91741916666667, "bike_id": "91419ca109ef111b95c048d5d9429615", "type": "electric_scooter", "is_reserved": 0, "lon": -77.03184583333334}, {"fusion_lat": 0.0, "name": "78f160b9ec4f4a98197fb310d5085d37", "is_disabled": 0, "rental_uris": {"android": "https://dc.lft.to/lastmile_qr_scan", "ios": "https://dc.lft.to/lastmile_qr_scan"}, "fusion_lon": 0.0, "lat": 38.918032833333335, "bike_id": "78f160b9ec4f4a98197fb310d5085d37", "type": "electric_scooter", "is_reserved": 0, "lon": -77.0343265}, {"fusion_lat": 0.0, "name": "fb4e4617121e3b1ab4d89de2d2558efe", "is_disabled": 0, "rental_uris": {"android": "https://dc.lft.to/lastmile_qr_scan", "ios": "https://dc.lft.to/lastmile_qr_scan"}, "fusion_lon": 0.0, "lat": 38.905768, "bike_id": "fb4e4617121e3b1ab4d89de2d2558efe", "type": "electric_scooter", "is_reserved": 0, "lon": -77.02205183333334}, {"fusion_lat": 0.0, "name": "8e2052349080b6417727674a9aa9f309", "is_disabled": 0, "rental_uris": {"android": "https://dc.lft.to/lastmile_qr_scan", "ios": "https://dc.lft.to/lastmile_qr_scan"}, "fusion_lon": 0.0, "lat": 38.919883666666664, "bike_id": "8e2052349080b6417727674a9aa9f309", "type": "electric_scooter", "is_reserved": 0, "lon": -77.02394733333334}, {"fusion_lat": 0.0, "name": "53de94e85831d208338fa7e2cff62ac6", "is_disabled": 0, "rental_uris": {"android": "https://dc.lft.to/lastmile_qr_scan", "ios": "https://dc.lft.to/lastmile_qr_scan"}, "fusion_lon": 0.0, "lat": 38.884790833333334, "bike_id": "53de94e85831d208338fa7e2cff62ac6", "type": "electric_scooter", "is_reserved": 0, "lon": -77.02366383333333}, {"fusion_lat": 0.0, "name": "1c41abb5d7c987b52d1378ecf087a79e", "is_disabled": 0, "rental_uris": {"android": "https://dc.lft.to/lastmile_qr_scan", "ios": "https://dc.lft.to/lastmile_qr_scan"}, "fusion_lon": 0.0, "lat": 38.99445683333333, "bike_id": "1c41abb5d7c987b52d1378ecf087a79e", "type": "electric_bike", "is_reserved": 0, "lon": -76.99585116666667}, {"fusion_lat": 0.0, "name": "c1c2584ef6c1e6226ca7b4aa23de76e5", "is_disabled": 0, "rental_uris": {"android": "https://dc.lft.to/lastmile_qr_scan", "ios": "https://dc.lft.to/lastmile_qr_scan"}, "fusion_lon": 0.0, "lat": 38.937126666666664, "bike_id": "c1c2584ef6c1e6226ca7b4aa23de76e5", "type": "electric_scooter", "is_reserved": 0, "lon": -77.02437016666667}, {"fusion_lat": 0.0, "name": "5502cfa62a0bce699d0f3158cb6bd0cc", "is_disabled": 0, "rental_uris": {"android": "https://dc.lft.to/lastmile_qr_scan", "ios": "https://dc.lft.to/lastmile_qr_scan"}, "fusion_lon": 0.0, "lat": 38.937058666666665, "bike_id": "5502cfa62a0bce699d0f3158cb6bd0cc", "type": "electric_scooter", "is_reserved": 0, "lon": -77.06099666666667}, {"fusion_lat": 0.0, "name": "a4f1f8c0424b41471aa3bb17ea11024c", "is_disabled": 0, "rental_uris": {"android": "https://dc.lft.to/lastmile_qr_scan", "ios": "https://dc.lft.to/lastmile_qr_scan"}, "fusion_lon": 0.0, "lat": 38.905923, "bike_id": "a4f1f8c0424b41471aa3bb17ea11024c", "type": "electric_scooter", "is_reserved": 0, "lon": -77.043594}, {"fusion_lat": 0.0, "name": "0a5fcdd0781bcb6914441a4e78e81e1c", "is_disabled": 0, "rental_uris": {"android": "https://dc.lft.to/lastmile_qr_scan", "ios": "https://dc.lft.to/lastmile_qr_scan"}, "fusion_lon": 0.0, "lat": 38.8762735, "bike_id": "0a5fcdd0781bcb6914441a4e78e81e1c", "type": "electric_scooter", "is_reserved": 0, "lon": -77.00834833333333}, {"fusion_lat": 0.0, "name": "57329128d03dd26e01d4c9608f5a76b4", "is_disabled": 0, "rental_uris": {"android": "https://dc.lft.to/lastmile_qr_scan", "ios": "https://dc.lft.to/lastmile_qr_scan"}, "fusion_lon": 0.0, "lat": 38.9191625, "bike_id": "57329128d03dd26e01d4c9608f5a76b4", "type": "electric_scooter", "is_reserved": 0, "lon": -77.02401933333333}, {"fusion_lat": 0.0, "name": "24ff334f2ea2083ed15604a40b867291", "is_disabled": 0, "rental_uris": {"android": "https://dc.lft.to/lastmile_qr_scan", "ios": "https://dc.lft.to/lastmile_qr_scan"}, "fusion_lon": 0.0, "lat": 38.900941, "bike_id": "24ff334f2ea2083ed15604a40b867291", "type": "electric_scooter", "is_reserved": 0, "lon": -77.020116}, {"fusion_lat": 0.0, "name": "ac91dba2510b64338f576413dd86b8c7", "is_disabled": 0, "rental_uris": {"android": "https://dc.lft.to/lastmile_qr_scan", "ios": "https://dc.lft.to/lastmile_qr_scan"}, "fusion_lon": 0.0, "lat": 38.92119, "bike_id": "ac91dba2510b64338f576413dd86b8c7", "type": "electric_scooter", "is_reserved": 0, "lon": -77.0120865}, {"fusion_lat": 0.0, "name": "040a72f34e5db0f671d93743b5a201d0", "is_disabled": 0, "rental_uris": {"android": "https://dc.lft.to/lastmile_qr_scan", "ios": "https://dc.lft.to/lastmile_qr_scan"}, "fusion_lon": 0.0, "lat": 38.91569833333333, "bike_id": "040a72f34e5db0f671d93743b5a201d0", "type": "electric_scooter", "is_reserved": 0, "lon": -77.0363955}, {"fusion_lat": 0.0, "name": "f72869b05f1bc4699c7b014bb42a5013", "is_disabled": 0, "rental_uris": {"android": "https://dc.lft.to/lastmile_qr_scan", "ios": "https://dc.lft.to/lastmile_qr_scan"}, "fusion_lon": 0.0, "lat": 38.919177833333336, "bike_id": "f72869b05f1bc4699c7b014bb42a5013", "type": "electric_scooter", "is_reserved": 0, "lon": -77.01210066666667}, {"fusion_lat": 0.0, "name": "a04b18a6d3b6c9bc991073a0332cb1b9", "is_disabled": 0, "rental_uris": {"android": "https://dc.lft.to/lastmile_qr_scan", "ios": "https://dc.lft.to/lastmile_qr_scan"}, "fusion_lon": 0.0, "lat": 38.94533, "bike_id": "a04b18a6d3b6c9bc991073a0332cb1b9", "type": "electric_scooter", "is_reserved": 0, "lon": -77.020903}, {"fusion_lat": 0.0, "name": "9d62f1d83bdd041dc1600212c9aaf408", "is_disabled": 0, "rental_uris": {"android": "https://dc.lft.to/lastmile_qr_scan", "ios": "https://dc.lft.to/lastmile_qr_scan"}, "fusion_lon": 0.0, "lat": 38.92335116666667, "bike_id": "9d62f1d83bdd041dc1600212c9aaf408", "type": "electric_scooter", "is_reserved": 0, "lon": -77.05348933333333}, {"fusion_lat": 0.0, "name": "8b1fda257b979bc45ea26a388ae00ab2", "is_disabled": 0, "rental_uris": {"android": "https://dc.lft.to/lastmile_qr_scan", "ios": "https://dc.lft.to/lastmile_qr_scan"}, "fusion_lon": 0.0, "lat": 39.0030925, "bike_id": "8b1fda257b979bc45ea26a388ae00ab2", "type": "electric_bike", "is_reserved": 0, "lon": -76.903306}, {"fusion_lat": 0.0, "name": "7b904938841b7f43c1f7e9cb5a6c033b", "is_disabled": 0, "rental_uris": {"android": "https://dc.lft.to/lastmile_qr_scan", "ios": "https://dc.lft.to/lastmile_qr_scan"}, "fusion_lon": 0.0, "lat": 38.91812433333333, "bike_id": "7b904938841b7f43c1f7e9cb5a6c033b", "type": "electric_scooter", "is_reserved": 0, "lon": -77.02473933333333}, {"fusion_lat": 0.0, "name": "cd32f3431556253e4d3a3ef9782fb450", "is_disabled": 0, "rental_uris": {"android": "https://dc.lft.to/lastmile_qr_scan", "ios": "https://dc.lft.to/lastmile_qr_scan"}, "fusion_lon": 0.0, "lat": 38.9024665, "bike_id": "cd32f3431556253e4d3a3ef9782fb450", "type": "electric_scooter", "is_reserved": 0, "lon": -77.0277965}, {"fusion_lat": 0.0, "name": "823ec9989be2c7c6496121d16c186027", "is_disabled": 0, "rental_uris": {"android": "https://dc.lft.to/lastmile_qr_scan", "ios": "https://dc.lft.to/lastmile_qr_scan"}, "fusion_lon": 0.0, "lat": 38.91105316666667, "bike_id": "823ec9989be2c7c6496121d16c186027", "type": "electric_scooter", "is_reserved": 0, "lon": -77.03840666666666}, {"fusion_lat": 0.0, "name": "119ec26df915594debdb4b083deff62c", "is_disabled": 0, "rental_uris": {"android": "https://dc.lft.to/lastmile_qr_scan", "ios": "https://dc.lft.to/lastmile_qr_scan"}, "fusion_lon": 0.0, "lat": 38.88884183333333, "bike_id": "119ec26df915594debdb4b083deff62c", "type": "electric_scooter", "is_reserved": 0, "lon": -77.0284215}, {"fusion_lat": 0.0, "name": "ad1b0db744229274e339331a6dd5d72e", "is_disabled": 0, "rental_uris": {"android": "https://dc.lft.to/lastmile_qr_scan", "ios": "https://dc.lft.to/lastmile_qr_scan"}, "fusion_lon": 0.0, "lat": 38.91259216666667, "bike_id": "ad1b0db744229274e339331a6dd5d72e", "type": "electric_scooter", "is_reserved": 0, "lon": -77.03802233333333}, {"fusion_lat": 0.0, "name": "20c454078b487df19f425b4f27eaa8b3", "is_disabled": 0, "rental_uris": {"android": "https://dc.lft.to/lastmile_qr_scan", "ios": "https://dc.lft.to/lastmile_qr_scan"}, "fusion_lon": 0.0, "lat": 38.923258833333335, "bike_id": "20c454078b487df19f425b4f27eaa8b3", "type": "electric_scooter", "is_reserved": 0, "lon": -77.046238}, {"fusion_lat": 0.0, "name": "5c60f30ad0acd17ac7dedacccd3d4925", "is_disabled": 0, "rental_uris": {"android": "https://dc.lft.to/lastmile_qr_scan", "ios": "https://dc.lft.to/lastmile_qr_scan"}, "fusion_lon": 0.0, "lat": 38.914143833333334, "bike_id": "5c60f30ad0acd17ac7dedacccd3d4925", "type": "electric_scooter", "is_reserved": 0, "lon": -77.03934816666667}, {"fusion_lat": 0.0, "name": "135478d23847cb43f5a9378bdd6b23cb", "is_disabled": 0, "rental_uris": {"android": "https://dc.lft.to/lastmile_qr_scan", "ios": "https://dc.lft.to/lastmile_qr_scan"}, "fusion_lon": 0.0, "lat": 38.8774045, "bike_id": "135478d23847cb43f5a9378bdd6b23cb", "type": "electric_scooter", "is_reserved": 0, "lon": -77.00357}, {"fusion_lat": 0.0, "name": "6c66717a1db68a52409bdd702348b083", "is_disabled": 0, "rental_uris": {"android": "https://dc.lft.to/lastmile_qr_scan", "ios": "https://dc.lft.to/lastmile_qr_scan"}, "fusion_lon": 0.0, "lat": 38.900794833333336, "bike_id": "6c66717a1db68a52409bdd702348b083", "type": "electric_scooter", "is_reserved": 0, "lon": -77.02198233333333}, {"fusion_lat": 0.0, "name": "2ed89315da3f0588c1dddc32d0632108", "is_disabled": 0, "rental_uris": {"android": "https://dc.lft.to/lastmile_qr_scan", "ios": "https://dc.lft.to/lastmile_qr_scan"}, "fusion_lon": 0.0, "lat": 38.8973675, "bike_id": "2ed89315da3f0588c1dddc32d0632108", "type": "electric_scooter", "is_reserved": 0, "lon": -76.9472365}, {"fusion_lat": 0.0, "name": "4768f852f25ab5cd06bd104781939570", "is_disabled": 0, "rental_uris": {"android": "https://dc.lft.to/lastmile_qr_scan", "ios": "https://dc.lft.to/lastmile_qr_scan"}, "fusion_lon": 0.0, "lat": 38.9026175, "bike_id": "4768f852f25ab5cd06bd104781939570", "type": "electric_scooter", "is_reserved": 0, "lon": -76.99615166666666}, {"fusion_lat": 0.0, "name": "50780777dee73d79bf8cb8a0005937a4", "is_disabled": 0, "rental_uris": {"android": "https://dc.lft.to/lastmile_qr_scan", "ios": "https://dc.lft.to/lastmile_qr_scan"}, "fusion_lon": 0.0, "lat": 38.90722433333333, "bike_id": "50780777dee73d79bf8cb8a0005937a4", "type": "electric_scooter", "is_reserved": 0, "lon": -77.02500483333333}, {"fusion_lat": 0.0, "name": "5d0e5a7ad56bb638435ee37328e7ad8a", "is_disabled": 0, "rental_uris": {"android": "https://dc.lft.to/lastmile_qr_scan", "ios": "https://dc.lft.to/lastmile_qr_scan"}, "fusion_lon": 0.0, "lat": 38.91967433333333, "bike_id": "5d0e5a7ad56bb638435ee37328e7ad8a", "type": "electric_scooter", "is_reserved": 0, "lon": -77.04151566666667}, {"fusion_lat": 0.0, "name": "192a51330da27009dad6c9479a2c4ff5", "is_disabled": 0, "rental_uris": {"android": "https://dc.lft.to/lastmile_qr_scan", "ios": "https://dc.lft.to/lastmile_qr_scan"}, "fusion_lon": 0.0, "lat": 38.874481333333335, "bike_id": "192a51330da27009dad6c9479a2c4ff5", "type": "electric_scooter", "is_reserved": 0, "lon": -77.018656}, {"fusion_lat": 0.0, "name": "437b097b33ee1fe734ad0b8cf3432e55", "is_disabled": 0, "rental_uris": {"android": "https://dc.lft.to/lastmile_qr_scan", "ios": "https://dc.lft.to/lastmile_qr_scan"}, "fusion_lon": 0.0, "lat": 38.9205755, "bike_id": "437b097b33ee1fe734ad0b8cf3432e55", "type": "electric_scooter", "is_reserved": 0, "lon": -77.04248666666666}, {"fusion_lat": 0.0, "name": "3babe6a1c00f6f2a20d578c2eff1644a", "is_disabled": 0, "rental_uris": {"android": "https://dc.lft.to/lastmile_qr_scan", "ios": "https://dc.lft.to/lastmile_qr_scan"}, "fusion_lon": 0.0, "lat": 38.91624316666667, "bike_id": "3babe6a1c00f6f2a20d578c2eff1644a", "type": "electric_scooter", "is_reserved": 0, "lon": -77.0034605}, {"fusion_lat": 0.0, "name": "68b492ec18f612e62a38a3492f3f65f4", "is_disabled": 0, "rental_uris": {"android": "https://dc.lft.to/lastmile_qr_scan", "ios": "https://dc.lft.to/lastmile_qr_scan"}, "fusion_lon": 0.0, "lat": 38.91080766666666, "bike_id": "68b492ec18f612e62a38a3492f3f65f4", "type": "electric_scooter", "is_reserved": 0, "lon": -77.06545266666667}, {"fusion_lat": 0.0, "name": "542cf4dbb73407335985b41ec6714e08", "is_disabled": 0, "rental_uris": {"android": "https://dc.lft.to/lastmile_qr_scan", "ios": "https://dc.lft.to/lastmile_qr_scan"}, "fusion_lon": 0.0, "lat": 38.92730516666666, "bike_id": "542cf4dbb73407335985b41ec6714e08", "type": "electric_scooter", "is_reserved": 0, "lon": -77.03166083333333}, {"fusion_lat": 0.0, "name": "5b116dac03a7dee793ffb0a7c67d953e", "is_disabled": 0, "rental_uris": {"android": "https://dc.lft.to/lastmile_qr_scan", "ios": "https://dc.lft.to/lastmile_qr_scan"}, "fusion_lon": 0.0, "lat": 38.91611866666667, "bike_id": "5b116dac03a7dee793ffb0a7c67d953e", "type": "electric_scooter", "is_reserved": 0, "lon": -77.0462325}, {"fusion_lat": 0.0, "name": "80a0be41717bd265a92473638188b91b", "is_disabled": 0, "rental_uris": {"android": "https://dc.lft.to/lastmile_qr_scan", "ios": "https://dc.lft.to/lastmile_qr_scan"}, "fusion_lon": 0.0, "lat": 38.94091, "bike_id": "80a0be41717bd265a92473638188b91b", "type": "electric_scooter", "is_reserved": 0, "lon": -77.02323633333333}, {"fusion_lat": 0.0, "name": "d32b8dafc0b2cb4866312a5fd54a8391", "is_disabled": 0, "rental_uris": {"android": "https://dc.lft.to/lastmile_qr_scan", "ios": "https://dc.lft.to/lastmile_qr_scan"}, "fusion_lon": 0.0, "lat": 38.922550333333334, "bike_id": "d32b8dafc0b2cb4866312a5fd54a8391", "type": "electric_scooter", "is_reserved": 0, "lon": -77.04252083333333}, {"fusion_lat": 0.0, "name": "ba5ac2eeadfd64f73cd26ba3d1b7785c", "is_disabled": 0, "rental_uris": {"android": "https://dc.lft.to/lastmile_qr_scan", "ios": "https://dc.lft.to/lastmile_qr_scan"}, "fusion_lon": 0.0, "lat": 38.9129565, "bike_id": "ba5ac2eeadfd64f73cd26ba3d1b7785c", "type": "electric_scooter", "is_reserved": 0, "lon": -77.04522916666667}, {"fusion_lat": 0.0, "name": "987452536f6f0b06ab932698edafe1fe", "is_disabled": 0, "rental_uris": {"android": "https://dc.lft.to/lastmile_qr_scan", "ios": "https://dc.lft.to/lastmile_qr_scan"}, "fusion_lon": 0.0, "lat": 38.897401, "bike_id": "987452536f6f0b06ab932698edafe1fe", "type": "electric_scooter", "is_reserved": 0, "lon": -77.02693266666667}, {"fusion_lat": 0.0, "name": "c5f05d49c52267ff1573c3238bf42a81", "is_disabled": 0, "rental_uris": {"android": "https://dc.lft.to/lastmile_qr_scan", "ios": "https://dc.lft.to/lastmile_qr_scan"}, "fusion_lon": 0.0, "lat": 38.8971925, "bike_id": "c5f05d49c52267ff1573c3238bf42a81", "type": "electric_scooter", "is_reserved": 0, "lon": -77.0482725}, {"fusion_lat": 0.0, "name": "21b1bf8d11d41fdc3ed1bb7b89318201", "is_disabled": 0, "rental_uris": {"android": "https://dc.lft.to/lastmile_qr_scan", "ios": "https://dc.lft.to/lastmile_qr_scan"}, "fusion_lon": 0.0, "lat": 38.87808716666667, "bike_id": "21b1bf8d11d41fdc3ed1bb7b89318201", "type": "electric_scooter", "is_reserved": 0, "lon": -77.01528383333333}, {"fusion_lat": 0.0, "name": "07de5f92fc092c703b35c3d5443290f1", "is_disabled": 0, "rental_uris": {"android": "https://dc.lft.to/lastmile_qr_scan", "ios": "https://dc.lft.to/lastmile_qr_scan"}, "fusion_lon": 0.0, "lat": 38.87135633333333, "bike_id": "07de5f92fc092c703b35c3d5443290f1", "type": "electric_scooter", "is_reserved": 0, "lon": -77.0122405}, {"fusion_lat": 0.0, "name": "3a9cb9b13670531e021c6a2e29fd08ff", "is_disabled": 0, "rental_uris": {"android": "https://dc.lft.to/lastmile_qr_scan", "ios": "https://dc.lft.to/lastmile_qr_scan"}, "fusion_lon": 0.0, "lat": 38.93576733333333, "bike_id": "3a9cb9b13670531e021c6a2e29fd08ff", "type": "electric_scooter", "is_reserved": 0, "lon": -77.0192495}, {"fusion_lat": 0.0, "name": "5e83c921c06d3b7be20dc4eaa5f1ef63", "is_disabled": 0, "rental_uris": {"android": "https://dc.lft.to/lastmile_qr_scan", "ios": "https://dc.lft.to/lastmile_qr_scan"}, "fusion_lon": 0.0, "lat": 38.9161765, "bike_id": "5e83c921c06d3b7be20dc4eaa5f1ef63", "type": "electric_scooter", "is_reserved": 0, "lon": -77.04598283333333}, {"fusion_lat": 0.0, "name": "013c4141214c92161467b171960e8046", "is_disabled": 0, "rental_uris": {"android": "https://dc.lft.to/lastmile_qr_scan", "ios": "https://dc.lft.to/lastmile_qr_scan"}, "fusion_lon": 0.0, "lat": 38.922526, "bike_id": "013c4141214c92161467b171960e8046", "type": "electric_scooter", "is_reserved": 0, "lon": -77.033824}, {"fusion_lat": 0.0, "name": "8b381b7228c9f43033db192e8d91b0eb", "is_disabled": 0, "rental_uris": {"android": "https://dc.lft.to/lastmile_qr_scan", "ios": "https://dc.lft.to/lastmile_qr_scan"}, "fusion_lon": 0.0, "lat": 38.9326915, "bike_id": "8b381b7228c9f43033db192e8d91b0eb", "type": "electric_scooter", "is_reserved": 0, "lon": -77.03455083333333}, {"fusion_lat": 0.0, "name": "ee580db0c2135e6a60111bb8979b30f2", "is_disabled": 0, "rental_uris": {"android": "https://dc.lft.to/lastmile_qr_scan", "ios": "https://dc.lft.to/lastmile_qr_scan"}, "fusion_lon": 0.0, "lat": 38.92167633333333, "bike_id": "ee580db0c2135e6a60111bb8979b30f2", "type": "electric_scooter", "is_reserved": 0, "lon": -77.03267733333334}, {"fusion_lat": 0.0, "name": "a844e22ca01b712353729a943cc8e96f", "is_disabled": 0, "rental_uris": {"android": "https://dc.lft.to/lastmile_qr_scan", "ios": "https://dc.lft.to/lastmile_qr_scan"}, "fusion_lon": 0.0, "lat": 38.92100416666667, "bike_id": "a844e22ca01b712353729a943cc8e96f", "type": "electric_scooter", "is_reserved": 0, "lon": -77.02518383333333}, {"fusion_lat": 0.0, "name": "43413d3aa401eb3edf241888bfe1f556", "is_disabled": 0, "rental_uris": {"android": "https://dc.lft.to/lastmile_qr_scan", "ios": "https://dc.lft.to/lastmile_qr_scan"}, "fusion_lon": 0.0, "lat": 38.88342, "bike_id": "43413d3aa401eb3edf241888bfe1f556", "type": "electric_scooter", "is_reserved": 0, "lon": -76.9349995}, {"fusion_lat": 0.0, "name": "cc607ba0e6b533dbfa697ce433530ca4", "is_disabled": 0, "rental_uris": {"android": "https://dc.lft.to/lastmile_qr_scan", "ios": "https://dc.lft.to/lastmile_qr_scan"}, "fusion_lon": 0.0, "lat": 38.9156135, "bike_id": "cc607ba0e6b533dbfa697ce433530ca4", "type": "electric_scooter", "is_reserved": 0, "lon": -77.01043883333334}, {"fusion_lat": 0.0, "name": "00ca11b5cc6a3c4a6e6b4ae45d7897a2", "is_disabled": 0, "rental_uris": {"android": "https://dc.lft.to/lastmile_qr_scan", "ios": "https://dc.lft.to/lastmile_qr_scan"}, "fusion_lon": 0.0, "lat": 38.89028116666667, "bike_id": "00ca11b5cc6a3c4a6e6b4ae45d7897a2", "type": "electric_scooter", "is_reserved": 0, "lon": -77.03178983333333}, {"fusion_lat": 0.0, "name": "b988b041a6a68511f693d64a13dbe85f", "is_disabled": 0, "rental_uris": {"android": "https://dc.lft.to/lastmile_qr_scan", "ios": "https://dc.lft.to/lastmile_qr_scan"}, "fusion_lon": 0.0, "lat": 38.9011595, "bike_id": "b988b041a6a68511f693d64a13dbe85f", "type": "electric_scooter", "is_reserved": 0, "lon": -77.04459183333333}, {"fusion_lat": 0.0, "name": "4383ebaad81712f513b41ea05c1f66e7", "is_disabled": 0, "rental_uris": {"android": "https://dc.lft.to/lastmile_qr_scan", "ios": "https://dc.lft.to/lastmile_qr_scan"}, "fusion_lon": 0.0, "lat": 38.94387666666667, "bike_id": "4383ebaad81712f513b41ea05c1f66e7", "type": "electric_scooter", "is_reserved": 0, "lon": -77.0950855}, {"fusion_lat": 0.0, "name": "a27c6f8dc88fcf2512933942ec16163c", "is_disabled": 0, "rental_uris": {"android": "https://dc.lft.to/lastmile_qr_scan", "ios": "https://dc.lft.to/lastmile_qr_scan"}, "fusion_lon": 0.0, "lat": 38.92355083333333, "bike_id": "a27c6f8dc88fcf2512933942ec16163c", "type": "electric_scooter", "is_reserved": 0, "lon": -77.03369916666666}, {"fusion_lat": 0.0, "name": "4016e41147f8fe4ad75e6630a0598199", "is_disabled": 0, "rental_uris": {"android": "https://dc.lft.to/lastmile_qr_scan", "ios": "https://dc.lft.to/lastmile_qr_scan"}, "fusion_lon": 0.0, "lat": 38.89854483333333, "bike_id": "4016e41147f8fe4ad75e6630a0598199", "type": "electric_scooter", "is_reserved": 0, "lon": -77.03927183333333}, {"fusion_lat": 0.0, "name": "0d1a118634f8d5cf5368f1da608be35d", "is_disabled": 0, "rental_uris": {"android": "https://dc.lft.to/lastmile_qr_scan", "ios": "https://dc.lft.to/lastmile_qr_scan"}, "fusion_lon": 0.0, "lat": 38.8765915, "bike_id": "0d1a118634f8d5cf5368f1da608be35d", "type": "electric_scooter", "is_reserved": 0, "lon": -77.00067566666667}, {"fusion_lat": 0.0, "name": "fabd4272fc2e23544f7ba7a73cc929f8", "is_disabled": 0, "rental_uris": {"android": "https://dc.lft.to/lastmile_qr_scan", "ios": "https://dc.lft.to/lastmile_qr_scan"}, "fusion_lon": 0.0, "lat": 39.07058283333333, "bike_id": "fabd4272fc2e23544f7ba7a73cc929f8", "type": "electric_bike", "is_reserved": 0, "lon": -77.114813}, {"fusion_lat": 0.0, "name": "ba3e84445a69c00d93114a2fca9af1e3", "is_disabled": 0, "rental_uris": {"android": "https://dc.lft.to/lastmile_qr_scan", "ios": "https://dc.lft.to/lastmile_qr_scan"}, "fusion_lon": 0.0, "lat": 38.9233395, "bike_id": "ba3e84445a69c00d93114a2fca9af1e3", "type": "electric_scooter", "is_reserved": 0, "lon": -77.03614}, {"fusion_lat": 0.0, "name": "bb9f457396867bfc9663cccd60a410a5", "is_disabled": 0, "rental_uris": {"android": "https://dc.lft.to/lastmile_qr_scan", "ios": "https://dc.lft.to/lastmile_qr_scan"}, "fusion_lon": 0.0, "lat": 38.89994816666667, "bike_id": "bb9f457396867bfc9663cccd60a410a5", "type": "electric_scooter", "is_reserved": 0, "lon": -77.022877}, {"fusion_lat": 0.0, "name": "0ce0db17105b01d088d4e875f95b0108", "is_disabled": 0, "rental_uris": {"android": "https://dc.lft.to/lastmile_qr_scan", "ios": "https://dc.lft.to/lastmile_qr_scan"}, "fusion_lon": 0.0, "lat": 38.898945, "bike_id": "0ce0db17105b01d088d4e875f95b0108", "type": "electric_scooter", "is_reserved": 0, "lon": -76.9806265}, {"fusion_lat": 0.0, "name": "b50ffbe15a8c336c888dbb8fc55243f9", "is_disabled": 0, "rental_uris": {"android": "https://dc.lft.to/lastmile_qr_scan", "ios": "https://dc.lft.to/lastmile_qr_scan"}, "fusion_lon": 0.0, "lat": 38.898408, "bike_id": "b50ffbe15a8c336c888dbb8fc55243f9", "type": "electric_scooter", "is_reserved": 0, "lon": -77.00753266666666}, {"fusion_lat": 0.0, "name": "2ece06dc2ad877af3fd0fa35f731f9fc", "is_disabled": 0, "rental_uris": {"android": "https://dc.lft.to/lastmile_qr_scan", "ios": "https://dc.lft.to/lastmile_qr_scan"}, "fusion_lon": 0.0, "lat": 38.895944, "bike_id": "2ece06dc2ad877af3fd0fa35f731f9fc", "type": "electric_scooter", "is_reserved": 0, "lon": -77.02592066666666}, {"fusion_lat": 0.0, "name": "476d130ca6b4e07994f5bf5d04108761", "is_disabled": 0, "rental_uris": {"android": "https://dc.lft.to/lastmile_qr_scan", "ios": "https://dc.lft.to/lastmile_qr_scan"}, "fusion_lon": 0.0, "lat": 38.91753466666667, "bike_id": "476d130ca6b4e07994f5bf5d04108761", "type": "electric_scooter", "is_reserved": 0, "lon": -77.03254966666667}, {"fusion_lat": 0.0, "name": "c0e60f483396df8b10dd5ec5b11c7d8a", "is_disabled": 0, "rental_uris": {"android": "https://dc.lft.to/lastmile_qr_scan", "ios": "https://dc.lft.to/lastmile_qr_scan"}, "fusion_lon": 0.0, "lat": 38.932036833333335, "bike_id": "c0e60f483396df8b10dd5ec5b11c7d8a", "type": "electric_scooter", "is_reserved": 0, "lon": -77.034991}, {"fusion_lat": 0.0, "name": "3e46360933736d0e73061529bf4b9fcf", "is_disabled": 0, "rental_uris": {"android": "https://dc.lft.to/lastmile_qr_scan", "ios": "https://dc.lft.to/lastmile_qr_scan"}, "fusion_lon": 0.0, "lat": 38.91547166666667, "bike_id": "3e46360933736d0e73061529bf4b9fcf", "type": "electric_scooter", "is_reserved": 0, "lon": -77.038561}, {"fusion_lat": 0.0, "name": "8713d7272008b058b4602a7237d20a24", "is_disabled": 0, "rental_uris": {"android": "https://dc.lft.to/lastmile_qr_scan", "ios": "https://dc.lft.to/lastmile_qr_scan"}, "fusion_lon": 0.0, "lat": 38.91881566666667, "bike_id": "8713d7272008b058b4602a7237d20a24", "type": "electric_scooter", "is_reserved": 0, "lon": -77.03506066666667}, {"fusion_lat": 0.0, "name": "16a6a74a0a6394d4c2514334b1819e1d", "is_disabled": 0, "rental_uris": {"android": "https://dc.lft.to/lastmile_qr_scan", "ios": "https://dc.lft.to/lastmile_qr_scan"}, "fusion_lon": 0.0, "lat": 38.92140033333333, "bike_id": "16a6a74a0a6394d4c2514334b1819e1d", "type": "electric_scooter", "is_reserved": 0, "lon": -77.01940433333333}, {"fusion_lat": 0.0, "name": "a33905b653bd8f7a122a134e34721b10", "is_disabled": 0, "rental_uris": {"android": "https://dc.lft.to/lastmile_qr_scan", "ios": "https://dc.lft.to/lastmile_qr_scan"}, "fusion_lon": 0.0, "lat": 38.879443, "bike_id": "a33905b653bd8f7a122a134e34721b10", "type": "electric_scooter", "is_reserved": 0, "lon": -77.00819183333333}, {"fusion_lat": 0.0, "name": "0aa412f11ccc2b03766383525def35e0", "is_disabled": 0, "rental_uris": {"android": "https://dc.lft.to/lastmile_qr_scan", "ios": "https://dc.lft.to/lastmile_qr_scan"}, "fusion_lon": 0.0, "lat": 38.919852166666665, "bike_id": "0aa412f11ccc2b03766383525def35e0", "type": "electric_scooter", "is_reserved": 0, "lon": -77.02414466666667}, {"fusion_lat": 0.0, "name": "3b6bb654f78f2bf6f596e8d150f30162", "is_disabled": 0, "rental_uris": {"android": "https://dc.lft.to/lastmile_qr_scan", "ios": "https://dc.lft.to/lastmile_qr_scan"}, "fusion_lon": 0.0, "lat": 38.90539183333333, "bike_id": "3b6bb654f78f2bf6f596e8d150f30162", "type": "electric_scooter", "is_reserved": 0, "lon": -77.02702483333333}, {"fusion_lat": 0.0, "name": "d7861718d4fc9ecd450effb57763eca7", "is_disabled": 0, "rental_uris": {"android": "https://dc.lft.to/lastmile_qr_scan", "ios": "https://dc.lft.to/lastmile_qr_scan"}, "fusion_lon": 0.0, "lat": 38.887693666666664, "bike_id": "d7861718d4fc9ecd450effb57763eca7", "type": "electric_scooter", "is_reserved": 0, "lon": -76.9775025}, {"fusion_lat": 0.0, "name": "74b7392510829c38df42f2da4a0df490", "is_disabled": 0, "rental_uris": {"android": "https://dc.lft.to/lastmile_qr_scan", "ios": "https://dc.lft.to/lastmile_qr_scan"}, "fusion_lon": 0.0, "lat": 38.8983215, "bike_id": "74b7392510829c38df42f2da4a0df490", "type": "electric_scooter", "is_reserved": 0, "lon": -76.94634416666666}, {"fusion_lat": 0.0, "name": "4f9faa1f0c21eb441bed9cc1d8553889", "is_disabled": 0, "rental_uris": {"android": "https://dc.lft.to/lastmile_qr_scan", "ios": "https://dc.lft.to/lastmile_qr_scan"}, "fusion_lon": 0.0, "lat": 38.923782333333335, "bike_id": "4f9faa1f0c21eb441bed9cc1d8553889", "type": "electric_scooter", "is_reserved": 0, "lon": -77.05151383333333}, {"fusion_lat": 0.0, "name": "23b7c5b16dd34e4a637a25b40c2b3b71", "is_disabled": 0, "rental_uris": {"android": "https://dc.lft.to/lastmile_qr_scan", "ios": "https://dc.lft.to/lastmile_qr_scan"}, "fusion_lon": 0.0, "lat": 38.90010133333333, "bike_id": "23b7c5b16dd34e4a637a25b40c2b3b71", "type": "electric_scooter", "is_reserved": 0, "lon": -76.98813166666666}, {"fusion_lat": 0.0, "name": "264d994c65286bfee19778111ddf52a8", "is_disabled": 0, "rental_uris": {"android": "https://dc.lft.to/lastmile_qr_scan", "ios": "https://dc.lft.to/lastmile_qr_scan"}, "fusion_lon": 0.0, "lat": 38.923739166666664, "bike_id": "264d994c65286bfee19778111ddf52a8", "type": "electric_scooter", "is_reserved": 0, "lon": -77.0514975}, {"fusion_lat": 0.0, "name": "472a8fc19889b7c6d6a274f007dcdc88", "is_disabled": 0, "rental_uris": {"android": "https://dc.lft.to/lastmile_qr_scan", "ios": "https://dc.lft.to/lastmile_qr_scan"}, "fusion_lon": 0.0, "lat": 38.87740183333333, "bike_id": "472a8fc19889b7c6d6a274f007dcdc88", "type": "electric_scooter", "is_reserved": 0, "lon": -76.9966925}, {"fusion_lat": 0.0, "name": "1bfddf07194907d93cf731322c56c408", "is_disabled": 0, "rental_uris": {"android": "https://dc.lft.to/lastmile_qr_scan", "ios": "https://dc.lft.to/lastmile_qr_scan"}, "fusion_lon": 0.0, "lat": 38.90978166666667, "bike_id": "1bfddf07194907d93cf731322c56c408", "type": "electric_scooter", "is_reserved": 0, "lon": -77.03437466666666}, {"fusion_lat": 0.0, "name": "f4100e985fe95b3a97c43816387cdefd", "is_disabled": 0, "rental_uris": {"android": "https://dc.lft.to/lastmile_qr_scan", "ios": "https://dc.lft.to/lastmile_qr_scan"}, "fusion_lon": 0.0, "lat": 38.91435116666667, "bike_id": "f4100e985fe95b3a97c43816387cdefd", "type": "electric_scooter", "is_reserved": 0, "lon": -77.02194383333334}, {"fusion_lat": 0.0, "name": "f014056217906591bc591ba0fc71568c", "is_disabled": 0, "rental_uris": {"android": "https://dc.lft.to/lastmile_qr_scan", "ios": "https://dc.lft.to/lastmile_qr_scan"}, "fusion_lon": 0.0, "lat": 38.90452033333333, "bike_id": "f014056217906591bc591ba0fc71568c", "type": "electric_scooter", "is_reserved": 0, "lon": -77.0016375}, {"fusion_lat": 0.0, "name": "dca76a6dd3f382820c945d013acd0c33", "is_disabled": 0, "rental_uris": {"android": "https://dc.lft.to/lastmile_qr_scan", "ios": "https://dc.lft.to/lastmile_qr_scan"}, "fusion_lon": 0.0, "lat": 38.917102666666665, "bike_id": "dca76a6dd3f382820c945d013acd0c33", "type": "electric_scooter", "is_reserved": 0, "lon": -77.0242065}, {"fusion_lat": 0.0, "name": "bb6793e053e56498d788f4a412230696", "is_disabled": 0, "rental_uris": {"android": "https://dc.lft.to/lastmile_qr_scan", "ios": "https://dc.lft.to/lastmile_qr_scan"}, "fusion_lon": 0.0, "lat": 38.885398, "bike_id": "bb6793e053e56498d788f4a412230696", "type": "electric_scooter", "is_reserved": 0, "lon": -77.00061566666666}, {"fusion_lat": 0.0, "name": "8f13827d93c72d8c1093441da3b390e1", "is_disabled": 0, "rental_uris": {"android": "https://dc.lft.to/lastmile_qr_scan", "ios": "https://dc.lft.to/lastmile_qr_scan"}, "fusion_lon": 0.0, "lat": 38.9407635, "bike_id": "8f13827d93c72d8c1093441da3b390e1", "type": "electric_scooter", "is_reserved": 0, "lon": -77.02391133333333}, {"fusion_lat": 0.0, "name": "9c01a9273062410736e5ab2701f1f05f", "is_disabled": 0, "rental_uris": {"android": "https://dc.lft.to/lastmile_qr_scan", "ios": "https://dc.lft.to/lastmile_qr_scan"}, "fusion_lon": 0.0, "lat": 38.90135883333333, "bike_id": "9c01a9273062410736e5ab2701f1f05f", "type": "electric_scooter", "is_reserved": 0, "lon": -77.034451}, {"fusion_lat": 0.0, "name": "a493531d63ad14238a7d1cf2b195c0c6", "is_disabled": 0, "rental_uris": {"android": "https://dc.lft.to/lastmile_qr_scan", "ios": "https://dc.lft.to/lastmile_qr_scan"}, "fusion_lon": 0.0, "lat": 38.928111666666666, "bike_id": "a493531d63ad14238a7d1cf2b195c0c6", "type": "electric_scooter", "is_reserved": 0, "lon": -77.04361933333334}, {"fusion_lat": 0.0, "name": "3108a41dd4b4b10c7a740b710d752c78", "is_disabled": 0, "rental_uris": {"android": "https://dc.lft.to/lastmile_qr_scan", "ios": "https://dc.lft.to/lastmile_qr_scan"}, "fusion_lon": 0.0, "lat": 38.88537516666667, "bike_id": "3108a41dd4b4b10c7a740b710d752c78", "type": "electric_scooter", "is_reserved": 0, "lon": -77.00062933333334}, {"fusion_lat": 0.0, "name": "f06693405ea03ce13ebd3403aede57bd", "is_disabled": 0, "rental_uris": {"android": "https://dc.lft.to/lastmile_qr_scan", "ios": "https://dc.lft.to/lastmile_qr_scan"}, "fusion_lon": 0.0, "lat": 38.92608166666667, "bike_id": "f06693405ea03ce13ebd3403aede57bd", "type": "electric_scooter", "is_reserved": 0, "lon": -77.039522}, {"fusion_lat": 0.0, "name": "d07e6b70362ff80191400b5f75cac7fd", "is_disabled": 0, "rental_uris": {"android": "https://dc.lft.to/lastmile_qr_scan", "ios": "https://dc.lft.to/lastmile_qr_scan"}, "fusion_lon": 0.0, "lat": 38.95734383333333, "bike_id": "d07e6b70362ff80191400b5f75cac7fd", "type": "electric_scooter", "is_reserved": 0, "lon": -77.02401216666667}, {"fusion_lat": 0.0, "name": "f1dab1e5342058165f738876a0e14633", "is_disabled": 0, "rental_uris": {"android": "https://dc.lft.to/lastmile_qr_scan", "ios": "https://dc.lft.to/lastmile_qr_scan"}, "fusion_lon": 0.0, "lat": 38.91603683333334, "bike_id": "f1dab1e5342058165f738876a0e14633", "type": "electric_scooter", "is_reserved": 0, "lon": -77.04550516666667}, {"fusion_lat": 0.0, "name": "599e4f16f0ef4feb92f874d50a32296e", "is_disabled": 0, "rental_uris": {"android": "https://dc.lft.to/lastmile_qr_scan", "ios": "https://dc.lft.to/lastmile_qr_scan"}, "fusion_lon": 0.0, "lat": 38.91487216666667, "bike_id": "599e4f16f0ef4feb92f874d50a32296e", "type": "electric_scooter", "is_reserved": 0, "lon": -77.04281933333333}, {"fusion_lat": 0.0, "name": "df4fc8a5024f278322d287cf14a6c62b", "is_disabled": 0, "rental_uris": {"android": "https://dc.lft.to/lastmile_qr_scan", "ios": "https://dc.lft.to/lastmile_qr_scan"}, "fusion_lon": 0.0, "lat": 38.90980716666667, "bike_id": "df4fc8a5024f278322d287cf14a6c62b", "type": "electric_scooter", "is_reserved": 0, "lon": -77.03175466666667}, {"fusion_lat": 0.0, "name": "410d66219ecb3ff6ab22e37c2015a47e", "is_disabled": 0, "rental_uris": {"android": "https://dc.lft.to/lastmile_qr_scan", "ios": "https://dc.lft.to/lastmile_qr_scan"}, "fusion_lon": 0.0, "lat": 38.90605466666667, "bike_id": "410d66219ecb3ff6ab22e37c2015a47e", "type": "electric_scooter", "is_reserved": 0, "lon": -77.06297116666667}, {"fusion_lat": 0.0, "name": "e30ed8ea065ca38a727a354eb49b85db", "is_disabled": 0, "rental_uris": {"android": "https://dc.lft.to/lastmile_qr_scan", "ios": "https://dc.lft.to/lastmile_qr_scan"}, "fusion_lon": 0.0, "lat": 38.927923166666666, "bike_id": "e30ed8ea065ca38a727a354eb49b85db", "type": "electric_scooter", "is_reserved": 0, "lon": -77.02255416666667}, {"fusion_lat": 0.0, "name": "0734a01808bcf3b53a63114639335bf5", "is_disabled": 0, "rental_uris": {"android": "https://dc.lft.to/lastmile_qr_scan", "ios": "https://dc.lft.to/lastmile_qr_scan"}, "fusion_lon": 0.0, "lat": 38.877012, "bike_id": "0734a01808bcf3b53a63114639335bf5", "type": "electric_scooter", "is_reserved": 0, "lon": -77.01771466666666}, {"fusion_lat": 0.0, "name": "71dabeba112868ebb8b4f1a31240c7fe", "is_disabled": 0, "rental_uris": {"android": "https://dc.lft.to/lastmile_qr_scan", "ios": "https://dc.lft.to/lastmile_qr_scan"}, "fusion_lon": 0.0, "lat": 38.87533883333333, "bike_id": "71dabeba112868ebb8b4f1a31240c7fe", "type": "electric_scooter", "is_reserved": 0, "lon": -77.00509516666666}, {"fusion_lat": 0.0, "name": "b704aff28cc16e853b5d1174eaa9434c", "is_disabled": 0, "rental_uris": {"android": "https://dc.lft.to/lastmile_qr_scan", "ios": "https://dc.lft.to/lastmile_qr_scan"}, "fusion_lon": 0.0, "lat": 38.92316733333333, "bike_id": "b704aff28cc16e853b5d1174eaa9434c", "type": "electric_scooter", "is_reserved": 0, "lon": -77.04407216666667}, {"fusion_lat": 0.0, "name": "6f22ed5a2af83441555e701a661a4d54", "is_disabled": 0, "rental_uris": {"android": "https://dc.lft.to/lastmile_qr_scan", "ios": "https://dc.lft.to/lastmile_qr_scan"}, "fusion_lon": 0.0, "lat": 38.927468833333336, "bike_id": "6f22ed5a2af83441555e701a661a4d54", "type": "electric_scooter", "is_reserved": 0, "lon": -77.02422633333333}, {"fusion_lat": 0.0, "name": "8bbc23d8974c56f5df78a58212fda28c", "is_disabled": 0, "rental_uris": {"android": "https://dc.lft.to/lastmile_qr_scan", "ios": "https://dc.lft.to/lastmile_qr_scan"}, "fusion_lon": 0.0, "lat": 38.9006205, "bike_id": "8bbc23d8974c56f5df78a58212fda28c", "type": "electric_scooter", "is_reserved": 0, "lon": -76.927427}, {"fusion_lat": 0.0, "name": "01d72c882e577c093304b74ce8588dc6", "is_disabled": 0, "rental_uris": {"android": "https://dc.lft.to/lastmile_qr_scan", "ios": "https://dc.lft.to/lastmile_qr_scan"}, "fusion_lon": 0.0, "lat": 38.8971435, "bike_id": "01d72c882e577c093304b74ce8588dc6", "type": "electric_scooter", "is_reserved": 0, "lon": -77.0509595}, {"fusion_lat": 0.0, "name": "9859e9ab219263ac3e88407021abdd9d", "is_disabled": 0, "rental_uris": {"android": "https://dc.lft.to/lastmile_qr_scan", "ios": "https://dc.lft.to/lastmile_qr_scan"}, "fusion_lon": 0.0, "lat": 38.8766315, "bike_id": "9859e9ab219263ac3e88407021abdd9d", "type": "electric_scooter", "is_reserved": 0, "lon": -76.99625833333333}, {"fusion_lat": 0.0, "name": "da02142be4a4b8aa2a3acdb2436e3421", "is_disabled": 0, "rental_uris": {"android": "https://dc.lft.to/lastmile_qr_scan", "ios": "https://dc.lft.to/lastmile_qr_scan"}, "fusion_lon": 0.0, "lat": 38.89546, "bike_id": "da02142be4a4b8aa2a3acdb2436e3421", "type": "electric_scooter", "is_reserved": 0, "lon": -76.9494995}, {"fusion_lat": 0.0, "name": "a2d5e8ea280ead8d0313f24ea5512322", "is_disabled": 0, "rental_uris": {"android": "https://dc.lft.to/lastmile_qr_scan", "ios": "https://dc.lft.to/lastmile_qr_scan"}, "fusion_lon": 0.0, "lat": 38.873762166666666, "bike_id": "a2d5e8ea280ead8d0313f24ea5512322", "type": "electric_scooter", "is_reserved": 0, "lon": -77.00039866666667}, {"fusion_lat": 0.0, "name": "0376a0fc41c8c55545b2de03bb7122f1", "is_disabled": 0, "rental_uris": {"android": "https://dc.lft.to/lastmile_qr_scan", "ios": "https://dc.lft.to/lastmile_qr_scan"}, "fusion_lon": 0.0, "lat": 38.874899666666664, "bike_id": "0376a0fc41c8c55545b2de03bb7122f1", "type": "electric_scooter", "is_reserved": 0, "lon": -77.0012185}, {"fusion_lat": 0.0, "name": "76d82089413a15bdfaf69583a557c3d1", "is_disabled": 0, "rental_uris": {"android": "https://dc.lft.to/lastmile_qr_scan", "ios": "https://dc.lft.to/lastmile_qr_scan"}, "fusion_lon": 0.0, "lat": 38.90229266666667, "bike_id": "76d82089413a15bdfaf69583a557c3d1", "type": "electric_scooter", "is_reserved": 0, "lon": -77.03978583333334}, {"fusion_lat": 0.0, "name": "7d06b05940a269d85857f52150808481", "is_disabled": 0, "rental_uris": {"android": "https://dc.lft.to/lastmile_qr_scan", "ios": "https://dc.lft.to/lastmile_qr_scan"}, "fusion_lon": 0.0, "lat": 38.90341766666667, "bike_id": "7d06b05940a269d85857f52150808481", "type": "electric_scooter", "is_reserved": 0, "lon": -77.04480066666666}, {"fusion_lat": 0.0, "name": "9638cc4c0f3138df50a442a537ad1d1a", "is_disabled": 0, "rental_uris": {"android": "https://dc.lft.to/lastmile_qr_scan", "ios": "https://dc.lft.to/lastmile_qr_scan"}, "fusion_lon": 0.0, "lat": 38.922464166666664, "bike_id": "9638cc4c0f3138df50a442a537ad1d1a", "type": "electric_scooter", "is_reserved": 0, "lon": -77.03080166666666}, {"fusion_lat": 0.0, "name": "c671a18d5df93e9ab1f187724c9372cc", "is_disabled": 0, "rental_uris": {"android": "https://dc.lft.to/lastmile_qr_scan", "ios": "https://dc.lft.to/lastmile_qr_scan"}, "fusion_lon": 0.0, "lat": 38.895685, "bike_id": "c671a18d5df93e9ab1f187724c9372cc", "type": "electric_bike", "is_reserved": 0, "lon": -77.12741716666666}, {"fusion_lat": 0.0, "name": "261d69fddac00db934b8a0b7c6434841", "is_disabled": 0, "rental_uris": {"android": "https://dc.lft.to/lastmile_qr_scan", "ios": "https://dc.lft.to/lastmile_qr_scan"}, "fusion_lon": 0.0, "lat": 38.91508666666667, "bike_id": "261d69fddac00db934b8a0b7c6434841", "type": "electric_scooter", "is_reserved": 0, "lon": -77.03267666666666}, {"fusion_lat": 0.0, "name": "2674d5b2f7020e282d2511ccdff39664", "is_disabled": 0, "rental_uris": {"android": "https://dc.lft.to/lastmile_qr_scan", "ios": "https://dc.lft.to/lastmile_qr_scan"}, "fusion_lon": 0.0, "lat": 38.9301515, "bike_id": "2674d5b2f7020e282d2511ccdff39664", "type": "electric_bike", "is_reserved": 0, "lon": -77.01619466666666}, {"fusion_lat": 0.0, "name": "9e4a62f47bb14f320caff09efb8ceed4", "is_disabled": 0, "rental_uris": {"android": "https://dc.lft.to/lastmile_qr_scan", "ios": "https://dc.lft.to/lastmile_qr_scan"}, "fusion_lon": 0.0, "lat": 38.8953315, "bike_id": "9e4a62f47bb14f320caff09efb8ceed4", "type": "electric_scooter", "is_reserved": 0, "lon": -76.94894533333333}, {"fusion_lat": 0.0, "name": "94f2dc8d5cf79cbeaec7b873f8bc2cb8", "is_disabled": 0, "rental_uris": {"android": "https://dc.lft.to/lastmile_qr_scan", "ios": "https://dc.lft.to/lastmile_qr_scan"}, "fusion_lon": 0.0, "lat": 38.9053195, "bike_id": "94f2dc8d5cf79cbeaec7b873f8bc2cb8", "type": "electric_bike", "is_reserved": 0, "lon": -76.9980115}, {"fusion_lat": 0.0, "name": "ef1021817377e41e6378769abb27bb64", "is_disabled": 0, "rental_uris": {"android": "https://dc.lft.to/lastmile_qr_scan", "ios": "https://dc.lft.to/lastmile_qr_scan"}, "fusion_lon": 0.0, "lat": 38.9089995, "bike_id": "ef1021817377e41e6378769abb27bb64", "type": "electric_scooter", "is_reserved": 0, "lon": -77.04288383333333}, {"fusion_lat": 0.0, "name": "5be61dc0d967af9233c84ab5812ba7cf", "is_disabled": 0, "rental_uris": {"android": "https://dc.lft.to/lastmile_qr_scan", "ios": "https://dc.lft.to/lastmile_qr_scan"}, "fusion_lon": 0.0, "lat": 38.928702333333334, "bike_id": "5be61dc0d967af9233c84ab5812ba7cf", "type": "electric_scooter", "is_reserved": 0, "lon": -77.03404966666666}, {"fusion_lat": 0.0, "name": "113f1b396f87555b04d9b93102e36af5", "is_disabled": 0, "rental_uris": {"android": "https://dc.lft.to/lastmile_qr_scan", "ios": "https://dc.lft.to/lastmile_qr_scan"}, "fusion_lon": 0.0, "lat": 38.93514483333333, "bike_id": "113f1b396f87555b04d9b93102e36af5", "type": "electric_scooter", "is_reserved": 0, "lon": -77.073442}, {"fusion_lat": 0.0, "name": "be641e4c41e0bd39f0adc77deacc53f0", "is_disabled": 0, "rental_uris": {"android": "https://dc.lft.to/lastmile_qr_scan", "ios": "https://dc.lft.to/lastmile_qr_scan"}, "fusion_lon": 0.0, "lat": 38.89744066666667, "bike_id": "be641e4c41e0bd39f0adc77deacc53f0", "type": "electric_scooter", "is_reserved": 0, "lon": -77.02686166666666}, {"fusion_lat": 0.0, "name": "54c82a4288ace49138d924b352ecdc0b", "is_disabled": 0, "rental_uris": {"android": "https://dc.lft.to/lastmile_qr_scan", "ios": "https://dc.lft.to/lastmile_qr_scan"}, "fusion_lon": 0.0, "lat": 38.85359866666667, "bike_id": "54c82a4288ace49138d924b352ecdc0b", "type": "electric_bike", "is_reserved": 0, "lon": -77.11498683333333}, {"fusion_lat": 0.0, "name": "846a00e3a101f1e0ac5eb16dcad278a7", "is_disabled": 0, "rental_uris": {"android": "https://dc.lft.to/lastmile_qr_scan", "ios": "https://dc.lft.to/lastmile_qr_scan"}, "fusion_lon": 0.0, "lat": 38.877400333333334, "bike_id": "846a00e3a101f1e0ac5eb16dcad278a7", "type": "electric_scooter", "is_reserved": 0, "lon": -76.99659066666666}, {"fusion_lat": 0.0, "name": "2585ea0b6ef2d29417527fe8d1687ede", "is_disabled": 0, "rental_uris": {"android": "https://dc.lft.to/lastmile_qr_scan", "ios": "https://dc.lft.to/lastmile_qr_scan"}, "fusion_lon": 0.0, "lat": 38.8829125, "bike_id": "2585ea0b6ef2d29417527fe8d1687ede", "type": "electric_scooter", "is_reserved": 0, "lon": -77.017436}, {"fusion_lat": 0.0, "name": "4e42a070d10178defaf991d4cd46365e", "is_disabled": 0, "rental_uris": {"android": "https://dc.lft.to/lastmile_qr_scan", "ios": "https://dc.lft.to/lastmile_qr_scan"}, "fusion_lon": 0.0, "lat": 38.91816466666667, "bike_id": "4e42a070d10178defaf991d4cd46365e", "type": "electric_scooter", "is_reserved": 0, "lon": -77.03151}, {"fusion_lat": 0.0, "name": "982124e2c504a992d3ec3c4d7fa0e472", "is_disabled": 0, "rental_uris": {"android": "https://dc.lft.to/lastmile_qr_scan", "ios": "https://dc.lft.to/lastmile_qr_scan"}, "fusion_lon": 0.0, "lat": 38.933793666666666, "bike_id": "982124e2c504a992d3ec3c4d7fa0e472", "type": "electric_scooter", "is_reserved": 0, "lon": -77.03252383333333}, {"fusion_lat": 0.0, "name": "adc5d228e09e90501c32e55b29c78a2e", "is_disabled": 0, "rental_uris": {"android": "https://dc.lft.to/lastmile_qr_scan", "ios": "https://dc.lft.to/lastmile_qr_scan"}, "fusion_lon": 0.0, "lat": 38.8872635, "bike_id": "adc5d228e09e90501c32e55b29c78a2e", "type": "electric_scooter", "is_reserved": 0, "lon": -77.02584533333334}, {"fusion_lat": 0.0, "name": "84898c0757fb4cdc6d9d4b7e06e7676d", "is_disabled": 0, "rental_uris": {"android": "https://dc.lft.to/lastmile_qr_scan", "ios": "https://dc.lft.to/lastmile_qr_scan"}, "fusion_lon": 0.0, "lat": 38.938651666666665, "bike_id": "84898c0757fb4cdc6d9d4b7e06e7676d", "type": "electric_scooter", "is_reserved": 0, "lon": -77.03207666666667}, {"fusion_lat": 0.0, "name": "a98af031072a72c703838f46456cb699", "is_disabled": 0, "rental_uris": {"android": "https://dc.lft.to/lastmile_qr_scan", "ios": "https://dc.lft.to/lastmile_qr_scan"}, "fusion_lon": 0.0, "lat": 38.873725666666665, "bike_id": "a98af031072a72c703838f46456cb699", "type": "electric_scooter", "is_reserved": 0, "lon": -77.00043333333333}, {"fusion_lat": 0.0, "name": "b9fe2488738890ff812025e34f366a5c", "is_disabled": 0, "rental_uris": {"android": "https://dc.lft.to/lastmile_qr_scan", "ios": "https://dc.lft.to/lastmile_qr_scan"}, "fusion_lon": 0.0, "lat": 38.913787166666665, "bike_id": "b9fe2488738890ff812025e34f366a5c", "type": "electric_scooter", "is_reserved": 0, "lon": -77.02001383333334}, {"fusion_lat": 0.0, "name": "3bb84c5966d71d49723ab848b48b7f61", "is_disabled": 0, "rental_uris": {"android": "https://dc.lft.to/lastmile_qr_scan", "ios": "https://dc.lft.to/lastmile_qr_scan"}, "fusion_lon": 0.0, "lat": 38.919191, "bike_id": "3bb84c5966d71d49723ab848b48b7f61", "type": "electric_scooter", "is_reserved": 0, "lon": -77.02411233333333}, {"fusion_lat": 0.0, "name": "f6a51f6aadbe4957c9b348b26a171c6f", "is_disabled": 0, "rental_uris": {"android": "https://dc.lft.to/lastmile_qr_scan", "ios": "https://dc.lft.to/lastmile_qr_scan"}, "fusion_lon": 0.0, "lat": 39.0341885, "bike_id": "f6a51f6aadbe4957c9b348b26a171c6f", "type": "electric_bike", "is_reserved": 0, "lon": -77.04287766666667}, {"fusion_lat": 0.0, "name": "8e3c1215d492bd2d173a47197e34c36c", "is_disabled": 0, "rental_uris": {"android": "https://dc.lft.to/lastmile_qr_scan", "ios": "https://dc.lft.to/lastmile_qr_scan"}, "fusion_lon": 0.0, "lat": 38.910204, "bike_id": "8e3c1215d492bd2d173a47197e34c36c", "type": "electric_scooter", "is_reserved": 0, "lon": -77.034625}, {"fusion_lat": 0.0, "name": "353a86ff339e04caa384c2b5d794f02f", "is_disabled": 0, "rental_uris": {"android": "https://dc.lft.to/lastmile_qr_scan", "ios": "https://dc.lft.to/lastmile_qr_scan"}, "fusion_lon": 0.0, "lat": 38.87843733333333, "bike_id": "353a86ff339e04caa384c2b5d794f02f", "type": "electric_scooter", "is_reserved": 0, "lon": -76.990358}, {"fusion_lat": 0.0, "name": "d2599cfa439b52050ee2a92cf0c3924a", "is_disabled": 0, "rental_uris": {"android": "https://dc.lft.to/lastmile_qr_scan", "ios": "https://dc.lft.to/lastmile_qr_scan"}, "fusion_lon": 0.0, "lat": 38.90264233333333, "bike_id": "d2599cfa439b52050ee2a92cf0c3924a", "type": "electric_scooter", "is_reserved": 0, "lon": -77.03372883333333}, {"fusion_lat": 0.0, "name": "ba2fd4249cbf104da1e0d08b5f2e1854", "is_disabled": 0, "rental_uris": {"android": "https://dc.lft.to/lastmile_qr_scan", "ios": "https://dc.lft.to/lastmile_qr_scan"}, "fusion_lon": 0.0, "lat": 38.92453116666667, "bike_id": "ba2fd4249cbf104da1e0d08b5f2e1854", "type": "electric_scooter", "is_reserved": 0, "lon": -77.00878666666667}, {"fusion_lat": 0.0, "name": "e0c5548c13a79827b9a94a9ef78abced", "is_disabled": 0, "rental_uris": {"android": "https://dc.lft.to/lastmile_qr_scan", "ios": "https://dc.lft.to/lastmile_qr_scan"}, "fusion_lon": 0.0, "lat": 38.922578666666666, "bike_id": "e0c5548c13a79827b9a94a9ef78abced", "type": "electric_scooter", "is_reserved": 0, "lon": -77.03068316666666}, {"fusion_lat": 0.0, "name": "afc7b25550bb9f983f02e76d24b4d9e5", "is_disabled": 0, "rental_uris": {"android": "https://dc.lft.to/lastmile_qr_scan", "ios": "https://dc.lft.to/lastmile_qr_scan"}, "fusion_lon": 0.0, "lat": 38.889905666666664, "bike_id": "afc7b25550bb9f983f02e76d24b4d9e5", "type": "electric_scooter", "is_reserved": 0, "lon": -77.0033575}, {"fusion_lat": 0.0, "name": "73522a8b16d1d1962af6e4c51ccdb0b3", "is_disabled": 0, "rental_uris": {"android": "https://dc.lft.to/lastmile_qr_scan", "ios": "https://dc.lft.to/lastmile_qr_scan"}, "fusion_lon": 0.0, "lat": 38.90737083333333, "bike_id": "73522a8b16d1d1962af6e4c51ccdb0b3", "type": "electric_scooter", "is_reserved": 0, "lon": -77.02802266666667}, {"fusion_lat": 0.0, "name": "880d77b637f98ea2d0146e8a78ccaf92", "is_disabled": 0, "rental_uris": {"android": "https://dc.lft.to/lastmile_qr_scan", "ios": "https://dc.lft.to/lastmile_qr_scan"}, "fusion_lon": 0.0, "lat": 38.906182666666666, "bike_id": "880d77b637f98ea2d0146e8a78ccaf92", "type": "electric_scooter", "is_reserved": 0, "lon": -77.02529566666666}, {"fusion_lat": 0.0, "name": "e8711f0c05bea756232eaa1f5d08a237", "is_disabled": 0, "rental_uris": {"android": "https://dc.lft.to/lastmile_qr_scan", "ios": "https://dc.lft.to/lastmile_qr_scan"}, "fusion_lon": 0.0, "lat": 38.922455666666664, "bike_id": "e8711f0c05bea756232eaa1f5d08a237", "type": "electric_scooter", "is_reserved": 0, "lon": -77.03082216666667}, {"fusion_lat": 0.0, "name": "c2d0d6b5f10fe10adc9d9a5f6a6497f5", "is_disabled": 0, "rental_uris": {"android": "https://dc.lft.to/lastmile_qr_scan", "ios": "https://dc.lft.to/lastmile_qr_scan"}, "fusion_lon": 0.0, "lat": 38.8968765, "bike_id": "c2d0d6b5f10fe10adc9d9a5f6a6497f5", "type": "electric_scooter", "is_reserved": 0, "lon": -77.05117866666667}, {"fusion_lat": 0.0, "name": "98f504e545ab365f73294b32029059c3", "is_disabled": 0, "rental_uris": {"android": "https://dc.lft.to/lastmile_qr_scan", "ios": "https://dc.lft.to/lastmile_qr_scan"}, "fusion_lon": 0.0, "lat": 38.93580883333333, "bike_id": "98f504e545ab365f73294b32029059c3", "type": "electric_scooter", "is_reserved": 0, "lon": -77.03345183333333}, {"fusion_lat": 0.0, "name": "000d082c039ffe13130bbf7569226a51", "is_disabled": 0, "rental_uris": {"android": "https://dc.lft.to/lastmile_qr_scan", "ios": "https://dc.lft.to/lastmile_qr_scan"}, "fusion_lon": 0.0, "lat": 38.92289566666667, "bike_id": "000d082c039ffe13130bbf7569226a51", "type": "electric_scooter", "is_reserved": 0, "lon": -77.02335983333333}, {"fusion_lat": 0.0, "name": "b4fe55f97f374c0163725fb7a408a38b", "is_disabled": 0, "rental_uris": {"android": "https://dc.lft.to/lastmile_qr_scan", "ios": "https://dc.lft.to/lastmile_qr_scan"}, "fusion_lon": 0.0, "lat": 38.8831305, "bike_id": "b4fe55f97f374c0163725fb7a408a38b", "type": "electric_scooter", "is_reserved": 0, "lon": -77.01387716666666}, {"fusion_lat": 0.0, "name": "dd44e546ba34ef3e353910a2e08bea26", "is_disabled": 0, "rental_uris": {"android": "https://dc.lft.to/lastmile_qr_scan", "ios": "https://dc.lft.to/lastmile_qr_scan"}, "fusion_lon": 0.0, "lat": 38.924275333333334, "bike_id": "dd44e546ba34ef3e353910a2e08bea26", "type": "electric_scooter", "is_reserved": 0, "lon": -77.02985033333333}, {"fusion_lat": 0.0, "name": "b3e528792905ad1269fa2eeb4e0b5560", "is_disabled": 0, "rental_uris": {"android": "https://dc.lft.to/lastmile_qr_scan", "ios": "https://dc.lft.to/lastmile_qr_scan"}, "fusion_lon": 0.0, "lat": 38.94502166666667, "bike_id": "b3e528792905ad1269fa2eeb4e0b5560", "type": "electric_scooter", "is_reserved": 0, "lon": -77.03148483333334}, {"fusion_lat": 0.0, "name": "680731241a370303fe2c3714615a630b", "is_disabled": 0, "rental_uris": {"android": "https://dc.lft.to/lastmile_qr_scan", "ios": "https://dc.lft.to/lastmile_qr_scan"}, "fusion_lon": 0.0, "lat": 38.90375566666667, "bike_id": "680731241a370303fe2c3714615a630b", "type": "electric_scooter", "is_reserved": 0, "lon": -77.03835366666667}, {"fusion_lat": 0.0, "name": "107e7646464a828ca7393b69be12020a", "is_disabled": 0, "rental_uris": {"android": "https://dc.lft.to/lastmile_qr_scan", "ios": "https://dc.lft.to/lastmile_qr_scan"}, "fusion_lon": 0.0, "lat": 38.91058966666667, "bike_id": "107e7646464a828ca7393b69be12020a", "type": "electric_scooter", "is_reserved": 0, "lon": -77.02654916666667}, {"fusion_lat": 0.0, "name": "21705ebc1bf785d82f5e83508682bc20", "is_disabled": 0, "rental_uris": {"android": "https://dc.lft.to/lastmile_qr_scan", "ios": "https://dc.lft.to/lastmile_qr_scan"}, "fusion_lon": 0.0, "lat": 38.92890383333334, "bike_id": "21705ebc1bf785d82f5e83508682bc20", "type": "electric_scooter", "is_reserved": 0, "lon": -77.02305583333333}, {"fusion_lat": 0.0, "name": "2be831720fd60bd519a71763684122fa", "is_disabled": 0, "rental_uris": {"android": "https://dc.lft.to/lastmile_qr_scan", "ios": "https://dc.lft.to/lastmile_qr_scan"}, "fusion_lon": 0.0, "lat": 38.923465666666665, "bike_id": "2be831720fd60bd519a71763684122fa", "type": "electric_scooter", "is_reserved": 0, "lon": -77.05229066666666}, {"fusion_lat": 0.0, "name": "d895d492bd50844ed672b4db7c863056", "is_disabled": 0, "rental_uris": {"android": "https://dc.lft.to/lastmile_qr_scan", "ios": "https://dc.lft.to/lastmile_qr_scan"}, "fusion_lon": 0.0, "lat": 38.883669, "bike_id": "d895d492bd50844ed672b4db7c863056", "type": "electric_scooter", "is_reserved": 0, "lon": -76.94162333333334}, {"fusion_lat": 0.0, "name": "b211503b512b681c2c5d9dd8d12a28fe", "is_disabled": 0, "rental_uris": {"android": "https://dc.lft.to/lastmile_qr_scan", "ios": "https://dc.lft.to/lastmile_qr_scan"}, "fusion_lon": 0.0, "lat": 38.843536, "bike_id": "b211503b512b681c2c5d9dd8d12a28fe", "type": "electric_bike", "is_reserved": 0, "lon": -76.97824766666666}, {"fusion_lat": 0.0, "name": "bb74696e2c2808d99d0c8b853b530519", "is_disabled": 0, "rental_uris": {"android": "https://dc.lft.to/lastmile_qr_scan", "ios": "https://dc.lft.to/lastmile_qr_scan"}, "fusion_lon": 0.0, "lat": 38.93189866666667, "bike_id": "bb74696e2c2808d99d0c8b853b530519", "type": "electric_scooter", "is_reserved": 0, "lon": -77.03263433333333}, {"fusion_lat": 0.0, "name": "2af6d39f228cec9cd06a0f52514d05f8", "is_disabled": 0, "rental_uris": {"android": "https://dc.lft.to/lastmile_qr_scan", "ios": "https://dc.lft.to/lastmile_qr_scan"}, "fusion_lon": 0.0, "lat": 38.8765875, "bike_id": "2af6d39f228cec9cd06a0f52514d05f8", "type": "electric_scooter", "is_reserved": 0, "lon": -77.00657566666666}, {"fusion_lat": 0.0, "name": "da47e0cf9c35559c33eb4a577ea5ee3c", "is_disabled": 0, "rental_uris": {"android": "https://dc.lft.to/lastmile_qr_scan", "ios": "https://dc.lft.to/lastmile_qr_scan"}, "fusion_lon": 0.0, "lat": 38.82792416666667, "bike_id": "da47e0cf9c35559c33eb4a577ea5ee3c", "type": "electric_bike", "is_reserved": 0, "lon": -77.12488533333334}, {"fusion_lat": 0.0, "name": "6064c18a4ad4767d9d18a1dfb131767e", "is_disabled": 0, "rental_uris": {"android": "https://dc.lft.to/lastmile_qr_scan", "ios": "https://dc.lft.to/lastmile_qr_scan"}, "fusion_lon": 0.0, "lat": 38.909716333333336, "bike_id": "6064c18a4ad4767d9d18a1dfb131767e", "type": "electric_scooter", "is_reserved": 0, "lon": -77.02161033333333}, {"fusion_lat": 0.0, "name": "9f0a869ec04466f1fcd449fdc807a89b", "is_disabled": 0, "rental_uris": {"android": "https://dc.lft.to/lastmile_qr_scan", "ios": "https://dc.lft.to/lastmile_qr_scan"}, "fusion_lon": 0.0, "lat": 38.917545833333335, "bike_id": "9f0a869ec04466f1fcd449fdc807a89b", "type": "electric_scooter", "is_reserved": 0, "lon": -77.01224616666667}, {"fusion_lat": 0.0, "name": "88ed27f13d69384c9bc602aeb858c9b5", "is_disabled": 0, "rental_uris": {"android": "https://dc.lft.to/lastmile_qr_scan", "ios": "https://dc.lft.to/lastmile_qr_scan"}, "fusion_lon": 0.0, "lat": 38.88502066666667, "bike_id": "88ed27f13d69384c9bc602aeb858c9b5", "type": "electric_scooter", "is_reserved": 0, "lon": -77.01727366666667}, {"fusion_lat": 0.0, "name": "ccb4b78b4676f99140bbb85ef10d58d1", "is_disabled": 0, "rental_uris": {"android": "https://dc.lft.to/lastmile_qr_scan", "ios": "https://dc.lft.to/lastmile_qr_scan"}, "fusion_lon": 0.0, "lat": 38.893239333333334, "bike_id": "ccb4b78b4676f99140bbb85ef10d58d1", "type": "electric_bike", "is_reserved": 0, "lon": -76.95126533333334}, {"fusion_lat": 0.0, "name": "20454601122041a0e706a2a31603ea76", "is_disabled": 0, "rental_uris": {"android": "https://dc.lft.to/lastmile_qr_scan", "ios": "https://dc.lft.to/lastmile_qr_scan"}, "fusion_lon": 0.0, "lat": 38.87927, "bike_id": "20454601122041a0e706a2a31603ea76", "type": "electric_scooter", "is_reserved": 0, "lon": -77.00828983333334}, {"fusion_lat": 0.0, "name": "7bcef9142a985c07d037b0c9772c7e44", "is_disabled": 0, "rental_uris": {"android": "https://dc.lft.to/lastmile_qr_scan", "ios": "https://dc.lft.to/lastmile_qr_scan"}, "fusion_lon": 0.0, "lat": 38.897315166666665, "bike_id": "7bcef9142a985c07d037b0c9772c7e44", "type": "electric_scooter", "is_reserved": 0, "lon": -77.02677016666667}, {"fusion_lat": 0.0, "name": "f0aa0a5a4b58d48de1da49730b131af3", "is_disabled": 0, "rental_uris": {"android": "https://dc.lft.to/lastmile_qr_scan", "ios": "https://dc.lft.to/lastmile_qr_scan"}, "fusion_lon": 0.0, "lat": 38.90033666666667, "bike_id": "f0aa0a5a4b58d48de1da49730b131af3", "type": "electric_scooter", "is_reserved": 0, "lon": -77.00188983333334}, {"fusion_lat": 0.0, "name": "22a05bc10d5fe6f8f6d09aec2c403bca", "is_disabled": 0, "rental_uris": {"android": "https://dc.lft.to/lastmile_qr_scan", "ios": "https://dc.lft.to/lastmile_qr_scan"}, "fusion_lon": 0.0, "lat": 38.939683, "bike_id": "22a05bc10d5fe6f8f6d09aec2c403bca", "type": "electric_scooter", "is_reserved": 0, "lon": -77.03284366666666}, {"fusion_lat": 0.0, "name": "bbb94534cc908c565468d4ca7d51c902", "is_disabled": 0, "rental_uris": {"android": "https://dc.lft.to/lastmile_qr_scan", "ios": "https://dc.lft.to/lastmile_qr_scan"}, "fusion_lon": 0.0, "lat": 38.907364, "bike_id": "bbb94534cc908c565468d4ca7d51c902", "type": "electric_scooter", "is_reserved": 0, "lon": -77.02974283333333}, {"fusion_lat": 0.0, "name": "5131a4ae9f043e7bb7fc0177bdcb34c9", "is_disabled": 0, "rental_uris": {"android": "https://dc.lft.to/lastmile_qr_scan", "ios": "https://dc.lft.to/lastmile_qr_scan"}, "fusion_lon": 0.0, "lat": 38.84423316666667, "bike_id": "5131a4ae9f043e7bb7fc0177bdcb34c9", "type": "electric_scooter", "is_reserved": 0, "lon": -76.99777216666666}, {"fusion_lat": 0.0, "name": "5dbd68acbb8fbb52e54b54cdf1efb62f", "is_disabled": 0, "rental_uris": {"android": "https://dc.lft.to/lastmile_qr_scan", "ios": "https://dc.lft.to/lastmile_qr_scan"}, "fusion_lon": 0.0, "lat": 38.885269, "bike_id": "5dbd68acbb8fbb52e54b54cdf1efb62f", "type": "electric_scooter", "is_reserved": 0, "lon": -76.977113}, {"fusion_lat": 0.0, "name": "8e8fd482374bb41fd19ebabbb278112d", "is_disabled": 0, "rental_uris": {"android": "https://dc.lft.to/lastmile_qr_scan", "ios": "https://dc.lft.to/lastmile_qr_scan"}, "fusion_lon": 0.0, "lat": 38.931224666666665, "bike_id": "8e8fd482374bb41fd19ebabbb278112d", "type": "electric_scooter", "is_reserved": 0, "lon": -77.0208685}, {"fusion_lat": 0.0, "name": "260f5b751ec3afa069d1de9f53ac302e", "is_disabled": 0, "rental_uris": {"android": "https://dc.lft.to/lastmile_qr_scan", "ios": "https://dc.lft.to/lastmile_qr_scan"}, "fusion_lon": 0.0, "lat": 38.91117, "bike_id": "260f5b751ec3afa069d1de9f53ac302e", "type": "electric_scooter", "is_reserved": 0, "lon": -77.081278}, {"fusion_lat": 0.0, "name": "47ecf51b7c145fd575a8c084b8f03b89", "is_disabled": 0, "rental_uris": {"android": "https://dc.lft.to/lastmile_qr_scan", "ios": "https://dc.lft.to/lastmile_qr_scan"}, "fusion_lon": 0.0, "lat": 38.9078215, "bike_id": "47ecf51b7c145fd575a8c084b8f03b89", "type": "electric_scooter", "is_reserved": 0, "lon": -77.03847383333333}, {"fusion_lat": 0.0, "name": "72ea72335cd72e95a186ea4802708bee", "is_disabled": 0, "rental_uris": {"android": "https://dc.lft.to/lastmile_qr_scan", "ios": "https://dc.lft.to/lastmile_qr_scan"}, "fusion_lon": 0.0, "lat": 38.904867833333334, "bike_id": "72ea72335cd72e95a186ea4802708bee", "type": "electric_scooter", "is_reserved": 0, "lon": -76.94956366666666}, {"fusion_lat": 0.0, "name": "0add400da6852c0265d806d5cfd8f798", "is_disabled": 0, "rental_uris": {"android": "https://dc.lft.to/lastmile_qr_scan", "ios": "https://dc.lft.to/lastmile_qr_scan"}, "fusion_lon": 0.0, "lat": 38.90887333333333, "bike_id": "0add400da6852c0265d806d5cfd8f798", "type": "electric_scooter", "is_reserved": 0, "lon": -77.04382383333333}, {"fusion_lat": 0.0, "name": "6ed749cc0effd4bab55f9fab1a4e41b1", "is_disabled": 0, "rental_uris": {"android": "https://dc.lft.to/lastmile_qr_scan", "ios": "https://dc.lft.to/lastmile_qr_scan"}, "fusion_lon": 0.0, "lat": 38.9055785, "bike_id": "6ed749cc0effd4bab55f9fab1a4e41b1", "type": "electric_scooter", "is_reserved": 0, "lon": -77.046574}, {"fusion_lat": 0.0, "name": "43ef07f9008a5f76912e3e63c767d27e", "is_disabled": 0, "rental_uris": {"android": "https://dc.lft.to/lastmile_qr_scan", "ios": "https://dc.lft.to/lastmile_qr_scan"}, "fusion_lon": 0.0, "lat": 38.898967999999996, "bike_id": "43ef07f9008a5f76912e3e63c767d27e", "type": "electric_scooter", "is_reserved": 0, "lon": -77.00142666666666}, {"fusion_lat": 0.0, "name": "e0fb70b93de7f98cd45f15af65cf5b97", "is_disabled": 0, "rental_uris": {"android": "https://dc.lft.to/lastmile_qr_scan", "ios": "https://dc.lft.to/lastmile_qr_scan"}, "fusion_lon": 0.0, "lat": 38.893576333333336, "bike_id": "e0fb70b93de7f98cd45f15af65cf5b97", "type": "electric_scooter", "is_reserved": 0, "lon": -76.98656166666666}, {"fusion_lat": 0.0, "name": "bbeb220ed239b850d16f11230e34372d", "is_disabled": 0, "rental_uris": {"android": "https://dc.lft.to/lastmile_qr_scan", "ios": "https://dc.lft.to/lastmile_qr_scan"}, "fusion_lon": 0.0, "lat": 38.920256333333334, "bike_id": "bbeb220ed239b850d16f11230e34372d", "type": "electric_scooter", "is_reserved": 0, "lon": -77.027146}, {"fusion_lat": 0.0, "name": "753a5b59bf25818943cee77155a8ff22", "is_disabled": 0, "rental_uris": {"android": "https://dc.lft.to/lastmile_qr_scan", "ios": "https://dc.lft.to/lastmile_qr_scan"}, "fusion_lon": 0.0, "lat": 38.93170383333333, "bike_id": "753a5b59bf25818943cee77155a8ff22", "type": "electric_scooter", "is_reserved": 0, "lon": -77.03293616666667}, {"fusion_lat": 0.0, "name": "1745a633e6500536d95b36cbb0e23d7e", "is_disabled": 0, "rental_uris": {"android": "https://dc.lft.to/lastmile_qr_scan", "ios": "https://dc.lft.to/lastmile_qr_scan"}, "fusion_lon": 0.0, "lat": 38.93057683333333, "bike_id": "1745a633e6500536d95b36cbb0e23d7e", "type": "electric_scooter", "is_reserved": 0, "lon": -77.03945066666667}, {"fusion_lat": 0.0, "name": "092513f6abb7b28d3ed09cdfa874109a", "is_disabled": 0, "rental_uris": {"android": "https://dc.lft.to/lastmile_qr_scan", "ios": "https://dc.lft.to/lastmile_qr_scan"}, "fusion_lon": 0.0, "lat": 38.9090705, "bike_id": "092513f6abb7b28d3ed09cdfa874109a", "type": "electric_scooter", "is_reserved": 0, "lon": -77.02611183333333}, {"fusion_lat": 0.0, "name": "48cc16434d181709a3f8b0be48efa01c", "is_disabled": 0, "rental_uris": {"android": "https://dc.lft.to/lastmile_qr_scan", "ios": "https://dc.lft.to/lastmile_qr_scan"}, "fusion_lon": 0.0, "lat": 38.9341135, "bike_id": "48cc16434d181709a3f8b0be48efa01c", "type": "electric_scooter", "is_reserved": 0, "lon": -77.02200066666667}, {"fusion_lat": 0.0, "name": "e87a20a0ad360dec28431e3e60d02c92", "is_disabled": 0, "rental_uris": {"android": "https://dc.lft.to/lastmile_qr_scan", "ios": "https://dc.lft.to/lastmile_qr_scan"}, "fusion_lon": 0.0, "lat": 38.9213525, "bike_id": "e87a20a0ad360dec28431e3e60d02c92", "type": "electric_scooter", "is_reserved": 0, "lon": -77.01804083333333}, {"fusion_lat": 0.0, "name": "9dd041148d8b948795a5a076c797f4f5", "is_disabled": 0, "rental_uris": {"android": "https://dc.lft.to/lastmile_qr_scan", "ios": "https://dc.lft.to/lastmile_qr_scan"}, "fusion_lon": 0.0, "lat": 38.90521, "bike_id": "9dd041148d8b948795a5a076c797f4f5", "type": "electric_scooter", "is_reserved": 0, "lon": -77.04831566666667}, {"fusion_lat": 0.0, "name": "9c97719148b79453a001e902c4cd6e7f", "is_disabled": 0, "rental_uris": {"android": "https://dc.lft.to/lastmile_qr_scan", "ios": "https://dc.lft.to/lastmile_qr_scan"}, "fusion_lon": 0.0, "lat": 38.901274, "bike_id": "9c97719148b79453a001e902c4cd6e7f", "type": "electric_scooter", "is_reserved": 0, "lon": -77.01819683333333}, {"fusion_lat": 0.0, "name": "40039b58ab255e9247ac7aaf7abd8847", "is_disabled": 0, "rental_uris": {"android": "https://dc.lft.to/lastmile_qr_scan", "ios": "https://dc.lft.to/lastmile_qr_scan"}, "fusion_lon": 0.0, "lat": 38.911552666666665, "bike_id": "40039b58ab255e9247ac7aaf7abd8847", "type": "electric_scooter", "is_reserved": 0, "lon": -77.043432},