{"data": {"bikes": [{"fusion_lat": 0.0, "fusion_lon": 0.0, "rental_uris": {"android": "https://dc.lft.to/lastmile_qr_scan", "ios": "https://dc.lft.to/lastmile_qr_scan"}, "lon": -77.020035, "name": "c2d1504baffec70d5a2c57c171fb3fc5", "is_disabled": 0, "is_reserved": 0, "bike_id": "c2d1504baffec70d5a2c57c171fb3fc5", "lat": 38.8954515, "type": "electric_scooter"}, {"fusion_lat": 0.0, "fusion_lon": 0.0, "rental_uris": {"android": "https://dc.lft.to/lastmile_qr_scan", "ios": "https://dc.lft.to/lastmile_qr_scan"}, "lon": -77.00493633333333, "name": "cb75ba940b101684231c43d1f2039a6a", "is_disabled": 0, "is_reserved": 0, "bike_id": "cb75ba940b101684231c43d1f2039a6a", "lat": 38.89689666666666, "type": "electric_scooter"}, {"fusion_lat": 0.0, "fusion_lon": 0.0, "rental_uris": {"android": "https://dc.lft.to/lastmile_qr_scan", "ios": "https://dc.lft.to/lastmile_qr_scan"}, "lon": -77.01762216666667, "name": "464cf56352b9c944306ddfdeeed4dc3f", "is_disabled": 0, "is_reserved": 0, "bike_id": "464cf56352b9c944306ddfdeeed4dc3f", "lat": 38.87717466666667, "type": "electric_scooter"}, {"fusion_lat": 0.0, "fusion_lon": 0.0, "rental_uris": {"android": "https://dc.lft.to/lastmile_qr_scan", "ios": "https://dc.lft.to/lastmile_qr_scan"}, "lon": -77.02161383333333, "name": "9fd4714faeafbe85ebf21c3c35dbb19f", "is_disabled": 0, "is_reserved": 0, "bike_id": "9fd4714faeafbe85ebf21c3c35dbb19f", "lat": 38.92611616666667, "type": "electric_scooter"}, {"fusion_lat": 0.0, "fusion_lon": 0.0, "rental_uris": {"android": "https://dc.lft.to/lastmile_qr_scan", "ios": "https://dc.lft.to/lastmile_qr_scan"}, "lon": -77.04270766666667, "name": "d43d21824c25281f2787c5fa148a0d9d", "is_disabled": 0, "is_reserved": 0, "bike_id": "d43d21824c25281f2787c5fa148a0d9d", "lat": 38.908555166666666, "type": "electric_scooter"}, {"fusion_lat": 0.0, "fusion_lon": 0.0, "rental_uris": {"android": "https://dc.lft.to/lastmile_qr_scan", "ios": "https://dc.lft.to/lastmile_qr_scan"}, "lon": -77.110834, "name": "9de0ab72bd38be840b851ae11473a4a2", "is_disabled": 0, "is_reserved": 0, "bike_id": "9de0ab72bd38be840b851ae11473a4a2", "lat": 39.01219716666667, "type": "electric_bike"}, {"fusion_lat": 0.0, "fusion_lon": 0.0, "rental_uris": {"android": "https://dc.lft.to/lastmile_qr_scan", "ios": "https://dc.lft.to/lastmile_qr_scan"}, "lon": -77.015578, "name": "d3026c7ae631b02dbb44b807943de3e8", "is_disabled": 0, "is_reserved": 0, "bike_id": "d3026c7ae631b02dbb44b807943de3e8", "lat": 38.926809666666664, "type": "electric_scooter"}, {"fusion_lat": 0.0, "fusion_lon": 0.0, "rental_uris": {"android": "https://dc.lft.to/lastmile_qr_scan", "ios": "https://dc.lft.to/lastmile_qr_scan"}, "lon": -77.06006333333333, "name": "e9dea5e4359a4ee6d082aac7cfa1baea", "is_disabled": 0, "is_reserved": 0, "bike_id": "e9dea5e4359a4ee6d082aac7cfa1baea", "lat": 38.93640716666667, "type": "electric_scooter"}, {"fusion_lat": 0.0, "fusion_lon": 0.0, "rental_uris": {"android": "https://dc.lft.to/lastmile_qr_scan", "ios": "https://dc.lft.to/lastmile_qr_scan"}, "lon": -77.02423333333333, "name": "ef0398216e0c4385fea9a3efbaed5394", "is_disabled": 0, "is_reserved": 0, "bike_id": "ef0398216e0c4385fea9a3efbaed5394", "lat": 38.93712466666667, "type": "electric_scooter"}, {"fusion_lat": 0.0, "fusion_lon": 0.0, "rental_uris": {"android": "https://dc.lft.to/lastmile_qr_scan", "ios": "https://dc.lft.to/lastmile_qr_scan"}, "lon": -77.02105666666667, "name": "6b760e7f85d78f8f1de6ef5886ef6b59", "is_disabled": 0, "is_reserved": 0, "bike_id": "6b760e7f85d78f8f1de6ef5886ef6b59", "lat": 38.922571833333336, "type": "electric_scooter"}, {"fusion_lat": 0.0, "fusion_lon": 0.0, "rental_uris": {"android": "https://dc.lft.to/lastmile_qr_scan", "ios": "https://dc.lft.to/lastmile_qr_scan"}, "lon": -77.022026, "name": "3ef12a789bbe9b77ed48d6559133fe2e", "is_disabled": 0, "is_reserved": 0, "bike_id": "3ef12a789bbe9b77ed48d6559133fe2e", "lat": 38.895925166666665, "type": "electric_scooter"}, {"fusion_lat": 0.0, "fusion_lon": 0.0, "rental_uris": {"android": "https://dc.lft.to/lastmile_qr_scan", "ios": "https://dc.lft.to/lastmile_qr_scan"}, "lon": -77.03143966666667, "name": "c1fa7b824db4f3f28ab332800f6f3801", "is_disabled": 0, "is_reserved": 0, "bike_id": "c1fa7b824db4f3f28ab332800f6f3801", "lat": 38.94175116666667, "type": "electric_scooter"}, {"fusion_lat": 0.0, "fusion_lon": 0.0, "rental_uris": {"android": "https://dc.lft.to/lastmile_qr_scan", "ios": "https://dc.lft.to/lastmile_qr_scan"}, "lon": -77.02326666666667, "name": "dfd710d622ee809d16e31eb39728cab3", "is_disabled": 0, "is_reserved": 0, "bike_id": "dfd710d622ee809d16e31eb39728cab3", "lat": 38.895979, "type": "electric_scooter"}, {"fusion_lat": 0.0, "fusion_lon": 0.0, "rental_uris": {"android": "https://dc.lft.to/lastmile_qr_scan", "ios": "https://dc.lft.to/lastmile_qr_scan"}, "lon": -77.03240033333333, "name": "8f268f8f46135fc191a5a4aa12a41e42", "is_disabled": 0, "is_reserved": 0, "bike_id": "8f268f8f46135fc191a5a4aa12a41e42", "lat": 38.927307166666665, "type": "electric_scooter"}, {"fusion_lat": 0.0, "fusion_lon": 0.0, "rental_uris": {"android": "https://dc.lft.to/lastmile_qr_scan", "ios": "https://dc.lft.to/lastmile_qr_scan"}, "lon": -77.04337883333334, "name": "a6621959cb3e1dd7b4397a95e89971c4", "is_disabled": 0, "is_reserved": 0, "bike_id": "a6621959cb3e1dd7b4397a95e89971c4", "lat": 38.913255, "type": "electric_scooter"}, {"fusion_lat": 0.0, "fusion_lon": 0.0, "rental_uris": {"android": "https://dc.lft.to/lastmile_qr_scan", "ios": "https://dc.lft.to/lastmile_qr_scan"}, "lon": -77.034662, "name": "4368b90c4eb12823e1d35c73af70548a", "is_disabled": 0, "is_reserved": 0, "bike_id": "4368b90c4eb12823e1d35c73af70548a", "lat": 38.90172483333333, "type": "electric_scooter"}, {"fusion_lat": 0.0, "fusion_lon": 0.0, "rental_uris": {"android": "https://dc.lft.to/lastmile_qr_scan", "ios": "https://dc.lft.to/lastmile_qr_scan"}, "lon": -77.03361216666667, "name": "a8a0a680fe912358c68e2d66b47588f0", "is_disabled": 0, "is_reserved": 0, "bike_id": "a8a0a680fe912358c68e2d66b47588f0", "lat": 38.927501166666666, "type": "electric_scooter"}, {"fusion_lat": 0.0, "fusion_lon": 0.0, "rental_uris": {"android": "https://dc.lft.to/lastmile_qr_scan", "ios": "https://dc.lft.to/lastmile_qr_scan"}, "lon": -77.046866, "name": "c39483dab705c04d2ad5d312c66844b5", "is_disabled": 0, "is_reserved": 0, "bike_id": "c39483dab705c04d2ad5d312c66844b5", "lat": 38.89222266666667, "type": "electric_scooter"}, {"fusion_lat": 0.0, "fusion_lon": 0.0, "rental_uris": {"android": "https://dc.lft.to/lastmile_qr_scan", "ios": "https://dc.lft.to/lastmile_qr_scan"}, "lon": -76.94730183333333, "name": "dbc95c7bb4ef6cad239b666ece134805", "is_disabled": 0, "is_reserved": 0, "bike_id": "dbc95c7bb4ef6cad239b666ece134805", "lat": 38.89739266666667, "type": "electric_scooter"}, {"fusion_lat": 0.0, "fusion_lon": 0.0, "rental_uris": {"android": "https://dc.lft.to/lastmile_qr_scan", "ios": "https://dc.lft.to/lastmile_qr_scan"}, "lon": -77.04347633333333, "name": "5516aebc75854b9e6f75c280e1b2d026", "is_disabled": 0, "is_reserved": 0, "bike_id": "5516aebc75854b9e6f75c280e1b2d026", "lat": 38.90579966666667, "type": "electric_scooter"}, {"fusion_lat": 0.0, "fusion_lon": 0.0, "rental_uris": {"android": "https://dc.lft.to/lastmile_qr_scan", "ios": "https://dc.lft.to/lastmile_qr_scan"}, "lon": -77.03235, "name": "7040488b664197e54d6c63f8f663959c", "is_disabled": 0, "is_reserved": 0, "bike_id": "7040488b664197e54d6c63f8f663959c", "lat": 38.927288, "type": "electric_scooter"}, {"fusion_lat": 0.0, "fusion_lon": 0.0, "rental_uris": {"android": "https://dc.lft.to/lastmile_qr_scan", "ios": "https://dc.lft.to/lastmile_qr_scan"}, "lon": -76.99410166666667, "name": "6d8f60e8e50cc7c44cdc36b02133b00b", "is_disabled": 0, "is_reserved": 0, "bike_id": "6d8f60e8e50cc7c44cdc36b02133b00b", "lat": 38.877828, "type": "electric_scooter"}, {"fusion_lat": 0.0, "fusion_lon": 0.0, "rental_uris": {"android": "https://dc.lft.to/lastmile_qr_scan", "ios": "https://dc.lft.to/lastmile_qr_scan"}, "lon": -77.04804833333333, "name": "c25d1294513d99f2effdfa7cc63d2036", "is_disabled": 0, "is_reserved": 0, "bike_id": "c25d1294513d99f2effdfa7cc63d2036", "lat": 38.896241, "type": "electric_scooter"}, {"fusion_lat": 0.0, "fusion_lon": 0.0, "rental_uris": {"android": "https://dc.lft.to/lastmile_qr_scan", "ios": "https://dc.lft.to/lastmile_qr_scan"}, "lon": -77.0433535, "name": "70b98284b072ed1b87cb38f874883e88", "is_disabled": 0, "is_reserved": 0, "bike_id": "70b98284b072ed1b87cb38f874883e88", "lat": 38.900543166666665, "type": "electric_scooter"}, {"fusion_lat": 0.0, "fusion_lon": 0.0, "rental_uris": {"android": "https://dc.lft.to/lastmile_qr_scan", "ios": "https://dc.lft.to/lastmile_qr_scan"}, "lon": -77.05740466666667, "name": "3cff685b21e6468700c1a6a43ca6f622", "is_disabled": 0, "is_reserved": 0, "bike_id": "3cff685b21e6468700c1a6a43ca6f622", "lat": 38.933902, "type": "electric_scooter"}, {"fusion_lat": 0.0, "fusion_lon": 0.0, "rental_uris": {"android": "https://dc.lft.to/lastmile_qr_scan", "ios": "https://dc.lft.to/lastmile_qr_scan"}, "lon": -77.0334675, "name": "35ec3b0d0ab0c9bb0c276f6a6ed7bca5", "is_disabled": 0, "is_reserved": 0, "bike_id": "35ec3b0d0ab0c9bb0c276f6a6ed7bca5", "lat": 38.925382166666665, "type": "electric_scooter"}, {"fusion_lat": 0.0, "fusion_lon": 0.0, "rental_uris": {"android": "https://dc.lft.to/lastmile_qr_scan", "ios": "https://dc.lft.to/lastmile_qr_scan"}, "lon": -77.02815133333333, "name": "837b93066729a51ee5dcbfec1bb02f7f", "is_disabled": 0, "is_reserved": 0, "bike_id": "837b93066729a51ee5dcbfec1bb02f7f", "lat": 38.899203666666665, "type": "electric_scooter"}, {"fusion_lat": 0.0, "fusion_lon": 0.0, "rental_uris": {"android": "https://dc.lft.to/lastmile_qr_scan", "ios": "https://dc.lft.to/lastmile_qr_scan"}, "lon": -77.03939233333334, "name": "702c069507b8a1085b0a2ff42e1f52d9", "is_disabled": 0, "is_reserved": 0, "bike_id": "702c069507b8a1085b0a2ff42e1f52d9", "lat": 38.908185333333336, "type": "electric_scooter"}, {"fusion_lat": 0.0, "fusion_lon": 0.0, "rental_uris": {"android": "https://dc.lft.to/lastmile_qr_scan", "ios": "https://dc.lft.to/lastmile_qr_scan"}, "lon": -76.9857315, "name": "3fa01fc40a19b810abc7bbabed7fa0bb", "is_disabled": 0, "is_reserved": 0, "bike_id": "3fa01fc40a19b810abc7bbabed7fa0bb", "lat": 38.8668055, "type": "electric_scooter"}, {"fusion_lat": 0.0, "fusion_lon": 0.0, "rental_uris": {"android": "https://dc.lft.to/lastmile_qr_scan", "ios": "https://dc.lft.to/lastmile_qr_scan"}, "lon": -77.00924433333333, "name": "265b72ed6439f134735ac1772e550bde", "is_disabled": 0, "is_reserved": 0, "bike_id": "265b72ed6439f134735ac1772e550bde", "lat": 38.89633083333333, "type": "electric_scooter"}, {"fusion_lat": 0.0, "fusion_lon": 0.0, "rental_uris": {"android": "https://dc.lft.to/lastmile_qr_scan", "ios": "https://dc.lft.to/lastmile_qr_scan"}, "lon": -77.03473166666667, "name": "4175ef041833036c3688f78b3be9ab68", "is_disabled": 0, "is_reserved": 0, "bike_id": "4175ef041833036c3688f78b3be9ab68", "lat": 38.9056695, "type": "electric_scooter"}, {"fusion_lat": 0.0, "fusion_lon": 0.0, "rental_uris": {"android": "https://dc.lft.to/lastmile_qr_scan", "ios": "https://dc.lft.to/lastmile_qr_scan"}, "lon": -77.05071016666666, "name": "e3b09b42fc2aea82733b4f77ac74e336", "is_disabled": 0, "is_reserved": 0, "bike_id": "e3b09b42fc2aea82733b4f77ac74e336", "lat": 38.925363833333336, "type": "electric_scooter"}, {"fusion_lat": 0.0, "fusion_lon": 0.0, "rental_uris": {"android": "https://dc.lft.to/lastmile_qr_scan", "ios": "https://dc.lft.to/lastmile_qr_scan"}, "lon": -77.02812116666666, "name": "ccca30c7727b098dd4b1df530425fea7", "is_disabled": 0, "is_reserved": 0, "bike_id": "ccca30c7727b098dd4b1df530425fea7", "lat": 38.96247833333334, "type": "electric_bike"}, {"fusion_lat": 0.0, "fusion_lon": 0.0, "rental_uris": {"android": "https://dc.lft.to/lastmile_qr_scan", "ios": "https://dc.lft.to/lastmile_qr_scan"}, "lon": -77.0299675, "name": "7200f85304da616e2bee8ac527b2367b", "is_disabled": 0, "is_reserved": 0, "bike_id": "7200f85304da616e2bee8ac527b2367b", "lat": 38.8994575, "type": "electric_scooter"}, {"fusion_lat": 0.0, "fusion_lon": 0.0, "rental_uris": {"android": "https://dc.lft.to/lastmile_qr_scan", "ios": "https://dc.lft.to/lastmile_qr_scan"}, "lon": -77.02183683333334, "name": "e0ff23dff8ced90cb89d01d6caed0f4e", "is_disabled": 0, "is_reserved": 0, "bike_id": "e0ff23dff8ced90cb89d01d6caed0f4e", "lat": 38.90191566666667, "type": "electric_scooter"}, {"fusion_lat": 0.0, "fusion_lon": 0.0, "rental_uris": {"android": "https://dc.lft.to/lastmile_qr_scan", "ios": "https://dc.lft.to/lastmile_qr_scan"}, "lon": -77.02711, "name": "28e9197723d03c250ec26e12f9bd00e2", "is_disabled": 0, "is_reserved": 0, "bike_id": "28e9197723d03c250ec26e12f9bd00e2", "lat": 38.91715666666666, "type": "electric_scooter"}, {"fusion_lat": 0.0, "fusion_lon": 0.0, "rental_uris": {"android": "https://dc.lft.to/lastmile_qr_scan", "ios": "https://dc.lft.to/lastmile_qr_scan"}, "lon": -77.03563633333333, "name": "946af160ba1c3b321e45c8286bbd79ba", "is_disabled": 0, "is_reserved": 0, "bike_id": "946af160ba1c3b321e45c8286bbd79ba", "lat": 38.901430833333336, "type": "electric_scooter"}, {"fusion_lat": 0.0, "fusion_lon": 0.0, "rental_uris": {"android": "https://dc.lft.to/lastmile_qr_scan", "ios": "https://dc.lft.to/lastmile_qr_scan"}, "lon": -77.0270315, "name": "28c8985dd6c603de5812f298a1786264", "is_disabled": 0, "is_reserved": 0, "bike_id": "28c8985dd6c603de5812f298a1786264", "lat": 38.9067585, "type": "electric_scooter"}, {"fusion_lat": 0.0, "fusion_lon": 0.0, "rental_uris": {"android": "https://dc.lft.to/lastmile_qr_scan", "ios": "https://dc.lft.to/lastmile_qr_scan"}, "lon": -76.97972716666666, "name": "3c943753c4e79a5f0202f855156dd355", "is_disabled": 0, "is_reserved": 0, "bike_id": "3c943753c4e79a5f0202f855156dd355", "lat": 38.897421666666666, "type": "electric_scooter"}, {"fusion_lat": 0.0, "fusion_lon": 0.0, "rental_uris": {"android": "https://dc.lft.to/lastmile_qr_scan", "ios": "https://dc.lft.to/lastmile_qr_scan"}, "lon": -77.08189966666667, "name": "08333071ebb1e63db0783f530be67776", "is_disabled": 0, "is_reserved": 0, "bike_id": "08333071ebb1e63db0783f530be67776", "lat": 38.935544, "type": "electric_scooter"}, {"fusion_lat": 0.0, "fusion_lon": 0.0, "rental_uris": {"android": "https://dc.lft.to/lastmile_qr_scan", "ios": "https://dc.lft.to/lastmile_qr_scan"}, "lon": -77.03345966666667, "name": "93ab9ea5a86858dd0ad66e7f9038a3e7", "is_disabled": 0, "is_reserved": 0, "bike_id": "93ab9ea5a86858dd0ad66e7f9038a3e7", "lat": 38.90247133333333, "type": "electric_scooter"}, {"fusion_lat": 0.0, "fusion_lon": 0.0, "rental_uris": {"android": "https://dc.lft.to/lastmile_qr_scan", "ios": "https://dc.lft.to/lastmile_qr_scan"}, "lon": -77.04523216666666, "name": "abdd2d46d3e028c1126bcfaa173689e8", "is_disabled": 0, "is_reserved": 0, "bike_id": "abdd2d46d3e028c1126bcfaa173689e8", "lat": 39.03311766666667, "type": "electric_bike"}, {"fusion_lat": 0.0, "fusion_lon": 0.0, "rental_uris": {"android": "https://dc.lft.to/lastmile_qr_scan", "ios": "https://dc.lft.to/lastmile_qr_scan"}, "lon": -77.09961033333333, "name": "51aa6acfd763d3e257aa6fbf3759d56f", "is_disabled": 0, "is_reserved": 0, "bike_id": "51aa6acfd763d3e257aa6fbf3759d56f", "lat": 38.85788066666667, "type": "electric_bike"}, {"fusion_lat": 0.0, "fusion_lon": 0.0, "rental_uris": {"android": "https://dc.lft.to/lastmile_qr_scan", "ios": "https://dc.lft.to/lastmile_qr_scan"}, "lon": -77.05150416666666, "name": "703910c6af783f57acd63552b6472b91", "is_disabled": 0, "is_reserved": 0, "bike_id": "703910c6af783f57acd63552b6472b91", "lat": 38.92378216666667, "type": "electric_scooter"}, {"fusion_lat": 0.0, "fusion_lon": 0.0, "rental_uris": {"android": "https://dc.lft.to/lastmile_qr_scan", "ios": "https://dc.lft.to/lastmile_qr_scan"}, "lon": -77.02835966666666, "name": "6a168d90ad3f95695227d408ffa9bfea", "is_disabled": 0, "is_reserved": 0, "bike_id": "6a168d90ad3f95695227d408ffa9bfea", "lat": 38.893713, "type": "electric_scooter"}, {"fusion_lat": 0.0, "fusion_lon": 0.0, "rental_uris": {"android": "https://dc.lft.to/lastmile_qr_scan", "ios": "https://dc.lft.to/lastmile_qr_scan"}, "lon": -77.032096, "name": "c7aa2f5afe5a5cbef8a27cdcf8a2d0bd", "is_disabled": 0, "is_reserved": 0, "bike_id": "c7aa2f5afe5a5cbef8a27cdcf8a2d0bd", "lat": 38.91353566666667, "type": "electric_scooter"}, {"fusion_lat": 0.0, "fusion_lon": 0.0, "rental_uris": {"android": "https://dc.lft.to/lastmile_qr_scan", "ios": "https://dc.lft.to/lastmile_qr_scan"}, "lon": -77.02238366666667, "name": "e7c77cc7b75471c0e38763a5853e65f0", "is_disabled": 0, "is_reserved": 0, "bike_id": "e7c77cc7b75471c0e38763a5853e65f0", "lat": 38.98107983333333, "type": "electric_scooter"}, {"fusion_lat": 0.0, "fusion_lon": 0.0, "rental_uris": {"android": "https://dc.lft.to/lastmile_qr_scan", "ios": "https://dc.lft.to/lastmile_qr_scan"}, "lon": -76.95836, "name": "745366f72197c56174e8f35025b7b1f7", "is_disabled": 0, "is_reserved": 0, "bike_id": "745366f72197c56174e8f35025b7b1f7", "lat": 38.930494833333334, "type": "electric_bike"}, {"fusion_lat": 0.0, "fusion_lon": 0.0, "rental_uris": {"android": "https://dc.lft.to/lastmile_qr_scan", "ios": "https://dc.lft.to/lastmile_qr_scan"}, "lon": -77.033151, "name": "8c50b8d06c18a4711ed2018e1c9c3807", "is_disabled": 0, "is_reserved": 0, "bike_id": "8c50b8d06c18a4711ed2018e1c9c3807", "lat": 38.9036865, "type": "electric_scooter"}, {"fusion_lat": 0.0, "fusion_lon": 0.0, "rental_uris": {"android": "https://dc.lft.to/lastmile_qr_scan", "ios": "https://dc.lft.to/lastmile_qr_scan"}, "lon": -77.00608033333333, "name": "f20c1b8a1b5237e35df3e6af511fd5e9", "is_disabled": 0, "is_reserved": 0, "bike_id": "f20c1b8a1b5237e35df3e6af511fd5e9", "lat": 38.87178466666667, "type": "electric_scooter"}, {"fusion_lat": 0.0, "fusion_lon": 0.0, "rental_uris": {"android": "https://dc.lft.to/lastmile_qr_scan", "ios": "https://dc.lft.to/lastmile_qr_scan"}, "lon": -76.97235516666667, "name": "ab268c0026c2cc83aef6e7fe1d57fea7", "is_disabled": 0, "is_reserved": 0, "bike_id": "ab268c0026c2cc83aef6e7fe1d57fea7", "lat": 38.904249166666666, "type": "electric_bike"}, {"fusion_lat": 0.0, "fusion_lon": 0.0, "rental_uris": {"android": "https://dc.lft.to/lastmile_qr_scan", "ios": "https://dc.lft.to/lastmile_qr_scan"}, "lon": -77.02441583333334, "name": "28d28d898940a2227fd468a539fd5ff2", "is_disabled": 0, "is_reserved": 0, "bike_id": "28d28d898940a2227fd468a539fd5ff2", "lat": 38.901029, "type": "electric_scooter"}, {"fusion_lat": 0.0, "fusion_lon": 0.0, "rental_uris": {"android": "https://dc.lft.to/lastmile_qr_scan", "ios": "https://dc.lft.to/lastmile_qr_scan"}, "lon": -77.0271665, "name": "d7e833c8863eb87679e26732c2873d21", "is_disabled": 0, "is_reserved": 0, "bike_id": "d7e833c8863eb87679e26732c2873d21", "lat": 38.95190766666666, "type": "electric_scooter"}, {"fusion_lat": 0.0, "fusion_lon": 0.0, "rental_uris": {"android": "https://dc.lft.to/lastmile_qr_scan", "ios": "https://dc.lft.to/lastmile_qr_scan"}, "lon": -77.040157, "name": "cf9030df1c76d84330b2fb194e94440d", "is_disabled": 0, "is_reserved": 0, "bike_id": "cf9030df1c76d84330b2fb194e94440d", "lat": 38.9032545, "type": "electric_scooter"}, {"fusion_lat": 0.0, "fusion_lon": 0.0, "rental_uris": {"android": "https://dc.lft.to/lastmile_qr_scan", "ios": "https://dc.lft.to/lastmile_qr_scan"}, "lon": -77.04943866666666, "name": "a82e05ad293e9ad70136b83bc4581f3b", "is_disabled": 0, "is_reserved": 0, "bike_id": "a82e05ad293e9ad70136b83bc4581f3b", "lat": 38.897287166666665, "type": "electric_scooter"}, {"fusion_lat": 0.0, "fusion_lon": 0.0, "rental_uris": {"android": "https://dc.lft.to/lastmile_qr_scan", "ios": "https://dc.lft.to/lastmile_qr_scan"}, "lon": -77.03280916666667, "name": "1cc19ea1c60b0119c8dff87abc3ad7ef", "is_disabled": 0, "is_reserved": 0, "bike_id": "1cc19ea1c60b0119c8dff87abc3ad7ef", "lat": 38.928116, "type": "electric_scooter"}, {"fusion_lat": 0.0, "fusion_lon": 0.0, "rental_uris": {"android": "https://dc.lft.to/lastmile_qr_scan", "ios": "https://dc.lft.to/lastmile_qr_scan"}, "lon": -77.04642983333333, "name": "e449f89c9742332784f7be80b4f40b40", "is_disabled": 0, "is_reserved": 0, "bike_id": "e449f89c9742332784f7be80b4f40b40", "lat": 38.90073066666667, "type": "electric_bike"}, {"fusion_lat": 0.0, "fusion_lon": 0.0, "rental_uris": {"android": "https://dc.lft.to/lastmile_qr_scan", "ios": "https://dc.lft.to/lastmile_qr_scan"}, "lon": -77.04143333333333, "name": "3a1a478cc1f0e96c8dc329d13fcd4fc6", "is_disabled": 0, "is_reserved": 0, "bike_id": "3a1a478cc1f0e96c8dc329d13fcd4fc6", "lat": 38.902444333333335, "type": "electric_scooter"}, {"fusion_lat": 0.0, "fusion_lon": 0.0, "rental_uris": {"android": "https://dc.lft.to/lastmile_qr_scan", "ios": "https://dc.lft.to/lastmile_qr_scan"}, "lon": -77.02694716666667, "name": "ce86897250ba8363c0768de96753d035", "is_disabled": 0, "is_reserved": 0, "bike_id": "ce86897250ba8363c0768de96753d035", "lat": 38.90683833333333, "type": "electric_scooter"}, {"fusion_lat": 0.0, "fusion_lon": 0.0, "rental_uris": {"android": "https://dc.lft.to/lastmile_qr_scan", "ios": "https://dc.lft.to/lastmile_qr_scan"}, "lon": -77.03455983333333, "name": "14ad9834e50f0623e9220c050cb0109e", "is_disabled": 0, "is_reserved": 0, "bike_id": "14ad9834e50f0623e9220c050cb0109e", "lat": 38.90556683333333, "type": "electric_scooter"}, {"fusion_lat": 0.0, "fusion_lon": 0.0, "rental_uris": {"android": "https://dc.lft.to/lastmile_qr_scan", "ios": "https://dc.lft.to/lastmile_qr_scan"}, "lon": -77.038354, "name": "97d0d87edfbd06610dac5562b9a7c23f", "is_disabled": 0, "is_reserved": 0, "bike_id": "97d0d87edfbd06610dac5562b9a7c23f", "lat": 38.90295366666667, "type": "electric_scooter"}, {"fusion_lat": 0.0, "fusion_lon": 0.0, "rental_uris": {"android": "https://dc.lft.to/lastmile_qr_scan", "ios": "https://dc.lft.to/lastmile_qr_scan"}, "lon": -77.02627216666667, "name": "fd896d689083873de2eae5a20c9c0496", "is_disabled": 0, "is_reserved": 0, "bike_id": "fd896d689083873de2eae5a20c9c0496", "lat": 38.887711833333334, "type": "electric_scooter"}, {"fusion_lat": 0.0, "fusion_lon": 0.0, "rental_uris": {"android": "https://dc.lft.to/lastmile_qr_scan", "ios": "https://dc.lft.to/lastmile_qr_scan"}, "lon": -77.034753, "name": "82999995c817837ace2af5e21b2a6232", "is_disabled": 0, "is_reserved": 0, "bike_id": "82999995c817837ace2af5e21b2a6232", "lat": 38.906015833333335, "type": "electric_scooter"}, {"fusion_lat": 0.0, "fusion_lon": 0.0, "rental_uris": {"android": "https://dc.lft.to/lastmile_qr_scan", "ios": "https://dc.lft.to/lastmile_qr_scan"}, "lon": -77.041882, "name": "62bf8e4b3533bfd85d1b9c234ecafed3", "is_disabled": 0, "is_reserved": 0, "bike_id": "62bf8e4b3533bfd85d1b9c234ecafed3", "lat": 38.920529333333334, "type": "electric_scooter"}, {"fusion_lat": 0.0, "fusion_lon": 0.0, "rental_uris": {"android": "https://dc.lft.to/lastmile_qr_scan", "ios": "https://dc.lft.to/lastmile_qr_scan"}, "lon": -76.96830216666666, "name": "8ac476b7799c290015febe3cf4c68188", "is_disabled": 0, "is_reserved": 0, "bike_id": "8ac476b7799c290015febe3cf4c68188", "lat": 38.87336716666667, "type": "electric_scooter"}, {"fusion_lat": 0.0, "fusion_lon": 0.0, "rental_uris": {"android": "https://dc.lft.to/lastmile_qr_scan", "ios": "https://dc.lft.to/lastmile_qr_scan"}, "lon": -76.9814215, "name": "7485642e64f8effb1eb026048dde1163", "is_disabled": 0, "is_reserved": 0, "bike_id": "7485642e64f8effb1eb026048dde1163", "lat": 38.89746733333333, "type": "electric_scooter"}, {"fusion_lat": 0.0, "fusion_lon": 0.0, "rental_uris": {"android": "https://dc.lft.to/lastmile_qr_scan", "ios": "https://dc.lft.to/lastmile_qr_scan"}, "lon": -77.01876116666666, "name": "0984c18d205b1383659b6f6ef3816daf", "is_disabled": 0, "is_reserved": 0, "bike_id": "0984c18d205b1383659b6f6ef3816daf", "lat": 38.92133466666667, "type": "electric_scooter"}, {"fusion_lat": 0.0, "fusion_lon": 0.0, "rental_uris": {"android": "https://dc.lft.to/lastmile_qr_scan", "ios": "https://dc.lft.to/lastmile_qr_scan"}, "lon": -77.04334866666666, "name": "8b9791599607aa61eb5332af8170a1ab", "is_disabled": 0, "is_reserved": 0, "bike_id": "8b9791599607aa61eb5332af8170a1ab", "lat": 38.905090333333334, "type": "electric_scooter"}, {"fusion_lat": 0.0, "fusion_lon": 0.0, "rental_uris": {"android": "https://dc.lft.to/lastmile_qr_scan", "ios": "https://dc.lft.to/lastmile_qr_scan"}, "lon": -77.04671616666667, "name": "09cb6e598394b437a0d2ba07b51b966a", "is_disabled": 0, "is_reserved": 0, "bike_id": "09cb6e598394b437a0d2ba07b51b966a", "lat": 38.899005, "type": "electric_scooter"}, {"fusion_lat": 0.0, "fusion_lon": 0.0, "rental_uris": {"android": "https://dc.lft.to/lastmile_qr_scan", "ios": "https://dc.lft.to/lastmile_qr_scan"}, "lon": -77.02877966666667, "name": "f6c2d03c38f82fbf198f47eb3acf9775", "is_disabled": 0, "is_reserved": 0, "bike_id": "f6c2d03c38f82fbf198f47eb3acf9775", "lat": 38.957282166666666, "type": "electric_scooter"}, {"fusion_lat": 0.0, "fusion_lon": 0.0, "rental_uris": {"android": "https://dc.lft.to/lastmile_qr_scan", "ios": "https://dc.lft.to/lastmile_qr_scan"}, "lon": -77.0006345, "name": "31b0d88b5927a5cb3d12c422251d9a90", "is_disabled": 0, "is_reserved": 0, "bike_id": "31b0d88b5927a5cb3d12c422251d9a90", "lat": 38.876903, "type": "electric_scooter"}, {"fusion_lat": 0.0, "fusion_lon": 0.0, "rental_uris": {"android": "https://dc.lft.to/lastmile_qr_scan", "ios": "https://dc.lft.to/lastmile_qr_scan"}, "lon": -77.04227966666667, "name": "356c373f89a8072de3a2d9a9cc4bec07", "is_disabled": 0, "is_reserved": 0, "bike_id": "356c373f89a8072de3a2d9a9cc4bec07", "lat": 38.921819, "type": "electric_scooter"}, {"fusion_lat": 0.0, "fusion_lon": 0.0, "rental_uris": {"android": "https://dc.lft.to/lastmile_qr_scan", "ios": "https://dc.lft.to/lastmile_qr_scan"}, "lon": -77.02962633333334, "name": "3967796b165d636befccd9f07ec8ca48", "is_disabled": 0, "is_reserved": 0, "bike_id": "3967796b165d636befccd9f07ec8ca48", "lat": 38.922642833333335, "type": "electric_scooter"}, {"fusion_lat": 0.0, "fusion_lon": 0.0, "rental_uris": {"android": "https://dc.lft.to/lastmile_qr_scan", "ios": "https://dc.lft.to/lastmile_qr_scan"}, "lon": -77.04324616666666, "name": "8c5f2f29cf131633362127670d78a3a6", "is_disabled": 0, "is_reserved": 0, "bike_id": "8c5f2f29cf131633362127670d78a3a6", "lat": 39.03426983333333, "type": "electric_bike"}, {"fusion_lat": 0.0, "fusion_lon": 0.0, "rental_uris": {"android": "https://dc.lft.to/lastmile_qr_scan", "ios": "https://dc.lft.to/lastmile_qr_scan"}, "lon": -77.04529366666667, "name": "cd0bd1ac98d09193438ce5a15497f3ca", "is_disabled": 0, "is_reserved": 0, "bike_id": "cd0bd1ac98d09193438ce5a15497f3ca", "lat": 38.90378783333333, "type": "electric_scooter"}, {"fusion_lat": 0.0, "fusion_lon": 0.0, "rental_uris": {"android": "https://dc.lft.to/lastmile_qr_scan", "ios": "https://dc.lft.to/lastmile_qr_scan"}, "lon": -77.04277283333333, "name": "9097637715fd72461a277233b286b34f", "is_disabled": 0, "is_reserved": 0, "bike_id": "9097637715fd72461a277233b286b34f", "lat": 38.905655833333334, "type": "electric_scooter"}, {"fusion_lat": 0.0, "fusion_lon": 0.0, "rental_uris": {"android": "https://dc.lft.to/lastmile_qr_scan", "ios": "https://dc.lft.to/lastmile_qr_scan"}, "lon": -76.95656733333334, "name": "03e42fa813f49d568b506e5d2cf25589", "is_disabled": 0, "is_reserved": 0, "bike_id": "03e42fa813f49d568b506e5d2cf25589", "lat": 38.884693666666664, "type": "electric_bike"}, {"fusion_lat": 0.0, "fusion_lon": 0.0, "rental_uris": {"android": "https://dc.lft.to/lastmile_qr_scan", "ios": "https://dc.lft.to/lastmile_qr_scan"}, "lon": -77.03845883333334, "name": "c97b15ce7a8df7608654296514cc0b10", "is_disabled": 0, "is_reserved": 0, "bike_id": "c97b15ce7a8df7608654296514cc0b10", "lat": 38.9028745, "type": "electric_scooter"}, {"fusion_lat": 0.0, "fusion_lon": 0.0, "rental_uris": {"android": "https://dc.lft.to/lastmile_qr_scan", "ios": "https://dc.lft.to/lastmile_qr_scan"}, "lon": -76.977803, "name": "290d6691682d5da3e07ab03332e1cc79", "is_disabled": 0, "is_reserved": 0, "bike_id": "290d6691682d5da3e07ab03332e1cc79", "lat": 38.9057215, "type": "electric_scooter"}, {"fusion_lat": 0.0, "fusion_lon": 0.0, "rental_uris": {"android": "https://dc.lft.to/lastmile_qr_scan", "ios": "https://dc.lft.to/lastmile_qr_scan"}, "lon": -77.0470365, "name": "8f3510fe4cad6eb8ce3990a8a9640617", "is_disabled": 0, "is_reserved": 0, "bike_id": "8f3510fe4cad6eb8ce3990a8a9640617", "lat": 38.897384833333334, "type": "electric_scooter"}, {"fusion_lat": 0.0, "fusion_lon": 0.0, "rental_uris": {"android": "https://dc.lft.to/lastmile_qr_scan", "ios": "https://dc.lft.to/lastmile_qr_scan"}, "lon": -76.99001033333333, "name": "3c2403ebf15faddad823da92bd68041b", "is_disabled": 0, "is_reserved": 0, "bike_id": "3c2403ebf15faddad823da92bd68041b", "lat": 38.90396916666667, "type": "electric_scooter"}, {"fusion_lat": 0.0, "fusion_lon": 0.0, "rental_uris": {"android": "https://dc.lft.to/lastmile_qr_scan", "ios": "https://dc.lft.to/lastmile_qr_scan"}, "lon": -77.05720466666666, "name": "a874ef8fac99cde17d0a0a0eb9ce525a", "is_disabled": 0, "is_reserved": 0, "bike_id": "a874ef8fac99cde17d0a0a0eb9ce525a", "lat": 38.9337655, "type": "electric_scooter"}, {"fusion_lat": 0.0, "fusion_lon": 0.0, "rental_uris": {"android": "https://dc.lft.to/lastmile_qr_scan", "ios": "https://dc.lft.to/lastmile_qr_scan"}, "lon": -77.1252715, "name": "c7b9f02b76c88078450a11feffdc2ad5", "is_disabled": 0, "is_reserved": 0, "bike_id": "c7b9f02b76c88078450a11feffdc2ad5", "lat": 39.0563395, "type": "electric_bike"}, {"fusion_lat": 0.0, "fusion_lon": 0.0, "rental_uris": {"android": "https://dc.lft.to/lastmile_qr_scan", "ios": "https://dc.lft.to/lastmile_qr_scan"}, "lon": -77.04196816666666, "name": "63bb469e98295819ccbffc2832ba4fe3", "is_disabled": 0, "is_reserved": 0, "bike_id": "63bb469e98295819ccbffc2832ba4fe3", "lat": 38.920978166666664, "type": "electric_scooter"}, {"fusion_lat": 0.0, "fusion_lon": 0.0, "rental_uris": {"android": "https://dc.lft.to/lastmile_qr_scan", "ios": "https://dc.lft.to/lastmile_qr_scan"}, "lon": -77.02826916666666, "name": "547928632a877d0e6d68e9d540113a1b", "is_disabled": 0, "is_reserved": 0, "bike_id": "547928632a877d0e6d68e9d540113a1b", "lat": 38.898617333333334, "type": "electric_scooter"}, {"fusion_lat": 0.0, "fusion_lon": 0.0, "rental_uris": {"android": "https://dc.lft.to/lastmile_qr_scan", "ios": "https://dc.lft.to/lastmile_qr_scan"}, "lon": -77.01254183333333, "name": "524deec3f942530ab0a9c2c4973dfaff", "is_disabled": 0, "is_reserved": 0, "bike_id": "524deec3f942530ab0a9c2c4973dfaff", "lat": 38.918088833333336, "type": "electric_scooter"}, {"fusion_lat": 0.0, "fusion_lon": 0.0, "rental_uris": {"android": "https://dc.lft.to/lastmile_qr_scan", "ios": "https://dc.lft.to/lastmile_qr_scan"}, "lon": -77.02228733333334, "name": "c3dcf32a9310919c4de45d62e8438f2c", "is_disabled": 0, "is_reserved": 0, "bike_id": "c3dcf32a9310919c4de45d62e8438f2c", "lat": 38.892173, "type": "electric_scooter"}, {"fusion_lat": 0.0, "fusion_lon": 0.0, "rental_uris": {"android": "https://dc.lft.to/lastmile_qr_scan", "ios": "https://dc.lft.to/lastmile_qr_scan"}, "lon": -77.00223383333334, "name": "fae49e170fa703fd7e8f121dfb3b07b2", "is_disabled": 0, "is_reserved": 0, "bike_id": "fae49e170fa703fd7e8f121dfb3b07b2", "lat": 38.925089, "type": "electric_scooter"}, {"fusion_lat": 0.0, "fusion_lon": 0.0, "rental_uris": {"android": "https://dc.lft.to/lastmile_qr_scan", "ios": "https://dc.lft.to/lastmile_qr_scan"}, "lon": -77.07254033333334, "name": "da0d5a86ed1411747bce7c7aa5c7813e", "is_disabled": 0, "is_reserved": 0, "bike_id": "da0d5a86ed1411747bce7c7aa5c7813e", "lat": 38.939477333333336, "type": "electric_scooter"}, {"fusion_lat": 0.0, "fusion_lon": 0.0, "rental_uris": {"android": "https://dc.lft.to/lastmile_qr_scan", "ios": "https://dc.lft.to/lastmile_qr_scan"}, "lon": -77.0529805, "name": "0597a58768525a93e5979de7a6486de1", "is_disabled": 0, "is_reserved": 0, "bike_id": "0597a58768525a93e5979de7a6486de1", "lat": 38.905241, "type": "electric_scooter"}, {"fusion_lat": 0.0, "fusion_lon": 0.0, "rental_uris": {"android": "https://dc.lft.to/lastmile_qr_scan", "ios": "https://dc.lft.to/lastmile_qr_scan"}, "lon": -76.971705, "name": "4d8e4b2f7674d3f01237938436518b18", "is_disabled": 0, "is_reserved": 0, "bike_id": "4d8e4b2f7674d3f01237938436518b18", "lat": 38.8613755, "type": "electric_scooter"}, {"fusion_lat": 0.0, "fusion_lon": 0.0, "rental_uris": {"android": "https://dc.lft.to/lastmile_qr_scan", "ios": "https://dc.lft.to/lastmile_qr_scan"}, "lon": -76.946405, "name": "b3336a502b43f88a3bf1cb388f936ad3", "is_disabled": 0, "is_reserved": 0, "bike_id": "b3336a502b43f88a3bf1cb388f936ad3", "lat": 38.898595666666665, "type": "electric_scooter"}, {"fusion_lat": 0.0, "fusion_lon": 0.0, "rental_uris": {"android": "https://dc.lft.to/lastmile_qr_scan", "ios": "https://dc.lft.to/lastmile_qr_scan"}, "lon": -77.03444033333334, "name": "066d6c2f6df0fb516b6bafe0bd690485", "is_disabled": 0, "is_reserved": 0, "bike_id": "066d6c2f6df0fb516b6bafe0bd690485", "lat": 38.9100945, "type": "electric_scooter"}, {"fusion_lat": 0.0, "fusion_lon": 0.0, "rental_uris": {"android": "https://dc.lft.to/lastmile_qr_scan", "ios": "https://dc.lft.to/lastmile_qr_scan"}, "lon": -77.02504433333333, "name": "6a3ae1f430a1000d0757bd0b06c25908", "is_disabled": 0, "is_reserved": 0, "bike_id": "6a3ae1f430a1000d0757bd0b06c25908", "lat": 38.91102433333333, "type": "electric_scooter"}, {"fusion_lat": 0.0, "fusion_lon": 0.0, "rental_uris": {"android": "https://dc.lft.to/lastmile_qr_scan", "ios": "https://dc.lft.to/lastmile_qr_scan"}, "lon": -77.02377033333333, "name": "bb5492e7e7fa3a428db26801332e0d22", "is_disabled": 0, "is_reserved": 0, "bike_id": "bb5492e7e7fa3a428db26801332e0d22", "lat": 38.90724383333333, "type": "electric_scooter"}, {"fusion_lat": 0.0, "fusion_lon": 0.0, "rental_uris": {"android": "https://dc.lft.to/lastmile_qr_scan", "ios": "https://dc.lft.to/lastmile_qr_scan"}, "lon": -77.027241, "name": "051a15ef156c92effa16f34b76f49552", "is_disabled": 0, "is_reserved": 0, "bike_id": "051a15ef156c92effa16f34b76f49552", "lat": 38.898089, "type": "electric_scooter"}, {"fusion_lat": 0.0, "fusion_lon": 0.0, "rental_uris": {"android": "https://dc.lft.to/lastmile_qr_scan", "ios": "https://dc.lft.to/lastmile_qr_scan"}, "lon": -77.01790983333333, "name": "2c6ec57319d46a4eaa273671040f732d", "is_disabled": 0, "is_reserved": 0, "bike_id": "2c6ec57319d46a4eaa273671040f732d", "lat": 38.902443166666664, "type": "electric_scooter"}, {"fusion_lat": 0.0, "fusion_lon": 0.0, "rental_uris": {"android": "https://dc.lft.to/lastmile_qr_scan", "ios": "https://dc.lft.to/lastmile_qr_scan"}, "lon": -77.0260535, "name": "9defcd36a1bca7826f9473f1021716bd", "is_disabled": 0, "is_reserved": 0, "bike_id": "9defcd36a1bca7826f9473f1021716bd", "lat": 38.91719483333333, "type": "electric_scooter"}, {"fusion_lat": 0.0, "fusion_lon": 0.0, "rental_uris": {"android": "https://dc.lft.to/lastmile_qr_scan", "ios": "https://dc.lft.to/lastmile_qr_scan"}, "lon": -77.04671366666666, "name": "fe099ac8a839f4a276dc1e41655378ca", "is_disabled": 0, "is_reserved": 0, "bike_id": "fe099ac8a839f4a276dc1e41655378ca", "lat": 38.901451333333334, "type": "electric_bike"}, {"fusion_lat": 0.0, "fusion_lon": 0.0, "rental_uris": {"android": "https://dc.lft.to/lastmile_qr_scan", "ios": "https://dc.lft.to/lastmile_qr_scan"}, "lon": -77.055096, "name": "c5a65b7e450b01097a33eb9c9dfa8b9c", "is_disabled": 0, "is_reserved": 0, "bike_id": "c5a65b7e450b01097a33eb9c9dfa8b9c", "lat": 38.91525383333333, "type": "electric_scooter"}, {"fusion_lat": 0.0, "fusion_lon": 0.0, "rental_uris": {"android": "https://dc.lft.to/lastmile_qr_scan", "ios": "https://dc.lft.to/lastmile_qr_scan"}, "lon": -77.04500333333333, "name": "56a62e10c5081d758eee8bcd0051c992", "is_disabled": 0, "is_reserved": 0, "bike_id": "56a62e10c5081d758eee8bcd0051c992", "lat": 38.89455383333333, "type": "electric_scooter"}, {"fusion_lat": 0.0, "fusion_lon": 0.0, "rental_uris": {"android": "https://dc.lft.to/lastmile_qr_scan", "ios": "https://dc.lft.to/lastmile_qr_scan"}, "lon": -77.02370716666667, "name": "bc56b16de020ace4962ac71fad7fd8fc", "is_disabled": 0, "is_reserved": 0, "bike_id": "bc56b16de020ace4962ac71fad7fd8fc", "lat": 38.90212316666667, "type": "electric_scooter"}, {"fusion_lat": 0.0, "fusion_lon": 0.0, "rental_uris": {"android": "https://dc.lft.to/lastmile_qr_scan", "ios": "https://dc.lft.to/lastmile_qr_scan"}, "lon": -77.02783566666666, "name": "4436b18bde288946b4c59ab8ce7590b0", "is_disabled": 0, "is_reserved": 0, "bike_id": "4436b18bde288946b4c59ab8ce7590b0", "lat": 38.89630483333333, "type": "electric_scooter"}, {"fusion_lat": 0.0, "fusion_lon": 0.0, "rental_uris": {"android": "https://dc.lft.to/lastmile_qr_scan", "ios": "https://dc.lft.to/lastmile_qr_scan"}, "lon": -77.014058, "name": "af751509237223ccffeafd94b7990319", "is_disabled": 0, "is_reserved": 0, "bike_id": "af751509237223ccffeafd94b7990319", "lat": 38.881234, "type": "electric_scooter"}, {"fusion_lat": 0.0, "fusion_lon": 0.0, "rental_uris": {"android": "https://dc.lft.to/lastmile_qr_scan", "ios": "https://dc.lft.to/lastmile_qr_scan"}, "lon": -76.99007133333333, "name": "4c9fa19d02c19bfde5760c24f4b50862", "is_disabled": 0, "is_reserved": 0, "bike_id": "4c9fa19d02c19bfde5760c24f4b50862", "lat": 38.8651005, "type": "electric_scooter"}, {"fusion_lat": 0.0, "fusion_lon": 0.0, "rental_uris": {"android": "https://dc.lft.to/lastmile_qr_scan", "ios": "https://dc.lft.to/lastmile_qr_scan"}, "lon": -77.00214333333334, "name": "037c095858b4e9d447f4ea374adbe4aa", "is_disabled": 0, "is_reserved": 0, "bike_id": "037c095858b4e9d447f4ea374adbe4aa", "lat": 38.90028366666667, "type": "electric_scooter"}, {"fusion_lat": 0.0, "fusion_lon": 0.0, "rental_uris": {"android": "https://dc.lft.to/lastmile_qr_scan", "ios": "https://dc.lft.to/lastmile_qr_scan"}, "lon": -77.04189133333334, "name": "384b73d33a8cc16a19e88808c379b071", "is_disabled": 0, "is_reserved": 0, "bike_id": "384b73d33a8cc16a19e88808c379b071", "lat": 38.920617666666665, "type": "electric_scooter"}, {"fusion_lat": 0.0, "fusion_lon": 0.0, "rental_uris": {"android": "https://dc.lft.to/lastmile_qr_scan", "ios": "https://dc.lft.to/lastmile_qr_scan"}, "lon": -77.01902633333333, "name": "14955707307d50c7c316fe6ca034d164", "is_disabled": 0, "is_reserved": 0, "bike_id": "14955707307d50c7c316fe6ca034d164", "lat": 38.9233785, "type": "electric_scooter"}, {"fusion_lat": 0.0, "fusion_lon": 0.0, "rental_uris": {"android": "https://dc.lft.to/lastmile_qr_scan", "ios": "https://dc.lft.to/lastmile_qr_scan"}, "lon": -77.03445616666667, "name": "3136cbaa88c0ae1f78fe3ce91d003163", "is_disabled": 0, "is_reserved": 0, "bike_id": "3136cbaa88c0ae1f78fe3ce91d003163", "lat": 38.9101135, "type": "electric_scooter"}, {"fusion_lat": 0.0, "fusion_lon": 0.0, "rental_uris": {"android": "https://dc.lft.to/lastmile_qr_scan", "ios": "https://dc.lft.to/lastmile_qr_scan"}, "lon": -77.01651183333334, "name": "474eeb56cd048abef0c84b6c86f2d0fb", "is_disabled": 0, "is_reserved": 0, "bike_id": "474eeb56cd048abef0c84b6c86f2d0fb", "lat": 38.975119666666664, "type": "electric_scooter"}, {"fusion_lat": 0.0, "fusion_lon": 0.0, "rental_uris": {"android": "https://dc.lft.to/lastmile_qr_scan", "ios": "https://dc.lft.to/lastmile_qr_scan"}, "lon": -77.06392916666667, "name": "707b990f9ec300c36a975cd5b22205a3", "is_disabled": 0, "is_reserved": 0, "bike_id": "707b990f9ec300c36a975cd5b22205a3", "lat": 38.9441645, "type": "electric_scooter"}, {"fusion_lat": 0.0, "fusion_lon": 0.0, "rental_uris": {"android": "https://dc.lft.to/lastmile_qr_scan", "ios": "https://dc.lft.to/lastmile_qr_scan"}, "lon": -77.01208783333334, "name": "add048ca62eb8de0e83a94f41850b81f", "is_disabled": 0, "is_reserved": 0, "bike_id": "add048ca62eb8de0e83a94f41850b81f", "lat": 38.89883616666667, "type": "electric_scooter"}, {"fusion_lat": 0.0, "fusion_lon": 0.0, "rental_uris": {"android": "https://dc.lft.to/lastmile_qr_scan", "ios": "https://dc.lft.to/lastmile_qr_scan"}, "lon": -77.04236383333334, "name": "1c1074278881c42ffac42f70a1fea013", "is_disabled": 0, "is_reserved": 0, "bike_id": "1c1074278881c42ffac42f70a1fea013", "lat": 38.92055283333333, "type": "electric_scooter"}, {"fusion_lat": 0.0, "fusion_lon": 0.0, "rental_uris": {"android": "https://dc.lft.to/lastmile_qr_scan", "ios": "https://dc.lft.to/lastmile_qr_scan"}, "lon": -77.02235366666666, "name": "37187c3ca898802980f1a9b490e33744", "is_disabled": 0, "is_reserved": 0, "bike_id": "37187c3ca898802980f1a9b490e33744", "lat": 38.922223, "type": "electric_scooter"}, {"fusion_lat": 0.0, "fusion_lon": 0.0, "rental_uris": {"android": "https://dc.lft.to/lastmile_qr_scan", "ios": "https://dc.lft.to/lastmile_qr_scan"}, "lon": -77.0722735, "name": "9546b1a0cc5343e1367f3d3c1ef024c6", "is_disabled": 0, "is_reserved": 0, "bike_id": "9546b1a0cc5343e1367f3d3c1ef024c6", "lat": 38.931936, "type": "electric_scooter"}, {"fusion_lat": 0.0, "fusion_lon": 0.0, "rental_uris": {"android": "https://dc.lft.to/lastmile_qr_scan", "ios": "https://dc.lft.to/lastmile_qr_scan"}, "lon": -77.01414366666667, "name": "dadd11d2cb7e2bc5171f0cc67d468159", "is_disabled": 0, "is_reserved": 0, "bike_id": "dadd11d2cb7e2bc5171f0cc67d468159", "lat": 38.892199833333336, "type": "electric_scooter"}, {"fusion_lat": 0.0, "fusion_lon": 0.0, "rental_uris": {"android": "https://dc.lft.to/lastmile_qr_scan", "ios": "https://dc.lft.to/lastmile_qr_scan"}, "lon": -77.00671983333334, "name": "16638bc246a5a397c0cf0f8040b782c4", "is_disabled": 0, "is_reserved": 0, "bike_id": "16638bc246a5a397c0cf0f8040b782c4", "lat": 38.9450875, "type": "electric_bike"}, {"fusion_lat": 0.0, "fusion_lon": 0.0, "rental_uris": {"android": "https://dc.lft.to/lastmile_qr_scan", "ios": "https://dc.lft.to/lastmile_qr_scan"}, "lon": -77.048641, "name": "87f6b721c3b97b475e0cd6926635132d", "is_disabled": 0, "is_reserved": 0, "bike_id": "87f6b721c3b97b475e0cd6926635132d", "lat": 38.913343, "type": "electric_scooter"}, {"fusion_lat": 0.0, "fusion_lon": 0.0, "rental_uris": {"android": "https://dc.lft.to/lastmile_qr_scan", "ios": "https://dc.lft.to/lastmile_qr_scan"}, "lon": -77.047893, "name": "1715425973f945645d0260d40adc0af7", "is_disabled": 0, "is_reserved": 0, "bike_id": "1715425973f945645d0260d40adc0af7", "lat": 38.90491133333333, "type": "electric_scooter"}, {"fusion_lat": 0.0, "fusion_lon": 0.0, "rental_uris": {"android": "https://dc.lft.to/lastmile_qr_scan", "ios": "https://dc.lft.to/lastmile_qr_scan"}, "lon": -77.04190716666666, "name": "439cec637dfda1a5dd06382c4cd98799", "is_disabled": 0, "is_reserved": 0, "bike_id": "439cec637dfda1a5dd06382c4cd98799", "lat": 38.92059916666667, "type": "electric_scooter"}, {"fusion_lat": 0.0, "fusion_lon": 0.0, "rental_uris": {"android": "https://dc.lft.to/lastmile_qr_scan", "ios": "https://dc.lft.to/lastmile_qr_scan"}, "lon": -77.02887416666667, "name": "538aafff6b6237d14f8769137f1c990f", "is_disabled": 0, "is_reserved": 0, "bike_id": "538aafff6b6237d14f8769137f1c990f", "lat": 38.90139683333334, "type": "electric_scooter"}, {"fusion_lat": 0.0, "fusion_lon": 0.0, "rental_uris": {"android": "https://dc.lft.to/lastmile_qr_scan", "ios": "https://dc.lft.to/lastmile_qr_scan"}, "lon": -77.03461183333333, "name": "2082769107a8eff61dd2e041d7d1cfb1", "is_disabled": 0, "is_reserved": 0, "bike_id": "2082769107a8eff61dd2e041d7d1cfb1", "lat": 38.901267833333335, "type": "electric_scooter"}, {"fusion_lat": 0.0, "fusion_lon": 0.0, "rental_uris": {"android": "https://dc.lft.to/lastmile_qr_scan", "ios": "https://dc.lft.to/lastmile_qr_scan"}, "lon": -77.00343933333333, "name": "e989bd2d84cbddba7eacd7e77a20c0d3", "is_disabled": 0, "is_reserved": 0, "bike_id": "e989bd2d84cbddba7eacd7e77a20c0d3", "lat": 38.89750083333333, "type": "electric_scooter"}, {"fusion_lat": 0.0, "fusion_lon": 0.0, "rental_uris": {"android": "https://dc.lft.to/lastmile_qr_scan", "ios": "https://dc.lft.to/lastmile_qr_scan"}, "lon": -77.02793483333333, "name": "7a04db29a0cd43a3b24fa72eecb600cc", "is_disabled": 0, "is_reserved": 0, "bike_id": "7a04db29a0cd43a3b24fa72eecb600cc", "lat": 38.896179000000004, "type": "electric_scooter"}, {"fusion_lat": 0.0, "fusion_lon": 0.0, "rental_uris": {"android": "https://dc.lft.to/lastmile_qr_scan", "ios": "https://dc.lft.to/lastmile_qr_scan"}, "lon": -77.03636866666666, "name": "4609f226615cff1e4e4900a941e8847f", "is_disabled": 0, "is_reserved": 0, "bike_id": "4609f226615cff1e4e4900a941e8847f", "lat": 38.92820066666667, "type": "electric_scooter"}, {"fusion_lat": 0.0, "fusion_lon": 0.0, "rental_uris": {"android": "https://dc.lft.to/lastmile_qr_scan", "ios": "https://dc.lft.to/lastmile_qr_scan"}, "lon": -76.982517, "name": "5690b6722b2ab94e02649f95320cc718", "is_disabled": 0, "is_reserved": 0, "bike_id": "5690b6722b2ab94e02649f95320cc718", "lat": 38.95333433333333, "type": "electric_bike"}, {"fusion_lat": 0.0, "fusion_lon": 0.0, "rental_uris": {"android": "https://dc.lft.to/lastmile_qr_scan", "ios": "https://dc.lft.to/lastmile_qr_scan"}, "lon": -76.9393185, "name": "e7da16f4491872d6b02588bb6ea8fda0", "is_disabled": 0, "is_reserved": 0, "bike_id": "e7da16f4491872d6b02588bb6ea8fda0", "lat": 38.89328583333333, "type": "electric_scooter"}, {"fusion_lat": 0.0, "fusion_lon": 0.0, "rental_uris": {"android": "https://dc.lft.to/lastmile_qr_scan", "ios": "https://dc.lft.to/lastmile_qr_scan"}, "lon": -77.0143835, "name": "03b01722789677ede80b5586232dc85d", "is_disabled": 0, "is_reserved": 0, "bike_id": "03b01722789677ede80b5586232dc85d", "lat": 38.91316483333333, "type": "electric_scooter"}, {"fusion_lat": 0.0, "fusion_lon": 0.0, "rental_uris": {"android": "https://dc.lft.to/lastmile_qr_scan", "ios": "https://dc.lft.to/lastmile_qr_scan"}, "lon": -77.05637983333334, "name": "fa398bca67fec3ffa3620942eb3e1fa1", "is_disabled": 0, "is_reserved": 0, "bike_id": "fa398bca67fec3ffa3620942eb3e1fa1", "lat": 38.9234005, "type": "electric_scooter"}, {"fusion_lat": 0.0, "fusion_lon": 0.0, "rental_uris": {"android": "https://dc.lft.to/lastmile_qr_scan", "ios": "https://dc.lft.to/lastmile_qr_scan"}, "lon": -77.04533516666666, "name": "431e5eb7a5d4033db5a9149671289d34", "is_disabled": 0, "is_reserved": 0, "bike_id": "431e5eb7a5d4033db5a9149671289d34", "lat": 38.93457633333333, "type": "electric_scooter"}, {"fusion_lat": 0.0, "fusion_lon": 0.0, "rental_uris": {"android": "https://dc.lft.to/lastmile_qr_scan", "ios": "https://dc.lft.to/lastmile_qr_scan"}, "lon": -76.97224716666666, "name": "47f180a9186f193c3ee8431933b3eeed", "is_disabled": 0, "is_reserved": 0, "bike_id": "47f180a9186f193c3ee8431933b3eeed", "lat": 38.9003765, "type": "electric_bike"}, {"fusion_lat": 0.0, "fusion_lon": 0.0, "rental_uris": {"android": "https://dc.lft.to/lastmile_qr_scan", "ios": "https://dc.lft.to/lastmile_qr_scan"}, "lon": -77.03593083333334, "name": "a8c7ab8031e05eef334e72e1d76e107e", "is_disabled": 0, "is_reserved": 0, "bike_id": "a8c7ab8031e05eef334e72e1d76e107e", "lat": 38.928600833333334, "type": "electric_scooter"}, {"fusion_lat": 0.0, "fusion_lon": 0.0, "rental_uris": {"android": "https://dc.lft.to/lastmile_qr_scan", "ios": "https://dc.lft.to/lastmile_qr_scan"}, "lon": -77.00529783333333, "name": "12f752077fa4e99ab2e2b7c2208bc34b", "is_disabled": 0, "is_reserved": 0, "bike_id": "12f752077fa4e99ab2e2b7c2208bc34b", "lat": 38.8464855, "type": "electric_scooter"}, {"fusion_lat": 0.0, "fusion_lon": 0.0, "rental_uris": {"android": "https://dc.lft.to/lastmile_qr_scan", "ios": "https://dc.lft.to/lastmile_qr_scan"}, "lon": -76.93179616666667, "name": "3e20f794120478ed9ccd9adad11bed4f", "is_disabled": 0, "is_reserved": 0, "bike_id": "3e20f794120478ed9ccd9adad11bed4f", "lat": 38.89833983333333, "type": "electric_scooter"}, {"fusion_lat": 0.0, "fusion_lon": 0.0, "rental_uris": {"android": "https://dc.lft.to/lastmile_qr_scan", "ios": "https://dc.lft.to/lastmile_qr_scan"}, "lon": -77.04417433333333, "name": "99d3d09c685b1040ebc009f9703e6d2a", "is_disabled": 0, "is_reserved": 0, "bike_id": "99d3d09c685b1040ebc009f9703e6d2a", "lat": 38.911464333333335, "type": "electric_scooter"}, {"fusion_lat": 0.0, "fusion_lon": 0.0, "rental_uris": {"android": "https://dc.lft.to/lastmile_qr_scan", "ios": "https://dc.lft.to/lastmile_qr_scan"}, "lon": -77.00259166666666, "name": "a1ea6fca0df960614585478aa963168f", "is_disabled": 0, "is_reserved": 0, "bike_id": "a1ea6fca0df960614585478aa963168f", "lat": 38.894831, "type": "electric_scooter"}, {"fusion_lat": 0.0, "fusion_lon": 0.0, "rental_uris": {"android": "https://dc.lft.to/lastmile_qr_scan", "ios": "https://dc.lft.to/lastmile_qr_scan"}, "lon": -76.96814916666666, "name": "9068b2994120aab7cc27dede03ac670a", "is_disabled": 0, "is_reserved": 0, "bike_id": "9068b2994120aab7cc27dede03ac670a", "lat": 38.847152666666666, "type": "electric_scooter"}, {"fusion_lat": 0.0, "fusion_lon": 0.0, "rental_uris": {"android": "https://dc.lft.to/lastmile_qr_scan", "ios": "https://dc.lft.to/lastmile_qr_scan"}, "lon": -77.01674483333333, "name": "9d71b8fabc8d2aa7fe2da9a79bdd6541", "is_disabled": 0, "is_reserved": 0, "bike_id": "9d71b8fabc8d2aa7fe2da9a79bdd6541", "lat": 38.92041183333333, "type": "electric_scooter"}, {"fusion_lat": 0.0, "fusion_lon": 0.0, "rental_uris": {"android": "https://dc.lft.to/lastmile_qr_scan", "ios": "https://dc.lft.to/lastmile_qr_scan"}, "lon": -77.038491, "name": "d79ad5d6bfef98174110e3b3d5f60ed4", "is_disabled": 0, "is_reserved": 0, "bike_id": "d79ad5d6bfef98174110e3b3d5f60ed4", "lat": 38.902947833333336, "type": "electric_scooter"}, {"fusion_lat": 0.0, "fusion_lon": 0.0, "rental_uris": {"android": "https://dc.lft.to/lastmile_qr_scan", "ios": "https://dc.lft.to/lastmile_qr_scan"}, "lon": -77.040403, "name": "5cf7f3e8137f789bd807280ea7beeb89", "is_disabled": 0, "is_reserved": 0, "bike_id": "5cf7f3e8137f789bd807280ea7beeb89", "lat": 38.905792166666664, "type": "electric_scooter"}, {"fusion_lat": 0.0, "fusion_lon": 0.0, "rental_uris": {"android": "https://dc.lft.to/lastmile_qr_scan", "ios": "https://dc.lft.to/lastmile_qr_scan"}, "lon": -77.04869033333334, "name": "795045be3c3837fce0ce9f7f4b01dc1d", "is_disabled": 0, "is_reserved": 0, "bike_id": "795045be3c3837fce0ce9f7f4b01dc1d", "lat": 38.909736333333335, "type": "electric_scooter"}, {"fusion_lat": 0.0, "fusion_lon": 0.0, "rental_uris": {"android": "https://dc.lft.to/lastmile_qr_scan", "ios": "https://dc.lft.to/lastmile_qr_scan"}, "lon": -77.01396566666666, "name": "8e3a822096f0716fcde17192811ca5e2", "is_disabled": 0, "is_reserved": 0, "bike_id": "8e3a822096f0716fcde17192811ca5e2", "lat": 38.92868, "type": "electric_scooter"}, {"fusion_lat": 0.0, "fusion_lon": 0.0, "rental_uris": {"android": "https://dc.lft.to/lastmile_qr_scan", "ios": "https://dc.lft.to/lastmile_qr_scan"}, "lon": -77.03301883333333, "name": "6bd71c8f9112162e6b13bcf2469e6df7", "is_disabled": 0, "is_reserved": 0, "bike_id": "6bd71c8f9112162e6b13bcf2469e6df7", "lat": 38.95633333333333, "type": "electric_scooter"}, {"fusion_lat": 0.0, "fusion_lon": 0.0, "rental_uris": {"android": "https://dc.lft.to/lastmile_qr_scan", "ios": "https://dc.lft.to/lastmile_qr_scan"}, "lon": -76.93869266666667, "name": "7408fca5855ffe2958315a0d77262b5b", "is_disabled": 0, "is_reserved": 0, "bike_id": "7408fca5855ffe2958315a0d77262b5b", "lat": 38.956310333333334, "type": "electric_bike"}, {"fusion_lat": 0.0, "fusion_lon": 0.0, "rental_uris": {"android": "https://dc.lft.to/lastmile_qr_scan", "ios": "https://dc.lft.to/lastmile_qr_scan"}, "lon": -77.0066365, "name": "01c7ada7f93e8678e96ebab76ec95d7d", "is_disabled": 0, "is_reserved": 0, "bike_id": "01c7ada7f93e8678e96ebab76ec95d7d", "lat": 38.89796483333333, "type": "electric_scooter"}, {"fusion_lat": 0.0, "fusion_lon": 0.0, "rental_uris": {"android": "https://dc.lft.to/lastmile_qr_scan", "ios": "https://dc.lft.to/lastmile_qr_scan"}, "lon": -77.03183683333333, "name": "cd8bf45f2dc72276e8865876a6b1b438", "is_disabled": 0, "is_reserved": 0, "bike_id": "cd8bf45f2dc72276e8865876a6b1b438", "lat": 38.91103, "type": "electric_scooter"}, {"fusion_lat": 0.0, "fusion_lon": 0.0, "rental_uris": {"android": "https://dc.lft.to/lastmile_qr_scan", "ios": "https://dc.lft.to/lastmile_qr_scan"}, "lon": -76.98518433333334, "name": "52fbe6bc063c48e84ccb8cd709afafc6", "is_disabled": 0, "is_reserved": 0, "bike_id": "52fbe6bc063c48e84ccb8cd709afafc6", "lat": 38.8600525, "type": "electric_scooter"}, {"fusion_lat": 0.0, "fusion_lon": 0.0, "rental_uris": {"android": "https://dc.lft.to/lastmile_qr_scan", "ios": "https://dc.lft.to/lastmile_qr_scan"}, "lon": -77.02415283333333, "name": "c656a9dbe325ef31e58f87877b201538", "is_disabled": 0, "is_reserved": 0, "bike_id": "c656a9dbe325ef31e58f87877b201538", "lat": 38.90322116666667, "type": "electric_scooter"}, {"fusion_lat": 0.0, "fusion_lon": 0.0, "rental_uris": {"android": "https://dc.lft.to/lastmile_qr_scan", "ios": "https://dc.lft.to/lastmile_qr_scan"}, "lon": -77.02829816666667, "name": "74f07ba2a31e1c00a59b0684a425828d", "is_disabled": 0, "is_reserved": 0, "bike_id": "74f07ba2a31e1c00a59b0684a425828d", "lat": 38.88731716666667, "type": "electric_scooter"}, {"fusion_lat": 0.0, "fusion_lon": 0.0, "rental_uris": {"android": "https://dc.lft.to/lastmile_qr_scan", "ios": "https://dc.lft.to/lastmile_qr_scan"}, "lon": -77.03443516666667, "name": "537c7978f5f2a71b64492b31cd55a2fa", "is_disabled": 0, "is_reserved": 0, "bike_id": "537c7978f5f2a71b64492b31cd55a2fa", "lat": 38.910084166666664, "type": "electric_scooter"}, {"fusion_lat": 0.0, "fusion_lon": 0.0, "rental_uris": {"android": "https://dc.lft.to/lastmile_qr_scan", "ios": "https://dc.lft.to/lastmile_qr_scan"}, "lon": -77.02976416666667, "name": "22cc1c823cd06b8a08a020e7a03c2da2", "is_disabled": 0, "is_reserved": 0, "bike_id": "22cc1c823cd06b8a08a020e7a03c2da2", "lat": 38.897428166666664, "type": "electric_scooter"}, {"fusion_lat": 0.0, "fusion_lon": 0.0, "rental_uris": {"android": "https://dc.lft.to/lastmile_qr_scan", "ios": "https://dc.lft.to/lastmile_qr_scan"}, "lon": -77.04178816666666, "name": "5b09e5dbafa0858587fdf1b02bae6f1b", "is_disabled": 0, "is_reserved": 0, "bike_id": "5b09e5dbafa0858587fdf1b02bae6f1b", "lat": 38.8981965, "type": "electric_bike"}, {"fusion_lat": 0.0, "fusion_lon": 0.0, "rental_uris": {"android": "https://dc.lft.to/lastmile_qr_scan", "ios": "https://dc.lft.to/lastmile_qr_scan"}, "lon": -77.0413515, "name": "b75d139085ed4b5a799e8eb27014999b", "is_disabled": 0, "is_reserved": 0, "bike_id": "b75d139085ed4b5a799e8eb27014999b", "lat": 38.91263, "type": "electric_scooter"}, {"fusion_lat": 0.0, "fusion_lon": 0.0, "rental_uris": {"android": "https://dc.lft.to/lastmile_qr_scan", "ios": "https://dc.lft.to/lastmile_qr_scan"}, "lon": -77.02925966666666, "name": "4a1e94a1e1cb43b4f30cc14588d38f08", "is_disabled": 0, "is_reserved": 0, "bike_id": "4a1e94a1e1cb43b4f30cc14588d38f08", "lat": 38.895188, "type": "electric_scooter"}, {"fusion_lat": 0.0, "fusion_lon": 0.0, "rental_uris": {"android": "https://dc.lft.to/lastmile_qr_scan", "ios": "https://dc.lft.to/lastmile_qr_scan"}, "lon": -76.997665, "name": "0d4813b3ee555ac00fae010221ac9d78", "is_disabled": 0, "is_reserved": 0, "bike_id": "0d4813b3ee555ac00fae010221ac9d78", "lat": 38.90892766666666, "type": "electric_scooter"}, {"fusion_lat": 0.0, "fusion_lon": 0.0, "rental_uris": {"android": "https://dc.lft.to/lastmile_qr_scan", "ios": "https://dc.lft.to/lastmile_qr_scan"}, "lon": -76.99126233333334, "name": "39c7c7cf67d367de7f4bce564d407176", "is_disabled": 0, "is_reserved": 0, "bike_id": "39c7c7cf67d367de7f4bce564d407176", "lat": 38.846445, "type": "electric_scooter"}, {"fusion_lat": 0.0, "fusion_lon": 0.0, "rental_uris": {"android": "https://dc.lft.to/lastmile_qr_scan", "ios": "https://dc.lft.to/lastmile_qr_scan"}, "lon": -77.10788383333333, "name": "07128c896a7819006a4c560c3d45c628", "is_disabled": 0, "is_reserved": 0, "bike_id": "07128c896a7819006a4c560c3d45c628", "lat": 38.852496333333335, "type": "electric_bike"}, {"fusion_lat": 0.0, "fusion_lon": 0.0, "rental_uris": {"android": "https://dc.lft.to/lastmile_qr_scan", "ios": "https://dc.lft.to/lastmile_qr_scan"}, "lon": -77.047595, "name": "7b8894f6b1c8e4e877f47327faefbc93", "is_disabled": 0, "is_reserved": 0, "bike_id": "7b8894f6b1c8e4e877f47327faefbc93", "lat": 38.9096285, "type": "electric_scooter"}, {"fusion_lat": 0.0, "fusion_lon": 0.0, "rental_uris": {"android": "https://dc.lft.to/lastmile_qr_scan", "ios": "https://dc.lft.to/lastmile_qr_scan"}, "lon": -76.98543683333334, "name": "0885550bbed292736482be0ece6b1695", "is_disabled": 0, "is_reserved": 0, "bike_id": "0885550bbed292736482be0ece6b1695", "lat": 38.866901166666665, "type": "electric_scooter"}, {"fusion_lat": 0.0, "fusion_lon": 0.0, "rental_uris": {"android": "https://dc.lft.to/lastmile_qr_scan", "ios": "https://dc.lft.to/lastmile_qr_scan"}, "lon": -76.9973, "name": "729cbae1ed7322a1d0fc1050745d9a68", "is_disabled": 0, "is_reserved": 0, "bike_id": "729cbae1ed7322a1d0fc1050745d9a68", "lat": 38.899386, "type": "electric_scooter"}, {"fusion_lat": 0.0, "fusion_lon": 0.0, "rental_uris": {"android": "https://dc.lft.to/lastmile_qr_scan", "ios": "https://dc.lft.to/lastmile_qr_scan"}, "lon": -77.05028683333333, "name": "b84aa7e47945069a5201768d76968231", "is_disabled": 0, "is_reserved": 0, "bike_id": "b84aa7e47945069a5201768d76968231", "lat": 38.896687166666666, "type": "electric_scooter"}, {"fusion_lat": 0.0, "fusion_lon": 0.0, "rental_uris": {"android": "https://dc.lft.to/lastmile_qr_scan", "ios": "https://dc.lft.to/lastmile_qr_scan"}, "lon": -77.01670933333334, "name": "336612439802b8a85d56a86bb46815d2", "is_disabled": 0, "is_reserved": 0, "bike_id": "336612439802b8a85d56a86bb46815d2", "lat": 38.920447833333334, "type": "electric_scooter"}, {"fusion_lat": 0.0, "fusion_lon": 0.0, "rental_uris": {"android": "https://dc.lft.to/lastmile_qr_scan", "ios": "https://dc.lft.to/lastmile_qr_scan"}, "lon": -76.99506516666666, "name": "5c1feb49f07aa2ecd6713a8d6e05ccb1", "is_disabled": 0, "is_reserved": 0, "bike_id": "5c1feb49f07aa2ecd6713a8d6e05ccb1", "lat": 38.82179133333333, "type": "electric_bike"}, {"fusion_lat": 0.0, "fusion_lon": 0.0, "rental_uris": {"android": "https://dc.lft.to/lastmile_qr_scan", "ios": "https://dc.lft.to/lastmile_qr_scan"}, "lon": -76.99695516666667, "name": "3b1e4ddb90fd1125c043e0d32ed86a36", "is_disabled": 0, "is_reserved": 0, "bike_id": "3b1e4ddb90fd1125c043e0d32ed86a36", "lat": 38.884197, "type": "electric_scooter"}, {"fusion_lat": 0.0, "fusion_lon": 0.0, "rental_uris": {"android": "https://dc.lft.to/lastmile_qr_scan", "ios": "https://dc.lft.to/lastmile_qr_scan"}, "lon": -76.94630566666666, "name": "fb8e224ebe5773457af632c73bbed0ad", "is_disabled": 0, "is_reserved": 0, "bike_id": "fb8e224ebe5773457af632c73bbed0ad", "lat": 38.898290833333334, "type": "electric_scooter"}, {"fusion_lat": 0.0, "fusion_lon": 0.0, "rental_uris": {"android": "https://dc.lft.to/lastmile_qr_scan", "ios": "https://dc.lft.to/lastmile_qr_scan"}, "lon": -77.02644, "name": "95776776927d9fb46aa43eef0eda4b32", "is_disabled": 0, "is_reserved": 0, "bike_id": "95776776927d9fb46aa43eef0eda4b32", "lat": 38.90423333333333, "type": "electric_scooter"}, {"fusion_lat": 0.0, "fusion_lon": 0.0, "rental_uris": {"android": "https://dc.lft.to/lastmile_qr_scan", "ios": "https://dc.lft.to/lastmile_qr_scan"}, "lon": -77.0217125, "name": "58320ae2dcefb79a39454686b230c05b", "is_disabled": 0, "is_reserved": 0, "bike_id": "58320ae2dcefb79a39454686b230c05b", "lat": 38.94294166666667, "type": "electric_scooter"}, {"fusion_lat": 0.0, "fusion_lon": 0.0, "rental_uris": {"android": "https://dc.lft.to/lastmile_qr_scan", "ios": "https://dc.lft.to/lastmile_qr_scan"}, "lon": -77.043712, "name": "53cf4ba30fbff50e2536ed1c1bc155c8", "is_disabled": 0, "is_reserved": 0, "bike_id": "53cf4ba30fbff50e2536ed1c1bc155c8", "lat": 38.921286333333335, "type": "electric_scooter"}, {"fusion_lat": 0.0, "fusion_lon": 0.0, "rental_uris": {"android": "https://dc.lft.to/lastmile_qr_scan", "ios": "https://dc.lft.to/lastmile_qr_scan"}, "lon": -77.0175935, "name": "5d68279f59f3ebadcc8b3b5096fdf78c", "is_disabled": 0, "is_reserved": 0, "bike_id": "5d68279f59f3ebadcc8b3b5096fdf78c", "lat": 38.877178, "type": "electric_scooter"}, {"fusion_lat": 0.0, "fusion_lon": 0.0, "rental_uris": {"android": "https://dc.lft.to/lastmile_qr_scan", "ios": "https://dc.lft.to/lastmile_qr_scan"}, "lon": -77.05225833333333, "name": "5efbe6052177b88cef3873f1d3271503", "is_disabled": 0, "is_reserved": 0, "bike_id": "5efbe6052177b88cef3873f1d3271503", "lat": 38.923602833333334, "type": "electric_scooter"}, {"fusion_lat": 0.0, "fusion_lon": 0.0, "rental_uris": {"android": "https://dc.lft.to/lastmile_qr_scan", "ios": "https://dc.lft.to/lastmile_qr_scan"}, "lon": -77.04488566666667, "name": "199ed333aceee098f071e4bff117b257", "is_disabled": 0, "is_reserved": 0, "bike_id": "199ed333aceee098f071e4bff117b257", "lat": 38.899429833333336, "type": "electric_scooter"}, {"fusion_lat": 0.0, "fusion_lon": 0.0, "rental_uris": {"android": "https://dc.lft.to/lastmile_qr_scan", "ios": "https://dc.lft.to/lastmile_qr_scan"}, "lon": -77.05043166666667, "name": "8196fd156961e85d529ebf92531a0461", "is_disabled": 0, "is_reserved": 0, "bike_id": "8196fd156961e85d529ebf92531a0461", "lat": 38.923456333333334, "type": "electric_scooter"}, {"fusion_lat": 0.0, "fusion_lon": 0.0, "rental_uris": {"android": "https://dc.lft.to/lastmile_qr_scan", "ios": "https://dc.lft.to/lastmile_qr_scan"}, "lon": -77.01654416666666, "name": "a9a24a98eb4922c6c65d1b2743287661", "is_disabled": 0, "is_reserved": 0, "bike_id": "a9a24a98eb4922c6c65d1b2743287661", "lat": 38.881015, "type": "electric_scooter"}, {"fusion_lat": 0.0, "fusion_lon": 0.0, "rental_uris": {"android": "https://dc.lft.to/lastmile_qr_scan", "ios": "https://dc.lft.to/lastmile_qr_scan"}, "lon": -77.02160533333333, "name": "2064f102db7469a6bd54cf67f58f9253", "is_disabled": 0, "is_reserved": 0, "bike_id": "2064f102db7469a6bd54cf67f58f9253", "lat": 38.92611383333333, "type": "electric_scooter"}, {"fusion_lat": 0.0, "fusion_lon": 0.0, "rental_uris": {"android": "https://dc.lft.to/lastmile_qr_scan", "ios": "https://dc.lft.to/lastmile_qr_scan"}, "lon": -77.02558333333333, "name": "cc7aa349e2aac28b55467d53c113e3ee", "is_disabled": 0, "is_reserved": 0, "bike_id": "cc7aa349e2aac28b55467d53c113e3ee", "lat": 38.941641833333335, "type": "electric_scooter"}, {"fusion_lat": 0.0, "fusion_lon": 0.0, "rental_uris": {"android": "https://dc.lft.to/lastmile_qr_scan", "ios": "https://dc.lft.to/lastmile_qr_scan"}, "lon": -77.03222183333334, "name": "637b02e2d45d02b73062b47e3c642273", "is_disabled": 0, "is_reserved": 0, "bike_id": "637b02e2d45d02b73062b47e3c642273", "lat": 38.917909333333334, "type": "electric_scooter"}, {"fusion_lat": 0.0, "fusion_lon": 0.0, "rental_uris": {"android": "https://dc.lft.to/lastmile_qr_scan", "ios": "https://dc.lft.to/lastmile_qr_scan"}, "lon": -77.01980716666667, "name": "b0ad024ca5af02aef4e2d340d5659f79", "is_disabled": 0, "is_reserved": 0, "bike_id": "b0ad024ca5af02aef4e2d340d5659f79", "lat": 38.887197666666665, "type": "electric_scooter"}, {"fusion_lat": 0.0, "fusion_lon": 0.0, "rental_uris": {"android": "https://dc.lft.to/lastmile_qr_scan", "ios": "https://dc.lft.to/lastmile_qr_scan"}, "lon": -77.00149666666667, "name": "1b5600a510e0d9d8fd8c391b9ecb1359", "is_disabled": 0, "is_reserved": 0, "bike_id": "1b5600a510e0d9d8fd8c391b9ecb1359", "lat": 38.87311716666667, "type": "electric_scooter"}, {"fusion_lat": 0.0, "fusion_lon": 0.0, "rental_uris": {"android": "https://dc.lft.to/lastmile_qr_scan", "ios": "https://dc.lft.to/lastmile_qr_scan"}, "lon": -76.9736585, "name": "1e4ef205323cf715a2f19172b59fea15", "is_disabled": 0, "is_reserved": 0, "bike_id": "1e4ef205323cf715a2f19172b59fea15", "lat": 38.96319333333334, "type": "electric_bike"}, {"fusion_lat": 0.0, "fusion_lon": 0.0, "rental_uris": {"android": "https://dc.lft.to/lastmile_qr_scan", "ios": "https://dc.lft.to/lastmile_qr_scan"}, "lon": -77.03578583333334, "name": "0c89f9d5e7b224b5fb06ff99ad96ac30", "is_disabled": 0, "is_reserved": 0, "bike_id": "0c89f9d5e7b224b5fb06ff99ad96ac30", "lat": 38.90376916666666, "type": "electric_scooter"}, {"fusion_lat": 0.0, "fusion_lon": 0.0, "rental_uris": {"android": "https://dc.lft.to/lastmile_qr_scan", "ios": "https://dc.lft.to/lastmile_qr_scan"}, "lon": -77.01402916666666, "name": "93b3e04f972b4ebaa66f4447d734c0de", "is_disabled": 0, "is_reserved": 0, "bike_id": "93b3e04f972b4ebaa66f4447d734c0de", "lat": 38.9422965, "type": "electric_scooter"}, {"fusion_lat": 0.0, "fusion_lon": 0.0, "rental_uris": {"android": "https://dc.lft.to/lastmile_qr_scan", "ios": "https://dc.lft.to/lastmile_qr_scan"}, "lon": -76.97253166666667, "name": "4f247c5392e998e40b39a56c91675e81", "is_disabled": 0, "is_reserved": 0, "bike_id": "4f247c5392e998e40b39a56c91675e81", "lat": 38.957463833333335, "type": "electric_bike"}, {"fusion_lat": 0.0, "fusion_lon": 0.0, "rental_uris": {"android": "https://dc.lft.to/lastmile_qr_scan", "ios": "https://dc.lft.to/lastmile_qr_scan"}, "lon": -77.024807, "name": "af603eccd17feb6308a6c4068e060bb4", "is_disabled": 0, "is_reserved": 0, "bike_id": "af603eccd17feb6308a6c4068e060bb4", "lat": 38.96501816666667, "type": "electric_scooter"}, {"fusion_lat": 0.0, "fusion_lon": 0.0, "rental_uris": {"android": "https://dc.lft.to/lastmile_qr_scan", "ios": "https://dc.lft.to/lastmile_qr_scan"}, "lon": -77.08307866666667, "name": "d23b84d1486991909a385108da83e426", "is_disabled": 0, "is_reserved": 0, "bike_id": "d23b84d1486991909a385108da83e426", "lat": 38.928482, "type": "electric_scooter"}, {"fusion_lat": 0.0, "fusion_lon": 0.0, "rental_uris": {"android": "https://dc.lft.to/lastmile_qr_scan", "ios": "https://dc.lft.to/lastmile_qr_scan"}, "lon": -77.0107715, "name": "6316b4c825d620ff34cbadb22ddd9c70", "is_disabled": 0, "is_reserved": 0, "bike_id": "6316b4c825d620ff34cbadb22ddd9c70", "lat": 38.909558833333335, "type": "electric_scooter"}, {"fusion_lat": 0.0, "fusion_lon": 0.0, "rental_uris": {"android": "https://dc.lft.to/lastmile_qr_scan", "ios": "https://dc.lft.to/lastmile_qr_scan"}, "lon": -76.930252, "name": "a4f1bf1f308821d00555d6ae6a525881", "is_disabled": 0, "is_reserved": 0, "bike_id": "a4f1bf1f308821d00555d6ae6a525881", "lat": 38.901682666666666, "type": "electric_scooter"}, {"fusion_lat": 0.0, "fusion_lon": 0.0, "rental_uris": {"android": "https://dc.lft.to/lastmile_qr_scan", "ios": "https://dc.lft.to/lastmile_qr_scan"}, "lon": -77.02637916666667, "name": "1a34b301133a470b02a56d43e02c6846", "is_disabled": 0, "is_reserved": 0, "bike_id": "1a34b301133a470b02a56d43e02c6846", "lat": 38.8943315, "type": "electric_scooter"}, {"fusion_lat": 0.0, "fusion_lon": 0.0, "rental_uris": {"android": "https://dc.lft.to/lastmile_qr_scan", "ios": "https://dc.lft.to/lastmile_qr_scan"}, "lon": -77.03486616666666, "name": "df5db5a1b4b491861b7418b5cb4acdc4", "is_disabled": 0, "is_reserved": 0, "bike_id": "df5db5a1b4b491861b7418b5cb4acdc4", "lat": 38.905999666666666, "type": "electric_scooter"}, {"fusion_lat": 0.0, "fusion_lon": 0.0, "rental_uris": {"android": "https://dc.lft.to/lastmile_qr_scan", "ios": "https://dc.lft.to/lastmile_qr_scan"}, "lon": -77.034557, "name": "a09cff1f21363bd33e96e2a77a156a52", "is_disabled": 0, "is_reserved": 0, "bike_id": "a09cff1f21363bd33e96e2a77a156a52", "lat": 38.9045075, "type": "electric_scooter"}, {"fusion_lat": 0.0, "fusion_lon": 0.0, "rental_uris": {"android": "https://dc.lft.to/lastmile_qr_scan", "ios": "https://dc.lft.to/lastmile_qr_scan"}, "lon": -77.03225533333334, "name": "43bdf59610255255411574dbc5791cd8", "is_disabled": 0, "is_reserved": 0, "bike_id": "43bdf59610255255411574dbc5791cd8", "lat": 38.92590966666667, "type": "electric_scooter"}, {"fusion_lat": 0.0, "fusion_lon": 0.0, "rental_uris": {"android": "https://dc.lft.to/lastmile_qr_scan", "ios": "https://dc.lft.to/lastmile_qr_scan"}, "lon": -77.07253033333333, "name": "a30d2b8dc4e7d79b726bec094051ab41", "is_disabled": 0, "is_reserved": 0, "bike_id": "a30d2b8dc4e7d79b726bec094051ab41", "lat": 38.907850333333336, "type": "electric_scooter"}, {"fusion_lat": 0.0, "fusion_lon": 0.0, "rental_uris": {"android": "https://dc.lft.to/lastmile_qr_scan", "ios": "https://dc.lft.to/lastmile_qr_scan"}, "lon": -77.00199, "name": "864518c0276ec9357e4c2b1b075fdd12", "is_disabled": 0, "is_reserved": 0, "bike_id": "864518c0276ec9357e4c2b1b075fdd12", "lat": 38.902403666666665, "type": "electric_scooter"}, {"fusion_lat": 0.0, "fusion_lon": 0.0, "rental_uris": {"android": "https://dc.lft.to/lastmile_qr_scan", "ios": "https://dc.lft.to/lastmile_qr_scan"}, "lon": -76.98571316666667, "name": "8c06ea06f1491bf19a6b79fe916b6284", "is_disabled": 0, "is_reserved": 0, "bike_id": "8c06ea06f1491bf19a6b79fe916b6284", "lat": 38.8668155, "type": "electric_scooter"}, {"fusion_lat": 0.0, "fusion_lon": 0.0, "rental_uris": {"android": "https://dc.lft.to/lastmile_qr_scan", "ios": "https://dc.lft.to/lastmile_qr_scan"}, "lon": -76.96330583333334, "name": "8560a4c32fbfce1937486f627cd35888", "is_disabled": 0, "is_reserved": 0, "bike_id": "8560a4c32fbfce1937486f627cd35888", "lat": 38.918639, "type": "electric_scooter"}, {"fusion_lat": 0.0, "fusion_lon": 0.0, "rental_uris": {"android": "https://dc.lft.to/lastmile_qr_scan", "ios": "https://dc.lft.to/lastmile_qr_scan"}, "lon": -76.9425845, "name": "9423b6ec746d5276a0476906afd37348", "is_disabled": 0, "is_reserved": 0, "bike_id": "9423b6ec746d5276a0476906afd37348", "lat": 38.897350333333335, "type": "electric_bike"}, {"fusion_lat": 0.0, "fusion_lon": 0.0, "rental_uris": {"android": "https://dc.lft.to/lastmile_qr_scan", "ios": "https://dc.lft.to/lastmile_qr_scan"}, "lon": -77.02380133333334, "name": "7b1f8610ad5e613fec4855455fe5fc01", "is_disabled": 0, "is_reserved": 0, "bike_id": "7b1f8610ad5e613fec4855455fe5fc01", "lat": 38.90699866666667, "type": "electric_scooter"}, {"fusion_lat": 0.0, "fusion_lon": 0.0, "rental_uris": {"android": "https://dc.lft.to/lastmile_qr_scan", "ios": "https://dc.lft.to/lastmile_qr_scan"}, "lon": -77.038256, "name": "fafa546ca6314adf8f9552bcaca03327", "is_disabled": 0, "is_reserved": 0, "bike_id": "fafa546ca6314adf8f9552bcaca03327", "lat": 38.9027275, "type": "electric_scooter"}, {"fusion_lat": 0.0, "fusion_lon": 0.0, "rental_uris": {"android": "https://dc.lft.to/lastmile_qr_scan", "ios": "https://dc.lft.to/lastmile_qr_scan"}, "lon": -77.015688, "name": "2221742b87070ae43c93981ee6d9ce2d", "is_disabled": 0, "is_reserved": 0, "bike_id": "2221742b87070ae43c93981ee6d9ce2d", "lat": 38.9268705, "type": "electric_scooter"}, {"fusion_lat": 0.0, "fusion_lon": 0.0, "rental_uris": {"android": "https://dc.lft.to/lastmile_qr_scan", "ios": "https://dc.lft.to/lastmile_qr_scan"}, "lon": -77.01250983333334, "name": "3be876970bd56d55196bc57c3d7e902d", "is_disabled": 0, "is_reserved": 0, "bike_id": "3be876970bd56d55196bc57c3d7e902d", "lat": 38.88610633333333, "type": "electric_scooter"}, {"fusion_lat": 0.0, "fusion_lon": 0.0, "rental_uris": {"android": "https://dc.lft.to/lastmile_qr_scan", "ios": "https://dc.lft.to/lastmile_qr_scan"}, "lon": -76.98656183333334, "name": "e79500f7907359238815881e212e9f4e", "is_disabled": 0, "is_reserved": 0, "bike_id": "e79500f7907359238815881e212e9f4e", "lat": 38.85804183333333, "type": "electric_scooter"}, {"fusion_lat": 0.0, "fusion_lon": 0.0, "rental_uris": {"android": "https://dc.lft.to/lastmile_qr_scan", "ios": "https://dc.lft.to/lastmile_qr_scan"}, "lon": -77.02486366666666, "name": "442ec75ac1a7c9186b3bfa6e0498b9ed", "is_disabled": 0, "is_reserved": 0, "bike_id": "442ec75ac1a7c9186b3bfa6e0498b9ed", "lat": 38.93892666666667, "type": "electric_scooter"}, {"fusion_lat": 0.0, "fusion_lon": 0.0, "rental_uris": {"android": "https://dc.lft.to/lastmile_qr_scan", "ios": "https://dc.lft.to/lastmile_qr_scan"}, "lon": -76.98716083333333, "name": "08d1cc7089d1b5de9701a0de639ecdd4", "is_disabled": 0, "is_reserved": 0, "bike_id": "08d1cc7089d1b5de9701a0de639ecdd4", "lat": 38.866285833333336, "type": "electric_scooter"}, {"fusion_lat": 0.0, "fusion_lon": 0.0, "rental_uris": {"android": "https://dc.lft.to/lastmile_qr_scan", "ios": "https://dc.lft.to/lastmile_qr_scan"}, "lon": -77.03556133333333, "name": "24cff9ba891ce996e28046b550cd8e95", "is_disabled": 0, "is_reserved": 0, "bike_id": "24cff9ba891ce996e28046b550cd8e95", "lat": 38.908292833333334, "type": "electric_scooter"}, {"fusion_lat": 0.0, "fusion_lon": 0.0, "rental_uris": {"android": "https://dc.lft.to/lastmile_qr_scan", "ios": "https://dc.lft.to/lastmile_qr_scan"}, "lon": -76.9871345, "name": "aa8e6a5d4fc1a9628603508baad9fa7f", "is_disabled": 0, "is_reserved": 0, "bike_id": "aa8e6a5d4fc1a9628603508baad9fa7f", "lat": 38.8662325, "type": "electric_scooter"}, {"fusion_lat": 0.0, "fusion_lon": 0.0, "rental_uris": {"android": "https://dc.lft.to/lastmile_qr_scan", "ios": "https://dc.lft.to/lastmile_qr_scan"}, "lon": -77.02144616666666, "name": "f2bca76f62166c3c5a3a3d1c3f5ea900", "is_disabled": 0, "is_reserved": 0, "bike_id": "f2bca76f62166c3c5a3a3d1c3f5ea900", "lat": 38.92337283333333, "type": "electric_scooter"}, {"fusion_lat": 0.0, "fusion_lon": 0.0, "rental_uris": {"android": "https://dc.lft.to/lastmile_qr_scan", "ios": "https://dc.lft.to/lastmile_qr_scan"}, "lon": -77.03344983333334, "name": "5cddbfbab761c560b320ba642bfce5d7", "is_disabled": 0, "is_reserved": 0, "bike_id": "5cddbfbab761c560b320ba642bfce5d7", "lat": 38.892500166666665, "type": "electric_scooter"}, {"fusion_lat": 0.0, "fusion_lon": 0.0, "rental_uris": {"android": "https://dc.lft.to/lastmile_qr_scan", "ios": "https://dc.lft.to/lastmile_qr_scan"}, "lon": -77.0419135, "name": "2763eceb68039a661c6864e1be4fcdaa", "is_disabled": 0, "is_reserved": 0, "bike_id": "2763eceb68039a661c6864e1be4fcdaa", "lat": 38.92061483333333, "type": "electric_scooter"}, {"fusion_lat": 0.0, "fusion_lon": 0.0, "rental_uris": {"android": "https://dc.lft.to/lastmile_qr_scan", "ios": "https://dc.lft.to/lastmile_qr_scan"}, "lon": -77.0396145, "name": "debd40fc35aa3f4a8deb7857d2c2e7da", "is_disabled": 0, "is_reserved": 0, "bike_id": "debd40fc35aa3f4a8deb7857d2c2e7da", "lat": 38.908219833333334, "type": "electric_scooter"}, {"fusion_lat": 0.0, "fusion_lon": 0.0, "rental_uris": {"android": "https://dc.lft.to/lastmile_qr_scan", "ios": "https://dc.lft.to/lastmile_qr_scan"}, "lon": -77.026225, "name": "d78345f5af390c06b9800e5872cfa657", "is_disabled": 0, "is_reserved": 0, "bike_id": "d78345f5af390c06b9800e5872cfa657", "lat": 38.88769516666667, "type": "electric_scooter"}, {"fusion_lat": 0.0, "fusion_lon": 0.0, "rental_uris": {"android": "https://dc.lft.to/lastmile_qr_scan", "ios": "https://dc.lft.to/lastmile_qr_scan"}, "lon": -77.05044866666667, "name": "730c420b50bb241c5cfa5af7d7b14b75", "is_disabled": 0, "is_reserved": 0, "bike_id": "730c420b50bb241c5cfa5af7d7b14b75", "lat": 38.923584166666664, "type": "electric_scooter"}, {"fusion_lat": 0.0, "fusion_lon": 0.0, "rental_uris": {"android": "https://dc.lft.to/lastmile_qr_scan", "ios": "https://dc.lft.to/lastmile_qr_scan"}, "lon": -77.00442483333333, "name": "b41082894615665c81a1ff610ce0a3d4", "is_disabled": 0, "is_reserved": 0, "bike_id": "b41082894615665c81a1ff610ce0a3d4", "lat": 38.885089666666666, "type": "electric_scooter"}, {"fusion_lat": 0.0, "fusion_lon": 0.0, "rental_uris": {"android": "https://dc.lft.to/lastmile_qr_scan", "ios": "https://dc.lft.to/lastmile_qr_scan"}, "lon": -77.03237483333334, "name": "2c4ba7dc6a4659d9b4799913b6249ded", "is_disabled": 0, "is_reserved": 0, "bike_id": "2c4ba7dc6a4659d9b4799913b6249ded", "lat": 38.9273235, "type": "electric_scooter"}, {"fusion_lat": 0.0, "fusion_lon": 0.0, "rental_uris": {"android": "https://dc.lft.to/lastmile_qr_scan", "ios": "https://dc.lft.to/lastmile_qr_scan"}, "lon": -77.04988633333333, "name": "1d8349ab609abe11a9d6f3fa6711856e", "is_disabled": 0, "is_reserved": 0, "bike_id": "1d8349ab609abe11a9d6f3fa6711856e", "lat": 38.892253833333335, "type": "electric_scooter"}, {"fusion_lat": 0.0, "fusion_lon": 0.0, "rental_uris": {"android": "https://dc.lft.to/lastmile_qr_scan", "ios": "https://dc.lft.to/lastmile_qr_scan"}, "lon": -77.0316665, "name": "70c9ed849b014a1472d3d6b25080cca6", "is_disabled": 0, "is_reserved": 0, "bike_id": "70c9ed849b014a1472d3d6b25080cca6", "lat": 38.900479833333335, "type": "electric_scooter"}, {"fusion_lat": 0.0, "fusion_lon": 0.0, "rental_uris": {"android": "https://dc.lft.to/lastmile_qr_scan", "ios": "https://dc.lft.to/lastmile_qr_scan"}, "lon": -77.02588633333333, "name": "8d83eece3437d7be47e0a50e28915b71", "is_disabled": 0, "is_reserved": 0, "bike_id": "8d83eece3437d7be47e0a50e28915b71", "lat": 38.91414133333333, "type": "electric_scooter"}, {"fusion_lat": 0.0, "fusion_lon": 0.0, "rental_uris": {"android": "https://dc.lft.to/lastmile_qr_scan", "ios": "https://dc.lft.to/lastmile_qr_scan"}, "lon": -77.03452783333333, "name": "373e791394417ad7e9e4568bbf495227", "is_disabled": 0, "is_reserved": 0, "bike_id": "373e791394417ad7e9e4568bbf495227", "lat": 38.9055785, "type": "electric_scooter"}, {"fusion_lat": 0.0, "fusion_lon": 0.0, "rental_uris": {"android": "https://dc.lft.to/lastmile_qr_scan", "ios": "https://dc.lft.to/lastmile_qr_scan"}, "lon": -77.05987483333334, "name": "d3f72a611dea17c90818c0204e7e3c6a", "is_disabled": 0, "is_reserved": 0, "bike_id": "d3f72a611dea17c90818c0204e7e3c6a", "lat": 38.93822, "type": "electric_scooter"}, {"fusion_lat": 0.0, "fusion_lon": 0.0, "rental_uris": {"android": "https://dc.lft.to/lastmile_qr_scan", "ios": "https://dc.lft.to/lastmile_qr_scan"}, "lon": -77.04134366666666, "name": "e0b44db8041f3228af7d4cb9560b9953", "is_disabled": 0, "is_reserved": 0, "bike_id": "e0b44db8041f3228af7d4cb9560b9953", "lat": 38.913789333333334, "type": "electric_scooter"}, {"fusion_lat": 0.0, "fusion_lon": 0.0, "rental_uris": {"android": "https://dc.lft.to/lastmile_qr_scan", "ios": "https://dc.lft.to/lastmile_qr_scan"}, "lon": -77.02486466666667, "name": "dfd2945b29e9ede7e13a693e3f096ff1", "is_disabled": 0, "is_reserved": 0, "bike_id": "dfd2945b29e9ede7e13a693e3f096ff1", "lat": 38.93891516666667, "type": "electric_scooter"}, {"fusion_lat": 0.0, "fusion_lon": 0.0, "rental_uris": {"android": "https://dc.lft.to/lastmile_qr_scan", "ios": "https://dc.lft.to/lastmile_qr_scan"}, "lon": -77.0611675, "name": "f06b54c05fcf41fb018bee520a0a47e6", "is_disabled": 0, "is_reserved": 0, "bike_id": "f06b54c05fcf41fb018bee520a0a47e6", "lat": 38.901995, "type": "electric_scooter"}, {"fusion_lat": 0.0, "fusion_lon": 0.0, "rental_uris": {"android": "https://dc.lft.to/lastmile_qr_scan", "ios": "https://dc.lft.to/lastmile_qr_scan"}, "lon": -76.9905735, "name": "776c316acbb020d129fa4bf5a95dd018", "is_disabled": 0, "is_reserved": 0, "bike_id": "776c316acbb020d129fa4bf5a95dd018", "lat": 38.93688983333333, "type": "electric_bike"}, {"fusion_lat": 0.0, "fusion_lon": 0.0, "rental_uris": {"android": "https://dc.lft.to/lastmile_qr_scan", "ios": "https://dc.lft.to/lastmile_qr_scan"}, "lon": -77.04215066666667, "name": "cd7bbd06a213ce6a1c4f0f01a2d28efe", "is_disabled": 0, "is_reserved": 0, "bike_id": "cd7bbd06a213ce6a1c4f0f01a2d28efe", "lat": 38.9036535, "type": "electric_scooter"}, {"fusion_lat": 0.0, "fusion_lon": 0.0, "rental_uris": {"android": "https://dc.lft.to/lastmile_qr_scan", "ios": "https://dc.lft.to/lastmile_qr_scan"}, "lon": -76.9742205, "name": "87aa6ef27f3f0f043ba22a581f6aebc2", "is_disabled": 0, "is_reserved": 0, "bike_id": "87aa6ef27f3f0f043ba22a581f6aebc2", "lat": 38.9324035, "type": "electric_bike"}, {"fusion_lat": 0.0, "fusion_lon": 0.0, "rental_uris": {"android": "https://dc.lft.to/lastmile_qr_scan", "ios": "https://dc.lft.to/lastmile_qr_scan"}, "lon": -76.99708283333334, "name": "e6fe60a2e2b3aaefd485571a01f7baff", "is_disabled": 0, "is_reserved": 0, "bike_id": "e6fe60a2e2b3aaefd485571a01f7baff", "lat": 38.88488383333333, "type": "electric_bike"}, {"fusion_lat": 0.0, "fusion_lon": 0.0, "rental_uris": {"android": "https://dc.lft.to/lastmile_qr_scan", "ios": "https://dc.lft.to/lastmile_qr_scan"}, "lon": -77.21124733333333, "name": "81ba0d79bed1f4a4ba6ecd27b34e2740", "is_disabled": 0, "is_reserved": 0, "bike_id": "81ba0d79bed1f4a4ba6ecd27b34e2740", "lat": 38.874920333333336, "type": "electric_bike"}, {"fusion_lat": 0.0, "fusion_lon": 0.0, "rental_uris": {"android": "https://dc.lft.to/lastmile_qr_scan", "ios": "https://dc.lft.to/lastmile_qr_scan"}, "lon": -76.90735566666666, "name": "f86a27012e9dc6dbdce912add80f43e7", "is_disabled": 0, "is_reserved": 0, "bike_id": "f86a27012e9dc6dbdce912add80f43e7", "lat": 38.896142, "type": "electric_bike"}, {"fusion_lat": 0.0, "fusion_lon": 0.0, "rental_uris": {"android": "https://dc.lft.to/lastmile_qr_scan", "ios": "https://dc.lft.to/lastmile_qr_scan"}, "lon": -77.05388283333333, "name": "60d8ddfb5f8b6c18f061c8ee32ee4f01", "is_disabled": 0, "is_reserved": 0, "bike_id": "60d8ddfb5f8b6c18f061c8ee32ee4f01", "lat": 38.804495, "type": "electric_bike"}, {"fusion_lat": 0.0, "fusion_lon": 0.0, "rental_uris": {"android": "https://dc.lft.to/lastmile_qr_scan", "ios": "https://dc.lft.to/lastmile_qr_scan"}, "lon": -77.017514, "name": "a944322c93b24f4e649ca6bff177df81", "is_disabled": 0, "is_reserved": 0, "bike_id": "a944322c93b24f4e649ca6bff177df81", "lat": 38.8780495, "type": "electric_scooter"}, {"fusion_lat": 0.0, "fusion_lon": 0.0, "rental_uris": {"android": "https://dc.lft.to/lastmile_qr_scan", "ios": "https://dc.lft.to/lastmile_qr_scan"}, "lon": -77.0416165, "name": "861446bfed8000f3abfcad1b78b2027c", "is_disabled": 0, "is_reserved": 0, "bike_id": "861446bfed8000f3abfcad1b78b2027c", "lat": 38.918915166666665, "type": "electric_scooter"}, {"fusion_lat": 0.0, "fusion_lon": 0.0, "rental_uris": {"android": "https://dc.lft.to/lastmile_qr_scan", "ios": "https://dc.lft.to/lastmile_qr_scan"}, "lon": -77.047741, "name": "ff8d0fb0156a3a85ac32a2e62190bdeb", "is_disabled": 0, "is_reserved": 0, "bike_id": "ff8d0fb0156a3a85ac32a2e62190bdeb", "lat": 38.8975045, "type": "electric_scooter"}, {"fusion_lat": 0.0, "fusion_lon": 0.0, "rental_uris": {"android": "https://dc.lft.to/lastmile_qr_scan", "ios": "https://dc.lft.to/lastmile_qr_scan"}, "lon": -77.045122, "name": "05dc1a6875353375dddae000e7165d41", "is_disabled": 0, "is_reserved": 0, "bike_id": "05dc1a6875353375dddae000e7165d41", "lat": 38.899623166666665, "type": "electric_scooter"}, {"fusion_lat": 0.0, "fusion_lon": 0.0, "rental_uris": {"android": "https://dc.lft.to/lastmile_qr_scan", "ios": "https://dc.lft.to/lastmile_qr_scan"}, "lon": -77.01488466666666, "name": "95f470650fd23592c9631926ffebcb00", "is_disabled": 0, "is_reserved": 0, "bike_id": "95f470650fd23592c9631926ffebcb00", "lat": 38.926734, "type": "electric_scooter"}, {"fusion_lat": 0.0, "fusion_lon": 0.0, "rental_uris": {"android": "https://dc.lft.to/lastmile_qr_scan", "ios": "https://dc.lft.to/lastmile_qr_scan"}, "lon": -77.04171383333333, "name": "0d0aa9ed83ce057a2c1d4302e78430cc", "is_disabled": 0, "is_reserved": 0, "bike_id": "0d0aa9ed83ce057a2c1d4302e78430cc", "lat": 38.89850766666667, "type": "electric_scooter"}, {"fusion_lat": 0.0, "fusion_lon": 0.0, "rental_uris": {"android": "https://dc.lft.to/lastmile_qr_scan", "ios": "https://dc.lft.to/lastmile_qr_scan"}, "lon": -77.0154265, "name": "221162249fa6f1231f08b7c7d9d12186", "is_disabled": 0, "is_reserved": 0, "bike_id": "221162249fa6f1231f08b7c7d9d12186", "lat": 38.89164983333333, "type": "electric_scooter"}, {"fusion_lat": 0.0, "fusion_lon": 0.0, "rental_uris": {"android": "https://dc.lft.to/lastmile_qr_scan", "ios": "https://dc.lft.to/lastmile_qr_scan"}, "lon": -76.98089966666667, "name": "5773fc48499d65ee19f405b37ac3f907", "is_disabled": 0, "is_reserved": 0, "bike_id": "5773fc48499d65ee19f405b37ac3f907", "lat": 38.9001925, "type": "electric_scooter"}, {"fusion_lat": 0.0, "fusion_lon": 0.0, "rental_uris": {"android": "https://dc.lft.to/lastmile_qr_scan", "ios": "https://dc.lft.to/lastmile_qr_scan"}, "lon": -77.00293233333333, "name": "132a8c611244621a1ddd47bd4cfbf9c6", "is_disabled": 0, "is_reserved": 0, "bike_id": "132a8c611244621a1ddd47bd4cfbf9c6", "lat": 38.91813783333333, "type": "electric_scooter"}, {"fusion_lat": 0.0, "fusion_lon": 0.0, "rental_uris": {"android": "https://dc.lft.to/lastmile_qr_scan", "ios": "https://dc.lft.to/lastmile_qr_scan"}, "lon": -76.9958115, "name": "ec1aa89194646fe5a1a679120a72f5de", "is_disabled": 0, "is_reserved": 0, "bike_id": "ec1aa89194646fe5a1a679120a72f5de", "lat": 38.85177633333333, "type": "electric_scooter"}, {"fusion_lat": 0.0, "fusion_lon": 0.0, "rental_uris": {"android": "https://dc.lft.to/lastmile_qr_scan", "ios": "https://dc.lft.to/lastmile_qr_scan"}, "lon": -76.987125, "name": "bfb3b33ef0baab7dc9ac2cd223650c85", "is_disabled": 0, "is_reserved": 0, "bike_id": "bfb3b33ef0baab7dc9ac2cd223650c85", "lat": 38.86625033333333, "type": "electric_scooter"}, {"fusion_lat": 0.0, "fusion_lon": 0.0, "rental_uris": {"android": "https://dc.lft.to/lastmile_qr_scan", "ios": "https://dc.lft.to/lastmile_qr_scan"}, "lon": -77.0217045, "name": "f1665d18a03145dce731eb2e890ce3a9", "is_disabled": 0, "is_reserved": 0, "bike_id": "f1665d18a03145dce731eb2e890ce3a9", "lat": 38.90569133333333, "type": "electric_scooter"}, {"fusion_lat": 0.0, "fusion_lon": 0.0, "rental_uris": {"android": "https://dc.lft.to/lastmile_qr_scan", "ios": "https://dc.lft.to/lastmile_qr_scan"}, "lon": -77.016166, "name": "563585c0597f7f5ec9a7cd9ca4ac4133", "is_disabled": 0, "is_reserved": 0, "bike_id": "563585c0597f7f5ec9a7cd9ca4ac4133", "lat": 38.87871483333333, "type": "electric_scooter"}, {"fusion_lat": 0.0, "fusion_lon": 0.0, "rental_uris": {"android": "https://dc.lft.to/lastmile_qr_scan", "ios": "https://dc.lft.to/lastmile_qr_scan"}, "lon": -77.031999, "name": "069ef654836d9db4b5d99805a3096401", "is_disabled": 0, "is_reserved": 0, "bike_id": "069ef654836d9db4b5d99805a3096401", "lat": 38.916415, "type": "electric_scooter"}, {"fusion_lat": 0.0, "fusion_lon": 0.0, "rental_uris": {"android": "https://dc.lft.to/lastmile_qr_scan", "ios": "https://dc.lft.to/lastmile_qr_scan"}, "lon": -77.0235575, "name": "af5d42a6692921f9b285b044ddc184b1", "is_disabled": 0, "is_reserved": 0, "bike_id": "af5d42a6692921f9b285b044ddc184b1", "lat": 38.9251545, "type": "electric_scooter"}, {"fusion_lat": 0.0, "fusion_lon": 0.0, "rental_uris": {"android": "https://dc.lft.to/lastmile_qr_scan", "ios": "https://dc.lft.to/lastmile_qr_scan"}, "lon": -77.045112, "name": "9305c884d619dee11392fbf088b43923", "is_disabled": 0, "is_reserved": 0, "bike_id": "9305c884d619dee11392fbf088b43923", "lat": 38.899630333333334, "type": "electric_scooter"}, {"fusion_lat": 0.0, "fusion_lon": 0.0, "rental_uris": {"android": "https://dc.lft.to/lastmile_qr_scan", "ios": "https://dc.lft.to/lastmile_qr_scan"}, "lon": -77.029235, "name": "fae315ad271f428ad1de73c0588d2a4f", "is_disabled": 0, "is_reserved": 0, "bike_id": "fae315ad271f428ad1de73c0588d2a4f", "lat": 38.916877, "type": "electric_scooter"}, {"fusion_lat": 0.0, "fusion_lon": 0.0, "rental_uris": {"android": "https://dc.lft.to/lastmile_qr_scan", "ios": "https://dc.lft.to/lastmile_qr_scan"}, "lon": -77.0310395, "name": "2d7b052b0a39fb026de7de4702af045d", "is_disabled": 0, "is_reserved": 0, "bike_id": "2d7b052b0a39fb026de7de4702af045d", "lat": 38.8831795, "type": "electric_scooter"}, {"fusion_lat": 0.0, "fusion_lon": 0.0, "rental_uris": {"android": "https://dc.lft.to/lastmile_qr_scan", "ios": "https://dc.lft.to/lastmile_qr_scan"}, "lon": -77.0425835, "name": "ab6878ae24a45bb4aeb21ee11246aea4", "is_disabled": 0, "is_reserved": 0, "bike_id": "ab6878ae24a45bb4aeb21ee11246aea4", "lat": 38.90646183333333, "type": "electric_scooter"}, {"fusion_lat": 0.0, "fusion_lon": 0.0, "rental_uris": {"android": "https://dc.lft.to/lastmile_qr_scan", "ios": "https://dc.lft.to/lastmile_qr_scan"}, "lon": -77.02916416666666, "name": "3a57090a42a081be1f1ecaca17df9301", "is_disabled": 0, "is_reserved": 0, "bike_id": "3a57090a42a081be1f1ecaca17df9301", "lat": 38.93872483333333, "type": "electric_scooter"}, {"fusion_lat": 0.0, "fusion_lon": 0.0, "rental_uris": {"android": "https://dc.lft.to/lastmile_qr_scan", "ios": "https://dc.lft.to/lastmile_qr_scan"}, "lon": -77.03645333333333, "name": "72431c5daca5acfbba412ed990543d25", "is_disabled": 0, "is_reserved": 0, "bike_id": "72431c5daca5acfbba412ed990543d25", "lat": 38.9068, "type": "electric_scooter"}, {"fusion_lat": 0.0, "fusion_lon": 0.0, "rental_uris": {"android": "https://dc.lft.to/lastmile_qr_scan", "ios": "https://dc.lft.to/lastmile_qr_scan"}, "lon": -77.03519883333334, "name": "00fc2de6d0f7527c7ff00b9ce30ca1cc", "is_disabled": 0, "is_reserved": 0, "bike_id": "00fc2de6d0f7527c7ff00b9ce30ca1cc", "lat": 38.92527166666667, "type": "electric_scooter"}, {"fusion_lat": 0.0, "fusion_lon": 0.0, "rental_uris": {"android": "https://dc.lft.to/lastmile_qr_scan", "ios": "https://dc.lft.to/lastmile_qr_scan"}, "lon": -77.01216983333333, "name": "3c76b9dc3112b721cab64f2fc5f2c75d", "is_disabled": 0, "is_reserved": 0, "bike_id": "3c76b9dc3112b721cab64f2fc5f2c75d", "lat": 38.91346333333333, "type": "electric_scooter"}, {"fusion_lat": 0.0, "fusion_lon": 0.0, "rental_uris": {"android": "https://dc.lft.to/lastmile_qr_scan", "ios": "https://dc.lft.to/lastmile_qr_scan"}, "lon": -77.00730133333333, "name": "1f7e9228278269b8d490c1cee84e46a3", "is_disabled": 0, "is_reserved": 0, "bike_id": "1f7e9228278269b8d490c1cee84e46a3", "lat": 38.878407, "type": "electric_scooter"}, {"fusion_lat": 0.0, "fusion_lon": 0.0, "rental_uris": {"android": "https://dc.lft.to/lastmile_qr_scan", "ios": "https://dc.lft.to/lastmile_qr_scan"}, "lon": -77.032203, "name": "71e806d8edeb1296dbfc128a79b299d8", "is_disabled": 0, "is_reserved": 0, "bike_id": "71e806d8edeb1296dbfc128a79b299d8", "lat": 38.901407666666664, "type": "electric_scooter"}, {"fusion_lat": 0.0, "fusion_lon": 0.0, "rental_uris": {"android": "https://dc.lft.to/lastmile_qr_scan", "ios": "https://dc.lft.to/lastmile_qr_scan"}, "lon": -77.0320185, "name": "ccf1d79b0c2fd785711bd6f2db904667", "is_disabled": 0, "is_reserved": 0, "bike_id": "ccf1d79b0c2fd785711bd6f2db904667", "lat": 38.91846483333333, "type": "electric_scooter"}, {"fusion_lat": 0.0, "fusion_lon": 0.0, "rental_uris": {"android": "https://dc.lft.to/lastmile_qr_scan", "ios": "https://dc.lft.to/lastmile_qr_scan"}, "lon": -77.01998783333333, "name": "666e5422fc02d52e373e0e89b2bd9ad2", "is_disabled": 0, "is_reserved": 0, "bike_id": "666e5422fc02d52e373e0e89b2bd9ad2", "lat": 38.915760166666665, "type": "electric_scooter"}, {"fusion_lat": 0.0, "fusion_lon": 0.0, "rental_uris": {"android": "https://dc.lft.to/lastmile_qr_scan", "ios": "https://dc.lft.to/lastmile_qr_scan"}, "lon": -77.031826, "name": "d972f170c2dc2683322e727a22d8fc82", "is_disabled": 0, "is_reserved": 0, "bike_id": "d972f170c2dc2683322e727a22d8fc82", "lat": 38.896195, "type": "electric_scooter"}, {"fusion_lat": 0.0, "fusion_lon": 0.0, "rental_uris": {"android": "https://dc.lft.to/lastmile_qr_scan", "ios": "https://dc.lft.to/lastmile_qr_scan"}, "lon": -77.02461616666666, "name": "4a2eb02b098b3cdc66cff20b27b39398", "is_disabled": 0, "is_reserved": 0, "bike_id": "4a2eb02b098b3cdc66cff20b27b39398", "lat": 38.91698066666667, "type": "electric_scooter"}, {"fusion_lat": 0.0, "fusion_lon": 0.0, "rental_uris": {"android": "https://dc.lft.to/lastmile_qr_scan", "ios": "https://dc.lft.to/lastmile_qr_scan"}, "lon": -77.04836716666667, "name": "d855ab759127a03b4415137845046b5a", "is_disabled": 0, "is_reserved": 0, "bike_id": "d855ab759127a03b4415137845046b5a", "lat": 38.911738166666666, "type": "electric_scooter"}, {"fusion_lat": 0.0, "fusion_lon": 0.0, "rental_uris": {"android": "https://dc.lft.to/lastmile_qr_scan", "ios": "https://dc.lft.to/lastmile_qr_scan"}, "lon": -76.94960316666666, "name": "bf6f0defb5a8a0bfefc24837b73a0ccd", "is_disabled": 0, "is_reserved": 0, "bike_id": "bf6f0defb5a8a0bfefc24837b73a0ccd", "lat": 38.894654, "type": "electric_scooter"}, {"fusion_lat": 0.0, "fusion_lon": 0.0, "rental_uris": {"android": "https://dc.lft.to/lastmile_qr_scan", "ios": "https://dc.lft.to/lastmile_qr_scan"}, "lon": -77.03212733333334, "name": "7cc4650d474520367d209acbbc83c679", "is_disabled": 0, "is_reserved": 0, "bike_id": "7cc4650d474520367d209acbbc83c679", "lat": 38.892363333333336, "type": "electric_scooter"}, {"fusion_lat": 0.0, "fusion_lon": 0.0, "rental_uris": {"android": "https://dc.lft.to/lastmile_qr_scan", "ios": "https://dc.lft.to/lastmile_qr_scan"}, "lon": -76.99061483333334, "name": "565af901e3afc8d08a847a623778fe6c", "is_disabled": 0, "is_reserved": 0, "bike_id": "565af901e3afc8d08a847a623778fe6c", "lat": 38.86372, "type": "electric_scooter"}, {"fusion_lat": 0.0, "fusion_lon": 0.0, "rental_uris": {"android": "https://dc.lft.to/lastmile_qr_scan", "ios": "https://dc.lft.to/lastmile_qr_scan"}, "lon": -76.99809533333334, "name": "c7c5ae69a3822822058084427801eef1", "is_disabled": 0, "is_reserved": 0, "bike_id": "c7c5ae69a3822822058084427801eef1", "lat": 38.819844, "type": "electric_bike"}, {"fusion_lat": 0.0, "fusion_lon": 0.0, "rental_uris": {"android": "https://dc.lft.to/lastmile_qr_scan", "ios": "https://dc.lft.to/lastmile_qr_scan"}, "lon": -77.0020975, "name": "da2f30523387e5c0a5e0fc230b199a53", "is_disabled": 0, "is_reserved": 0, "bike_id": "da2f30523387e5c0a5e0fc230b199a53", "lat": 38.9047805, "type": "electric_scooter"}, {"fusion_lat": 0.0, "fusion_lon": 0.0, "rental_uris": {"android": "https://dc.lft.to/lastmile_qr_scan", "ios": "https://dc.lft.to/lastmile_qr_scan"}, "lon": -77.037364, "name": "effa3c23e3cca07100be4c7f54530b59", "is_disabled": 0, "is_reserved": 0, "bike_id": "effa3c23e3cca07100be4c7f54530b59", "lat": 38.928634833333334, "type": "electric_scooter"}, {"fusion_lat": 0.0, "fusion_lon": 0.0, "rental_uris": {"android": "https://dc.lft.to/lastmile_qr_scan", "ios": "https://dc.lft.to/lastmile_qr_scan"}, "lon": -76.987139, "name": "29e6ba3a8a0764e11139059f92c85ae5", "is_disabled": 0, "is_reserved": 0, "bike_id": "29e6ba3a8a0764e11139059f92c85ae5", "lat": 38.86625866666667, "type": "electric_scooter"}, {"fusion_lat": 0.0, "fusion_lon": 0.0, "rental_uris": {"android": "https://dc.lft.to/lastmile_qr_scan", "ios": "https://dc.lft.to/lastmile_qr_scan"}, "lon": -77.03998916666667, "name": "9edb638c5c6ceda6f989647a0acc638d", "is_disabled": 0, "is_reserved": 0, "bike_id": "9edb638c5c6ceda6f989647a0acc638d", "lat": 38.9343065, "type": "electric_scooter"}, {"fusion_lat": 0.0, "fusion_lon": 0.0, "rental_uris": {"android": "https://dc.lft.to/lastmile_qr_scan", "ios": "https://dc.lft.to/lastmile_qr_scan"}, "lon": -77.03840016666666, "name": "f73db648eaf44ebd4f7500b50b1beb1a", "is_disabled": 0, "is_reserved": 0, "bike_id": "f73db648eaf44ebd4f7500b50b1beb1a", "lat": 38.911078, "type": "electric_scooter"}, {"fusion_lat": 0.0, "fusion_lon": 0.0, "rental_uris": {"android": "https://dc.lft.to/lastmile_qr_scan", "ios": "https://dc.lft.to/lastmile_qr_scan"}, "lon": -77.02213333333333, "name": "3ae7e67cbb989adc2624e4ee1a4ea8ad", "is_disabled": 0, "is_reserved": 0, "bike_id": "3ae7e67cbb989adc2624e4ee1a4ea8ad", "lat": 38.92471233333333, "type": "electric_scooter"}, {"fusion_lat": 0.0, "fusion_lon": 0.0, "rental_uris": {"android": "https://dc.lft.to/lastmile_qr_scan", "ios": "https://dc.lft.to/lastmile_qr_scan"}, "lon": -77.02129033333334, "name": "4f0d4d0dcd863f2a655787ae65d7ef89", "is_disabled": 0, "is_reserved": 0, "bike_id": "4f0d4d0dcd863f2a655787ae65d7ef89", "lat": 38.923254666666665, "type": "electric_scooter"}, {"fusion_lat": 0.0, "fusion_lon": 0.0, "rental_uris": {"android": "https://dc.lft.to/lastmile_qr_scan", "ios": "https://dc.lft.to/lastmile_qr_scan"}, "lon": -77.00920983333333, "name": "69768673793e2aa510666df122883714", "is_disabled": 0, "is_reserved": 0, "bike_id": "69768673793e2aa510666df122883714", "lat": 38.89605266666667, "type": "electric_scooter"}, {"fusion_lat": 0.0, "fusion_lon": 0.0, "rental_uris": {"android": "https://dc.lft.to/lastmile_qr_scan", "ios": "https://dc.lft.to/lastmile_qr_scan"}, "lon": -77.02817416666667, "name": "bfd25dc579159f831a772d3238c23737", "is_disabled": 0, "is_reserved": 0, "bike_id": "bfd25dc579159f831a772d3238c23737", "lat": 38.899053333333335, "type": "electric_scooter"}, {"fusion_lat": 0.0, "fusion_lon": 0.0, "rental_uris": {"android": "https://dc.lft.to/lastmile_qr_scan", "ios": "https://dc.lft.to/lastmile_qr_scan"}, "lon": -77.0220735, "name": "971e3654e3cf49dc51d26201e1e3e25b", "is_disabled": 0, "is_reserved": 0, "bike_id": "971e3654e3cf49dc51d26201e1e3e25b", "lat": 38.924675, "type": "electric_scooter"}, {"fusion_lat": 0.0, "fusion_lon": 0.0, "rental_uris": {"android": "https://dc.lft.to/lastmile_qr_scan", "ios": "https://dc.lft.to/lastmile_qr_scan"}, "lon": -77.064198, "name": "a18aa92289a28012be1acab4156ace0d", "is_disabled": 0, "is_reserved": 0, "bike_id": "a18aa92289a28012be1acab4156ace0d", "lat": 38.94450333333333, "type": "electric_scooter"}, {"fusion_lat": 0.0, "fusion_lon": 0.0, "rental_uris": {"android": "https://dc.lft.to/lastmile_qr_scan", "ios": "https://dc.lft.to/lastmile_qr_scan"}, "lon": -77.023281, "name": "5c567e840f61ee8b721040f13b83102b", "is_disabled": 0, "is_reserved": 0, "bike_id": "5c567e840f61ee8b721040f13b83102b", "lat": 38.9287385, "type": "electric_scooter"}, {"fusion_lat": 0.0, "fusion_lon": 0.0, "rental_uris": {"android": "https://dc.lft.to/lastmile_qr_scan", "ios": "https://dc.lft.to/lastmile_qr_scan"}, "lon": -77.04186733333333, "name": "0f9d7c86ca9c23cf15a73218e5d74936", "is_disabled": 0, "is_reserved": 0, "bike_id": "0f9d7c86ca9c23cf15a73218e5d74936", "lat": 38.92613333333333, "type": "electric_scooter"}, {"fusion_lat": 0.0, "fusion_lon": 0.0, "rental_uris": {"android": "https://dc.lft.to/lastmile_qr_scan", "ios": "https://dc.lft.to/lastmile_qr_scan"}, "lon": -77.07139583333333, "name": "efef87a2cf8c47344a4982e5a45183b8", "is_disabled": 0, "is_reserved": 0, "bike_id": "efef87a2cf8c47344a4982e5a45183b8", "lat": 38.90770966666667, "type": "electric_scooter"}, {"fusion_lat": 0.0, "fusion_lon": 0.0, "rental_uris": {"android": "https://dc.lft.to/lastmile_qr_scan", "ios": "https://dc.lft.to/lastmile_qr_scan"}, "lon": -77.0304485, "name": "1ca81cb3eed083589c0b36c912b3728a", "is_disabled": 0, "is_reserved": 0, "bike_id": "1ca81cb3eed083589c0b36c912b3728a", "lat": 38.91711016666667, "type": "electric_scooter"}, {"fusion_lat": 0.0, "fusion_lon": 0.0, "rental_uris": {"android": "https://dc.lft.to/lastmile_qr_scan", "ios": "https://dc.lft.to/lastmile_qr_scan"}, "lon": -76.94974583333334, "name": "124550ebfab9f3a4a32536684947a973", "is_disabled": 0, "is_reserved": 0, "bike_id": "124550ebfab9f3a4a32536684947a973", "lat": 38.88461383333333, "type": "electric_scooter"}, {"fusion_lat": 0.0, "fusion_lon": 0.0, "rental_uris": {"android": "https://dc.lft.to/lastmile_qr_scan", "ios": "https://dc.lft.to/lastmile_qr_scan"}, "lon": -77.01916566666667, "name": "86d2fb355be1411d28ca7891708a1e8f", "is_disabled": 0, "is_reserved": 0, "bike_id": "86d2fb355be1411d28ca7891708a1e8f", "lat": 38.9236865, "type": "electric_scooter"}, {"fusion_lat": 0.0, "fusion_lon": 0.0, "rental_uris": {"android": "https://dc.lft.to/lastmile_qr_scan", "ios": "https://dc.lft.to/lastmile_qr_scan"}, "lon": -77.01903216666666, "name": "63b006433693fc74d796e6bc1f61473d", "is_disabled": 0, "is_reserved": 0, "bike_id": "63b006433693fc74d796e6bc1f61473d", "lat": 38.905164166666665, "type": "electric_scooter"}, {"fusion_lat": 0.0, "fusion_lon": 0.0, "rental_uris": {"android": "https://dc.lft.to/lastmile_qr_scan", "ios": "https://dc.lft.to/lastmile_qr_scan"}, "lon": -76.94153283333333, "name": "4e70ced4f0475f16dc7f53584f743e53", "is_disabled": 0, "is_reserved": 0, "bike_id": "4e70ced4f0475f16dc7f53584f743e53", "lat": 38.88364583333333, "type": "electric_scooter"}, {"fusion_lat": 0.0, "fusion_lon": 0.0, "rental_uris": {"android": "https://dc.lft.to/lastmile_qr_scan", "ios": "https://dc.lft.to/lastmile_qr_scan"}, "lon": -77.08757883333334, "name": "50deaf69fc76b5408ea4da21a290a992", "is_disabled": 0, "is_reserved": 0, "bike_id": "50deaf69fc76b5408ea4da21a290a992", "lat": 38.806583333333336, "type": "electric_bike"}, {"fusion_lat": 0.0, "fusion_lon": 0.0, "rental_uris": {"android": "https://dc.lft.to/lastmile_qr_scan", "ios": "https://dc.lft.to/lastmile_qr_scan"}, "lon": -77.04481333333334, "name": "c6f73caf7f0fa850172aa3370645195a", "is_disabled": 0, "is_reserved": 0, "bike_id": "c6f73caf7f0fa850172aa3370645195a", "lat": 38.904821166666665, "type": "electric_scooter"},