{"data": {"bikes": [{"lat": 38.8843985, "is_disabled": 0, "type": "electric_scooter", "lon": -77.03038833333333, "bike_id": "48c23dd6f21d040b81fa828ea77425f4", "fusion_lat": 0.0, "name": "48c23dd6f21d040b81fa828ea77425f4", "is_reserved": 0, "rental_uris": {"android": "https://dc.lft.to/lastmile_qr_scan", "ios": "https://dc.lft.to/lastmile_qr_scan"}, "fusion_lon": 0.0}, {"lat": 38.90365933333333, "is_disabled": 0, "type": "electric_scooter", "lon": -77.06031483333334, "bike_id": "550780c1956aa4373250753568a996f6", "fusion_lat": 0.0, "name": "550780c1956aa4373250753568a996f6", "is_reserved": 0, "rental_uris": {"android": "https://dc.lft.to/lastmile_qr_scan", "ios": "https://dc.lft.to/lastmile_qr_scan"}, "fusion_lon": 0.0}, {"lat": 38.91253483333333, "is_disabled": 0, "type": "electric_scooter", "lon": -77.0386775, "bike_id": "acc864a4dd462ebca746dc59fdc00933", "fusion_lat": 0.0, "name": "acc864a4dd462ebca746dc59fdc00933", "is_reserved": 0, "rental_uris": {"android": "https://dc.lft.to/lastmile_qr_scan", "ios": "https://dc.lft.to/lastmile_qr_scan"}, "fusion_lon": 0.0}, {"lat": 38.920629166666664, "is_disabled": 0, "type": "electric_scooter", "lon": -77.04334, "bike_id": "364846d84fa843f67fa1be97070f3b14", "fusion_lat": 0.0, "name": "364846d84fa843f67fa1be97070f3b14", "is_reserved": 0, "rental_uris": {"android": "https://dc.lft.to/lastmile_qr_scan", "ios": "https://dc.lft.to/lastmile_qr_scan"}, "fusion_lon": 0.0}, {"lat": 38.903094833333334, "is_disabled": 0, "type": "electric_scooter", "lon": -77.06528966666667, "bike_id": "0d63999d41c2f19e207b084342390b16", "fusion_lat": 0.0, "name": "0d63999d41c2f19e207b084342390b16", "is_reserved": 0, "rental_uris": {"android": "https://dc.lft.to/lastmile_qr_scan", "ios": "https://dc.lft.to/lastmile_qr_scan"}, "fusion_lon": 0.0}, {"lat": 38.9078085, "is_disabled": 0, "type": "electric_scooter", "lon": -77.064043, "bike_id": "7b414bd2db4cf1311dbc9b1530f0d573", "fusion_lat": 0.0, "name": "7b414bd2db4cf1311dbc9b1530f0d573", "is_reserved": 0, "rental_uris": {"android": "https://dc.lft.to/lastmile_qr_scan", "ios": "https://dc.lft.to/lastmile_qr_scan"}, "fusion_lon": 0.0}, {"lat": 38.8986085, "is_disabled": 0, "type": "electric_scooter", "lon": -77.01881966666667, "bike_id": "dd9948f519cf27786767bf3d7e7d410b", "fusion_lat": 0.0, "name": "dd9948f519cf27786767bf3d7e7d410b", "is_reserved": 0, "rental_uris": {"android": "https://dc.lft.to/lastmile_qr_scan", "ios": "https://dc.lft.to/lastmile_qr_scan"}, "fusion_lon": 0.0}, {"lat": 38.879161833333335, "is_disabled": 0, "type": "electric_scooter", "lon": -76.99151216666667, "bike_id": "9e931cd6fcf4c5319425bf11b26d8c62", "fusion_lat": 0.0, "name": "9e931cd6fcf4c5319425bf11b26d8c62", "is_reserved": 0, "rental_uris": {"android": "https://dc.lft.to/lastmile_qr_scan", "ios": "https://dc.lft.to/lastmile_qr_scan"}, "fusion_lon": 0.0}, {"lat": 38.842576, "is_disabled": 0, "type": "electric_scooter", "lon": -77.00234983333333, "bike_id": "c9ccfd765081f3485f0396d93a310765", "fusion_lat": 0.0, "name": "c9ccfd765081f3485f0396d93a310765", "is_reserved": 0, "rental_uris": {"android": "https://dc.lft.to/lastmile_qr_scan", "ios": "https://dc.lft.to/lastmile_qr_scan"}, "fusion_lon": 0.0}, {"lat": 38.95955, "is_disabled": 0, "type": "electric_bike", "lon": -77.10090116666667, "bike_id": "192bd6b7bf1009484e6c9b254c3ecb67", "fusion_lat": 0.0, "name": "192bd6b7bf1009484e6c9b254c3ecb67", "is_reserved": 0, "rental_uris": {"android": "https://dc.lft.to/lastmile_qr_scan", "ios": "https://dc.lft.to/lastmile_qr_scan"}, "fusion_lon": 0.0}, {"lat": 38.91324133333333, "is_disabled": 0, "type": "electric_scooter", "lon": -77.03262033333333, "bike_id": "9f8014709c064f109bc05aefdae747cb", "fusion_lat": 0.0, "name": "9f8014709c064f109bc05aefdae747cb", "is_reserved": 0, "rental_uris": {"android": "https://dc.lft.to/lastmile_qr_scan", "ios": "https://dc.lft.to/lastmile_qr_scan"}, "fusion_lon": 0.0}, {"lat": 38.914013, "is_disabled": 0, "type": "electric_scooter", "lon": -77.03261683333334, "bike_id": "11eab19f52b5cca2ba91f0f433fe8580", "fusion_lat": 0.0, "name": "11eab19f52b5cca2ba91f0f433fe8580", "is_reserved": 0, "rental_uris": {"android": "https://dc.lft.to/lastmile_qr_scan", "ios": "https://dc.lft.to/lastmile_qr_scan"}, "fusion_lon": 0.0}, {"lat": 38.9314345, "is_disabled": 0, "type": "electric_scooter", "lon": -77.0382675, "bike_id": "5a704b579a334bdd8c421a041b3ec19d", "fusion_lat": 0.0, "name": "5a704b579a334bdd8c421a041b3ec19d", "is_reserved": 0, "rental_uris": {"android": "https://dc.lft.to/lastmile_qr_scan", "ios": "https://dc.lft.to/lastmile_qr_scan"}, "fusion_lon": 0.0}, {"lat": 38.96144116666667, "is_disabled": 0, "type": "electric_scooter", "lon": -77.028011, "bike_id": "40a180dc19b68493e29c1641055b1f95", "fusion_lat": 0.0, "name": "40a180dc19b68493e29c1641055b1f95", "is_reserved": 0, "rental_uris": {"android": "https://dc.lft.to/lastmile_qr_scan", "ios": "https://dc.lft.to/lastmile_qr_scan"}, "fusion_lon": 0.0}, {"lat": 38.880464, "is_disabled": 0, "type": "electric_scooter", "lon": -76.98630333333334, "bike_id": "cdacfb0c32fbcfe6228aa05a37a24563", "fusion_lat": 0.0, "name": "cdacfb0c32fbcfe6228aa05a37a24563", "is_reserved": 0, "rental_uris": {"android": "https://dc.lft.to/lastmile_qr_scan", "ios": "https://dc.lft.to/lastmile_qr_scan"}, "fusion_lon": 0.0}, {"lat": 38.91558883333333, "is_disabled": 0, "type": "electric_scooter", "lon": -77.03152766666666, "bike_id": "2d04455ca7a9c56a626cf1e33de5489c", "fusion_lat": 0.0, "name": "2d04455ca7a9c56a626cf1e33de5489c", "is_reserved": 0, "rental_uris": {"android": "https://dc.lft.to/lastmile_qr_scan", "ios": "https://dc.lft.to/lastmile_qr_scan"}, "fusion_lon": 0.0}, {"lat": 38.89684233333333, "is_disabled": 0, "type": "electric_scooter", "lon": -76.9353125, "bike_id": "b8fa78945feb6422be9c1c9f3ba8a95d", "fusion_lat": 0.0, "name": "b8fa78945feb6422be9c1c9f3ba8a95d", "is_reserved": 0, "rental_uris": {"android": "https://dc.lft.to/lastmile_qr_scan", "ios": "https://dc.lft.to/lastmile_qr_scan"}, "fusion_lon": 0.0}, {"lat": 38.920688, "is_disabled": 0, "type": "electric_scooter", "lon": -76.97602333333333, "bike_id": "0c493b6023989e5a14f5f8900f78f430", "fusion_lat": 0.0, "name": "0c493b6023989e5a14f5f8900f78f430", "is_reserved": 0, "rental_uris": {"android": "https://dc.lft.to/lastmile_qr_scan", "ios": "https://dc.lft.to/lastmile_qr_scan"}, "fusion_lon": 0.0}, {"lat": 38.924233, "is_disabled": 0, "type": "electric_scooter", "lon": -77.05182733333334, "bike_id": "a5334754679eebdef2523068b29a676e", "fusion_lat": 0.0, "name": "a5334754679eebdef2523068b29a676e", "is_reserved": 0, "rental_uris": {"android": "https://dc.lft.to/lastmile_qr_scan", "ios": "https://dc.lft.to/lastmile_qr_scan"}, "fusion_lon": 0.0}, {"lat": 38.91584016666667, "is_disabled": 0, "type": "electric_scooter", "lon": -77.02393533333333, "bike_id": "9b9d5747038e95a0ba3b7b9e3bd9a616", "fusion_lat": 0.0, "name": "9b9d5747038e95a0ba3b7b9e3bd9a616", "is_reserved": 0, "rental_uris": {"android": "https://dc.lft.to/lastmile_qr_scan", "ios": "https://dc.lft.to/lastmile_qr_scan"}, "fusion_lon": 0.0}, {"lat": 38.919874, "is_disabled": 0, "type": "electric_scooter", "lon": -76.97306583333334, "bike_id": "5a2b00ddc00eb2e2a60e02bcfb3e349b", "fusion_lat": 0.0, "name": "5a2b00ddc00eb2e2a60e02bcfb3e349b", "is_reserved": 0, "rental_uris": {"android": "https://dc.lft.to/lastmile_qr_scan", "ios": "https://dc.lft.to/lastmile_qr_scan"}, "fusion_lon": 0.0}, {"lat": 38.9940495, "is_disabled": 0, "type": "electric_bike", "lon": -77.03100916666666, "bike_id": "610db9bc898b0afe2aa5f7a928fa6868", "fusion_lat": 0.0, "name": "610db9bc898b0afe2aa5f7a928fa6868", "is_reserved": 0, "rental_uris": {"android": "https://dc.lft.to/lastmile_qr_scan", "ios": "https://dc.lft.to/lastmile_qr_scan"}, "fusion_lon": 0.0}, {"lat": 38.9086665, "is_disabled": 0, "type": "electric_scooter", "lon": -77.0465545, "bike_id": "664af379873fb41e056273430fb64ab9", "fusion_lat": 0.0, "name": "664af379873fb41e056273430fb64ab9", "is_reserved": 0, "rental_uris": {"android": "https://dc.lft.to/lastmile_qr_scan", "ios": "https://dc.lft.to/lastmile_qr_scan"}, "fusion_lon": 0.0}, {"lat": 38.95003883333333, "is_disabled": 0, "type": "electric_scooter", "lon": -77.0156975, "bike_id": "75d96312a1ff516c1e8d891665b5896e", "fusion_lat": 0.0, "name": "75d96312a1ff516c1e8d891665b5896e", "is_reserved": 0, "rental_uris": {"android": "https://dc.lft.to/lastmile_qr_scan", "ios": "https://dc.lft.to/lastmile_qr_scan"}, "fusion_lon": 0.0}, {"lat": 38.8996015, "is_disabled": 0, "type": "electric_scooter", "lon": -77.04085066666667, "bike_id": "eeb1912598ad21fab616f4499a92b3bd", "fusion_lat": 0.0, "name": "eeb1912598ad21fab616f4499a92b3bd", "is_reserved": 0, "rental_uris": {"android": "https://dc.lft.to/lastmile_qr_scan", "ios": "https://dc.lft.to/lastmile_qr_scan"}, "fusion_lon": 0.0}, {"lat": 38.868877499999996, "is_disabled": 0, "type": "electric_scooter", "lon": -76.98313316666666, "bike_id": "8897d878e853bad127f7f94a46670d6b", "fusion_lat": 0.0, "name": "8897d878e853bad127f7f94a46670d6b", "is_reserved": 0, "rental_uris": {"android": "https://dc.lft.to/lastmile_qr_scan", "ios": "https://dc.lft.to/lastmile_qr_scan"}, "fusion_lon": 0.0}, {"lat": 38.9078275, "is_disabled": 0, "type": "electric_scooter", "lon": -77.04233366666666, "bike_id": "74a88b6191dede54e51eaec7974dd226", "fusion_lat": 0.0, "name": "74a88b6191dede54e51eaec7974dd226", "is_reserved": 0, "rental_uris": {"android": "https://dc.lft.to/lastmile_qr_scan", "ios": "https://dc.lft.to/lastmile_qr_scan"}, "fusion_lon": 0.0}, {"lat": 38.9124875, "is_disabled": 0, "type": "electric_scooter", "lon": -77.02714733333333, "bike_id": "6a7c296c46c7d6ab201ee480444817d4", "fusion_lat": 0.0, "name": "6a7c296c46c7d6ab201ee480444817d4", "is_reserved": 0, "rental_uris": {"android": "https://dc.lft.to/lastmile_qr_scan", "ios": "https://dc.lft.to/lastmile_qr_scan"}, "fusion_lon": 0.0}, {"lat": 38.87338066666667, "is_disabled": 0, "type": "electric_scooter", "lon": -76.991647, "bike_id": "5f1e928f63f945973272e2d91f67b36c", "fusion_lat": 0.0, "name": "5f1e928f63f945973272e2d91f67b36c", "is_reserved": 0, "rental_uris": {"android": "https://dc.lft.to/lastmile_qr_scan", "ios": "https://dc.lft.to/lastmile_qr_scan"}, "fusion_lon": 0.0}, {"lat": 38.9036725, "is_disabled": 0, "type": "electric_scooter", "lon": -77.0219555, "bike_id": "3e7a2d576eda9920e327f8d6a525b0fa", "fusion_lat": 0.0, "name": "3e7a2d576eda9920e327f8d6a525b0fa", "is_reserved": 0, "rental_uris": {"android": "https://dc.lft.to/lastmile_qr_scan", "ios": "https://dc.lft.to/lastmile_qr_scan"}, "fusion_lon": 0.0}, {"lat": 38.9167855, "is_disabled": 0, "type": "electric_scooter", "lon": -77.02974916666666, "bike_id": "317e85f8521e15b4c6b67bba427afc4d", "fusion_lat": 0.0, "name": "317e85f8521e15b4c6b67bba427afc4d", "is_reserved": 0, "rental_uris": {"android": "https://dc.lft.to/lastmile_qr_scan", "ios": "https://dc.lft.to/lastmile_qr_scan"}, "fusion_lon": 0.0}, {"lat": 38.90910616666667, "is_disabled": 0, "type": "electric_scooter", "lon": -77.03647866666667, "bike_id": "610a51ef2ae3a627521a0b5fd2bc784a", "fusion_lat": 0.0, "name": "610a51ef2ae3a627521a0b5fd2bc784a", "is_reserved": 0, "rental_uris": {"android": "https://dc.lft.to/lastmile_qr_scan", "ios": "https://dc.lft.to/lastmile_qr_scan"}, "fusion_lon": 0.0}, {"lat": 38.90488766666667, "is_disabled": 0, "type": "electric_scooter", "lon": -76.98710216666667, "bike_id": "c5d06347037e70863196aa970fbc0689", "fusion_lat": 0.0, "name": "c5d06347037e70863196aa970fbc0689", "is_reserved": 0, "rental_uris": {"android": "https://dc.lft.to/lastmile_qr_scan", "ios": "https://dc.lft.to/lastmile_qr_scan"}, "fusion_lon": 0.0}, {"lat": 38.88390166666667, "is_disabled": 0, "type": "electric_scooter", "lon": -77.01878766666667, "bike_id": "dc531edafb4b91e2e8fbbd4403438232", "fusion_lat": 0.0, "name": "dc531edafb4b91e2e8fbbd4403438232", "is_reserved": 0, "rental_uris": {"android": "https://dc.lft.to/lastmile_qr_scan", "ios": "https://dc.lft.to/lastmile_qr_scan"}, "fusion_lon": 0.0}, {"lat": 38.91229416666667, "is_disabled": 0, "type": "electric_scooter", "lon": -77.00198333333333, "bike_id": "63c64c6b58235783cc8e54e15f29712a", "fusion_lat": 0.0, "name": "63c64c6b58235783cc8e54e15f29712a", "is_reserved": 0, "rental_uris": {"android": "https://dc.lft.to/lastmile_qr_scan", "ios": "https://dc.lft.to/lastmile_qr_scan"}, "fusion_lon": 0.0}, {"lat": 38.906211166666665, "is_disabled": 0, "type": "electric_scooter", "lon": -77.0404315, "bike_id": "cae4f10cc4fd0eccb2702a50cc1058e2", "fusion_lat": 0.0, "name": "cae4f10cc4fd0eccb2702a50cc1058e2", "is_reserved": 0, "rental_uris": {"android": "https://dc.lft.to/lastmile_qr_scan", "ios": "https://dc.lft.to/lastmile_qr_scan"}, "fusion_lon": 0.0}, {"lat": 38.90037016666667, "is_disabled": 0, "type": "electric_scooter", "lon": -77.00205183333334, "bike_id": "abecbdbe11cbf695d7189f14abcef0f8", "fusion_lat": 0.0, "name": "abecbdbe11cbf695d7189f14abcef0f8", "is_reserved": 0, "rental_uris": {"android": "https://dc.lft.to/lastmile_qr_scan", "ios": "https://dc.lft.to/lastmile_qr_scan"}, "fusion_lon": 0.0}, {"lat": 38.934763, "is_disabled": 0, "type": "electric_scooter", "lon": -77.057893, "bike_id": "9123bfe11622372ea01970025dd640e6", "fusion_lat": 0.0, "name": "9123bfe11622372ea01970025dd640e6", "is_reserved": 0, "rental_uris": {"android": "https://dc.lft.to/lastmile_qr_scan", "ios": "https://dc.lft.to/lastmile_qr_scan"}, "fusion_lon": 0.0}, {"lat": 38.90272383333333, "is_disabled": 0, "type": "electric_scooter", "lon": -77.0176205, "bike_id": "e0a91ca52242cfbfd34e058c9cf03226", "fusion_lat": 0.0, "name": "e0a91ca52242cfbfd34e058c9cf03226", "is_reserved": 0, "rental_uris": {"android": "https://dc.lft.to/lastmile_qr_scan", "ios": "https://dc.lft.to/lastmile_qr_scan"}, "fusion_lon": 0.0}, {"lat": 38.92538533333333, "is_disabled": 0, "type": "electric_scooter", "lon": -77.034454, "bike_id": "cb7a6d7ade16a60e93bb298e7027dd76", "fusion_lat": 0.0, "name": "cb7a6d7ade16a60e93bb298e7027dd76", "is_reserved": 0, "rental_uris": {"android": "https://dc.lft.to/lastmile_qr_scan", "ios": "https://dc.lft.to/lastmile_qr_scan"}, "fusion_lon": 0.0}, {"lat": 38.858079333333336, "is_disabled": 0, "type": "electric_scooter", "lon": -76.986538, "bike_id": "798e8bcdec830f6acef91a938a574a87", "fusion_lat": 0.0, "name": "798e8bcdec830f6acef91a938a574a87", "is_reserved": 0, "rental_uris": {"android": "https://dc.lft.to/lastmile_qr_scan", "ios": "https://dc.lft.to/lastmile_qr_scan"}, "fusion_lon": 0.0}, {"lat": 38.966075000000004, "is_disabled": 0, "type": "electric_scooter", "lon": -77.02056766666666, "bike_id": "8850b46db272a0d78989840b547c1a56", "fusion_lat": 0.0, "name": "8850b46db272a0d78989840b547c1a56", "is_reserved": 0, "rental_uris": {"android": "https://dc.lft.to/lastmile_qr_scan", "ios": "https://dc.lft.to/lastmile_qr_scan"}, "fusion_lon": 0.0}, {"lat": 38.915478, "is_disabled": 0, "type": "electric_scooter", "lon": -77.0220275, "bike_id": "60c983a1cdd0cc6d72a5cce56c5f9452", "fusion_lat": 0.0, "name": "60c983a1cdd0cc6d72a5cce56c5f9452", "is_reserved": 0, "rental_uris": {"android": "https://dc.lft.to/lastmile_qr_scan", "ios": "https://dc.lft.to/lastmile_qr_scan"}, "fusion_lon": 0.0}, {"lat": 38.90010316666667, "is_disabled": 0, "type": "electric_scooter", "lon": -76.99871033333334, "bike_id": "57af638748ec6f7cdca08f9f22c94908", "fusion_lat": 0.0, "name": "57af638748ec6f7cdca08f9f22c94908", "is_reserved": 0, "rental_uris": {"android": "https://dc.lft.to/lastmile_qr_scan", "ios": "https://dc.lft.to/lastmile_qr_scan"}, "fusion_lon": 0.0}, {"lat": 38.9132015, "is_disabled": 0, "type": "electric_scooter", "lon": -77.03203, "bike_id": "b4e109f5bdad399b3265339b969e3ed0", "fusion_lat": 0.0, "name": "b4e109f5bdad399b3265339b969e3ed0", "is_reserved": 0, "rental_uris": {"android": "https://dc.lft.to/lastmile_qr_scan", "ios": "https://dc.lft.to/lastmile_qr_scan"}, "fusion_lon": 0.0}, {"lat": 38.924806833333335, "is_disabled": 0, "type": "electric_scooter", "lon": -77.03182316666667, "bike_id": "09db3c92546af3335cf821967e5388a1", "fusion_lat": 0.0, "name": "09db3c92546af3335cf821967e5388a1", "is_reserved": 0, "rental_uris": {"android": "https://dc.lft.to/lastmile_qr_scan", "ios": "https://dc.lft.to/lastmile_qr_scan"}, "fusion_lon": 0.0}, {"lat": 38.8874615, "is_disabled": 0, "type": "electric_scooter", "lon": -77.03148583333333, "bike_id": "962945818b1285f3fc1a0e02f458157f", "fusion_lat": 0.0, "name": "962945818b1285f3fc1a0e02f458157f", "is_reserved": 0, "rental_uris": {"android": "https://dc.lft.to/lastmile_qr_scan", "ios": "https://dc.lft.to/lastmile_qr_scan"}, "fusion_lon": 0.0}, {"lat": 38.87644433333333, "is_disabled": 0, "type": "electric_bike", "lon": -77.1178325, "bike_id": "d905063a84f02c09de9a1e9f48b7d152", "fusion_lat": 0.0, "name": "d905063a84f02c09de9a1e9f48b7d152", "is_reserved": 0, "rental_uris": {"android": "https://dc.lft.to/lastmile_qr_scan", "ios": "https://dc.lft.to/lastmile_qr_scan"}, "fusion_lon": 0.0}, {"lat": 38.930893166666664, "is_disabled": 0, "type": "electric_scooter", "lon": -77.07743616666667, "bike_id": "850633c76338ea6b6bb0bddd6ab653fb", "fusion_lat": 0.0, "name": "850633c76338ea6b6bb0bddd6ab653fb", "is_reserved": 0, "rental_uris": {"android": "https://dc.lft.to/lastmile_qr_scan", "ios": "https://dc.lft.to/lastmile_qr_scan"}, "fusion_lon": 0.0}, {"lat": 38.907201666666666, "is_disabled": 0, "type": "electric_scooter", "lon": -76.98930916666667, "bike_id": "c3f95a7a3a14b607946698659d2ca541", "fusion_lat": 0.0, "name": "c3f95a7a3a14b607946698659d2ca541", "is_reserved": 0, "rental_uris": {"android": "https://dc.lft.to/lastmile_qr_scan", "ios": "https://dc.lft.to/lastmile_qr_scan"}, "fusion_lon": 0.0}, {"lat": 38.924026, "is_disabled": 0, "type": "electric_scooter", "lon": -77.02971433333333, "bike_id": "512edc2b3104fb6266758d6b3077cf71", "fusion_lat": 0.0, "name": "512edc2b3104fb6266758d6b3077cf71", "is_reserved": 0, "rental_uris": {"android": "https://dc.lft.to/lastmile_qr_scan", "ios": "https://dc.lft.to/lastmile_qr_scan"}, "fusion_lon": 0.0}, {"lat": 38.89821633333333, "is_disabled": 0, "type": "electric_scooter", "lon": -77.03051983333333, "bike_id": "4c225bf47fc585a8b74d7a3ace2954d4", "fusion_lat": 0.0, "name": "4c225bf47fc585a8b74d7a3ace2954d4", "is_reserved": 0, "rental_uris": {"android": "https://dc.lft.to/lastmile_qr_scan", "ios": "https://dc.lft.to/lastmile_qr_scan"}, "fusion_lon": 0.0}, {"lat": 38.9024255, "is_disabled": 0, "type": "electric_scooter", "lon": -77.02904183333334, "bike_id": "c607adfba6645cdce364fe0e4bf52b41", "fusion_lat": 0.0, "name": "c607adfba6645cdce364fe0e4bf52b41", "is_reserved": 0, "rental_uris": {"android": "https://dc.lft.to/lastmile_qr_scan", "ios": "https://dc.lft.to/lastmile_qr_scan"}, "fusion_lon": 0.0}, {"lat": 38.861126166666665, "is_disabled": 0, "type": "electric_scooter", "lon": -76.98384016666667, "bike_id": "5f7a2449dbc48f4a4b0124c8a4673b92", "fusion_lat": 0.0, "name": "5f7a2449dbc48f4a4b0124c8a4673b92", "is_reserved": 0, "rental_uris": {"android": "https://dc.lft.to/lastmile_qr_scan", "ios": "https://dc.lft.to/lastmile_qr_scan"}, "fusion_lon": 0.0}, {"lat": 38.84027016666667, "is_disabled": 0, "type": "electric_bike", "lon": -76.97581633333333, "bike_id": "3bffcaced5c86fabc9a51d848b36edcc", "fusion_lat": 0.0, "name": "3bffcaced5c86fabc9a51d848b36edcc", "is_reserved": 0, "rental_uris": {"android": "https://dc.lft.to/lastmile_qr_scan", "ios": "https://dc.lft.to/lastmile_qr_scan"}, "fusion_lon": 0.0}, {"lat": 38.90779766666667, "is_disabled": 0, "type": "electric_scooter", "lon": -77.0036075, "bike_id": "4da014142c97fe8dc1459d321d80a004", "fusion_lat": 0.0, "name": "4da014142c97fe8dc1459d321d80a004", "is_reserved": 0, "rental_uris": {"android": "https://dc.lft.to/lastmile_qr_scan", "ios": "https://dc.lft.to/lastmile_qr_scan"}, "fusion_lon": 0.0}, {"lat": 38.93539666666667, "is_disabled": 0, "type": "electric_scooter", "lon": -77.03404066666667, "bike_id": "2800a87480ce06f3cdbe50808a69dcf8", "fusion_lat": 0.0, "name": "2800a87480ce06f3cdbe50808a69dcf8", "is_reserved": 0, "rental_uris": {"android": "https://dc.lft.to/lastmile_qr_scan", "ios": "https://dc.lft.to/lastmile_qr_scan"}, "fusion_lon": 0.0}, {"lat": 38.89616816666667, "is_disabled": 0, "type": "electric_scooter", "lon": -76.9929855, "bike_id": "b9523c993ec74ba22381d99239395f70", "fusion_lat": 0.0, "name": "b9523c993ec74ba22381d99239395f70", "is_reserved": 0, "rental_uris": {"android": "https://dc.lft.to/lastmile_qr_scan", "ios": "https://dc.lft.to/lastmile_qr_scan"}, "fusion_lon": 0.0}, {"lat": 38.891909166666665, "is_disabled": 0, "type": "electric_scooter", "lon": -76.99625933333333, "bike_id": "1ab99065c0a49979f3c765d932277e77", "fusion_lat": 0.0, "name": "1ab99065c0a49979f3c765d932277e77", "is_reserved": 0, "rental_uris": {"android": "https://dc.lft.to/lastmile_qr_scan", "ios": "https://dc.lft.to/lastmile_qr_scan"}, "fusion_lon": 0.0}, {"lat": 38.89774383333334, "is_disabled": 0, "type": "electric_scooter", "lon": -77.03202433333334, "bike_id": "05887db2190b3fb7eb62cd8d4d3c6d9d", "fusion_lat": 0.0, "name": "05887db2190b3fb7eb62cd8d4d3c6d9d", "is_reserved": 0, "rental_uris": {"android": "https://dc.lft.to/lastmile_qr_scan", "ios": "https://dc.lft.to/lastmile_qr_scan"}, "fusion_lon": 0.0}, {"lat": 38.90425066666667, "is_disabled": 0, "type": "electric_scooter", "lon": -77.02085016666666, "bike_id": "7d5e4ea441a5e5d546d93d20471b51c5", "fusion_lat": 0.0, "name": "7d5e4ea441a5e5d546d93d20471b51c5", "is_reserved": 0, "rental_uris": {"android": "https://dc.lft.to/lastmile_qr_scan", "ios": "https://dc.lft.to/lastmile_qr_scan"}, "fusion_lon": 0.0}, {"lat": 38.88521133333333, "is_disabled": 0, "type": "electric_scooter", "lon": -77.03348116666666, "bike_id": "6775fa873beed638ae3d70f3250206b7", "fusion_lat": 0.0, "name": "6775fa873beed638ae3d70f3250206b7", "is_reserved": 0, "rental_uris": {"android": "https://dc.lft.to/lastmile_qr_scan", "ios": "https://dc.lft.to/lastmile_qr_scan"}, "fusion_lon": 0.0}, {"lat": 38.8581315, "is_disabled": 0, "type": "electric_scooter", "lon": -76.9899205, "bike_id": "ff690dcef81225708d33f8426c1698c7", "fusion_lat": 0.0, "name": "ff690dcef81225708d33f8426c1698c7", "is_reserved": 0, "rental_uris": {"android": "https://dc.lft.to/lastmile_qr_scan", "ios": "https://dc.lft.to/lastmile_qr_scan"}, "fusion_lon": 0.0}, {"lat": 38.93991533333333, "is_disabled": 0, "type": "electric_scooter", "lon": -77.07177316666667, "bike_id": "58ae97696ce68739f661f36891e1c0fc", "fusion_lat": 0.0, "name": "58ae97696ce68739f661f36891e1c0fc", "is_reserved": 0, "rental_uris": {"android": "https://dc.lft.to/lastmile_qr_scan", "ios": "https://dc.lft.to/lastmile_qr_scan"}, "fusion_lon": 0.0}, {"lat": 38.897697, "is_disabled": 0, "type": "electric_scooter", "lon": -77.03264566666667, "bike_id": "af7725cc9d5f4505053f85431de2d1c4", "fusion_lat": 0.0, "name": "af7725cc9d5f4505053f85431de2d1c4", "is_reserved": 0, "rental_uris": {"android": "https://dc.lft.to/lastmile_qr_scan", "ios": "https://dc.lft.to/lastmile_qr_scan"}, "fusion_lon": 0.0}, {"lat": 38.908682666666664, "is_disabled": 0, "type": "electric_scooter", "lon": -77.0318775, "bike_id": "6c77a392f9f41ff5bf1cd6104ed9673f", "fusion_lat": 0.0, "name": "6c77a392f9f41ff5bf1cd6104ed9673f", "is_reserved": 0, "rental_uris": {"android": "https://dc.lft.to/lastmile_qr_scan", "ios": "https://dc.lft.to/lastmile_qr_scan"}, "fusion_lon": 0.0}, {"lat": 38.9154165, "is_disabled": 0, "type": "electric_scooter", "lon": -77.03184133333333, "bike_id": "18848d9be3d03b3b25473ff3d6bf5b23", "fusion_lat": 0.0, "name": "18848d9be3d03b3b25473ff3d6bf5b23", "is_reserved": 0, "rental_uris": {"android": "https://dc.lft.to/lastmile_qr_scan", "ios": "https://dc.lft.to/lastmile_qr_scan"}, "fusion_lon": 0.0}, {"lat": 38.89261833333333, "is_disabled": 0, "type": "electric_scooter", "lon": -76.9415625, "bike_id": "b223e7a6104abc7c60ac4bbbc0323cb2", "fusion_lat": 0.0, "name": "b223e7a6104abc7c60ac4bbbc0323cb2", "is_reserved": 0, "rental_uris": {"android": "https://dc.lft.to/lastmile_qr_scan", "ios": "https://dc.lft.to/lastmile_qr_scan"}, "fusion_lon": 0.0}, {"lat": 38.897583, "is_disabled": 0, "type": "electric_scooter", "lon": -77.04537483333333, "bike_id": "97590ee006792bb73e4004117a3bb00f", "fusion_lat": 0.0, "name": "97590ee006792bb73e4004117a3bb00f", "is_reserved": 0, "rental_uris": {"android": "https://dc.lft.to/lastmile_qr_scan", "ios": "https://dc.lft.to/lastmile_qr_scan"}, "fusion_lon": 0.0}, {"lat": 38.873423833333334, "is_disabled": 0, "type": "electric_scooter", "lon": -76.991651, "bike_id": "2f1cc8374b82d40609f7106a58d4011d", "fusion_lat": 0.0, "name": "2f1cc8374b82d40609f7106a58d4011d", "is_reserved": 0, "rental_uris": {"android": "https://dc.lft.to/lastmile_qr_scan", "ios": "https://dc.lft.to/lastmile_qr_scan"}, "fusion_lon": 0.0}, {"lat": 38.897408666666664, "is_disabled": 0, "type": "electric_scooter", "lon": -77.00861833333333, "bike_id": "68811a340d45cf3907956b31b38c9858", "fusion_lat": 0.0, "name": "68811a340d45cf3907956b31b38c9858", "is_reserved": 0, "rental_uris": {"android": "https://dc.lft.to/lastmile_qr_scan", "ios": "https://dc.lft.to/lastmile_qr_scan"}, "fusion_lon": 0.0}, {"lat": 38.928022, "is_disabled": 0, "type": "electric_scooter", "lon": -77.04315533333333, "bike_id": "857032cf882d3a2d0aa9bdf8e69aad8b", "fusion_lat": 0.0, "name": "857032cf882d3a2d0aa9bdf8e69aad8b", "is_reserved": 0, "rental_uris": {"android": "https://dc.lft.to/lastmile_qr_scan", "ios": "https://dc.lft.to/lastmile_qr_scan"}, "fusion_lon": 0.0}, {"lat": 38.80572266666667, "is_disabled": 0, "type": "electric_bike", "lon": -77.132389, "bike_id": "828c7fc97db9c25da15981ba0c119d14", "fusion_lat": 0.0, "name": "828c7fc97db9c25da15981ba0c119d14", "is_reserved": 0, "rental_uris": {"android": "https://dc.lft.to/lastmile_qr_scan", "ios": "https://dc.lft.to/lastmile_qr_scan"}, "fusion_lon": 0.0}, {"lat": 38.90419, "is_disabled": 0, "type": "electric_scooter", "lon": -77.05332, "bike_id": "d7946954374b3693b9f37aac51f208ef", "fusion_lat": 0.0, "name": "d7946954374b3693b9f37aac51f208ef", "is_reserved": 0, "rental_uris": {"android": "https://dc.lft.to/lastmile_qr_scan", "ios": "https://dc.lft.to/lastmile_qr_scan"}, "fusion_lon": 0.0}, {"lat": 38.90739933333333, "is_disabled": 0, "type": "electric_bike", "lon": -77.06902783333334, "bike_id": "cce53d0848a0378af86be2fa6be5385c", "fusion_lat": 0.0, "name": "cce53d0848a0378af86be2fa6be5385c", "is_reserved": 0, "rental_uris": {"android": "https://dc.lft.to/lastmile_qr_scan", "ios": "https://dc.lft.to/lastmile_qr_scan"}, "fusion_lon": 0.0}, {"lat": 38.89905133333333, "is_disabled": 0, "type": "electric_scooter", "lon": -76.93353016666667, "bike_id": "6627fe153febb9c0327d7322156ee165", "fusion_lat": 0.0, "name": "6627fe153febb9c0327d7322156ee165", "is_reserved": 0, "rental_uris": {"android": "https://dc.lft.to/lastmile_qr_scan", "ios": "https://dc.lft.to/lastmile_qr_scan"}, "fusion_lon": 0.0}, {"lat": 38.916792, "is_disabled": 0, "type": "electric_scooter", "lon": -77.02975166666667, "bike_id": "a31e12ccdf2de6cf0b9f2a40d80b3eb2", "fusion_lat": 0.0, "name": "a31e12ccdf2de6cf0b9f2a40d80b3eb2", "is_reserved": 0, "rental_uris": {"android": "https://dc.lft.to/lastmile_qr_scan", "ios": "https://dc.lft.to/lastmile_qr_scan"}, "fusion_lon": 0.0}, {"lat": 38.9002565, "is_disabled": 0, "type": "electric_scooter", "lon": -76.9881055, "bike_id": "50f45b3c807ed67cf0dab34ae5779f0b", "fusion_lat": 0.0, "name": "50f45b3c807ed67cf0dab34ae5779f0b", "is_reserved": 0, "rental_uris": {"android": "https://dc.lft.to/lastmile_qr_scan", "ios": "https://dc.lft.to/lastmile_qr_scan"}, "fusion_lon": 0.0}, {"lat": 38.890710166666665, "is_disabled": 0, "type": "electric_scooter", "lon": -76.98835766666667, "bike_id": "601a5ff639f6fdf455bb6817b0610324", "fusion_lat": 0.0, "name": "601a5ff639f6fdf455bb6817b0610324", "is_reserved": 0, "rental_uris": {"android": "https://dc.lft.to/lastmile_qr_scan", "ios": "https://dc.lft.to/lastmile_qr_scan"}, "fusion_lon": 0.0}, {"lat": 38.94628633333333, "is_disabled": 0, "type": "electric_scooter", "lon": -77.01847566666666, "bike_id": "8c5fee08ab3529d05830097cd70bee27", "fusion_lat": 0.0, "name": "8c5fee08ab3529d05830097cd70bee27", "is_reserved": 0, "rental_uris": {"android": "https://dc.lft.to/lastmile_qr_scan", "ios": "https://dc.lft.to/lastmile_qr_scan"}, "fusion_lon": 0.0}, {"lat": 38.92193566666667, "is_disabled": 0, "type": "electric_scooter", "lon": -77.042364, "bike_id": "c600e89b5deb6fabbe06a220cd42a465", "fusion_lat": 0.0, "name": "c600e89b5deb6fabbe06a220cd42a465", "is_reserved": 0, "rental_uris": {"android": "https://dc.lft.to/lastmile_qr_scan", "ios": "https://dc.lft.to/lastmile_qr_scan"}, "fusion_lon": 0.0}, {"lat": 38.895168166666664, "is_disabled": 0, "type": "electric_scooter", "lon": -77.04353316666666, "bike_id": "861dfce070da92dc447705c4fac81573", "fusion_lat": 0.0, "name": "861dfce070da92dc447705c4fac81573", "is_reserved": 0, "rental_uris": {"android": "https://dc.lft.to/lastmile_qr_scan", "ios": "https://dc.lft.to/lastmile_qr_scan"}, "fusion_lon": 0.0}, {"lat": 39.03044, "is_disabled": 0, "type": "electric_bike", "lon": -77.09478533333333, "bike_id": "3fb295de02611a386404d60a377843d2", "fusion_lat": 0.0, "name": "3fb295de02611a386404d60a377843d2", "is_reserved": 0, "rental_uris": {"android": "https://dc.lft.to/lastmile_qr_scan", "ios": "https://dc.lft.to/lastmile_qr_scan"}, "fusion_lon": 0.0}, {"lat": 38.90969066666667, "is_disabled": 0, "type": "electric_scooter", "lon": -77.04514566666667, "bike_id": "1a55d567269529a710eaf86632a32e0e", "fusion_lat": 0.0, "name": "1a55d567269529a710eaf86632a32e0e", "is_reserved": 0, "rental_uris": {"android": "https://dc.lft.to/lastmile_qr_scan", "ios": "https://dc.lft.to/lastmile_qr_scan"}, "fusion_lon": 0.0}, {"lat": 38.9072835, "is_disabled": 0, "type": "electric_scooter", "lon": -77.048252, "bike_id": "71a07b2822e3fed9ddafddcfdaa85b8f", "fusion_lat": 0.0, "name": "71a07b2822e3fed9ddafddcfdaa85b8f", "is_reserved": 0, "rental_uris": {"android": "https://dc.lft.to/lastmile_qr_scan", "ios": "https://dc.lft.to/lastmile_qr_scan"}, "fusion_lon": 0.0}, {"lat": 38.921809833333334, "is_disabled": 0, "type": "electric_scooter", "lon": -77.042308, "bike_id": "e9c2e20a398c53316f98a0529a5ac788", "fusion_lat": 0.0, "name": "e9c2e20a398c53316f98a0529a5ac788", "is_reserved": 0, "rental_uris": {"android": "https://dc.lft.to/lastmile_qr_scan", "ios": "https://dc.lft.to/lastmile_qr_scan"}, "fusion_lon": 0.0}, {"lat": 38.906611833333336, "is_disabled": 0, "type": "electric_scooter", "lon": -77.03858983333333, "bike_id": "bc806b436e00975346c9b6c4d16654bb", "fusion_lat": 0.0, "name": "bc806b436e00975346c9b6c4d16654bb", "is_reserved": 0, "rental_uris": {"android": "https://dc.lft.to/lastmile_qr_scan", "ios": "https://dc.lft.to/lastmile_qr_scan"}, "fusion_lon": 0.0}, {"lat": 38.93680166666667, "is_disabled": 0, "type": "electric_scooter", "lon": -77.03573583333333, "bike_id": "836597bc2608696fa8b9d972f1ce3803", "fusion_lat": 0.0, "name": "836597bc2608696fa8b9d972f1ce3803", "is_reserved": 0, "rental_uris": {"android": "https://dc.lft.to/lastmile_qr_scan", "ios": "https://dc.lft.to/lastmile_qr_scan"}, "fusion_lon": 0.0}, {"lat": 38.8851565, "is_disabled": 0, "type": "electric_scooter", "lon": -77.00571666666667, "bike_id": "992842e91b80754ad83277a8c8c0e90e", "fusion_lat": 0.0, "name": "992842e91b80754ad83277a8c8c0e90e", "is_reserved": 0, "rental_uris": {"android": "https://dc.lft.to/lastmile_qr_scan", "ios": "https://dc.lft.to/lastmile_qr_scan"}, "fusion_lon": 0.0}, {"lat": 38.92882866666667, "is_disabled": 0, "type": "electric_scooter", "lon": -77.03246333333334, "bike_id": "383cf7aa15ecba551d839684a4d7f957", "fusion_lat": 0.0, "name": "383cf7aa15ecba551d839684a4d7f957", "is_reserved": 0, "rental_uris": {"android": "https://dc.lft.to/lastmile_qr_scan", "ios": "https://dc.lft.to/lastmile_qr_scan"}, "fusion_lon": 0.0}, {"lat": 38.923179833333336, "is_disabled": 0, "type": "electric_scooter", "lon": -77.03903233333334, "bike_id": "862f72886c721dcf1dfdb79b494c0939", "fusion_lat": 0.0, "name": "862f72886c721dcf1dfdb79b494c0939", "is_reserved": 0, "rental_uris": {"android": "https://dc.lft.to/lastmile_qr_scan", "ios": "https://dc.lft.to/lastmile_qr_scan"}, "fusion_lon": 0.0}, {"lat": 38.9075425, "is_disabled": 0, "type": "electric_scooter", "lon": -76.99878016666666, "bike_id": "16f3bd5eccac9f41c5e0658223f4a9f0", "fusion_lat": 0.0, "name": "16f3bd5eccac9f41c5e0658223f4a9f0", "is_reserved": 0, "rental_uris": {"android": "https://dc.lft.to/lastmile_qr_scan", "ios": "https://dc.lft.to/lastmile_qr_scan"}, "fusion_lon": 0.0}, {"lat": 38.928889, "is_disabled": 0, "type": "electric_scooter", "lon": -77.03241316666667, "bike_id": "4314f6d28779c71689c7afb3f2c54ad6", "fusion_lat": 0.0, "name": "4314f6d28779c71689c7afb3f2c54ad6", "is_reserved": 0, "rental_uris": {"android": "https://dc.lft.to/lastmile_qr_scan", "ios": "https://dc.lft.to/lastmile_qr_scan"}, "fusion_lon": 0.0}, {"lat": 38.89836366666667, "is_disabled": 0, "type": "electric_scooter", "lon": -77.04334083333333, "bike_id": "f5677ea891394f1e950fe506ad72ef10", "fusion_lat": 0.0, "name": "f5677ea891394f1e950fe506ad72ef10", "is_reserved": 0, "rental_uris": {"android": "https://dc.lft.to/lastmile_qr_scan", "ios": "https://dc.lft.to/lastmile_qr_scan"}, "fusion_lon": 0.0}, {"lat": 38.917072833333336, "is_disabled": 0, "type": "electric_scooter", "lon": -77.03494166666667, "bike_id": "79ac785743f21f41d547ab8c08e86727", "fusion_lat": 0.0, "name": "79ac785743f21f41d547ab8c08e86727", "is_reserved": 0, "rental_uris": {"android": "https://dc.lft.to/lastmile_qr_scan", "ios": "https://dc.lft.to/lastmile_qr_scan"}, "fusion_lon": 0.0}, {"lat": 38.896265, "is_disabled": 0, "type": "electric_scooter", "lon": -76.99854933333333, "bike_id": "601a6f8aa5433272783a81c3bb1a3f70", "fusion_lat": 0.0, "name": "601a6f8aa5433272783a81c3bb1a3f70", "is_reserved": 0, "rental_uris": {"android": "https://dc.lft.to/lastmile_qr_scan", "ios": "https://dc.lft.to/lastmile_qr_scan"}, "fusion_lon": 0.0}, {"lat": 38.902069166666664, "is_disabled": 0, "type": "electric_scooter", "lon": -77.023703, "bike_id": "f36d5b52e5e2cfbcebdf684c8995b878", "fusion_lat": 0.0, "name": "f36d5b52e5e2cfbcebdf684c8995b878", "is_reserved": 0, "rental_uris": {"android": "https://dc.lft.to/lastmile_qr_scan", "ios": "https://dc.lft.to/lastmile_qr_scan"}, "fusion_lon": 0.0}, {"lat": 38.893253333333334, "is_disabled": 0, "type": "electric_scooter", "lon": -76.9298885, "bike_id": "cad32340033914dd3410704c6163c97c", "fusion_lat": 0.0, "name": "cad32340033914dd3410704c6163c97c", "is_reserved": 0, "rental_uris": {"android": "https://dc.lft.to/lastmile_qr_scan", "ios": "https://dc.lft.to/lastmile_qr_scan"}, "fusion_lon": 0.0}, {"lat": 38.91727383333333, "is_disabled": 0, "type": "electric_bike", "lon": -77.0079945, "bike_id": "76adf6947ae233090630f1c497e2e863", "fusion_lat": 0.0, "name": "76adf6947ae233090630f1c497e2e863", "is_reserved": 0, "rental_uris": {"android": "https://dc.lft.to/lastmile_qr_scan", "ios": "https://dc.lft.to/lastmile_qr_scan"}, "fusion_lon": 0.0}, {"lat": 38.9009475, "is_disabled": 0, "type": "electric_scooter", "lon": -77.0135685, "bike_id": "6cfdc2b3e52b014dc642505b4b2d9d37", "fusion_lat": 0.0, "name": "6cfdc2b3e52b014dc642505b4b2d9d37", "is_reserved": 0, "rental_uris": {"android": "https://dc.lft.to/lastmile_qr_scan", "ios": "https://dc.lft.to/lastmile_qr_scan"}, "fusion_lon": 0.0}, {"lat": 38.876296333333336, "is_disabled": 0, "type": "electric_scooter", "lon": -76.96524116666667, "bike_id": "00aa03615d69301485f5627a6215c8c3", "fusion_lat": 0.0, "name": "00aa03615d69301485f5627a6215c8c3", "is_reserved": 0, "rental_uris": {"android": "https://dc.lft.to/lastmile_qr_scan", "ios": "https://dc.lft.to/lastmile_qr_scan"}, "fusion_lon": 0.0}, {"lat": 38.946398, "is_disabled": 0, "type": "electric_scooter", "lon": -77.01931016666667, "bike_id": "2371e98e0d8012a34916b8c3d3a922f4", "fusion_lat": 0.0, "name": "2371e98e0d8012a34916b8c3d3a922f4", "is_reserved": 0, "rental_uris": {"android": "https://dc.lft.to/lastmile_qr_scan", "ios": "https://dc.lft.to/lastmile_qr_scan"}, "fusion_lon": 0.0}, {"lat": 38.9141855, "is_disabled": 0, "type": "electric_scooter", "lon": -77.03176066666667, "bike_id": "73a4ff7f240bbb89de4fa9b86bb503ba", "fusion_lat": 0.0, "name": "73a4ff7f240bbb89de4fa9b86bb503ba", "is_reserved": 0, "rental_uris": {"android": "https://dc.lft.to/lastmile_qr_scan", "ios": "https://dc.lft.to/lastmile_qr_scan"}, "fusion_lon": 0.0}, {"lat": 38.90334383333333, "is_disabled": 0, "type": "electric_scooter", "lon": -77.020662, "bike_id": "a830fca0271bb8efdd91e031c6a2f021", "fusion_lat": 0.0, "name": "a830fca0271bb8efdd91e031c6a2f021", "is_reserved": 0, "rental_uris": {"android": "https://dc.lft.to/lastmile_qr_scan", "ios": "https://dc.lft.to/lastmile_qr_scan"}, "fusion_lon": 0.0}, {"lat": 38.88110666666667, "is_disabled": 0, "type": "electric_scooter", "lon": -77.026367, "bike_id": "635e5c7c86b26aa7b0b838e1111f3f4a", "fusion_lat": 0.0, "name": "635e5c7c86b26aa7b0b838e1111f3f4a", "is_reserved": 0, "rental_uris": {"android": "https://dc.lft.to/lastmile_qr_scan", "ios": "https://dc.lft.to/lastmile_qr_scan"}, "fusion_lon": 0.0}, {"lat": 38.90969533333333, "is_disabled": 0, "type": "electric_scooter", "lon": -76.98474033333333, "bike_id": "6f9e1c3b31b4cf0e61a7a9694ef7bb81", "fusion_lat": 0.0, "name": "6f9e1c3b31b4cf0e61a7a9694ef7bb81", "is_reserved": 0, "rental_uris": {"android": "https://dc.lft.to/lastmile_qr_scan", "ios": "https://dc.lft.to/lastmile_qr_scan"}, "fusion_lon": 0.0}, {"lat": 39.034102, "is_disabled": 0, "type": "electric_bike", "lon": -77.0420735, "bike_id": "d825ebf819de9380a13ba36cd98576dd", "fusion_lat": 0.0, "name": "d825ebf819de9380a13ba36cd98576dd", "is_reserved": 0, "rental_uris": {"android": "https://dc.lft.to/lastmile_qr_scan", "ios": "https://dc.lft.to/lastmile_qr_scan"}, "fusion_lon": 0.0}, {"lat": 38.90393816666667, "is_disabled": 0, "type": "electric_scooter", "lon": -77.04468583333333, "bike_id": "3fb054c16a264f63d315af9ff0ae2bd5", "fusion_lat": 0.0, "name": "3fb054c16a264f63d315af9ff0ae2bd5", "is_reserved": 0, "rental_uris": {"android": "https://dc.lft.to/lastmile_qr_scan", "ios": "https://dc.lft.to/lastmile_qr_scan"}, "fusion_lon": 0.0}, {"lat": 38.8875505, "is_disabled": 0, "type": "electric_scooter", "lon": -77.02843, "bike_id": "42e8e522a89352ad2480eabb2566ed57", "fusion_lat": 0.0, "name": "42e8e522a89352ad2480eabb2566ed57", "is_reserved": 0, "rental_uris": {"android": "https://dc.lft.to/lastmile_qr_scan", "ios": "https://dc.lft.to/lastmile_qr_scan"}, "fusion_lon": 0.0}, {"lat": 38.8982325, "is_disabled": 0, "type": "electric_scooter", "lon": -77.0305, "bike_id": "1f3cb40349291ab2e1d4d9a0c053cfb8", "fusion_lat": 0.0, "name": "1f3cb40349291ab2e1d4d9a0c053cfb8", "is_reserved": 0, "rental_uris": {"android": "https://dc.lft.to/lastmile_qr_scan", "ios": "https://dc.lft.to/lastmile_qr_scan"}, "fusion_lon": 0.0}, {"lat": 38.84283083333333, "is_disabled": 0, "type": "electric_bike", "lon": -76.988384, "bike_id": "77a2113a79f15f34ddefe86ddae4b2b0", "fusion_lat": 0.0, "name": "77a2113a79f15f34ddefe86ddae4b2b0", "is_reserved": 0, "rental_uris": {"android": "https://dc.lft.to/lastmile_qr_scan", "ios": "https://dc.lft.to/lastmile_qr_scan"}, "fusion_lon": 0.0}, {"lat": 38.9095325, "is_disabled": 0, "type": "electric_scooter", "lon": -77.02273466666666, "bike_id": "be14424fa6e8f2b4b14246a219cc3be8", "fusion_lat": 0.0, "name": "be14424fa6e8f2b4b14246a219cc3be8", "is_reserved": 0, "rental_uris": {"android": "https://dc.lft.to/lastmile_qr_scan", "ios": "https://dc.lft.to/lastmile_qr_scan"}, "fusion_lon": 0.0}, {"lat": 38.92363483333333, "is_disabled": 0, "type": "electric_scooter", "lon": -77.0403115, "bike_id": "0ac2802425baa44e4d95d17ebd369823", "fusion_lat": 0.0, "name": "0ac2802425baa44e4d95d17ebd369823", "is_reserved": 0, "rental_uris": {"android": "https://dc.lft.to/lastmile_qr_scan", "ios": "https://dc.lft.to/lastmile_qr_scan"}, "fusion_lon": 0.0}, {"lat": 38.931115, "is_disabled": 0, "type": "electric_scooter", "lon": -77.0380695, "bike_id": "428f5e7aebed8687749b4e8d2086094a", "fusion_lat": 0.0, "name": "428f5e7aebed8687749b4e8d2086094a", "is_reserved": 0, "rental_uris": {"android": "https://dc.lft.to/lastmile_qr_scan", "ios": "https://dc.lft.to/lastmile_qr_scan"}, "fusion_lon": 0.0}, {"lat": 38.8937125, "is_disabled": 0, "type": "electric_scooter", "lon": -76.94999283333334, "bike_id": "880c0d278baba5fe2b4653893703f84a", "fusion_lat": 0.0, "name": "880c0d278baba5fe2b4653893703f84a", "is_reserved": 0, "rental_uris": {"android": "https://dc.lft.to/lastmile_qr_scan", "ios": "https://dc.lft.to/lastmile_qr_scan"}, "fusion_lon": 0.0}, {"lat": 38.849342666666665, "is_disabled": 0, "type": "electric_bike", "lon": -77.1001485, "bike_id": "cb01afd127c85f24f8c368302e82678b", "fusion_lat": 0.0, "name": "cb01afd127c85f24f8c368302e82678b", "is_reserved": 0, "rental_uris": {"android": "https://dc.lft.to/lastmile_qr_scan", "ios": "https://dc.lft.to/lastmile_qr_scan"}, "fusion_lon": 0.0}, {"lat": 38.921397166666665, "is_disabled": 0, "type": "electric_scooter", "lon": -77.0104285, "bike_id": "0ac4bd96e66af5c08f252ea4dd88dfa3", "fusion_lat": 0.0, "name": "0ac4bd96e66af5c08f252ea4dd88dfa3", "is_reserved": 0, "rental_uris": {"android": "https://dc.lft.to/lastmile_qr_scan", "ios": "https://dc.lft.to/lastmile_qr_scan"}, "fusion_lon": 0.0}, {"lat": 38.90985333333333, "is_disabled": 0, "type": "electric_scooter", "lon": -77.04806816666667, "bike_id": "851ada11d1f2afec961e1206fee336c9", "fusion_lat": 0.0, "name": "851ada11d1f2afec961e1206fee336c9", "is_reserved": 0, "rental_uris": {"android": "https://dc.lft.to/lastmile_qr_scan", "ios": "https://dc.lft.to/lastmile_qr_scan"}, "fusion_lon": 0.0}, {"lat": 38.866230333333334, "is_disabled": 0, "type": "electric_scooter", "lon": -76.98706133333333, "bike_id": "8cd81472057b99f152edb355dd1dc619", "fusion_lat": 0.0, "name": "8cd81472057b99f152edb355dd1dc619", "is_reserved": 0, "rental_uris": {"android": "https://dc.lft.to/lastmile_qr_scan", "ios": "https://dc.lft.to/lastmile_qr_scan"}, "fusion_lon": 0.0}, {"lat": 38.884919, "is_disabled": 0, "type": "electric_scooter", "lon": -77.00709183333333, "bike_id": "fb0d922f47a9445b72447eb6e0573e37", "fusion_lat": 0.0, "name": "fb0d922f47a9445b72447eb6e0573e37", "is_reserved": 0, "rental_uris": {"android": "https://dc.lft.to/lastmile_qr_scan", "ios": "https://dc.lft.to/lastmile_qr_scan"}, "fusion_lon": 0.0}, {"lat": 38.8429405, "is_disabled": 0, "type": "electric_scooter", "lon": -76.99947683333333, "bike_id": "771229090d00db3491d55dd2a548bf8b", "fusion_lat": 0.0, "name": "771229090d00db3491d55dd2a548bf8b", "is_reserved": 0, "rental_uris": {"android": "https://dc.lft.to/lastmile_qr_scan", "ios": "https://dc.lft.to/lastmile_qr_scan"}, "fusion_lon": 0.0}, {"lat": 38.887356833333335, "is_disabled": 0, "type": "electric_scooter", "lon": -77.03212933333333, "bike_id": "5d20a421ef6100523fa34e3c4dcc7475", "fusion_lat": 0.0, "name": "5d20a421ef6100523fa34e3c4dcc7475", "is_reserved": 0, "rental_uris": {"android": "https://dc.lft.to/lastmile_qr_scan", "ios": "https://dc.lft.to/lastmile_qr_scan"}, "fusion_lon": 0.0}, {"lat": 38.8656265, "is_disabled": 0, "type": "electric_scooter", "lon": -76.9895075, "bike_id": "d719862ff3c327d4643e473b0ea601ea", "fusion_lat": 0.0, "name": "d719862ff3c327d4643e473b0ea601ea", "is_reserved": 0, "rental_uris": {"android": "https://dc.lft.to/lastmile_qr_scan", "ios": "https://dc.lft.to/lastmile_qr_scan"}, "fusion_lon": 0.0}, {"lat": 38.909058333333334, "is_disabled": 0, "type": "electric_scooter", "lon": -77.03645733333333, "bike_id": "76b6679e04fc9cdd539684b609bb0285", "fusion_lat": 0.0, "name": "76b6679e04fc9cdd539684b609bb0285", "is_reserved": 0, "rental_uris": {"android": "https://dc.lft.to/lastmile_qr_scan", "ios": "https://dc.lft.to/lastmile_qr_scan"}, "fusion_lon": 0.0}, {"lat": 38.938737833333334, "is_disabled": 0, "type": "electric_scooter", "lon": -77.0244715, "bike_id": "8908780130ed728302448624d70a05f3", "fusion_lat": 0.0, "name": "8908780130ed728302448624d70a05f3", "is_reserved": 0, "rental_uris": {"android": "https://dc.lft.to/lastmile_qr_scan", "ios": "https://dc.lft.to/lastmile_qr_scan"}, "fusion_lon": 0.0}, {"lat": 38.9556025, "is_disabled": 0, "type": "electric_scooter", "lon": -77.022289, "bike_id": "dde12901de0c9e42b08863251980a4c4", "fusion_lat": 0.0, "name": "dde12901de0c9e42b08863251980a4c4", "is_reserved": 0, "rental_uris": {"android": "https://dc.lft.to/lastmile_qr_scan", "ios": "https://dc.lft.to/lastmile_qr_scan"}, "fusion_lon": 0.0}, {"lat": 38.8818595, "is_disabled": 0, "type": "electric_scooter", "lon": -76.99505866666667, "bike_id": "ab21cd27cba309668a26c8f3f561414a", "fusion_lat": 0.0, "name": "ab21cd27cba309668a26c8f3f561414a", "is_reserved": 0, "rental_uris": {"android": "https://dc.lft.to/lastmile_qr_scan", "ios": "https://dc.lft.to/lastmile_qr_scan"}, "fusion_lon": 0.0}, {"lat": 38.893666833333334, "is_disabled": 0, "type": "electric_scooter", "lon": -76.9499395, "bike_id": "1f52cfe18e99d77f80ee24b0cc2fd235", "fusion_lat": 0.0, "name": "1f52cfe18e99d77f80ee24b0cc2fd235", "is_reserved": 0, "rental_uris": {"android": "https://dc.lft.to/lastmile_qr_scan", "ios": "https://dc.lft.to/lastmile_qr_scan"}, "fusion_lon": 0.0}, {"lat": 38.88088916666667, "is_disabled": 0, "type": "electric_scooter", "lon": -76.927198, "bike_id": "1f4695cc27edfd987712720d92ef345c", "fusion_lat": 0.0, "name": "1f4695cc27edfd987712720d92ef345c", "is_reserved": 0, "rental_uris": {"android": "https://dc.lft.to/lastmile_qr_scan", "ios": "https://dc.lft.to/lastmile_qr_scan"}, "fusion_lon": 0.0}, {"lat": 38.839347, "is_disabled": 0, "type": "electric_bike", "lon": -77.07908466666666, "bike_id": "e48fddd4ac6cacc7b6ccc3856acb2b4d", "fusion_lat": 0.0, "name": "e48fddd4ac6cacc7b6ccc3856acb2b4d", "is_reserved": 0, "rental_uris": {"android": "https://dc.lft.to/lastmile_qr_scan", "ios": "https://dc.lft.to/lastmile_qr_scan"}, "fusion_lon": 0.0}, {"lat": 38.931972333333334, "is_disabled": 0, "type": "electric_scooter", "lon": -77.0385225, "bike_id": "dc0ae9ee7f454c7f643601ed718ab4aa", "fusion_lat": 0.0, "name": "dc0ae9ee7f454c7f643601ed718ab4aa", "is_reserved": 0, "rental_uris": {"android": "https://dc.lft.to/lastmile_qr_scan", "ios": "https://dc.lft.to/lastmile_qr_scan"}, "fusion_lon": 0.0}, {"lat": 38.8982575, "is_disabled": 0, "type": "electric_scooter", "lon": -77.02526066666667, "bike_id": "a8137c5dbad3f00dfa1e51335ba8abee", "fusion_lat": 0.0, "name": "a8137c5dbad3f00dfa1e51335ba8abee", "is_reserved": 0, "rental_uris": {"android": "https://dc.lft.to/lastmile_qr_scan", "ios": "https://dc.lft.to/lastmile_qr_scan"}, "fusion_lon": 0.0}, {"lat": 38.92235016666667, "is_disabled": 0, "type": "electric_scooter", "lon": -77.03893316666667, "bike_id": "e72106f1e84ab3d707df1521151bc4b6", "fusion_lat": 0.0, "name": "e72106f1e84ab3d707df1521151bc4b6", "is_reserved": 0, "rental_uris": {"android": "https://dc.lft.to/lastmile_qr_scan", "ios": "https://dc.lft.to/lastmile_qr_scan"}, "fusion_lon": 0.0}, {"lat": 38.9051335, "is_disabled": 0, "type": "electric_scooter", "lon": -77.00208866666667, "bike_id": "b6a83e91f993cf5fafcf85d6e720d417", "fusion_lat": 0.0, "name": "b6a83e91f993cf5fafcf85d6e720d417", "is_reserved": 0, "rental_uris": {"android": "https://dc.lft.to/lastmile_qr_scan", "ios": "https://dc.lft.to/lastmile_qr_scan"}, "fusion_lon": 0.0}, {"lat": 38.9040335, "is_disabled": 0, "type": "electric_scooter", "lon": -77.0447675, "bike_id": "18207ff8abc23b3dd427a63803087484", "fusion_lat": 0.0, "name": "18207ff8abc23b3dd427a63803087484", "is_reserved": 0, "rental_uris": {"android": "https://dc.lft.to/lastmile_qr_scan", "ios": "https://dc.lft.to/lastmile_qr_scan"}, "fusion_lon": 0.0}, {"lat": 38.90461083333334, "is_disabled": 0, "type": "electric_scooter", "lon": -77.01458133333334, "bike_id": "8da946623222c62042268c7ee32fa739", "fusion_lat": 0.0, "name": "8da946623222c62042268c7ee32fa739", "is_reserved": 0, "rental_uris": {"android": "https://dc.lft.to/lastmile_qr_scan", "ios": "https://dc.lft.to/lastmile_qr_scan"}, "fusion_lon": 0.0}, {"lat": 38.909982666666664, "is_disabled": 0, "type": "electric_scooter", "lon": -77.033856, "bike_id": "a0660006aa9fbdb26017fa649a899cbe", "fusion_lat": 0.0, "name": "a0660006aa9fbdb26017fa649a899cbe", "is_reserved": 0, "rental_uris": {"android": "https://dc.lft.to/lastmile_qr_scan", "ios": "https://dc.lft.to/lastmile_qr_scan"}, "fusion_lon": 0.0}, {"lat": 38.9249755, "is_disabled": 0, "type": "electric_scooter", "lon": -77.0089235, "bike_id": "82d1ad12c06aae82e48c0a0a9c2c39a4", "fusion_lat": 0.0, "name": "82d1ad12c06aae82e48c0a0a9c2c39a4", "is_reserved": 0, "rental_uris": {"android": "https://dc.lft.to/lastmile_qr_scan", "ios": "https://dc.lft.to/lastmile_qr_scan"}, "fusion_lon": 0.0}, {"lat": 38.90773383333333, "is_disabled": 0, "type": "electric_scooter", "lon": -77.069252, "bike_id": "d7938298a518ed02c990ce41b7b131b2", "fusion_lat": 0.0, "name": "d7938298a518ed02c990ce41b7b131b2", "is_reserved": 0, "rental_uris": {"android": "https://dc.lft.to/lastmile_qr_scan", "ios": "https://dc.lft.to/lastmile_qr_scan"}, "fusion_lon": 0.0}, {"lat": 38.92317833333333, "is_disabled": 0, "type": "electric_scooter", "lon": -77.03972166666667, "bike_id": "0b8d87a605960dec4cd2e1c03ff6dcb4", "fusion_lat": 0.0, "name": "0b8d87a605960dec4cd2e1c03ff6dcb4", "is_reserved": 0, "rental_uris": {"android": "https://dc.lft.to/lastmile_qr_scan", "ios": "https://dc.lft.to/lastmile_qr_scan"}, "fusion_lon": 0.0}, {"lat": 38.866488, "is_disabled": 0, "type": "electric_scooter", "lon": -76.988854, "bike_id": "9acaf055a1267a31d35497322faad8f3", "fusion_lat": 0.0, "name": "9acaf055a1267a31d35497322faad8f3", "is_reserved": 0, "rental_uris": {"android": "https://dc.lft.to/lastmile_qr_scan", "ios": "https://dc.lft.to/lastmile_qr_scan"}, "fusion_lon": 0.0}, {"lat": 38.92489233333333, "is_disabled": 0, "type": "electric_scooter", "lon": -77.05204083333334, "bike_id": "ed4582ac50f54c344708cd84cf7be346", "fusion_lat": 0.0, "name": "ed4582ac50f54c344708cd84cf7be346", "is_reserved": 0, "rental_uris": {"android": "https://dc.lft.to/lastmile_qr_scan", "ios": "https://dc.lft.to/lastmile_qr_scan"}, "fusion_lon": 0.0}, {"lat": 38.9057125, "is_disabled": 0, "type": "electric_scooter", "lon": -76.98875983333333, "bike_id": "c02ef0a18fec3317f2379289d14a6573", "fusion_lat": 0.0, "name": "c02ef0a18fec3317f2379289d14a6573", "is_reserved": 0, "rental_uris": {"android": "https://dc.lft.to/lastmile_qr_scan", "ios": "https://dc.lft.to/lastmile_qr_scan"}, "fusion_lon": 0.0}, {"lat": 38.911750833333336, "is_disabled": 0, "type": "electric_scooter", "lon": -77.038661, "bike_id": "2196b94d4ff19d817b8926684f234220", "fusion_lat": 0.0, "name": "2196b94d4ff19d817b8926684f234220", "is_reserved": 0, "rental_uris": {"android": "https://dc.lft.to/lastmile_qr_scan", "ios": "https://dc.lft.to/lastmile_qr_scan"}, "fusion_lon": 0.0}, {"lat": 38.90956666666666, "is_disabled": 0, "type": "electric_scooter", "lon": -77.0231015, "bike_id": "b875240a78c398f7ab123bb8af039acd", "fusion_lat": 0.0, "name": "b875240a78c398f7ab123bb8af039acd", "is_reserved": 0, "rental_uris": {"android": "https://dc.lft.to/lastmile_qr_scan", "ios": "https://dc.lft.to/lastmile_qr_scan"}, "fusion_lon": 0.0}, {"lat": 38.9334075, "is_disabled": 0, "type": "electric_scooter", "lon": -77.058622, "bike_id": "40d479bfd5a9b54c98ba91670a3b35d6", "fusion_lat": 0.0, "name": "40d479bfd5a9b54c98ba91670a3b35d6", "is_reserved": 0, "rental_uris": {"android": "https://dc.lft.to/lastmile_qr_scan", "ios": "https://dc.lft.to/lastmile_qr_scan"}, "fusion_lon": 0.0}, {"lat": 38.89768866666667, "is_disabled": 0, "type": "electric_scooter", "lon": -77.051587, "bike_id": "248328782a11106644e3989515545f45", "fusion_lat": 0.0, "name": "248328782a11106644e3989515545f45", "is_reserved": 0, "rental_uris": {"android": "https://dc.lft.to/lastmile_qr_scan", "ios": "https://dc.lft.to/lastmile_qr_scan"}, "fusion_lon": 0.0}, {"lat": 38.897072, "is_disabled": 0, "type": "electric_scooter", "lon": -77.0072675, "bike_id": "9362eccbb7e5d7f8ae0f04b550d3de13", "fusion_lat": 0.0, "name": "9362eccbb7e5d7f8ae0f04b550d3de13", "is_reserved": 0, "rental_uris": {"android": "https://dc.lft.to/lastmile_qr_scan", "ios": "https://dc.lft.to/lastmile_qr_scan"}, "fusion_lon": 0.0}, {"lat": 38.917156166666665, "is_disabled": 0, "type": "electric_scooter", "lon": -77.038605, "bike_id": "c5b6b325c80b339a1e5132522aafa63f", "fusion_lat": 0.0, "name": "c5b6b325c80b339a1e5132522aafa63f", "is_reserved": 0, "rental_uris": {"android": "https://dc.lft.to/lastmile_qr_scan", "ios": "https://dc.lft.to/lastmile_qr_scan"}, "fusion_lon": 0.0}, {"lat": 38.942955166666664, "is_disabled": 0, "type": "electric_scooter", "lon": -77.07708333333333, "bike_id": "9375f012cc0d4acb41b5f61cb745720a", "fusion_lat": 0.0, "name": "9375f012cc0d4acb41b5f61cb745720a", "is_reserved": 0, "rental_uris": {"android": "https://dc.lft.to/lastmile_qr_scan", "ios": "https://dc.lft.to/lastmile_qr_scan"}, "fusion_lon": 0.0}, {"lat": 38.9051575, "is_disabled": 0, "type": "electric_scooter", "lon": -77.06771783333333, "bike_id": "6042f9969d7add43abaa8aa3a4266a7a", "fusion_lat": 0.0, "name": "6042f9969d7add43abaa8aa3a4266a7a", "is_reserved": 0, "rental_uris": {"android": "https://dc.lft.to/lastmile_qr_scan", "ios": "https://dc.lft.to/lastmile_qr_scan"}, "fusion_lon": 0.0}, {"lat": 38.9006365, "is_disabled": 0, "type": "electric_scooter", "lon": -76.93391016666666, "bike_id": "5d93b8b55c6f49a3802f02d6427586a4", "fusion_lat": 0.0, "name": "5d93b8b55c6f49a3802f02d6427586a4", "is_reserved": 0, "rental_uris": {"android": "https://dc.lft.to/lastmile_qr_scan", "ios": "https://dc.lft.to/lastmile_qr_scan"}, "fusion_lon": 0.0}, {"lat": 38.99999666666667, "is_disabled": 0, "type": "electric_bike", "lon": -76.92496583333333, "bike_id": "927e9a3f81e0a91292e41de7baa03bc8", "fusion_lat": 0.0, "name": "927e9a3f81e0a91292e41de7baa03bc8", "is_reserved": 0, "rental_uris": {"android": "https://dc.lft.to/lastmile_qr_scan", "ios": "https://dc.lft.to/lastmile_qr_scan"}, "fusion_lon": 0.0}, {"lat": 38.89226883333333, "is_disabled": 0, "type": "electric_scooter", "lon": -77.03190116666667, "bike_id": "5330390bdccb963b2407f976c7d137b8", "fusion_lat": 0.0, "name": "5330390bdccb963b2407f976c7d137b8", "is_reserved": 0, "rental_uris": {"android": "https://dc.lft.to/lastmile_qr_scan", "ios": "https://dc.lft.to/lastmile_qr_scan"}, "fusion_lon": 0.0}, {"lat": 38.91689266666667, "is_disabled": 0, "type": "electric_scooter", "lon": -77.029802, "bike_id": "68e39bdadc3718e83876fbaa42a44425", "fusion_lat": 0.0, "name": "68e39bdadc3718e83876fbaa42a44425", "is_reserved": 0, "rental_uris": {"android": "https://dc.lft.to/lastmile_qr_scan", "ios": "https://dc.lft.to/lastmile_qr_scan"}, "fusion_lon": 0.0}, {"lat": 38.93652133333333, "is_disabled": 0, "type": "electric_scooter", "lon": -77.02394533333333, "bike_id": "2e36a58a771f05e3bce07dae578c0417", "fusion_lat": 0.0, "name": "2e36a58a771f05e3bce07dae578c0417", "is_reserved": 0, "rental_uris": {"android": "https://dc.lft.to/lastmile_qr_scan", "ios": "https://dc.lft.to/lastmile_qr_scan"}, "fusion_lon": 0.0}, {"lat": 38.9318785, "is_disabled": 0, "type": "electric_scooter", "lon": -77.02830333333333, "bike_id": "1abae8847879064c241f0c8b9b682d87", "fusion_lat": 0.0, "name": "1abae8847879064c241f0c8b9b682d87", "is_reserved": 0, "rental_uris": {"android": "https://dc.lft.to/lastmile_qr_scan", "ios": "https://dc.lft.to/lastmile_qr_scan"}, "fusion_lon": 0.0}, {"lat": 38.899611, "is_disabled": 0, "type": "electric_scooter", "lon": -77.05130216666667, "bike_id": "691be1cc3d34f5d52bc9973a7763d2c0", "fusion_lat": 0.0, "name": "691be1cc3d34f5d52bc9973a7763d2c0", "is_reserved": 0, "rental_uris": {"android": "https://dc.lft.to/lastmile_qr_scan", "ios": "https://dc.lft.to/lastmile_qr_scan"}, "fusion_lon": 0.0}, {"lat": 38.890973833333334, "is_disabled": 0, "type": "electric_scooter", "lon": -76.95254183333333, "bike_id": "79f442b74a13c05165fcdfd0fcbb9ae2", "fusion_lat": 0.0, "name": "79f442b74a13c05165fcdfd0fcbb9ae2", "is_reserved": 0, "rental_uris": {"android": "https://dc.lft.to/lastmile_qr_scan", "ios": "https://dc.lft.to/lastmile_qr_scan"}, "fusion_lon": 0.0}, {"lat": 38.9010015, "is_disabled": 0, "type": "electric_scooter", "lon": -77.049873, "bike_id": "5e81585ff71dadfa347d939f3d736f86", "fusion_lat": 0.0, "name": "5e81585ff71dadfa347d939f3d736f86", "is_reserved": 0, "rental_uris": {"android": "https://dc.lft.to/lastmile_qr_scan", "ios": "https://dc.lft.to/lastmile_qr_scan"}, "fusion_lon": 0.0}, {"lat": 38.909509166666666, "is_disabled": 0, "type": "electric_scooter", "lon": -77.04664483333333, "bike_id": "03a0e971005c571af6cb16c4f3e88edb", "fusion_lat": 0.0, "name": "03a0e971005c571af6cb16c4f3e88edb", "is_reserved": 0, "rental_uris": {"android": "https://dc.lft.to/lastmile_qr_scan", "ios": "https://dc.lft.to/lastmile_qr_scan"}, "fusion_lon": 0.0}, {"lat": 38.898448, "is_disabled": 0, "type": "electric_scooter", "lon": -76.94483983333333, "bike_id": "08dd9281f6aa7ea42d821b8d1dea9eaf", "fusion_lat": 0.0, "name": "08dd9281f6aa7ea42d821b8d1dea9eaf", "is_reserved": 0, "rental_uris": {"android": "https://dc.lft.to/lastmile_qr_scan", "ios": "https://dc.lft.to/lastmile_qr_scan"}, "fusion_lon": 0.0}, {"lat": 38.90433433333333, "is_disabled": 0, "type": "electric_scooter", "lon": -77.03467533333334, "bike_id": "57404fe3b360f88a9aa1d10ffe49ef4c", "fusion_lat": 0.0, "name": "57404fe3b360f88a9aa1d10ffe49ef4c", "is_reserved": 0, "rental_uris": {"android": "https://dc.lft.to/lastmile_qr_scan", "ios": "https://dc.lft.to/lastmile_qr_scan"}, "fusion_lon": 0.0}, {"lat": 38.917344166666666, "is_disabled": 0, "type": "electric_scooter", "lon": -77.02901766666666, "bike_id": "92bc01e240e54bbcdcae6490e900514a", "fusion_lat": 0.0, "name": "92bc01e240e54bbcdcae6490e900514a", "is_reserved": 0, "rental_uris": {"android": "https://dc.lft.to/lastmile_qr_scan", "ios": "https://dc.lft.to/lastmile_qr_scan"}, "fusion_lon": 0.0}, {"lat": 38.933468500000004, "is_disabled": 0, "type": "electric_bike", "lon": -76.9943775, "bike_id": "dc136f9cb05c883d9d96916c8613e240", "fusion_lat": 0.0, "name": "dc136f9cb05c883d9d96916c8613e240", "is_reserved": 0, "rental_uris": {"android": "https://dc.lft.to/lastmile_qr_scan", "ios": "https://dc.lft.to/lastmile_qr_scan"}, "fusion_lon": 0.0}, {"lat": 39.09437, "is_disabled": 0, "type": "electric_bike", "lon": -77.1346245, "bike_id": "37805b42104b3e30099c048bcb0014d9", "fusion_lat": 0.0, "name": "37805b42104b3e30099c048bcb0014d9", "is_reserved": 0, "rental_uris": {"android": "https://dc.lft.to/lastmile_qr_scan", "ios": "https://dc.lft.to/lastmile_qr_scan"}, "fusion_lon": 0.0}, {"lat": 38.932029166666666, "is_disabled": 0, "type": "electric_scooter", "lon": -77.03854766666667, "bike_id": "edcb7a2d4c30f324df236e8c55837558", "fusion_lat": 0.0, "name": "edcb7a2d4c30f324df236e8c55837558", "is_reserved": 0, "rental_uris": {"android": "https://dc.lft.to/lastmile_qr_scan", "ios": "https://dc.lft.to/lastmile_qr_scan"}, "fusion_lon": 0.0}, {"lat": 38.862815, "is_disabled": 0, "type": "electric_scooter", "lon": -76.9923365, "bike_id": "a19d668442481b2c369574b4cdf338c1", "fusion_lat": 0.0, "name": "a19d668442481b2c369574b4cdf338c1", "is_reserved": 0, "rental_uris": {"android": "https://dc.lft.to/lastmile_qr_scan", "ios": "https://dc.lft.to/lastmile_qr_scan"}, "fusion_lon": 0.0}, {"lat": 38.89516833333333, "is_disabled": 0, "type": "electric_scooter", "lon": -77.04352166666666, "bike_id": "f54d6dc42d42229cb3d8167b1133a77f", "fusion_lat": 0.0, "name": "f54d6dc42d42229cb3d8167b1133a77f", "is_reserved": 0, "rental_uris": {"android": "https://dc.lft.to/lastmile_qr_scan", "ios": "https://dc.lft.to/lastmile_qr_scan"}, "fusion_lon": 0.0}, {"lat": 38.924479, "is_disabled": 0, "type": "electric_scooter", "lon": -77.03381233333333, "bike_id": "bf202288c6774e9e2587c0fe46b30ed7", "fusion_lat": 0.0, "name": "bf202288c6774e9e2587c0fe46b30ed7", "is_reserved": 0, "rental_uris": {"android": "https://dc.lft.to/lastmile_qr_scan", "ios": "https://dc.lft.to/lastmile_qr_scan"}, "fusion_lon": 0.0}, {"lat": 38.91208683333333, "is_disabled": 0, "type": "electric_scooter", "lon": -77.0414335, "bike_id": "f8e8b0b12e550eb184b3baddc8c322ca", "fusion_lat": 0.0, "name": "f8e8b0b12e550eb184b3baddc8c322ca", "is_reserved": 0, "rental_uris": {"android": "https://dc.lft.to/lastmile_qr_scan", "ios": "https://dc.lft.to/lastmile_qr_scan"}, "fusion_lon": 0.0}, {"lat": 38.925827, "is_disabled": 0, "type": "electric_scooter", "lon": -77.05761583333333, "bike_id": "a46903b2b03c1583df7cd503d5613114", "fusion_lat": 0.0, "name": "a46903b2b03c1583df7cd503d5613114", "is_reserved": 0, "rental_uris": {"android": "https://dc.lft.to/lastmile_qr_scan", "ios": "https://dc.lft.to/lastmile_qr_scan"}, "fusion_lon": 0.0}, {"lat": 38.92904033333333, "is_disabled": 0, "type": "electric_scooter", "lon": -77.074544, "bike_id": "c2f95bbedaec8b5afef184fd550071b6", "fusion_lat": 0.0, "name": "c2f95bbedaec8b5afef184fd550071b6", "is_reserved": 0, "rental_uris": {"android": "https://dc.lft.to/lastmile_qr_scan", "ios": "https://dc.lft.to/lastmile_qr_scan"}, "fusion_lon": 0.0}, {"lat": 38.92347, "is_disabled": 0, "type": "electric_scooter", "lon": -77.04129016666667, "bike_id": "862dd699ceda3557d54bc74093c3c49f", "fusion_lat": 0.0, "name": "862dd699ceda3557d54bc74093c3c49f", "is_reserved": 0, "rental_uris": {"android": "https://dc.lft.to/lastmile_qr_scan", "ios": "https://dc.lft.to/lastmile_qr_scan"}, "fusion_lon": 0.0}, {"lat": 38.924676, "is_disabled": 0, "type": "electric_scooter", "lon": -77.03966833333334, "bike_id": "53def0a304d85503fcdd77e4385d449e", "fusion_lat": 0.0, "name": "53def0a304d85503fcdd77e4385d449e", "is_reserved": 0, "rental_uris": {"android": "https://dc.lft.to/lastmile_qr_scan", "ios": "https://dc.lft.to/lastmile_qr_scan"}, "fusion_lon": 0.0}, {"lat": 38.93662116666667, "is_disabled": 0, "type": "electric_scooter", "lon": -77.03634233333334, "bike_id": "932b56d4a3816bf88e457b4811ddb53c", "fusion_lat": 0.0, "name": "932b56d4a3816bf88e457b4811ddb53c", "is_reserved": 0, "rental_uris": {"android": "https://dc.lft.to/lastmile_qr_scan", "ios": "https://dc.lft.to/lastmile_qr_scan"}, "fusion_lon": 0.0}, {"lat": 38.884370833333335, "is_disabled": 0, "type": "electric_scooter", "lon": -77.03037033333334, "bike_id": "5d60a2e877758a072b1c1f77e7952b5d", "fusion_lat": 0.0, "name": "5d60a2e877758a072b1c1f77e7952b5d", "is_reserved": 0, "rental_uris": {"android": "https://dc.lft.to/lastmile_qr_scan", "ios": "https://dc.lft.to/lastmile_qr_scan"}, "fusion_lon": 0.0}, {"lat": 38.903361, "is_disabled": 0, "type": "electric_scooter", "lon": -77.02089483333333, "bike_id": "4b281854a991358b093140f401384264", "fusion_lat": 0.0, "name": "4b281854a991358b093140f401384264", "is_reserved": 0, "rental_uris": {"android": "https://dc.lft.to/lastmile_qr_scan", "ios": "https://dc.lft.to/lastmile_qr_scan"}, "fusion_lon": 0.0}, {"lat": 38.900424666666666, "is_disabled": 0, "type": "electric_scooter", "lon": -77.00230466666666, "bike_id": "17b936258c5db16eeadc94aa1d8607ca", "fusion_lat": 0.0, "name": "17b936258c5db16eeadc94aa1d8607ca", "is_reserved": 0, "rental_uris": {"android": "https://dc.lft.to/lastmile_qr_scan", "ios": "https://dc.lft.to/lastmile_qr_scan"}, "fusion_lon": 0.0}, {"lat": 38.916806666666666, "is_disabled": 0, "type": "electric_scooter", "lon": -77.04149916666667, "bike_id": "071f6fe1794af47f6824bcddbba636e1", "fusion_lat": 0.0, "name": "071f6fe1794af47f6824bcddbba636e1", "is_reserved": 0, "rental_uris": {"android": "https://dc.lft.to/lastmile_qr_scan", "ios": "https://dc.lft.to/lastmile_qr_scan"}, "fusion_lon": 0.0}, {"lat": 38.91724166666667, "is_disabled": 0, "type": "electric_scooter", "lon": -77.03649616666667, "bike_id": "a51950680b8713070ba2cacd3f3ec66f", "fusion_lat": 0.0, "name": "a51950680b8713070ba2cacd3f3ec66f", "is_reserved": 0, "rental_uris": {"android": "https://dc.lft.to/lastmile_qr_scan", "ios": "https://dc.lft.to/lastmile_qr_scan"}, "fusion_lon": 0.0}, {"lat": 38.95742516666667, "is_disabled": 0, "type": "electric_bike", "lon": -77.02326466666666, "bike_id": "2ad78f079754b6df5a5b9ef81e7b3755", "fusion_lat": 0.0, "name": "2ad78f079754b6df5a5b9ef81e7b3755", "is_reserved": 0, "rental_uris": {"android": "https://dc.lft.to/lastmile_qr_scan", "ios": "https://dc.lft.to/lastmile_qr_scan"}, "fusion_lon": 0.0}, {"lat": 38.908197666666666, "is_disabled": 0, "type": "electric_scooter", "lon": -76.99676233333334, "bike_id": "5910eeef5eccc59ed9077dee4dc50095", "fusion_lat": 0.0, "name": "5910eeef5eccc59ed9077dee4dc50095", "is_reserved": 0, "rental_uris": {"android": "https://dc.lft.to/lastmile_qr_scan", "ios": "https://dc.lft.to/lastmile_qr_scan"}, "fusion_lon": 0.0}, {"lat": 38.90032983333333, "is_disabled": 0, "type": "electric_scooter", "lon": -77.00538966666667, "bike_id": "2a55e4338351b8c2d4008c48f5a47af9", "fusion_lat": 0.0, "name": "2a55e4338351b8c2d4008c48f5a47af9", "is_reserved": 0, "rental_uris": {"android": "https://dc.lft.to/lastmile_qr_scan", "ios": "https://dc.lft.to/lastmile_qr_scan"}, "fusion_lon": 0.0}, {"lat": 38.926763, "is_disabled": 0, "type": "electric_scooter", "lon": -77.00743616666666, "bike_id": "a0255baca02cb07b71dccd3212f6a055", "fusion_lat": 0.0, "name": "a0255baca02cb07b71dccd3212f6a055", "is_reserved": 0, "rental_uris": {"android": "https://dc.lft.to/lastmile_qr_scan", "ios": "https://dc.lft.to/lastmile_qr_scan"}, "fusion_lon": 0.0}, {"lat": 38.88466866666667, "is_disabled": 0, "type": "electric_scooter", "lon": -77.01529, "bike_id": "1f067eaf16b4bbc7264a338ce5ced26b", "fusion_lat": 0.0, "name": "1f067eaf16b4bbc7264a338ce5ced26b", "is_reserved": 0, "rental_uris": {"android": "https://dc.lft.to/lastmile_qr_scan", "ios": "https://dc.lft.to/lastmile_qr_scan"}, "fusion_lon": 0.0}, {"lat": 38.891433666666664, "is_disabled": 0, "type": "electric_bike", "lon": -77.11306583333334, "bike_id": "71d79fcf173ee1b10513e60b23b1e557", "fusion_lat": 0.0, "name": "71d79fcf173ee1b10513e60b23b1e557", "is_reserved": 0, "rental_uris": {"android": "https://dc.lft.to/lastmile_qr_scan", "ios": "https://dc.lft.to/lastmile_qr_scan"}, "fusion_lon": 0.0}, {"lat": 38.89220483333333, "is_disabled": 0, "type": "electric_bike", "lon": -77.107805, "bike_id": "59c4ae085294bdafe677d541647cb69f", "fusion_lat": 0.0, "name": "59c4ae085294bdafe677d541647cb69f", "is_reserved": 0, "rental_uris": {"android": "https://dc.lft.to/lastmile_qr_scan", "ios": "https://dc.lft.to/lastmile_qr_scan"}, "fusion_lon": 0.0}, {"lat": 38.90968316666667, "is_disabled": 0, "type": "electric_scooter", "lon": -77.0405865, "bike_id": "aef5e873797392268d1b303487d4572f", "fusion_lat": 0.0, "name": "aef5e873797392268d1b303487d4572f", "is_reserved": 0, "rental_uris": {"android": "https://dc.lft.to/lastmile_qr_scan", "ios": "https://dc.lft.to/lastmile_qr_scan"}, "fusion_lon": 0.0}, {"lat": 38.862303, "is_disabled": 0, "type": "electric_scooter", "lon": -76.99549016666667, "bike_id": "492bc8aa9b4017c878d39adc1dca1a87", "fusion_lat": 0.0, "name": "492bc8aa9b4017c878d39adc1dca1a87", "is_reserved": 0, "rental_uris": {"android": "https://dc.lft.to/lastmile_qr_scan", "ios": "https://dc.lft.to/lastmile_qr_scan"}, "fusion_lon": 0.0}, {"lat": 38.961507166666664, "is_disabled": 0, "type": "electric_scooter", "lon": -77.0279105, "bike_id": "b61126d47a01df0056a215e2b7bf0c22", "fusion_lat": 0.0, "name": "b61126d47a01df0056a215e2b7bf0c22", "is_reserved": 0, "rental_uris": {"android": "https://dc.lft.to/lastmile_qr_scan", "ios": "https://dc.lft.to/lastmile_qr_scan"}, "fusion_lon": 0.0}, {"lat": 38.901862666666666, "is_disabled": 0, "type": "electric_scooter", "lon": -77.02443833333334, "bike_id": "9e06ce921a4c43263f19640e766c5f24", "fusion_lat": 0.0, "name": "9e06ce921a4c43263f19640e766c5f24", "is_reserved": 0, "rental_uris": {"android": "https://dc.lft.to/lastmile_qr_scan", "ios": "https://dc.lft.to/lastmile_qr_scan"}, "fusion_lon": 0.0}, {"lat": 38.918089333333334, "is_disabled": 0, "type": "electric_scooter", "lon": -77.0269325, "bike_id": "25eb54c878eaa4d71c6ef103fb924222", "fusion_lat": 0.0, "name": "25eb54c878eaa4d71c6ef103fb924222", "is_reserved": 0, "rental_uris": {"android": "https://dc.lft.to/lastmile_qr_scan", "ios": "https://dc.lft.to/lastmile_qr_scan"}, "fusion_lon": 0.0}, {"lat": 38.9237075, "is_disabled": 0, "type": "electric_scooter", "lon": -77.04134733333333, "bike_id": "8d745fd6e20d8b14961dfdbe7482e955", "fusion_lat": 0.0, "name": "8d745fd6e20d8b14961dfdbe7482e955", "is_reserved": 0, "rental_uris": {"android": "https://dc.lft.to/lastmile_qr_scan", "ios": "https://dc.lft.to/lastmile_qr_scan"}, "fusion_lon": 0.0}, {"lat": 38.92755583333334, "is_disabled": 0, "type": "electric_scooter", "lon": -77.0321915, "bike_id": "8a5463442bde8c794e861669f0d2cfd3", "fusion_lat": 0.0, "name": "8a5463442bde8c794e861669f0d2cfd3", "is_reserved": 0, "rental_uris": {"android": "https://dc.lft.to/lastmile_qr_scan", "ios": "https://dc.lft.to/lastmile_qr_scan"}, "fusion_lon": 0.0}, {"lat": 38.885784666666666, "is_disabled": 0, "type": "electric_scooter", "lon": -76.91915833333333, "bike_id": "b6d70f846f708b9670bba5a038134c47", "fusion_lat": 0.0, "name": "b6d70f846f708b9670bba5a038134c47", "is_reserved": 0, "rental_uris": {"android": "https://dc.lft.to/lastmile_qr_scan", "ios": "https://dc.lft.to/lastmile_qr_scan"}, "fusion_lon": 0.0}, {"lat": 38.8863655, "is_disabled": 0, "type": "electric_bike", "lon": -76.95474283333333, "bike_id": "521102099a997716c2af4d89802f09a7", "fusion_lat": 0.0, "name": "521102099a997716c2af4d89802f09a7", "is_reserved": 0, "rental_uris": {"android": "https://dc.lft.to/lastmile_qr_scan", "ios": "https://dc.lft.to/lastmile_qr_scan"}, "fusion_lon": 0.0}, {"lat": 38.9248195, "is_disabled": 0, "type": "electric_scooter", "lon": -77.028454, "bike_id": "6725c894d224ea189c213e16e4f091cc", "fusion_lat": 0.0, "name": "6725c894d224ea189c213e16e4f091cc", "is_reserved": 0, "rental_uris": {"android": "https://dc.lft.to/lastmile_qr_scan", "ios": "https://dc.lft.to/lastmile_qr_scan"}, "fusion_lon": 0.0}, {"lat": 38.898176666666664, "is_disabled": 0, "type": "electric_scooter", "lon": -76.9969335, "bike_id": "5d956d08e07d4c1438149adc23496d6c", "fusion_lat": 0.0, "name": "5d956d08e07d4c1438149adc23496d6c", "is_reserved": 0, "rental_uris": {"android": "https://dc.lft.to/lastmile_qr_scan", "ios": "https://dc.lft.to/lastmile_qr_scan"}, "fusion_lon": 0.0}, {"lat": 39.056313, "is_disabled": 0, "type": "electric_bike", "lon": -77.1252575, "bike_id": "2a936ee23343676272d244119971e620", "fusion_lat": 0.0, "name": "2a936ee23343676272d244119971e620", "is_reserved": 0, "rental_uris": {"android": "https://dc.lft.to/lastmile_qr_scan", "ios": "https://dc.lft.to/lastmile_qr_scan"}, "fusion_lon": 0.0}, {"lat": 38.9287165, "is_disabled": 0, "type": "electric_scooter", "lon": -77.0324655, "bike_id": "2b8a62f11a854a29c4c21ebcbf0dbb57", "fusion_lat": 0.0, "name": "2b8a62f11a854a29c4c21ebcbf0dbb57", "is_reserved": 0, "rental_uris": {"android": "https://dc.lft.to/lastmile_qr_scan", "ios": "https://dc.lft.to/lastmile_qr_scan"}, "fusion_lon": 0.0}, {"lat": 38.91818033333333, "is_disabled": 0, "type": "electric_scooter", "lon": -77.041541, "bike_id": "6aa27566bb0005cebb29f89d131e9e09", "fusion_lat": 0.0, "name": "6aa27566bb0005cebb29f89d131e9e09", "is_reserved": 0, "rental_uris": {"android": "https://dc.lft.to/lastmile_qr_scan", "ios": "https://dc.lft.to/lastmile_qr_scan"}, "fusion_lon": 0.0}, {"lat": 38.939582333333334, "is_disabled": 0, "type": "electric_scooter", "lon": -77.02750583333334, "bike_id": "3695c4787cbb87e6f46c2e7c40b49a3e", "fusion_lat": 0.0, "name": "3695c4787cbb87e6f46c2e7c40b49a3e", "is_reserved": 0, "rental_uris": {"android": "https://dc.lft.to/lastmile_qr_scan", "ios": "https://dc.lft.to/lastmile_qr_scan"}, "fusion_lon": 0.0}, {"lat": 38.9247405, "is_disabled": 0, "type": "electric_scooter", "lon": -77.03937116666667, "bike_id": "ffbea8d0d5c91112b64f7a20d8e25d85", "fusion_lat": 0.0, "name": "ffbea8d0d5c91112b64f7a20d8e25d85", "is_reserved": 0, "rental_uris": {"android": "https://dc.lft.to/lastmile_qr_scan", "ios": "https://dc.lft.to/lastmile_qr_scan"}, "fusion_lon": 0.0}, {"lat": 38.933479166666665, "is_disabled": 0, "type": "electric_scooter", "lon": -77.07180983333333, "bike_id": "fb1065d4853a5722ed11558eb796eafd", "fusion_lat": 0.0, "name": "fb1065d4853a5722ed11558eb796eafd", "is_reserved": 0, "rental_uris": {"android": "https://dc.lft.to/lastmile_qr_scan", "ios": "https://dc.lft.to/lastmile_qr_scan"}, "fusion_lon": 0.0}, {"lat": 38.927558, "is_disabled": 0, "type": "electric_scooter", "lon": -77.00596583333333, "bike_id": "872c0896ba864c9ee8db4188289c0fcf", "fusion_lat": 0.0, "name": "872c0896ba864c9ee8db4188289c0fcf", "is_reserved": 0, "rental_uris": {"android": "https://dc.lft.to/lastmile_qr_scan", "ios": "https://dc.lft.to/lastmile_qr_scan"}, "fusion_lon": 0.0}, {"lat": 38.899908333333336, "is_disabled": 0, "type": "electric_bike", "lon": -76.98121033333334, "bike_id": "8c7fb6a6375f12155652376b6d171aaa", "fusion_lat": 0.0, "name": "8c7fb6a6375f12155652376b6d171aaa", "is_reserved": 0, "rental_uris": {"android": "https://dc.lft.to/lastmile_qr_scan", "ios": "https://dc.lft.to/lastmile_qr_scan"}, "fusion_lon": 0.0}, {"lat": 38.88067983333333, "is_disabled": 0, "type": "electric_scooter", "lon": -77.00595483333333, "bike_id": "badd742bc4a8c4478b00185b89ffc661", "fusion_lat": 0.0, "name": "badd742bc4a8c4478b00185b89ffc661", "is_reserved": 0, "rental_uris": {"android": "https://dc.lft.to/lastmile_qr_scan", "ios": "https://dc.lft.to/lastmile_qr_scan"}, "fusion_lon": 0.0}, {"lat": 38.92711666666667, "is_disabled": 0, "type": "electric_scooter", "lon": -77.02410716666667, "bike_id": "475955fa499c81bf4f7a6ccd2834cabd", "fusion_lat": 0.0, "name": "475955fa499c81bf4f7a6ccd2834cabd", "is_reserved": 0, "rental_uris": {"android": "https://dc.lft.to/lastmile_qr_scan", "ios": "https://dc.lft.to/lastmile_qr_scan"}, "fusion_lon": 0.0}, {"lat": 38.920648, "is_disabled": 0, "type": "electric_scooter", "lon": -77.032874, "bike_id": "d6e161f3301d09e87870bea24e12d51f", "fusion_lat": 0.0, "name": "d6e161f3301d09e87870bea24e12d51f", "is_reserved": 0, "rental_uris": {"android": "https://dc.lft.to/lastmile_qr_scan", "ios": "https://dc.lft.to/lastmile_qr_scan"}, "fusion_lon": 0.0}, {"lat": 38.900082, "is_disabled": 0, "type": "electric_scooter", "lon": -76.92234566666667, "bike_id": "1ddcfb58ea3ac2bd2e5268b90d375686", "fusion_lat": 0.0, "name": "1ddcfb58ea3ac2bd2e5268b90d375686", "is_reserved": 0, "rental_uris": {"android": "https://dc.lft.to/lastmile_qr_scan", "ios": "https://dc.lft.to/lastmile_qr_scan"}, "fusion_lon": 0.0}, {"lat": 38.916904, "is_disabled": 0, "type": "electric_scooter", "lon": -77.03631283333333, "bike_id": "d09142b239d2088be67dc5dc17a902e8", "fusion_lat": 0.0, "name": "d09142b239d2088be67dc5dc17a902e8", "is_reserved": 0, "rental_uris": {"android": "https://dc.lft.to/lastmile_qr_scan", "ios": "https://dc.lft.to/lastmile_qr_scan"}, "fusion_lon": 0.0}, {"lat": 38.892022833333336, "is_disabled": 0, "type": "electric_bike", "lon": -76.97054783333333, "bike_id": "5b27c54ee2409b7c94c433c7b644d5ab", "fusion_lat": 0.0, "name": "5b27c54ee2409b7c94c433c7b644d5ab", "is_reserved": 0, "rental_uris": {"android": "https://dc.lft.to/lastmile_qr_scan", "ios": "https://dc.lft.to/lastmile_qr_scan"}, "fusion_lon": 0.0}, {"lat": 38.91679633333333, "is_disabled": 0, "type": "electric_scooter", "lon": -77.029749, "bike_id": "8852a7ab640d443b971320c541f5b612", "fusion_lat": 0.0, "name": "8852a7ab640d443b971320c541f5b612", "is_reserved": 0, "rental_uris": {"android": "https://dc.lft.to/lastmile_qr_scan", "ios": "https://dc.lft.to/lastmile_qr_scan"}, "fusion_lon": 0.0}, {"lat": 38.906106666666666, "is_disabled": 0, "type": "electric_scooter", "lon": -77.058599, "bike_id": "76276c40c63a5ea441e4cfd7fb2ede2a", "fusion_lat": 0.0, "name": "76276c40c63a5ea441e4cfd7fb2ede2a", "is_reserved": 0, "rental_uris": {"android": "https://dc.lft.to/lastmile_qr_scan", "ios": "https://dc.lft.to/lastmile_qr_scan"}, "fusion_lon": 0.0}, {"lat": 38.892906333333336, "is_disabled": 0, "type": "electric_bike", "lon": -77.001444, "bike_id": "75532f001fb50317e1e375e949fa8b4e", "fusion_lat": 0.0, "name": "75532f001fb50317e1e375e949fa8b4e", "is_reserved": 0, "rental_uris": {"android": "https://dc.lft.to/lastmile_qr_scan", "ios": "https://dc.lft.to/lastmile_qr_scan"}, "fusion_lon": 0.0}, {"lat": 38.93049, "is_disabled": 0, "type": "electric_scooter", "lon": -77.03249116666667, "bike_id": "14eeb2d8bc1a888a1345949eb203260d", "fusion_lat": 0.0, "name": "14eeb2d8bc1a888a1345949eb203260d", "is_reserved": 0, "rental_uris": {"android": "https://dc.lft.to/lastmile_qr_scan", "ios": "https://dc.lft.to/lastmile_qr_scan"}, "fusion_lon": 0.0}, {"lat": 38.904480166666666, "is_disabled": 0, "type": "electric_scooter", "lon": -77.02882766666667, "bike_id": "f521417f45c04ca696fbd94261bef4a6", "fusion_lat": 0.0, "name": "f521417f45c04ca696fbd94261bef4a6", "is_reserved": 0, "rental_uris": {"android": "https://dc.lft.to/lastmile_qr_scan", "ios": "https://dc.lft.to/lastmile_qr_scan"}, "fusion_lon": 0.0}, {"lat": 38.924406, "is_disabled": 0, "type": "electric_scooter", "lon": -77.04029533333333, "bike_id": "2fc5732aaeb4964f89075d9b4e2dae0a", "fusion_lat": 0.0, "name": "2fc5732aaeb4964f89075d9b4e2dae0a", "is_reserved": 0, "rental_uris": {"android": "https://dc.lft.to/lastmile_qr_scan", "ios": "https://dc.lft.to/lastmile_qr_scan"}, "fusion_lon": 0.0}, {"lat": 38.895234, "is_disabled": 0, "type": "electric_scooter", "lon": -77.0111335, "bike_id": "4b2ca72092ba508bf80a9625d1ec18b2", "fusion_lat": 0.0, "name": "4b2ca72092ba508bf80a9625d1ec18b2", "is_reserved": 0, "rental_uris": {"android": "https://dc.lft.to/lastmile_qr_scan", "ios": "https://dc.lft.to/lastmile_qr_scan"}, "fusion_lon": 0.0}, {"lat": 38.88655166666667, "is_disabled": 0, "type": "electric_scooter", "lon": -76.99631683333334, "bike_id": "0cb464bd3bce64795b6c03babce15937", "fusion_lat": 0.0, "name": "0cb464bd3bce64795b6c03babce15937", "is_reserved": 0, "rental_uris": {"android": "https://dc.lft.to/lastmile_qr_scan", "ios": "https://dc.lft.to/lastmile_qr_scan"}, "fusion_lon": 0.0}, {"lat": 38.92363916666667, "is_disabled": 0, "type": "electric_scooter", "lon": -77.07675516666667, "bike_id": "53055b881809ed14a19d6ed4bdfe99be", "fusion_lat": 0.0, "name": "53055b881809ed14a19d6ed4bdfe99be", "is_reserved": 0, "rental_uris": {"android": "https://dc.lft.to/lastmile_qr_scan", "ios": "https://dc.lft.to/lastmile_qr_scan"}, "fusion_lon": 0.0}, {"lat": 38.91467133333333, "is_disabled": 0, "type": "electric_scooter", "lon": -77.01894, "bike_id": "bc145c1e12490309abc3817f26ce1808", "fusion_lat": 0.0, "name": "bc145c1e12490309abc3817f26ce1808", "is_reserved": 0, "rental_uris": {"android": "https://dc.lft.to/lastmile_qr_scan", "ios": "https://dc.lft.to/lastmile_qr_scan"}, "fusion_lon": 0.0}, {"lat": 38.88425816666667, "is_disabled": 0, "type": "electric_bike", "lon": -76.98090366666666, "bike_id": "705ff63d47b4adbf9284ce875c153279", "fusion_lat": 0.0, "name": "705ff63d47b4adbf9284ce875c153279", "is_reserved": 0, "rental_uris": {"android": "https://dc.lft.to/lastmile_qr_scan", "ios": "https://dc.lft.to/lastmile_qr_scan"}, "fusion_lon": 0.0}, {"lat": 38.9096075, "is_disabled": 0, "type": "electric_scooter", "lon": -77.03854166666666, "bike_id": "e1bee7aed89b3a9552d2bcf3af1e1484", "fusion_lat": 0.0, "name": "e1bee7aed89b3a9552d2bcf3af1e1484", "is_reserved": 0, "rental_uris": {"android": "https://dc.lft.to/lastmile_qr_scan", "ios": "https://dc.lft.to/lastmile_qr_scan"}, "fusion_lon": 0.0}, {"lat": 38.938947, "is_disabled": 0, "type": "electric_scooter", "lon": -77.03318366666667, "bike_id": "5403ea0059ec44f6fcd697cf9c6e813a", "fusion_lat": 0.0, "name": "5403ea0059ec44f6fcd697cf9c6e813a", "is_reserved": 0, "rental_uris": {"android": "https://dc.lft.to/lastmile_qr_scan", "ios": "https://dc.lft.to/lastmile_qr_scan"}, "fusion_lon": 0.0}, {"lat": 38.887973833333334, "is_disabled": 0, "type": "electric_scooter", "lon": -76.93362016666667, "bike_id": "d52bab59d397c43cad18b74f059aae76", "fusion_lat": 0.0, "name": "d52bab59d397c43cad18b74f059aae76", "is_reserved": 0, "rental_uris": {"android": "https://dc.lft.to/lastmile_qr_scan", "ios": "https://dc.lft.to/lastmile_qr_scan"}, "fusion_lon": 0.0}, {"lat": 38.922485, "is_disabled": 0, "type": "electric_scooter", "lon": -77.01976566666667, "bike_id": "3ad55c5a5f428f7d6a28c86fc7c6320c", "fusion_lat": 0.0, "name": "3ad55c5a5f428f7d6a28c86fc7c6320c", "is_reserved": 0, "rental_uris": {"android": "https://dc.lft.to/lastmile_qr_scan", "ios": "https://dc.lft.to/lastmile_qr_scan"}, "fusion_lon": 0.0}, {"lat": 38.88093, "is_disabled": 0, "type": "electric_scooter", "lon": -76.992469, "bike_id": "21c6ad6e001329481817740b2daebc80", "fusion_lat": 0.0, "name": "21c6ad6e001329481817740b2daebc80", "is_reserved": 0, "rental_uris": {"android": "https://dc.lft.to/lastmile_qr_scan", "ios": "https://dc.lft.to/lastmile_qr_scan"}, "fusion_lon": 0.0}, {"lat": 38.895289, "is_disabled": 0, "type": "electric_scooter", "lon": -77.0334975, "bike_id": "c2c74e718ab71b2d685f1f53c4ba66f5", "fusion_lat": 0.0, "name": "c2c74e718ab71b2d685f1f53c4ba66f5", "is_reserved": 0, "rental_uris": {"android": "https://dc.lft.to/lastmile_qr_scan", "ios": "https://dc.lft.to/lastmile_qr_scan"}, "fusion_lon": 0.0}, {"lat": 38.984276666666666, "is_disabled": 0, "type": "electric_scooter", "lon": -77.02671483333333, "bike_id": "68f4216415447bbc08554ed76863bd33", "fusion_lat": 0.0, "name": "68f4216415447bbc08554ed76863bd33", "is_reserved": 0, "rental_uris": {"android": "https://dc.lft.to/lastmile_qr_scan", "ios": "https://dc.lft.to/lastmile_qr_scan"}, "fusion_lon": 0.0}, {"lat": 38.96606416666667, "is_disabled": 0, "type": "electric_scooter", "lon": -77.0232575, "bike_id": "36306d7ae8444cec764f5db4c53e1e7d", "fusion_lat": 0.0, "name": "36306d7ae8444cec764f5db4c53e1e7d", "is_reserved": 0, "rental_uris": {"android": "https://dc.lft.to/lastmile_qr_scan", "ios": "https://dc.lft.to/lastmile_qr_scan"}, "fusion_lon": 0.0}, {"lat": 38.93187666666667, "is_disabled": 0, "type": "electric_scooter", "lon": -77.0256275, "bike_id": "699009aff2ac63638fa69102fd19b79f", "fusion_lat": 0.0, "name": "699009aff2ac63638fa69102fd19b79f", "is_reserved": 0, "rental_uris": {"android": "https://dc.lft.to/lastmile_qr_scan", "ios": "https://dc.lft.to/lastmile_qr_scan"}, "fusion_lon": 0.0}, {"lat": 38.90053133333333, "is_disabled": 0, "type": "electric_scooter", "lon": -77.00741733333334, "bike_id": "82f7fd37e9b280388ef40a8952f0d764", "fusion_lat": 0.0, "name": "82f7fd37e9b280388ef40a8952f0d764", "is_reserved": 0, "rental_uris": {"android": "https://dc.lft.to/lastmile_qr_scan", "ios": "https://dc.lft.to/lastmile_qr_scan"}, "fusion_lon": 0.0}, {"lat": 38.8836225, "is_disabled": 0, "type": "electric_scooter", "lon": -76.9950795, "bike_id": "e6b15cc86ed384b3c16af979a116cdc2", "fusion_lat": 0.0, "name": "e6b15cc86ed384b3c16af979a116cdc2", "is_reserved": 0, "rental_uris": {"android": "https://dc.lft.to/lastmile_qr_scan", "ios": "https://dc.lft.to/lastmile_qr_scan"}, "fusion_lon": 0.0}, {"lat": 38.896984333333336, "is_disabled": 0, "type": "electric_scooter", "lon": -77.02799383333333, "bike_id": "61d3f9524ba6f5f5ddfcba46edf2ee0f", "fusion_lat": 0.0, "name": "61d3f9524ba6f5f5ddfcba46edf2ee0f", "is_reserved": 0, "rental_uris": {"android": "https://dc.lft.to/lastmile_qr_scan", "ios": "https://dc.lft.to/lastmile_qr_scan"}, "fusion_lon": 0.0}, {"lat": 38.82781133333334, "is_disabled": 0, "type": "electric_bike", "lon": -77.00915516666667, "bike_id": "69b25653d4a857231930e91720f5d5db", "fusion_lat": 0.0, "name": "69b25653d4a857231930e91720f5d5db", "is_reserved": 0, "rental_uris": {"android": "https://dc.lft.to/lastmile_qr_scan", "ios": "https://dc.lft.to/lastmile_qr_scan"}, "fusion_lon": 0.0}, {"lat": 38.905873, "is_disabled": 0, "type": "electric_scooter", "lon": -77.06523, "bike_id": "f3732f4135151f35f7eea6cfa3c412cb", "fusion_lat": 0.0, "name": "f3732f4135151f35f7eea6cfa3c412cb", "is_reserved": 0, "rental_uris": {"android": "https://dc.lft.to/lastmile_qr_scan", "ios": "https://dc.lft.to/lastmile_qr_scan"}, "fusion_lon": 0.0}, {"lat": 38.906568666666665, "is_disabled": 0, "type": "electric_scooter", "lon": -77.02945333333334, "bike_id": "cf3db0d7734ed002d7884fb1ded357e4", "fusion_lat": 0.0, "name": "cf3db0d7734ed002d7884fb1ded357e4", "is_reserved": 0, "rental_uris": {"android": "https://dc.lft.to/lastmile_qr_scan", "ios": "https://dc.lft.to/lastmile_qr_scan"}, "fusion_lon": 0.0}, {"lat": 38.86915366666667, "is_disabled": 0, "type": "electric_scooter", "lon": -76.98301466666666, "bike_id": "bf6645b11ff41f23d87232ebf77cde20", "fusion_lat": 0.0, "name": "bf6645b11ff41f23d87232ebf77cde20", "is_reserved": 0, "rental_uris": {"android": "https://dc.lft.to/lastmile_qr_scan", "ios": "https://dc.lft.to/lastmile_qr_scan"}, "fusion_lon": 0.0}, {"lat": 38.90843383333333, "is_disabled": 0, "type": "electric_scooter", "lon": -77.02712566666666, "bike_id": "d315848292cedd9c6642cf3b7a03180d", "fusion_lat": 0.0, "name": "d315848292cedd9c6642cf3b7a03180d", "is_reserved": 0, "rental_uris": {"android": "https://dc.lft.to/lastmile_qr_scan", "ios": "https://dc.lft.to/lastmile_qr_scan"}, "fusion_lon": 0.0}, {"lat": 38.91339, "is_disabled": 0, "type": "electric_scooter", "lon": -77.031273, "bike_id": "c99f85e0168c3f61d4286da7913bf6d2", "fusion_lat": 0.0, "name": "c99f85e0168c3f61d4286da7913bf6d2", "is_reserved": 0, "rental_uris": {"android": "https://dc.lft.to/lastmile_qr_scan", "ios": "https://dc.lft.to/lastmile_qr_scan"}, "fusion_lon": 0.0}, {"lat": 38.884175666666664, "is_disabled": 0, "type": "electric_scooter", "lon": -77.00027983333334, "bike_id": "7f2382025295a49a5bef8d18c2cd47d5", "fusion_lat": 0.0, "name": "7f2382025295a49a5bef8d18c2cd47d5", "is_reserved": 0, "rental_uris": {"android": "https://dc.lft.to/lastmile_qr_scan", "ios": "https://dc.lft.to/lastmile_qr_scan"}, "fusion_lon": 0.0}, {"lat": 38.98655983333333, "is_disabled": 0, "type": "electric_bike", "lon": -77.05641866666667, "bike_id": "99f53d5ad1d71f3c595cb8f06abe7d3a", "fusion_lat": 0.0, "name": "99f53d5ad1d71f3c595cb8f06abe7d3a", "is_reserved": 0, "rental_uris": {"android": "https://dc.lft.to/lastmile_qr_scan", "ios": "https://dc.lft.to/lastmile_qr_scan"}, "fusion_lon": 0.0}, {"lat": 38.8442705, "is_disabled": 0, "type": "electric_scooter", "lon": -76.99780166666666, "bike_id": "75df4824ec3288422eb62d3b290e6625", "fusion_lat": 0.0, "name": "75df4824ec3288422eb62d3b290e6625", "is_reserved": 0, "rental_uris": {"android": "https://dc.lft.to/lastmile_qr_scan", "ios": "https://dc.lft.to/lastmile_qr_scan"}, "fusion_lon": 0.0}, {"lat": 38.87805983333333, "is_disabled": 0, "type": "electric_bike", "lon": -76.9607465, "bike_id": "14bdbe0760f0976074375c3d92f039b5", "fusion_lat": 0.0, "name": "14bdbe0760f0976074375c3d92f039b5", "is_reserved": 0, "rental_uris": {"android": "https://dc.lft.to/lastmile_qr_scan", "ios": "https://dc.lft.to/lastmile_qr_scan"}, "fusion_lon": 0.0}, {"lat": 38.927951666666665, "is_disabled": 0, "type": "electric_scooter", "lon": -77.04355433333333, "bike_id": "d5daa2b6137ac26025e4cc754ecf615a", "fusion_lat": 0.0, "name": "d5daa2b6137ac26025e4cc754ecf615a", "is_reserved": 0, "rental_uris": {"android": "https://dc.lft.to/lastmile_qr_scan", "ios": "https://dc.lft.to/lastmile_qr_scan"}, "fusion_lon": 0.0}, {"lat": 38.907616, "is_disabled": 0, "type": "electric_scooter", "lon": -77.0433895, "bike_id": "0036caa495df35322093771b4445008d", "fusion_lat": 0.0, "name": "0036caa495df35322093771b4445008d", "is_reserved": 0, "rental_uris": {"android": "https://dc.lft.to/lastmile_qr_scan", "ios": "https://dc.lft.to/lastmile_qr_scan"}, "fusion_lon": 0.0}, {"lat": 38.924737, "is_disabled": 0, "type": "electric_scooter", "lon": -77.03384616666666, "bike_id": "74a7c7554e47970f69f19f3b0afe9863", "fusion_lat": 0.0, "name": "74a7c7554e47970f69f19f3b0afe9863", "is_reserved": 0, "rental_uris": {"android": "https://dc.lft.to/lastmile_qr_scan", "ios": "https://dc.lft.to/lastmile_qr_scan"}, "fusion_lon": 0.0}, {"lat": 38.902618, "is_disabled": 0, "type": "electric_scooter", "lon": -77.03968516666667, "bike_id": "5eccb52caaf310b5abc90fb5a8a2591f", "fusion_lat": 0.0, "name": "5eccb52caaf310b5abc90fb5a8a2591f", "is_reserved": 0, "rental_uris": {"android": "https://dc.lft.to/lastmile_qr_scan", "ios": "https://dc.lft.to/lastmile_qr_scan"}, "fusion_lon": 0.0}, {"lat": 38.91728416666667, "is_disabled": 0, "type": "electric_scooter", "lon": -77.02402233333333, "bike_id": "82f2e8d05966f192e2da149f3da6b1f9", "fusion_lat": 0.0, "name": "82f2e8d05966f192e2da149f3da6b1f9", "is_reserved": 0, "rental_uris": {"android": "https://dc.lft.to/lastmile_qr_scan", "ios": "https://dc.lft.to/lastmile_qr_scan"}, "fusion_lon": 0.0}, {"lat": 38.9067935, "is_disabled": 0, "type": "electric_scooter", "lon": -77.01361233333333, "bike_id": "7deea120ed69d56970e95333e92f74f4", "fusion_lat": 0.0, "name": "7deea120ed69d56970e95333e92f74f4", "is_reserved": 0, "rental_uris": {"android": "https://dc.lft.to/lastmile_qr_scan", "ios": "https://dc.lft.to/lastmile_qr_scan"}, "fusion_lon": 0.0}, {"lat": 38.9052565, "is_disabled": 0, "type": "electric_scooter", "lon": -77.00573166666666, "bike_id": "830b72e928b9d8a9106731b8cf8e498d", "fusion_lat": 0.0, "name": "830b72e928b9d8a9106731b8cf8e498d", "is_reserved": 0, "rental_uris": {"android": "https://dc.lft.to/lastmile_qr_scan", "ios": "https://dc.lft.to/lastmile_qr_scan"}, "fusion_lon": 0.0}, {"lat": 38.896083833333336, "is_disabled": 0, "type": "electric_scooter", "lon": -76.9551705, "bike_id": "54037017fb318af06fb74bc44226a282", "fusion_lat": 0.0, "name": "54037017fb318af06fb74bc44226a282", "is_reserved": 0, "rental_uris": {"android": "https://dc.lft.to/lastmile_qr_scan", "ios": "https://dc.lft.to/lastmile_qr_scan"}, "fusion_lon": 0.0}, {"lat": 38.905544, "is_disabled": 0, "type": "electric_scooter", "lon": -77.00287333333333, "bike_id": "00ffa0f068dab3f3903506677cbecc4e", "fusion_lat": 0.0, "name": "00ffa0f068dab3f3903506677cbecc4e", "is_reserved": 0, "rental_uris": {"android": "https://dc.lft.to/lastmile_qr_scan", "ios": "https://dc.lft.to/lastmile_qr_scan"}, "fusion_lon": 0.0}, {"lat": 38.9081385, "is_disabled": 0, "type": "electric_scooter", "lon": -76.98291383333333, "bike_id": "b6c7a2822dbc843c3903d0b223963d09", "fusion_lat": 0.0, "name": "b6c7a2822dbc843c3903d0b223963d09", "is_reserved": 0, "rental_uris": {"android": "https://dc.lft.to/lastmile_qr_scan", "ios": "https://dc.lft.to/lastmile_qr_scan"}, "fusion_lon": 0.0}, {"lat": 38.884827666666666, "is_disabled": 0, "type": "electric_scooter", "lon": -76.94532533333333, "bike_id": "188e55513fcef2286b32190dbed5689e", "fusion_lat": 0.0, "name": "188e55513fcef2286b32190dbed5689e", "is_reserved": 0, "rental_uris": {"android": "https://dc.lft.to/lastmile_qr_scan", "ios": "https://dc.lft.to/lastmile_qr_scan"}, "fusion_lon": 0.0}, {"lat": 38.89221, "is_disabled": 0, "type": "electric_scooter", "lon": -77.04866166666666, "bike_id": "2d678d9d441a23d4ded7aa3c86ff45f9", "fusion_lat": 0.0, "name": "2d678d9d441a23d4ded7aa3c86ff45f9", "is_reserved": 0, "rental_uris": {"android": "https://dc.lft.to/lastmile_qr_scan", "ios": "https://dc.lft.to/lastmile_qr_scan"}, "fusion_lon": 0.0}, {"lat": 38.903385666666665, "is_disabled": 0, "type": "electric_scooter", "lon": -76.97056616666667, "bike_id": "2bff7e213d0250f464175fce840dc584", "fusion_lat": 0.0, "name": "2bff7e213d0250f464175fce840dc584", "is_reserved": 0, "rental_uris": {"android": "https://dc.lft.to/lastmile_qr_scan", "ios": "https://dc.lft.to/lastmile_qr_scan"}, "fusion_lon": 0.0}, {"lat": 38.8793625, "is_disabled": 0, "type": "electric_scooter", "lon": -77.00766283333333, "bike_id": "4c1bdea6a9f1f429592d81b853a3d206", "fusion_lat": 0.0, "name": "4c1bdea6a9f1f429592d81b853a3d206", "is_reserved": 0, "rental_uris": {"android": "https://dc.lft.to/lastmile_qr_scan", "ios": "https://dc.lft.to/lastmile_qr_scan"}, "fusion_lon": 0.0}, {"lat": 38.89867116666667, "is_disabled": 0, "type": "electric_scooter", "lon": -77.029642, "bike_id": "9748b82a75d5fe478bd0a7c548be5316", "fusion_lat": 0.0, "name": "9748b82a75d5fe478bd0a7c548be5316", "is_reserved": 0, "rental_uris": {"android": "https://dc.lft.to/lastmile_qr_scan", "ios": "https://dc.lft.to/lastmile_qr_scan"}, "fusion_lon": 0.0}, {"lat": 38.940819833333336, "is_disabled": 0, "type": "electric_bike", "lon": -77.0212275, "bike_id": "4017d2e0a5062ed414b66482372b5af5", "fusion_lat": 0.0, "name": "4017d2e0a5062ed414b66482372b5af5", "is_reserved": 0, "rental_uris": {"android": "https://dc.lft.to/lastmile_qr_scan", "ios": "https://dc.lft.to/lastmile_qr_scan"}, "fusion_lon": 0.0}, {"lat": 38.92440583333333, "is_disabled": 0, "type": "electric_scooter", "lon": -77.04028083333333, "bike_id": "ebfb809e12af04260938967ccb5ef67a", "fusion_lat": 0.0, "name": "ebfb809e12af04260938967ccb5ef67a", "is_reserved": 0, "rental_uris": {"android": "https://dc.lft.to/lastmile_qr_scan", "ios": "https://dc.lft.to/lastmile_qr_scan"}, "fusion_lon": 0.0}, {"lat": 38.9168305, "is_disabled": 0, "type": "electric_scooter", "lon": -77.02954783333334, "bike_id": "604b2b17da0dd34100ff2ef0d4af3d00", "fusion_lat": 0.0, "name": "604b2b17da0dd34100ff2ef0d4af3d00", "is_reserved": 0, "rental_uris": {"android": "https://dc.lft.to/lastmile_qr_scan", "ios": "https://dc.lft.to/lastmile_qr_scan"}, "fusion_lon": 0.0}, {"lat": 38.882734166666665, "is_disabled": 0, "type": "electric_bike", "lon": -76.932325, "bike_id": "6e10ee4e118f4dd8de04a5de610dcefd", "fusion_lat": 0.0, "name": "6e10ee4e118f4dd8de04a5de610dcefd", "is_reserved": 0, "rental_uris": {"android": "https://dc.lft.to/lastmile_qr_scan", "ios": "https://dc.lft.to/lastmile_qr_scan"}, "fusion_lon": 0.0}, {"lat": 38.866170833333335, "is_disabled": 0, "type": "electric_scooter", "lon": -76.9866505, "bike_id": "948e6ce7ffea04f67e5b296fdb84e7e0", "fusion_lat": 0.0, "name": "948e6ce7ffea04f67e5b296fdb84e7e0", "is_reserved": 0, "rental_uris": {"android": "https://dc.lft.to/lastmile_qr_scan", "ios": "https://dc.lft.to/lastmile_qr_scan"}, "fusion_lon": 0.0}, {"lat": 38.862252, "is_disabled": 0, "type": "electric_scooter", "lon": -76.983595, "bike_id": "759d844768171c017bb48f959a414a12", "fusion_lat": 0.0, "name": "759d844768171c017bb48f959a414a12", "is_reserved": 0, "rental_uris": {"android": "https://dc.lft.to/lastmile_qr_scan", "ios": "https://dc.lft.to/lastmile_qr_scan"}, "fusion_lon": 0.0}, {"lat": 38.9156355, "is_disabled": 0, "type": "electric_scooter", "lon": -77.00977933333333, "bike_id": "75c4d0e2219f4ff4471a7cfae1ff5c13", "fusion_lat": 0.0, "name": "75c4d0e2219f4ff4471a7cfae1ff5c13", "is_reserved": 0, "rental_uris": {"android": "https://dc.lft.to/lastmile_qr_scan", "ios": "https://dc.lft.to/lastmile_qr_scan"}, "fusion_lon": 0.0}, {"lat": 38.9223885, "is_disabled": 0, "type": "electric_scooter", "lon": -77.02911733333333, "bike_id": "0313f0cdf7bd3701e8e7caa0ca377dc1", "fusion_lat": 0.0, "name": "0313f0cdf7bd3701e8e7caa0ca377dc1", "is_reserved": 0, "rental_uris": {"android": "https://dc.lft.to/lastmile_qr_scan", "ios": "https://dc.lft.to/lastmile_qr_scan"}, "fusion_lon": 0.0}, {"lat": 38.90881383333333, "is_disabled": 0, "type": "electric_scooter", "lon": -77.03666816666667, "bike_id": "b8efda5425bfb1784ad901e53cfc24ad", "fusion_lat": 0.0, "name": "b8efda5425bfb1784ad901e53cfc24ad", "is_reserved": 0, "rental_uris": {"android": "https://dc.lft.to/lastmile_qr_scan", "ios": "https://dc.lft.to/lastmile_qr_scan"}, "fusion_lon": 0.0}, {"lat": 38.935695, "is_disabled": 0, "type": "electric_scooter", "lon": -77.03733133333333, "bike_id": "1e239e76386a46acdff857625de72deb", "fusion_lat": 0.0, "name": "1e239e76386a46acdff857625de72deb", "is_reserved": 0, "rental_uris": {"android": "https://dc.lft.to/lastmile_qr_scan", "ios": "https://dc.lft.to/lastmile_qr_scan"}, "fusion_lon": 0.0}, {"lat": 38.90560416666667, "is_disabled": 0, "type": "electric_scooter", "lon": -77.05696183333333, "bike_id": "8a7ae86fd6d8205055f35e9c5691444a", "fusion_lat": 0.0, "name": "8a7ae86fd6d8205055f35e9c5691444a", "is_reserved": 0, "rental_uris": {"android": "https://dc.lft.to/lastmile_qr_scan", "ios": "https://dc.lft.to/lastmile_qr_scan"}, "fusion_lon": 0.0}, {"lat": 38.961642499999996, "is_disabled": 0, "type": "electric_scooter", "lon": -77.02789566666667, "bike_id": "ace773e2329876c4e42d4139299b2d57", "fusion_lat": 0.0, "name": "ace773e2329876c4e42d4139299b2d57", "is_reserved": 0, "rental_uris": {"android": "https://dc.lft.to/lastmile_qr_scan", "ios": "https://dc.lft.to/lastmile_qr_scan"}, "fusion_lon": 0.0}, {"lat": 38.950773166666664, "is_disabled": 0, "type": "electric_bike", "lon": -77.01200483333334, "bike_id": "10c4fc8ddcb704664217a85a9993c744", "fusion_lat": 0.0, "name": "10c4fc8ddcb704664217a85a9993c744", "is_reserved": 0, "rental_uris": {"android": "https://dc.lft.to/lastmile_qr_scan", "ios": "https://dc.lft.to/lastmile_qr_scan"}, "fusion_lon": 0.0}, {"lat": 38.919895333333336, "is_disabled": 0, "type": "electric_scooter", "lon": -77.02396716666667, "bike_id": "8b4c3ff0dcb14ad72df785ad2b797c93", "fusion_lat": 0.0, "name": "8b4c3ff0dcb14ad72df785ad2b797c93", "is_reserved": 0, "rental_uris": {"android": "https://dc.lft.to/lastmile_qr_scan", "ios": "https://dc.lft.to/lastmile_qr_scan"}, "fusion_lon": 0.0}, {"lat": 38.91722983333333, "is_disabled": 0, "type": "electric_scooter", "lon": -77.036513, "bike_id": "5c0be21ffc38acfe68551c6a993c8e81", "fusion_lat": 0.0, "name": "5c0be21ffc38acfe68551c6a993c8e81", "is_reserved": 0, "rental_uris": {"android": "https://dc.lft.to/lastmile_qr_scan", "ios": "https://dc.lft.to/lastmile_qr_scan"}, "fusion_lon": 0.0}, {"lat": 38.90392166666667, "is_disabled": 0, "type": "electric_bike", "lon": -77.01615083333333, "bike_id": "7b56e185d0d8d064f09e5136f3869d64", "fusion_lat": 0.0, "name": "7b56e185d0d8d064f09e5136f3869d64", "is_reserved": 0, "rental_uris": {"android": "https://dc.lft.to/lastmile_qr_scan", "ios": "https://dc.lft.to/lastmile_qr_scan"}, "fusion_lon": 0.0}, {"lat": 38.9078125, "is_disabled": 0, "type": "electric_scooter", "lon": -77.06402683333333, "bike_id": "311cbfaff6192311ef23e7c66e1a942e", "fusion_lat": 0.0, "name": "311cbfaff6192311ef23e7c66e1a942e", "is_reserved": 0, "rental_uris": {"android": "https://dc.lft.to/lastmile_qr_scan", "ios": "https://dc.lft.to/lastmile_qr_scan"}, "fusion_lon": 0.0}, {"lat": 38.93344033333333, "is_disabled": 0, "type": "electric_scooter", "lon": -77.02400316666666, "bike_id": "0ac1190db48182fafba54bdc545ed615", "fusion_lat": 0.0, "name": "0ac1190db48182fafba54bdc545ed615", "is_reserved": 0, "rental_uris": {"android": "https://dc.lft.to/lastmile_qr_scan", "ios": "https://dc.lft.to/lastmile_qr_scan"}, "fusion_lon": 0.0}, {"lat": 38.80268016666667, "is_disabled": 0, "type": "electric_bike", "lon": -77.081134, "bike_id": "53e6038ef0716890e501b3e27624337d", "fusion_lat": 0.0, "name": "53e6038ef0716890e501b3e27624337d", "is_reserved": 0, "rental_uris": {"android": "https://dc.lft.to/lastmile_qr_scan", "ios": "https://dc.lft.to/lastmile_qr_scan"}, "fusion_lon": 0.0}, {"lat": 38.9096725, "is_disabled": 0, "type": "electric_scooter", "lon": -77.04053666666667, "bike_id": "27d76ee7019608b94197dd02d1fc5876", "fusion_lat": 0.0, "name": "27d76ee7019608b94197dd02d1fc5876", "is_reserved": 0, "rental_uris": {"android": "https://dc.lft.to/lastmile_qr_scan", "ios": "https://dc.lft.to/lastmile_qr_scan"}, "fusion_lon": 0.0}, {"lat": 38.91413516666667, "is_disabled": 0, "type": "electric_scooter", "lon": -77.02230783333333, "bike_id": "b56c40702bd712091605e817acd11647", "fusion_lat": 0.0, "name": "b56c40702bd712091605e817acd11647", "is_reserved": 0, "rental_uris": {"android": "https://dc.lft.to/lastmile_qr_scan", "ios": "https://dc.lft.to/lastmile_qr_scan"}, "fusion_lon": 0.0}, {"lat": 38.898302666666666, "is_disabled": 0, "type": "electric_scooter", "lon": -77.03362983333334, "bike_id": "db32ba3301817462038415ac95cfd837", "fusion_lat": 0.0, "name": "db32ba3301817462038415ac95cfd837", "is_reserved": 0, "rental_uris": {"android": "https://dc.lft.to/lastmile_qr_scan", "ios": "https://dc.lft.to/lastmile_qr_scan"}, "fusion_lon": 0.0},