{"data": {"bikes": [{"is_reserved": 0, "type": "electric_scooter", "fusion_lat": 0.0, "is_disabled": 0, "rental_uris": {"ios": "https://dc.lft.to/lastmile_qr_scan", "android": "https://dc.lft.to/lastmile_qr_scan"}, "bike_id": "956b556cf0d2244f77df7e456063bce5", "lat": 38.88710483333333, "name": "956b556cf0d2244f77df7e456063bce5", "lon": -76.98382333333333, "fusion_lon": 0.0}, {"is_reserved": 0, "type": "electric_scooter", "fusion_lat": 0.0, "is_disabled": 0, "rental_uris": {"ios": "https://dc.lft.to/lastmile_qr_scan", "android": "https://dc.lft.to/lastmile_qr_scan"}, "bike_id": "0445e425b887023ebf9fb89e1fab8753", "lat": 38.876924333333335, "name": "0445e425b887023ebf9fb89e1fab8753", "lon": -76.996305, "fusion_lon": 0.0}, {"is_reserved": 0, "type": "electric_scooter", "fusion_lat": 0.0, "is_disabled": 0, "rental_uris": {"ios": "https://dc.lft.to/lastmile_qr_scan", "android": "https://dc.lft.to/lastmile_qr_scan"}, "bike_id": "5169a8ce418e8535db3eb239a0326fa8", "lat": 38.91673, "name": "5169a8ce418e8535db3eb239a0326fa8", "lon": -77.01579483333333, "fusion_lon": 0.0}, {"is_reserved": 0, "type": "electric_scooter", "fusion_lat": 0.0, "is_disabled": 0, "rental_uris": {"ios": "https://dc.lft.to/lastmile_qr_scan", "android": "https://dc.lft.to/lastmile_qr_scan"}, "bike_id": "d686ff88cc10649da10a097048cffe21", "lat": 38.89061933333333, "name": "d686ff88cc10649da10a097048cffe21", "lon": -76.99198166666666, "fusion_lon": 0.0}, {"is_reserved": 0, "type": "electric_scooter", "fusion_lat": 0.0, "is_disabled": 0, "rental_uris": {"ios": "https://dc.lft.to/lastmile_qr_scan", "android": "https://dc.lft.to/lastmile_qr_scan"}, "bike_id": "fd713c49dfd62e347e1f3c4a6890da4e", "lat": 38.90184433333334, "name": "fd713c49dfd62e347e1f3c4a6890da4e", "lon": -76.976717, "fusion_lon": 0.0}, {"is_reserved": 0, "type": "electric_scooter", "fusion_lat": 0.0, "is_disabled": 0, "rental_uris": {"ios": "https://dc.lft.to/lastmile_qr_scan", "android": "https://dc.lft.to/lastmile_qr_scan"}, "bike_id": "5d0175259ab2aa359d637479130ecbce", "lat": 38.924208166666666, "name": "5d0175259ab2aa359d637479130ecbce", "lon": -77.05750066666667, "fusion_lon": 0.0}, {"is_reserved": 0, "type": "electric_scooter", "fusion_lat": 0.0, "is_disabled": 0, "rental_uris": {"ios": "https://dc.lft.to/lastmile_qr_scan", "android": "https://dc.lft.to/lastmile_qr_scan"}, "bike_id": "d86a36326d07e6fe79038675ad38d044", "lat": 38.92603666666667, "name": "d86a36326d07e6fe79038675ad38d044", "lon": -77.024192, "fusion_lon": 0.0}, {"is_reserved": 0, "type": "electric_scooter", "fusion_lat": 0.0, "is_disabled": 0, "rental_uris": {"ios": "https://dc.lft.to/lastmile_qr_scan", "android": "https://dc.lft.to/lastmile_qr_scan"}, "bike_id": "faa164514a82305380023d13be4ff4cb", "lat": 38.927860333333335, "name": "faa164514a82305380023d13be4ff4cb", "lon": -76.9762975, "fusion_lon": 0.0}, {"is_reserved": 0, "type": "electric_scooter", "fusion_lat": 0.0, "is_disabled": 0, "rental_uris": {"ios": "https://dc.lft.to/lastmile_qr_scan", "android": "https://dc.lft.to/lastmile_qr_scan"}, "bike_id": "9a53d8008d6cbfeec99a7ff15df80db0", "lat": 38.92547116666667, "name": "9a53d8008d6cbfeec99a7ff15df80db0", "lon": -77.0332555, "fusion_lon": 0.0}, {"is_reserved": 0, "type": "electric_scooter", "fusion_lat": 0.0, "is_disabled": 0, "rental_uris": {"ios": "https://dc.lft.to/lastmile_qr_scan", "android": "https://dc.lft.to/lastmile_qr_scan"}, "bike_id": "82f262c3c10f221d60ec8b0edf0726fb", "lat": 38.90606116666667, "name": "82f262c3c10f221d60ec8b0edf0726fb", "lon": -77.0564965, "fusion_lon": 0.0}, {"is_reserved": 0, "type": "electric_scooter", "fusion_lat": 0.0, "is_disabled": 0, "rental_uris": {"ios": "https://dc.lft.to/lastmile_qr_scan", "android": "https://dc.lft.to/lastmile_qr_scan"}, "bike_id": "a9ed15683fd2cdfeb93a6fbf6905fd67", "lat": 38.92335683333334, "name": "a9ed15683fd2cdfeb93a6fbf6905fd67", "lon": -77.036092, "fusion_lon": 0.0}, {"is_reserved": 0, "type": "electric_scooter", "fusion_lat": 0.0, "is_disabled": 0, "rental_uris": {"ios": "https://dc.lft.to/lastmile_qr_scan", "android": "https://dc.lft.to/lastmile_qr_scan"}, "bike_id": "0f222b912927fd290fea3d25deaef2fc", "lat": 38.917114, "name": "0f222b912927fd290fea3d25deaef2fc", "lon": -77.00888366666666, "fusion_lon": 0.0}, {"is_reserved": 0, "type": "electric_scooter", "fusion_lat": 0.0, "is_disabled": 0, "rental_uris": {"ios": "https://dc.lft.to/lastmile_qr_scan", "android": "https://dc.lft.to/lastmile_qr_scan"}, "bike_id": "a8748aa6945d627a3db6cf95082cf14b", "lat": 38.9526615, "name": "a8748aa6945d627a3db6cf95082cf14b", "lon": -76.9989075, "fusion_lon": 0.0}, {"is_reserved": 0, "type": "electric_scooter", "fusion_lat": 0.0, "is_disabled": 0, "rental_uris": {"ios": "https://dc.lft.to/lastmile_qr_scan", "android": "https://dc.lft.to/lastmile_qr_scan"}, "bike_id": "1692ad30b8e534807e85940b1c0c96c6", "lat": 38.920058833333336, "name": "1692ad30b8e534807e85940b1c0c96c6", "lon": -77.031788, "fusion_lon": 0.0}, {"is_reserved": 0, "type": "electric_scooter", "fusion_lat": 0.0, "is_disabled": 0, "rental_uris": {"ios": "https://dc.lft.to/lastmile_qr_scan", "android": "https://dc.lft.to/lastmile_qr_scan"}, "bike_id": "b6d1cd743476b03c345348847ccc95d2", "lat": 38.9087775, "name": "b6d1cd743476b03c345348847ccc95d2", "lon": -77.04410633333333, "fusion_lon": 0.0}, {"is_reserved": 0, "type": "electric_scooter", "fusion_lat": 0.0, "is_disabled": 0, "rental_uris": {"ios": "https://dc.lft.to/lastmile_qr_scan", "android": "https://dc.lft.to/lastmile_qr_scan"}, "bike_id": "b2cbe110de58ea0d70f1e2e3107be688", "lat": 38.921238333333335, "name": "b2cbe110de58ea0d70f1e2e3107be688", "lon": -77.0182185, "fusion_lon": 0.0}, {"is_reserved": 0, "type": "electric_scooter", "fusion_lat": 0.0, "is_disabled": 0, "rental_uris": {"ios": "https://dc.lft.to/lastmile_qr_scan", "android": "https://dc.lft.to/lastmile_qr_scan"}, "bike_id": "bfc28edd201355b09334c0d7ed9151f3", "lat": 38.9022485, "name": "bfc28edd201355b09334c0d7ed9151f3", "lon": -77.01395466666666, "fusion_lon": 0.0}, {"is_reserved": 0, "type": "electric_scooter", "fusion_lat": 0.0, "is_disabled": 0, "rental_uris": {"ios": "https://dc.lft.to/lastmile_qr_scan", "android": "https://dc.lft.to/lastmile_qr_scan"}, "bike_id": "e116b73a51afeb1ddcb3576469aa51ee", "lat": 38.917445, "name": "e116b73a51afeb1ddcb3576469aa51ee", "lon": -77.02280116666667, "fusion_lon": 0.0}, {"is_reserved": 0, "type": "electric_scooter", "fusion_lat": 0.0, "is_disabled": 0, "rental_uris": {"ios": "https://dc.lft.to/lastmile_qr_scan", "android": "https://dc.lft.to/lastmile_qr_scan"}, "bike_id": "d53aca03e39aaffedef468e79410152b", "lat": 38.8769715, "name": "d53aca03e39aaffedef468e79410152b", "lon": -76.99626266666667, "fusion_lon": 0.0}, {"is_reserved": 0, "type": "electric_scooter", "fusion_lat": 0.0, "is_disabled": 0, "rental_uris": {"ios": "https://dc.lft.to/lastmile_qr_scan", "android": "https://dc.lft.to/lastmile_qr_scan"}, "bike_id": "30a5c8ee74610d5d407171a3944d06a5", "lat": 38.90534316666667, "name": "30a5c8ee74610d5d407171a3944d06a5", "lon": -77.0570445, "fusion_lon": 0.0}, {"is_reserved": 0, "type": "electric_scooter", "fusion_lat": 0.0, "is_disabled": 0, "rental_uris": {"ios": "https://dc.lft.to/lastmile_qr_scan", "android": "https://dc.lft.to/lastmile_qr_scan"}, "bike_id": "8a9535fc593b0c13010d60a0d22c1958", "lat": 38.9182035, "name": "8a9535fc593b0c13010d60a0d22c1958", "lon": -77.0231415, "fusion_lon": 0.0}, {"is_reserved": 0, "type": "electric_scooter", "fusion_lat": 0.0, "is_disabled": 0, "rental_uris": {"ios": "https://dc.lft.to/lastmile_qr_scan", "android": "https://dc.lft.to/lastmile_qr_scan"}, "bike_id": "0196885fb72d9faee8ec89f4cdfd472e", "lat": 38.93870783333333, "name": "0196885fb72d9faee8ec89f4cdfd472e", "lon": -77.02959166666666, "fusion_lon": 0.0}, {"is_reserved": 0, "type": "electric_scooter", "fusion_lat": 0.0, "is_disabled": 0, "rental_uris": {"ios": "https://dc.lft.to/lastmile_qr_scan", "android": "https://dc.lft.to/lastmile_qr_scan"}, "bike_id": "ff839a9b5175087be98ec252e56c4f76", "lat": 38.927848, "name": "ff839a9b5175087be98ec252e56c4f76", "lon": -77.03638466666666, "fusion_lon": 0.0}, {"is_reserved": 0, "type": "electric_scooter", "fusion_lat": 0.0, "is_disabled": 0, "rental_uris": {"ios": "https://dc.lft.to/lastmile_qr_scan", "android": "https://dc.lft.to/lastmile_qr_scan"}, "bike_id": "87b4e2a7913894f5cdae2299b617b2dd", "lat": 38.940349, "name": "87b4e2a7913894f5cdae2299b617b2dd", "lon": -77.08393183333334, "fusion_lon": 0.0}, {"is_reserved": 0, "type": "electric_scooter", "fusion_lat": 0.0, "is_disabled": 0, "rental_uris": {"ios": "https://dc.lft.to/lastmile_qr_scan", "android": "https://dc.lft.to/lastmile_qr_scan"}, "bike_id": "5521edb2ee30ed4c347f00d6f33a16ba", "lat": 38.9038635, "name": "5521edb2ee30ed4c347f00d6f33a16ba", "lon": -77.03553166666667, "fusion_lon": 0.0}, {"is_reserved": 0, "type": "electric_bike", "fusion_lat": 0.0, "is_disabled": 0, "rental_uris": {"ios": "https://dc.lft.to/lastmile_qr_scan", "android": "https://dc.lft.to/lastmile_qr_scan"}, "bike_id": "c3909aa9987f55ea513610a3f572b1bf", "lat": 38.8446865, "name": "c3909aa9987f55ea513610a3f572b1bf", "lon": -76.99598733333333, "fusion_lon": 0.0}, {"is_reserved": 0, "type": "electric_scooter", "fusion_lat": 0.0, "is_disabled": 0, "rental_uris": {"ios": "https://dc.lft.to/lastmile_qr_scan", "android": "https://dc.lft.to/lastmile_qr_scan"}, "bike_id": "7703b1e635c85f2a42db11f0458d0a0c", "lat": 38.930999, "name": "7703b1e635c85f2a42db11f0458d0a0c", "lon": -77.02476816666666, "fusion_lon": 0.0}, {"is_reserved": 0, "type": "electric_bike", "fusion_lat": 0.0, "is_disabled": 0, "rental_uris": {"ios": "https://dc.lft.to/lastmile_qr_scan", "android": "https://dc.lft.to/lastmile_qr_scan"}, "bike_id": "24076dd7ec361b9283bd22ef487db2e4", "lat": 38.871641333333336, "name": "24076dd7ec361b9283bd22ef487db2e4", "lon": -77.08818616666667, "fusion_lon": 0.0}, {"is_reserved": 0, "type": "electric_bike", "fusion_lat": 0.0, "is_disabled": 0, "rental_uris": {"ios": "https://dc.lft.to/lastmile_qr_scan", "android": "https://dc.lft.to/lastmile_qr_scan"}, "bike_id": "b9b5fea1c7eeeae40f04e2217c74adbd", "lat": 38.911304666666666, "name": "b9b5fea1c7eeeae40f04e2217c74adbd", "lon": -77.06577216666666, "fusion_lon": 0.0}, {"is_reserved": 0, "type": "electric_scooter", "fusion_lat": 0.0, "is_disabled": 0, "rental_uris": {"ios": "https://dc.lft.to/lastmile_qr_scan", "android": "https://dc.lft.to/lastmile_qr_scan"}, "bike_id": "aa2e1a2da8a0810bba55ebd0c869f9eb", "lat": 38.881761, "name": "aa2e1a2da8a0810bba55ebd0c869f9eb", "lon": -76.9254405, "fusion_lon": 0.0}, {"is_reserved": 0, "type": "electric_scooter", "fusion_lat": 0.0, "is_disabled": 0, "rental_uris": {"ios": "https://dc.lft.to/lastmile_qr_scan", "android": "https://dc.lft.to/lastmile_qr_scan"}, "bike_id": "c891f05a1c873bb43959dc2c3fb84945", "lat": 38.92116166666667, "name": "c891f05a1c873bb43959dc2c3fb84945", "lon": -77.04574516666666, "fusion_lon": 0.0}, {"is_reserved": 0, "type": "electric_scooter", "fusion_lat": 0.0, "is_disabled": 0, "rental_uris": {"ios": "https://dc.lft.to/lastmile_qr_scan", "android": "https://dc.lft.to/lastmile_qr_scan"}, "bike_id": "5f15e7a50d574aa4759c2f2d6d385dfd", "lat": 38.91590266666667, "name": "5f15e7a50d574aa4759c2f2d6d385dfd", "lon": -76.9841035, "fusion_lon": 0.0}, {"is_reserved": 0, "type": "electric_scooter", "fusion_lat": 0.0, "is_disabled": 0, "rental_uris": {"ios": "https://dc.lft.to/lastmile_qr_scan", "android": "https://dc.lft.to/lastmile_qr_scan"}, "bike_id": "f45e620cba078ede61bf914dfa19bb09", "lat": 38.9125835, "name": "f45e620cba078ede61bf914dfa19bb09", "lon": -76.98353433333334, "fusion_lon": 0.0}, {"is_reserved": 0, "type": "electric_scooter", "fusion_lat": 0.0, "is_disabled": 0, "rental_uris": {"ios": "https://dc.lft.to/lastmile_qr_scan", "android": "https://dc.lft.to/lastmile_qr_scan"}, "bike_id": "ff87aaa68a11c89bae4211a5dda0830a", "lat": 38.9149895, "name": "ff87aaa68a11c89bae4211a5dda0830a", "lon": -77.01841366666666, "fusion_lon": 0.0}, {"is_reserved": 0, "type": "electric_bike", "fusion_lat": 0.0, "is_disabled": 0, "rental_uris": {"ios": "https://dc.lft.to/lastmile_qr_scan", "android": "https://dc.lft.to/lastmile_qr_scan"}, "bike_id": "a0f814c086f2b2fc85cb1a9c25c887e3", "lat": 38.846759666666664, "name": "a0f814c086f2b2fc85cb1a9c25c887e3", "lon": -77.13935866666667, "fusion_lon": 0.0}, {"is_reserved": 0, "type": "electric_scooter", "fusion_lat": 0.0, "is_disabled": 0, "rental_uris": {"ios": "https://dc.lft.to/lastmile_qr_scan", "android": "https://dc.lft.to/lastmile_qr_scan"}, "bike_id": "143ef9eaadbf326bef5d1fd2f02aee70", "lat": 38.92868983333334, "name": "143ef9eaadbf326bef5d1fd2f02aee70", "lon": -77.03426366666666, "fusion_lon": 0.0}, {"is_reserved": 0, "type": "electric_scooter", "fusion_lat": 0.0, "is_disabled": 0, "rental_uris": {"ios": "https://dc.lft.to/lastmile_qr_scan", "android": "https://dc.lft.to/lastmile_qr_scan"}, "bike_id": "aeb995ac6d3dd9485f13c8a0ce530ae4", "lat": 38.88627116666667, "name": "aeb995ac6d3dd9485f13c8a0ce530ae4", "lon": -76.98178233333333, "fusion_lon": 0.0}, {"is_reserved": 0, "type": "electric_scooter", "fusion_lat": 0.0, "is_disabled": 0, "rental_uris": {"ios": "https://dc.lft.to/lastmile_qr_scan", "android": "https://dc.lft.to/lastmile_qr_scan"}, "bike_id": "8064d856c94b1545b50e4d7a619568ce", "lat": 38.932796833333335, "name": "8064d856c94b1545b50e4d7a619568ce", "lon": -77.03287016666667, "fusion_lon": 0.0}, {"is_reserved": 0, "type": "electric_scooter", "fusion_lat": 0.0, "is_disabled": 0, "rental_uris": {"ios": "https://dc.lft.to/lastmile_qr_scan", "android": "https://dc.lft.to/lastmile_qr_scan"}, "bike_id": "e4e9e7aa21972b56a292ea5d47f4a3e6", "lat": 38.92085566666667, "name": "e4e9e7aa21972b56a292ea5d47f4a3e6", "lon": -77.04114783333333, "fusion_lon": 0.0}, {"is_reserved": 0, "type": "electric_scooter", "fusion_lat": 0.0, "is_disabled": 0, "rental_uris": {"ios": "https://dc.lft.to/lastmile_qr_scan", "android": "https://dc.lft.to/lastmile_qr_scan"}, "bike_id": "1579a7a59c0814f5e17cedcdc973aa51", "lat": 38.91017983333333, "name": "1579a7a59c0814f5e17cedcdc973aa51", "lon": -77.0199815, "fusion_lon": 0.0}, {"is_reserved": 0, "type": "electric_scooter", "fusion_lat": 0.0, "is_disabled": 0, "rental_uris": {"ios": "https://dc.lft.to/lastmile_qr_scan", "android": "https://dc.lft.to/lastmile_qr_scan"}, "bike_id": "a93ba712c8c32e67afa6f61ffc3d2127", "lat": 38.89734133333333, "name": "a93ba712c8c32e67afa6f61ffc3d2127", "lon": -77.04583316666667, "fusion_lon": 0.0}, {"is_reserved": 0, "type": "electric_scooter", "fusion_lat": 0.0, "is_disabled": 0, "rental_uris": {"ios": "https://dc.lft.to/lastmile_qr_scan", "android": "https://dc.lft.to/lastmile_qr_scan"}, "bike_id": "2fde39960d3d1aaa86ce3df63a07326c", "lat": 38.85545916666667, "name": "2fde39960d3d1aaa86ce3df63a07326c", "lon": -76.98658466666667, "fusion_lon": 0.0}, {"is_reserved": 0, "type": "electric_bike", "fusion_lat": 0.0, "is_disabled": 0, "rental_uris": {"ios": "https://dc.lft.to/lastmile_qr_scan", "android": "https://dc.lft.to/lastmile_qr_scan"}, "bike_id": "30b5248e2c41d3d8a10ef56295f955e4", "lat": 38.9743995, "name": "30b5248e2c41d3d8a10ef56295f955e4", "lon": -77.09613766666666, "fusion_lon": 0.0}, {"is_reserved": 0, "type": "electric_scooter", "fusion_lat": 0.0, "is_disabled": 0, "rental_uris": {"ios": "https://dc.lft.to/lastmile_qr_scan", "android": "https://dc.lft.to/lastmile_qr_scan"}, "bike_id": "3a249b9130f836732cc69ac70ed75276", "lat": 38.914160333333335, "name": "3a249b9130f836732cc69ac70ed75276", "lon": -77.031514, "fusion_lon": 0.0}, {"is_reserved": 0, "type": "electric_scooter", "fusion_lat": 0.0, "is_disabled": 0, "rental_uris": {"ios": "https://dc.lft.to/lastmile_qr_scan", "android": "https://dc.lft.to/lastmile_qr_scan"}, "bike_id": "b9af057ea3d9241a81e001ee96bcedcb", "lat": 38.955473, "name": "b9af057ea3d9241a81e001ee96bcedcb", "lon": -77.03332083333333, "fusion_lon": 0.0}, {"is_reserved": 0, "type": "electric_scooter", "fusion_lat": 0.0, "is_disabled": 0, "rental_uris": {"ios": "https://dc.lft.to/lastmile_qr_scan", "android": "https://dc.lft.to/lastmile_qr_scan"}, "bike_id": "095d647f85065d6e52d6230ed74decab", "lat": 38.92363666666667, "name": "095d647f85065d6e52d6230ed74decab", "lon": -77.05131283333333, "fusion_lon": 0.0}, {"is_reserved": 0, "type": "electric_scooter", "fusion_lat": 0.0, "is_disabled": 0, "rental_uris": {"ios": "https://dc.lft.to/lastmile_qr_scan", "android": "https://dc.lft.to/lastmile_qr_scan"}, "bike_id": "b3163e58e26f2e3d505524d3f763d246", "lat": 38.89954933333333, "name": "b3163e58e26f2e3d505524d3f763d246", "lon": -77.04753083333334, "fusion_lon": 0.0}, {"is_reserved": 0, "type": "electric_scooter", "fusion_lat": 0.0, "is_disabled": 0, "rental_uris": {"ios": "https://dc.lft.to/lastmile_qr_scan", "android": "https://dc.lft.to/lastmile_qr_scan"}, "bike_id": "a227f417f81f295ef87f8b2e16e513a2", "lat": 38.8836825, "name": "a227f417f81f295ef87f8b2e16e513a2", "lon": -76.99512383333334, "fusion_lon": 0.0}, {"is_reserved": 0, "type": "electric_scooter", "fusion_lat": 0.0, "is_disabled": 0, "rental_uris": {"ios": "https://dc.lft.to/lastmile_qr_scan", "android": "https://dc.lft.to/lastmile_qr_scan"}, "bike_id": "82b439385948d1dfa229e651995e557e", "lat": 38.906581333333335, "name": "82b439385948d1dfa229e651995e557e", "lon": -77.01625233333333, "fusion_lon": 0.0}, {"is_reserved": 0, "type": "electric_bike", "fusion_lat": 0.0, "is_disabled": 0, "rental_uris": {"ios": "https://dc.lft.to/lastmile_qr_scan", "android": "https://dc.lft.to/lastmile_qr_scan"}, "bike_id": "71ad8669656b8599ed29d9b7a6fadb58", "lat": 38.8942005, "name": "71ad8669656b8599ed29d9b7a6fadb58", "lon": -77.0944525, "fusion_lon": 0.0}, {"is_reserved": 0, "type": "electric_bike", "fusion_lat": 0.0, "is_disabled": 0, "rental_uris": {"ios": "https://dc.lft.to/lastmile_qr_scan", "android": "https://dc.lft.to/lastmile_qr_scan"}, "bike_id": "4bc42615b3ac20015b7267728efc944d", "lat": 38.98226566666666, "name": "4bc42615b3ac20015b7267728efc944d", "lon": -77.09548266666667, "fusion_lon": 0.0}, {"is_reserved": 0, "type": "electric_scooter", "fusion_lat": 0.0, "is_disabled": 0, "rental_uris": {"ios": "https://dc.lft.to/lastmile_qr_scan", "android": "https://dc.lft.to/lastmile_qr_scan"}, "bike_id": "bf501f685b7afb164a41b59e654b62dd", "lat": 38.8984105, "name": "bf501f685b7afb164a41b59e654b62dd", "lon": -77.01881083333333, "fusion_lon": 0.0}, {"is_reserved": 0, "type": "electric_bike", "fusion_lat": 0.0, "is_disabled": 0, "rental_uris": {"ios": "https://dc.lft.to/lastmile_qr_scan", "android": "https://dc.lft.to/lastmile_qr_scan"}, "bike_id": "f68b1244d1f135e9be2a81d92fc9129f", "lat": 38.8408435, "name": "f68b1244d1f135e9be2a81d92fc9129f", "lon": -76.97025683333334, "fusion_lon": 0.0}, {"is_reserved": 0, "type": "electric_scooter", "fusion_lat": 0.0, "is_disabled": 0, "rental_uris": {"ios": "https://dc.lft.to/lastmile_qr_scan", "android": "https://dc.lft.to/lastmile_qr_scan"}, "bike_id": "a65a73f3ce9bbeb359422c4a92e52fff", "lat": 38.90762616666667, "name": "a65a73f3ce9bbeb359422c4a92e52fff", "lon": -77.002338, "fusion_lon": 0.0}, {"is_reserved": 0, "type": "electric_bike", "fusion_lat": 0.0, "is_disabled": 0, "rental_uris": {"ios": "https://dc.lft.to/lastmile_qr_scan", "android": "https://dc.lft.to/lastmile_qr_scan"}, "bike_id": "7bba2454ff3209123b7290f86dea5896", "lat": 39.022940166666665, "name": "7bba2454ff3209123b7290f86dea5896", "lon": -77.0210635, "fusion_lon": 0.0}, {"is_reserved": 0, "type": "electric_scooter", "fusion_lat": 0.0, "is_disabled": 0, "rental_uris": {"ios": "https://dc.lft.to/lastmile_qr_scan", "android": "https://dc.lft.to/lastmile_qr_scan"}, "bike_id": "fb8fa8c07672699c449fea6574b9bf4e", "lat": 38.91215483333333, "name": "fb8fa8c07672699c449fea6574b9bf4e", "lon": -77.03838966666666, "fusion_lon": 0.0}, {"is_reserved": 0, "type": "electric_bike", "fusion_lat": 0.0, "is_disabled": 0, "rental_uris": {"ios": "https://dc.lft.to/lastmile_qr_scan", "android": "https://dc.lft.to/lastmile_qr_scan"}, "bike_id": "ef08d11833c7b10ba9c861d64b9807f9", "lat": 38.9747405, "name": "ef08d11833c7b10ba9c861d64b9807f9", "lon": -76.98671633333333, "fusion_lon": 0.0}, {"is_reserved": 0, "type": "electric_scooter", "fusion_lat": 0.0, "is_disabled": 0, "rental_uris": {"ios": "https://dc.lft.to/lastmile_qr_scan", "android": "https://dc.lft.to/lastmile_qr_scan"}, "bike_id": "d3c471a367a9d7c0bf682dc07e7e8b1a", "lat": 38.907681, "name": "d3c471a367a9d7c0bf682dc07e7e8b1a", "lon": -77.02406383333333, "fusion_lon": 0.0}, {"is_reserved": 0, "type": "electric_scooter", "fusion_lat": 0.0, "is_disabled": 0, "rental_uris": {"ios": "https://dc.lft.to/lastmile_qr_scan", "android": "https://dc.lft.to/lastmile_qr_scan"}, "bike_id": "b04b33f2c4c2d0ecd5459ea6c868c1ff", "lat": 38.902995, "name": "b04b33f2c4c2d0ecd5459ea6c868c1ff", "lon": -76.998418, "fusion_lon": 0.0}, {"is_reserved": 0, "type": "electric_scooter", "fusion_lat": 0.0, "is_disabled": 0, "rental_uris": {"ios": "https://dc.lft.to/lastmile_qr_scan", "android": "https://dc.lft.to/lastmile_qr_scan"}, "bike_id": "0cd65c8c3e49471afecfdac155c230d4", "lat": 38.92071716666667, "name": "0cd65c8c3e49471afecfdac155c230d4", "lon": -77.043794, "fusion_lon": 0.0}, {"is_reserved": 0, "type": "electric_scooter", "fusion_lat": 0.0, "is_disabled": 0, "rental_uris": {"ios": "https://dc.lft.to/lastmile_qr_scan", "android": "https://dc.lft.to/lastmile_qr_scan"}, "bike_id": "2ada2529b34dbcd404390e70b67914ab", "lat": 38.92480783333333, "name": "2ada2529b34dbcd404390e70b67914ab", "lon": -77.02544483333334, "fusion_lon": 0.0}, {"is_reserved": 0, "type": "electric_scooter", "fusion_lat": 0.0, "is_disabled": 0, "rental_uris": {"ios": "https://dc.lft.to/lastmile_qr_scan", "android": "https://dc.lft.to/lastmile_qr_scan"}, "bike_id": "4455ebcbd73dd1173b54fa58aa9ced0b", "lat": 38.88004216666667, "name": "4455ebcbd73dd1173b54fa58aa9ced0b", "lon": -76.99836966666666, "fusion_lon": 0.0}, {"is_reserved": 0, "type": "electric_scooter", "fusion_lat": 0.0, "is_disabled": 0, "rental_uris": {"ios": "https://dc.lft.to/lastmile_qr_scan", "android": "https://dc.lft.to/lastmile_qr_scan"}, "bike_id": "963ca42826b3f42a90fbc19e8c01d647", "lat": 38.895095833333336, "name": "963ca42826b3f42a90fbc19e8c01d647", "lon": -76.94883333333334, "fusion_lon": 0.0}, {"is_reserved": 0, "type": "electric_scooter", "fusion_lat": 0.0, "is_disabled": 0, "rental_uris": {"ios": "https://dc.lft.to/lastmile_qr_scan", "android": "https://dc.lft.to/lastmile_qr_scan"}, "bike_id": "c544a484d9ed68a216a4cd272a7c8f37", "lat": 38.903633666666664, "name": "c544a484d9ed68a216a4cd272a7c8f37", "lon": -76.97814083333333, "fusion_lon": 0.0}, {"is_reserved": 0, "type": "electric_scooter", "fusion_lat": 0.0, "is_disabled": 0, "rental_uris": {"ios": "https://dc.lft.to/lastmile_qr_scan", "android": "https://dc.lft.to/lastmile_qr_scan"}, "bike_id": "dd02a43bf788b470bbcf6c7479f9f7f9", "lat": 38.95225883333333, "name": "dd02a43bf788b470bbcf6c7479f9f7f9", "lon": -77.068865, "fusion_lon": 0.0}, {"is_reserved": 0, "type": "electric_scooter", "fusion_lat": 0.0, "is_disabled": 0, "rental_uris": {"ios": "https://dc.lft.to/lastmile_qr_scan", "android": "https://dc.lft.to/lastmile_qr_scan"}, "bike_id": "998fdb9215247590210688dd3e615267", "lat": 38.94033966666667, "name": "998fdb9215247590210688dd3e615267", "lon": -77.07752416666666, "fusion_lon": 0.0}, {"is_reserved": 0, "type": "electric_scooter", "fusion_lat": 0.0, "is_disabled": 0, "rental_uris": {"ios": "https://dc.lft.to/lastmile_qr_scan", "android": "https://dc.lft.to/lastmile_qr_scan"}, "bike_id": "67b9c10ea7330cb7f699042cd46edfe6", "lat": 38.930043, "name": "67b9c10ea7330cb7f699042cd46edfe6", "lon": -77.02117733333333, "fusion_lon": 0.0}, {"is_reserved": 0, "type": "electric_scooter", "fusion_lat": 0.0, "is_disabled": 0, "rental_uris": {"ios": "https://dc.lft.to/lastmile_qr_scan", "android": "https://dc.lft.to/lastmile_qr_scan"}, "bike_id": "e8cefaaf0eedb78e7cf73d021f4e7047", "lat": 38.92867783333333, "name": "e8cefaaf0eedb78e7cf73d021f4e7047", "lon": -77.01402183333333, "fusion_lon": 0.0}, {"is_reserved": 0, "type": "electric_scooter", "fusion_lat": 0.0, "is_disabled": 0, "rental_uris": {"ios": "https://dc.lft.to/lastmile_qr_scan", "android": "https://dc.lft.to/lastmile_qr_scan"}, "bike_id": "09301d5bc67c3e6941d151116904cb57", "lat": 38.87879366666667, "name": "09301d5bc67c3e6941d151116904cb57", "lon": -76.96538966666667, "fusion_lon": 0.0}, {"is_reserved": 0, "type": "electric_scooter", "fusion_lat": 0.0, "is_disabled": 0, "rental_uris": {"ios": "https://dc.lft.to/lastmile_qr_scan", "android": "https://dc.lft.to/lastmile_qr_scan"}, "bike_id": "75eea09cfa74b3476f66991a3147d633", "lat": 38.90184716666667, "name": "75eea09cfa74b3476f66991a3147d633", "lon": -76.976785, "fusion_lon": 0.0}, {"is_reserved": 0, "type": "electric_scooter", "fusion_lat": 0.0, "is_disabled": 0, "rental_uris": {"ios": "https://dc.lft.to/lastmile_qr_scan", "android": "https://dc.lft.to/lastmile_qr_scan"}, "bike_id": "31abc71c75292f17164e0972d9188e51", "lat": 38.8994585, "name": "31abc71c75292f17164e0972d9188e51", "lon": -76.93772566666667, "fusion_lon": 0.0}, {"is_reserved": 0, "type": "electric_scooter", "fusion_lat": 0.0, "is_disabled": 0, "rental_uris": {"ios": "https://dc.lft.to/lastmile_qr_scan", "android": "https://dc.lft.to/lastmile_qr_scan"}, "bike_id": "358553a89250735b23d488cf962074fa", "lat": 38.874011, "name": "358553a89250735b23d488cf962074fa", "lon": -76.9999145, "fusion_lon": 0.0}, {"is_reserved": 0, "type": "electric_bike", "fusion_lat": 0.0, "is_disabled": 0, "rental_uris": {"ios": "https://dc.lft.to/lastmile_qr_scan", "android": "https://dc.lft.to/lastmile_qr_scan"}, "bike_id": "73186ac2fdb582b8021e49a0167934c7", "lat": 39.034709166666666, "name": "73186ac2fdb582b8021e49a0167934c7", "lon": -77.04099666666667, "fusion_lon": 0.0}, {"is_reserved": 0, "type": "electric_scooter", "fusion_lat": 0.0, "is_disabled": 0, "rental_uris": {"ios": "https://dc.lft.to/lastmile_qr_scan", "android": "https://dc.lft.to/lastmile_qr_scan"}, "bike_id": "c55838d172f80f8e9ec1378e537c1665", "lat": 38.91010433333334, "name": "c55838d172f80f8e9ec1378e537c1665", "lon": -77.044235, "fusion_lon": 0.0}, {"is_reserved": 0, "type": "electric_scooter", "fusion_lat": 0.0, "is_disabled": 0, "rental_uris": {"ios": "https://dc.lft.to/lastmile_qr_scan", "android": "https://dc.lft.to/lastmile_qr_scan"}, "bike_id": "dfb8c03bd2183bdc2547e6ae0a0c4a7d", "lat": 38.90727033333334, "name": "dfb8c03bd2183bdc2547e6ae0a0c4a7d", "lon": -77.02892816666666, "fusion_lon": 0.0}, {"is_reserved": 0, "type": "electric_scooter", "fusion_lat": 0.0, "is_disabled": 0, "rental_uris": {"ios": "https://dc.lft.to/lastmile_qr_scan", "android": "https://dc.lft.to/lastmile_qr_scan"}, "bike_id": "8c2da8eadcc330ea12887890c871a77f", "lat": 38.921627666666666, "name": "8c2da8eadcc330ea12887890c871a77f", "lon": -77.04020083333333, "fusion_lon": 0.0}, {"is_reserved": 0, "type": "electric_scooter", "fusion_lat": 0.0, "is_disabled": 0, "rental_uris": {"ios": "https://dc.lft.to/lastmile_qr_scan", "android": "https://dc.lft.to/lastmile_qr_scan"}, "bike_id": "4d1ed4bf096dc7b91b7751e5852c643a", "lat": 38.92337166666667, "name": "4d1ed4bf096dc7b91b7751e5852c643a", "lon": -77.05787166666667, "fusion_lon": 0.0}, {"is_reserved": 0, "type": "electric_bike", "fusion_lat": 0.0, "is_disabled": 0, "rental_uris": {"ios": "https://dc.lft.to/lastmile_qr_scan", "android": "https://dc.lft.to/lastmile_qr_scan"}, "bike_id": "75cce6bf9a7e9072ef7a6abdb9e8f32b", "lat": 38.83157683333334, "name": "75cce6bf9a7e9072ef7a6abdb9e8f32b", "lon": -76.99589433333334, "fusion_lon": 0.0}, {"is_reserved": 0, "type": "electric_scooter", "fusion_lat": 0.0, "is_disabled": 0, "rental_uris": {"ios": "https://dc.lft.to/lastmile_qr_scan", "android": "https://dc.lft.to/lastmile_qr_scan"}, "bike_id": "be764a1072d282a8e3c645cd282904d0", "lat": 38.90904483333333, "name": "be764a1072d282a8e3c645cd282904d0", "lon": -77.03527883333334, "fusion_lon": 0.0}, {"is_reserved": 0, "type": "electric_scooter", "fusion_lat": 0.0, "is_disabled": 0, "rental_uris": {"ios": "https://dc.lft.to/lastmile_qr_scan", "android": "https://dc.lft.to/lastmile_qr_scan"}, "bike_id": "1560046cc3bcaf7361c7f31840ad795a", "lat": 38.935059333333335, "name": "1560046cc3bcaf7361c7f31840ad795a", "lon": -77.05683833333333, "fusion_lon": 0.0}, {"is_reserved": 0, "type": "electric_scooter", "fusion_lat": 0.0, "is_disabled": 0, "rental_uris": {"ios": "https://dc.lft.to/lastmile_qr_scan", "android": "https://dc.lft.to/lastmile_qr_scan"}, "bike_id": "174fc5e9d1d529f6d8046bcebb4ac5ef", "lat": 38.917422333333334, "name": "174fc5e9d1d529f6d8046bcebb4ac5ef", "lon": -77.017742, "fusion_lon": 0.0}, {"is_reserved": 0, "type": "electric_scooter", "fusion_lat": 0.0, "is_disabled": 0, "rental_uris": {"ios": "https://dc.lft.to/lastmile_qr_scan", "android": "https://dc.lft.to/lastmile_qr_scan"}, "bike_id": "545e0cddd02e215b4c1985c208cc1319", "lat": 38.87639, "name": "545e0cddd02e215b4c1985c208cc1319", "lon": -76.99295633333334, "fusion_lon": 0.0}, {"is_reserved": 0, "type": "electric_scooter", "fusion_lat": 0.0, "is_disabled": 0, "rental_uris": {"ios": "https://dc.lft.to/lastmile_qr_scan", "android": "https://dc.lft.to/lastmile_qr_scan"}, "bike_id": "55b74e8cd195db78938d90d5348c153e", "lat": 38.9259865, "name": "55b74e8cd195db78938d90d5348c153e", "lon": -77.02392283333333, "fusion_lon": 0.0}, {"is_reserved": 0, "type": "electric_bike", "fusion_lat": 0.0, "is_disabled": 0, "rental_uris": {"ios": "https://dc.lft.to/lastmile_qr_scan", "android": "https://dc.lft.to/lastmile_qr_scan"}, "bike_id": "abdded24d7222192898d05f527cdf598", "lat": 38.8799675, "name": "abdded24d7222192898d05f527cdf598", "lon": -76.985455, "fusion_lon": 0.0}, {"is_reserved": 0, "type": "electric_scooter", "fusion_lat": 0.0, "is_disabled": 0, "rental_uris": {"ios": "https://dc.lft.to/lastmile_qr_scan", "android": "https://dc.lft.to/lastmile_qr_scan"}, "bike_id": "4a2a1d03f19367017ee82e4364f1a308", "lat": 38.90571633333333, "name": "4a2a1d03f19367017ee82e4364f1a308", "lon": -76.9762615, "fusion_lon": 0.0}, {"is_reserved": 0, "type": "electric_scooter", "fusion_lat": 0.0, "is_disabled": 0, "rental_uris": {"ios": "https://dc.lft.to/lastmile_qr_scan", "android": "https://dc.lft.to/lastmile_qr_scan"}, "bike_id": "c5fba4c212b9a12900671cb8d222f152", "lat": 38.87449516666667, "name": "c5fba4c212b9a12900671cb8d222f152", "lon": -77.00494383333333, "fusion_lon": 0.0}, {"is_reserved": 0, "type": "electric_scooter", "fusion_lat": 0.0, "is_disabled": 0, "rental_uris": {"ios": "https://dc.lft.to/lastmile_qr_scan", "android": "https://dc.lft.to/lastmile_qr_scan"}, "bike_id": "246dfa6457f43c669aca198ffc9acb14", "lat": 38.8996085, "name": "246dfa6457f43c669aca198ffc9acb14", "lon": -77.01504133333333, "fusion_lon": 0.0}, {"is_reserved": 0, "type": "electric_scooter", "fusion_lat": 0.0, "is_disabled": 0, "rental_uris": {"ios": "https://dc.lft.to/lastmile_qr_scan", "android": "https://dc.lft.to/lastmile_qr_scan"}, "bike_id": "b5ccbc4e167c50cd7eb598f18b965256", "lat": 38.9172435, "name": "b5ccbc4e167c50cd7eb598f18b965256", "lon": -77.03461616666667, "fusion_lon": 0.0}, {"is_reserved": 0, "type": "electric_scooter", "fusion_lat": 0.0, "is_disabled": 0, "rental_uris": {"ios": "https://dc.lft.to/lastmile_qr_scan", "android": "https://dc.lft.to/lastmile_qr_scan"}, "bike_id": "8df9aeabd37f7db5dfde8d78b47a8187", "lat": 38.929910166666666, "name": "8df9aeabd37f7db5dfde8d78b47a8187", "lon": -77.0379055, "fusion_lon": 0.0}, {"is_reserved": 0, "type": "electric_scooter", "fusion_lat": 0.0, "is_disabled": 0, "rental_uris": {"ios": "https://dc.lft.to/lastmile_qr_scan", "android": "https://dc.lft.to/lastmile_qr_scan"}, "bike_id": "046fbb64892c14b095d2a3229ec98890", "lat": 38.9376715, "name": "046fbb64892c14b095d2a3229ec98890", "lon": -77.0266305, "fusion_lon": 0.0}, {"is_reserved": 0, "type": "electric_scooter", "fusion_lat": 0.0, "is_disabled": 0, "rental_uris": {"ios": "https://dc.lft.to/lastmile_qr_scan", "android": "https://dc.lft.to/lastmile_qr_scan"}, "bike_id": "0d182d8e745f4d2da3fb0a4bab50f3c0", "lat": 38.912593666666666, "name": "0d182d8e745f4d2da3fb0a4bab50f3c0", "lon": -77.00990283333333, "fusion_lon": 0.0}, {"is_reserved": 0, "type": "electric_scooter", "fusion_lat": 0.0, "is_disabled": 0, "rental_uris": {"ios": "https://dc.lft.to/lastmile_qr_scan", "android": "https://dc.lft.to/lastmile_qr_scan"}, "bike_id": "537f961329f48d90cac4b7465c5cd413", "lat": 38.942719333333336, "name": "537f961329f48d90cac4b7465c5cd413", "lon": -77.08194233333333, "fusion_lon": 0.0}, {"is_reserved": 0, "type": "electric_scooter", "fusion_lat": 0.0, "is_disabled": 0, "rental_uris": {"ios": "https://dc.lft.to/lastmile_qr_scan", "android": "https://dc.lft.to/lastmile_qr_scan"}, "bike_id": "6cfa5f23f2ae3f9e16864123bca5447d", "lat": 38.956345666666664, "name": "6cfa5f23f2ae3f9e16864123bca5447d", "lon": -77.0362865, "fusion_lon": 0.0}, {"is_reserved": 0, "type": "electric_scooter", "fusion_lat": 0.0, "is_disabled": 0, "rental_uris": {"ios": "https://dc.lft.to/lastmile_qr_scan", "android": "https://dc.lft.to/lastmile_qr_scan"}, "bike_id": "0011e72d6e86f01c8adcc61a87cf841e", "lat": 38.893352166666666, "name": "0011e72d6e86f01c8adcc61a87cf841e", "lon": -76.9288885, "fusion_lon": 0.0}, {"is_reserved": 0, "type": "electric_scooter", "fusion_lat": 0.0, "is_disabled": 0, "rental_uris": {"ios": "https://dc.lft.to/lastmile_qr_scan", "android": "https://dc.lft.to/lastmile_qr_scan"}, "bike_id": "77d9823b407479d53466e3545367d77b", "lat": 38.90024283333333, "name": "77d9823b407479d53466e3545367d77b", "lon": -77.01983666666666, "fusion_lon": 0.0}, {"is_reserved": 0, "type": "electric_scooter", "fusion_lat": 0.0, "is_disabled": 0, "rental_uris": {"ios": "https://dc.lft.to/lastmile_qr_scan", "android": "https://dc.lft.to/lastmile_qr_scan"}, "bike_id": "6e9caff437ec08ab550a48cb03a046cf", "lat": 38.907818166666665, "name": "6e9caff437ec08ab550a48cb03a046cf", "lon": -77.04512133333333, "fusion_lon": 0.0}, {"is_reserved": 0, "type": "electric_scooter", "fusion_lat": 0.0, "is_disabled": 0, "rental_uris": {"ios": "https://dc.lft.to/lastmile_qr_scan", "android": "https://dc.lft.to/lastmile_qr_scan"}, "bike_id": "52399d840c4cd823b4f6c9931cd44965", "lat": 38.921496, "name": "52399d840c4cd823b4f6c9931cd44965", "lon": -77.035054, "fusion_lon": 0.0}, {"is_reserved": 0, "type": "electric_scooter", "fusion_lat": 0.0, "is_disabled": 0, "rental_uris": {"ios": "https://dc.lft.to/lastmile_qr_scan", "android": "https://dc.lft.to/lastmile_qr_scan"}, "bike_id": "3d9c7f3a0cf4585808b9fb02b7d9c0c7", "lat": 38.8818765, "name": "3d9c7f3a0cf4585808b9fb02b7d9c0c7", "lon": -77.00893016666667, "fusion_lon": 0.0}, {"is_reserved": 0, "type": "electric_scooter", "fusion_lat": 0.0, "is_disabled": 0, "rental_uris": {"ios": "https://dc.lft.to/lastmile_qr_scan", "android": "https://dc.lft.to/lastmile_qr_scan"}, "bike_id": "6cba6f84f3a9b0799a0234f45f045dcd", "lat": 38.92208466666666, "name": "6cba6f84f3a9b0799a0234f45f045dcd", "lon": -77.01871483333333, "fusion_lon": 0.0}, {"is_reserved": 0, "type": "electric_scooter", "fusion_lat": 0.0, "is_disabled": 0, "rental_uris": {"ios": "https://dc.lft.to/lastmile_qr_scan", "android": "https://dc.lft.to/lastmile_qr_scan"}, "bike_id": "2a02f96a4b5ab745d8d63772c4518d44", "lat": 38.888601333333334, "name": "2a02f96a4b5ab745d8d63772c4518d44", "lon": -76.97907966666666, "fusion_lon": 0.0}, {"is_reserved": 0, "type": "electric_scooter", "fusion_lat": 0.0, "is_disabled": 0, "rental_uris": {"ios": "https://dc.lft.to/lastmile_qr_scan", "android": "https://dc.lft.to/lastmile_qr_scan"}, "bike_id": "93f20e2e6c81e734bfe19c332b1d6971", "lat": 38.8747235, "name": "93f20e2e6c81e734bfe19c332b1d6971", "lon": -77.0051515, "fusion_lon": 0.0}, {"is_reserved": 0, "type": "electric_scooter", "fusion_lat": 0.0, "is_disabled": 0, "rental_uris": {"ios": "https://dc.lft.to/lastmile_qr_scan", "android": "https://dc.lft.to/lastmile_qr_scan"}, "bike_id": "74a5a33a5080fd7eece1b3b4d5517417", "lat": 38.94450883333333, "name": "74a5a33a5080fd7eece1b3b4d5517417", "lon": -77.02912, "fusion_lon": 0.0}, {"is_reserved": 0, "type": "electric_scooter", "fusion_lat": 0.0, "is_disabled": 0, "rental_uris": {"ios": "https://dc.lft.to/lastmile_qr_scan", "android": "https://dc.lft.to/lastmile_qr_scan"}, "bike_id": "a786a6cb948015e443d71655d10ffb27", "lat": 38.8718295, "name": "a786a6cb948015e443d71655d10ffb27", "lon": -77.012147, "fusion_lon": 0.0}, {"is_reserved": 0, "type": "electric_scooter", "fusion_lat": 0.0, "is_disabled": 0, "rental_uris": {"ios": "https://dc.lft.to/lastmile_qr_scan", "android": "https://dc.lft.to/lastmile_qr_scan"}, "bike_id": "3563df3f8b600f209a36aea25c597bc7", "lat": 38.911042, "name": "3563df3f8b600f209a36aea25c597bc7", "lon": -77.002144, "fusion_lon": 0.0}, {"is_reserved": 0, "type": "electric_scooter", "fusion_lat": 0.0, "is_disabled": 0, "rental_uris": {"ios": "https://dc.lft.to/lastmile_qr_scan", "android": "https://dc.lft.to/lastmile_qr_scan"}, "bike_id": "2160d9dd4e3f3c0300366b8809bce1f4", "lat": 38.9234075, "name": "2160d9dd4e3f3c0300366b8809bce1f4", "lon": -76.9987005, "fusion_lon": 0.0}, {"is_reserved": 0, "type": "electric_scooter", "fusion_lat": 0.0, "is_disabled": 0, "rental_uris": {"ios": "https://dc.lft.to/lastmile_qr_scan", "android": "https://dc.lft.to/lastmile_qr_scan"}, "bike_id": "e77e73be462fc1676698efaf27095fc5", "lat": 38.90560033333333, "name": "e77e73be462fc1676698efaf27095fc5", "lon": -77.02655316666667, "fusion_lon": 0.0}, {"is_reserved": 0, "type": "electric_scooter", "fusion_lat": 0.0, "is_disabled": 0, "rental_uris": {"ios": "https://dc.lft.to/lastmile_qr_scan", "android": "https://dc.lft.to/lastmile_qr_scan"}, "bike_id": "62b956a02707a206c14eeca3b20d224b", "lat": 38.9155085, "name": "62b956a02707a206c14eeca3b20d224b", "lon": -77.02135383333334, "fusion_lon": 0.0}, {"is_reserved": 0, "type": "electric_scooter", "fusion_lat": 0.0, "is_disabled": 0, "rental_uris": {"ios": "https://dc.lft.to/lastmile_qr_scan", "android": "https://dc.lft.to/lastmile_qr_scan"}, "bike_id": "25481c8e3f2257d326a1c34ddaa65ad0", "lat": 38.88431933333333, "name": "25481c8e3f2257d326a1c34ddaa65ad0", "lon": -77.03035316666667, "fusion_lon": 0.0}, {"is_reserved": 0, "type": "electric_scooter", "fusion_lat": 0.0, "is_disabled": 0, "rental_uris": {"ios": "https://dc.lft.to/lastmile_qr_scan", "android": "https://dc.lft.to/lastmile_qr_scan"}, "bike_id": "d2c8c8f2f33317d6e98b85738d5afaa3", "lat": 38.8955585, "name": "d2c8c8f2f33317d6e98b85738d5afaa3", "lon": -77.0091615, "fusion_lon": 0.0}, {"is_reserved": 0, "type": "electric_scooter", "fusion_lat": 0.0, "is_disabled": 0, "rental_uris": {"ios": "https://dc.lft.to/lastmile_qr_scan", "android": "https://dc.lft.to/lastmile_qr_scan"}, "bike_id": "ef898c8f26ef9d87a3a45f5a167a59b5", "lat": 38.88770183333333, "name": "ef898c8f26ef9d87a3a45f5a167a59b5", "lon": -76.93261883333334, "fusion_lon": 0.0}, {"is_reserved": 0, "type": "electric_scooter", "fusion_lat": 0.0, "is_disabled": 0, "rental_uris": {"ios": "https://dc.lft.to/lastmile_qr_scan", "android": "https://dc.lft.to/lastmile_qr_scan"}, "bike_id": "73abc2858859d4d0b1a0c3dee21169b1", "lat": 38.92164183333333, "name": "73abc2858859d4d0b1a0c3dee21169b1", "lon": -77.0402215, "fusion_lon": 0.0}, {"is_reserved": 0, "type": "electric_scooter", "fusion_lat": 0.0, "is_disabled": 0, "rental_uris": {"ios": "https://dc.lft.to/lastmile_qr_scan", "android": "https://dc.lft.to/lastmile_qr_scan"}, "bike_id": "8bde0eb2fd179603fca5d39538be607a", "lat": 38.914210833333335, "name": "8bde0eb2fd179603fca5d39538be607a", "lon": -77.037496, "fusion_lon": 0.0}, {"is_reserved": 0, "type": "electric_scooter", "fusion_lat": 0.0, "is_disabled": 0, "rental_uris": {"ios": "https://dc.lft.to/lastmile_qr_scan", "android": "https://dc.lft.to/lastmile_qr_scan"}, "bike_id": "dd43fd2f64eef978cda77274e7e8b08f", "lat": 38.954304, "name": "dd43fd2f64eef978cda77274e7e8b08f", "lon": -77.0185075, "fusion_lon": 0.0}, {"is_reserved": 0, "type": "electric_scooter", "fusion_lat": 0.0, "is_disabled": 0, "rental_uris": {"ios": "https://dc.lft.to/lastmile_qr_scan", "android": "https://dc.lft.to/lastmile_qr_scan"}, "bike_id": "85e8b79499354c577c3d08bc1b9cdaf7", "lat": 38.925092166666666, "name": "85e8b79499354c577c3d08bc1b9cdaf7", "lon": -77.03222966666667, "fusion_lon": 0.0}, {"is_reserved": 0, "type": "electric_scooter", "fusion_lat": 0.0, "is_disabled": 0, "rental_uris": {"ios": "https://dc.lft.to/lastmile_qr_scan", "android": "https://dc.lft.to/lastmile_qr_scan"}, "bike_id": "da150d5e15ba3554e5e8119071155fb4", "lat": 38.89639183333333, "name": "da150d5e15ba3554e5e8119071155fb4", "lon": -77.02665066666667, "fusion_lon": 0.0}, {"is_reserved": 0, "type": "electric_bike", "fusion_lat": 0.0, "is_disabled": 0, "rental_uris": {"ios": "https://dc.lft.to/lastmile_qr_scan", "android": "https://dc.lft.to/lastmile_qr_scan"}, "bike_id": "d501579de502fb7f4311624a4aefd3f7", "lat": 38.983655666666664, "name": "d501579de502fb7f4311624a4aefd3f7", "lon": -76.98849916666667, "fusion_lon": 0.0}, {"is_reserved": 0, "type": "electric_bike", "fusion_lat": 0.0, "is_disabled": 0, "rental_uris": {"ios": "https://dc.lft.to/lastmile_qr_scan", "android": "https://dc.lft.to/lastmile_qr_scan"}, "bike_id": "b2a30e802d0602203265b826193122db", "lat": 38.86756883333334, "name": "b2a30e802d0602203265b826193122db", "lon": -76.94540066666667, "fusion_lon": 0.0}, {"is_reserved": 0, "type": "electric_scooter", "fusion_lat": 0.0, "is_disabled": 0, "rental_uris": {"ios": "https://dc.lft.to/lastmile_qr_scan", "android": "https://dc.lft.to/lastmile_qr_scan"}, "bike_id": "4526dbf19264d1889d9f688f6b1d8ab3", "lat": 38.92030333333334, "name": "4526dbf19264d1889d9f688f6b1d8ab3", "lon": -77.04178733333333, "fusion_lon": 0.0}, {"is_reserved": 0, "type": "electric_scooter", "fusion_lat": 0.0, "is_disabled": 0, "rental_uris": {"ios": "https://dc.lft.to/lastmile_qr_scan", "android": "https://dc.lft.to/lastmile_qr_scan"}, "bike_id": "d2c94cc8c6fdb99b32705f8aeba15e17", "lat": 38.92477233333334, "name": "d2c94cc8c6fdb99b32705f8aeba15e17", "lon": -77.02550066666667, "fusion_lon": 0.0}, {"is_reserved": 0, "type": "electric_scooter", "fusion_lat": 0.0, "is_disabled": 0, "rental_uris": {"ios": "https://dc.lft.to/lastmile_qr_scan", "android": "https://dc.lft.to/lastmile_qr_scan"}, "bike_id": "f3ef878af58adc1ab32ea321d1968d8f", "lat": 38.919709166666664, "name": "f3ef878af58adc1ab32ea321d1968d8f", "lon": -77.07096783333333, "fusion_lon": 0.0}, {"is_reserved": 0, "type": "electric_scooter", "fusion_lat": 0.0, "is_disabled": 0, "rental_uris": {"ios": "https://dc.lft.to/lastmile_qr_scan", "android": "https://dc.lft.to/lastmile_qr_scan"}, "bike_id": "a3d9d5fe588b0c1e2e2e959f92e813f7", "lat": 38.928186333333336, "name": "a3d9d5fe588b0c1e2e2e959f92e813f7", "lon": -77.02143516666666, "fusion_lon": 0.0}, {"is_reserved": 0, "type": "electric_scooter", "fusion_lat": 0.0, "is_disabled": 0, "rental_uris": {"ios": "https://dc.lft.to/lastmile_qr_scan", "android": "https://dc.lft.to/lastmile_qr_scan"}, "bike_id": "6325380648081585cf03216cc8a3b6a6", "lat": 38.91269066666667, "name": "6325380648081585cf03216cc8a3b6a6", "lon": -77.0387585, "fusion_lon": 0.0}, {"is_reserved": 0, "type": "electric_scooter", "fusion_lat": 0.0, "is_disabled": 0, "rental_uris": {"ios": "https://dc.lft.to/lastmile_qr_scan", "android": "https://dc.lft.to/lastmile_qr_scan"}, "bike_id": "a507268627d052002d2321d4159dbe30", "lat": 38.915892666666664, "name": "a507268627d052002d2321d4159dbe30", "lon": -76.98385683333333, "fusion_lon": 0.0}, {"is_reserved": 0, "type": "electric_scooter", "fusion_lat": 0.0, "is_disabled": 0, "rental_uris": {"ios": "https://dc.lft.to/lastmile_qr_scan", "android": "https://dc.lft.to/lastmile_qr_scan"}, "bike_id": "8bbfd2f2670277ed93a5457372af345d", "lat": 38.93976716666667, "name": "8bbfd2f2670277ed93a5457372af345d", "lon": -77.0287515, "fusion_lon": 0.0}, {"is_reserved": 0, "type": "electric_bike", "fusion_lat": 0.0, "is_disabled": 0, "rental_uris": {"ios": "https://dc.lft.to/lastmile_qr_scan", "android": "https://dc.lft.to/lastmile_qr_scan"}, "bike_id": "007ad458db68feaf4645c1efd1d58c72", "lat": 38.882752333333336, "name": "007ad458db68feaf4645c1efd1d58c72", "lon": -76.93238066666666, "fusion_lon": 0.0}, {"is_reserved": 0, "type": "electric_scooter", "fusion_lat": 0.0, "is_disabled": 0, "rental_uris": {"ios": "https://dc.lft.to/lastmile_qr_scan", "android": "https://dc.lft.to/lastmile_qr_scan"}, "bike_id": "bd7509833346347258d3a74f8044ae6e", "lat": 38.8948855, "name": "bd7509833346347258d3a74f8044ae6e", "lon": -77.027349, "fusion_lon": 0.0}, {"is_reserved": 0, "type": "electric_scooter", "fusion_lat": 0.0, "is_disabled": 0, "rental_uris": {"ios": "https://dc.lft.to/lastmile_qr_scan", "android": "https://dc.lft.to/lastmile_qr_scan"}, "bike_id": "427169d96e790e90936a789bdc20bb71", "lat": 38.89223466666667, "name": "427169d96e790e90936a789bdc20bb71", "lon": -77.04487783333333, "fusion_lon": 0.0}, {"is_reserved": 0, "type": "electric_scooter", "fusion_lat": 0.0, "is_disabled": 0, "rental_uris": {"ios": "https://dc.lft.to/lastmile_qr_scan", "android": "https://dc.lft.to/lastmile_qr_scan"}, "bike_id": "81cfe4c88287812102cb651abf12b61e", "lat": 38.91121666666667, "name": "81cfe4c88287812102cb651abf12b61e", "lon": -77.00485183333333, "fusion_lon": 0.0}, {"is_reserved": 0, "type": "electric_scooter", "fusion_lat": 0.0, "is_disabled": 0, "rental_uris": {"ios": "https://dc.lft.to/lastmile_qr_scan", "android": "https://dc.lft.to/lastmile_qr_scan"}, "bike_id": "2812a5e0cd31f6232026db30b7417fa0", "lat": 38.939478333333334, "name": "2812a5e0cd31f6232026db30b7417fa0", "lon": -77.0723875, "fusion_lon": 0.0}, {"is_reserved": 0, "type": "electric_scooter", "fusion_lat": 0.0, "is_disabled": 0, "rental_uris": {"ios": "https://dc.lft.to/lastmile_qr_scan", "android": "https://dc.lft.to/lastmile_qr_scan"}, "bike_id": "33aee20f6d1b017a165ca758f71ad0b5", "lat": 38.90197716666667, "name": "33aee20f6d1b017a165ca758f71ad0b5", "lon": -77.04805983333334, "fusion_lon": 0.0}, {"is_reserved": 0, "type": "electric_scooter", "fusion_lat": 0.0, "is_disabled": 0, "rental_uris": {"ios": "https://dc.lft.to/lastmile_qr_scan", "android": "https://dc.lft.to/lastmile_qr_scan"}, "bike_id": "ddd3ac76a6f99345524e3a5a8552f7a4", "lat": 38.89938733333334, "name": "ddd3ac76a6f99345524e3a5a8552f7a4", "lon": -77.02554966666666, "fusion_lon": 0.0}, {"is_reserved": 0, "type": "electric_scooter", "fusion_lat": 0.0, "is_disabled": 0, "rental_uris": {"ios": "https://dc.lft.to/lastmile_qr_scan", "android": "https://dc.lft.to/lastmile_qr_scan"}, "bike_id": "ea7f8e7ca1a0d241c27c0dae0bbfeab6", "lat": 38.8953205, "name": "ea7f8e7ca1a0d241c27c0dae0bbfeab6", "lon": -76.94892383333334, "fusion_lon": 0.0}, {"is_reserved": 0, "type": "electric_scooter", "fusion_lat": 0.0, "is_disabled": 0, "rental_uris": {"ios": "https://dc.lft.to/lastmile_qr_scan", "android": "https://dc.lft.to/lastmile_qr_scan"}, "bike_id": "51342c912126562398258d2045683e07", "lat": 38.920280166666664, "name": "51342c912126562398258d2045683e07", "lon": -77.02509833333333, "fusion_lon": 0.0}, {"is_reserved": 0, "type": "electric_scooter", "fusion_lat": 0.0, "is_disabled": 0, "rental_uris": {"ios": "https://dc.lft.to/lastmile_qr_scan", "android": "https://dc.lft.to/lastmile_qr_scan"}, "bike_id": "a1d39d91017f96a92947d4ecde3e44ec", "lat": 38.91496016666667, "name": "a1d39d91017f96a92947d4ecde3e44ec", "lon": -77.04943466666667, "fusion_lon": 0.0}, {"is_reserved": 0, "type": "electric_scooter", "fusion_lat": 0.0, "is_disabled": 0, "rental_uris": {"ios": "https://dc.lft.to/lastmile_qr_scan", "android": "https://dc.lft.to/lastmile_qr_scan"}, "bike_id": "d77833fa7c2a18e5e30ce05f70900bcf", "lat": 38.9192385, "name": "d77833fa7c2a18e5e30ce05f70900bcf", "lon": -77.03426783333333, "fusion_lon": 0.0}, {"is_reserved": 0, "type": "electric_scooter", "fusion_lat": 0.0, "is_disabled": 0, "rental_uris": {"ios": "https://dc.lft.to/lastmile_qr_scan", "android": "https://dc.lft.to/lastmile_qr_scan"}, "bike_id": "0df9dfec63b2da9fc279248483e16520", "lat": 38.9181905, "name": "0df9dfec63b2da9fc279248483e16520", "lon": -77.01215633333334, "fusion_lon": 0.0}, {"is_reserved": 0, "type": "electric_scooter", "fusion_lat": 0.0, "is_disabled": 0, "rental_uris": {"ios": "https://dc.lft.to/lastmile_qr_scan", "android": "https://dc.lft.to/lastmile_qr_scan"}, "bike_id": "d1622553649fd98c58bbc7149d8d9503", "lat": 38.897451, "name": "d1622553649fd98c58bbc7149d8d9503", "lon": -77.04815733333334, "fusion_lon": 0.0}, {"is_reserved": 0, "type": "electric_scooter", "fusion_lat": 0.0, "is_disabled": 0, "rental_uris": {"ios": "https://dc.lft.to/lastmile_qr_scan", "android": "https://dc.lft.to/lastmile_qr_scan"}, "bike_id": "37dd3f9e54010f9766e94a7f40ed1588", "lat": 38.9072595, "name": "37dd3f9e54010f9766e94a7f40ed1588", "lon": -77.04504866666667, "fusion_lon": 0.0}, {"is_reserved": 0, "type": "electric_scooter", "fusion_lat": 0.0, "is_disabled": 0, "rental_uris": {"ios": "https://dc.lft.to/lastmile_qr_scan", "android": "https://dc.lft.to/lastmile_qr_scan"}, "bike_id": "d8a5479e71d16427d50c3b5f1e1bdcaa", "lat": 38.935345, "name": "d8a5479e71d16427d50c3b5f1e1bdcaa", "lon": -77.0347685, "fusion_lon": 0.0}, {"is_reserved": 0, "type": "electric_bike", "fusion_lat": 0.0, "is_disabled": 0, "rental_uris": {"ios": "https://dc.lft.to/lastmile_qr_scan", "android": "https://dc.lft.to/lastmile_qr_scan"}, "bike_id": "ae60de7fa7fc75f8efafdef589506a35", "lat": 38.8306545, "name": "ae60de7fa7fc75f8efafdef589506a35", "lon": -77.04078066666666, "fusion_lon": 0.0}, {"is_reserved": 0, "type": "electric_scooter", "fusion_lat": 0.0, "is_disabled": 0, "rental_uris": {"ios": "https://dc.lft.to/lastmile_qr_scan", "android": "https://dc.lft.to/lastmile_qr_scan"}, "bike_id": "d7e3b9d459c26a661f0b8514440482c0", "lat": 38.898335, "name": "d7e3b9d459c26a661f0b8514440482c0", "lon": -76.946361, "fusion_lon": 0.0}, {"is_reserved": 0, "type": "electric_scooter", "fusion_lat": 0.0, "is_disabled": 0, "rental_uris": {"ios": "https://dc.lft.to/lastmile_qr_scan", "android": "https://dc.lft.to/lastmile_qr_scan"}, "bike_id": "8d8cd030be738d3a0977d2b3ae9d0fc3", "lat": 38.91705316666667, "name": "8d8cd030be738d3a0977d2b3ae9d0fc3", "lon": -77.02765866666667, "fusion_lon": 0.0}, {"is_reserved": 0, "type": "electric_scooter", "fusion_lat": 0.0, "is_disabled": 0, "rental_uris": {"ios": "https://dc.lft.to/lastmile_qr_scan", "android": "https://dc.lft.to/lastmile_qr_scan"}, "bike_id": "a2a042a754fc77ed0991501f1eb1a97a", "lat": 38.90642316666667, "name": "a2a042a754fc77ed0991501f1eb1a97a", "lon": -77.01847, "fusion_lon": 0.0}, {"is_reserved": 0, "type": "electric_scooter", "fusion_lat": 0.0, "is_disabled": 0, "rental_uris": {"ios": "https://dc.lft.to/lastmile_qr_scan", "android": "https://dc.lft.to/lastmile_qr_scan"}, "bike_id": "8c166f05b5737c35f749a965f11de43d", "lat": 38.903336333333336, "name": "8c166f05b5737c35f749a965f11de43d", "lon": -77.02596333333334, "fusion_lon": 0.0}, {"is_reserved": 0, "type": "electric_scooter", "fusion_lat": 0.0, "is_disabled": 0, "rental_uris": {"ios": "https://dc.lft.to/lastmile_qr_scan", "android": "https://dc.lft.to/lastmile_qr_scan"}, "bike_id": "02515d1e594de7cfedec7664fe7cd8a2", "lat": 38.93564283333333, "name": "02515d1e594de7cfedec7664fe7cd8a2", "lon": -77.02856433333334, "fusion_lon": 0.0}, {"is_reserved": 0, "type": "electric_scooter", "fusion_lat": 0.0, "is_disabled": 0, "rental_uris": {"ios": "https://dc.lft.to/lastmile_qr_scan", "android": "https://dc.lft.to/lastmile_qr_scan"}, "bike_id": "6179e2516aa4f2b35a3c89c13f76944e", "lat": 38.8985635, "name": "6179e2516aa4f2b35a3c89c13f76944e", "lon": -76.94643833333333, "fusion_lon": 0.0}, {"is_reserved": 0, "type": "electric_bike", "fusion_lat": 0.0, "is_disabled": 0, "rental_uris": {"ios": "https://dc.lft.to/lastmile_qr_scan", "android": "https://dc.lft.to/lastmile_qr_scan"}, "bike_id": "d4cee2844d4d9a8a5e35c7bfb45bfd17", "lat": 39.003792833333335, "name": "d4cee2844d4d9a8a5e35c7bfb45bfd17", "lon": -77.01293716666666, "fusion_lon": 0.0}, {"is_reserved": 0, "type": "electric_scooter", "fusion_lat": 0.0, "is_disabled": 0, "rental_uris": {"ios": "https://dc.lft.to/lastmile_qr_scan", "android": "https://dc.lft.to/lastmile_qr_scan"}, "bike_id": "1c58e4749897024dc8b00588f1db153d", "lat": 38.892261833333336, "name": "1c58e4749897024dc8b00588f1db153d", "lon": -77.04487316666666, "fusion_lon": 0.0}, {"is_reserved": 0, "type": "electric_scooter", "fusion_lat": 0.0, "is_disabled": 0, "rental_uris": {"ios": "https://dc.lft.to/lastmile_qr_scan", "android": "https://dc.lft.to/lastmile_qr_scan"}, "bike_id": "536b367b62af9fb307e43f0b794682f4", "lat": 38.89675783333333, "name": "536b367b62af9fb307e43f0b794682f4", "lon": -77.05024, "fusion_lon": 0.0}, {"is_reserved": 0, "type": "electric_scooter", "fusion_lat": 0.0, "is_disabled": 0, "rental_uris": {"ios": "https://dc.lft.to/lastmile_qr_scan", "android": "https://dc.lft.to/lastmile_qr_scan"}, "bike_id": "e047acd1c564e95d888a841355fc1eca", "lat": 38.870685, "name": "e047acd1c564e95d888a841355fc1eca", "lon": -76.97941616666667, "fusion_lon": 0.0}, {"is_reserved": 0, "type": "electric_scooter", "fusion_lat": 0.0, "is_disabled": 0, "rental_uris": {"ios": "https://dc.lft.to/lastmile_qr_scan", "android": "https://dc.lft.to/lastmile_qr_scan"}, "bike_id": "d05f0a11610eee51dcb5ba5e9225c638", "lat": 38.90365766666667, "name": "d05f0a11610eee51dcb5ba5e9225c638", "lon": -77.04015433333333, "fusion_lon": 0.0}, {"is_reserved": 0, "type": "electric_scooter", "fusion_lat": 0.0, "is_disabled": 0, "rental_uris": {"ios": "https://dc.lft.to/lastmile_qr_scan", "android": "https://dc.lft.to/lastmile_qr_scan"}, "bike_id": "c9732c036fad31a211dac8ab9dca8cba", "lat": 38.9155905, "name": "c9732c036fad31a211dac8ab9dca8cba", "lon": -77.03264816666666, "fusion_lon": 0.0}, {"is_reserved": 0, "type": "electric_scooter", "fusion_lat": 0.0, "is_disabled": 0, "rental_uris": {"ios": "https://dc.lft.to/lastmile_qr_scan", "android": "https://dc.lft.to/lastmile_qr_scan"}, "bike_id": "da9d8ac215e8611d06176d8a27a47627", "lat": 38.90816683333333, "name": "da9d8ac215e8611d06176d8a27a47627", "lon": -77.0842815, "fusion_lon": 0.0}, {"is_reserved": 0, "type": "electric_scooter", "fusion_lat": 0.0, "is_disabled": 0, "rental_uris": {"ios": "https://dc.lft.to/lastmile_qr_scan", "android": "https://dc.lft.to/lastmile_qr_scan"}, "bike_id": "f91d468ce21fb03376da9ab1f965aaba", "lat": 38.915408666666664, "name": "f91d468ce21fb03376da9ab1f965aaba", "lon": -76.9849495, "fusion_lon": 0.0}, {"is_reserved": 0, "type": "electric_scooter", "fusion_lat": 0.0, "is_disabled": 0, "rental_uris": {"ios": "https://dc.lft.to/lastmile_qr_scan", "android": "https://dc.lft.to/lastmile_qr_scan"}, "bike_id": "6019852734c45f6dded631403b9c60e7", "lat": 38.9350935, "name": "6019852734c45f6dded631403b9c60e7", "lon": -77.03674783333334, "fusion_lon": 0.0}, {"is_reserved": 0, "type": "electric_scooter", "fusion_lat": 0.0, "is_disabled": 0, "rental_uris": {"ios": "https://dc.lft.to/lastmile_qr_scan", "android": "https://dc.lft.to/lastmile_qr_scan"}, "bike_id": "724fc6d45366e157272b1787dd6eab60", "lat": 38.9194705, "name": "724fc6d45366e157272b1787dd6eab60", "lon": -77.0798225, "fusion_lon": 0.0}, {"is_reserved": 0, "type": "electric_scooter", "fusion_lat": 0.0, "is_disabled": 0, "rental_uris": {"ios": "https://dc.lft.to/lastmile_qr_scan", "android": "https://dc.lft.to/lastmile_qr_scan"}, "bike_id": "70dc18696ed58234cb9b274349fdba86", "lat": 38.935703333333336, "name": "70dc18696ed58234cb9b274349fdba86", "lon": -77.02463233333333, "fusion_lon": 0.0}, {"is_reserved": 0, "type": "electric_scooter", "fusion_lat": 0.0, "is_disabled": 0, "rental_uris": {"ios": "https://dc.lft.to/lastmile_qr_scan", "android": "https://dc.lft.to/lastmile_qr_scan"}, "bike_id": "7e22f4490e545318db84b7e3e3af2a96", "lat": 38.93225483333333, "name": "7e22f4490e545318db84b7e3e3af2a96", "lon": -77.02963183333334, "fusion_lon": 0.0}, {"is_reserved": 0, "type": "electric_scooter", "fusion_lat": 0.0, "is_disabled": 0, "rental_uris": {"ios": "https://dc.lft.to/lastmile_qr_scan", "android": "https://dc.lft.to/lastmile_qr_scan"}, "bike_id": "90675ead19e483a88e98204b1fa1f9d7", "lat": 38.8870855, "name": "90675ead19e483a88e98204b1fa1f9d7", "lon": -76.98346166666667, "fusion_lon": 0.0}, {"is_reserved": 0, "type": "electric_scooter", "fusion_lat": 0.0, "is_disabled": 0, "rental_uris": {"ios": "https://dc.lft.to/lastmile_qr_scan", "android": "https://dc.lft.to/lastmile_qr_scan"}, "bike_id": "941aa3ae71bdb11dc7ee14f40d69fa51", "lat": 38.9247, "name": "941aa3ae71bdb11dc7ee14f40d69fa51", "lon": -77.02218866666666, "fusion_lon": 0.0}, {"is_reserved": 0, "type": "electric_scooter", "fusion_lat": 0.0, "is_disabled": 0, "rental_uris": {"ios": "https://dc.lft.to/lastmile_qr_scan", "android": "https://dc.lft.to/lastmile_qr_scan"}, "bike_id": "84a28f2889a110a29fe404e5ba963f90", "lat": 38.908631, "name": "84a28f2889a110a29fe404e5ba963f90", "lon": -77.02666383333333, "fusion_lon": 0.0}, {"is_reserved": 0, "type": "electric_bike", "fusion_lat": 0.0, "is_disabled": 0, "rental_uris": {"ios": "https://dc.lft.to/lastmile_qr_scan", "android": "https://dc.lft.to/lastmile_qr_scan"}, "bike_id": "6353cc822879327612cf4bd45e4a4901", "lat": 38.84620566666667, "name": "6353cc822879327612cf4bd45e4a4901", "lon": -76.97837383333334, "fusion_lon": 0.0}, {"is_reserved": 0, "type": "electric_scooter", "fusion_lat": 0.0, "is_disabled": 0, "rental_uris": {"ios": "https://dc.lft.to/lastmile_qr_scan", "android": "https://dc.lft.to/lastmile_qr_scan"}, "bike_id": "24fb0c7d2c75124d48db632c12cdac62", "lat": 38.905071, "name": "24fb0c7d2c75124d48db632c12cdac62", "lon": -76.99184233333334, "fusion_lon": 0.0}, {"is_reserved": 0, "type": "electric_scooter", "fusion_lat": 0.0, "is_disabled": 0, "rental_uris": {"ios": "https://dc.lft.to/lastmile_qr_scan", "android": "https://dc.lft.to/lastmile_qr_scan"}, "bike_id": "9e54f700e0f56dcbfc382808b14fa48e", "lat": 38.92583166666667, "name": "9e54f700e0f56dcbfc382808b14fa48e", "lon": -77.02497683333333, "fusion_lon": 0.0}, {"is_reserved": 0, "type": "electric_scooter", "fusion_lat": 0.0, "is_disabled": 0, "rental_uris": {"ios": "https://dc.lft.to/lastmile_qr_scan", "android": "https://dc.lft.to/lastmile_qr_scan"}, "bike_id": "81aeec88ee76233cfd2c779253e80717", "lat": 38.88572816666667, "name": "81aeec88ee76233cfd2c779253e80717", "lon": -77.01209483333334, "fusion_lon": 0.0}, {"is_reserved": 0, "type": "electric_scooter", "fusion_lat": 0.0, "is_disabled": 0, "rental_uris": {"ios": "https://dc.lft.to/lastmile_qr_scan", "android": "https://dc.lft.to/lastmile_qr_scan"}, "bike_id": "1e39de51e3d9ae79e7c92c04d080ae7c", "lat": 38.9241305, "name": "1e39de51e3d9ae79e7c92c04d080ae7c", "lon": -77.0363835, "fusion_lon": 0.0}, {"is_reserved": 0, "type": "electric_scooter", "fusion_lat": 0.0, "is_disabled": 0, "rental_uris": {"ios": "https://dc.lft.to/lastmile_qr_scan", "android": "https://dc.lft.to/lastmile_qr_scan"}, "bike_id": "ec17beca22b78e63ea2bfc0909b51554", "lat": 38.921961833333334, "name": "ec17beca22b78e63ea2bfc0909b51554", "lon": -77.01843833333334, "fusion_lon": 0.0}, {"is_reserved": 0, "type": "electric_scooter", "fusion_lat": 0.0, "is_disabled": 0, "rental_uris": {"ios": "https://dc.lft.to/lastmile_qr_scan", "android": "https://dc.lft.to/lastmile_qr_scan"}, "bike_id": "094c9ae266f43fc5cbabdf5f9024e583", "lat": 38.9036805, "name": "094c9ae266f43fc5cbabdf5f9024e583", "lon": -77.050802, "fusion_lon": 0.0}, {"is_reserved": 0, "type": "electric_scooter", "fusion_lat": 0.0, "is_disabled": 0, "rental_uris": {"ios": "https://dc.lft.to/lastmile_qr_scan", "android": "https://dc.lft.to/lastmile_qr_scan"}, "bike_id": "db2adf55f1ea33419f4a159263de377d", "lat": 38.912987666666666, "name": "db2adf55f1ea33419f4a159263de377d", "lon": -77.04549366666667, "fusion_lon": 0.0}, {"is_reserved": 0, "type": "electric_scooter", "fusion_lat": 0.0, "is_disabled": 0, "rental_uris": {"ios": "https://dc.lft.to/lastmile_qr_scan", "android": "https://dc.lft.to/lastmile_qr_scan"}, "bike_id": "de89d07c2138bc6614ae7995f540b359", "lat": 38.95101366666667, "name": "de89d07c2138bc6614ae7995f540b359", "lon": -77.0219625, "fusion_lon": 0.0}, {"is_reserved": 0, "type": "electric_scooter", "fusion_lat": 0.0, "is_disabled": 0, "rental_uris": {"ios": "https://dc.lft.to/lastmile_qr_scan", "android": "https://dc.lft.to/lastmile_qr_scan"}, "bike_id": "f84d3f5f79fb84398b4ed8a6bb37518c", "lat": 38.900376666666666, "name": "f84d3f5f79fb84398b4ed8a6bb37518c", "lon": -77.0122635, "fusion_lon": 0.0}, {"is_reserved": 0, "type": "electric_scooter", "fusion_lat": 0.0, "is_disabled": 0, "rental_uris": {"ios": "https://dc.lft.to/lastmile_qr_scan", "android": "https://dc.lft.to/lastmile_qr_scan"}, "bike_id": "01aa589083607d093fc4cd367dfc56e3", "lat": 38.93119, "name": "01aa589083607d093fc4cd367dfc56e3", "lon": -77.03803, "fusion_lon": 0.0}, {"is_reserved": 0, "type": "electric_scooter", "fusion_lat": 0.0, "is_disabled": 0, "rental_uris": {"ios": "https://dc.lft.to/lastmile_qr_scan", "android": "https://dc.lft.to/lastmile_qr_scan"}, "bike_id": "2446f606c53cbd6c8a99c9fd8a329a2e", "lat": 38.90572933333333, "name": "2446f606c53cbd6c8a99c9fd8a329a2e", "lon": -77.0043975, "fusion_lon": 0.0}, {"is_reserved": 0, "type": "electric_bike", "fusion_lat": 0.0, "is_disabled": 0, "rental_uris": {"ios": "https://dc.lft.to/lastmile_qr_scan", "android": "https://dc.lft.to/lastmile_qr_scan"}, "bike_id": "2b9314fac081204b2a650f7c65edc42c", "lat": 38.906954166666665, "name": "2b9314fac081204b2a650f7c65edc42c", "lon": -76.9525005, "fusion_lon": 0.0}, {"is_reserved": 0, "type": "electric_scooter", "fusion_lat": 0.0, "is_disabled": 0, "rental_uris": {"ios": "https://dc.lft.to/lastmile_qr_scan", "android": "https://dc.lft.to/lastmile_qr_scan"}, "bike_id": "4dd076c73587c37127a699a4e118f30c", "lat": 38.89726433333333, "name": "4dd076c73587c37127a699a4e118f30c", "lon": -77.02544816666666, "fusion_lon": 0.0}, {"is_reserved": 0, "type": "electric_scooter", "fusion_lat": 0.0, "is_disabled": 0, "rental_uris": {"ios": "https://dc.lft.to/lastmile_qr_scan", "android": "https://dc.lft.to/lastmile_qr_scan"}, "bike_id": "d1e1c823077c7b746928605db7bfafcc", "lat": 38.9426525, "name": "d1e1c823077c7b746928605db7bfafcc", "lon": -76.98468333333334, "fusion_lon": 0.0}, {"is_reserved": 0, "type": "electric_scooter", "fusion_lat": 0.0, "is_disabled": 0, "rental_uris": {"ios": "https://dc.lft.to/lastmile_qr_scan", "android": "https://dc.lft.to/lastmile_qr_scan"}, "bike_id": "b3ef88f86291baa30a209a41d54c94d5", "lat": 38.8953735, "name": "b3ef88f86291baa30a209a41d54c94d5", "lon": -76.98838166666667, "fusion_lon": 0.0}, {"is_reserved": 0, "type": "electric_scooter", "fusion_lat": 0.0, "is_disabled": 0, "rental_uris": {"ios": "https://dc.lft.to/lastmile_qr_scan", "android": "https://dc.lft.to/lastmile_qr_scan"}, "bike_id": "d690112bc8c48490d831feda1d0c869f", "lat": 38.8835685, "name": "d690112bc8c48490d831feda1d0c869f", "lon": -76.95768, "fusion_lon": 0.0}, {"is_reserved": 0, "type": "electric_scooter", "fusion_lat": 0.0, "is_disabled": 0, "rental_uris": {"ios": "https://dc.lft.to/lastmile_qr_scan", "android": "https://dc.lft.to/lastmile_qr_scan"}, "bike_id": "34591ece02565173b81c42e147f56bb8", "lat": 38.89670533333334, "name": "34591ece02565173b81c42e147f56bb8", "lon": -77.05128983333333, "fusion_lon": 0.0}, {"is_reserved": 0, "type": "electric_scooter", "fusion_lat": 0.0, "is_disabled": 0, "rental_uris": {"ios": "https://dc.lft.to/lastmile_qr_scan", "android": "https://dc.lft.to/lastmile_qr_scan"}, "bike_id": "1e2eb2038d2c94c8894364180cd3c25e", "lat": 38.911886333333335, "name": "1e2eb2038d2c94c8894364180cd3c25e", "lon": -77.06090366666666, "fusion_lon": 0.0}, {"is_reserved": 0, "type": "electric_scooter", "fusion_lat": 0.0, "is_disabled": 0, "rental_uris": {"ios": "https://dc.lft.to/lastmile_qr_scan", "android": "https://dc.lft.to/lastmile_qr_scan"}, "bike_id": "d519c10b59dbefe11e59297c5db3a3ba", "lat": 38.94717383333333, "name": "d519c10b59dbefe11e59297c5db3a3ba", "lon": -77.06807583333334, "fusion_lon": 0.0}, {"is_reserved": 0, "type": "electric_scooter", "fusion_lat": 0.0, "is_disabled": 0, "rental_uris": {"ios": "https://dc.lft.to/lastmile_qr_scan", "android": "https://dc.lft.to/lastmile_qr_scan"}, "bike_id": "f578feee1fe8aa3076abce920088f39b", "lat": 38.931077333333334, "name": "f578feee1fe8aa3076abce920088f39b", "lon": -77.0281285, "fusion_lon": 0.0}, {"is_reserved": 0, "type": "electric_scooter", "fusion_lat": 0.0, "is_disabled": 0, "rental_uris": {"ios": "https://dc.lft.to/lastmile_qr_scan", "android": "https://dc.lft.to/lastmile_qr_scan"}, "bike_id": "1e4490645e0cc8a5b0f62dd061b4a665", "lat": 38.89770683333333, "name": "1e4490645e0cc8a5b0f62dd061b4a665", "lon": -77.05019266666666, "fusion_lon": 0.0}, {"is_reserved": 0, "type": "electric_bike", "fusion_lat": 0.0, "is_disabled": 0, "rental_uris": {"ios": "https://dc.lft.to/lastmile_qr_scan", "android": "https://dc.lft.to/lastmile_qr_scan"}, "bike_id": "d1a62e2487d6386e421b1b7c53bb5c20", "lat": 38.998685, "name": "d1a62e2487d6386e421b1b7c53bb5c20", "lon": -77.00392033333334, "fusion_lon": 0.0}, {"is_reserved": 0, "type": "electric_scooter", "fusion_lat": 0.0, "is_disabled": 0, "rental_uris": {"ios": "https://dc.lft.to/lastmile_qr_scan", "android": "https://dc.lft.to/lastmile_qr_scan"}, "bike_id": "352d42bab567bde508a2d9febafc3352", "lat": 38.892211333333336, "name": "352d42bab567bde508a2d9febafc3352", "lon": -77.0254535, "fusion_lon": 0.0}, {"is_reserved": 0, "type": "electric_scooter", "fusion_lat": 0.0, "is_disabled": 0, "rental_uris": {"ios": "https://dc.lft.to/lastmile_qr_scan", "android": "https://dc.lft.to/lastmile_qr_scan"}, "bike_id": "d3b12ae034ffef70d7e677c836103672", "lat": 38.9078055, "name": "d3b12ae034ffef70d7e677c836103672", "lon": -77.07257716666666, "fusion_lon": 0.0}, {"is_reserved": 0, "type": "electric_scooter", "fusion_lat": 0.0, "is_disabled": 0, "rental_uris": {"ios": "https://dc.lft.to/lastmile_qr_scan", "android": "https://dc.lft.to/lastmile_qr_scan"}, "bike_id": "2fafcd1be5e5aba71e8268b1fa5bf4fa", "lat": 38.9249635, "name": "2fafcd1be5e5aba71e8268b1fa5bf4fa", "lon": -77.04334883333334, "fusion_lon": 0.0}, {"is_reserved": 0, "type": "electric_scooter", "fusion_lat": 0.0, "is_disabled": 0, "rental_uris": {"ios": "https://dc.lft.to/lastmile_qr_scan", "android": "https://dc.lft.to/lastmile_qr_scan"}, "bike_id": "5ca3260e0ab2e44eb80bc01cacd5e74b", "lat": 38.887096166666666, "name": "5ca3260e0ab2e44eb80bc01cacd5e74b", "lon": -76.98346433333333, "fusion_lon": 0.0}, {"is_reserved": 0, "type": "electric_scooter", "fusion_lat": 0.0, "is_disabled": 0, "rental_uris": {"ios": "https://dc.lft.to/lastmile_qr_scan", "android": "https://dc.lft.to/lastmile_qr_scan"}, "bike_id": "c033f9753c6e2cea93f4672ffb981ad2", "lat": 38.885443333333335, "name": "c033f9753c6e2cea93f4672ffb981ad2", "lon": -77.00070133333334, "fusion_lon": 0.0}, {"is_reserved": 0, "type": "electric_scooter", "fusion_lat": 0.0, "is_disabled": 0, "rental_uris": {"ios": "https://dc.lft.to/lastmile_qr_scan", "android": "https://dc.lft.to/lastmile_qr_scan"}, "bike_id": "78bbc1aabe34b5b7274c40a47e3532a9", "lat": 38.908699, "name": "78bbc1aabe34b5b7274c40a47e3532a9", "lon": -77.00331866666667, "fusion_lon": 0.0}, {"is_reserved": 0, "type": "electric_scooter", "fusion_lat": 0.0, "is_disabled": 0, "rental_uris": {"ios": "https://dc.lft.to/lastmile_qr_scan", "android": "https://dc.lft.to/lastmile_qr_scan"}, "bike_id": "c7c13bd3153adddb4e28fb808da325e4", "lat": 38.9288085, "name": "c7c13bd3153adddb4e28fb808da325e4", "lon": -77.03732183333334, "fusion_lon": 0.0}, {"is_reserved": 0, "type": "electric_scooter", "fusion_lat": 0.0, "is_disabled": 0, "rental_uris": {"ios": "https://dc.lft.to/lastmile_qr_scan", "android": "https://dc.lft.to/lastmile_qr_scan"}, "bike_id": "e24d58422b7f3d405b3e8f2e465623b5", "lat": 38.9217785, "name": "e24d58422b7f3d405b3e8f2e465623b5", "lon": -76.956395, "fusion_lon": 0.0}, {"is_reserved": 0, "type": "electric_scooter", "fusion_lat": 0.0, "is_disabled": 0, "rental_uris": {"ios": "https://dc.lft.to/lastmile_qr_scan", "android": "https://dc.lft.to/lastmile_qr_scan"}, "bike_id": "be44a785f513ecfc4a01d9e2627c3c1b", "lat": 38.89329733333334, "name": "be44a785f513ecfc4a01d9e2627c3c1b", "lon": -76.93927533333333, "fusion_lon": 0.0}, {"is_reserved": 0, "type": "electric_scooter", "fusion_lat": 0.0, "is_disabled": 0, "rental_uris": {"ios": "https://dc.lft.to/lastmile_qr_scan", "android": "https://dc.lft.to/lastmile_qr_scan"}, "bike_id": "7939e2492d4b3ea0109a9edde6aaa858", "lat": 38.908557333333334, "name": "7939e2492d4b3ea0109a9edde6aaa858", "lon": -77.04163683333333, "fusion_lon": 0.0}, {"is_reserved": 0, "type": "electric_scooter", "fusion_lat": 0.0, "is_disabled": 0, "rental_uris": {"ios": "https://dc.lft.to/lastmile_qr_scan", "android": "https://dc.lft.to/lastmile_qr_scan"}, "bike_id": "0b99dadee40f0efda45afefa843f7b6e", "lat": 38.88578783333333, "name": "0b99dadee40f0efda45afefa843f7b6e", "lon": -77.012239, "fusion_lon": 0.0}, {"is_reserved": 0, "type": "electric_scooter", "fusion_lat": 0.0, "is_disabled": 0, "rental_uris": {"ios": "https://dc.lft.to/lastmile_qr_scan", "android": "https://dc.lft.to/lastmile_qr_scan"}, "bike_id": "67e92b0ae7fa253a6ebe94b5a1590f9f", "lat": 38.95257683333333, "name": "67e92b0ae7fa253a6ebe94b5a1590f9f", "lon": -77.02074283333333, "fusion_lon": 0.0}, {"is_reserved": 0, "type": "electric_scooter", "fusion_lat": 0.0, "is_disabled": 0, "rental_uris": {"ios": "https://dc.lft.to/lastmile_qr_scan", "android": "https://dc.lft.to/lastmile_qr_scan"}, "bike_id": "b6b17eaec34b044631798eccd5f709c2", "lat": 38.92359016666666, "name": "b6b17eaec34b044631798eccd5f709c2", "lon": -77.05241766666667, "fusion_lon": 0.0}, {"is_reserved": 0, "type": "electric_bike", "fusion_lat": 0.0, "is_disabled": 0, "rental_uris": {"ios": "https://dc.lft.to/lastmile_qr_scan", "android": "https://dc.lft.to/lastmile_qr_scan"}, "bike_id": "963d30c68fbf34d08fe746086664c8ed", "lat": 38.95688, "name": "963d30c68fbf34d08fe746086664c8ed", "lon": -77.02222983333333, "fusion_lon": 0.0}, {"is_reserved": 0, "type": "electric_scooter", "fusion_lat": 0.0, "is_disabled": 0, "rental_uris": {"ios": "https://dc.lft.to/lastmile_qr_scan", "android": "https://dc.lft.to/lastmile_qr_scan"}, "bike_id": "011d2f0fb81dc9a393f74b69b0028696", "lat": 38.89896866666667, "name": "011d2f0fb81dc9a393f74b69b0028696", "lon": -77.022949, "fusion_lon": 0.0}, {"is_reserved": 0, "type": "electric_scooter", "fusion_lat": 0.0, "is_disabled": 0, "rental_uris": {"ios": "https://dc.lft.to/lastmile_qr_scan", "android": "https://dc.lft.to/lastmile_qr_scan"}, "bike_id": "a35023a790aeee35305e31b0bf5031cd", "lat": 38.91273566666667, "name": "a35023a790aeee35305e31b0bf5031cd", "lon": -77.0365795, "fusion_lon": 0.0}, {"is_reserved": 0, "type": "electric_scooter", "fusion_lat": 0.0, "is_disabled": 0, "rental_uris": {"ios": "https://dc.lft.to/lastmile_qr_scan", "android": "https://dc.lft.to/lastmile_qr_scan"}, "bike_id": "fa0d8519ad2d798f02a01b0c344000ba", "lat": 38.94317016666667, "name": "fa0d8519ad2d798f02a01b0c344000ba", "lon": -77.01306816666667, "fusion_lon": 0.0}, {"is_reserved": 0, "type": "electric_scooter", "fusion_lat": 0.0, "is_disabled": 0, "rental_uris": {"ios": "https://dc.lft.to/lastmile_qr_scan", "android": "https://dc.lft.to/lastmile_qr_scan"}, "bike_id": "a52e073cd3bda9e47d5d771b215d5bc4", "lat": 38.89986416666667, "name": "a52e073cd3bda9e47d5d771b215d5bc4", "lon": -77.02572333333333, "fusion_lon": 0.0}, {"is_reserved": 0, "type": "electric_scooter", "fusion_lat": 0.0, "is_disabled": 0, "rental_uris": {"ios": "https://dc.lft.to/lastmile_qr_scan", "android": "https://dc.lft.to/lastmile_qr_scan"}, "bike_id": "80c045ec1849dc8a4730ca5db58b9175", "lat": 38.93702016666667, "name": "80c045ec1849dc8a4730ca5db58b9175", "lon": -77.055995, "fusion_lon": 0.0}, {"is_reserved": 0, "type": "electric_scooter", "fusion_lat": 0.0, "is_disabled": 0, "rental_uris": {"ios": "https://dc.lft.to/lastmile_qr_scan", "android": "https://dc.lft.to/lastmile_qr_scan"}, "bike_id": "aaf3c2cfbb513936b3db6aba0a67613b", "lat": 38.915566166666665, "name": "aaf3c2cfbb513936b3db6aba0a67613b", "lon": -77.04013883333333, "fusion_lon": 0.0}, {"is_reserved": 0, "type": "electric_scooter", "fusion_lat": 0.0, "is_disabled": 0, "rental_uris": {"ios": "https://dc.lft.to/lastmile_qr_scan", "android": "https://dc.lft.to/lastmile_qr_scan"}, "bike_id": "10d1dbce765c92c0cef5a70a66a7752b", "lat": 38.912669666666666, "name": "10d1dbce765c92c0cef5a70a66a7752b", "lon": -77.01014766666667, "fusion_lon": 0.0}, {"is_reserved": 0, "type": "electric_bike", "fusion_lat": 0.0, "is_disabled": 0, "rental_uris": {"ios": "https://dc.lft.to/lastmile_qr_scan", "android": "https://dc.lft.to/lastmile_qr_scan"}, "bike_id": "f0d93561dfe0ed6ab77d154bc352aaa7", "lat": 38.84289583333333, "name": "f0d93561dfe0ed6ab77d154bc352aaa7", "lon": -77.06378816666667, "fusion_lon": 0.0}, {"is_reserved": 0, "type": "electric_scooter", "fusion_lat": 0.0, "is_disabled": 0, "rental_uris": {"ios": "https://dc.lft.to/lastmile_qr_scan", "android": "https://dc.lft.to/lastmile_qr_scan"}, "bike_id": "d3b0728da82d8dd148b0e9d51c01719a", "lat": 38.8946995, "name": "d3b0728da82d8dd148b0e9d51c01719a", "lon": -77.02736716666666, "fusion_lon": 0.0}, {"is_reserved": 0, "type": "electric_scooter", "fusion_lat": 0.0, "is_disabled": 0, "rental_uris": {"ios": "https://dc.lft.to/lastmile_qr_scan", "android": "https://dc.lft.to/lastmile_qr_scan"}, "bike_id": "f41170c4df89498f695136387ffe288b", "lat": 38.8782645, "name": "f41170c4df89498f695136387ffe288b", "lon": -77.00861266666666, "fusion_lon": 0.0}, {"is_reserved": 0, "type": "electric_bike", "fusion_lat": 0.0, "is_disabled": 0, "rental_uris": {"ios": "https://dc.lft.to/lastmile_qr_scan", "android": "https://dc.lft.to/lastmile_qr_scan"}, "bike_id": "f97ccb4102b17b721ca11e7c8ea37ecf", "lat": 38.95245533333333, "name": "f97ccb4102b17b721ca11e7c8ea37ecf", "lon": -77.09622383333334, "fusion_lon": 0.0}, {"is_reserved": 0, "type": "electric_scooter", "fusion_lat": 0.0, "is_disabled": 0, "rental_uris": {"ios": "https://dc.lft.to/lastmile_qr_scan", "android": "https://dc.lft.to/lastmile_qr_scan"}, "bike_id": "c7392b9a54a0bda25f4f175663ea720b", "lat": 38.92090316666667, "name": "c7392b9a54a0bda25f4f175663ea720b", "lon": -77.025169, "fusion_lon": 0.0}, {"is_reserved": 0, "type": "electric_scooter", "fusion_lat": 0.0, "is_disabled": 0, "rental_uris": {"ios": "https://dc.lft.to/lastmile_qr_scan", "android": "https://dc.lft.to/lastmile_qr_scan"}, "bike_id": "26b8de3801dcaa34bc1f0be85c6d688a", "lat": 38.92331133333333, "name": "26b8de3801dcaa34bc1f0be85c6d688a", "lon": -77.0377105, "fusion_lon": 0.0}, {"is_reserved": 0, "type": "electric_bike", "fusion_lat": 0.0, "is_disabled": 0, "rental_uris": {"ios": "https://dc.lft.to/lastmile_qr_scan", "android": "https://dc.lft.to/lastmile_qr_scan"}, "bike_id": "00be6c6263958e433336befe15379455", "lat": 38.929627333333336, "name": "00be6c6263958e433336befe15379455", "lon": -77.020179, "fusion_lon": 0.0}, {"is_reserved": 0, "type": "electric_scooter", "fusion_lat": 0.0, "is_disabled": 0, "rental_uris": {"ios": "https://dc.lft.to/lastmile_qr_scan", "android": "https://dc.lft.to/lastmile_qr_scan"}, "bike_id": "8bed18844a7888a8269d878f2f5623c5", "lat": 38.906826333333335, "name": "8bed18844a7888a8269d878f2f5623c5", "lon": -77.02716733333334, "fusion_lon": 0.0}, {"is_reserved": 0, "type": "electric_scooter", "fusion_lat": 0.0, "is_disabled": 0, "rental_uris": {"ios": "https://dc.lft.to/lastmile_qr_scan", "android": "https://dc.lft.to/lastmile_qr_scan"}, "bike_id": "16829ca06f8152ea49e040931eb979b8", "lat": 38.921040166666664, "name": "16829ca06f8152ea49e040931eb979b8", "lon": -76.99485633333333, "fusion_lon": 0.0}, {"is_reserved": 0, "type": "electric_bike", "fusion_lat": 0.0, "is_disabled": 0, "rental_uris": {"ios": "https://dc.lft.to/lastmile_qr_scan", "android": "https://dc.lft.to/lastmile_qr_scan"}, "bike_id": "4e33c32b5284f8ae0fff70b2ccaad66c", "lat": 38.971542, "name": "4e33c32b5284f8ae0fff70b2ccaad66c", "lon": -77.02721383333333, "fusion_lon": 0.0}, {"is_reserved": 0, "type": "electric_scooter", "fusion_lat": 0.0, "is_disabled": 0, "rental_uris": {"ios": "https://dc.lft.to/lastmile_qr_scan", "android": "https://dc.lft.to/lastmile_qr_scan"}, "bike_id": "a2fd1035128757f6454749989e8c3b89", "lat": 38.91827983333334, "name": "a2fd1035128757f6454749989e8c3b89", "lon": -77.027096, "fusion_lon": 0.0}, {"is_reserved": 0, "type": "electric_scooter", "fusion_lat": 0.0, "is_disabled": 0, "rental_uris": {"ios": "https://dc.lft.to/lastmile_qr_scan", "android": "https://dc.lft.to/lastmile_qr_scan"}, "bike_id": "f1401fa373d30fd42efdc38b43a554c2", "lat": 38.925062833333335, "name": "f1401fa373d30fd42efdc38b43a554c2", "lon": -77.051119, "fusion_lon": 0.0}, {"is_reserved": 0, "type": "electric_scooter", "fusion_lat": 0.0, "is_disabled": 0, "rental_uris": {"ios": "https://dc.lft.to/lastmile_qr_scan", "android": "https://dc.lft.to/lastmile_qr_scan"}, "bike_id": "0e14beef827aaf15cee61ed89abf9c83", "lat": 38.902756833333335, "name": "0e14beef827aaf15cee61ed89abf9c83", "lon": -77.04539183333333, "fusion_lon": 0.0}, {"is_reserved": 0, "type": "electric_scooter", "fusion_lat": 0.0, "is_disabled": 0, "rental_uris": {"ios": "https://dc.lft.to/lastmile_qr_scan", "android": "https://dc.lft.to/lastmile_qr_scan"}, "bike_id": "32845633b79fca17b52444864df980d3", "lat": 38.894291833333334, "name": "32845633b79fca17b52444864df980d3", "lon": -77.044738, "fusion_lon": 0.0}, {"is_reserved": 0, "type": "electric_scooter", "fusion_lat": 0.0, "is_disabled": 0, "rental_uris": {"ios": "https://dc.lft.to/lastmile_qr_scan", "android": "https://dc.lft.to/lastmile_qr_scan"}, "bike_id": "32d396178685bb0ad7b5f130cfc796ac", "lat": 38.92788866666667, "name": "32d396178685bb0ad7b5f130cfc796ac", "lon": -77.0315115, "fusion_lon": 0.0}, {"is_reserved": 0, "type": "electric_scooter", "fusion_lat": 0.0, "is_disabled": 0, "rental_uris": {"ios": "https://dc.lft.to/lastmile_qr_scan", "android": "https://dc.lft.to/lastmile_qr_scan"}, "bike_id": "3219f77feda7361d0c1a0bca0a7efbfb", "lat": 38.876784666666666, "name": "3219f77feda7361d0c1a0bca0a7efbfb", "lon": -77.00343783333334, "fusion_lon": 0.0}, {"is_reserved": 0, "type": "electric_scooter", "fusion_lat": 0.0, "is_disabled": 0, "rental_uris": {"ios": "https://dc.lft.to/lastmile_qr_scan", "android": "https://dc.lft.to/lastmile_qr_scan"}, "bike_id": "06a65d1546a7e449fd4fff1133969a10", "lat": 38.93189733333333, "name": "06a65d1546a7e449fd4fff1133969a10", "lon": -77.01992916666667, "fusion_lon": 0.0}, {"is_reserved": 0, "type": "electric_scooter", "fusion_lat": 0.0, "is_disabled": 0, "rental_uris": {"ios": "https://dc.lft.to/lastmile_qr_scan", "android": "https://dc.lft.to/lastmile_qr_scan"}, "bike_id": "1c4650cb87bf46f8848fa2c3328bc57a", "lat": 38.881786166666664, "name": "1c4650cb87bf46f8848fa2c3328bc57a", "lon": -77.01765166666667, "fusion_lon": 0.0}, {"is_reserved": 0, "type": "electric_scooter", "fusion_lat": 0.0, "is_disabled": 0, "rental_uris": {"ios": "https://dc.lft.to/lastmile_qr_scan", "android": "https://dc.lft.to/lastmile_qr_scan"}, "bike_id": "3301f09100652591a816540f073b675b", "lat": 38.88603966666667, "name": "3301f09100652591a816540f073b675b", "lon": -77.00331916666667, "fusion_lon": 0.0}, {"is_reserved": 0, "type": "electric_scooter", "fusion_lat": 0.0, "is_disabled": 0, "rental_uris": {"ios": "https://dc.lft.to/lastmile_qr_scan", "android": "https://dc.lft.to/lastmile_qr_scan"}, "bike_id": "0ba7ceee3c8660c43008b865a54fe255", "lat": 38.91047283333333, "name": "0ba7ceee3c8660c43008b865a54fe255", "lon": -77.04363916666667, "fusion_lon": 0.0}, {"is_reserved": 0, "type": "electric_scooter", "fusion_lat": 0.0, "is_disabled": 0, "rental_uris": {"ios": "https://dc.lft.to/lastmile_qr_scan", "android": "https://dc.lft.to/lastmile_qr_scan"}, "bike_id": "847187a6dbc8ed2cb3d63d59cc994788", "lat": 38.919145, "name": "847187a6dbc8ed2cb3d63d59cc994788", "lon": -77.0116935, "fusion_lon": 0.0}, {"is_reserved": 0, "type": "electric_scooter", "fusion_lat": 0.0, "is_disabled": 0, "rental_uris": {"ios": "https://dc.lft.to/lastmile_qr_scan", "android": "https://dc.lft.to/lastmile_qr_scan"}, "bike_id": "4eb278ea0cf1b677ff1ab4b241600175", "lat": 38.89853016666667, "name": "4eb278ea0cf1b677ff1ab4b241600175", "lon": -77.0467915, "fusion_lon": 0.0}, {"is_reserved": 0, "type": "electric_scooter", "fusion_lat": 0.0, "is_disabled": 0, "rental_uris": {"ios": "https://dc.lft.to/lastmile_qr_scan", "android": "https://dc.lft.to/lastmile_qr_scan"}, "bike_id": "541bcdba3781d8306601580a5b4d0580", "lat": 38.903903666666665, "name": "541bcdba3781d8306601580a5b4d0580", "lon": -76.989387, "fusion_lon": 0.0}, {"is_reserved": 0, "type": "electric_scooter", "fusion_lat": 0.0, "is_disabled": 0, "rental_uris": {"ios": "https://dc.lft.to/lastmile_qr_scan", "android": "https://dc.lft.to/lastmile_qr_scan"}, "bike_id": "76a7af5701aff33f1f5182f98ef2a97f", "lat": 38.91736916666667, "name": "76a7af5701aff33f1f5182f98ef2a97f", "lon": -77.068933, "fusion_lon": 0.0}, {"is_reserved": 0, "type": "electric_bike", "fusion_lat": 0.0, "is_disabled": 0, "rental_uris": {"ios": "https://dc.lft.to/lastmile_qr_scan", "android": "https://dc.lft.to/lastmile_qr_scan"}, "bike_id": "8670b0399d5fb4fbf88640a7371d87b8", "lat": 38.804804, "name": "8670b0399d5fb4fbf88640a7371d87b8", "lon": -76.99109233333333, "fusion_lon": 0.0}, {"is_reserved": 0, "type": "electric_scooter", "fusion_lat": 0.0, "is_disabled": 0, "rental_uris": {"ios": "https://dc.lft.to/lastmile_qr_scan", "android": "https://dc.lft.to/lastmile_qr_scan"}, "bike_id": "70013c44003314685b251e7e54e245a5", "lat": 38.9156485, "name": "70013c44003314685b251e7e54e245a5", "lon": -77.03170783333333, "fusion_lon": 0.0}, {"is_reserved": 0, "type": "electric_bike", "fusion_lat": 0.0, "is_disabled": 0, "rental_uris": {"ios": "https://dc.lft.to/lastmile_qr_scan", "android": "https://dc.lft.to/lastmile_qr_scan"}, "bike_id": "15cf11693c0820b9565d38eff8eec5a1", "lat": 38.9294775, "name": "15cf11693c0820b9565d38eff8eec5a1", "lon": -76.97562733333334, "fusion_lon": 0.0}, {"is_reserved": 0, "type": "electric_scooter", "fusion_lat": 0.0, "is_disabled": 0, "rental_uris": {"ios": "https://dc.lft.to/lastmile_qr_scan", "android": "https://dc.lft.to/lastmile_qr_scan"}, "bike_id": "b14533b3b9b8c02d2e57f2953383083b", "lat": 38.92623316666667, "name": "b14533b3b9b8c02d2e57f2953383083b", "lon": -77.05291933333334, "fusion_lon": 0.0}, {"is_reserved": 0, "type": "electric_scooter", "fusion_lat": 0.0, "is_disabled": 0, "rental_uris": {"ios": "https://dc.lft.to/lastmile_qr_scan", "android": "https://dc.lft.to/lastmile_qr_scan"}, "bike_id": "d85267c6691a77041da4a5b68987ecc3", "lat": 38.912611, "name": "d85267c6691a77041da4a5b68987ecc3", "lon": -77.038709, "fusion_lon": 0.0}, {"is_reserved": 0, "type": "electric_scooter", "fusion_lat": 0.0, "is_disabled": 0, "rental_uris": {"ios": "https://dc.lft.to/lastmile_qr_scan", "android": "https://dc.lft.to/lastmile_qr_scan"}, "bike_id": "72d95a56c723508cd9892d3a1bcc3ba8", "lat": 38.907794833333334, "name": "72d95a56c723508cd9892d3a1bcc3ba8", "lon": -77.04319533333333, "fusion_lon": 0.0}, {"is_reserved": 0, "type": "electric_scooter", "fusion_lat": 0.0, "is_disabled": 0, "rental_uris": {"ios": "https://dc.lft.to/lastmile_qr_scan", "android": "https://dc.lft.to/lastmile_qr_scan"}, "bike_id": "95cf5803c7410fcfeb2852023cf99068", "lat": 38.894133, "name": "95cf5803c7410fcfeb2852023cf99068", "lon": -77.01084183333333, "fusion_lon": 0.0}, {"is_reserved": 0, "type": "electric_bike", "fusion_lat": 0.0, "is_disabled": 0, "rental_uris": {"ios": "https://dc.lft.to/lastmile_qr_scan", "android": "https://dc.lft.to/lastmile_qr_scan"}, "bike_id": "f822f1efcbe01d10b7a67c0daa0e5bd7", "lat": 38.872628166666665, "name": "f822f1efcbe01d10b7a67c0daa0e5bd7", "lon": -76.9756225, "fusion_lon": 0.0}, {"is_reserved": 0, "type": "electric_scooter", "fusion_lat": 0.0, "is_disabled": 0, "rental_uris": {"ios": "https://dc.lft.to/lastmile_qr_scan", "android": "https://dc.lft.to/lastmile_qr_scan"}, "bike_id": "79c25286b798a7edda60eb3628fef4d2", "lat": 38.8784865, "name": "79c25286b798a7edda60eb3628fef4d2", "lon": -77.0055395, "fusion_lon": 0.0}, {"is_reserved": 0, "type": "electric_scooter", "fusion_lat": 0.0, "is_disabled": 0, "rental_uris": {"ios": "https://dc.lft.to/lastmile_qr_scan", "android": "https://dc.lft.to/lastmile_qr_scan"}, "bike_id": "b7ce8ed33c0b095013afa9a9ba70a941", "lat": 38.917348, "name": "b7ce8ed33c0b095013afa9a9ba70a941", "lon": -77.02605716666666, "fusion_lon": 0.0}, {"is_reserved": 0, "type": "electric_bike", "fusion_lat": 0.0, "is_disabled": 0, "rental_uris": {"ios": "https://dc.lft.to/lastmile_qr_scan", "android": "https://dc.lft.to/lastmile_qr_scan"}, "bike_id": "32ddc576634b5a7bd7f6b516e5118df1", "lat": 38.916703166666665, "name": "32ddc576634b5a7bd7f6b516e5118df1", "lon": -77.0005655, "fusion_lon": 0.0}, {"is_reserved": 0, "type": "electric_scooter", "fusion_lat": 0.0, "is_disabled": 0, "rental_uris": {"ios": "https://dc.lft.to/lastmile_qr_scan", "android": "https://dc.lft.to/lastmile_qr_scan"}, "bike_id": "5007688bd2acf8fabedac1feb3c96317", "lat": 38.92013933333333, "name": "5007688bd2acf8fabedac1feb3c96317", "lon": -77.0128635, "fusion_lon": 0.0}, {"is_reserved": 0, "type": "electric_scooter", "fusion_lat": 0.0, "is_disabled": 0, "rental_uris": {"ios": "https://dc.lft.to/lastmile_qr_scan", "android": "https://dc.lft.to/lastmile_qr_scan"}, "bike_id": "b807068d021aa7d6b1f64c33a62db2b5", "lat": 38.929981, "name": "b807068d021aa7d6b1f64c33a62db2b5", "lon": -77.02174933333333, "fusion_lon": 0.0}, {"is_reserved": 0, "type": "electric_scooter", "fusion_lat": 0.0, "is_disabled": 0, "rental_uris": {"ios": "https://dc.lft.to/lastmile_qr_scan", "android": "https://dc.lft.to/lastmile_qr_scan"}, "bike_id": "c56db8415b23681949178029df63c9dc", "lat": 38.93248083333334, "name": "c56db8415b23681949178029df63c9dc", "lon": -77.03274216666667, "fusion_lon": 0.0}, {"is_reserved": 0, "type": "electric_scooter", "fusion_lat": 0.0, "is_disabled": 0, "rental_uris": {"ios": "https://dc.lft.to/lastmile_qr_scan", "android": "https://dc.lft.to/lastmile_qr_scan"}, "bike_id": "1cfeabb66ae017f99549ec13a932a837", "lat": 38.922320166666665, "name": "1cfeabb66ae017f99549ec13a932a837", "lon": -77.03521766666667, "fusion_lon": 0.0}, {"is_reserved": 0, "type": "electric_scooter", "fusion_lat": 0.0, "is_disabled": 0, "rental_uris": {"ios": "https://dc.lft.to/lastmile_qr_scan", "android": "https://dc.lft.to/lastmile_qr_scan"}, "bike_id": "efd0f5980c35693cb741f395c3777534", "lat": 38.92368283333333, "name": "efd0f5980c35693cb741f395c3777534", "lon": -77.04086316666667, "fusion_lon": 0.0}, {"is_reserved": 0, "type": "electric_scooter", "fusion_lat": 0.0, "is_disabled": 0, "rental_uris": {"ios": "https://dc.lft.to/lastmile_qr_scan", "android": "https://dc.lft.to/lastmile_qr_scan"}, "bike_id": "d9a8fa6e801a25524ceeaea884c40d71", "lat": 38.9240785, "name": "d9a8fa6e801a25524ceeaea884c40d71", "lon": -77.03541116666666, "fusion_lon": 0.0}, {"is_reserved": 0, "type": "electric_scooter", "fusion_lat": 0.0, "is_disabled": 0, "rental_uris": {"ios": "https://dc.lft.to/lastmile_qr_scan", "android": "https://dc.lft.to/lastmile_qr_scan"}, "bike_id": "90cea92d78ccc0ffe179dd1255cafb6c", "lat": 38.924186666666664, "name": "90cea92d78ccc0ffe179dd1255cafb6c", "lon": -77.044809, "fusion_lon": 0.0}, {"is_reserved": 0, "type": "electric_scooter", "fusion_lat": 0.0, "is_disabled": 0, "rental_uris": {"ios": "https://dc.lft.to/lastmile_qr_scan", "android": "https://dc.lft.to/lastmile_qr_scan"}, "bike_id": "573552bbe97515b5dd630660ac3830ac", "lat": 38.916922166666666, "name": "573552bbe97515b5dd630660ac3830ac", "lon": -77.0259665, "fusion_lon": 0.0}, {"is_reserved": 0, "type": "electric_scooter", "fusion_lat": 0.0, "is_disabled": 0, "rental_uris": {"ios": "https://dc.lft.to/lastmile_qr_scan", "android": "https://dc.lft.to/lastmile_qr_scan"}, "bike_id": "ec4902987c7a0475efc532310a03b600", "lat": 38.883001166666666, "name": "ec4902987c7a0475efc532310a03b600", "lon": -76.93476016666666, "fusion_lon": 0.0}, {"is_reserved": 0, "type": "electric_bike", "fusion_lat": 0.0, "is_disabled": 0, "rental_uris": {"ios": "https://dc.lft.to/lastmile_qr_scan", "android": "https://dc.lft.to/lastmile_qr_scan"}, "bike_id": "c871739a4806e2eeea43fbedfc8fd76a", "lat": 38.85246183333334, "name": "c871739a4806e2eeea43fbedfc8fd76a", "lon": -77.1140625, "fusion_lon": 0.0}, {"is_reserved": 0, "type": "electric_scooter", "fusion_lat": 0.0, "is_disabled": 0, "rental_uris": {"ios": "https://dc.lft.to/lastmile_qr_scan", "android": "https://dc.lft.to/lastmile_qr_scan"}, "bike_id": "a1fda1200b0cdce33e1950e370972451", "lat": 38.910431333333335, "name": "a1fda1200b0cdce33e1950e370972451", "lon": -76.99815883333333, "fusion_lon": 0.0}, {"is_reserved": 0, "type": "electric_scooter", "fusion_lat": 0.0, "is_disabled": 0, "rental_uris": {"ios": "https://dc.lft.to/lastmile_qr_scan", "android": "https://dc.lft.to/lastmile_qr_scan"}, "bike_id": "1d21b9f6bcfe35bcf68773664516d043", "lat": 38.92418, "name": "1d21b9f6bcfe35bcf68773664516d043", "lon": -77.020113, "fusion_lon": 0.0}, {"is_reserved": 0, "type": "electric_scooter", "fusion_lat": 0.0, "is_disabled": 0, "rental_uris": {"ios": "https://dc.lft.to/lastmile_qr_scan", "android": "https://dc.lft.to/lastmile_qr_scan"}, "bike_id": "035dbb5092fdb35759a36128c59e27d4", "lat": 38.911375666666665, "name": "035dbb5092fdb35759a36128c59e27d4", "lon": -77.027994, "fusion_lon": 0.0}, {"is_reserved": 0, "type": "electric_bike", "fusion_lat": 0.0, "is_disabled": 0, "rental_uris": {"ios": "https://dc.lft.to/lastmile_qr_scan", "android": "https://dc.lft.to/lastmile_qr_scan"}, "bike_id": "d8b8e06296791087841d9a7029b87a9f", "lat": 39.006444, "name": "d8b8e06296791087841d9a7029b87a9f", "lon": -76.90018233333333, "fusion_lon": 0.0}, {"is_reserved": 0, "type": "electric_scooter", "fusion_lat": 0.0, "is_disabled": 0, "rental_uris": {"ios": "https://dc.lft.to/lastmile_qr_scan", "android": "https://dc.lft.to/lastmile_qr_scan"}, "bike_id": "0bd83e922393c89aa6680c09c3fce1bd", "lat": 38.952113, "name": "0bd83e922393c89aa6680c09c3fce1bd", "lon": -77.088649, "fusion_lon": 0.0}, {"is_reserved": 0, "type": "electric_scooter", "fusion_lat": 0.0, "is_disabled": 0, "rental_uris": {"ios": "https://dc.lft.to/lastmile_qr_scan", "android": "https://dc.lft.to/lastmile_qr_scan"}, "bike_id": "11b664039734019df4b5d6725f85e13d", "lat": 38.90525133333333, "name": "11b664039734019df4b5d6725f85e13d", "lon": -77.01719183333333, "fusion_lon": 0.0}, {"is_reserved": 0, "type": "electric_scooter", "fusion_lat": 0.0, "is_disabled": 0, "rental_uris": {"ios": "https://dc.lft.to/lastmile_qr_scan", "android": "https://dc.lft.to/lastmile_qr_scan"}, "bike_id": "2aa755bfebf018da138fdfb9abae9e50", "lat": 38.89739983333333, "name": "2aa755bfebf018da138fdfb9abae9e50", "lon": -77.051336, "fusion_lon": 0.0}, {"is_reserved": 0, "type": "electric_scooter", "fusion_lat": 0.0, "is_disabled": 0, "rental_uris": {"ios": "https://dc.lft.to/lastmile_qr_scan", "android": "https://dc.lft.to/lastmile_qr_scan"}, "bike_id": "0746c260ba02529d2ddfe82ed2b8a878", "lat": 38.901463166666666, "name": "0746c260ba02529d2ddfe82ed2b8a878", "lon": -76.9299025, "fusion_lon": 0.0}, {"is_reserved": 0, "type": "electric_scooter", "fusion_lat": 0.0, "is_disabled": 0, "rental_uris": {"ios": "https://dc.lft.to/lastmile_qr_scan", "android": "https://dc.lft.to/lastmile_qr_scan"}, "bike_id": "27dc75a29ecadda9f309c43c7a16b2d4", "lat": 38.880044166666664, "name": "27dc75a29ecadda9f309c43c7a16b2d4", "lon": -76.99835516666667, "fusion_lon": 0.0}, {"is_reserved": 0, "type": "electric_scooter", "fusion_lat": 0.0, "is_disabled": 0, "rental_uris": {"ios": "https://dc.lft.to/lastmile_qr_scan", "android": "https://dc.lft.to/lastmile_qr_scan"}, "bike_id": "78ae273dbcf7117d71d90f15bb34e2ee", "lat": 38.921481666666665, "name": "78ae273dbcf7117d71d90f15bb34e2ee", "lon": -77.03509966666667, "fusion_lon": 0.0}, {"is_reserved": 0, "type": "electric_scooter", "fusion_lat": 0.0, "is_disabled": 0, "rental_uris": {"ios": "https://dc.lft.to/lastmile_qr_scan", "android": "https://dc.lft.to/lastmile_qr_scan"}, "bike_id": "e3d4205afba6d0017de36e028d06d1fd", "lat": 38.842759, "name": "e3d4205afba6d0017de36e028d06d1fd", "lon": -76.98842033333334, "fusion_lon": 0.0}, {"is_reserved": 0, "type": "electric_scooter", "fusion_lat": 0.0, "is_disabled": 0, "rental_uris": {"ios": "https://dc.lft.to/lastmile_qr_scan", "android": "https://dc.lft.to/lastmile_qr_scan"}, "bike_id": "b66b57334101e393e7a3cc4cbfc66869", "lat": 38.923159, "name": "b66b57334101e393e7a3cc4cbfc66869", "lon": -77.02908633333334, "fusion_lon": 0.0}, {"is_reserved": 0, "type": "electric_scooter", "fusion_lat": 0.0, "is_disabled": 0, "rental_uris": {"ios": "https://dc.lft.to/lastmile_qr_scan", "android": "https://dc.lft.to/lastmile_qr_scan"}, "bike_id": "eac9287ab78854208c1b1d396a0b9bad", "lat": 38.923454666666665, "name": "eac9287ab78854208c1b1d396a0b9bad", "lon": -77.03518133333333, "fusion_lon": 0.0}, {"is_reserved": 0, "type": "electric_scooter", "fusion_lat": 0.0, "is_disabled": 0, "rental_uris": {"ios": "https://dc.lft.to/lastmile_qr_scan", "android": "https://dc.lft.to/lastmile_qr_scan"}, "bike_id": "9d311041b06d1c99b51ab935120a4052", "lat": 38.881044833333334, "name": "9d311041b06d1c99b51ab935120a4052", "lon": -77.026261, "fusion_lon": 0.0}, {"is_reserved": 0, "type": "electric_scooter", "fusion_lat": 0.0, "is_disabled": 0, "rental_uris": {"ios": "https://dc.lft.to/lastmile_qr_scan", "android": "https://dc.lft.to/lastmile_qr_scan"}, "bike_id": "1d7b0bbebb1a4c56c2e65d6875209421", "lat": 38.899853666666665, "name": "1d7b0bbebb1a4c56c2e65d6875209421", "lon": -77.04183616666667, "fusion_lon": 0.0}, {"is_reserved": 0, "type": "electric_scooter", "fusion_lat": 0.0, "is_disabled": 0, "rental_uris": {"ios": "https://dc.lft.to/lastmile_qr_scan", "android": "https://dc.lft.to/lastmile_qr_scan"}, "bike_id": "f146230fdc33b74bd56e948b91a694a8", "lat": 38.9037935, "name": "f146230fdc33b74bd56e948b91a694a8", "lon": -77.05146466666666, "fusion_lon": 0.0}, {"is_reserved": 0, "type": "electric_scooter", "fusion_lat": 0.0, "is_disabled": 0, "rental_uris": {"ios": "https://dc.lft.to/lastmile_qr_scan", "android": "https://dc.lft.to/lastmile_qr_scan"}, "bike_id": "6a8e6805ad9af0e073c05959d83c7a3e", "lat": 38.91055133333333, "name": "6a8e6805ad9af0e073c05959d83c7a3e", "lon": -76.997934, "fusion_lon": 0.0}, {"is_reserved": 0, "type": "electric_scooter", "fusion_lat": 0.0, "is_disabled": 0, "rental_uris": {"ios": "https://dc.lft.to/lastmile_qr_scan", "android": "https://dc.lft.to/lastmile_qr_scan"}, "bike_id": "224fe0466a8c84a6d22ddcd47633ad77", "lat": 38.918295666666666, "name": "224fe0466a8c84a6d22ddcd47633ad77", "lon": -77.04522733333333, "fusion_lon": 0.0}, {"is_reserved": 0, "type": "electric_scooter", "fusion_lat": 0.0, "is_disabled": 0, "rental_uris": {"ios": "https://dc.lft.to/lastmile_qr_scan", "android": "https://dc.lft.to/lastmile_qr_scan"}, "bike_id": "efe2607a6703c8df0e564de6ecc516aa", "lat": 38.91105016666667, "name": "efe2607a6703c8df0e564de6ecc516aa", "lon": -77.01099, "fusion_lon": 0.0}, {"is_reserved": 0, "type": "electric_scooter", "fusion_lat": 0.0, "is_disabled": 0, "rental_uris": {"ios": "https://dc.lft.to/lastmile_qr_scan", "android": "https://dc.lft.to/lastmile_qr_scan"}, "bike_id": "fb11e0602f8c71dacb7fb2aefdb2401a", "lat": 38.90247333333333, "name": "fb11e0602f8c71dacb7fb2aefdb2401a", "lon": -77.02665983333333, "fusion_lon": 0.0}, {"is_reserved": 0, "type": "electric_scooter", "fusion_lat": 0.0, "is_disabled": 0, "rental_uris": {"ios": "https://dc.lft.to/lastmile_qr_scan", "android": "https://dc.lft.to/lastmile_qr_scan"}, "bike_id": "179926735cafa9341fba13cbd25b3508", "lat": 38.923361166666666, "name": "179926735cafa9341fba13cbd25b3508", "lon": -77.00895033333333, "fusion_lon": 0.0}, {"is_reserved": 0, "type": "electric_scooter", "fusion_lat": 0.0, "is_disabled": 0, "rental_uris": {"ios": "https://dc.lft.to/lastmile_qr_scan", "android": "https://dc.lft.to/lastmile_qr_scan"}, "bike_id": "4145854d8437b48811557bd47982f0f9", "lat": 38.90879416666667, "name": "4145854d8437b48811557bd47982f0f9", "lon": -77.00285733333334, "fusion_lon": 0.0}, {"is_reserved": 0, "type": "electric_bike", "fusion_lat": 0.0, "is_disabled": 0, "rental_uris": {"ios": "https://dc.lft.to/lastmile_qr_scan", "android": "https://dc.lft.to/lastmile_qr_scan"}, "bike_id": "b76e09ac0bc003a871e530885781e9b9", "lat": 38.922832166666666, "name": "b76e09ac0bc003a871e530885781e9b9", "lon": -76.99770133333334, "fusion_lon": 0.0}, {"is_reserved": 0, "type": "electric_scooter", "fusion_lat": 0.0, "is_disabled": 0, "rental_uris": {"ios": "https://dc.lft.to/lastmile_qr_scan", "android": "https://dc.lft.to/lastmile_qr_scan"}, "bike_id": "f7f78ff4bc51cad419eec8aa5ab7a449", "lat": 38.918286, "name": "f7f78ff4bc51cad419eec8aa5ab7a449", "lon": -77.02710816666666, "fusion_lon": 0.0}, {"is_reserved": 0, "type": "electric_scooter", "fusion_lat": 0.0, "is_disabled": 0, "rental_uris": {"ios": "https://dc.lft.to/lastmile_qr_scan", "android": "https://dc.lft.to/lastmile_qr_scan"}, "bike_id": "9001d30478e36a82bc598a75e9e15899", "lat": 38.895308166666666, "name": "9001d30478e36a82bc598a75e9e15899", "lon": -76.97729416666667, "fusion_lon": 0.0}, {"is_reserved": 0, "type": "electric_scooter", "fusion_lat": 0.0, "is_disabled": 0, "rental_uris": {"ios": "https://dc.lft.to/lastmile_qr_scan", "android": "https://dc.lft.to/lastmile_qr_scan"}, "bike_id": "d8b8e807cc9216a3953b94010793c57e", "lat": 38.883733666666664, "name": "d8b8e807cc9216a3953b94010793c57e", "lon": -76.99517733333333, "fusion_lon": 0.0}, {"is_reserved": 0, "type": "electric_scooter", "fusion_lat": 0.0, "is_disabled": 0, "rental_uris": {"ios": "https://dc.lft.to/lastmile_qr_scan", "android": "https://dc.lft.to/lastmile_qr_scan"}, "bike_id": "f346ed055bd9219505ab19d831bc3df7", "lat": 38.93100366666667, "name": "f346ed055bd9219505ab19d831bc3df7", "lon": -77.02482, "fusion_lon": 0.0}, {"is_reserved": 0, "type": "electric_scooter", "fusion_lat": 0.0, "is_disabled": 0, "rental_uris": {"ios": "https://dc.lft.to/lastmile_qr_scan", "android": "https://dc.lft.to/lastmile_qr_scan"}, "bike_id": "29f6e85d63964b7d9c43862c74f84232", "lat": 38.899835833333334, "name": "29f6e85d63964b7d9c43862c74f84232", "lon": -77.041756, "fusion_lon": 0.0}, {"is_reserved": 0, "type": "electric_scooter", "fusion_lat": 0.0, "is_disabled": 0, "rental_uris": {"ios": "https://dc.lft.to/lastmile_qr_scan", "android": "https://dc.lft.to/lastmile_qr_scan"}, "bike_id": "aa2733b00f3538fc52c3608fedf14a8f", "lat": 38.9197035, "name": "aa2733b00f3538fc52c3608fedf14a8f", "lon": -77.0395595, "fusion_lon": 0.0}, {"is_reserved": 0, "type": "electric_scooter", "fusion_lat": 0.0, "is_disabled": 0, "rental_uris": {"ios": "https://dc.lft.to/lastmile_qr_scan", "android": "https://dc.lft.to/lastmile_qr_scan"}, "bike_id": "baf1075b124a86de3985d73f1c290029", "lat": 38.920022, "name": "baf1075b124a86de3985d73f1c290029", "lon": -77.041727, "fusion_lon": 0.0}, {"is_reserved": 0, "type": "electric_scooter", "fusion_lat": 0.0, "is_disabled": 0, "rental_uris": {"ios": "https://dc.lft.to/lastmile_qr_scan", "android": "https://dc.lft.to/lastmile_qr_scan"}, "bike_id": "96e055842a68f8cedf5e5e1a2eed4417", "lat": 38.892301333333336, "name": "96e055842a68f8cedf5e5e1a2eed4417", "lon": -77.02384983333333, "fusion_lon": 0.0}, {"is_reserved": 0, "type": "electric_scooter", "fusion_lat": 0.0, "is_disabled": 0, "rental_uris": {"ios": "https://dc.lft.to/lastmile_qr_scan", "android": "https://dc.lft.to/lastmile_qr_scan"}, "bike_id": "39a8e25ff64ed982b8c301be59dc7e17", "lat": 38.8854595, "name": "39a8e25ff64ed982b8c301be59dc7e17", "lon": -76.95450116666666, "fusion_lon": 0.0}, {"is_reserved": 0, "type": "electric_scooter", "fusion_lat": 0.0, "is_disabled": 0, "rental_uris": {"ios": "https://dc.lft.to/lastmile_qr_scan", "android": "https://dc.lft.to/lastmile_qr_scan"},