{"data": {"bikes": [{"rental_uris": {"android": "https://dc.lft.to/lastmile_qr_scan", "ios": "https://dc.lft.to/lastmile_qr_scan"}, "type": "electric_scooter", "lon": -77.00889583333333, "name": "8b83f7f0900b35c77e5144f3d6a65d73", "bike_id": "8b83f7f0900b35c77e5144f3d6a65d73", "fusion_lat": 0.0, "is_reserved": 0, "lat": 38.8732915, "fusion_lon": 0.0, "is_disabled": 0}, {"rental_uris": {"android": "https://dc.lft.to/lastmile_qr_scan", "ios": "https://dc.lft.to/lastmile_qr_scan"}, "type": "electric_scooter", "lon": -76.99251333333333, "name": "6933b9ea13cb573d3178e3a38775d595", "bike_id": "6933b9ea13cb573d3178e3a38775d595", "fusion_lat": 0.0, "is_reserved": 0, "lat": 38.89296733333333, "fusion_lon": 0.0, "is_disabled": 0}, {"rental_uris": {"android": "https://dc.lft.to/lastmile_qr_scan", "ios": "https://dc.lft.to/lastmile_qr_scan"}, "type": "electric_scooter", "lon": -77.04507233333334, "name": "2019dccb87665c885de97cb6ada08080", "bike_id": "2019dccb87665c885de97cb6ada08080", "fusion_lat": 0.0, "is_reserved": 0, "lat": 38.892222, "fusion_lon": 0.0, "is_disabled": 0}, {"rental_uris": {"android": "https://dc.lft.to/lastmile_qr_scan", "ios": "https://dc.lft.to/lastmile_qr_scan"}, "type": "electric_bike", "lon": -77.1250485, "name": "7c7b44d2dcc69f31be593c4f6a80c2b3", "bike_id": "7c7b44d2dcc69f31be593c4f6a80c2b3", "fusion_lat": 0.0, "is_reserved": 0, "lat": 39.0242305, "fusion_lon": 0.0, "is_disabled": 0}, {"rental_uris": {"android": "https://dc.lft.to/lastmile_qr_scan", "ios": "https://dc.lft.to/lastmile_qr_scan"}, "type": "electric_scooter", "lon": -77.00167716666667, "name": "505d13e940938071660e236476892171", "bike_id": "505d13e940938071660e236476892171", "fusion_lat": 0.0, "is_reserved": 0, "lat": 38.90517216666667, "fusion_lon": 0.0, "is_disabled": 0}, {"rental_uris": {"android": "https://dc.lft.to/lastmile_qr_scan", "ios": "https://dc.lft.to/lastmile_qr_scan"}, "type": "electric_scooter", "lon": -77.07159466666667, "name": "6e0c8198b0997202c86f661a6339d121", "bike_id": "6e0c8198b0997202c86f661a6339d121", "fusion_lat": 0.0, "is_reserved": 0, "lat": 38.9584205, "fusion_lon": 0.0, "is_disabled": 0}, {"rental_uris": {"android": "https://dc.lft.to/lastmile_qr_scan", "ios": "https://dc.lft.to/lastmile_qr_scan"}, "type": "electric_bike", "lon": -76.99565566666666, "name": "ffd3df71627b1a3d9d269bab627a7876", "bike_id": "ffd3df71627b1a3d9d269bab627a7876", "fusion_lat": 0.0, "is_reserved": 0, "lat": 39.007869, "fusion_lon": 0.0, "is_disabled": 0}, {"rental_uris": {"android": "https://dc.lft.to/lastmile_qr_scan", "ios": "https://dc.lft.to/lastmile_qr_scan"}, "type": "electric_bike", "lon": -77.09561333333333, "name": "6757b8a451a28546213133ec544dbd23", "bike_id": "6757b8a451a28546213133ec544dbd23", "fusion_lat": 0.0, "is_reserved": 0, "lat": 38.9170585, "fusion_lon": 0.0, "is_disabled": 0}, {"rental_uris": {"android": "https://dc.lft.to/lastmile_qr_scan", "ios": "https://dc.lft.to/lastmile_qr_scan"}, "type": "electric_scooter", "lon": -77.01808416666667, "name": "80f0b542e1d196b6f4faa866682cc2d7", "bike_id": "80f0b542e1d196b6f4faa866682cc2d7", "fusion_lat": 0.0, "is_reserved": 0, "lat": 38.921688333333336, "fusion_lon": 0.0, "is_disabled": 0}, {"rental_uris": {"android": "https://dc.lft.to/lastmile_qr_scan", "ios": "https://dc.lft.to/lastmile_qr_scan"}, "type": "electric_scooter", "lon": -77.0397775, "name": "e80804f4622558c9171d98cb4de28b32", "bike_id": "e80804f4622558c9171d98cb4de28b32", "fusion_lat": 0.0, "is_reserved": 0, "lat": 38.901226333333334, "fusion_lon": 0.0, "is_disabled": 0}, {"rental_uris": {"android": "https://dc.lft.to/lastmile_qr_scan", "ios": "https://dc.lft.to/lastmile_qr_scan"}, "type": "electric_scooter", "lon": -76.98712166666667, "name": "35f26d4daff90ae924fdc5dca9755412", "bike_id": "35f26d4daff90ae924fdc5dca9755412", "fusion_lat": 0.0, "is_reserved": 0, "lat": 38.867, "fusion_lon": 0.0, "is_disabled": 0}, {"rental_uris": {"android": "https://dc.lft.to/lastmile_qr_scan", "ios": "https://dc.lft.to/lastmile_qr_scan"}, "type": "electric_scooter", "lon": -76.99855, "name": "089ecf3d26c2ef4fc55c3cd0aaee9109", "bike_id": "089ecf3d26c2ef4fc55c3cd0aaee9109", "fusion_lat": 0.0, "is_reserved": 0, "lat": 38.90029233333333, "fusion_lon": 0.0, "is_disabled": 0}, {"rental_uris": {"android": "https://dc.lft.to/lastmile_qr_scan", "ios": "https://dc.lft.to/lastmile_qr_scan"}, "type": "electric_scooter", "lon": -77.0435665, "name": "df661e9961106556ef0647ee7eb93c4b", "bike_id": "df661e9961106556ef0647ee7eb93c4b", "fusion_lat": 0.0, "is_reserved": 0, "lat": 38.905376333333336, "fusion_lon": 0.0, "is_disabled": 0}, {"rental_uris": {"android": "https://dc.lft.to/lastmile_qr_scan", "ios": "https://dc.lft.to/lastmile_qr_scan"}, "type": "electric_scooter", "lon": -77.02707283333334, "name": "727e33451fce9465047a95c1f6449a03", "bike_id": "727e33451fce9465047a95c1f6449a03", "fusion_lat": 0.0, "is_reserved": 0, "lat": 38.950026666666666, "fusion_lon": 0.0, "is_disabled": 0}, {"rental_uris": {"android": "https://dc.lft.to/lastmile_qr_scan", "ios": "https://dc.lft.to/lastmile_qr_scan"}, "type": "electric_scooter", "lon": -76.95215266666666, "name": "f5823186622ceaebf47fc9d0e9955c9e", "bike_id": "f5823186622ceaebf47fc9d0e9955c9e", "fusion_lat": 0.0, "is_reserved": 0, "lat": 38.886785, "fusion_lon": 0.0, "is_disabled": 0}, {"rental_uris": {"android": "https://dc.lft.to/lastmile_qr_scan", "ios": "https://dc.lft.to/lastmile_qr_scan"}, "type": "electric_bike", "lon": -77.040765, "name": "62a18c79e06816af01f98359b4d91662", "bike_id": "62a18c79e06816af01f98359b4d91662", "fusion_lat": 0.0, "is_reserved": 0, "lat": 38.81237383333333, "fusion_lon": 0.0, "is_disabled": 0}, {"rental_uris": {"android": "https://dc.lft.to/lastmile_qr_scan", "ios": "https://dc.lft.to/lastmile_qr_scan"}, "type": "electric_scooter", "lon": -77.02986, "name": "73d9b1c2e6ccfaf6e1800ea7121549da", "bike_id": "73d9b1c2e6ccfaf6e1800ea7121549da", "fusion_lat": 0.0, "is_reserved": 0, "lat": 38.95634616666667, "fusion_lon": 0.0, "is_disabled": 0}, {"rental_uris": {"android": "https://dc.lft.to/lastmile_qr_scan", "ios": "https://dc.lft.to/lastmile_qr_scan"}, "type": "electric_scooter", "lon": -77.02589566666667, "name": "0699786232d2cbe63f55b1a9b82b65f7", "bike_id": "0699786232d2cbe63f55b1a9b82b65f7", "fusion_lat": 0.0, "is_reserved": 0, "lat": 38.90501583333333, "fusion_lon": 0.0, "is_disabled": 0}, {"rental_uris": {"android": "https://dc.lft.to/lastmile_qr_scan", "ios": "https://dc.lft.to/lastmile_qr_scan"}, "type": "electric_scooter", "lon": -77.03333916666666, "name": "da597f0d3c22f9c3dbaa746b4fac59ea", "bike_id": "da597f0d3c22f9c3dbaa746b4fac59ea", "fusion_lat": 0.0, "is_reserved": 0, "lat": 38.92877633333333, "fusion_lon": 0.0, "is_disabled": 0}, {"rental_uris": {"android": "https://dc.lft.to/lastmile_qr_scan", "ios": "https://dc.lft.to/lastmile_qr_scan"}, "type": "electric_scooter", "lon": -77.02203066666667, "name": "b7d1f9bef515ff2256f1a589054a4f61", "bike_id": "b7d1f9bef515ff2256f1a589054a4f61", "fusion_lat": 0.0, "is_reserved": 0, "lat": 38.9210955, "fusion_lon": 0.0, "is_disabled": 0}, {"rental_uris": {"android": "https://dc.lft.to/lastmile_qr_scan", "ios": "https://dc.lft.to/lastmile_qr_scan"}, "type": "electric_scooter", "lon": -77.02715266666667, "name": "f797e20a63b832118cbe8c5cc17fc3cd", "bike_id": "f797e20a63b832118cbe8c5cc17fc3cd", "fusion_lat": 0.0, "is_reserved": 0, "lat": 38.91544483333333, "fusion_lon": 0.0, "is_disabled": 0}, {"rental_uris": {"android": "https://dc.lft.to/lastmile_qr_scan", "ios": "https://dc.lft.to/lastmile_qr_scan"}, "type": "electric_scooter", "lon": -77.02401216666667, "name": "39aeb240d42a7843b8aee3ce55a0d23c", "bike_id": "39aeb240d42a7843b8aee3ce55a0d23c", "fusion_lat": 0.0, "is_reserved": 0, "lat": 38.91690833333333, "fusion_lon": 0.0, "is_disabled": 0}, {"rental_uris": {"android": "https://dc.lft.to/lastmile_qr_scan", "ios": "https://dc.lft.to/lastmile_qr_scan"}, "type": "electric_bike", "lon": -76.93202383333333, "name": "41d8b8d276fcedf119f6b6b8be8ca4bc", "bike_id": "41d8b8d276fcedf119f6b6b8be8ca4bc", "fusion_lat": 0.0, "is_reserved": 0, "lat": 38.87233066666667, "fusion_lon": 0.0, "is_disabled": 0}, {"rental_uris": {"android": "https://dc.lft.to/lastmile_qr_scan", "ios": "https://dc.lft.to/lastmile_qr_scan"}, "type": "electric_bike", "lon": -77.09965433333333, "name": "98f58bcddde3ca19318a51c9f8ea44cd", "bike_id": "98f58bcddde3ca19318a51c9f8ea44cd", "fusion_lat": 0.0, "is_reserved": 0, "lat": 38.857954166666666, "fusion_lon": 0.0, "is_disabled": 0}, {"rental_uris": {"android": "https://dc.lft.to/lastmile_qr_scan", "ios": "https://dc.lft.to/lastmile_qr_scan"}, "type": "electric_scooter", "lon": -77.03504583333333, "name": "5465cc7c4c25b095d2ce1a31ccc2a6e4", "bike_id": "5465cc7c4c25b095d2ce1a31ccc2a6e4", "fusion_lat": 0.0, "is_reserved": 0, "lat": 38.918781833333334, "fusion_lon": 0.0, "is_disabled": 0}, {"rental_uris": {"android": "https://dc.lft.to/lastmile_qr_scan", "ios": "https://dc.lft.to/lastmile_qr_scan"}, "type": "electric_scooter", "lon": -77.0260615, "name": "2bf0594b323268d5b409d119fde1aa5a", "bike_id": "2bf0594b323268d5b409d119fde1aa5a", "fusion_lat": 0.0, "is_reserved": 0, "lat": 38.916202, "fusion_lon": 0.0, "is_disabled": 0}, {"rental_uris": {"android": "https://dc.lft.to/lastmile_qr_scan", "ios": "https://dc.lft.to/lastmile_qr_scan"}, "type": "electric_scooter", "lon": -77.03287766666666, "name": "9b59def33da3f2b3b4ed793f132d66a0", "bike_id": "9b59def33da3f2b3b4ed793f132d66a0", "fusion_lat": 0.0, "is_reserved": 0, "lat": 38.956526833333335, "fusion_lon": 0.0, "is_disabled": 0}, {"rental_uris": {"android": "https://dc.lft.to/lastmile_qr_scan", "ios": "https://dc.lft.to/lastmile_qr_scan"}, "type": "electric_scooter", "lon": -77.04338533333333, "name": "44a87c35f5cda72a9cd80c2a461e06c7", "bike_id": "44a87c35f5cda72a9cd80c2a461e06c7", "fusion_lat": 0.0, "is_reserved": 0, "lat": 38.90512483333333, "fusion_lon": 0.0, "is_disabled": 0}, {"rental_uris": {"android": "https://dc.lft.to/lastmile_qr_scan", "ios": "https://dc.lft.to/lastmile_qr_scan"}, "type": "electric_scooter", "lon": -77.02227266666667, "name": "c249d9182dc84d1b7f7c359ac757158f", "bike_id": "c249d9182dc84d1b7f7c359ac757158f", "fusion_lat": 0.0, "is_reserved": 0, "lat": 38.89505916666667, "fusion_lon": 0.0, "is_disabled": 0}, {"rental_uris": {"android": "https://dc.lft.to/lastmile_qr_scan", "ios": "https://dc.lft.to/lastmile_qr_scan"}, "type": "electric_scooter", "lon": -77.0344025, "name": "3405313ff901e4881e9c610e1177756a", "bike_id": "3405313ff901e4881e9c610e1177756a", "fusion_lat": 0.0, "is_reserved": 0, "lat": 38.92053283333333, "fusion_lon": 0.0, "is_disabled": 0}, {"rental_uris": {"android": "https://dc.lft.to/lastmile_qr_scan", "ios": "https://dc.lft.to/lastmile_qr_scan"}, "type": "electric_scooter", "lon": -77.0262185, "name": "4b6c934d053e09fac835e68127e5b50c", "bike_id": "4b6c934d053e09fac835e68127e5b50c", "fusion_lat": 0.0, "is_reserved": 0, "lat": 38.887417166666665, "fusion_lon": 0.0, "is_disabled": 0}, {"rental_uris": {"android": "https://dc.lft.to/lastmile_qr_scan", "ios": "https://dc.lft.to/lastmile_qr_scan"}, "type": "electric_bike", "lon": -76.95808366666667, "name": "a5804228daa8e517af2397e0da5327f6", "bike_id": "a5804228daa8e517af2397e0da5327f6", "fusion_lat": 0.0, "is_reserved": 0, "lat": 38.98050766666667, "fusion_lon": 0.0, "is_disabled": 0}, {"rental_uris": {"android": "https://dc.lft.to/lastmile_qr_scan", "ios": "https://dc.lft.to/lastmile_qr_scan"}, "type": "electric_scooter", "lon": -76.9936235, "name": "5147545d562de04a315d4738729c39c4", "bike_id": "5147545d562de04a315d4738729c39c4", "fusion_lat": 0.0, "is_reserved": 0, "lat": 38.928417, "fusion_lon": 0.0, "is_disabled": 0}, {"rental_uris": {"android": "https://dc.lft.to/lastmile_qr_scan", "ios": "https://dc.lft.to/lastmile_qr_scan"}, "type": "electric_scooter", "lon": -77.0588385, "name": "6c29ec97719508d48a1f4b6b0c34711b", "bike_id": "6c29ec97719508d48a1f4b6b0c34711b", "fusion_lat": 0.0, "is_reserved": 0, "lat": 38.936377666666665, "fusion_lon": 0.0, "is_disabled": 0}, {"rental_uris": {"android": "https://dc.lft.to/lastmile_qr_scan", "ios": "https://dc.lft.to/lastmile_qr_scan"}, "type": "electric_scooter", "lon": -76.99404233333334, "name": "0afed6720ee8803d2838cb61687d2a2c", "bike_id": "0afed6720ee8803d2838cb61687d2a2c", "fusion_lat": 0.0, "is_reserved": 0, "lat": 38.9226575, "fusion_lon": 0.0, "is_disabled": 0}, {"rental_uris": {"android": "https://dc.lft.to/lastmile_qr_scan", "ios": "https://dc.lft.to/lastmile_qr_scan"}, "type": "electric_scooter", "lon": -76.99003366666666, "name": "8ee1b743ed7aa5705cd1320f220e420c", "bike_id": "8ee1b743ed7aa5705cd1320f220e420c", "fusion_lat": 0.0, "is_reserved": 0, "lat": 38.86508583333333, "fusion_lon": 0.0, "is_disabled": 0}, {"rental_uris": {"android": "https://dc.lft.to/lastmile_qr_scan", "ios": "https://dc.lft.to/lastmile_qr_scan"}, "type": "electric_scooter", "lon": -76.990731, "name": "b2ccc41cb2411052c30316dea55178bd", "bike_id": "b2ccc41cb2411052c30316dea55178bd", "fusion_lat": 0.0, "is_reserved": 0, "lat": 38.86053316666667, "fusion_lon": 0.0, "is_disabled": 0}, {"rental_uris": {"android": "https://dc.lft.to/lastmile_qr_scan", "ios": "https://dc.lft.to/lastmile_qr_scan"}, "type": "electric_scooter", "lon": -77.02282133333334, "name": "951207c4648a435f5dcc5ece354cb03a", "bike_id": "951207c4648a435f5dcc5ece354cb03a", "fusion_lat": 0.0, "is_reserved": 0, "lat": 38.90961216666667, "fusion_lon": 0.0, "is_disabled": 0}, {"rental_uris": {"android": "https://dc.lft.to/lastmile_qr_scan", "ios": "https://dc.lft.to/lastmile_qr_scan"}, "type": "electric_scooter", "lon": -77.04343533333333, "name": "301da222fc02855e18b9b63e6912706f", "bike_id": "301da222fc02855e18b9b63e6912706f", "fusion_lat": 0.0, "is_reserved": 0, "lat": 38.908586, "fusion_lon": 0.0, "is_disabled": 0}, {"rental_uris": {"android": "https://dc.lft.to/lastmile_qr_scan", "ios": "https://dc.lft.to/lastmile_qr_scan"}, "type": "electric_scooter", "lon": -76.99936366666667, "name": "323914cc6224ec5dcf985edb0c7632bf", "bike_id": "323914cc6224ec5dcf985edb0c7632bf", "fusion_lat": 0.0, "is_reserved": 0, "lat": 38.843203, "fusion_lon": 0.0, "is_disabled": 0}, {"rental_uris": {"android": "https://dc.lft.to/lastmile_qr_scan", "ios": "https://dc.lft.to/lastmile_qr_scan"}, "type": "electric_scooter", "lon": -77.01988066666667, "name": "814a2df0835d673b3f1df016eeea1541", "bike_id": "814a2df0835d673b3f1df016eeea1541", "fusion_lat": 0.0, "is_reserved": 0, "lat": 38.96641283333334, "fusion_lon": 0.0, "is_disabled": 0}, {"rental_uris": {"android": "https://dc.lft.to/lastmile_qr_scan", "ios": "https://dc.lft.to/lastmile_qr_scan"}, "type": "electric_scooter", "lon": -77.04653833333333, "name": "107aa61c4cd74000cad3e0e18d052b02", "bike_id": "107aa61c4cd74000cad3e0e18d052b02", "fusion_lat": 0.0, "is_reserved": 0, "lat": 38.90007816666667, "fusion_lon": 0.0, "is_disabled": 0}, {"rental_uris": {"android": "https://dc.lft.to/lastmile_qr_scan", "ios": "https://dc.lft.to/lastmile_qr_scan"}, "type": "electric_scooter", "lon": -77.04500333333333, "name": "543d46fa048aa6727be63bd053625a15", "bike_id": "543d46fa048aa6727be63bd053625a15", "fusion_lat": 0.0, "is_reserved": 0, "lat": 38.918403166666664, "fusion_lon": 0.0, "is_disabled": 0}, {"rental_uris": {"android": "https://dc.lft.to/lastmile_qr_scan", "ios": "https://dc.lft.to/lastmile_qr_scan"}, "type": "electric_scooter", "lon": -77.0713945, "name": "742f037f34e7652f5b06d2c8ff09260a", "bike_id": "742f037f34e7652f5b06d2c8ff09260a", "fusion_lat": 0.0, "is_reserved": 0, "lat": 38.93828466666667, "fusion_lon": 0.0, "is_disabled": 0}, {"rental_uris": {"android": "https://dc.lft.to/lastmile_qr_scan", "ios": "https://dc.lft.to/lastmile_qr_scan"}, "type": "electric_scooter", "lon": -77.005878, "name": "66bd8d537bf230f572932fae7bfa0949", "bike_id": "66bd8d537bf230f572932fae7bfa0949", "fusion_lat": 0.0, "is_reserved": 0, "lat": 38.91566233333333, "fusion_lon": 0.0, "is_disabled": 0}, {"rental_uris": {"android": "https://dc.lft.to/lastmile_qr_scan", "ios": "https://dc.lft.to/lastmile_qr_scan"}, "type": "electric_scooter", "lon": -77.02691, "name": "47c476cf34f28eadd84178d3143036b6", "bike_id": "47c476cf34f28eadd84178d3143036b6", "fusion_lat": 0.0, "is_reserved": 0, "lat": 38.9068485, "fusion_lon": 0.0, "is_disabled": 0}, {"rental_uris": {"android": "https://dc.lft.to/lastmile_qr_scan", "ios": "https://dc.lft.to/lastmile_qr_scan"}, "type": "electric_scooter", "lon": -76.938355, "name": "7e75bb74f397bda06ccb9c33a345bbe6", "bike_id": "7e75bb74f397bda06ccb9c33a345bbe6", "fusion_lat": 0.0, "is_reserved": 0, "lat": 38.890154833333334, "fusion_lon": 0.0, "is_disabled": 0}, {"rental_uris": {"android": "https://dc.lft.to/lastmile_qr_scan", "ios": "https://dc.lft.to/lastmile_qr_scan"}, "type": "electric_scooter", "lon": -77.02345666666666, "name": "b677bcd19137a1842d8e5621b4897408", "bike_id": "b677bcd19137a1842d8e5621b4897408", "fusion_lat": 0.0, "is_reserved": 0, "lat": 38.9298925, "fusion_lon": 0.0, "is_disabled": 0}, {"rental_uris": {"android": "https://dc.lft.to/lastmile_qr_scan", "ios": "https://dc.lft.to/lastmile_qr_scan"}, "type": "electric_scooter", "lon": -77.02401633333334, "name": "38c1a73b2086394598b113b602dbd371", "bike_id": "38c1a73b2086394598b113b602dbd371", "fusion_lat": 0.0, "is_reserved": 0, "lat": 38.920860833333336, "fusion_lon": 0.0, "is_disabled": 0}, {"rental_uris": {"android": "https://dc.lft.to/lastmile_qr_scan", "ios": "https://dc.lft.to/lastmile_qr_scan"}, "type": "electric_scooter", "lon": -77.042945, "name": "b1772d3bec758005ef0b59016cf06d64", "bike_id": "b1772d3bec758005ef0b59016cf06d64", "fusion_lat": 0.0, "is_reserved": 0, "lat": 38.92664, "fusion_lon": 0.0, "is_disabled": 0}, {"rental_uris": {"android": "https://dc.lft.to/lastmile_qr_scan", "ios": "https://dc.lft.to/lastmile_qr_scan"}, "type": "electric_bike", "lon": -77.124996, "name": "01f8d896f2bbe93151bcc437f53903fd", "bike_id": "01f8d896f2bbe93151bcc437f53903fd", "fusion_lat": 0.0, "is_reserved": 0, "lat": 39.024186, "fusion_lon": 0.0, "is_disabled": 0}, {"rental_uris": {"android": "https://dc.lft.to/lastmile_qr_scan", "ios": "https://dc.lft.to/lastmile_qr_scan"}, "type": "electric_scooter", "lon": -77.07859566666667, "name": "9e0bb4aeba4f97f2a184a271727fb155", "bike_id": "9e0bb4aeba4f97f2a184a271727fb155", "fusion_lat": 0.0, "is_reserved": 0, "lat": 38.91914216666667, "fusion_lon": 0.0, "is_disabled": 0}, {"rental_uris": {"android": "https://dc.lft.to/lastmile_qr_scan", "ios": "https://dc.lft.to/lastmile_qr_scan"}, "type": "electric_scooter", "lon": -76.98336, "name": "0408c0082e917e6b75144d2e0add00c0", "bike_id": "0408c0082e917e6b75144d2e0add00c0", "fusion_lat": 0.0, "is_reserved": 0, "lat": 38.864847833333336, "fusion_lon": 0.0, "is_disabled": 0}, {"rental_uris": {"android": "https://dc.lft.to/lastmile_qr_scan", "ios": "https://dc.lft.to/lastmile_qr_scan"}, "type": "electric_scooter", "lon": -77.02342733333333, "name": "fbdc8d8b6edec60eaf3598a48c8250f6", "bike_id": "fbdc8d8b6edec60eaf3598a48c8250f6", "fusion_lat": 0.0, "is_reserved": 0, "lat": 38.96209233333333, "fusion_lon": 0.0, "is_disabled": 0}, {"rental_uris": {"android": "https://dc.lft.to/lastmile_qr_scan", "ios": "https://dc.lft.to/lastmile_qr_scan"}, "type": "electric_scooter", "lon": -77.03516916666666, "name": "19cce9b8384b70649dcdb376a052e2ae", "bike_id": "19cce9b8384b70649dcdb376a052e2ae", "fusion_lat": 0.0, "is_reserved": 0, "lat": 38.9038765, "fusion_lon": 0.0, "is_disabled": 0}, {"rental_uris": {"android": "https://dc.lft.to/lastmile_qr_scan", "ios": "https://dc.lft.to/lastmile_qr_scan"}, "type": "electric_scooter", "lon": -77.043536, "name": "4f61a3f9d3f2707421a9abba37571272", "bike_id": "4f61a3f9d3f2707421a9abba37571272", "fusion_lat": 0.0, "is_reserved": 0, "lat": 38.92135366666667, "fusion_lon": 0.0, "is_disabled": 0}, {"rental_uris": {"android": "https://dc.lft.to/lastmile_qr_scan", "ios": "https://dc.lft.to/lastmile_qr_scan"}, "type": "electric_scooter", "lon": -77.02957333333333, "name": "307b02b5eeb4e3a471a88b09babe9641", "bike_id": "307b02b5eeb4e3a471a88b09babe9641", "fusion_lat": 0.0, "is_reserved": 0, "lat": 38.9231985, "fusion_lon": 0.0, "is_disabled": 0}, {"rental_uris": {"android": "https://dc.lft.to/lastmile_qr_scan", "ios": "https://dc.lft.to/lastmile_qr_scan"}, "type": "electric_bike", "lon": -77.00670683333334, "name": "adff40f1128d159d769170106e013603", "bike_id": "adff40f1128d159d769170106e013603", "fusion_lat": 0.0, "is_reserved": 0, "lat": 38.945096166666666, "fusion_lon": 0.0, "is_disabled": 0}, {"rental_uris": {"android": "https://dc.lft.to/lastmile_qr_scan", "ios": "https://dc.lft.to/lastmile_qr_scan"}, "type": "electric_scooter", "lon": -77.04849766666666, "name": "8f0f685ff67615094f28570b3c22c397", "bike_id": "8f0f685ff67615094f28570b3c22c397", "fusion_lat": 0.0, "is_reserved": 0, "lat": 38.90488366666666, "fusion_lon": 0.0, "is_disabled": 0}, {"rental_uris": {"android": "https://dc.lft.to/lastmile_qr_scan", "ios": "https://dc.lft.to/lastmile_qr_scan"}, "type": "electric_scooter", "lon": -77.02107216666667, "name": "870c4f1ca2df4ed23719070528b42732", "bike_id": "870c4f1ca2df4ed23719070528b42732", "fusion_lat": 0.0, "is_reserved": 0, "lat": 38.94099933333333, "fusion_lon": 0.0, "is_disabled": 0}, {"rental_uris": {"android": "https://dc.lft.to/lastmile_qr_scan", "ios": "https://dc.lft.to/lastmile_qr_scan"}, "type": "electric_scooter", "lon": -77.02092316666666, "name": "9e427122ee634b6fcdf1304a6cc3b117", "bike_id": "9e427122ee634b6fcdf1304a6cc3b117", "fusion_lat": 0.0, "is_reserved": 0, "lat": 38.92912833333333, "fusion_lon": 0.0, "is_disabled": 0}, {"rental_uris": {"android": "https://dc.lft.to/lastmile_qr_scan", "ios": "https://dc.lft.to/lastmile_qr_scan"}, "type": "electric_scooter", "lon": -77.02693383333333, "name": "f0eac3beb14f717ef5f145291708f49c", "bike_id": "f0eac3beb14f717ef5f145291708f49c", "fusion_lat": 0.0, "is_reserved": 0, "lat": 38.90847383333333, "fusion_lon": 0.0, "is_disabled": 0}, {"rental_uris": {"android": "https://dc.lft.to/lastmile_qr_scan", "ios": "https://dc.lft.to/lastmile_qr_scan"}, "type": "electric_scooter", "lon": -77.04042433333333, "name": "b3f796793511436f526814ad0f51be82", "bike_id": "b3f796793511436f526814ad0f51be82", "fusion_lat": 0.0, "is_reserved": 0, "lat": 38.905504, "fusion_lon": 0.0, "is_disabled": 0}, {"rental_uris": {"android": "https://dc.lft.to/lastmile_qr_scan", "ios": "https://dc.lft.to/lastmile_qr_scan"}, "type": "electric_scooter", "lon": -77.06516283333333, "name": "261aea8c52e10642ce1b99de7143cc93", "bike_id": "261aea8c52e10642ce1b99de7143cc93", "fusion_lat": 0.0, "is_reserved": 0, "lat": 38.9052505, "fusion_lon": 0.0, "is_disabled": 0}, {"rental_uris": {"android": "https://dc.lft.to/lastmile_qr_scan", "ios": "https://dc.lft.to/lastmile_qr_scan"}, "type": "electric_scooter", "lon": -76.99951933333334, "name": "797d1598852d01775612743572f12023", "bike_id": "797d1598852d01775612743572f12023", "fusion_lat": 0.0, "is_reserved": 0, "lat": 38.842935, "fusion_lon": 0.0, "is_disabled": 0}, {"rental_uris": {"android": "https://dc.lft.to/lastmile_qr_scan", "ios": "https://dc.lft.to/lastmile_qr_scan"}, "type": "electric_scooter", "lon": -77.01853783333334, "name": "a521706d590d2abdfeeaa506d7d688a1", "bike_id": "a521706d590d2abdfeeaa506d7d688a1", "fusion_lat": 0.0, "is_reserved": 0, "lat": 38.87722466666666, "fusion_lon": 0.0, "is_disabled": 0}, {"rental_uris": {"android": "https://dc.lft.to/lastmile_qr_scan", "ios": "https://dc.lft.to/lastmile_qr_scan"}, "type": "electric_bike", "lon": -77.01453666666667, "name": "8f6ab2da721ba5629d0cb9f7c1193842", "bike_id": "8f6ab2da721ba5629d0cb9f7c1193842", "fusion_lat": 0.0, "is_reserved": 0, "lat": 38.86798816666666, "fusion_lon": 0.0, "is_disabled": 0}, {"rental_uris": {"android": "https://dc.lft.to/lastmile_qr_scan", "ios": "https://dc.lft.to/lastmile_qr_scan"}, "type": "electric_scooter", "lon": -77.0064475, "name": "5f10ae5d640b08b46e47cb5a1acddb07", "bike_id": "5f10ae5d640b08b46e47cb5a1acddb07", "fusion_lat": 0.0, "is_reserved": 0, "lat": 38.883362, "fusion_lon": 0.0, "is_disabled": 0}, {"rental_uris": {"android": "https://dc.lft.to/lastmile_qr_scan", "ios": "https://dc.lft.to/lastmile_qr_scan"}, "type": "electric_scooter", "lon": -77.01206633333334, "name": "1f8112b70a1b56a47a4c8a99452ebc8d", "bike_id": "1f8112b70a1b56a47a4c8a99452ebc8d", "fusion_lat": 0.0, "is_reserved": 0, "lat": 38.87094666666667, "fusion_lon": 0.0, "is_disabled": 0}, {"rental_uris": {"android": "https://dc.lft.to/lastmile_qr_scan", "ios": "https://dc.lft.to/lastmile_qr_scan"}, "type": "electric_scooter", "lon": -77.0318335, "name": "6cbfb772f1244ac2a9f3a6084dbf2f16", "bike_id": "6cbfb772f1244ac2a9f3a6084dbf2f16", "fusion_lat": 0.0, "is_reserved": 0, "lat": 38.929829166666664, "fusion_lon": 0.0, "is_disabled": 0}, {"rental_uris": {"android": "https://dc.lft.to/lastmile_qr_scan", "ios": "https://dc.lft.to/lastmile_qr_scan"}, "type": "electric_scooter", "lon": -77.0343595, "name": "5eaa253229cf9197477b0281c6c881eb", "bike_id": "5eaa253229cf9197477b0281c6c881eb", "fusion_lat": 0.0, "is_reserved": 0, "lat": 38.91831233333333, "fusion_lon": 0.0, "is_disabled": 0}, {"rental_uris": {"android": "https://dc.lft.to/lastmile_qr_scan", "ios": "https://dc.lft.to/lastmile_qr_scan"}, "type": "electric_scooter", "lon": -77.0339555, "name": "ca46b46b4a1644b345e6e89fa46a2644", "bike_id": "ca46b46b4a1644b345e6e89fa46a2644", "fusion_lat": 0.0, "is_reserved": 0, "lat": 38.91918883333334, "fusion_lon": 0.0, "is_disabled": 0}, {"rental_uris": {"android": "https://dc.lft.to/lastmile_qr_scan", "ios": "https://dc.lft.to/lastmile_qr_scan"}, "type": "electric_scooter", "lon": -77.011155, "name": "ed73f92e05bcbed87fed46733246cb2a", "bike_id": "ed73f92e05bcbed87fed46733246cb2a", "fusion_lat": 0.0, "is_reserved": 0, "lat": 38.920325, "fusion_lon": 0.0, "is_disabled": 0}, {"rental_uris": {"android": "https://dc.lft.to/lastmile_qr_scan", "ios": "https://dc.lft.to/lastmile_qr_scan"}, "type": "electric_scooter", "lon": -77.06137016666666, "name": "0b8a3c5fc952e563e948a99a14fc4b0c", "bike_id": "0b8a3c5fc952e563e948a99a14fc4b0c", "fusion_lat": 0.0, "is_reserved": 0, "lat": 38.94363833333333, "fusion_lon": 0.0, "is_disabled": 0}, {"rental_uris": {"android": "https://dc.lft.to/lastmile_qr_scan", "ios": "https://dc.lft.to/lastmile_qr_scan"}, "type": "electric_scooter", "lon": -77.0366385, "name": "7f7053703eaead3247f64d30abc6022e", "bike_id": "7f7053703eaead3247f64d30abc6022e", "fusion_lat": 0.0, "is_reserved": 0, "lat": 38.90276466666667, "fusion_lon": 0.0, "is_disabled": 0}, {"rental_uris": {"android": "https://dc.lft.to/lastmile_qr_scan", "ios": "https://dc.lft.to/lastmile_qr_scan"}, "type": "electric_scooter", "lon": -77.0202325, "name": "156d0b50347f6ac75f9e3876f66870c9", "bike_id": "156d0b50347f6ac75f9e3876f66870c9", "fusion_lat": 0.0, "is_reserved": 0, "lat": 38.92438633333333, "fusion_lon": 0.0, "is_disabled": 0}, {"rental_uris": {"android": "https://dc.lft.to/lastmile_qr_scan", "ios": "https://dc.lft.to/lastmile_qr_scan"}, "type": "electric_scooter", "lon": -77.04026333333333, "name": "ee6eb47ee7be1ee42a2af535d413ef92", "bike_id": "ee6eb47ee7be1ee42a2af535d413ef92", "fusion_lat": 0.0, "is_reserved": 0, "lat": 38.9245655, "fusion_lon": 0.0, "is_disabled": 0}, {"rental_uris": {"android": "https://dc.lft.to/lastmile_qr_scan", "ios": "https://dc.lft.to/lastmile_qr_scan"}, "type": "electric_scooter", "lon": -77.04771666666667, "name": "062c9043980b670717339123aa6114f0", "bike_id": "062c9043980b670717339123aa6114f0", "fusion_lat": 0.0, "is_reserved": 0, "lat": 38.917572666666665, "fusion_lon": 0.0, "is_disabled": 0}, {"rental_uris": {"android": "https://dc.lft.to/lastmile_qr_scan", "ios": "https://dc.lft.to/lastmile_qr_scan"}, "type": "electric_scooter", "lon": -76.99031266666667, "name": "b5ff5ce2ce297d49d28b94427735ceae", "bike_id": "b5ff5ce2ce297d49d28b94427735ceae", "fusion_lat": 0.0, "is_reserved": 0, "lat": 38.86407883333333, "fusion_lon": 0.0, "is_disabled": 0}, {"rental_uris": {"android": "https://dc.lft.to/lastmile_qr_scan", "ios": "https://dc.lft.to/lastmile_qr_scan"}, "type": "electric_scooter", "lon": -76.99725833333333, "name": "713e8de3516559ae7c2eec1b5caf53c0", "bike_id": "713e8de3516559ae7c2eec1b5caf53c0", "fusion_lat": 0.0, "is_reserved": 0, "lat": 38.89899466666667, "fusion_lon": 0.0, "is_disabled": 0}, {"rental_uris": {"android": "https://dc.lft.to/lastmile_qr_scan", "ios": "https://dc.lft.to/lastmile_qr_scan"}, "type": "electric_scooter", "lon": -77.04151483333334, "name": "2bd11826d7b49ff073bdbdd83bde85f5", "bike_id": "2bd11826d7b49ff073bdbdd83bde85f5", "fusion_lat": 0.0, "is_reserved": 0, "lat": 38.91986516666667, "fusion_lon": 0.0, "is_disabled": 0}, {"rental_uris": {"android": "https://dc.lft.to/lastmile_qr_scan", "ios": "https://dc.lft.to/lastmile_qr_scan"}, "type": "electric_scooter", "lon": -77.03901383333333, "name": "223ca1307cf19054b9bf76ab957dd833", "bike_id": "223ca1307cf19054b9bf76ab957dd833", "fusion_lat": 0.0, "is_reserved": 0, "lat": 38.914205, "fusion_lon": 0.0, "is_disabled": 0}, {"rental_uris": {"android": "https://dc.lft.to/lastmile_qr_scan", "ios": "https://dc.lft.to/lastmile_qr_scan"}, "type": "electric_scooter", "lon": -77.06764083333333, "name": "99a2d910c03c14f5eee8da9fadb43639", "bike_id": "99a2d910c03c14f5eee8da9fadb43639", "fusion_lat": 0.0, "is_reserved": 0, "lat": 38.90371483333333, "fusion_lon": 0.0, "is_disabled": 0}, {"rental_uris": {"android": "https://dc.lft.to/lastmile_qr_scan", "ios": "https://dc.lft.to/lastmile_qr_scan"}, "type": "electric_scooter", "lon": -77.03043466666666, "name": "e0bca8b8d2a29e275cc5da0da92e3896", "bike_id": "e0bca8b8d2a29e275cc5da0da92e3896", "fusion_lat": 0.0, "is_reserved": 0, "lat": 38.8840075, "fusion_lon": 0.0, "is_disabled": 0}, {"rental_uris": {"android": "https://dc.lft.to/lastmile_qr_scan", "ios": "https://dc.lft.to/lastmile_qr_scan"}, "type": "electric_scooter", "lon": -76.99383333333333, "name": "bfeb62562a46ef2b663e7c04ed251868", "bike_id": "bfeb62562a46ef2b663e7c04ed251868", "fusion_lat": 0.0, "is_reserved": 0, "lat": 38.88711933333333, "fusion_lon": 0.0, "is_disabled": 0}, {"rental_uris": {"android": "https://dc.lft.to/lastmile_qr_scan", "ios": "https://dc.lft.to/lastmile_qr_scan"}, "type": "electric_scooter", "lon": -77.00593033333334, "name": "35e7b12c1442ffde6f2605d6a3b49e6b", "bike_id": "35e7b12c1442ffde6f2605d6a3b49e6b", "fusion_lat": 0.0, "is_reserved": 0, "lat": 38.90826666666667, "fusion_lon": 0.0, "is_disabled": 0}, {"rental_uris": {"android": "https://dc.lft.to/lastmile_qr_scan", "ios": "https://dc.lft.to/lastmile_qr_scan"}, "type": "electric_scooter", "lon": -77.048731, "name": "fe222b4f9de8dc797746569022b919be", "bike_id": "fe222b4f9de8dc797746569022b919be", "fusion_lat": 0.0, "is_reserved": 0, "lat": 38.9010665, "fusion_lon": 0.0, "is_disabled": 0}, {"rental_uris": {"android": "https://dc.lft.to/lastmile_qr_scan", "ios": "https://dc.lft.to/lastmile_qr_scan"}, "type": "electric_scooter", "lon": -77.0350895, "name": "f1acee0fd1a93f6eb15c035f41c58a12", "bike_id": "f1acee0fd1a93f6eb15c035f41c58a12", "fusion_lat": 0.0, "is_reserved": 0, "lat": 38.91880866666666, "fusion_lon": 0.0, "is_disabled": 0}, {"rental_uris": {"android": "https://dc.lft.to/lastmile_qr_scan", "ios": "https://dc.lft.to/lastmile_qr_scan"}, "type": "electric_scooter", "lon": -76.9958355, "name": "e8ac7e83d5e848b62d56bffb1f9852ea", "bike_id": "e8ac7e83d5e848b62d56bffb1f9852ea", "fusion_lat": 0.0, "is_reserved": 0, "lat": 38.92068616666667, "fusion_lon": 0.0, "is_disabled": 0}, {"rental_uris": {"android": "https://dc.lft.to/lastmile_qr_scan", "ios": "https://dc.lft.to/lastmile_qr_scan"}, "type": "electric_scooter", "lon": -77.0433365, "name": "b0e399e97d7208dc95c923d9d4bac585", "bike_id": "b0e399e97d7208dc95c923d9d4bac585", "fusion_lat": 0.0, "is_reserved": 0, "lat": 38.9039165, "fusion_lon": 0.0, "is_disabled": 0}, {"rental_uris": {"android": "https://dc.lft.to/lastmile_qr_scan", "ios": "https://dc.lft.to/lastmile_qr_scan"}, "type": "electric_scooter", "lon": -76.9830905, "name": "61fc2cee033db711050b2776258d0a80", "bike_id": "61fc2cee033db711050b2776258d0a80", "fusion_lat": 0.0, "is_reserved": 0, "lat": 38.86893166666667, "fusion_lon": 0.0, "is_disabled": 0}, {"rental_uris": {"android": "https://dc.lft.to/lastmile_qr_scan", "ios": "https://dc.lft.to/lastmile_qr_scan"}, "type": "electric_scooter", "lon": -77.04387883333334, "name": "36b9b382619e8a5de8fb31999fe8b66e", "bike_id": "36b9b382619e8a5de8fb31999fe8b66e", "fusion_lat": 0.0, "is_reserved": 0, "lat": 38.92280933333333, "fusion_lon": 0.0, "is_disabled": 0}, {"rental_uris": {"android": "https://dc.lft.to/lastmile_qr_scan", "ios": "https://dc.lft.to/lastmile_qr_scan"}, "type": "electric_scooter", "lon": -77.0411925, "name": "22aa106dadb2d90f736075519970dada", "bike_id": "22aa106dadb2d90f736075519970dada", "fusion_lat": 0.0, "is_reserved": 0, "lat": 38.906312166666666, "fusion_lon": 0.0, "is_disabled": 0}, {"rental_uris": {"android": "https://dc.lft.to/lastmile_qr_scan", "ios": "https://dc.lft.to/lastmile_qr_scan"}, "type": "electric_scooter", "lon": -76.96504733333333, "name": "bfc4ad89c7001398ea25a87974101b32", "bike_id": "bfc4ad89c7001398ea25a87974101b32", "fusion_lat": 0.0, "is_reserved": 0, "lat": 38.876515, "fusion_lon": 0.0, "is_disabled": 0}, {"rental_uris": {"android": "https://dc.lft.to/lastmile_qr_scan", "ios": "https://dc.lft.to/lastmile_qr_scan"}, "type": "electric_scooter", "lon": -76.9903205, "name": "85e238f16295d386f49d2847c1ce97be", "bike_id": "85e238f16295d386f49d2847c1ce97be", "fusion_lat": 0.0, "is_reserved": 0, "lat": 38.85869866666667, "fusion_lon": 0.0, "is_disabled": 0}, {"rental_uris": {"android": "https://dc.lft.to/lastmile_qr_scan", "ios": "https://dc.lft.to/lastmile_qr_scan"}, "type": "electric_scooter", "lon": -76.94997183333334, "name": "43c654929e12a26b6eed34e61abe49ce", "bike_id": "43c654929e12a26b6eed34e61abe49ce", "fusion_lat": 0.0, "is_reserved": 0, "lat": 38.89393066666667, "fusion_lon": 0.0, "is_disabled": 0}, {"rental_uris": {"android": "https://dc.lft.to/lastmile_qr_scan", "ios": "https://dc.lft.to/lastmile_qr_scan"}, "type": "electric_bike", "lon": -77.10916566666667, "name": "ae0dd97ff8856ee243948325e0017b5b", "bike_id": "ae0dd97ff8856ee243948325e0017b5b", "fusion_lat": 0.0, "is_reserved": 0, "lat": 39.052059166666666, "fusion_lon": 0.0, "is_disabled": 0}, {"rental_uris": {"android": "https://dc.lft.to/lastmile_qr_scan", "ios": "https://dc.lft.to/lastmile_qr_scan"}, "type": "electric_scooter", "lon": -77.04896683333334, "name": "eaca47b333b924487d9501a3f0f321aa", "bike_id": "eaca47b333b924487d9501a3f0f321aa", "fusion_lat": 0.0, "is_reserved": 0, "lat": 38.89249933333333, "fusion_lon": 0.0, "is_disabled": 0}, {"rental_uris": {"android": "https://dc.lft.to/lastmile_qr_scan", "ios": "https://dc.lft.to/lastmile_qr_scan"}, "type": "electric_scooter", "lon": -77.02370916666666, "name": "cece5d902e32d0f939e6b78c4b50a002", "bike_id": "cece5d902e32d0f939e6b78c4b50a002", "fusion_lat": 0.0, "is_reserved": 0, "lat": 38.8922445, "fusion_lon": 0.0, "is_disabled": 0}, {"rental_uris": {"android": "https://dc.lft.to/lastmile_qr_scan", "ios": "https://dc.lft.to/lastmile_qr_scan"}, "type": "electric_bike", "lon": -77.0121115, "name": "0842cdc4e44c946e17da55eedab27f68", "bike_id": "0842cdc4e44c946e17da55eedab27f68", "fusion_lat": 0.0, "is_reserved": 0, "lat": 38.870866166666666, "fusion_lon": 0.0, "is_disabled": 0}, {"rental_uris": {"android": "https://dc.lft.to/lastmile_qr_scan", "ios": "https://dc.lft.to/lastmile_qr_scan"}, "type": "electric_scooter", "lon": -77.0081175, "name": "0b627d5e1bda35fe1af841855d0c865b", "bike_id": "0b627d5e1bda35fe1af841855d0c865b", "fusion_lat": 0.0, "is_reserved": 0, "lat": 38.876615, "fusion_lon": 0.0, "is_disabled": 0}, {"rental_uris": {"android": "https://dc.lft.to/lastmile_qr_scan", "ios": "https://dc.lft.to/lastmile_qr_scan"}, "type": "electric_scooter", "lon": -77.01820516666666, "name": "2fb03b74461147c529186daa48d1564c", "bike_id": "2fb03b74461147c529186daa48d1564c", "fusion_lat": 0.0, "is_reserved": 0, "lat": 38.908061000000004, "fusion_lon": 0.0, "is_disabled": 0}, {"rental_uris": {"android": "https://dc.lft.to/lastmile_qr_scan", "ios": "https://dc.lft.to/lastmile_qr_scan"}, "type": "electric_scooter", "lon": -77.04343116666666, "name": "2845afb2b3f7b43d0bb33751ba5ff0fb", "bike_id": "2845afb2b3f7b43d0bb33751ba5ff0fb", "fusion_lat": 0.0, "is_reserved": 0, "lat": 38.903405, "fusion_lon": 0.0, "is_disabled": 0}, {"rental_uris": {"android": "https://dc.lft.to/lastmile_qr_scan", "ios": "https://dc.lft.to/lastmile_qr_scan"}, "type": "electric_scooter", "lon": -77.02005016666666, "name": "6a130c8e78178b12caa82a7dc33c84cb", "bike_id": "6a130c8e78178b12caa82a7dc33c84cb", "fusion_lat": 0.0, "is_reserved": 0, "lat": 38.924266333333335, "fusion_lon": 0.0, "is_disabled": 0}, {"rental_uris": {"android": "https://dc.lft.to/lastmile_qr_scan", "ios": "https://dc.lft.to/lastmile_qr_scan"}, "type": "electric_scooter", "lon": -77.0096305, "name": "b07caed776703e4e8662965a31ca6a16", "bike_id": "b07caed776703e4e8662965a31ca6a16", "fusion_lat": 0.0, "is_reserved": 0, "lat": 38.8813, "fusion_lon": 0.0, "is_disabled": 0}, {"rental_uris": {"android": "https://dc.lft.to/lastmile_qr_scan", "ios": "https://dc.lft.to/lastmile_qr_scan"}, "type": "electric_scooter", "lon": -77.02498416666667, "name": "ccf9e6ec89898f1f5a693460e11c14a9", "bike_id": "ccf9e6ec89898f1f5a693460e11c14a9", "fusion_lat": 0.0, "is_reserved": 0, "lat": 38.94202166666667, "fusion_lon": 0.0, "is_disabled": 0}, {"rental_uris": {"android": "https://dc.lft.to/lastmile_qr_scan", "ios": "https://dc.lft.to/lastmile_qr_scan"}, "type": "electric_scooter", "lon": -76.990689, "name": "156a95b28d922c082faca8383928471a", "bike_id": "156a95b28d922c082faca8383928471a", "fusion_lat": 0.0, "is_reserved": 0, "lat": 38.9294215, "fusion_lon": 0.0, "is_disabled": 0}, {"rental_uris": {"android": "https://dc.lft.to/lastmile_qr_scan", "ios": "https://dc.lft.to/lastmile_qr_scan"}, "type": "electric_scooter", "lon": -77.03850916666667, "name": "1f683159f98595cf15966b212b2ee501", "bike_id": "1f683159f98595cf15966b212b2ee501", "fusion_lat": 0.0, "is_reserved": 0, "lat": 38.915524, "fusion_lon": 0.0, "is_disabled": 0}, {"rental_uris": {"android": "https://dc.lft.to/lastmile_qr_scan", "ios": "https://dc.lft.to/lastmile_qr_scan"}, "type": "electric_scooter", "lon": -77.02817633333333, "name": "6d90f4cbbe4258154ab8c81df9ebdebd", "bike_id": "6d90f4cbbe4258154ab8c81df9ebdebd", "fusion_lat": 0.0, "is_reserved": 0, "lat": 38.961336, "fusion_lon": 0.0, "is_disabled": 0}, {"rental_uris": {"android": "https://dc.lft.to/lastmile_qr_scan", "ios": "https://dc.lft.to/lastmile_qr_scan"}, "type": "electric_scooter", "lon": -77.02963283333334, "name": "593ee085174af908938f8d852eefa374", "bike_id": "593ee085174af908938f8d852eefa374", "fusion_lat": 0.0, "is_reserved": 0, "lat": 38.90662433333333, "fusion_lon": 0.0, "is_disabled": 0}, {"rental_uris": {"android": "https://dc.lft.to/lastmile_qr_scan", "ios": "https://dc.lft.to/lastmile_qr_scan"}, "type": "electric_scooter", "lon": -77.06772816666667, "name": "6fc7703c2453c7e778d8cf1c7dab8b35", "bike_id": "6fc7703c2453c7e778d8cf1c7dab8b35", "fusion_lat": 0.0, "is_reserved": 0, "lat": 38.952183166666664, "fusion_lon": 0.0, "is_disabled": 0}, {"rental_uris": {"android": "https://dc.lft.to/lastmile_qr_scan", "ios": "https://dc.lft.to/lastmile_qr_scan"}, "type": "electric_scooter", "lon": -77.007375, "name": "27cee1e6307c94ee5328a4b1342bd9f8", "bike_id": "27cee1e6307c94ee5328a4b1342bd9f8", "fusion_lat": 0.0, "is_reserved": 0, "lat": 38.95524616666667, "fusion_lon": 0.0, "is_disabled": 0}, {"rental_uris": {"android": "https://dc.lft.to/lastmile_qr_scan", "ios": "https://dc.lft.to/lastmile_qr_scan"}, "type": "electric_scooter", "lon": -77.049987, "name": "33859c255024197574fc635b20e87271", "bike_id": "33859c255024197574fc635b20e87271", "fusion_lat": 0.0, "is_reserved": 0, "lat": 38.905589, "fusion_lon": 0.0, "is_disabled": 0}, {"rental_uris": {"android": "https://dc.lft.to/lastmile_qr_scan", "ios": "https://dc.lft.to/lastmile_qr_scan"}, "type": "electric_bike", "lon": -76.90535416666667, "name": "6b7563184a2ec59806176f000715c237", "bike_id": "6b7563184a2ec59806176f000715c237", "fusion_lat": 0.0, "is_reserved": 0, "lat": 38.897344333333336, "fusion_lon": 0.0, "is_disabled": 0}, {"rental_uris": {"android": "https://dc.lft.to/lastmile_qr_scan", "ios": "https://dc.lft.to/lastmile_qr_scan"}, "type": "electric_scooter", "lon": -77.00832866666667, "name": "871219d9fc6756132a9caa6a39fd4a26", "bike_id": "871219d9fc6756132a9caa6a39fd4a26", "fusion_lat": 0.0, "is_reserved": 0, "lat": 38.915546, "fusion_lon": 0.0, "is_disabled": 0}, {"rental_uris": {"android": "https://dc.lft.to/lastmile_qr_scan", "ios": "https://dc.lft.to/lastmile_qr_scan"}, "type": "electric_scooter", "lon": -77.040522, "name": "8ac8ef884a62c7bc8bbe12a13b881800", "bike_id": "8ac8ef884a62c7bc8bbe12a13b881800", "fusion_lat": 0.0, "is_reserved": 0, "lat": 38.9264565, "fusion_lon": 0.0, "is_disabled": 0}, {"rental_uris": {"android": "https://dc.lft.to/lastmile_qr_scan", "ios": "https://dc.lft.to/lastmile_qr_scan"}, "type": "electric_scooter", "lon": -77.03099966666667, "name": "bf3749cc7780f091d6590dc1b5c399b8", "bike_id": "bf3749cc7780f091d6590dc1b5c399b8", "fusion_lat": 0.0, "is_reserved": 0, "lat": 38.932414666666666, "fusion_lon": 0.0, "is_disabled": 0}, {"rental_uris": {"android": "https://dc.lft.to/lastmile_qr_scan", "ios": "https://dc.lft.to/lastmile_qr_scan"}, "type": "electric_scooter", "lon": -77.03278466666667, "name": "bcec9706b80ef9b3a9d71cc390f65e33", "bike_id": "bcec9706b80ef9b3a9d71cc390f65e33", "fusion_lat": 0.0, "is_reserved": 0, "lat": 38.902578166666665, "fusion_lon": 0.0, "is_disabled": 0}, {"rental_uris": {"android": "https://dc.lft.to/lastmile_qr_scan", "ios": "https://dc.lft.to/lastmile_qr_scan"}, "type": "electric_scooter", "lon": -77.03658116666666, "name": "5a6fd57f866670c1edc16a48adf4a545", "bike_id": "5a6fd57f866670c1edc16a48adf4a545", "fusion_lat": 0.0, "is_reserved": 0, "lat": 38.922466, "fusion_lon": 0.0, "is_disabled": 0}, {"rental_uris": {"android": "https://dc.lft.to/lastmile_qr_scan", "ios": "https://dc.lft.to/lastmile_qr_scan"}, "type": "electric_scooter", "lon": -77.034424, "name": "07c1bcc6e01cfa459caa4d16898c2c08", "bike_id": "07c1bcc6e01cfa459caa4d16898c2c08", "fusion_lat": 0.0, "is_reserved": 0, "lat": 38.905811666666665, "fusion_lon": 0.0, "is_disabled": 0}, {"rental_uris": {"android": "https://dc.lft.to/lastmile_qr_scan", "ios": "https://dc.lft.to/lastmile_qr_scan"}, "type": "electric_scooter", "lon": -77.028275, "name": "c075ea981853ea6f150bbd0575a3f2b3", "bike_id": "c075ea981853ea6f150bbd0575a3f2b3", "fusion_lat": 0.0, "is_reserved": 0, "lat": 38.93279916666667, "fusion_lon": 0.0, "is_disabled": 0}, {"rental_uris": {"android": "https://dc.lft.to/lastmile_qr_scan", "ios": "https://dc.lft.to/lastmile_qr_scan"}, "type": "electric_scooter", "lon": -77.030459, "name": "1ca361ef1d781ece498a227ca6e1e7ad", "bike_id": "1ca361ef1d781ece498a227ca6e1e7ad", "fusion_lat": 0.0, "is_reserved": 0, "lat": 38.909759, "fusion_lon": 0.0, "is_disabled": 0}, {"rental_uris": {"android": "https://dc.lft.to/lastmile_qr_scan", "ios": "https://dc.lft.to/lastmile_qr_scan"}, "type": "electric_scooter", "lon": -77.05599666666667, "name": "b11551495d6d78d794ac5dbaadfdbfb8", "bike_id": "b11551495d6d78d794ac5dbaadfdbfb8", "fusion_lat": 0.0, "is_reserved": 0, "lat": 38.93700333333334, "fusion_lon": 0.0, "is_disabled": 0}, {"rental_uris": {"android": "https://dc.lft.to/lastmile_qr_scan", "ios": "https://dc.lft.to/lastmile_qr_scan"}, "type": "electric_scooter", "lon": -77.0302455, "name": "cb2b859a0a5500186f88b237827ae56a", "bike_id": "cb2b859a0a5500186f88b237827ae56a", "fusion_lat": 0.0, "is_reserved": 0, "lat": 38.923847, "fusion_lon": 0.0, "is_disabled": 0}, {"rental_uris": {"android": "https://dc.lft.to/lastmile_qr_scan", "ios": "https://dc.lft.to/lastmile_qr_scan"}, "type": "electric_scooter", "lon": -77.04743016666667, "name": "0601f8a3a48995c563a52939f4aaa47e", "bike_id": "0601f8a3a48995c563a52939f4aaa47e", "fusion_lat": 0.0, "is_reserved": 0, "lat": 38.905221, "fusion_lon": 0.0, "is_disabled": 0}, {"rental_uris": {"android": "https://dc.lft.to/lastmile_qr_scan", "ios": "https://dc.lft.to/lastmile_qr_scan"}, "type": "electric_scooter", "lon": -77.02167216666666, "name": "32bbc35f9aee49584463547bb5b48598", "bike_id": "32bbc35f9aee49584463547bb5b48598", "fusion_lat": 0.0, "is_reserved": 0, "lat": 38.88745, "fusion_lon": 0.0, "is_disabled": 0}, {"rental_uris": {"android": "https://dc.lft.to/lastmile_qr_scan", "ios": "https://dc.lft.to/lastmile_qr_scan"}, "type": "electric_scooter", "lon": -76.9922485, "name": "ec37952f46990a8d9265ea4a23244a53", "bike_id": "ec37952f46990a8d9265ea4a23244a53", "fusion_lat": 0.0, "is_reserved": 0, "lat": 38.898874, "fusion_lon": 0.0, "is_disabled": 0}, {"rental_uris": {"android": "https://dc.lft.to/lastmile_qr_scan", "ios": "https://dc.lft.to/lastmile_qr_scan"}, "type": "electric_bike", "lon": -77.19907783333333, "name": "8b285d1a0bc38fb9aed5f4ce5479c99c", "bike_id": "8b285d1a0bc38fb9aed5f4ce5479c99c", "fusion_lat": 0.0, "is_reserved": 0, "lat": 38.87530316666667, "fusion_lon": 0.0, "is_disabled": 0}, {"rental_uris": {"android": "https://dc.lft.to/lastmile_qr_scan", "ios": "https://dc.lft.to/lastmile_qr_scan"}, "type": "electric_scooter", "lon": -77.02326216666667, "name": "116c8ddfa66cd0c96755b860510f502b", "bike_id": "116c8ddfa66cd0c96755b860510f502b", "fusion_lat": 0.0, "is_reserved": 0, "lat": 38.92712183333333, "fusion_lon": 0.0, "is_disabled": 0}, {"rental_uris": {"android": "https://dc.lft.to/lastmile_qr_scan", "ios": "https://dc.lft.to/lastmile_qr_scan"}, "type": "electric_scooter", "lon": -76.954228, "name": "b16b309753c2b39dca6c2b58eeb4343d", "bike_id": "b16b309753c2b39dca6c2b58eeb4343d", "fusion_lat": 0.0, "is_reserved": 0, "lat": 38.88412733333333, "fusion_lon": 0.0, "is_disabled": 0}, {"rental_uris": {"android": "https://dc.lft.to/lastmile_qr_scan", "ios": "https://dc.lft.to/lastmile_qr_scan"}, "type": "electric_scooter", "lon": -77.02697966666666, "name": "663e1de76308050b1b0f057c6e4b77d7", "bike_id": "663e1de76308050b1b0f057c6e4b77d7", "fusion_lat": 0.0, "is_reserved": 0, "lat": 38.8815655, "fusion_lon": 0.0, "is_disabled": 0}, {"rental_uris": {"android": "https://dc.lft.to/lastmile_qr_scan", "ios": "https://dc.lft.to/lastmile_qr_scan"}, "type": "electric_scooter", "lon": -77.0488585, "name": "6fba524ff8bcc17ec9707b71d874ae0f", "bike_id": "6fba524ff8bcc17ec9707b71d874ae0f", "fusion_lat": 0.0, "is_reserved": 0, "lat": 38.9059175, "fusion_lon": 0.0, "is_disabled": 0}, {"rental_uris": {"android": "https://dc.lft.to/lastmile_qr_scan", "ios": "https://dc.lft.to/lastmile_qr_scan"}, "type": "electric_scooter", "lon": -77.0731385, "name": "bc460023a040f3b19c34396661329a56", "bike_id": "bc460023a040f3b19c34396661329a56", "fusion_lat": 0.0, "is_reserved": 0, "lat": 38.912024333333335, "fusion_lon": 0.0, "is_disabled": 0}, {"rental_uris": {"android": "https://dc.lft.to/lastmile_qr_scan", "ios": "https://dc.lft.to/lastmile_qr_scan"}, "type": "electric_bike", "lon": -76.97557816666666, "name": "11775b6b45f119f593bf53b1042e6858", "bike_id": "11775b6b45f119f593bf53b1042e6858", "fusion_lat": 0.0, "is_reserved": 0, "lat": 38.92460033333333, "fusion_lon": 0.0, "is_disabled": 0}, {"rental_uris": {"android": "https://dc.lft.to/lastmile_qr_scan", "ios": "https://dc.lft.to/lastmile_qr_scan"}, "type": "electric_scooter", "lon": -77.0060685, "name": "3d97f533abf32852ae8c187cb140c123", "bike_id": "3d97f533abf32852ae8c187cb140c123", "fusion_lat": 0.0, "is_reserved": 0, "lat": 38.88074616666667, "fusion_lon": 0.0, "is_disabled": 0}, {"rental_uris": {"android": "https://dc.lft.to/lastmile_qr_scan", "ios": "https://dc.lft.to/lastmile_qr_scan"}, "type": "electric_scooter", "lon": -77.04072283333333, "name": "7582708d4e76e527a0cc7befbacc3887", "bike_id": "7582708d4e76e527a0cc7befbacc3887", "fusion_lat": 0.0, "is_reserved": 0, "lat": 38.91112416666667, "fusion_lon": 0.0, "is_disabled": 0}, {"rental_uris": {"android": "https://dc.lft.to/lastmile_qr_scan", "ios": "https://dc.lft.to/lastmile_qr_scan"}, "type": "electric_scooter", "lon": -77.0388625, "name": "29e5197a6a3079208aefbad7a0b79f98", "bike_id": "29e5197a6a3079208aefbad7a0b79f98", "fusion_lat": 0.0, "is_reserved": 0, "lat": 38.93416166666667, "fusion_lon": 0.0, "is_disabled": 0}, {"rental_uris": {"android": "https://dc.lft.to/lastmile_qr_scan", "ios": "https://dc.lft.to/lastmile_qr_scan"}, "type": "electric_bike", "lon": -77.0902535, "name": "512006bbc2dd189fb46f55b85e078355", "bike_id": "512006bbc2dd189fb46f55b85e078355", "fusion_lat": 0.0, "is_reserved": 0, "lat": 38.841173833333336, "fusion_lon": 0.0, "is_disabled": 0}, {"rental_uris": {"android": "https://dc.lft.to/lastmile_qr_scan", "ios": "https://dc.lft.to/lastmile_qr_scan"}, "type": "electric_scooter", "lon": -77.03852633333334, "name": "43ae5b0810ea44db5f24cbd0060615ef", "bike_id": "43ae5b0810ea44db5f24cbd0060615ef", "fusion_lat": 0.0, "is_reserved": 0, "lat": 38.909993666666665, "fusion_lon": 0.0, "is_disabled": 0}, {"rental_uris": {"android": "https://dc.lft.to/lastmile_qr_scan", "ios": "https://dc.lft.to/lastmile_qr_scan"}, "type": "electric_scooter", "lon": -77.03225983333333, "name": "5510d51e2be907775a5418f6ae80f41f", "bike_id": "5510d51e2be907775a5418f6ae80f41f", "fusion_lat": 0.0, "is_reserved": 0, "lat": 38.91859866666667, "fusion_lon": 0.0, "is_disabled": 0}, {"rental_uris": {"android": "https://dc.lft.to/lastmile_qr_scan", "ios": "https://dc.lft.to/lastmile_qr_scan"}, "type": "electric_scooter", "lon": -77.03121, "name": "28424c63001f78c8bd2b54a7d7344093", "bike_id": "28424c63001f78c8bd2b54a7d7344093", "fusion_lat": 0.0, "is_reserved": 0, "lat": 38.973788166666665, "fusion_lon": 0.0, "is_disabled": 0}, {"rental_uris": {"android": "https://dc.lft.to/lastmile_qr_scan", "ios": "https://dc.lft.to/lastmile_qr_scan"}, "type": "electric_bike", "lon": -77.01451933333334, "name": "f2299a8b75950727ada304eb5564b63d", "bike_id": "f2299a8b75950727ada304eb5564b63d", "fusion_lat": 0.0, "is_reserved": 0, "lat": 38.8767855, "fusion_lon": 0.0, "is_disabled": 0}, {"rental_uris": {"android": "https://dc.lft.to/lastmile_qr_scan", "ios": "https://dc.lft.to/lastmile_qr_scan"}, "type": "electric_scooter", "lon": -77.046524, "name": "eb3c31ec5e017d714d24aae337fae001", "bike_id": "eb3c31ec5e017d714d24aae337fae001", "fusion_lat": 0.0, "is_reserved": 0, "lat": 38.89297833333333, "fusion_lon": 0.0, "is_disabled": 0}, {"rental_uris": {"android": "https://dc.lft.to/lastmile_qr_scan", "ios": "https://dc.lft.to/lastmile_qr_scan"}, "type": "electric_scooter", "lon": -77.02357566666667, "name": "972b23a5801316c5b47915979e370ced", "bike_id": "972b23a5801316c5b47915979e370ced", "fusion_lat": 0.0, "is_reserved": 0, "lat": 38.91794466666666, "fusion_lon": 0.0, "is_disabled": 0}, {"rental_uris": {"android": "https://dc.lft.to/lastmile_qr_scan", "ios": "https://dc.lft.to/lastmile_qr_scan"}, "type": "electric_bike", "lon": -77.050377, "name": "99ced4ce8e0809ca0e195e5907440271", "bike_id": "99ced4ce8e0809ca0e195e5907440271", "fusion_lat": 0.0, "is_reserved": 0, "lat": 38.91115, "fusion_lon": 0.0, "is_disabled": 0}, {"rental_uris": {"android": "https://dc.lft.to/lastmile_qr_scan", "ios": "https://dc.lft.to/lastmile_qr_scan"}, "type": "electric_scooter", "lon": -76.96912566666667, "name": "d1466b5ce68773364bcb115b8eee1ce5", "bike_id": "d1466b5ce68773364bcb115b8eee1ce5", "fusion_lat": 0.0, "is_reserved": 0, "lat": 38.8553235, "fusion_lon": 0.0, "is_disabled": 0}, {"rental_uris": {"android": "https://dc.lft.to/lastmile_qr_scan", "ios": "https://dc.lft.to/lastmile_qr_scan"}, "type": "electric_scooter", "lon": -77.04407666666667, "name": "4967915785f723251d953fe69df72da2", "bike_id": "4967915785f723251d953fe69df72da2", "fusion_lat": 0.0, "is_reserved": 0, "lat": 38.87425966666667, "fusion_lon": 0.0, "is_disabled": 0}, {"rental_uris": {"android": "https://dc.lft.to/lastmile_qr_scan", "ios": "https://dc.lft.to/lastmile_qr_scan"}, "type": "electric_scooter", "lon": -77.04049916666666, "name": "0d2b8300c456d24f6225a9f9bb289fdc", "bike_id": "0d2b8300c456d24f6225a9f9bb289fdc", "fusion_lat": 0.0, "is_reserved": 0, "lat": 38.92884183333334, "fusion_lon": 0.0, "is_disabled": 0}, {"rental_uris": {"android": "https://dc.lft.to/lastmile_qr_scan", "ios": "https://dc.lft.to/lastmile_qr_scan"}, "type": "electric_scooter", "lon": -77.03264783333333, "name": "052ce217720f4a32a845ccac2c68e81a", "bike_id": "052ce217720f4a32a845ccac2c68e81a", "fusion_lat": 0.0, "is_reserved": 0, "lat": 38.942577, "fusion_lon": 0.0, "is_disabled": 0}, {"rental_uris": {"android": "https://dc.lft.to/lastmile_qr_scan", "ios": "https://dc.lft.to/lastmile_qr_scan"}, "type": "electric_bike", "lon": -77.09162916666666, "name": "69f04e664207b7343a585d99c0656b22", "bike_id": "69f04e664207b7343a585d99c0656b22", "fusion_lat": 0.0, "is_reserved": 0, "lat": 38.96760183333333, "fusion_lon": 0.0, "is_disabled": 0}, {"rental_uris": {"android": "https://dc.lft.to/lastmile_qr_scan", "ios": "https://dc.lft.to/lastmile_qr_scan"}, "type": "electric_scooter", "lon": -77.02275116666667, "name": "95f206e69882edcf468881cdf9e641a4", "bike_id": "95f206e69882edcf468881cdf9e641a4", "fusion_lat": 0.0, "is_reserved": 0, "lat": 38.917451666666665, "fusion_lon": 0.0, "is_disabled": 0}, {"rental_uris": {"android": "https://dc.lft.to/lastmile_qr_scan", "ios": "https://dc.lft.to/lastmile_qr_scan"}, "type": "electric_scooter", "lon": -77.03262433333333, "name": "b032aeca306321ab5333a40c8c6de0b0", "bike_id": "b032aeca306321ab5333a40c8c6de0b0", "fusion_lat": 0.0, "is_reserved": 0, "lat": 38.93260183333334, "fusion_lon": 0.0, "is_disabled": 0}, {"rental_uris": {"android": "https://dc.lft.to/lastmile_qr_scan", "ios": "https://dc.lft.to/lastmile_qr_scan"}, "type": "electric_scooter", "lon": -77.03832116666666, "name": "227aadb6f2554ad2c87cce0c89db6bd4", "bike_id": "227aadb6f2554ad2c87cce0c89db6bd4", "fusion_lat": 0.0, "is_reserved": 0, "lat": 38.931076166666664, "fusion_lon": 0.0, "is_disabled": 0}, {"rental_uris": {"android": "https://dc.lft.to/lastmile_qr_scan", "ios": "https://dc.lft.to/lastmile_qr_scan"}, "type": "electric_scooter", "lon": -76.9861285, "name": "7c126f97770635be7b3e67088d9fd29b", "bike_id": "7c126f97770635be7b3e67088d9fd29b", "fusion_lat": 0.0, "is_reserved": 0, "lat": 38.90588533333333, "fusion_lon": 0.0, "is_disabled": 0}, {"rental_uris": {"android": "https://dc.lft.to/lastmile_qr_scan", "ios": "https://dc.lft.to/lastmile_qr_scan"}, "type": "electric_scooter", "lon": -77.07269933333333, "name": "7a3a5a20be51d2c494174b690c640a57", "bike_id": "7a3a5a20be51d2c494174b690c640a57", "fusion_lat": 0.0, "is_reserved": 0, "lat": 38.934862333333335, "fusion_lon": 0.0, "is_disabled": 0}, {"rental_uris": {"android": "https://dc.lft.to/lastmile_qr_scan", "ios": "https://dc.lft.to/lastmile_qr_scan"}, "type": "electric_scooter", "lon": -77.020125, "name": "950e8bf74d3326a5f5c6b14025904ee9", "bike_id": "950e8bf74d3326a5f5c6b14025904ee9", "fusion_lat": 0.0, "is_reserved": 0, "lat": 38.879349, "fusion_lon": 0.0, "is_disabled": 0}, {"rental_uris": {"android": "https://dc.lft.to/lastmile_qr_scan", "ios": "https://dc.lft.to/lastmile_qr_scan"}, "type": "electric_scooter", "lon": -77.0058765, "name": "34e51ed87a75c8e96a2a8665580d6d51", "bike_id": "34e51ed87a75c8e96a2a8665580d6d51", "fusion_lat": 0.0, "is_reserved": 0, "lat": 38.905636666666666, "fusion_lon": 0.0, "is_disabled": 0}, {"rental_uris": {"android": "https://dc.lft.to/lastmile_qr_scan", "ios": "https://dc.lft.to/lastmile_qr_scan"}, "type": "electric_scooter", "lon": -77.02480083333333, "name": "477bf8058a5e19d1dade977b229d5111", "bike_id": "477bf8058a5e19d1dade977b229d5111", "fusion_lat": 0.0, "is_reserved": 0, "lat": 38.93881066666667, "fusion_lon": 0.0, "is_disabled": 0}, {"rental_uris": {"android": "https://dc.lft.to/lastmile_qr_scan", "ios": "https://dc.lft.to/lastmile_qr_scan"}, "type": "electric_scooter", "lon": -77.07364716666666, "name": "f173051c2c7b13a45eb195149111c54f", "bike_id": "f173051c2c7b13a45eb195149111c54f", "fusion_lat": 0.0, "is_reserved": 0, "lat": 38.94322616666667, "fusion_lon": 0.0, "is_disabled": 0}, {"rental_uris": {"android": "https://dc.lft.to/lastmile_qr_scan", "ios": "https://dc.lft.to/lastmile_qr_scan"}, "type": "electric_scooter", "lon": -77.03865116666667, "name": "a506458146b0f3fc89a60aff06132f01", "bike_id": "a506458146b0f3fc89a60aff06132f01", "fusion_lat": 0.0, "is_reserved": 0, "lat": 38.91180583333333, "fusion_lon": 0.0, "is_disabled": 0}, {"rental_uris": {"android": "https://dc.lft.to/lastmile_qr_scan", "ios": "https://dc.lft.to/lastmile_qr_scan"}, "type": "electric_scooter", "lon": -77.01743583333334, "name": "e5a1a0ad36c2d4e6207d5b5b87ff4b59", "bike_id": "e5a1a0ad36c2d4e6207d5b5b87ff4b59", "fusion_lat": 0.0, "is_reserved": 0, "lat": 38.9017465, "fusion_lon": 0.0, "is_disabled": 0}, {"rental_uris": {"android": "https://dc.lft.to/lastmile_qr_scan", "ios": "https://dc.lft.to/lastmile_qr_scan"}, "type": "electric_scooter", "lon": -76.99372133333334, "name": "36be0298e3042cb97b72cb4e0ac2e6a2", "bike_id": "36be0298e3042cb97b72cb4e0ac2e6a2", "fusion_lat": 0.0, "is_reserved": 0, "lat": 38.923966, "fusion_lon": 0.0, "is_disabled": 0}, {"rental_uris": {"android": "https://dc.lft.to/lastmile_qr_scan", "ios": "https://dc.lft.to/lastmile_qr_scan"}, "type": "electric_scooter", "lon": -77.03476066666667, "name": "34d189fa03d428db98c6448e0fb6a9c9", "bike_id": "34d189fa03d428db98c6448e0fb6a9c9", "fusion_lat": 0.0, "is_reserved": 0, "lat": 38.90869033333333, "fusion_lon": 0.0, "is_disabled": 0}, {"rental_uris": {"android": "https://dc.lft.to/lastmile_qr_scan", "ios": "https://dc.lft.to/lastmile_qr_scan"}, "type": "electric_scooter", "lon": -77.00757233333333, "name": "83b587b58098712262b4867b737db19d", "bike_id": "83b587b58098712262b4867b737db19d", "fusion_lat": 0.0, "is_reserved": 0, "lat": 38.91028216666667, "fusion_lon": 0.0, "is_disabled": 0}, {"rental_uris": {"android": "https://dc.lft.to/lastmile_qr_scan", "ios": "https://dc.lft.to/lastmile_qr_scan"}, "type": "electric_bike", "lon": -77.00865516666667, "name": "674b15b880136bdadb5608ff797a51d1", "bike_id": "674b15b880136bdadb5608ff797a51d1", "fusion_lat": 0.0, "is_reserved": 0, "lat": 38.827309166666666, "fusion_lon": 0.0, "is_disabled": 0}, {"rental_uris": {"android": "https://dc.lft.to/lastmile_qr_scan", "ios": "https://dc.lft.to/lastmile_qr_scan"}, "type": "electric_scooter", "lon": -76.98551016666667, "name": "d12fae3988b876c69fed07e1149d577f", "bike_id": "d12fae3988b876c69fed07e1149d577f", "fusion_lat": 0.0, "is_reserved": 0, "lat": 38.855867333333336, "fusion_lon": 0.0, "is_disabled": 0}, {"rental_uris": {"android": "https://dc.lft.to/lastmile_qr_scan", "ios": "https://dc.lft.to/lastmile_qr_scan"}, "type": "electric_scooter", "lon": -76.96486966666667, "name": "082c981b146ea2e1f3bd8dc01761e4d5", "bike_id": "082c981b146ea2e1f3bd8dc01761e4d5", "fusion_lat": 0.0, "is_reserved": 0, "lat": 38.875551, "fusion_lon": 0.0, "is_disabled": 0}, {"rental_uris": {"android": "https://dc.lft.to/lastmile_qr_scan", "ios": "https://dc.lft.to/lastmile_qr_scan"}, "type": "electric_scooter", "lon": -77.01720133333333, "name": "a50d0d364362c6cf19fd285cb33f4c0c", "bike_id": "a50d0d364362c6cf19fd285cb33f4c0c", "fusion_lat": 0.0, "is_reserved": 0, "lat": 38.8793855, "fusion_lon": 0.0, "is_disabled": 0}, {"rental_uris": {"android": "https://dc.lft.to/lastmile_qr_scan", "ios": "https://dc.lft.to/lastmile_qr_scan"}, "type": "electric_scooter", "lon": -77.03505416666667, "name": "96586882ac83986bbbe2f3ab2a305060", "bike_id": "96586882ac83986bbbe2f3ab2a305060", "fusion_lat": 0.0, "is_reserved": 0, "lat": 38.92149333333333, "fusion_lon": 0.0, "is_disabled": 0}, {"rental_uris": {"android": "https://dc.lft.to/lastmile_qr_scan", "ios": "https://dc.lft.to/lastmile_qr_scan"}, "type": "electric_scooter", "lon": -76.98703333333333, "name": "f20f6c1e96233252228e96bcadbb15ab", "bike_id": "f20f6c1e96233252228e96bcadbb15ab", "fusion_lat": 0.0, "is_reserved": 0, "lat": 38.86539766666667, "fusion_lon": 0.0, "is_disabled": 0}, {"rental_uris": {"android": "https://dc.lft.to/lastmile_qr_scan", "ios": "https://dc.lft.to/lastmile_qr_scan"}, "type": "electric_scooter", "lon": -76.9472275, "name": "6978305ef5bd5c03ce553032c213f705", "bike_id": "6978305ef5bd5c03ce553032c213f705", "fusion_lat": 0.0, "is_reserved": 0, "lat": 38.896647, "fusion_lon": 0.0, "is_disabled": 0}, {"rental_uris": {"android": "https://dc.lft.to/lastmile_qr_scan", "ios": "https://dc.lft.to/lastmile_qr_scan"}, "type": "electric_scooter", "lon": -77.03293733333334, "name": "b13e7d3862b38dc926c5a20205efb5b7", "bike_id": "b13e7d3862b38dc926c5a20205efb5b7", "fusion_lat": 0.0, "is_reserved": 0, "lat": 38.928462333333336, "fusion_lon": 0.0, "is_disabled": 0}, {"rental_uris": {"android": "https://dc.lft.to/lastmile_qr_scan", "ios": "https://dc.lft.to/lastmile_qr_scan"}, "type": "electric_bike", "lon": -77.070438, "name": "590e23fb917fcc3e90176ff1cd60645c", "bike_id": "590e23fb917fcc3e90176ff1cd60645c", "fusion_lat": 0.0, "is_reserved": 0, "lat": 38.82446383333333, "fusion_lon": 0.0, "is_disabled": 0}, {"rental_uris": {"android": "https://dc.lft.to/lastmile_qr_scan", "ios": "https://dc.lft.to/lastmile_qr_scan"}, "type": "electric_bike", "lon": -76.9159515, "name": "af1394b6e5473b1ec2bb7fd2496413b1", "bike_id": "af1394b6e5473b1ec2bb7fd2496413b1", "fusion_lat": 0.0, "is_reserved": 0, "lat": 38.87987316666667, "fusion_lon": 0.0, "is_disabled": 0}, {"rental_uris": {"android": "https://dc.lft.to/lastmile_qr_scan", "ios": "https://dc.lft.to/lastmile_qr_scan"}, "type": "electric_scooter", "lon": -77.0120425, "name": "fee34c34db9979d0e5ee5b49276b47d0", "bike_id": "fee34c34db9979d0e5ee5b49276b47d0", "fusion_lat": 0.0, "is_reserved": 0, "lat": 38.89310166666667, "fusion_lon": 0.0, "is_disabled": 0}, {"rental_uris": {"android": "https://dc.lft.to/lastmile_qr_scan", "ios": "https://dc.lft.to/lastmile_qr_scan"}, "type": "electric_scooter", "lon": -76.97626716666667, "name": "8ab9d79a916adc576162e441e8f524a6", "bike_id": "8ab9d79a916adc576162e441e8f524a6", "fusion_lat": 0.0, "is_reserved": 0, "lat": 38.905776333333336, "fusion_lon": 0.0, "is_disabled": 0}, {"rental_uris": {"android": "https://dc.lft.to/lastmile_qr_scan", "ios": "https://dc.lft.to/lastmile_qr_scan"}, "type": "electric_bike", "lon": -77.1298, "name": "62671bfac2954126bad168a2079c286e", "bike_id": "62671bfac2954126bad168a2079c286e", "fusion_lat": 0.0, "is_reserved": 0, "lat": 38.7998945, "fusion_lon": 0.0, "is_disabled": 0}, {"rental_uris": {"android": "https://dc.lft.to/lastmile_qr_scan", "ios": "https://dc.lft.to/lastmile_qr_scan"}, "type": "electric_scooter", "lon": -77.02258216666667, "name": "5f9f13c6458f88b642c084e68d0bf53b", "bike_id": "5f9f13c6458f88b642c084e68d0bf53b", "fusion_lat": 0.0, "is_reserved": 0, "lat": 38.9283185, "fusion_lon": 0.0, "is_disabled": 0}, {"rental_uris": {"android": "https://dc.lft.to/lastmile_qr_scan", "ios": "https://dc.lft.to/lastmile_qr_scan"}, "type": "electric_bike", "lon": -77.1281345, "name": "d2fc3f34bd3db4ac7c97772b325b6cce", "bike_id": "d2fc3f34bd3db4ac7c97772b325b6cce", "fusion_lat": 0.0, "is_reserved": 0, "lat": 38.86538483333333, "fusion_lon": 0.0, "is_disabled": 0}, {"rental_uris": {"android": "https://dc.lft.to/lastmile_qr_scan", "ios": "https://dc.lft.to/lastmile_qr_scan"}, "type": "electric_scooter", "lon": -77.05047866666666, "name": "4e815ff348afacb5614e48c0f3b7f1ea", "bike_id": "4e815ff348afacb5614e48c0f3b7f1ea", "fusion_lat": 0.0, "is_reserved": 0, "lat": 38.92371933333333, "fusion_lon": 0.0, "is_disabled": 0}, {"rental_uris": {"android": "https://dc.lft.to/lastmile_qr_scan", "ios": "https://dc.lft.to/lastmile_qr_scan"}, "type": "electric_bike", "lon": -77.012047, "name": "4b50982637cdf843b48a73c1a8aaf1df", "bike_id": "4b50982637cdf843b48a73c1a8aaf1df", "fusion_lat": 0.0, "is_reserved": 0, "lat": 38.871031, "fusion_lon": 0.0, "is_disabled": 0}, {"rental_uris": {"android": "https://dc.lft.to/lastmile_qr_scan", "ios": "https://dc.lft.to/lastmile_qr_scan"}, "type": "electric_scooter", "lon": -77.019421, "name": "7a7e8aab35aeb8234072c71607a03413", "bike_id": "7a7e8aab35aeb8234072c71607a03413", "fusion_lat": 0.0, "is_reserved": 0, "lat": 38.9097475, "fusion_lon": 0.0, "is_disabled": 0}, {"rental_uris": {"android": "https://dc.lft.to/lastmile_qr_scan", "ios": "https://dc.lft.to/lastmile_qr_scan"}, "type": "electric_scooter", "lon": -76.99443483333333, "name": "797c62e1e6db1fa0e69e08734d0b9bfa", "bike_id": "797c62e1e6db1fa0e69e08734d0b9bfa", "fusion_lat": 0.0, "is_reserved": 0, "lat": 38.905077, "fusion_lon": 0.0, "is_disabled": 0}, {"rental_uris": {"android": "https://dc.lft.to/lastmile_qr_scan", "ios": "https://dc.lft.to/lastmile_qr_scan"}, "type": "electric_scooter", "lon": -77.04247433333333, "name": "a177bec1a271634d7d39b6b93dfd5b61", "bike_id": "a177bec1a271634d7d39b6b93dfd5b61", "fusion_lat": 0.0, "is_reserved": 0, "lat": 38.92272166666667, "fusion_lon": 0.0, "is_disabled": 0}, {"rental_uris": {"android": "https://dc.lft.to/lastmile_qr_scan", "ios": "https://dc.lft.to/lastmile_qr_scan"}, "type": "electric_scooter", "lon": -77.06393733333333, "name": "040695083d178bec99fdb3e68c8a7110", "bike_id": "040695083d178bec99fdb3e68c8a7110", "fusion_lat": 0.0, "is_reserved": 0, "lat": 38.92909383333333, "fusion_lon": 0.0, "is_disabled": 0}, {"rental_uris": {"android": "https://dc.lft.to/lastmile_qr_scan", "ios": "https://dc.lft.to/lastmile_qr_scan"}, "type": "electric_scooter", "lon": -77.02405066666667, "name": "23510818180b0bd76057bee6df4bbadf", "bike_id": "23510818180b0bd76057bee6df4bbadf", "fusion_lat": 0.0, "is_reserved": 0, "lat": 38.91688366666666, "fusion_lon": 0.0, "is_disabled": 0}, {"rental_uris": {"android": "https://dc.lft.to/lastmile_qr_scan", "ios": "https://dc.lft.to/lastmile_qr_scan"}, "type": "electric_scooter", "lon": -77.04509216666666, "name": "123da0877cad47120f016a45b7dffe92", "bike_id": "123da0877cad47120f016a45b7dffe92", "fusion_lat": 0.0, "is_reserved": 0, "lat": 38.906992333333335, "fusion_lon": 0.0, "is_disabled": 0}, {"rental_uris": {"android": "https://dc.lft.to/lastmile_qr_scan", "ios": "https://dc.lft.to/lastmile_qr_scan"}, "type": "electric_scooter", "lon": -76.989213, "name": "bbc68b75deb09eed741d30e5c5b3ef19", "bike_id": "bbc68b75deb09eed741d30e5c5b3ef19", "fusion_lat": 0.0, "is_reserved": 0, "lat": 38.882081, "fusion_lon": 0.0, "is_disabled": 0}, {"rental_uris": {"android": "https://dc.lft.to/lastmile_qr_scan", "ios": "https://dc.lft.to/lastmile_qr_scan"}, "type": "electric_scooter", "lon": -77.03497783333333, "name": "dee0abae2d56bb414d1aed007ced4d6a", "bike_id": "dee0abae2d56bb414d1aed007ced4d6a", "fusion_lat": 0.0, "is_reserved": 0, "lat": 38.93741633333333, "fusion_lon": 0.0, "is_disabled": 0}, {"rental_uris": {"android": "https://dc.lft.to/lastmile_qr_scan", "ios": "https://dc.lft.to/lastmile_qr_scan"}, "type": "electric_scooter", "lon": -77.04490166666666, "name": "b8e1f940000930c6998f0c9f3884d2ed", "bike_id": "b8e1f940000930c6998f0c9f3884d2ed", "fusion_lat": 0.0, "is_reserved": 0, "lat": 38.919425333333336, "fusion_lon": 0.0, "is_disabled": 0}, {"rental_uris": {"android": "https://dc.lft.to/lastmile_qr_scan", "ios": "https://dc.lft.to/lastmile_qr_scan"}, "type": "electric_scooter", "lon": -77.024807, "name": "ac43a3262498f68dbe39f76f107d2a8d", "bike_id": "ac43a3262498f68dbe39f76f107d2a8d", "fusion_lat": 0.0, "is_reserved": 0, "lat": 38.938861, "fusion_lon": 0.0, "is_disabled": 0}, {"rental_uris": {"android": "https://dc.lft.to/lastmile_qr_scan", "ios": "https://dc.lft.to/lastmile_qr_scan"}, "type": "electric_scooter", "lon": -77.01761483333334, "name": "111af18363e3979602fbfaf5ad7c6d29", "bike_id": "111af18363e3979602fbfaf5ad7c6d29", "fusion_lat": 0.0, "is_reserved": 0, "lat": 38.92102583333333, "fusion_lon": 0.0, "is_disabled": 0}, {"rental_uris": {"android": "https://dc.lft.to/lastmile_qr_scan", "ios": "https://dc.lft.to/lastmile_qr_scan"}, "type": "electric_scooter", "lon": -77.00522516666666, "name": "ec583a093a4c839e1d2bbdea71ac9d91", "bike_id": "ec583a093a4c839e1d2bbdea71ac9d91", "fusion_lat": 0.0, "is_reserved": 0, "lat": 38.91698133333333, "fusion_lon": 0.0, "is_disabled": 0}, {"rental_uris": {"android": "https://dc.lft.to/lastmile_qr_scan", "ios": "https://dc.lft.to/lastmile_qr_scan"}, "type": "electric_scooter", "lon": -77.0065635, "name": "8ba56df9ab67861f5f5acc3c4aec1624", "bike_id": "8ba56df9ab67861f5f5acc3c4aec1624", "fusion_lat": 0.0, "is_reserved": 0, "lat": 38.900088333333336, "fusion_lon": 0.0, "is_disabled": 0}, {"rental_uris": {"android": "https://dc.lft.to/lastmile_qr_scan", "ios": "https://dc.lft.to/lastmile_qr_scan"}, "type": "electric_scooter", "lon": -77.02496066666667, "name": "1a1d7cf6ebe09b2b3f529bf882d78f45", "bike_id": "1a1d7cf6ebe09b2b3f529bf882d78f45", "fusion_lat": 0.0, "is_reserved": 0, "lat": 38.90412116666667, "fusion_lon": 0.0, "is_disabled": 0}, {"rental_uris": {"android": "https://dc.lft.to/lastmile_qr_scan", "ios": "https://dc.lft.to/lastmile_qr_scan"}, "type": "electric_scooter", "lon": -77.0158755, "name": "fa295f1c2e19b83223009a614d7cb0b9", "bike_id": "fa295f1c2e19b83223009a614d7cb0b9", "fusion_lat": 0.0, "is_reserved": 0, "lat": 38.928445333333336, "fusion_lon": 0.0, "is_disabled": 0}, {"rental_uris": {"android": "https://dc.lft.to/lastmile_qr_scan", "ios": "https://dc.lft.to/lastmile_qr_scan"}, "type": "electric_bike", "lon": -76.976155, "name": "2a41f7504186ffce5d7f17e7a379a1f3", "bike_id": "2a41f7504186ffce5d7f17e7a379a1f3", "fusion_lat": 0.0, "is_reserved": 0, "lat": 38.895815666666664, "fusion_lon": 0.0, "is_disabled": 0}, {"rental_uris": {"android": "https://dc.lft.to/lastmile_qr_scan", "ios": "https://dc.lft.to/lastmile_qr_scan"}, "type": "electric_scooter", "lon": -77.0105905, "name": "36f2acdae5a0389e70a92d948e7d428c", "bike_id": "36f2acdae5a0389e70a92d948e7d428c", "fusion_lat": 0.0, "is_reserved": 0, "lat": 38.87245933333333, "fusion_lon": 0.0, "is_disabled": 0}, {"rental_uris": {"android": "https://dc.lft.to/lastmile_qr_scan", "ios": "https://dc.lft.to/lastmile_qr_scan"}, "type": "electric_scooter", "lon": -77.04637016666666, "name": "9c14ca1ace2e2382c6ab74211c9a6c3e", "bike_id": "9c14ca1ace2e2382c6ab74211c9a6c3e", "fusion_lat": 0.0, "is_reserved": 0, "lat": 38.89735783333333, "fusion_lon": 0.0, "is_disabled": 0}, {"rental_uris": {"android": "https://dc.lft.to/lastmile_qr_scan", "ios": "https://dc.lft.to/lastmile_qr_scan"}, "type": "electric_scooter", "lon": -77.023803, "name": "cbf3092aa60e52b47eda264f8a20c98d", "bike_id": "cbf3092aa60e52b47eda264f8a20c98d", "fusion_lat": 0.0, "is_reserved": 0, "lat": 38.89235866666667, "fusion_lon": 0.0, "is_disabled": 0}, {"rental_uris": {"android": "https://dc.lft.to/lastmile_qr_scan", "ios": "https://dc.lft.to/lastmile_qr_scan"}, "type": "electric_bike", "lon": -76.96558183333333, "name": "47be388216234b70a4a5cc87c9d47534", "bike_id": "47be388216234b70a4a5cc87c9d47534", "fusion_lat": 0.0, "is_reserved": 0, "lat": 38.950895833333334, "fusion_lon": 0.0, "is_disabled": 0}, {"rental_uris": {"android": "https://dc.lft.to/lastmile_qr_scan", "ios": "https://dc.lft.to/lastmile_qr_scan"}, "type": "electric_scooter", "lon": -77.04858783333333, "name": "71b8405a6f4b95837e01a66639a15fcf", "bike_id": "71b8405a6f4b95837e01a66639a15fcf", "fusion_lat": 0.0, "is_reserved": 0, "lat": 38.9040655, "fusion_lon": 0.0, "is_disabled": 0}, {"rental_uris": {"android": "https://dc.lft.to/lastmile_qr_scan", "ios": "https://dc.lft.to/lastmile_qr_scan"}, "type": "electric_scooter", "lon": -77.04569283333333, "name": "f4a2916166a8c764f220cf65de415bf2", "bike_id": "f4a2916166a8c764f220cf65de415bf2", "fusion_lat": 0.0, "is_reserved": 0, "lat": 38.900155, "fusion_lon": 0.0, "is_disabled": 0}, {"rental_uris": {"android": "https://dc.lft.to/lastmile_qr_scan", "ios": "https://dc.lft.to/lastmile_qr_scan"}, "type": "electric_scooter", "lon": -77.0242395, "name": "154a12bf948e45a020ffee06b6aa6c75", "bike_id": "154a12bf948e45a020ffee06b6aa6c75", "fusion_lat": 0.0, "is_reserved": 0, "lat": 38.909623833333335, "fusion_lon": 0.0, "is_disabled": 0}, {"rental_uris": {"android": "https://dc.lft.to/lastmile_qr_scan", "ios": "https://dc.lft.to/lastmile_qr_scan"}, "type": "electric_scooter", "lon": -77.07841316666666, "name": "694b5216ffdf5b78bc3feb13ee0516c1", "bike_id": "694b5216ffdf5b78bc3feb13ee0516c1", "fusion_lat": 0.0, "is_reserved": 0, "lat": 38.9314585, "fusion_lon": 0.0, "is_disabled": 0}, {"rental_uris": {"android": "https://dc.lft.to/lastmile_qr_scan", "ios": "https://dc.lft.to/lastmile_qr_scan"}, "type": "electric_scooter", "lon": -77.03845833333334, "name": "feca275da883018b869a9af933f6a50e", "bike_id": "feca275da883018b869a9af933f6a50e", "fusion_lat": 0.0, "is_reserved": 0, "lat": 38.91199366666667, "fusion_lon": 0.0, "is_disabled": 0}, {"rental_uris": {"android": "https://dc.lft.to/lastmile_qr_scan", "ios": "https://dc.lft.to/lastmile_qr_scan"}, "type": "electric_scooter", "lon": -77.03068866666666, "name": "dc010d2a86eb9b30f281cfeb65fd9bad", "bike_id": "dc010d2a86eb9b30f281cfeb65fd9bad", "fusion_lat": 0.0, "is_reserved": 0, "lat": 38.922513, "fusion_lon": 0.0, "is_disabled": 0}, {"rental_uris": {"android": "https://dc.lft.to/lastmile_qr_scan", "ios": "https://dc.lft.to/lastmile_qr_scan"}, "type": "electric_scooter", "lon": -77.02964383333334, "name": "1c7fcdf8df29c6f9c04b4835ccc14a79", "bike_id": "1c7fcdf8df29c6f9c04b4835ccc14a79", "fusion_lat": 0.0, "is_reserved": 0, "lat": 38.9246065, "fusion_lon": 0.0, "is_disabled": 0}, {"rental_uris": {"android": "https://dc.lft.to/lastmile_qr_scan", "ios": "https://dc.lft.to/lastmile_qr_scan"}, "type": "electric_bike", "lon": -77.0510775, "name": "735770015a92b47357e1b99541b488fb", "bike_id": "735770015a92b47357e1b99541b488fb", "fusion_lat": 0.0, "is_reserved": 0, "lat": 38.945609833333336, "fusion_lon": 0.0, "is_disabled": 0}, {"rental_uris": {"android": "https://dc.lft.to/lastmile_qr_scan", "ios": "https://dc.lft.to/lastmile_qr_scan"}, "type": "electric_scooter", "lon": -77.029788, "name": "b4009983eaf4e926eb5a1a83af8a6fbd", "bike_id": "b4009983eaf4e926eb5a1a83af8a6fbd", "fusion_lat": 0.0, "is_reserved": 0, "lat": 38.906739, "fusion_lon": 0.0, "is_disabled": 0}, {"rental_uris": {"android": "https://dc.lft.to/lastmile_qr_scan", "ios": "https://dc.lft.to/lastmile_qr_scan"}, "type": "electric_scooter", "lon": -77.038795, "name": "deedf8ad78abc396467c5feab92e17fb", "bike_id": "deedf8ad78abc396467c5feab92e17fb", "fusion_lat": 0.0, "is_reserved": 0, "lat": 38.934317, "fusion_lon": 0.0, "is_disabled": 0}, {"rental_uris": {"android": "https://dc.lft.to/lastmile_qr_scan", "ios": "https://dc.lft.to/lastmile_qr_scan"}, "type": "electric_scooter", "lon": -77.05008716666667, "name": "810486b653bb255f700792c9b6ab1e94", "bike_id": "810486b653bb255f700792c9b6ab1e94", "fusion_lat": 0.0, "is_reserved": 0, "lat": 38.9076645, "fusion_lon": 0.0, "is_disabled": 0}, {"rental_uris": {"android": "https://dc.lft.to/lastmile_qr_scan", "ios": "https://dc.lft.to/lastmile_qr_scan"}, "type": "electric_bike", "lon": -77.10716083333334, "name": "cd045c7a1b6658963f2122e0cf4b0206", "bike_id": "cd045c7a1b6658963f2122e0cf4b0206", "fusion_lat": 0.0, "is_reserved": 0, "lat": 38.855473833333335, "fusion_lon": 0.0, "is_disabled": 0}, {"rental_uris": {"android": "https://dc.lft.to/lastmile_qr_scan", "ios": "https://dc.lft.to/lastmile_qr_scan"}, "type": "electric_scooter", "lon": -77.0211595, "name": "7b30f5c03c9a2ad14f5f9d73e945285f", "bike_id": "7b30f5c03c9a2ad14f5f9d73e945285f", "fusion_lat": 0.0, "is_reserved": 0, "lat": 38.93016266666667, "fusion_lon": 0.0, "is_disabled": 0}, {"rental_uris": {"android": "https://dc.lft.to/lastmile_qr_scan", "ios": "https://dc.lft.to/lastmile_qr_scan"}, "type": "electric_scooter", "lon": -77.0238485, "name": "110a66f77934fed6eff7d2790cd18fce", "bike_id": "110a66f77934fed6eff7d2790cd18fce", "fusion_lat": 0.0, "is_reserved": 0, "lat": 38.9207745, "fusion_lon": 0.0, "is_disabled": 0}, {"rental_uris": {"android": "https://dc.lft.to/lastmile_qr_scan", "ios": "https://dc.lft.to/lastmile_qr_scan"}, "type": "electric_scooter", "lon": -77.00609283333333, "name": "e94f87f61a13b58cf19dbe6f3944001a", "bike_id": "e94f87f61a13b58cf19dbe6f3944001a", "fusion_lat": 0.0, "is_reserved": 0, "lat": 38.90570966666667, "fusion_lon": 0.0, "is_disabled": 0}, {"rental_uris": {"android": "https://dc.lft.to/lastmile_qr_scan", "ios": "https://dc.lft.to/lastmile_qr_scan"}, "type": "electric_scooter", "lon": -77.01874316666667, "name": "b4b7ad2ed2facbb84d2013252ec4300e", "bike_id": "b4b7ad2ed2facbb84d2013252ec4300e", "fusion_lat": 0.0, "is_reserved": 0, "lat": 38.917703, "fusion_lon": 0.0, "is_disabled": 0}, {"rental_uris": {"android": "https://dc.lft.to/lastmile_qr_scan", "ios": "https://dc.lft.to/lastmile_qr_scan"}, "type": "electric_scooter", "lon": -76.9950765, "name": "3d58717a99d0aa27bb1603bbcc5544b5", "bike_id": "3d58717a99d0aa27bb1603bbcc5544b5", "fusion_lat": 0.0, "is_reserved": 0, "lat": 38.844658833333334, "fusion_lon": 0.0, "is_disabled": 0}, {"rental_uris": {"android": "https://dc.lft.to/lastmile_qr_scan", "ios": "https://dc.lft.to/lastmile_qr_scan"}, "type": "electric_scooter", "lon": -77.03316316666667, "name": "bc5f3af76ccde32ca12013c5c7179b62", "bike_id": "bc5f3af76ccde32ca12013c5c7179b62", "fusion_lat": 0.0, "is_reserved": 0, "lat": 38.8923405, "fusion_lon": 0.0, "is_disabled": 0}, {"rental_uris": {"android": "https://dc.lft.to/lastmile_qr_scan", "ios": "https://dc.lft.to/lastmile_qr_scan"}, "type": "electric_scooter", "lon": -77.03653833333334, "name": "62e9928d19e549340a9b0dcc789303aa", "bike_id": "62e9928d19e549340a9b0dcc789303aa", "fusion_lat": 0.0, "is_reserved": 0, "lat": 38.922487, "fusion_lon": 0.0, "is_disabled": 0}, {"rental_uris": {"android": "https://dc.lft.to/lastmile_qr_scan", "ios": "https://dc.lft.to/lastmile_qr_scan"}, "type": "electric_scooter", "lon": -77.00373433333333, "name": "18d93a5b57fed2cca92c3e5c1044a6ee", "bike_id": "18d93a5b57fed2cca92c3e5c1044a6ee", "fusion_lat": 0.0, "is_reserved": 0, "lat": 38.906039666666665, "fusion_lon": 0.0, "is_disabled": 0}, {"rental_uris": {"android": "https://dc.lft.to/lastmile_qr_scan", "ios": "https://dc.lft.to/lastmile_qr_scan"}, "type": "electric_scooter", "lon": -77.00157666666667, "name": "5999403e7845ac2c3582ae32495a2b24", "bike_id": "5999403e7845ac2c3582ae32495a2b24", "fusion_lat": 0.0, "is_reserved": 0, "lat": 38.90774566666666, "fusion_lon": 0.0, "is_disabled": 0}, {"rental_uris": {"android": "https://dc.lft.to/lastmile_qr_scan", "ios": "https://dc.lft.to/lastmile_qr_scan"}, "type": "electric_scooter", "lon": -77.03288733333333, "name": "3a4b3e7759afcbbacdae60b77a1178c1", "bike_id": "3a4b3e7759afcbbacdae60b77a1178c1", "fusion_lat": 0.0, "is_reserved": 0, "lat": 38.95650966666667, "fusion_lon": 0.0, "is_disabled": 0}, {"rental_uris": {"android": "https://dc.lft.to/lastmile_qr_scan", "ios": "https://dc.lft.to/lastmile_qr_scan"}, "type": "electric_scooter", "lon": -77.04105433333334, "name": "cdc29e9d09aa122f5a3c48da717ead28", "bike_id": "cdc29e9d09aa122f5a3c48da717ead28", "fusion_lat": 0.0, "is_reserved": 0, "lat": 38.9253805, "fusion_lon": 0.0, "is_disabled": 0}, {"rental_uris": {"android": "https://dc.lft.to/lastmile_qr_scan", "ios": "https://dc.lft.to/lastmile_qr_scan"}, "type": "electric_scooter", "lon": -76.99622533333333, "name": "cecd9a25020c5bf4562586b3e31436c1", "bike_id": "cecd9a25020c5bf4562586b3e31436c1", "fusion_lat": 0.0, "is_reserved": 0, "lat": 38.88032716666667, "fusion_lon": 0.0, "is_disabled": 0}, {"rental_uris": {"android": "https://dc.lft.to/lastmile_qr_scan", "ios": "https://dc.lft.to/lastmile_qr_scan"}, "type": "electric_scooter", "lon": -77.02283733333333, "name": "4add8d91a87107cdc15f8027d2632e34", "bike_id": "4add8d91a87107cdc15f8027d2632e34", "fusion_lat": 0.0, "is_reserved": 0, "lat": 38.926906, "fusion_lon": 0.0, "is_disabled": 0}, {"rental_uris": {"android": "https://dc.lft.to/lastmile_qr_scan", "ios": "https://dc.lft.to/lastmile_qr_scan"}, "type": "electric_scooter", "lon": -76.99093516666667, "name": "1c8e5be308e798735caf8978913e72f3", "bike_id": "1c8e5be308e798735caf8978913e72f3", "fusion_lat": 0.0, "is_reserved": 0, "lat": 38.929557833333334, "fusion_lon": 0.0, "is_disabled": 0}, {"rental_uris": {"android": "https://dc.lft.to/lastmile_qr_scan", "ios": "https://dc.lft.to/lastmile_qr_scan"}, "type": "electric_scooter", "lon": -77.018124, "name": "4a70a060d8162a891c0ea6b8cc05fea8", "bike_id": "4a70a060d8162a891c0ea6b8cc05fea8", "fusion_lat": 0.0, "is_reserved": 0, "lat": 38.903877666666666, "fusion_lon": 0.0, "is_disabled": 0}, {"rental_uris": {"android": "https://dc.lft.to/lastmile_qr_scan", "ios": "https://dc.lft.to/lastmile_qr_scan"}, "type": "electric_scooter", "lon": -76.98928633333334, "name": "ed24ba01caf515c9fbcb320e05fdda92", "bike_id": "ed24ba01caf515c9fbcb320e05fdda92", "fusion_lat": 0.0, "is_reserved": 0, "lat": 38.86593716666667, "fusion_lon": 0.0, "is_disabled": 0}, {"rental_uris": {"android": "https://dc.lft.to/lastmile_qr_scan", "ios": "https://dc.lft.to/lastmile_qr_scan"}, "type": "electric_bike", "lon": -77.03984, "name": "019e138e2f02b7b24513256709dc8f52", "bike_id": "019e138e2f02b7b24513256709dc8f52", "fusion_lat": 0.0, "is_reserved": 0, "lat": 38.8030055, "fusion_lon": 0.0, "is_disabled": 0}, {"rental_uris": {"android": "https://dc.lft.to/lastmile_qr_scan", "ios": "https://dc.lft.to/lastmile_qr_scan"}, "type": "electric_scooter", "lon": -77.02090416666667, "name": "96c756e6b30fc806a9e112ee66c840bf", "bike_id": "96c756e6b30fc806a9e112ee66c840bf", "fusion_lat": 0.0, "is_reserved": 0, "lat": 38.91009783333333, "fusion_lon": 0.0, "is_disabled": 0}, {"rental_uris": {"android": "https://dc.lft.to/lastmile_qr_scan", "ios": "https://dc.lft.to/lastmile_qr_scan"}, "type": "electric_scooter", "lon": -77.05293616666667, "name": "462b7e5912845c86343b2f58b2b24b1e", "bike_id": "462b7e5912845c86343b2f58b2b24b1e", "fusion_lat": 0.0, "is_reserved": 0, "lat": 38.89887066666667, "fusion_lon": 0.0, "is_disabled": 0}, {"rental_uris": {"android": "https://dc.lft.to/lastmile_qr_scan", "ios": "https://dc.lft.to/lastmile_qr_scan"}, "type": "electric_bike", "lon": -77.016666, "name": "826de01e5bc45064d227975a7b3f8808", "bike_id": "826de01e5bc45064d227975a7b3f8808", "fusion_lat": 0.0, "is_reserved": 0, "lat": 38.881114833333335, "fusion_lon": 0.0, "is_disabled": 0}, {"rental_uris": {"android": "https://dc.lft.to/lastmile_qr_scan", "ios": "https://dc.lft.to/lastmile_qr_scan"}, "type": "electric_scooter", "lon": -76.9968815, "name": "9d127091b73a2c5105fa87166ed460ef", "bike_id": "9d127091b73a2c5105fa87166ed460ef", "fusion_lat": 0.0, "is_reserved": 0, "lat": 38.8765975, "fusion_lon": 0.0, "is_disabled": 0}, {"rental_uris": {"android": "https://dc.lft.to/lastmile_qr_scan", "ios": "https://dc.lft.to/lastmile_qr_scan"}, "type": "electric_scooter", "lon": -77.00796216666667, "name": "1244a553aca2148b67696695bfd126e1", "bike_id": "1244a553aca2148b67696695bfd126e1", "fusion_lat": 0.0, "is_reserved": 0, "lat": 38.878349166666666, "fusion_lon": 0.0, "is_disabled": 0}, {"rental_uris": {"android": "https://dc.lft.to/lastmile_qr_scan", "ios": "https://dc.lft.to/lastmile_qr_scan"}, "type": "electric_scooter", "lon": -77.038991, "name": "e9d3284bd9937ea5ce8b669fe0dec61a", "bike_id": "e9d3284bd9937ea5ce8b669fe0dec61a", "fusion_lat": 0.0, "is_reserved": 0, "lat": 38.93365516666667, "fusion_lon": 0.0, "is_disabled": 0}, {"rental_uris": {"android": "https://dc.lft.to/lastmile_qr_scan", "ios": "https://dc.lft.to/lastmile_qr_scan"}, "type": "electric_bike", "lon": -76.98011916666667, "name": "8929e630991ee73a935aeaba0efc4435", "bike_id": "8929e630991ee73a935aeaba0efc4435", "fusion_lat": 0.0, "is_reserved": 0, "lat": 38.9023365, "fusion_lon": 0.0, "is_disabled": 0}, {"rental_uris": {"android": "https://dc.lft.to/lastmile_qr_scan", "ios": "https://dc.lft.to/lastmile_qr_scan"}, "type": "electric_scooter", "lon": -77.0350865, "name": "e65346852bea05b19f8343fbb9ed287a", "bike_id": "e65346852bea05b19f8343fbb9ed287a", "fusion_lat": 0.0, "is_reserved": 0, "lat": 38.92143983333333, "fusion_lon": 0.0, "is_disabled": 0}, {"rental_uris": {"android": "https://dc.lft.to/lastmile_qr_scan", "ios": "https://dc.lft.to/lastmile_qr_scan"}, "type": "electric_scooter", "lon": -77.04962816666666, "name": "b16184f639af848d1e3116956ac67a27", "bike_id": "b16184f639af848d1e3116956ac67a27", "fusion_lat": 0.0, "is_reserved": 0, "lat": 38.91257233333333, "fusion_lon": 0.0, "is_disabled": 0}, {"rental_uris": {"android": "https://dc.lft.to/lastmile_qr_scan", "ios": "https://dc.lft.to/lastmile_qr_scan"}, "type": "electric_scooter", "lon": -77.042224, "name": "d0f8a72128cb9fd88d8caa66d82cf9e6", "bike_id": "d0f8a72128cb9fd88d8caa66d82cf9e6", "fusion_lat": 0.0, "is_reserved": 0, "lat": 38.926269833333336, "fusion_lon": 0.0, "is_disabled": 0}, {"rental_uris": {"android": "https://dc.lft.to/lastmile_qr_scan", "ios": "https://dc.lft.to/lastmile_qr_scan"}, "type": "electric_scooter", "lon": -77.02341216666666, "name": "32564b904fae7b9c4bc745d081c98b7a", "bike_id": "32564b904fae7b9c4bc745d081c98b7a", "fusion_lat": 0.0, "is_reserved": 0, "lat": 38.929813833333334, "fusion_lon": 0.0, "is_disabled": 0}, {"rental_uris": {"android": "https://dc.lft.to/lastmile_qr_scan", "ios": "https://dc.lft.to/lastmile_qr_scan"}, "type": "electric_scooter", "lon": -76.98777233333334, "name": "0fd136f6585c2c1a2255b936353c0f27", "bike_id": "0fd136f6585c2c1a2255b936353c0f27", "fusion_lat": 0.0, "is_reserved": 0, "lat": 38.900320666666666, "fusion_lon": 0.0, "is_disabled": 0}, {"rental_uris": {"android": "https://dc.lft.to/lastmile_qr_scan", "ios": "https://dc.lft.to/lastmile_qr_scan"}, "type": "electric_scooter", "lon": -77.029842, "name": "8e6ca9e764ab5a2aedb5b65555ddbe73", "bike_id": "8e6ca9e764ab5a2aedb5b65555ddbe73", "fusion_lat": 0.0, "is_reserved": 0, "lat": 38.93761133333334, "fusion_lon": 0.0, "is_disabled": 0}, {"rental_uris": {"android": "https://dc.lft.to/lastmile_qr_scan", "ios": "https://dc.lft.to/lastmile_qr_scan"}, "type": "electric_bike", "lon": -76.92339033333333, "name": "93f4daeebdb3dc840b34aafec0b822ee", "bike_id": "93f4daeebdb3dc840b34aafec0b822ee", "fusion_lat": 0.0, "is_reserved": 0, "lat": 38.887925, "fusion_lon": 0.0, "is_disabled": 0}, {"rental_uris": {"android": "https://dc.lft.to/lastmile_qr_scan", "ios": "https://dc.lft.to/lastmile_qr_scan"}, "type": "electric_scooter", "lon": -77.07266666666666, "name": "77d932088176adba3353689575e0edb6", "bike_id": "77d932088176adba3353689575e0edb6", "fusion_lat": 0.0, "is_reserved": 0, "lat": 38.93482633333333, "fusion_lon": 0.0, "is_disabled": 0}, {"rental_uris": {"android": "https://dc.lft.to/lastmile_qr_scan", "ios": "https://dc.lft.to/lastmile_qr_scan"}, "type": "electric_scooter", "lon": -76.99024333333334, "name": "452180859211c08dfadc64dedb0971e8", "bike_id": "452180859211c08dfadc64dedb0971e8", "fusion_lat": 0.0, "is_reserved": 0, "lat": 38.864082, "fusion_lon": 0.0, "is_disabled": 0}, {"rental_uris": {"android": "https://dc.lft.to/lastmile_qr_scan", "ios": "https://dc.lft.to/lastmile_qr_scan"}, "type": "electric_scooter", "lon": -77.03177233333334, "name": "556610bfa534a2a507b8fe54297eb8a0", "bike_id": "556610bfa534a2a507b8fe54297eb8a0", "fusion_lat": 0.0, "is_reserved": 0, "lat": 38.901655, "fusion_lon": 0.0, "is_disabled": 0}, {"rental_uris": {"android": "https://dc.lft.to/lastmile_qr_scan", "ios": "https://dc.lft.to/lastmile_qr_scan"}, "type": "electric_bike", "lon": -77.02980933333333, "name": "c9b56a78f5e2a61baa2efd4b05f467ed", "bike_id": "c9b56a78f5e2a61baa2efd4b05f467ed", "fusion_lat": 0.0, "is_reserved": 0, "lat": 38.937007333333334, "fusion_lon": 0.0, "is_disabled": 0}, {"rental_uris": {"android": "https://dc.lft.to/lastmile_qr_scan", "ios": "https://dc.lft.to/lastmile_qr_scan"}, "type": "electric_scooter", "lon": -76.98452283333333, "name": "4a9eeb904fee2fdbe564dac546cc4d0d", "bike_id": "4a9eeb904fee2fdbe564dac546cc4d0d", "fusion_lat": 0.0, "is_reserved": 0, "lat": 38.880196833333336, "fusion_lon": 0.0, "is_disabled": 0}, {"rental_uris": {"android": "https://dc.lft.to/lastmile_qr_scan", "ios": "https://dc.lft.to/lastmile_qr_scan"}, "type": "electric_scooter", "lon": -76.99490666666667, "name": "182f7f43d01b7b1ee1f0fd3ff845a4c7", "bike_id": "182f7f43d01b7b1ee1f0fd3ff845a4c7", "fusion_lat": 0.0, "is_reserved": 0, "lat": 38.86244466666667, "fusion_lon": 0.0, "is_disabled": 0}, {"rental_uris": {"android": "https://dc.lft.to/lastmile_qr_scan", "ios": "https://dc.lft.to/lastmile_qr_scan"}, "type": "electric_scooter", "lon": -77.0321865, "name": "360b3d8ca64cdedfd3dfdc16b53d3bf8", "bike_id": "360b3d8ca64cdedfd3dfdc16b53d3bf8", "fusion_lat": 0.0, "is_reserved": 0, "lat": 38.89639866666667, "fusion_lon": 0.0, "is_disabled": 0}, {"rental_uris": {"android": "https://dc.lft.to/lastmile_qr_scan", "ios": "https://dc.lft.to/lastmile_qr_scan"}, "type": "electric_scooter", "lon": -77.03234133333333, "name": "8b75761ef1675a7fe9056b3d3d8448b5", "bike_id": "8b75761ef1675a7fe9056b3d3d8448b5", "fusion_lat": 0.0, "is_reserved": 0, "lat": 38.92991333333333, "fusion_lon": 0.0, "is_disabled": 0}, {"rental_uris": {"android": "https://dc.lft.to/lastmile_qr_scan", "ios": "https://dc.lft.to/lastmile_qr_scan"}, "type": "electric_scooter", "lon": -76.990159, "name": "3aeb429ddc64ca7d60495c28ab0cc951", "bike_id": "3aeb429ddc64ca7d60495c28ab0cc951", "fusion_lat": 0.0, "is_reserved": 0, "lat": 38.89917116666667, "fusion_lon": 0.0, "is_disabled": 0}, {"rental_uris": {"android": "https://dc.lft.to/lastmile_qr_scan", "ios": "https://dc.lft.to/lastmile_qr_scan"}, "type": "electric_scooter", "lon": -77.01814366666666, "name": "62207fb0d7734a5df4e06378614bfcf0", "bike_id": "62207fb0d7734a5df4e06378614bfcf0", "fusion_lat": 0.0, "is_reserved": 0, "lat": 38.8862655, "fusion_lon": 0.0, "is_disabled": 0}, {"rental_uris": {"android": "https://dc.lft.to/lastmile_qr_scan", "ios": "https://dc.lft.to/lastmile_qr_scan"}, "type": "electric_scooter", "lon": -76.9755805, "name": "78e76ddcd613f9c02b8cd6b04857a182", "bike_id": "78e76ddcd613f9c02b8cd6b04857a182", "fusion_lat": 0.0, "is_reserved": 0, "lat": 38.904470833333335, "fusion_lon": 0.0, "is_disabled": 0}, {"rental_uris": {"android": "https://dc.lft.to/lastmile_qr_scan", "ios": "https://dc.lft.to/lastmile_qr_scan"}, "type": "electric_scooter", "lon": -77.04155833333333, "name": "389bf4c450d2648e59150e7382d473bb", "bike_id": "389bf4c450d2648e59150e7382d473bb", "fusion_lat": 0.0, "is_reserved": 0, "lat": 38.919306166666665, "fusion_lon": 0.0, "is_disabled": 0}, {"rental_uris": {"android": "https://dc.lft.to/lastmile_qr_scan", "ios": "https://dc.lft.to/lastmile_qr_scan"}, "type": "electric_scooter", "lon": -77.02176983333334, "name": "427845114a238798e921d145796fe3ba", "bike_id": "427845114a238798e921d145796fe3ba", "fusion_lat": 0.0, "is_reserved": 0, "lat": 38.910643666666665, "fusion_lon": 0.0, "is_disabled": 0}, {"rental_uris": {"android": "https://dc.lft.to/lastmile_qr_scan", "ios": "https://dc.lft.to/lastmile_qr_scan"}, "type": "electric_scooter", "lon": -77.0467385, "name": "2d344a68067c39af9e084a9339d4f0e3", "bike_id": "2d344a68067c39af9e084a9339d4f0e3", "fusion_lat": 0.0, "is_reserved": 0, "lat": 38.9106175, "fusion_lon": 0.0, "is_disabled": 0}, {"rental_uris": {"android": "https://dc.lft.to/lastmile_qr_scan", "ios": "https://dc.lft.to/lastmile_qr_scan"}, "type": "electric_scooter", "lon": -76.9491715, "name": "b1f53175d588cfc10da334909c03c12c", "bike_id": "b1f53175d588cfc10da334909c03c12c", "fusion_lat": 0.0, "is_reserved": 0, "lat": 38.8927255, "fusion_lon": 0.0, "is_disabled": 0}, {"rental_uris": {"android": "https://dc.lft.to/lastmile_qr_scan", "ios": "https://dc.lft.to/lastmile_qr_scan"}, "type": "electric_scooter", "lon": -76.97931216666667, "name": "63526ddbe2acebab402073649adf1d65", "bike_id": "63526ddbe2acebab402073649adf1d65", "fusion_lat": 0.0, "is_reserved": 0, "lat": 38.90241366666667, "fusion_lon": 0.0, "is_disabled": 0}, {"rental_uris": {"android": "https://dc.lft.to/lastmile_qr_scan", "ios": "https://dc.lft.to/lastmile_qr_scan"}, "type": "electric_scooter", "lon": -77.02475483333333, "name": "8d04cb70311d607650436bc74e284c44", "bike_id": "8d04cb70311d607650436bc74e284c44", "fusion_lat": 0.0, "is_reserved": 0, "lat": 38.936237166666665, "fusion_lon": 0.0, "is_disabled": 0}, {"rental_uris": {"android": "https://dc.lft.to/lastmile_qr_scan", "ios": "https://dc.lft.to/lastmile_qr_scan"}, "type": "electric_bike", "lon": -77.08434, "name": "39bae396360393a34dae68a287790287", "bike_id": "39bae396360393a34dae68a287790287", "fusion_lat": 0.0, "is_reserved": 0, "lat": 38.81029266666667, "fusion_lon": 0.0, "is_disabled": 0}, {"rental_uris": {"android": "https://dc.lft.to/lastmile_qr_scan", "ios": "https://dc.lft.to/lastmile_qr_scan"}, "type": "electric_bike", "lon": -76.97504133333334, "name": "cc1eb3461259ce23f35df44f2b772dad", "bike_id": "cc1eb3461259ce23f35df44f2b772dad", "fusion_lat": 0.0, "is_reserved": 0, "lat": 38.91937766666667, "fusion_lon": 0.0, "is_disabled": 0}, {"rental_uris": {"android": "https://dc.lft.to/lastmile_qr_scan", "ios": "https://dc.lft.to/lastmile_qr_scan"}, "type": "electric_bike", "lon": -76.99395366666667, "name": "615d8bdacb04d434cace63c6381556ce", "bike_id": "615d8bdacb04d434cace63c6381556ce", "fusion_lat": 0.0, "is_reserved": 0, "lat": 38.9226895, "fusion_lon": 0.0, "is_disabled": 0}, {"rental_uris": {"android": "https://dc.lft.to/lastmile_qr_scan", "ios": "https://dc.lft.to/lastmile_qr_scan"}, "type": "electric_scooter", "lon": -77.031495, "name": "5ecde66d02c15a4d8496f6a8b0aa2da9", "bike_id": "5ecde66d02c15a4d8496f6a8b0aa2da9", "fusion_lat": 0.0, "is_reserved": 0, "lat": 38.88748416666667, "fusion_lon": 0.0, "is_disabled": 0}, {"rental_uris": {"android": "https://dc.lft.to/lastmile_qr_scan", "ios": "https://dc.lft.to/lastmile_qr_scan"}, "type": "electric_scooter", "lon": -77.035026, "name": "449051510635f2c53c8daf7a39e174e4", "bike_id": "449051510635f2c53c8daf7a39e174e4", "fusion_lat": 0.0, "is_reserved": 0, "lat": 38.926340833333335, "fusion_lon": 0.0, "is_disabled": 0}, {"rental_uris": {"android": "https://dc.lft.to/lastmile_qr_scan", "ios": "https://dc.lft.to/lastmile_qr_scan"}, "type": "electric_scooter", "lon": -77.03438616666666, "name": "332a1df1ec6291616f78a20dae08ec18", "bike_id": "332a1df1ec6291616f78a20dae08ec18", "fusion_lat": 0.0, "is_reserved": 0, "lat": 38.902696, "fusion_lon": 0.0, "is_disabled": 0}, {"rental_uris": {"android": "https://dc.lft.to/lastmile_qr_scan", "ios": "https://dc.lft.to/lastmile_qr_scan"}, "type": "electric_scooter", "lon": -77.0551765, "name": "2a60aeff083ee8b678fa8f6158aaa8e6", "bike_id": "2a60aeff083ee8b678fa8f6158aaa8e6", "fusion_lat": 0.0, "is_reserved": 0, "lat": 38.94413933333333, "fusion_lon": 0.0, "is_disabled": 0}, {"rental_uris": {"android": "https://dc.lft.to/lastmile_qr_scan", "ios": "https://dc.lft.to/lastmile_qr_scan"}, "type": "electric_scooter", "lon": -76.94842433333334, "name": "ae08deed1ce65d581600f298634dd3e8", "bike_id": "ae08deed1ce65d581600f298634dd3e8", "fusion_lat": 0.0, "is_reserved": 0, "lat": 38.894883, "fusion_lon": 0.0, "is_disabled": 0}, {"rental_uris": {"android": "https://dc.lft.to/lastmile_qr_scan", "ios": "https://dc.lft.to/lastmile_qr_scan"}, "type": "electric_scooter", "lon": -77.02377916666667, "name": "4f8d70a123566804d76d309fe8a2f9c6", "bike_id": "4f8d70a123566804d76d309fe8a2f9c6", "fusion_lat": 0.0, "is_reserved": 0, "lat": 38.8937325, "fusion_lon": 0.0, "is_disabled": 0}, {"rental_uris": {"android": "https://dc.lft.to/lastmile_qr_scan", "ios": "https://dc.lft.to/lastmile_qr_scan"}, "type": "electric_scooter", "lon": -77.03004516666667, "name": "4f3dabff77456dba288ada0b119f46cd", "bike_id": "4f3dabff77456dba288ada0b119f46cd", "fusion_lat": 0.0, "is_reserved": 0, "lat": 38.93116166666667, "fusion_lon": 0.0, "is_disabled": 0}, {"rental_uris": {"android": "https://dc.lft.to/lastmile_qr_scan", "ios": "https://dc.lft.to/lastmile_qr_scan"}, "type": "electric_scooter", "lon": -77.04592366666667, "name": "1e3b5cd801c7a456f79bd1b276ff028b", "bike_id": "1e3b5cd801c7a456f79bd1b276ff028b", "fusion_lat": 0.0, "is_reserved": 0, "lat": 38.92125133333333, "fusion_lon": 0.0, "is_disabled": 0}, {"rental_uris": {"android": "https://dc.lft.to/lastmile_qr_scan", "ios": "https://dc.lft.to/lastmile_qr_scan"}, "type": "electric_scooter", "lon": -77.00109766666667, "name": "dac0753bbd169e1f965ee8f0b181bd77", "bike_id": "dac0753bbd169e1f965ee8f0b181bd77", "fusion_lat": 0.0, "is_reserved": 0, "lat": 38.91635183333333, "fusion_lon": 0.0, "is_disabled": 0}, {"rental_uris": {"android": "https://dc.lft.to/lastmile_qr_scan", "ios": "https://dc.lft.to/lastmile_qr_scan"}, "type": "electric_scooter", "lon": -76.94853533333334, "name": "3f191140fdb821d1a85517865ffc7f9f", "bike_id": "3f191140fdb821d1a85517865ffc7f9f", "fusion_lat": 0.0, "is_reserved": 0, "lat": 38.883043666666666, "fusion_lon": 0.0, "is_disabled": 0}, {"rental_uris": {"android": "https://dc.lft.to/lastmile_qr_scan", "ios": "https://dc.lft.to/lastmile_qr_scan"}, "type": "electric_scooter", "lon": -77.05882666666666, "name": "21bd268bd16ce2cf31ef8f1702bcd228", "bike_id": "21bd268bd16ce2cf31ef8f1702bcd228", "fusion_lat": 0.0, "is_reserved": 0, "lat": 38.936418, "fusion_lon": 0.0, "is_disabled": 0}, {"rental_uris": {"android": "https://dc.lft.to/lastmile_qr_scan", "ios": "https://dc.lft.to/lastmile_qr_scan"}, "type": "electric_scooter", "lon": -76.98604183333333, "name": "9fd1242e429554d7d0a330bf2393cb13", "bike_id": "9fd1242e429554d7d0a330bf2393cb13", "fusion_lat": 0.0, "is_reserved": 0, "lat": 38.854455, "fusion_lon": 0.0, "is_disabled": 0}, {"rental_uris": {"android": "https://dc.lft.to/lastmile_qr_scan", "ios": "https://dc.lft.to/lastmile_qr_scan"}, "type": "electric_scooter", "lon": -76.98924566666666, "name": "5ce223696ebdf8517dcb4cb11b229d49", "bike_id": "5ce223696ebdf8517dcb4cb11b229d49", "fusion_lat": 0.0, "is_reserved": 0, "lat": 38.90229983333333, "fusion_lon": 0.0, "is_disabled": 0}, {"rental_uris": {"android": "https://dc.lft.to/lastmile_qr_scan", "ios": "https://dc.lft.to/lastmile_qr_scan"}, "type": "electric_scooter", "lon": -77.04820183333334, "name": "9964892a5467934c28bad9f37804324a", "bike_id": "9964892a5467934c28bad9f37804324a", "fusion_lat": 0.0, "is_reserved": 0, "lat": 38.90040533333333, "fusion_lon": 0.0, "is_disabled": 0}, {"rental_uris": {"android": "https://dc.lft.to/lastmile_qr_scan", "ios": "https://dc.lft.to/lastmile_qr_scan"}, "type": "electric_bike", "lon": -76.98831083333333, "name": "864a922b845e4a097979724f4730ffb0", "bike_id": "864a922b845e4a097979724f4730ffb0", "fusion_lat": 0.0, "is_reserved": 0, "lat": 38.985641333333334, "fusion_lon": 0.0, "is_disabled": 0}, {"rental_uris": {"android": "https://dc.lft.to/lastmile_qr_scan", "ios": "https://dc.lft.to/lastmile_qr_scan"}, "type": "electric_scooter", "lon": -77.02177316666666, "name": "071be15ad4d41ff214f0d7c3d4633cf1", "bike_id": "071be15ad4d41ff214f0d7c3d4633cf1", "fusion_lat": 0.0, "is_reserved": 0, "lat": 38.892311166666666, "fusion_lon": 0.0, "is_disabled": 0}, {"rental_uris": {"android": "https://dc.lft.to/lastmile_qr_scan", "ios": "https://dc.lft.to/lastmile_qr_scan"}, "type": "electric_scooter", "lon": -77.04578633333334, "name": "dd0be01e0010a12d6c2292146f5500c7", "bike_id": "dd0be01e0010a12d6c2292146f5500c7", "fusion_lat": 0.0, "is_reserved": 0, "lat": 38.9214255, "fusion_lon": 0.0, "is_disabled": 0}, {"rental_uris": {"android": "https://dc.lft.to/lastmile_qr_scan", "ios": "https://dc.lft.to/lastmile_qr_scan"}, "type": "electric_scooter", "lon": -77.02356766666666, "name": "71b798bb6dd5edb2e4f749eb2601b953", "bike_id": "71b798bb6dd5edb2e4f749eb2601b953", "fusion_lat": 0.0, "is_reserved": 0, "lat": 38.91789033333333, "fusion_lon": 0.0, "is_disabled": 0}, {"rental_uris": {"android": "https://dc.lft.to/lastmile_qr_scan", "ios": "https://dc.lft.to/lastmile_qr_scan"},