{"data": {"bikes": [{"lat": 38.907438666666664, "is_disabled": 0, "type": "electric_scooter", "lon": -77.0005535, "bike_id": "36e869839c587ba09bb159a67a31c877", "fusion_lat": 0.0, "name": "36e869839c587ba09bb159a67a31c877", "is_reserved": 0, "rental_uris": {"android": "https://dc.lft.to/lastmile_qr_scan", "ios": "https://dc.lft.to/lastmile_qr_scan"}, "fusion_lon": 0.0}, {"lat": 38.84432133333333, "is_disabled": 0, "type": "electric_scooter", "lon": -76.99812616666667, "bike_id": "969a7b282ccab9ebe2c35a355e9956e9", "fusion_lat": 0.0, "name": "969a7b282ccab9ebe2c35a355e9956e9", "is_reserved": 0, "rental_uris": {"android": "https://dc.lft.to/lastmile_qr_scan", "ios": "https://dc.lft.to/lastmile_qr_scan"}, "fusion_lon": 0.0}, {"lat": 38.923100166666664, "is_disabled": 0, "type": "electric_scooter", "lon": -77.0465025, "bike_id": "b5ad0fcd8973c2e1d4c6a19d0d9275e9", "fusion_lat": 0.0, "name": "b5ad0fcd8973c2e1d4c6a19d0d9275e9", "is_reserved": 0, "rental_uris": {"android": "https://dc.lft.to/lastmile_qr_scan", "ios": "https://dc.lft.to/lastmile_qr_scan"}, "fusion_lon": 0.0}, {"lat": 38.90563066666667, "is_disabled": 0, "type": "electric_scooter", "lon": -76.9814005, "bike_id": "41733ab9530f16f063e9bc17ecb013ce", "fusion_lat": 0.0, "name": "41733ab9530f16f063e9bc17ecb013ce", "is_reserved": 0, "rental_uris": {"android": "https://dc.lft.to/lastmile_qr_scan", "ios": "https://dc.lft.to/lastmile_qr_scan"}, "fusion_lon": 0.0}, {"lat": 38.8542935, "is_disabled": 0, "type": "electric_bike", "lon": -76.909688, "bike_id": "b3fd7a5287c51a0a59426011fa529abc", "fusion_lat": 0.0, "name": "b3fd7a5287c51a0a59426011fa529abc", "is_reserved": 0, "rental_uris": {"android": "https://dc.lft.to/lastmile_qr_scan", "ios": "https://dc.lft.to/lastmile_qr_scan"}, "fusion_lon": 0.0}, {"lat": 38.9121435, "is_disabled": 0, "type": "electric_scooter", "lon": -77.028, "bike_id": "5ee317c2e6b183fdb525d8cd28a86d8f", "fusion_lat": 0.0, "name": "5ee317c2e6b183fdb525d8cd28a86d8f", "is_reserved": 0, "rental_uris": {"android": "https://dc.lft.to/lastmile_qr_scan", "ios": "https://dc.lft.to/lastmile_qr_scan"}, "fusion_lon": 0.0}, {"lat": 38.938584666666664, "is_disabled": 0, "type": "electric_scooter", "lon": -77.02594916666666, "bike_id": "e49523ee96e7901240f0dac6c3112f7e", "fusion_lat": 0.0, "name": "e49523ee96e7901240f0dac6c3112f7e", "is_reserved": 0, "rental_uris": {"android": "https://dc.lft.to/lastmile_qr_scan", "ios": "https://dc.lft.to/lastmile_qr_scan"}, "fusion_lon": 0.0}, {"lat": 38.94440133333333, "is_disabled": 0, "type": "electric_scooter", "lon": -77.06347033333333, "bike_id": "2bf1911087e874f05fd33a63a5574044", "fusion_lat": 0.0, "name": "2bf1911087e874f05fd33a63a5574044", "is_reserved": 0, "rental_uris": {"android": "https://dc.lft.to/lastmile_qr_scan", "ios": "https://dc.lft.to/lastmile_qr_scan"}, "fusion_lon": 0.0}, {"lat": 38.91818083333333, "is_disabled": 0, "type": "electric_scooter", "lon": -77.02949166666667, "bike_id": "39163c4959d2c4a5e71ebaf83f3f160c", "fusion_lat": 0.0, "name": "39163c4959d2c4a5e71ebaf83f3f160c", "is_reserved": 0, "rental_uris": {"android": "https://dc.lft.to/lastmile_qr_scan", "ios": "https://dc.lft.to/lastmile_qr_scan"}, "fusion_lon": 0.0}, {"lat": 38.92556483333333, "is_disabled": 0, "type": "electric_scooter", "lon": -77.03219516666667, "bike_id": "a2e7d507f90688eafaef9926582aa408", "fusion_lat": 0.0, "name": "a2e7d507f90688eafaef9926582aa408", "is_reserved": 0, "rental_uris": {"android": "https://dc.lft.to/lastmile_qr_scan", "ios": "https://dc.lft.to/lastmile_qr_scan"}, "fusion_lon": 0.0}, {"lat": 38.932295833333335, "is_disabled": 0, "type": "electric_scooter", "lon": -77.038863, "bike_id": "d861747bb5cfdbb22e2aa8953fbcc5ac", "fusion_lat": 0.0, "name": "d861747bb5cfdbb22e2aa8953fbcc5ac", "is_reserved": 0, "rental_uris": {"android": "https://dc.lft.to/lastmile_qr_scan", "ios": "https://dc.lft.to/lastmile_qr_scan"}, "fusion_lon": 0.0}, {"lat": 38.91812516666667, "is_disabled": 0, "type": "electric_scooter", "lon": -77.03913216666666, "bike_id": "f8d572413c982f32ba55ef6799d8ede4", "fusion_lat": 0.0, "name": "f8d572413c982f32ba55ef6799d8ede4", "is_reserved": 0, "rental_uris": {"android": "https://dc.lft.to/lastmile_qr_scan", "ios": "https://dc.lft.to/lastmile_qr_scan"}, "fusion_lon": 0.0}, {"lat": 38.915619166666666, "is_disabled": 0, "type": "electric_scooter", "lon": -77.02976566666666, "bike_id": "328167ddb55b27b195134df9f46617e5", "fusion_lat": 0.0, "name": "328167ddb55b27b195134df9f46617e5", "is_reserved": 0, "rental_uris": {"android": "https://dc.lft.to/lastmile_qr_scan", "ios": "https://dc.lft.to/lastmile_qr_scan"}, "fusion_lon": 0.0}, {"lat": 38.912746, "is_disabled": 0, "type": "electric_bike", "lon": -77.022589, "bike_id": "beb6b5b482e546e1e353d46a4e7909bd", "fusion_lat": 0.0, "name": "beb6b5b482e546e1e353d46a4e7909bd", "is_reserved": 0, "rental_uris": {"android": "https://dc.lft.to/lastmile_qr_scan", "ios": "https://dc.lft.to/lastmile_qr_scan"}, "fusion_lon": 0.0}, {"lat": 38.9073875, "is_disabled": 0, "type": "electric_scooter", "lon": -77.0280695, "bike_id": "7ca3a3c79d4ba42578373ccb09107057", "fusion_lat": 0.0, "name": "7ca3a3c79d4ba42578373ccb09107057", "is_reserved": 0, "rental_uris": {"android": "https://dc.lft.to/lastmile_qr_scan", "ios": "https://dc.lft.to/lastmile_qr_scan"}, "fusion_lon": 0.0}, {"lat": 38.90571333333333, "is_disabled": 0, "type": "electric_scooter", "lon": -77.0217745, "bike_id": "599a70e5074929a1be074685f6937825", "fusion_lat": 0.0, "name": "599a70e5074929a1be074685f6937825", "is_reserved": 0, "rental_uris": {"android": "https://dc.lft.to/lastmile_qr_scan", "ios": "https://dc.lft.to/lastmile_qr_scan"}, "fusion_lon": 0.0}, {"lat": 38.99647366666667, "is_disabled": 0, "type": "electric_bike", "lon": -77.0297065, "bike_id": "f1027b2d15875a5d64a55a3ede4898a5", "fusion_lat": 0.0, "name": "f1027b2d15875a5d64a55a3ede4898a5", "is_reserved": 0, "rental_uris": {"android": "https://dc.lft.to/lastmile_qr_scan", "ios": "https://dc.lft.to/lastmile_qr_scan"}, "fusion_lon": 0.0}, {"lat": 38.9173365, "is_disabled": 0, "type": "electric_scooter", "lon": -77.03660566666667, "bike_id": "ffe53631194ca1e136e8709488381e0a", "fusion_lat": 0.0, "name": "ffe53631194ca1e136e8709488381e0a", "is_reserved": 0, "rental_uris": {"android": "https://dc.lft.to/lastmile_qr_scan", "ios": "https://dc.lft.to/lastmile_qr_scan"}, "fusion_lon": 0.0}, {"lat": 38.920516, "is_disabled": 0, "type": "electric_scooter", "lon": -77.02428683333333, "bike_id": "0bf7f33d6dc3d96eb2d52c42cf13fa6b", "fusion_lat": 0.0, "name": "0bf7f33d6dc3d96eb2d52c42cf13fa6b", "is_reserved": 0, "rental_uris": {"android": "https://dc.lft.to/lastmile_qr_scan", "ios": "https://dc.lft.to/lastmile_qr_scan"}, "fusion_lon": 0.0}, {"lat": 38.914205333333335, "is_disabled": 0, "type": "electric_scooter", "lon": -77.02202216666667, "bike_id": "4282337d061d1f262178333a907c50fb", "fusion_lat": 0.0, "name": "4282337d061d1f262178333a907c50fb", "is_reserved": 0, "rental_uris": {"android": "https://dc.lft.to/lastmile_qr_scan", "ios": "https://dc.lft.to/lastmile_qr_scan"}, "fusion_lon": 0.0}, {"lat": 38.9073835, "is_disabled": 0, "type": "electric_scooter", "lon": -77.02713533333333, "bike_id": "5a1e42252831c076a6269535ca0f2e6a", "fusion_lat": 0.0, "name": "5a1e42252831c076a6269535ca0f2e6a", "is_reserved": 0, "rental_uris": {"android": "https://dc.lft.to/lastmile_qr_scan", "ios": "https://dc.lft.to/lastmile_qr_scan"}, "fusion_lon": 0.0}, {"lat": 38.90391416666667, "is_disabled": 0, "type": "electric_scooter", "lon": -77.04010016666666, "bike_id": "f056705e5bf9331515a94fbe67bce08b", "fusion_lat": 0.0, "name": "f056705e5bf9331515a94fbe67bce08b", "is_reserved": 0, "rental_uris": {"android": "https://dc.lft.to/lastmile_qr_scan", "ios": "https://dc.lft.to/lastmile_qr_scan"}, "fusion_lon": 0.0}, {"lat": 38.919205833333336, "is_disabled": 0, "type": "electric_scooter", "lon": -77.048034, "bike_id": "e3ead153d2029ea45a91278b4b05218a", "fusion_lat": 0.0, "name": "e3ead153d2029ea45a91278b4b05218a", "is_reserved": 0, "rental_uris": {"android": "https://dc.lft.to/lastmile_qr_scan", "ios": "https://dc.lft.to/lastmile_qr_scan"}, "fusion_lon": 0.0}, {"lat": 38.87190566666666, "is_disabled": 0, "type": "electric_bike", "lon": -77.01219883333333, "bike_id": "8fa077e2018a06f8cff4e91683dfdeec", "fusion_lat": 0.0, "name": "8fa077e2018a06f8cff4e91683dfdeec", "is_reserved": 0, "rental_uris": {"android": "https://dc.lft.to/lastmile_qr_scan", "ios": "https://dc.lft.to/lastmile_qr_scan"}, "fusion_lon": 0.0}, {"lat": 38.90043333333333, "is_disabled": 0, "type": "electric_scooter", "lon": -77.0187605, "bike_id": "d2c81dec74fd116ef0c676044148659d", "fusion_lat": 0.0, "name": "d2c81dec74fd116ef0c676044148659d", "is_reserved": 0, "rental_uris": {"android": "https://dc.lft.to/lastmile_qr_scan", "ios": "https://dc.lft.to/lastmile_qr_scan"}, "fusion_lon": 0.0}, {"lat": 38.95959366666666, "is_disabled": 0, "type": "electric_bike", "lon": -77.10089466666666, "bike_id": "5654dad322ede0b7e3d986c499a6286b", "fusion_lat": 0.0, "name": "5654dad322ede0b7e3d986c499a6286b", "is_reserved": 0, "rental_uris": {"android": "https://dc.lft.to/lastmile_qr_scan", "ios": "https://dc.lft.to/lastmile_qr_scan"}, "fusion_lon": 0.0}, {"lat": 38.916161, "is_disabled": 0, "type": "electric_bike", "lon": -77.00291483333334, "bike_id": "226d0174e7be1fb9627787507b9dda40", "fusion_lat": 0.0, "name": "226d0174e7be1fb9627787507b9dda40", "is_reserved": 0, "rental_uris": {"android": "https://dc.lft.to/lastmile_qr_scan", "ios": "https://dc.lft.to/lastmile_qr_scan"}, "fusion_lon": 0.0}, {"lat": 38.9206255, "is_disabled": 0, "type": "electric_scooter", "lon": -77.04338366666667, "bike_id": "8e8da69061cf69340966ba00a92d6cd7", "fusion_lat": 0.0, "name": "8e8da69061cf69340966ba00a92d6cd7", "is_reserved": 0, "rental_uris": {"android": "https://dc.lft.to/lastmile_qr_scan", "ios": "https://dc.lft.to/lastmile_qr_scan"}, "fusion_lon": 0.0}, {"lat": 38.924986833333335, "is_disabled": 0, "type": "electric_scooter", "lon": -77.0215675, "bike_id": "5f10e582882dbcbf706aa4776d4e1ed9", "fusion_lat": 0.0, "name": "5f10e582882dbcbf706aa4776d4e1ed9", "is_reserved": 0, "rental_uris": {"android": "https://dc.lft.to/lastmile_qr_scan", "ios": "https://dc.lft.to/lastmile_qr_scan"}, "fusion_lon": 0.0}, {"lat": 38.88490783333334, "is_disabled": 0, "type": "electric_scooter", "lon": -77.0347445, "bike_id": "5986af46ec52eb69b1ff71f1950d0a1b", "fusion_lat": 0.0, "name": "5986af46ec52eb69b1ff71f1950d0a1b", "is_reserved": 0, "rental_uris": {"android": "https://dc.lft.to/lastmile_qr_scan", "ios": "https://dc.lft.to/lastmile_qr_scan"}, "fusion_lon": 0.0}, {"lat": 38.9595785, "is_disabled": 0, "type": "electric_scooter", "lon": -77.03312333333334, "bike_id": "35f918d4409241c91c12085edbccab1f", "fusion_lat": 0.0, "name": "35f918d4409241c91c12085edbccab1f", "is_reserved": 0, "rental_uris": {"android": "https://dc.lft.to/lastmile_qr_scan", "ios": "https://dc.lft.to/lastmile_qr_scan"}, "fusion_lon": 0.0}, {"lat": 38.905476666666665, "is_disabled": 0, "type": "electric_scooter", "lon": -77.05706466666666, "bike_id": "05aba1605b1d59189e5ecbc9af2e913c", "fusion_lat": 0.0, "name": "05aba1605b1d59189e5ecbc9af2e913c", "is_reserved": 0, "rental_uris": {"android": "https://dc.lft.to/lastmile_qr_scan", "ios": "https://dc.lft.to/lastmile_qr_scan"}, "fusion_lon": 0.0}, {"lat": 38.913219, "is_disabled": 0, "type": "electric_scooter", "lon": -77.0326065, "bike_id": "619723d72caa9e801c697d235cd0abd9", "fusion_lat": 0.0, "name": "619723d72caa9e801c697d235cd0abd9", "is_reserved": 0, "rental_uris": {"android": "https://dc.lft.to/lastmile_qr_scan", "ios": "https://dc.lft.to/lastmile_qr_scan"}, "fusion_lon": 0.0}, {"lat": 38.917995833333336, "is_disabled": 0, "type": "electric_scooter", "lon": -77.03207233333333, "bike_id": "62f63861484cdf7ba8004747e69fd998", "fusion_lat": 0.0, "name": "62f63861484cdf7ba8004747e69fd998", "is_reserved": 0, "rental_uris": {"android": "https://dc.lft.to/lastmile_qr_scan", "ios": "https://dc.lft.to/lastmile_qr_scan"}, "fusion_lon": 0.0}, {"lat": 38.9395195, "is_disabled": 0, "type": "electric_bike", "lon": -77.3609645, "bike_id": "767850a54256ca9d9f67d357f114ce5d", "fusion_lat": 0.0, "name": "767850a54256ca9d9f67d357f114ce5d", "is_reserved": 0, "rental_uris": {"android": "https://dc.lft.to/lastmile_qr_scan", "ios": "https://dc.lft.to/lastmile_qr_scan"}, "fusion_lon": 0.0}, {"lat": 38.90344066666667, "is_disabled": 0, "type": "electric_scooter", "lon": -77.0445645, "bike_id": "b252984a60768c4eaaf911a10d52df26", "fusion_lat": 0.0, "name": "b252984a60768c4eaaf911a10d52df26", "is_reserved": 0, "rental_uris": {"android": "https://dc.lft.to/lastmile_qr_scan", "ios": "https://dc.lft.to/lastmile_qr_scan"}, "fusion_lon": 0.0}, {"lat": 38.9236925, "is_disabled": 0, "type": "electric_scooter", "lon": -77.031326, "bike_id": "e89096d6ff08d8212976d3a14d012fdd", "fusion_lat": 0.0, "name": "e89096d6ff08d8212976d3a14d012fdd", "is_reserved": 0, "rental_uris": {"android": "https://dc.lft.to/lastmile_qr_scan", "ios": "https://dc.lft.to/lastmile_qr_scan"}, "fusion_lon": 0.0}, {"lat": 38.935825333333334, "is_disabled": 0, "type": "electric_scooter", "lon": -77.03733416666667, "bike_id": "b8d972f51ec191788dca82aa3239b6f2", "fusion_lat": 0.0, "name": "b8d972f51ec191788dca82aa3239b6f2", "is_reserved": 0, "rental_uris": {"android": "https://dc.lft.to/lastmile_qr_scan", "ios": "https://dc.lft.to/lastmile_qr_scan"}, "fusion_lon": 0.0}, {"lat": 38.93096833333333, "is_disabled": 0, "type": "electric_scooter", "lon": -77.02554266666667, "bike_id": "1ab49d8669180042d50c9fb639584a3f", "fusion_lat": 0.0, "name": "1ab49d8669180042d50c9fb639584a3f", "is_reserved": 0, "rental_uris": {"android": "https://dc.lft.to/lastmile_qr_scan", "ios": "https://dc.lft.to/lastmile_qr_scan"}, "fusion_lon": 0.0}, {"lat": 38.952917, "is_disabled": 0, "type": "electric_bike", "lon": -76.94600416666667, "bike_id": "a9d70b01d97bcbed8453d792b41f7e4c", "fusion_lat": 0.0, "name": "a9d70b01d97bcbed8453d792b41f7e4c", "is_reserved": 0, "rental_uris": {"android": "https://dc.lft.to/lastmile_qr_scan", "ios": "https://dc.lft.to/lastmile_qr_scan"}, "fusion_lon": 0.0}, {"lat": 38.89556983333333, "is_disabled": 0, "type": "electric_scooter", "lon": -76.93078333333334, "bike_id": "49078a625a2f05a174b904e251b1af2a", "fusion_lat": 0.0, "name": "49078a625a2f05a174b904e251b1af2a", "is_reserved": 0, "rental_uris": {"android": "https://dc.lft.to/lastmile_qr_scan", "ios": "https://dc.lft.to/lastmile_qr_scan"}, "fusion_lon": 0.0}, {"lat": 38.91765383333333, "is_disabled": 0, "type": "electric_scooter", "lon": -77.03202933333333, "bike_id": "ca280d1032baa5e748a5510a10243261", "fusion_lat": 0.0, "name": "ca280d1032baa5e748a5510a10243261", "is_reserved": 0, "rental_uris": {"android": "https://dc.lft.to/lastmile_qr_scan", "ios": "https://dc.lft.to/lastmile_qr_scan"}, "fusion_lon": 0.0}, {"lat": 38.902801, "is_disabled": 0, "type": "electric_scooter", "lon": -77.0386315, "bike_id": "5b987b52b3e26e0537dc024c3d5ff747", "fusion_lat": 0.0, "name": "5b987b52b3e26e0537dc024c3d5ff747", "is_reserved": 0, "rental_uris": {"android": "https://dc.lft.to/lastmile_qr_scan", "ios": "https://dc.lft.to/lastmile_qr_scan"}, "fusion_lon": 0.0}, {"lat": 38.99006266666667, "is_disabled": 0, "type": "electric_bike", "lon": -77.004427, "bike_id": "746a981dc38731a70afbd788ef3c734a", "fusion_lat": 0.0, "name": "746a981dc38731a70afbd788ef3c734a", "is_reserved": 0, "rental_uris": {"android": "https://dc.lft.to/lastmile_qr_scan", "ios": "https://dc.lft.to/lastmile_qr_scan"}, "fusion_lon": 0.0}, {"lat": 38.9367, "is_disabled": 0, "type": "electric_scooter", "lon": -77.02458183333333, "bike_id": "25bf66a9c615843891482344e41e7fae", "fusion_lat": 0.0, "name": "25bf66a9c615843891482344e41e7fae", "is_reserved": 0, "rental_uris": {"android": "https://dc.lft.to/lastmile_qr_scan", "ios": "https://dc.lft.to/lastmile_qr_scan"}, "fusion_lon": 0.0}, {"lat": 38.91868933333333, "is_disabled": 0, "type": "electric_scooter", "lon": -77.03176166666667, "bike_id": "760dd5c07bf574b36108cc9a6ed319f5", "fusion_lat": 0.0, "name": "760dd5c07bf574b36108cc9a6ed319f5", "is_reserved": 0, "rental_uris": {"android": "https://dc.lft.to/lastmile_qr_scan", "ios": "https://dc.lft.to/lastmile_qr_scan"}, "fusion_lon": 0.0}, {"lat": 38.90788966666667, "is_disabled": 0, "type": "electric_scooter", "lon": -77.04488583333334, "bike_id": "35e11a3f671c41ae7421de54f8a17b84", "fusion_lat": 0.0, "name": "35e11a3f671c41ae7421de54f8a17b84", "is_reserved": 0, "rental_uris": {"android": "https://dc.lft.to/lastmile_qr_scan", "ios": "https://dc.lft.to/lastmile_qr_scan"}, "fusion_lon": 0.0}, {"lat": 38.89223616666666, "is_disabled": 0, "type": "electric_scooter", "lon": -77.02318466666667, "bike_id": "129aca840498c4209282db6e3b88dd39", "fusion_lat": 0.0, "name": "129aca840498c4209282db6e3b88dd39", "is_reserved": 0, "rental_uris": {"android": "https://dc.lft.to/lastmile_qr_scan", "ios": "https://dc.lft.to/lastmile_qr_scan"}, "fusion_lon": 0.0}, {"lat": 38.935343833333334, "is_disabled": 0, "type": "electric_scooter", "lon": -77.03256833333333, "bike_id": "88931d6740030e6d88a2efb3ed273056", "fusion_lat": 0.0, "name": "88931d6740030e6d88a2efb3ed273056", "is_reserved": 0, "rental_uris": {"android": "https://dc.lft.to/lastmile_qr_scan", "ios": "https://dc.lft.to/lastmile_qr_scan"}, "fusion_lon": 0.0}, {"lat": 38.93094166666667, "is_disabled": 0, "type": "electric_scooter", "lon": -77.0374125, "bike_id": "09c2e7efcbe2f8cb4f2196d20c95ac8a", "fusion_lat": 0.0, "name": "09c2e7efcbe2f8cb4f2196d20c95ac8a", "is_reserved": 0, "rental_uris": {"android": "https://dc.lft.to/lastmile_qr_scan", "ios": "https://dc.lft.to/lastmile_qr_scan"}, "fusion_lon": 0.0}, {"lat": 38.908431666666665, "is_disabled": 0, "type": "electric_scooter", "lon": -77.0435255, "bike_id": "345c99eab1cf272191b8cf4cd5b60000", "fusion_lat": 0.0, "name": "345c99eab1cf272191b8cf4cd5b60000", "is_reserved": 0, "rental_uris": {"android": "https://dc.lft.to/lastmile_qr_scan", "ios": "https://dc.lft.to/lastmile_qr_scan"}, "fusion_lon": 0.0}, {"lat": 38.917133166666666, "is_disabled": 0, "type": "electric_scooter", "lon": -77.038385, "bike_id": "c4d813b91f431204b821f2add325e46f", "fusion_lat": 0.0, "name": "c4d813b91f431204b821f2add325e46f", "is_reserved": 0, "rental_uris": {"android": "https://dc.lft.to/lastmile_qr_scan", "ios": "https://dc.lft.to/lastmile_qr_scan"}, "fusion_lon": 0.0}, {"lat": 38.9274495, "is_disabled": 0, "type": "electric_scooter", "lon": -77.034038, "bike_id": "2ce62cb9b2f2c8f1e6f1480e383d1f38", "fusion_lat": 0.0, "name": "2ce62cb9b2f2c8f1e6f1480e383d1f38", "is_reserved": 0, "rental_uris": {"android": "https://dc.lft.to/lastmile_qr_scan", "ios": "https://dc.lft.to/lastmile_qr_scan"}, "fusion_lon": 0.0}, {"lat": 38.911902833333336, "is_disabled": 0, "type": "electric_scooter", "lon": -77.0342515, "bike_id": "69f4962c0d3f5dab843ff06c3e10635b", "fusion_lat": 0.0, "name": "69f4962c0d3f5dab843ff06c3e10635b", "is_reserved": 0, "rental_uris": {"android": "https://dc.lft.to/lastmile_qr_scan", "ios": "https://dc.lft.to/lastmile_qr_scan"}, "fusion_lon": 0.0}, {"lat": 38.916951833333336, "is_disabled": 0, "type": "electric_scooter", "lon": -77.02761833333334, "bike_id": "5ec7a8ab103d2a21590cf87c9cc2477f", "fusion_lat": 0.0, "name": "5ec7a8ab103d2a21590cf87c9cc2477f", "is_reserved": 0, "rental_uris": {"android": "https://dc.lft.to/lastmile_qr_scan", "ios": "https://dc.lft.to/lastmile_qr_scan"}, "fusion_lon": 0.0}, {"lat": 38.89251466666666, "is_disabled": 0, "type": "electric_scooter", "lon": -77.03956533333333, "bike_id": "0d9a71b7d4cdeb0c248fbb172f9c1d4a", "fusion_lat": 0.0, "name": "0d9a71b7d4cdeb0c248fbb172f9c1d4a", "is_reserved": 0, "rental_uris": {"android": "https://dc.lft.to/lastmile_qr_scan", "ios": "https://dc.lft.to/lastmile_qr_scan"}, "fusion_lon": 0.0}, {"lat": 38.9229025, "is_disabled": 0, "type": "electric_scooter", "lon": -77.02967633333333, "bike_id": "c391b330d5b6601f7315f27614982a77", "fusion_lat": 0.0, "name": "c391b330d5b6601f7315f27614982a77", "is_reserved": 0, "rental_uris": {"android": "https://dc.lft.to/lastmile_qr_scan", "ios": "https://dc.lft.to/lastmile_qr_scan"}, "fusion_lon": 0.0}, {"lat": 38.9548515, "is_disabled": 0, "type": "electric_scooter", "lon": -77.06564316666666, "bike_id": "64ea6108adec3ca4fe8c211adabc63c2", "fusion_lat": 0.0, "name": "64ea6108adec3ca4fe8c211adabc63c2", "is_reserved": 0, "rental_uris": {"android": "https://dc.lft.to/lastmile_qr_scan", "ios": "https://dc.lft.to/lastmile_qr_scan"}, "fusion_lon": 0.0}, {"lat": 38.900917666666665, "is_disabled": 0, "type": "electric_scooter", "lon": -77.05018516666667, "bike_id": "f170461fca26fe79aa8371478cec5c71", "fusion_lat": 0.0, "name": "f170461fca26fe79aa8371478cec5c71", "is_reserved": 0, "rental_uris": {"android": "https://dc.lft.to/lastmile_qr_scan", "ios": "https://dc.lft.to/lastmile_qr_scan"}, "fusion_lon": 0.0}, {"lat": 38.90565333333333, "is_disabled": 0, "type": "electric_scooter", "lon": -77.005848, "bike_id": "bd4c8357857627366503ce9d6662ab5b", "fusion_lat": 0.0, "name": "bd4c8357857627366503ce9d6662ab5b", "is_reserved": 0, "rental_uris": {"android": "https://dc.lft.to/lastmile_qr_scan", "ios": "https://dc.lft.to/lastmile_qr_scan"}, "fusion_lon": 0.0}, {"lat": 38.897177, "is_disabled": 0, "type": "electric_scooter", "lon": -77.00794083333334, "bike_id": "70afc8f98d512d5ba1461867c36fe30e", "fusion_lat": 0.0, "name": "70afc8f98d512d5ba1461867c36fe30e", "is_reserved": 0, "rental_uris": {"android": "https://dc.lft.to/lastmile_qr_scan", "ios": "https://dc.lft.to/lastmile_qr_scan"}, "fusion_lon": 0.0}, {"lat": 38.91758933333333, "is_disabled": 0, "type": "electric_scooter", "lon": -77.044239, "bike_id": "695c1da688e4007c6e227195cd889d42", "fusion_lat": 0.0, "name": "695c1da688e4007c6e227195cd889d42", "is_reserved": 0, "rental_uris": {"android": "https://dc.lft.to/lastmile_qr_scan", "ios": "https://dc.lft.to/lastmile_qr_scan"}, "fusion_lon": 0.0}, {"lat": 38.850340833333334, "is_disabled": 0, "type": "electric_bike", "lon": -76.97292083333333, "bike_id": "92b9bd5c8b82d1b86a477ac38efb7101", "fusion_lat": 0.0, "name": "92b9bd5c8b82d1b86a477ac38efb7101", "is_reserved": 0, "rental_uris": {"android": "https://dc.lft.to/lastmile_qr_scan", "ios": "https://dc.lft.to/lastmile_qr_scan"}, "fusion_lon": 0.0}, {"lat": 38.90264116666667, "is_disabled": 0, "type": "electric_scooter", "lon": -77.052658, "bike_id": "ee07af5e1785ea2d403711c3343eaaf6", "fusion_lat": 0.0, "name": "ee07af5e1785ea2d403711c3343eaaf6", "is_reserved": 0, "rental_uris": {"android": "https://dc.lft.to/lastmile_qr_scan", "ios": "https://dc.lft.to/lastmile_qr_scan"}, "fusion_lon": 0.0}, {"lat": 38.90817633333333, "is_disabled": 0, "type": "electric_scooter", "lon": -77.01849216666666, "bike_id": "4f3ecd7e308317f93f1dadb1fe7de28d", "fusion_lat": 0.0, "name": "4f3ecd7e308317f93f1dadb1fe7de28d", "is_reserved": 0, "rental_uris": {"android": "https://dc.lft.to/lastmile_qr_scan", "ios": "https://dc.lft.to/lastmile_qr_scan"}, "fusion_lon": 0.0}, {"lat": 38.920784166666664, "is_disabled": 0, "type": "electric_scooter", "lon": -77.0239705, "bike_id": "387e11d2785f04db01b9f323229c21a6", "fusion_lat": 0.0, "name": "387e11d2785f04db01b9f323229c21a6", "is_reserved": 0, "rental_uris": {"android": "https://dc.lft.to/lastmile_qr_scan", "ios": "https://dc.lft.to/lastmile_qr_scan"}, "fusion_lon": 0.0}, {"lat": 38.904416166666664, "is_disabled": 0, "type": "electric_scooter", "lon": -77.03467466666666, "bike_id": "bde53efbb38b9cf61d36d81f8fdcfa1c", "fusion_lat": 0.0, "name": "bde53efbb38b9cf61d36d81f8fdcfa1c", "is_reserved": 0, "rental_uris": {"android": "https://dc.lft.to/lastmile_qr_scan", "ios": "https://dc.lft.to/lastmile_qr_scan"}, "fusion_lon": 0.0}, {"lat": 38.9223895, "is_disabled": 0, "type": "electric_scooter", "lon": -77.04577033333334, "bike_id": "41986381fabf0615e96bd21a601dc874", "fusion_lat": 0.0, "name": "41986381fabf0615e96bd21a601dc874", "is_reserved": 0, "rental_uris": {"android": "https://dc.lft.to/lastmile_qr_scan", "ios": "https://dc.lft.to/lastmile_qr_scan"}, "fusion_lon": 0.0}, {"lat": 38.919058166666666, "is_disabled": 0, "type": "electric_scooter", "lon": -77.070736, "bike_id": "da2ddbccb5468ad4c61129cda4f771e4", "fusion_lat": 0.0, "name": "da2ddbccb5468ad4c61129cda4f771e4", "is_reserved": 0, "rental_uris": {"android": "https://dc.lft.to/lastmile_qr_scan", "ios": "https://dc.lft.to/lastmile_qr_scan"}, "fusion_lon": 0.0}, {"lat": 38.919331166666666, "is_disabled": 0, "type": "electric_scooter", "lon": -77.02302516666667, "bike_id": "984037d4e12562dd6a13db9d6307b834", "fusion_lat": 0.0, "name": "984037d4e12562dd6a13db9d6307b834", "is_reserved": 0, "rental_uris": {"android": "https://dc.lft.to/lastmile_qr_scan", "ios": "https://dc.lft.to/lastmile_qr_scan"}, "fusion_lon": 0.0}, {"lat": 38.90528, "is_disabled": 0, "type": "electric_scooter", "lon": -77.05770016666666, "bike_id": "470cee7c03f865b16ab99f3f489a61e3", "fusion_lat": 0.0, "name": "470cee7c03f865b16ab99f3f489a61e3", "is_reserved": 0, "rental_uris": {"android": "https://dc.lft.to/lastmile_qr_scan", "ios": "https://dc.lft.to/lastmile_qr_scan"}, "fusion_lon": 0.0}, {"lat": 38.8874015, "is_disabled": 0, "type": "electric_scooter", "lon": -77.015289, "bike_id": "26c582cb81acf774c6eff6e1f1703362", "fusion_lat": 0.0, "name": "26c582cb81acf774c6eff6e1f1703362", "is_reserved": 0, "rental_uris": {"android": "https://dc.lft.to/lastmile_qr_scan", "ios": "https://dc.lft.to/lastmile_qr_scan"}, "fusion_lon": 0.0}, {"lat": 38.9190175, "is_disabled": 0, "type": "electric_scooter", "lon": -77.00049416666667, "bike_id": "ee907718b6f2ef4745e6fd27d67848f6", "fusion_lat": 0.0, "name": "ee907718b6f2ef4745e6fd27d67848f6", "is_reserved": 0, "rental_uris": {"android": "https://dc.lft.to/lastmile_qr_scan", "ios": "https://dc.lft.to/lastmile_qr_scan"}, "fusion_lon": 0.0}, {"lat": 38.92080816666667, "is_disabled": 0, "type": "electric_scooter", "lon": -77.0365795, "bike_id": "35bc9e03bb8374eb91befc46eada49ab", "fusion_lat": 0.0, "name": "35bc9e03bb8374eb91befc46eada49ab", "is_reserved": 0, "rental_uris": {"android": "https://dc.lft.to/lastmile_qr_scan", "ios": "https://dc.lft.to/lastmile_qr_scan"}, "fusion_lon": 0.0}, {"lat": 38.920744666666664, "is_disabled": 0, "type": "electric_scooter", "lon": -77.01734616666667, "bike_id": "8140580047a3653e4d1d47c4cb641069", "fusion_lat": 0.0, "name": "8140580047a3653e4d1d47c4cb641069", "is_reserved": 0, "rental_uris": {"android": "https://dc.lft.to/lastmile_qr_scan", "ios": "https://dc.lft.to/lastmile_qr_scan"}, "fusion_lon": 0.0}, {"lat": 38.9079595, "is_disabled": 0, "type": "electric_scooter", "lon": -77.02694283333334, "bike_id": "27c68e278567bc3d016a53fd2683e4c2", "fusion_lat": 0.0, "name": "27c68e278567bc3d016a53fd2683e4c2", "is_reserved": 0, "rental_uris": {"android": "https://dc.lft.to/lastmile_qr_scan", "ios": "https://dc.lft.to/lastmile_qr_scan"}, "fusion_lon": 0.0}, {"lat": 38.916885, "is_disabled": 0, "type": "electric_scooter", "lon": -77.02804666666667, "bike_id": "39924d30acb2d24e3d481af375119519", "fusion_lat": 0.0, "name": "39924d30acb2d24e3d481af375119519", "is_reserved": 0, "rental_uris": {"android": "https://dc.lft.to/lastmile_qr_scan", "ios": "https://dc.lft.to/lastmile_qr_scan"}, "fusion_lon": 0.0}, {"lat": 38.919291666666666, "is_disabled": 0, "type": "electric_scooter", "lon": -77.02419383333333, "bike_id": "305feb1c73e31838c05d3a5cb052f756", "fusion_lat": 0.0, "name": "305feb1c73e31838c05d3a5cb052f756", "is_reserved": 0, "rental_uris": {"android": "https://dc.lft.to/lastmile_qr_scan", "ios": "https://dc.lft.to/lastmile_qr_scan"}, "fusion_lon": 0.0}, {"lat": 38.90053616666667, "is_disabled": 0, "type": "electric_scooter", "lon": -77.00203916666666, "bike_id": "3c517983058004435faf3036862ea2a2", "fusion_lat": 0.0, "name": "3c517983058004435faf3036862ea2a2", "is_reserved": 0, "rental_uris": {"android": "https://dc.lft.to/lastmile_qr_scan", "ios": "https://dc.lft.to/lastmile_qr_scan"}, "fusion_lon": 0.0}, {"lat": 38.91707, "is_disabled": 0, "type": "electric_scooter", "lon": -77.03119116666667, "bike_id": "d30c8ca8c9dd14d6a6eebed8887da0b9", "fusion_lat": 0.0, "name": "d30c8ca8c9dd14d6a6eebed8887da0b9", "is_reserved": 0, "rental_uris": {"android": "https://dc.lft.to/lastmile_qr_scan", "ios": "https://dc.lft.to/lastmile_qr_scan"}, "fusion_lon": 0.0}, {"lat": 38.89562933333333, "is_disabled": 0, "type": "electric_bike", "lon": -77.127327, "bike_id": "f425e018638d8f7a2b75a44598679e8b", "fusion_lat": 0.0, "name": "f425e018638d8f7a2b75a44598679e8b", "is_reserved": 0, "rental_uris": {"android": "https://dc.lft.to/lastmile_qr_scan", "ios": "https://dc.lft.to/lastmile_qr_scan"}, "fusion_lon": 0.0}, {"lat": 38.90219666666667, "is_disabled": 0, "type": "electric_scooter", "lon": -77.0229215, "bike_id": "363cd9e2a51425cd1076ada7fa492ea7", "fusion_lat": 0.0, "name": "363cd9e2a51425cd1076ada7fa492ea7", "is_reserved": 0, "rental_uris": {"android": "https://dc.lft.to/lastmile_qr_scan", "ios": "https://dc.lft.to/lastmile_qr_scan"}, "fusion_lon": 0.0}, {"lat": 38.901096833333334, "is_disabled": 0, "type": "electric_scooter", "lon": -76.9954905, "bike_id": "811c9f011af33b4e0bb93dd8feb9072c", "fusion_lat": 0.0, "name": "811c9f011af33b4e0bb93dd8feb9072c", "is_reserved": 0, "rental_uris": {"android": "https://dc.lft.to/lastmile_qr_scan", "ios": "https://dc.lft.to/lastmile_qr_scan"}, "fusion_lon": 0.0}, {"lat": 38.911423666666664, "is_disabled": 0, "type": "electric_scooter", "lon": -77.026962, "bike_id": "1a23741d9938d4f3b3ff3e6829237814", "fusion_lat": 0.0, "name": "1a23741d9938d4f3b3ff3e6829237814", "is_reserved": 0, "rental_uris": {"android": "https://dc.lft.to/lastmile_qr_scan", "ios": "https://dc.lft.to/lastmile_qr_scan"}, "fusion_lon": 0.0}, {"lat": 38.90418316666667, "is_disabled": 0, "type": "electric_scooter", "lon": -77.06888133333334, "bike_id": "741328eefde80181ea9257e3c28c31b9", "fusion_lat": 0.0, "name": "741328eefde80181ea9257e3c28c31b9", "is_reserved": 0, "rental_uris": {"android": "https://dc.lft.to/lastmile_qr_scan", "ios": "https://dc.lft.to/lastmile_qr_scan"}, "fusion_lon": 0.0}, {"lat": 38.958867166666664, "is_disabled": 0, "type": "electric_bike", "lon": -76.92480283333333, "bike_id": "f8ca1fce571a024ac241088d85fade34", "fusion_lat": 0.0, "name": "f8ca1fce571a024ac241088d85fade34", "is_reserved": 0, "rental_uris": {"android": "https://dc.lft.to/lastmile_qr_scan", "ios": "https://dc.lft.to/lastmile_qr_scan"}, "fusion_lon": 0.0}, {"lat": 38.91685533333333, "is_disabled": 0, "type": "electric_scooter", "lon": -77.002029, "bike_id": "d2302225558687bc321b4fdf63d30877", "fusion_lat": 0.0, "name": "d2302225558687bc321b4fdf63d30877", "is_reserved": 0, "rental_uris": {"android": "https://dc.lft.to/lastmile_qr_scan", "ios": "https://dc.lft.to/lastmile_qr_scan"}, "fusion_lon": 0.0}, {"lat": 38.96505166666667, "is_disabled": 0, "type": "electric_bike", "lon": -77.02827783333333, "bike_id": "a75295bc27428307ff36cacde863a1b8", "fusion_lat": 0.0, "name": "a75295bc27428307ff36cacde863a1b8", "is_reserved": 0, "rental_uris": {"android": "https://dc.lft.to/lastmile_qr_scan", "ios": "https://dc.lft.to/lastmile_qr_scan"}, "fusion_lon": 0.0}, {"lat": 38.920637, "is_disabled": 0, "type": "electric_scooter", "lon": -77.07881616666667, "bike_id": "17ca69ee03387795dd6c3b94b33bedb8", "fusion_lat": 0.0, "name": "17ca69ee03387795dd6c3b94b33bedb8", "is_reserved": 0, "rental_uris": {"android": "https://dc.lft.to/lastmile_qr_scan", "ios": "https://dc.lft.to/lastmile_qr_scan"}, "fusion_lon": 0.0}, {"lat": 38.934125, "is_disabled": 0, "type": "electric_scooter", "lon": -77.03289533333333, "bike_id": "dc8520155c25bff4b3ec7da011c60a54", "fusion_lat": 0.0, "name": "dc8520155c25bff4b3ec7da011c60a54", "is_reserved": 0, "rental_uris": {"android": "https://dc.lft.to/lastmile_qr_scan", "ios": "https://dc.lft.to/lastmile_qr_scan"}, "fusion_lon": 0.0}, {"lat": 38.88365116666667, "is_disabled": 0, "type": "electric_scooter", "lon": -76.94154516666667, "bike_id": "261c828293ed74c55989cda87b783705", "fusion_lat": 0.0, "name": "261c828293ed74c55989cda87b783705", "is_reserved": 0, "rental_uris": {"android": "https://dc.lft.to/lastmile_qr_scan", "ios": "https://dc.lft.to/lastmile_qr_scan"}, "fusion_lon": 0.0}, {"lat": 38.909664166666666, "is_disabled": 0, "type": "electric_scooter", "lon": -77.0320385, "bike_id": "37a5a56831deb8554e2cdff587113663", "fusion_lat": 0.0, "name": "37a5a56831deb8554e2cdff587113663", "is_reserved": 0, "rental_uris": {"android": "https://dc.lft.to/lastmile_qr_scan", "ios": "https://dc.lft.to/lastmile_qr_scan"}, "fusion_lon": 0.0}, {"lat": 38.92538733333333, "is_disabled": 0, "type": "electric_scooter", "lon": -77.026393, "bike_id": "03dd116b0803213392c869a4096ea538", "fusion_lat": 0.0, "name": "03dd116b0803213392c869a4096ea538", "is_reserved": 0, "rental_uris": {"android": "https://dc.lft.to/lastmile_qr_scan", "ios": "https://dc.lft.to/lastmile_qr_scan"}, "fusion_lon": 0.0}, {"lat": 38.892278, "is_disabled": 0, "type": "electric_scooter", "lon": -77.03340233333333, "bike_id": "440c54bbb934fa1e5c5b93c3f12f8943", "fusion_lat": 0.0, "name": "440c54bbb934fa1e5c5b93c3f12f8943", "is_reserved": 0, "rental_uris": {"android": "https://dc.lft.to/lastmile_qr_scan", "ios": "https://dc.lft.to/lastmile_qr_scan"}, "fusion_lon": 0.0}, {"lat": 38.914880833333335, "is_disabled": 0, "type": "electric_scooter", "lon": -77.021736, "bike_id": "f2e83576b3a0e1546f89185df358dfb3", "fusion_lat": 0.0, "name": "f2e83576b3a0e1546f89185df358dfb3", "is_reserved": 0, "rental_uris": {"android": "https://dc.lft.to/lastmile_qr_scan", "ios": "https://dc.lft.to/lastmile_qr_scan"}, "fusion_lon": 0.0}, {"lat": 38.886255166666665, "is_disabled": 0, "type": "electric_scooter", "lon": -76.95519916666667, "bike_id": "8b2fc39d96d43375cb89ada86d64ee1c", "fusion_lat": 0.0, "name": "8b2fc39d96d43375cb89ada86d64ee1c", "is_reserved": 0, "rental_uris": {"android": "https://dc.lft.to/lastmile_qr_scan", "ios": "https://dc.lft.to/lastmile_qr_scan"}, "fusion_lon": 0.0}, {"lat": 38.902894, "is_disabled": 0, "type": "electric_scooter", "lon": -77.03639883333334, "bike_id": "9d6c89dfd2f35bc4985a5342ececf7ac", "fusion_lat": 0.0, "name": "9d6c89dfd2f35bc4985a5342ececf7ac", "is_reserved": 0, "rental_uris": {"android": "https://dc.lft.to/lastmile_qr_scan", "ios": "https://dc.lft.to/lastmile_qr_scan"}, "fusion_lon": 0.0}, {"lat": 38.89485716666667, "is_disabled": 0, "type": "electric_scooter", "lon": -77.002289, "bike_id": "9d982f1b470ce2eac8ece03d17e20edf", "fusion_lat": 0.0, "name": "9d982f1b470ce2eac8ece03d17e20edf", "is_reserved": 0, "rental_uris": {"android": "https://dc.lft.to/lastmile_qr_scan", "ios": "https://dc.lft.to/lastmile_qr_scan"}, "fusion_lon": 0.0}, {"lat": 38.91732783333333, "is_disabled": 0, "type": "electric_scooter", "lon": -77.03642433333333, "bike_id": "bbeaf66c8546f1089fcd740c8745eedb", "fusion_lat": 0.0, "name": "bbeaf66c8546f1089fcd740c8745eedb", "is_reserved": 0, "rental_uris": {"android": "https://dc.lft.to/lastmile_qr_scan", "ios": "https://dc.lft.to/lastmile_qr_scan"}, "fusion_lon": 0.0}, {"lat": 38.921605166666666, "is_disabled": 0, "type": "electric_scooter", "lon": -77.04032666666667, "bike_id": "67b6b71afb7374692dc0a45eb2cef5ea", "fusion_lat": 0.0, "name": "67b6b71afb7374692dc0a45eb2cef5ea", "is_reserved": 0, "rental_uris": {"android": "https://dc.lft.to/lastmile_qr_scan", "ios": "https://dc.lft.to/lastmile_qr_scan"}, "fusion_lon": 0.0}, {"lat": 38.904823666666665, "is_disabled": 0, "type": "electric_scooter", "lon": -76.97324433333333, "bike_id": "f3bbb87636702b85dceb3ce918c4b242", "fusion_lat": 0.0, "name": "f3bbb87636702b85dceb3ce918c4b242", "is_reserved": 0, "rental_uris": {"android": "https://dc.lft.to/lastmile_qr_scan", "ios": "https://dc.lft.to/lastmile_qr_scan"}, "fusion_lon": 0.0}, {"lat": 38.926709, "is_disabled": 0, "type": "electric_scooter", "lon": -77.01511566666667, "bike_id": "b5120d2849e08ddd613b2ddf73d87233", "fusion_lat": 0.0, "name": "b5120d2849e08ddd613b2ddf73d87233", "is_reserved": 0, "rental_uris": {"android": "https://dc.lft.to/lastmile_qr_scan", "ios": "https://dc.lft.to/lastmile_qr_scan"}, "fusion_lon": 0.0}, {"lat": 38.92134216666667, "is_disabled": 0, "type": "electric_scooter", "lon": -77.04190883333334, "bike_id": "259f43d2cda49f213342bf2b8315ff43", "fusion_lat": 0.0, "name": "259f43d2cda49f213342bf2b8315ff43", "is_reserved": 0, "rental_uris": {"android": "https://dc.lft.to/lastmile_qr_scan", "ios": "https://dc.lft.to/lastmile_qr_scan"}, "fusion_lon": 0.0}, {"lat": 38.94311, "is_disabled": 0, "type": "electric_scooter", "lon": -77.06132266666667, "bike_id": "6b377a2f35a3a2188d7ede43737bebd2", "fusion_lat": 0.0, "name": "6b377a2f35a3a2188d7ede43737bebd2", "is_reserved": 0, "rental_uris": {"android": "https://dc.lft.to/lastmile_qr_scan", "ios": "https://dc.lft.to/lastmile_qr_scan"}, "fusion_lon": 0.0}, {"lat": 38.917066, "is_disabled": 0, "type": "electric_scooter", "lon": -77.03922716666666, "bike_id": "665ba0b20ac42580e6f202527b8ef7d1", "fusion_lat": 0.0, "name": "665ba0b20ac42580e6f202527b8ef7d1", "is_reserved": 0, "rental_uris": {"android": "https://dc.lft.to/lastmile_qr_scan", "ios": "https://dc.lft.to/lastmile_qr_scan"}, "fusion_lon": 0.0}, {"lat": 38.922564, "is_disabled": 0, "type": "electric_scooter", "lon": -77.019343, "bike_id": "a1016a596fcebb2b0b796a8396760cb7", "fusion_lat": 0.0, "name": "a1016a596fcebb2b0b796a8396760cb7", "is_reserved": 0, "rental_uris": {"android": "https://dc.lft.to/lastmile_qr_scan", "ios": "https://dc.lft.to/lastmile_qr_scan"}, "fusion_lon": 0.0}, {"lat": 38.9822785, "is_disabled": 0, "type": "electric_scooter", "lon": -77.02642783333333, "bike_id": "c639c772227a89eb7459497048084afd", "fusion_lat": 0.0, "name": "c639c772227a89eb7459497048084afd", "is_reserved": 0, "rental_uris": {"android": "https://dc.lft.to/lastmile_qr_scan", "ios": "https://dc.lft.to/lastmile_qr_scan"}, "fusion_lon": 0.0}, {"lat": 38.9097585, "is_disabled": 0, "type": "electric_scooter", "lon": -77.03196266666667, "bike_id": "fd22a522f06560de888fd55a79a34af2", "fusion_lat": 0.0, "name": "fd22a522f06560de888fd55a79a34af2", "is_reserved": 0, "rental_uris": {"android": "https://dc.lft.to/lastmile_qr_scan", "ios": "https://dc.lft.to/lastmile_qr_scan"}, "fusion_lon": 0.0}, {"lat": 38.924775833333335, "is_disabled": 0, "type": "electric_scooter", "lon": -77.0348395, "bike_id": "8d8b4b3f46a8c42b5d7c30e5b9bd7ec5", "fusion_lat": 0.0, "name": "8d8b4b3f46a8c42b5d7c30e5b9bd7ec5", "is_reserved": 0, "rental_uris": {"android": "https://dc.lft.to/lastmile_qr_scan", "ios": "https://dc.lft.to/lastmile_qr_scan"}, "fusion_lon": 0.0}, {"lat": 38.922475666666664, "is_disabled": 0, "type": "electric_scooter", "lon": -77.03468116666667, "bike_id": "22509049cf09b0ab8c6e559888d06c02", "fusion_lat": 0.0, "name": "22509049cf09b0ab8c6e559888d06c02", "is_reserved": 0, "rental_uris": {"android": "https://dc.lft.to/lastmile_qr_scan", "ios": "https://dc.lft.to/lastmile_qr_scan"}, "fusion_lon": 0.0}, {"lat": 38.912425, "is_disabled": 0, "type": "electric_scooter", "lon": -77.04768266666666, "bike_id": "856054f3a7cc2411eb79248cf72c3f1f", "fusion_lat": 0.0, "name": "856054f3a7cc2411eb79248cf72c3f1f", "is_reserved": 0, "rental_uris": {"android": "https://dc.lft.to/lastmile_qr_scan", "ios": "https://dc.lft.to/lastmile_qr_scan"}, "fusion_lon": 0.0}, {"lat": 38.904581, "is_disabled": 0, "type": "electric_scooter", "lon": -77.06286783333333, "bike_id": "93d0ad7760c8961b4bdfe0fa461fb678", "fusion_lat": 0.0, "name": "93d0ad7760c8961b4bdfe0fa461fb678", "is_reserved": 0, "rental_uris": {"android": "https://dc.lft.to/lastmile_qr_scan", "ios": "https://dc.lft.to/lastmile_qr_scan"}, "fusion_lon": 0.0}, {"lat": 38.93510416666667, "is_disabled": 0, "type": "electric_scooter", "lon": -77.03349733333333, "bike_id": "7c83c700d9134bbc595721aaf53096b1", "fusion_lat": 0.0, "name": "7c83c700d9134bbc595721aaf53096b1", "is_reserved": 0, "rental_uris": {"android": "https://dc.lft.to/lastmile_qr_scan", "ios": "https://dc.lft.to/lastmile_qr_scan"}, "fusion_lon": 0.0}, {"lat": 38.9125605, "is_disabled": 0, "type": "electric_scooter", "lon": -77.038715, "bike_id": "55f8f5ba86ff41327a213bf04e8645dc", "fusion_lat": 0.0, "name": "55f8f5ba86ff41327a213bf04e8645dc", "is_reserved": 0, "rental_uris": {"android": "https://dc.lft.to/lastmile_qr_scan", "ios": "https://dc.lft.to/lastmile_qr_scan"}, "fusion_lon": 0.0}, {"lat": 38.92763433333333, "is_disabled": 0, "type": "electric_scooter", "lon": -77.02613566666666, "bike_id": "9703be9c5a5d592b3366b7a5ed94507a", "fusion_lat": 0.0, "name": "9703be9c5a5d592b3366b7a5ed94507a", "is_reserved": 0, "rental_uris": {"android": "https://dc.lft.to/lastmile_qr_scan", "ios": "https://dc.lft.to/lastmile_qr_scan"}, "fusion_lon": 0.0}, {"lat": 38.922933, "is_disabled": 0, "type": "electric_scooter", "lon": -77.03191966666667, "bike_id": "63399dd4f8b289ef0d3e11ab8b812ba2", "fusion_lat": 0.0, "name": "63399dd4f8b289ef0d3e11ab8b812ba2", "is_reserved": 0, "rental_uris": {"android": "https://dc.lft.to/lastmile_qr_scan", "ios": "https://dc.lft.to/lastmile_qr_scan"}, "fusion_lon": 0.0}, {"lat": 38.98137966666667, "is_disabled": 0, "type": "electric_bike", "lon": -77.00763966666666, "bike_id": "0c1c59a7fbf00698cad4ec4eff925aa5", "fusion_lat": 0.0, "name": "0c1c59a7fbf00698cad4ec4eff925aa5", "is_reserved": 0, "rental_uris": {"android": "https://dc.lft.to/lastmile_qr_scan", "ios": "https://dc.lft.to/lastmile_qr_scan"}, "fusion_lon": 0.0}, {"lat": 38.8573195, "is_disabled": 0, "type": "electric_scooter", "lon": -76.99437666666667, "bike_id": "5d0772a8b1ab706665dcc90a68426316", "fusion_lat": 0.0, "name": "5d0772a8b1ab706665dcc90a68426316", "is_reserved": 0, "rental_uris": {"android": "https://dc.lft.to/lastmile_qr_scan", "ios": "https://dc.lft.to/lastmile_qr_scan"}, "fusion_lon": 0.0}, {"lat": 38.9268475, "is_disabled": 0, "type": "electric_scooter", "lon": -77.0157185, "bike_id": "c9f94d1cd1770e04ec7c9eee82c1fa28", "fusion_lat": 0.0, "name": "c9f94d1cd1770e04ec7c9eee82c1fa28", "is_reserved": 0, "rental_uris": {"android": "https://dc.lft.to/lastmile_qr_scan", "ios": "https://dc.lft.to/lastmile_qr_scan"}, "fusion_lon": 0.0}, {"lat": 38.901452666666664, "is_disabled": 0, "type": "electric_scooter", "lon": -77.01502133333334, "bike_id": "23be068067f30d6b6ff00c7a62261b2e", "fusion_lat": 0.0, "name": "23be068067f30d6b6ff00c7a62261b2e", "is_reserved": 0, "rental_uris": {"android": "https://dc.lft.to/lastmile_qr_scan", "ios": "https://dc.lft.to/lastmile_qr_scan"}, "fusion_lon": 0.0}, {"lat": 38.887443833333336, "is_disabled": 0, "type": "electric_scooter", "lon": -77.03225766666667, "bike_id": "65d5ed54b9089b2c794e66083ebb2544", "fusion_lat": 0.0, "name": "65d5ed54b9089b2c794e66083ebb2544", "is_reserved": 0, "rental_uris": {"android": "https://dc.lft.to/lastmile_qr_scan", "ios": "https://dc.lft.to/lastmile_qr_scan"}, "fusion_lon": 0.0}, {"lat": 38.87371, "is_disabled": 0, "type": "electric_bike", "lon": -77.11802683333333, "bike_id": "b7d5088348f95cdd6aac6bd62a2b6617", "fusion_lat": 0.0, "name": "b7d5088348f95cdd6aac6bd62a2b6617", "is_reserved": 0, "rental_uris": {"android": "https://dc.lft.to/lastmile_qr_scan", "ios": "https://dc.lft.to/lastmile_qr_scan"}, "fusion_lon": 0.0}, {"lat": 38.793244333333334, "is_disabled": 0, "type": "electric_bike", "lon": -77.0401855, "bike_id": "88e58056b5f5b71564766ce5cc653f71", "fusion_lat": 0.0, "name": "88e58056b5f5b71564766ce5cc653f71", "is_reserved": 0, "rental_uris": {"android": "https://dc.lft.to/lastmile_qr_scan", "ios": "https://dc.lft.to/lastmile_qr_scan"}, "fusion_lon": 0.0}, {"lat": 38.89903483333333, "is_disabled": 0, "type": "electric_scooter", "lon": -77.03236833333334, "bike_id": "4aca9418240c1bea548f44aba00312fd", "fusion_lat": 0.0, "name": "4aca9418240c1bea548f44aba00312fd", "is_reserved": 0, "rental_uris": {"android": "https://dc.lft.to/lastmile_qr_scan", "ios": "https://dc.lft.to/lastmile_qr_scan"}, "fusion_lon": 0.0}, {"lat": 38.915447, "is_disabled": 0, "type": "electric_scooter", "lon": -77.0384905, "bike_id": "f2683bd606f0b872f2438f9631bb862a", "fusion_lat": 0.0, "name": "f2683bd606f0b872f2438f9631bb862a", "is_reserved": 0, "rental_uris": {"android": "https://dc.lft.to/lastmile_qr_scan", "ios": "https://dc.lft.to/lastmile_qr_scan"}, "fusion_lon": 0.0}, {"lat": 38.949023333333336, "is_disabled": 0, "type": "electric_bike", "lon": -76.97239066666667, "bike_id": "39f0e5352c871da253a98a0ba87d9d23", "fusion_lat": 0.0, "name": "39f0e5352c871da253a98a0ba87d9d23", "is_reserved": 0, "rental_uris": {"android": "https://dc.lft.to/lastmile_qr_scan", "ios": "https://dc.lft.to/lastmile_qr_scan"}, "fusion_lon": 0.0}, {"lat": 38.883414333333334, "is_disabled": 0, "type": "electric_scooter", "lon": -77.00934083333334, "bike_id": "f21bb84484dacf92b7a96f121ae4908d", "fusion_lat": 0.0, "name": "f21bb84484dacf92b7a96f121ae4908d", "is_reserved": 0, "rental_uris": {"android": "https://dc.lft.to/lastmile_qr_scan", "ios": "https://dc.lft.to/lastmile_qr_scan"}, "fusion_lon": 0.0}, {"lat": 38.92237266666667, "is_disabled": 0, "type": "electric_scooter", "lon": -77.03348783333334, "bike_id": "dd006833705e4e10c9483890f89740e8", "fusion_lat": 0.0, "name": "dd006833705e4e10c9483890f89740e8", "is_reserved": 0, "rental_uris": {"android": "https://dc.lft.to/lastmile_qr_scan", "ios": "https://dc.lft.to/lastmile_qr_scan"}, "fusion_lon": 0.0}, {"lat": 38.90833766666667, "is_disabled": 0, "type": "electric_scooter", "lon": -77.03825066666667, "bike_id": "1a1f9a8acc1cc24a588559be6c337c44", "fusion_lat": 0.0, "name": "1a1f9a8acc1cc24a588559be6c337c44", "is_reserved": 0, "rental_uris": {"android": "https://dc.lft.to/lastmile_qr_scan", "ios": "https://dc.lft.to/lastmile_qr_scan"}, "fusion_lon": 0.0}, {"lat": 38.90061, "is_disabled": 0, "type": "electric_scooter", "lon": -77.00201916666667, "bike_id": "3ab6c92e0469d5d038c4e71a8bdce67a", "fusion_lat": 0.0, "name": "3ab6c92e0469d5d038c4e71a8bdce67a", "is_reserved": 0, "rental_uris": {"android": "https://dc.lft.to/lastmile_qr_scan", "ios": "https://dc.lft.to/lastmile_qr_scan"}, "fusion_lon": 0.0}, {"lat": 38.94098483333333, "is_disabled": 0, "type": "electric_scooter", "lon": -77.02112116666666, "bike_id": "6f44758dedf19a698b4684e9b10090db", "fusion_lat": 0.0, "name": "6f44758dedf19a698b4684e9b10090db", "is_reserved": 0, "rental_uris": {"android": "https://dc.lft.to/lastmile_qr_scan", "ios": "https://dc.lft.to/lastmile_qr_scan"}, "fusion_lon": 0.0}, {"lat": 38.94439333333333, "is_disabled": 0, "type": "electric_scooter", "lon": -77.01506783333333, "bike_id": "26bf8a6583d94d6442a430efd0fe29d5", "fusion_lat": 0.0, "name": "26bf8a6583d94d6442a430efd0fe29d5", "is_reserved": 0, "rental_uris": {"android": "https://dc.lft.to/lastmile_qr_scan", "ios": "https://dc.lft.to/lastmile_qr_scan"}, "fusion_lon": 0.0}, {"lat": 38.9095805, "is_disabled": 0, "type": "electric_scooter", "lon": -77.02381233333334, "bike_id": "574b84d9ebb822f413c08658d0836106", "fusion_lat": 0.0, "name": "574b84d9ebb822f413c08658d0836106", "is_reserved": 0, "rental_uris": {"android": "https://dc.lft.to/lastmile_qr_scan", "ios": "https://dc.lft.to/lastmile_qr_scan"}, "fusion_lon": 0.0}, {"lat": 38.855177, "is_disabled": 0, "type": "electric_bike", "lon": -77.1201745, "bike_id": "087f30085b06462bf7150e09ba689527", "fusion_lat": 0.0, "name": "087f30085b06462bf7150e09ba689527", "is_reserved": 0, "rental_uris": {"android": "https://dc.lft.to/lastmile_qr_scan", "ios": "https://dc.lft.to/lastmile_qr_scan"}, "fusion_lon": 0.0}, {"lat": 38.9170755, "is_disabled": 0, "type": "electric_scooter", "lon": -77.02970316666666, "bike_id": "e978c51d050346df373ee76849410786", "fusion_lat": 0.0, "name": "e978c51d050346df373ee76849410786", "is_reserved": 0, "rental_uris": {"android": "https://dc.lft.to/lastmile_qr_scan", "ios": "https://dc.lft.to/lastmile_qr_scan"}, "fusion_lon": 0.0}, {"lat": 38.902469833333335, "is_disabled": 0, "type": "electric_scooter", "lon": -77.03966333333334, "bike_id": "db59a7e4c902216478b1394e38cce2b2", "fusion_lat": 0.0, "name": "db59a7e4c902216478b1394e38cce2b2", "is_reserved": 0, "rental_uris": {"android": "https://dc.lft.to/lastmile_qr_scan", "ios": "https://dc.lft.to/lastmile_qr_scan"}, "fusion_lon": 0.0}, {"lat": 38.90194566666667, "is_disabled": 0, "type": "electric_scooter", "lon": -77.02671833333333, "bike_id": "7d9c19fae4d2f67a4f71750561469252", "fusion_lat": 0.0, "name": "7d9c19fae4d2f67a4f71750561469252", "is_reserved": 0, "rental_uris": {"android": "https://dc.lft.to/lastmile_qr_scan", "ios": "https://dc.lft.to/lastmile_qr_scan"}, "fusion_lon": 0.0}, {"lat": 38.85187233333333, "is_disabled": 0, "type": "electric_bike", "lon": -76.9611045, "bike_id": "671a2288dd2d9f3b8ec7c776c92f5aea", "fusion_lat": 0.0, "name": "671a2288dd2d9f3b8ec7c776c92f5aea", "is_reserved": 0, "rental_uris": {"android": "https://dc.lft.to/lastmile_qr_scan", "ios": "https://dc.lft.to/lastmile_qr_scan"}, "fusion_lon": 0.0}, {"lat": 38.9023275, "is_disabled": 0, "type": "electric_scooter", "lon": -77.00065333333333, "bike_id": "d1e4e2131fbc4f97f047bde392376fbc", "fusion_lat": 0.0, "name": "d1e4e2131fbc4f97f047bde392376fbc", "is_reserved": 0, "rental_uris": {"android": "https://dc.lft.to/lastmile_qr_scan", "ios": "https://dc.lft.to/lastmile_qr_scan"}, "fusion_lon": 0.0}, {"lat": 38.881387333333336, "is_disabled": 0, "type": "electric_scooter", "lon": -76.99508916666667, "bike_id": "733790e15f9d3452eea390e97e8a9a7b", "fusion_lat": 0.0, "name": "733790e15f9d3452eea390e97e8a9a7b", "is_reserved": 0, "rental_uris": {"android": "https://dc.lft.to/lastmile_qr_scan", "ios": "https://dc.lft.to/lastmile_qr_scan"}, "fusion_lon": 0.0}, {"lat": 38.898974, "is_disabled": 0, "type": "electric_scooter", "lon": -76.99731516666667, "bike_id": "9ece7e7038732f6213200c251a6037be", "fusion_lat": 0.0, "name": "9ece7e7038732f6213200c251a6037be", "is_reserved": 0, "rental_uris": {"android": "https://dc.lft.to/lastmile_qr_scan", "ios": "https://dc.lft.to/lastmile_qr_scan"}, "fusion_lon": 0.0}, {"lat": 38.90567033333333, "is_disabled": 0, "type": "electric_scooter", "lon": -77.005845, "bike_id": "d9ade6f32faf542c8a6e678c0f3d727c", "fusion_lat": 0.0, "name": "d9ade6f32faf542c8a6e678c0f3d727c", "is_reserved": 0, "rental_uris": {"android": "https://dc.lft.to/lastmile_qr_scan", "ios": "https://dc.lft.to/lastmile_qr_scan"}, "fusion_lon": 0.0}, {"lat": 38.905728, "is_disabled": 0, "type": "electric_scooter", "lon": -77.00897483333334, "bike_id": "46f87c486d290dbde2ff9d6554a5bb03", "fusion_lat": 0.0, "name": "46f87c486d290dbde2ff9d6554a5bb03", "is_reserved": 0, "rental_uris": {"android": "https://dc.lft.to/lastmile_qr_scan", "ios": "https://dc.lft.to/lastmile_qr_scan"}, "fusion_lon": 0.0}, {"lat": 38.86889816666667, "is_disabled": 0, "type": "electric_scooter", "lon": -76.98310383333333, "bike_id": "313b28f715dc1a3252f2eeaf657013c7", "fusion_lat": 0.0, "name": "313b28f715dc1a3252f2eeaf657013c7", "is_reserved": 0, "rental_uris": {"android": "https://dc.lft.to/lastmile_qr_scan", "ios": "https://dc.lft.to/lastmile_qr_scan"}, "fusion_lon": 0.0}, {"lat": 38.9064435, "is_disabled": 0, "type": "electric_scooter", "lon": -77.05328216666666, "bike_id": "c1860f3f22e990c3ad7cd799eec3f165", "fusion_lat": 0.0, "name": "c1860f3f22e990c3ad7cd799eec3f165", "is_reserved": 0, "rental_uris": {"android": "https://dc.lft.to/lastmile_qr_scan", "ios": "https://dc.lft.to/lastmile_qr_scan"}, "fusion_lon": 0.0}, {"lat": 38.9186985, "is_disabled": 0, "type": "electric_scooter", "lon": -77.024883, "bike_id": "99c80f860c96a35414b03dded5a2a9df", "fusion_lat": 0.0, "name": "99c80f860c96a35414b03dded5a2a9df", "is_reserved": 0, "rental_uris": {"android": "https://dc.lft.to/lastmile_qr_scan", "ios": "https://dc.lft.to/lastmile_qr_scan"}, "fusion_lon": 0.0}, {"lat": 38.90254683333333, "is_disabled": 0, "type": "electric_scooter", "lon": -77.01770083333334, "bike_id": "adefbdffa3af5fd3a91b2750ecee56af", "fusion_lat": 0.0, "name": "adefbdffa3af5fd3a91b2750ecee56af", "is_reserved": 0, "rental_uris": {"android": "https://dc.lft.to/lastmile_qr_scan", "ios": "https://dc.lft.to/lastmile_qr_scan"}, "fusion_lon": 0.0}, {"lat": 38.902757666666666, "is_disabled": 0, "type": "electric_scooter", "lon": -77.00207966666666, "bike_id": "fac6c88bf2c041636931acf0ffdb5f9c", "fusion_lat": 0.0, "name": "fac6c88bf2c041636931acf0ffdb5f9c", "is_reserved": 0, "rental_uris": {"android": "https://dc.lft.to/lastmile_qr_scan", "ios": "https://dc.lft.to/lastmile_qr_scan"}, "fusion_lon": 0.0}, {"lat": 38.910458166666665, "is_disabled": 0, "type": "electric_scooter", "lon": -77.0322975, "bike_id": "e09be0356c98145657efafc527a15606", "fusion_lat": 0.0, "name": "e09be0356c98145657efafc527a15606", "is_reserved": 0, "rental_uris": {"android": "https://dc.lft.to/lastmile_qr_scan", "ios": "https://dc.lft.to/lastmile_qr_scan"}, "fusion_lon": 0.0}, {"lat": 38.917051666666666, "is_disabled": 0, "type": "electric_scooter", "lon": -77.03872066666666, "bike_id": "44c280006d8a49000d7dc172a3d9ac45", "fusion_lat": 0.0, "name": "44c280006d8a49000d7dc172a3d9ac45", "is_reserved": 0, "rental_uris": {"android": "https://dc.lft.to/lastmile_qr_scan", "ios": "https://dc.lft.to/lastmile_qr_scan"}, "fusion_lon": 0.0}, {"lat": 38.90961033333333, "is_disabled": 0, "type": "electric_scooter", "lon": -77.02280833333333, "bike_id": "6b95204488dff850d5ebbb8d27087bd3", "fusion_lat": 0.0, "name": "6b95204488dff850d5ebbb8d27087bd3", "is_reserved": 0, "rental_uris": {"android": "https://dc.lft.to/lastmile_qr_scan", "ios": "https://dc.lft.to/lastmile_qr_scan"}, "fusion_lon": 0.0}, {"lat": 38.9156545, "is_disabled": 0, "type": "electric_scooter", "lon": -77.020053, "bike_id": "3fef76a7412e30a5b5b342b0ca918428", "fusion_lat": 0.0, "name": "3fef76a7412e30a5b5b342b0ca918428", "is_reserved": 0, "rental_uris": {"android": "https://dc.lft.to/lastmile_qr_scan", "ios": "https://dc.lft.to/lastmile_qr_scan"}, "fusion_lon": 0.0}, {"lat": 38.907567666666665, "is_disabled": 0, "type": "electric_scooter", "lon": -77.0345715, "bike_id": "4b47e424fab31fd38f18b0f1fb1c097f", "fusion_lat": 0.0, "name": "4b47e424fab31fd38f18b0f1fb1c097f", "is_reserved": 0, "rental_uris": {"android": "https://dc.lft.to/lastmile_qr_scan", "ios": "https://dc.lft.to/lastmile_qr_scan"}, "fusion_lon": 0.0}, {"lat": 38.902966, "is_disabled": 0, "type": "electric_scooter", "lon": -77.01187633333333, "bike_id": "2bf588c4f51154968a72f3dde5f01a11", "fusion_lat": 0.0, "name": "2bf588c4f51154968a72f3dde5f01a11", "is_reserved": 0, "rental_uris": {"android": "https://dc.lft.to/lastmile_qr_scan", "ios": "https://dc.lft.to/lastmile_qr_scan"}, "fusion_lon": 0.0}, {"lat": 38.901925, "is_disabled": 0, "type": "electric_scooter", "lon": -77.02493683333333, "bike_id": "7bc3672f1fae6e6e495ae15077c4d0fd", "fusion_lat": 0.0, "name": "7bc3672f1fae6e6e495ae15077c4d0fd", "is_reserved": 0, "rental_uris": {"android": "https://dc.lft.to/lastmile_qr_scan", "ios": "https://dc.lft.to/lastmile_qr_scan"}, "fusion_lon": 0.0}, {"lat": 38.9027625, "is_disabled": 0, "type": "electric_scooter", "lon": -77.03971566666667, "bike_id": "806ed93cd334c87ad42f129e60606e9a", "fusion_lat": 0.0, "name": "806ed93cd334c87ad42f129e60606e9a", "is_reserved": 0, "rental_uris": {"android": "https://dc.lft.to/lastmile_qr_scan", "ios": "https://dc.lft.to/lastmile_qr_scan"}, "fusion_lon": 0.0}, {"lat": 38.9074005, "is_disabled": 0, "type": "electric_scooter", "lon": -77.02711083333334, "bike_id": "6eff502e0dd537dabe7213d256817590", "fusion_lat": 0.0, "name": "6eff502e0dd537dabe7213d256817590", "is_reserved": 0, "rental_uris": {"android": "https://dc.lft.to/lastmile_qr_scan", "ios": "https://dc.lft.to/lastmile_qr_scan"}, "fusion_lon": 0.0}, {"lat": 38.8996975, "is_disabled": 0, "type": "electric_scooter", "lon": -76.92729733333333, "bike_id": "3c067d7b4f796f1a894b204cc92d9799", "fusion_lat": 0.0, "name": "3c067d7b4f796f1a894b204cc92d9799", "is_reserved": 0, "rental_uris": {"android": "https://dc.lft.to/lastmile_qr_scan", "ios": "https://dc.lft.to/lastmile_qr_scan"}, "fusion_lon": 0.0}, {"lat": 38.9167815, "is_disabled": 0, "type": "electric_scooter", "lon": -77.02715816666667, "bike_id": "aa660177293f2a3ba56015cf4856e4ef", "fusion_lat": 0.0, "name": "aa660177293f2a3ba56015cf4856e4ef", "is_reserved": 0, "rental_uris": {"android": "https://dc.lft.to/lastmile_qr_scan", "ios": "https://dc.lft.to/lastmile_qr_scan"}, "fusion_lon": 0.0}, {"lat": 38.929960333333334, "is_disabled": 0, "type": "electric_scooter", "lon": -77.02633033333333, "bike_id": "eabf47507cc601af5e2c9a6e105edced", "fusion_lat": 0.0, "name": "eabf47507cc601af5e2c9a6e105edced", "is_reserved": 0, "rental_uris": {"android": "https://dc.lft.to/lastmile_qr_scan", "ios": "https://dc.lft.to/lastmile_qr_scan"}, "fusion_lon": 0.0}, {"lat": 38.957776, "is_disabled": 0, "type": "electric_scooter", "lon": -77.027574, "bike_id": "1fe5fbff63abce51845ea205796804e8", "fusion_lat": 0.0, "name": "1fe5fbff63abce51845ea205796804e8", "is_reserved": 0, "rental_uris": {"android": "https://dc.lft.to/lastmile_qr_scan", "ios": "https://dc.lft.to/lastmile_qr_scan"}, "fusion_lon": 0.0}, {"lat": 38.91707383333333, "is_disabled": 0, "type": "electric_scooter", "lon": -77.02415866666666, "bike_id": "b4ab713f4f36c7bcab622229adf2904a", "fusion_lat": 0.0, "name": "b4ab713f4f36c7bcab622229adf2904a", "is_reserved": 0, "rental_uris": {"android": "https://dc.lft.to/lastmile_qr_scan", "ios": "https://dc.lft.to/lastmile_qr_scan"}, "fusion_lon": 0.0}, {"lat": 38.919776, "is_disabled": 0, "type": "electric_scooter", "lon": -77.023861, "bike_id": "8c55ee9ae845d6888f82bf16fa3f468f", "fusion_lat": 0.0, "name": "8c55ee9ae845d6888f82bf16fa3f468f", "is_reserved": 0, "rental_uris": {"android": "https://dc.lft.to/lastmile_qr_scan", "ios": "https://dc.lft.to/lastmile_qr_scan"}, "fusion_lon": 0.0}, {"lat": 38.907345666666664, "is_disabled": 0, "type": "electric_scooter", "lon": -77.034551, "bike_id": "7c74fcb2c998719ff18c76654e1c7d97", "fusion_lat": 0.0, "name": "7c74fcb2c998719ff18c76654e1c7d97", "is_reserved": 0, "rental_uris": {"android": "https://dc.lft.to/lastmile_qr_scan", "ios": "https://dc.lft.to/lastmile_qr_scan"}, "fusion_lon": 0.0}, {"lat": 38.99778766666667, "is_disabled": 0, "type": "electric_bike", "lon": -77.007646, "bike_id": "d658f713ab8fc9eae69de13cb5c440ab", "fusion_lat": 0.0, "name": "d658f713ab8fc9eae69de13cb5c440ab", "is_reserved": 0, "rental_uris": {"android": "https://dc.lft.to/lastmile_qr_scan", "ios": "https://dc.lft.to/lastmile_qr_scan"}, "fusion_lon": 0.0}, {"lat": 38.90076883333333, "is_disabled": 0, "type": "electric_scooter", "lon": -77.04910216666667, "bike_id": "49648e10ac60d5204af8a867f668ad5d", "fusion_lat": 0.0, "name": "49648e10ac60d5204af8a867f668ad5d", "is_reserved": 0, "rental_uris": {"android": "https://dc.lft.to/lastmile_qr_scan", "ios": "https://dc.lft.to/lastmile_qr_scan"}, "fusion_lon": 0.0}, {"lat": 38.917738666666665, "is_disabled": 0, "type": "electric_scooter", "lon": -77.04337483333333, "bike_id": "35076ae3cc917d6ec77e473bd06e5175", "fusion_lat": 0.0, "name": "35076ae3cc917d6ec77e473bd06e5175", "is_reserved": 0, "rental_uris": {"android": "https://dc.lft.to/lastmile_qr_scan", "ios": "https://dc.lft.to/lastmile_qr_scan"}, "fusion_lon": 0.0}, {"lat": 38.90876516666667, "is_disabled": 0, "type": "electric_scooter", "lon": -77.036729, "bike_id": "a18266b32757b666e35cc1823314bb76", "fusion_lat": 0.0, "name": "a18266b32757b666e35cc1823314bb76", "is_reserved": 0, "rental_uris": {"android": "https://dc.lft.to/lastmile_qr_scan", "ios": "https://dc.lft.to/lastmile_qr_scan"}, "fusion_lon": 0.0}, {"lat": 38.956525, "is_disabled": 0, "type": "electric_scooter", "lon": -77.02398983333333, "bike_id": "ec6c809e82634d717d0020b67cd2fb21", "fusion_lat": 0.0, "name": "ec6c809e82634d717d0020b67cd2fb21", "is_reserved": 0, "rental_uris": {"android": "https://dc.lft.to/lastmile_qr_scan", "ios": "https://dc.lft.to/lastmile_qr_scan"}, "fusion_lon": 0.0}, {"lat": 38.8767335, "is_disabled": 0, "type": "electric_bike", "lon": -77.0144485, "bike_id": "de8d2eae95a992604e51a7253e4c0df5", "fusion_lat": 0.0, "name": "de8d2eae95a992604e51a7253e4c0df5", "is_reserved": 0, "rental_uris": {"android": "https://dc.lft.to/lastmile_qr_scan", "ios": "https://dc.lft.to/lastmile_qr_scan"}, "fusion_lon": 0.0}, {"lat": 38.903609833333334, "is_disabled": 0, "type": "electric_scooter", "lon": -77.04457133333334, "bike_id": "9a521ac3abd4edbb3850141908f9278e", "fusion_lat": 0.0, "name": "9a521ac3abd4edbb3850141908f9278e", "is_reserved": 0, "rental_uris": {"android": "https://dc.lft.to/lastmile_qr_scan", "ios": "https://dc.lft.to/lastmile_qr_scan"}, "fusion_lon": 0.0}, {"lat": 38.91927, "is_disabled": 0, "type": "electric_scooter", "lon": -77.03195916666667, "bike_id": "26c5bb27507ff12b49866a910c03c7ae", "fusion_lat": 0.0, "name": "26c5bb27507ff12b49866a910c03c7ae", "is_reserved": 0, "rental_uris": {"android": "https://dc.lft.to/lastmile_qr_scan", "ios": "https://dc.lft.to/lastmile_qr_scan"}, "fusion_lon": 0.0}, {"lat": 38.90257483333333, "is_disabled": 0, "type": "electric_scooter", "lon": -77.03960033333334, "bike_id": "bf4ecc29683a76236780af2fbfde0705", "fusion_lat": 0.0, "name": "bf4ecc29683a76236780af2fbfde0705", "is_reserved": 0, "rental_uris": {"android": "https://dc.lft.to/lastmile_qr_scan", "ios": "https://dc.lft.to/lastmile_qr_scan"}, "fusion_lon": 0.0}, {"lat": 38.91683533333333, "is_disabled": 0, "type": "electric_scooter", "lon": -77.0122825, "bike_id": "056dc014bb62a48abda244531144c7eb", "fusion_lat": 0.0, "name": "056dc014bb62a48abda244531144c7eb", "is_reserved": 0, "rental_uris": {"android": "https://dc.lft.to/lastmile_qr_scan", "ios": "https://dc.lft.to/lastmile_qr_scan"}, "fusion_lon": 0.0}, {"lat": 38.881446333333336, "is_disabled": 0, "type": "electric_scooter", "lon": -77.02742266666667, "bike_id": "043a262452fc0c526cdaea532cb33f3e", "fusion_lat": 0.0, "name": "043a262452fc0c526cdaea532cb33f3e", "is_reserved": 0, "rental_uris": {"android": "https://dc.lft.to/lastmile_qr_scan", "ios": "https://dc.lft.to/lastmile_qr_scan"}, "fusion_lon": 0.0}, {"lat": 38.90077483333334, "is_disabled": 0, "type": "electric_scooter", "lon": -77.00209083333333, "bike_id": "a00ed7762447ee9109695f3f28ce0d59", "fusion_lat": 0.0, "name": "a00ed7762447ee9109695f3f28ce0d59", "is_reserved": 0, "rental_uris": {"android": "https://dc.lft.to/lastmile_qr_scan", "ios": "https://dc.lft.to/lastmile_qr_scan"}, "fusion_lon": 0.0}, {"lat": 38.921580666666664, "is_disabled": 0, "type": "electric_scooter", "lon": -77.02088583333334, "bike_id": "f64fed6a7da9cb7fd0acf27784665a11", "fusion_lat": 0.0, "name": "f64fed6a7da9cb7fd0acf27784665a11", "is_reserved": 0, "rental_uris": {"android": "https://dc.lft.to/lastmile_qr_scan", "ios": "https://dc.lft.to/lastmile_qr_scan"}, "fusion_lon": 0.0}, {"lat": 38.907348, "is_disabled": 0, "type": "electric_scooter", "lon": -77.0346085, "bike_id": "da42d9cfd1feb1d80661c8d1b93fe86a", "fusion_lat": 0.0, "name": "da42d9cfd1feb1d80661c8d1b93fe86a", "is_reserved": 0, "rental_uris": {"android": "https://dc.lft.to/lastmile_qr_scan", "ios": "https://dc.lft.to/lastmile_qr_scan"}, "fusion_lon": 0.0}, {"lat": 38.910133333333334, "is_disabled": 0, "type": "electric_scooter", "lon": -77.02202883333334, "bike_id": "e8016beb11dd5ad8972246d2b757a30a", "fusion_lat": 0.0, "name": "e8016beb11dd5ad8972246d2b757a30a", "is_reserved": 0, "rental_uris": {"android": "https://dc.lft.to/lastmile_qr_scan", "ios": "https://dc.lft.to/lastmile_qr_scan"}, "fusion_lon": 0.0}, {"lat": 38.913062333333336, "is_disabled": 0, "type": "electric_scooter", "lon": -77.024009, "bike_id": "af097abb4cfd7690bbde70aa4416246f", "fusion_lat": 0.0, "name": "af097abb4cfd7690bbde70aa4416246f", "is_reserved": 0, "rental_uris": {"android": "https://dc.lft.to/lastmile_qr_scan", "ios": "https://dc.lft.to/lastmile_qr_scan"}, "fusion_lon": 0.0}, {"lat": 38.93360633333333, "is_disabled": 0, "type": "electric_bike", "lon": -77.09963866666666, "bike_id": "881c3ab3051181948cb4fc7625dc8328", "fusion_lat": 0.0, "name": "881c3ab3051181948cb4fc7625dc8328", "is_reserved": 0, "rental_uris": {"android": "https://dc.lft.to/lastmile_qr_scan", "ios": "https://dc.lft.to/lastmile_qr_scan"}, "fusion_lon": 0.0}, {"lat": 38.960871, "is_disabled": 0, "type": "electric_bike", "lon": -76.99521933333334, "bike_id": "7c6ecab60760e277b48ba05bf5ba5a54", "fusion_lat": 0.0, "name": "7c6ecab60760e277b48ba05bf5ba5a54", "is_reserved": 0, "rental_uris": {"android": "https://dc.lft.to/lastmile_qr_scan", "ios": "https://dc.lft.to/lastmile_qr_scan"}, "fusion_lon": 0.0}, {"lat": 38.90763833333333, "is_disabled": 0, "type": "electric_scooter", "lon": -77.0702715, "bike_id": "3dbb445e2842eb62b7b105fc00b41e04", "fusion_lat": 0.0, "name": "3dbb445e2842eb62b7b105fc00b41e04", "is_reserved": 0, "rental_uris": {"android": "https://dc.lft.to/lastmile_qr_scan", "ios": "https://dc.lft.to/lastmile_qr_scan"}, "fusion_lon": 0.0}, {"lat": 38.806854, "is_disabled": 0, "type": "electric_bike", "lon": -77.0811945, "bike_id": "b64d5ae6427582e3b8deb6b33265e83a", "fusion_lat": 0.0, "name": "b64d5ae6427582e3b8deb6b33265e83a", "is_reserved": 0, "rental_uris": {"android": "https://dc.lft.to/lastmile_qr_scan", "ios": "https://dc.lft.to/lastmile_qr_scan"}, "fusion_lon": 0.0}, {"lat": 38.8665315, "is_disabled": 0, "type": "electric_scooter", "lon": -76.988852, "bike_id": "e06cb93c50e0e3571e535a06bddec436", "fusion_lat": 0.0, "name": "e06cb93c50e0e3571e535a06bddec436", "is_reserved": 0, "rental_uris": {"android": "https://dc.lft.to/lastmile_qr_scan", "ios": "https://dc.lft.to/lastmile_qr_scan"}, "fusion_lon": 0.0}, {"lat": 38.907341333333335, "is_disabled": 0, "type": "electric_scooter", "lon": -76.9354605, "bike_id": "345ed02292102e7cf1dacae483d2a0fa", "fusion_lat": 0.0, "name": "345ed02292102e7cf1dacae483d2a0fa", "is_reserved": 0, "rental_uris": {"android": "https://dc.lft.to/lastmile_qr_scan", "ios": "https://dc.lft.to/lastmile_qr_scan"}, "fusion_lon": 0.0}, {"lat": 38.91776766666667, "is_disabled": 0, "type": "electric_scooter", "lon": -77.04339383333334, "bike_id": "467762087ed4681e42a711100a075d46", "fusion_lat": 0.0, "name": "467762087ed4681e42a711100a075d46", "is_reserved": 0, "rental_uris": {"android": "https://dc.lft.to/lastmile_qr_scan", "ios": "https://dc.lft.to/lastmile_qr_scan"}, "fusion_lon": 0.0}, {"lat": 38.925718, "is_disabled": 0, "type": "electric_scooter", "lon": -77.057607, "bike_id": "5514181c3fa2dd6308ea6fe7c399b679", "fusion_lat": 0.0, "name": "5514181c3fa2dd6308ea6fe7c399b679", "is_reserved": 0, "rental_uris": {"android": "https://dc.lft.to/lastmile_qr_scan", "ios": "https://dc.lft.to/lastmile_qr_scan"}, "fusion_lon": 0.0}, {"lat": 38.90958533333333, "is_disabled": 0, "type": "electric_scooter", "lon": -77.02381566666666, "bike_id": "90a84aa6b6fa7b10c5f7417d30bd5ff6", "fusion_lat": 0.0, "name": "90a84aa6b6fa7b10c5f7417d30bd5ff6", "is_reserved": 0, "rental_uris": {"android": "https://dc.lft.to/lastmile_qr_scan", "ios": "https://dc.lft.to/lastmile_qr_scan"}, "fusion_lon": 0.0}, {"lat": 38.903319833333335, "is_disabled": 0, "type": "electric_scooter", "lon": -76.9759355, "bike_id": "4dd53802128d6438e6f8d636ab65ad2b", "fusion_lat": 0.0, "name": "4dd53802128d6438e6f8d636ab65ad2b", "is_reserved": 0, "rental_uris": {"android": "https://dc.lft.to/lastmile_qr_scan", "ios": "https://dc.lft.to/lastmile_qr_scan"}, "fusion_lon": 0.0}, {"lat": 38.911161666666665, "is_disabled": 0, "type": "electric_scooter", "lon": -76.99701133333333, "bike_id": "3e4ed7ce6af3a3c57757bf88c54ac962", "fusion_lat": 0.0, "name": "3e4ed7ce6af3a3c57757bf88c54ac962", "is_reserved": 0, "rental_uris": {"android": "https://dc.lft.to/lastmile_qr_scan", "ios": "https://dc.lft.to/lastmile_qr_scan"}, "fusion_lon": 0.0}, {"lat": 38.918126, "is_disabled": 0, "type": "electric_scooter", "lon": -77.02524933333333, "bike_id": "ff197c9994fa9fcb8384a549a209edcb", "fusion_lat": 0.0, "name": "ff197c9994fa9fcb8384a549a209edcb", "is_reserved": 0, "rental_uris": {"android": "https://dc.lft.to/lastmile_qr_scan", "ios": "https://dc.lft.to/lastmile_qr_scan"}, "fusion_lon": 0.0}, {"lat": 38.9171375, "is_disabled": 0, "type": "electric_scooter", "lon": -77.03731566666667, "bike_id": "208021d9f067172f346b855c8b4ea9a6", "fusion_lat": 0.0, "name": "208021d9f067172f346b855c8b4ea9a6", "is_reserved": 0, "rental_uris": {"android": "https://dc.lft.to/lastmile_qr_scan", "ios": "https://dc.lft.to/lastmile_qr_scan"}, "fusion_lon": 0.0}, {"lat": 38.911238, "is_disabled": 0, "type": "electric_scooter", "lon": -77.02199266666666, "bike_id": "fb941f7b9a68c57b5a115179994b033c", "fusion_lat": 0.0, "name": "fb941f7b9a68c57b5a115179994b033c", "is_reserved": 0, "rental_uris": {"android": "https://dc.lft.to/lastmile_qr_scan", "ios": "https://dc.lft.to/lastmile_qr_scan"}, "fusion_lon": 0.0}, {"lat": 38.93748083333333, "is_disabled": 0, "type": "electric_scooter", "lon": -77.034571, "bike_id": "673a4134dea8ed75e3475765dfa1b875", "fusion_lat": 0.0, "name": "673a4134dea8ed75e3475765dfa1b875", "is_reserved": 0, "rental_uris": {"android": "https://dc.lft.to/lastmile_qr_scan", "ios": "https://dc.lft.to/lastmile_qr_scan"}, "fusion_lon": 0.0}, {"lat": 38.917665166666666, "is_disabled": 0, "type": "electric_scooter", "lon": -77.0320625, "bike_id": "3a1ff9a1ed78c1a9021c5840a92f05dd", "fusion_lat": 0.0, "name": "3a1ff9a1ed78c1a9021c5840a92f05dd", "is_reserved": 0, "rental_uris": {"android": "https://dc.lft.to/lastmile_qr_scan", "ios": "https://dc.lft.to/lastmile_qr_scan"}, "fusion_lon": 0.0}, {"lat": 38.8975875, "is_disabled": 0, "type": "electric_scooter", "lon": -77.0549985, "bike_id": "344691dc653192ed275b099bfc99cdb0", "fusion_lat": 0.0, "name": "344691dc653192ed275b099bfc99cdb0", "is_reserved": 0, "rental_uris": {"android": "https://dc.lft.to/lastmile_qr_scan", "ios": "https://dc.lft.to/lastmile_qr_scan"}, "fusion_lon": 0.0}, {"lat": 38.876457333333335, "is_disabled": 0, "type": "electric_scooter", "lon": -77.00415083333333, "bike_id": "5b084191a6ccc82b6b137d6a1cf7b1f5", "fusion_lat": 0.0, "name": "5b084191a6ccc82b6b137d6a1cf7b1f5", "is_reserved": 0, "rental_uris": {"android": "https://dc.lft.to/lastmile_qr_scan", "ios": "https://dc.lft.to/lastmile_qr_scan"}, "fusion_lon": 0.0}, {"lat": 38.925434333333335, "is_disabled": 0, "type": "electric_scooter", "lon": -77.03454383333333, "bike_id": "c2d5a8620b6630db833186cf6373813e", "fusion_lat": 0.0, "name": "c2d5a8620b6630db833186cf6373813e", "is_reserved": 0, "rental_uris": {"android": "https://dc.lft.to/lastmile_qr_scan", "ios": "https://dc.lft.to/lastmile_qr_scan"}, "fusion_lon": 0.0}, {"lat": 38.9061795, "is_disabled": 0, "type": "electric_scooter", "lon": -77.0260675, "bike_id": "86627836a17e0ec8445fe1e37e147496", "fusion_lat": 0.0, "name": "86627836a17e0ec8445fe1e37e147496", "is_reserved": 0, "rental_uris": {"android": "https://dc.lft.to/lastmile_qr_scan", "ios": "https://dc.lft.to/lastmile_qr_scan"}, "fusion_lon": 0.0}, {"lat": 38.866604, "is_disabled": 0, "type": "electric_scooter", "lon": -77.01063416666666, "bike_id": "33e8abe3ea2ec5a493ce4ca71307b289", "fusion_lat": 0.0, "name": "33e8abe3ea2ec5a493ce4ca71307b289", "is_reserved": 0, "rental_uris": {"android": "https://dc.lft.to/lastmile_qr_scan", "ios": "https://dc.lft.to/lastmile_qr_scan"}, "fusion_lon": 0.0}, {"lat": 38.805020166666665, "is_disabled": 0, "type": "electric_bike", "lon": -77.04135516666666, "bike_id": "b317def0dc3fd64d4b7fe26fcd1c5936", "fusion_lat": 0.0, "name": "b317def0dc3fd64d4b7fe26fcd1c5936", "is_reserved": 0, "rental_uris": {"android": "https://dc.lft.to/lastmile_qr_scan", "ios": "https://dc.lft.to/lastmile_qr_scan"}, "fusion_lon": 0.0}, {"lat": 38.845470166666665, "is_disabled": 0, "type": "electric_bike", "lon": -76.99061383333333, "bike_id": "dbcd728da839fc892e9ab717f8c11ab5", "fusion_lat": 0.0, "name": "dbcd728da839fc892e9ab717f8c11ab5", "is_reserved": 0, "rental_uris": {"android": "https://dc.lft.to/lastmile_qr_scan", "ios": "https://dc.lft.to/lastmile_qr_scan"}, "fusion_lon": 0.0}, {"lat": 38.866208, "is_disabled": 0, "type": "electric_scooter", "lon": -76.9864255, "bike_id": "f85f831ee434968559383e9b50ccc737", "fusion_lat": 0.0, "name": "f85f831ee434968559383e9b50ccc737", "is_reserved": 0, "rental_uris": {"android": "https://dc.lft.to/lastmile_qr_scan", "ios": "https://dc.lft.to/lastmile_qr_scan"}, "fusion_lon": 0.0}, {"lat": 38.92749716666667, "is_disabled": 0, "type": "electric_scooter", "lon": -77.02416, "bike_id": "30d1925e0a2d3817e749601495d22d2e", "fusion_lat": 0.0, "name": "30d1925e0a2d3817e749601495d22d2e", "is_reserved": 0, "rental_uris": {"android": "https://dc.lft.to/lastmile_qr_scan", "ios": "https://dc.lft.to/lastmile_qr_scan"}, "fusion_lon": 0.0}, {"lat": 38.947940333333335, "is_disabled": 0, "type": "electric_scooter", "lon": -77.02172383333334, "bike_id": "418692be96829b42ab91690b0eb840af", "fusion_lat": 0.0, "name": "418692be96829b42ab91690b0eb840af", "is_reserved": 0, "rental_uris": {"android": "https://dc.lft.to/lastmile_qr_scan", "ios": "https://dc.lft.to/lastmile_qr_scan"}, "fusion_lon": 0.0}, {"lat": 38.921730833333335, "is_disabled": 0, "type": "electric_scooter", "lon": -77.0320615, "bike_id": "ce7fb6ccd0e1654c1a7163d3284b6a60", "fusion_lat": 0.0, "name": "ce7fb6ccd0e1654c1a7163d3284b6a60", "is_reserved": 0, "rental_uris": {"android": "https://dc.lft.to/lastmile_qr_scan", "ios": "https://dc.lft.to/lastmile_qr_scan"}, "fusion_lon": 0.0}, {"lat": 38.921820833333335, "is_disabled": 0, "type": "electric_scooter", "lon": -77.04715383333334, "bike_id": "ed7fc6f0b7db52cc83b1cc4856e31016", "fusion_lat": 0.0, "name": "ed7fc6f0b7db52cc83b1cc4856e31016", "is_reserved": 0, "rental_uris": {"android": "https://dc.lft.to/lastmile_qr_scan", "ios": "https://dc.lft.to/lastmile_qr_scan"}, "fusion_lon": 0.0}, {"lat": 38.9025035, "is_disabled": 0, "type": "electric_scooter", "lon": -77.03988633333333, "bike_id": "b10d38f8a094df39140833dc36179e1e", "fusion_lat": 0.0, "name": "b10d38f8a094df39140833dc36179e1e", "is_reserved": 0, "rental_uris": {"android": "https://dc.lft.to/lastmile_qr_scan", "ios": "https://dc.lft.to/lastmile_qr_scan"}, "fusion_lon": 0.0}, {"lat": 38.892244, "is_disabled": 0, "type": "electric_scooter", "lon": -77.03162533333334, "bike_id": "301d5283928a8094aa24819c9616693e", "fusion_lat": 0.0, "name": "301d5283928a8094aa24819c9616693e", "is_reserved": 0, "rental_uris": {"android": "https://dc.lft.to/lastmile_qr_scan", "ios": "https://dc.lft.to/lastmile_qr_scan"}, "fusion_lon": 0.0}, {"lat": 38.90107233333333, "is_disabled": 0, "type": "electric_scooter", "lon": -76.99625783333333, "bike_id": "a79122a1d5a5f48c8805413531d9e5aa", "fusion_lat": 0.0, "name": "a79122a1d5a5f48c8805413531d9e5aa", "is_reserved": 0, "rental_uris": {"android": "https://dc.lft.to/lastmile_qr_scan", "ios": "https://dc.lft.to/lastmile_qr_scan"}, "fusion_lon": 0.0}, {"lat": 38.937416, "is_disabled": 0, "type": "electric_scooter", "lon": -77.03471416666666, "bike_id": "f7cbc69d1ec140550c376feef5b98542", "fusion_lat": 0.0, "name": "f7cbc69d1ec140550c376feef5b98542", "is_reserved": 0, "rental_uris": {"android": "https://dc.lft.to/lastmile_qr_scan", "ios": "https://dc.lft.to/lastmile_qr_scan"}, "fusion_lon": 0.0}, {"lat": 38.92764116666667, "is_disabled": 0, "type": "electric_scooter", "lon": -77.02774716666667, "bike_id": "074033995163bff15d62b47a8e403550", "fusion_lat": 0.0, "name": "074033995163bff15d62b47a8e403550", "is_reserved": 0, "rental_uris": {"android": "https://dc.lft.to/lastmile_qr_scan", "ios": "https://dc.lft.to/lastmile_qr_scan"}, "fusion_lon": 0.0}, {"lat": 38.90958716666667, "is_disabled": 0, "type": "electric_scooter", "lon": -77.03837333333334, "bike_id": "b3a88dc83bda381d1b30c0ac90298617", "fusion_lat": 0.0, "name": "b3a88dc83bda381d1b30c0ac90298617", "is_reserved": 0, "rental_uris": {"android": "https://dc.lft.to/lastmile_qr_scan", "ios": "https://dc.lft.to/lastmile_qr_scan"}, "fusion_lon": 0.0}, {"lat": 38.90959866666667, "is_disabled": 0, "type": "electric_scooter", "lon": -77.02279416666667, "bike_id": "b42b5560af728ed34a14d4eaae04afdc", "fusion_lat": 0.0, "name": "b42b5560af728ed34a14d4eaae04afdc", "is_reserved": 0, "rental_uris": {"android": "https://dc.lft.to/lastmile_qr_scan", "ios": "https://dc.lft.to/lastmile_qr_scan"}, "fusion_lon": 0.0}, {"lat": 38.90528483333333, "is_disabled": 0, "type": "electric_scooter", "lon": -77.0515355, "bike_id": "46778bf502cc6585a391e60a9f7006d5", "fusion_lat": 0.0, "name": "46778bf502cc6585a391e60a9f7006d5", "is_reserved": 0, "rental_uris": {"android": "https://dc.lft.to/lastmile_qr_scan", "ios": "https://dc.lft.to/lastmile_qr_scan"}, "fusion_lon": 0.0}, {"lat": 38.88577383333333, "is_disabled": 0, "type": "electric_scooter", "lon": -76.9191095, "bike_id": "57194d315498a9d45d95054e726d4971", "fusion_lat": 0.0, "name": "57194d315498a9d45d95054e726d4971", "is_reserved": 0, "rental_uris": {"android": "https://dc.lft.to/lastmile_qr_scan", "ios": "https://dc.lft.to/lastmile_qr_scan"}, "fusion_lon": 0.0}, {"lat": 38.92556416666667, "is_disabled": 0, "type": "electric_scooter", "lon": -77.03224916666667, "bike_id": "066165af7b5654bdac393e080b19f1d0", "fusion_lat": 0.0, "name": "066165af7b5654bdac393e080b19f1d0", "is_reserved": 0, "rental_uris": {"android": "https://dc.lft.to/lastmile_qr_scan", "ios": "https://dc.lft.to/lastmile_qr_scan"}, "fusion_lon": 0.0}, {"lat": 38.920273333333334, "is_disabled": 0, "type": "electric_scooter", "lon": -77.01324633333333, "bike_id": "bb7288e4828f876b355623da1153ed7f", "fusion_lat": 0.0, "name": "bb7288e4828f876b355623da1153ed7f", "is_reserved": 0, "rental_uris": {"android": "https://dc.lft.to/lastmile_qr_scan", "ios": "https://dc.lft.to/lastmile_qr_scan"}, "fusion_lon": 0.0}, {"lat": 38.94408333333333, "is_disabled": 0, "type": "electric_scooter", "lon": -77.06240716666667, "bike_id": "19f94866f64cfaafb0514f2abe1f2779", "fusion_lat": 0.0, "name": "19f94866f64cfaafb0514f2abe1f2779", "is_reserved": 0, "rental_uris": {"android": "https://dc.lft.to/lastmile_qr_scan", "ios": "https://dc.lft.to/lastmile_qr_scan"}, "fusion_lon": 0.0}, {"lat": 38.927214, "is_disabled": 0, "type": "electric_bike", "lon": -77.02960166666666, "bike_id": "9706f59f2d8e28c6b2f7943cf25a7077", "fusion_lat": 0.0, "name": "9706f59f2d8e28c6b2f7943cf25a7077", "is_reserved": 0, "rental_uris": {"android": "https://dc.lft.to/lastmile_qr_scan", "ios": "https://dc.lft.to/lastmile_qr_scan"}, "fusion_lon": 0.0}, {"lat": 38.91261183333334, "is_disabled": 0, "type": "electric_scooter", "lon": -77.03871666666667, "bike_id": "1093eb33a8ab45a1b6a14149e79a1230", "fusion_lat": 0.0, "name": "1093eb33a8ab45a1b6a14149e79a1230", "is_reserved": 0, "rental_uris": {"android": "https://dc.lft.to/lastmile_qr_scan", "ios": "https://dc.lft.to/lastmile_qr_scan"}, "fusion_lon": 0.0}, {"lat": 38.92616266666667, "is_disabled": 0, "type": "electric_scooter", "lon": -77.04197083333334, "bike_id": "f6baf2a32db8ce2414691d5d27d04cc8", "fusion_lat": 0.0, "name": "f6baf2a32db8ce2414691d5d27d04cc8", "is_reserved": 0, "rental_uris": {"android": "https://dc.lft.to/lastmile_qr_scan", "ios": "https://dc.lft.to/lastmile_qr_scan"}, "fusion_lon": 0.0}, {"lat": 38.907502666666666, "is_disabled": 0, "type": "electric_scooter", "lon": -76.999029, "bike_id": "23eece94a70e3918f60f8cbe736f5ed8", "fusion_lat": 0.0, "name": "23eece94a70e3918f60f8cbe736f5ed8", "is_reserved": 0, "rental_uris": {"android": "https://dc.lft.to/lastmile_qr_scan", "ios": "https://dc.lft.to/lastmile_qr_scan"}, "fusion_lon": 0.0}, {"lat": 38.93751316666667, "is_disabled": 0, "type": "electric_scooter", "lon": -77.0345385, "bike_id": "dc13668b077e8894dc8863f9c3a979d3", "fusion_lat": 0.0, "name": "dc13668b077e8894dc8863f9c3a979d3", "is_reserved": 0, "rental_uris": {"android": "https://dc.lft.to/lastmile_qr_scan", "ios": "https://dc.lft.to/lastmile_qr_scan"}, "fusion_lon": 0.0}, {"lat": 38.89615116666667, "is_disabled": 0, "type": "electric_scooter", "lon": -77.0450135, "bike_id": "77509f6969089dfba2733af8a2cea166", "fusion_lat": 0.0, "name": "77509f6969089dfba2733af8a2cea166", "is_reserved": 0, "rental_uris": {"android": "https://dc.lft.to/lastmile_qr_scan", "ios": "https://dc.lft.to/lastmile_qr_scan"}, "fusion_lon": 0.0}, {"lat": 38.894972833333334, "is_disabled": 0, "type": "electric_scooter", "lon": -77.00215083333333, "bike_id": "e5d6b04bc13ec6ebbe8044c6caece6fb", "fusion_lat": 0.0, "name": "e5d6b04bc13ec6ebbe8044c6caece6fb", "is_reserved": 0, "rental_uris": {"android": "https://dc.lft.to/lastmile_qr_scan", "ios": "https://dc.lft.to/lastmile_qr_scan"}, "fusion_lon": 0.0}, {"lat": 38.916609666666666, "is_disabled": 0, "type": "electric_scooter", "lon": -77.02275666666667, "bike_id": "83f5c690b7e9bf3d6af01028a1ea500e", "fusion_lat": 0.0, "name": "83f5c690b7e9bf3d6af01028a1ea500e", "is_reserved": 0, "rental_uris": {"android": "https://dc.lft.to/lastmile_qr_scan", "ios": "https://dc.lft.to/lastmile_qr_scan"}, "fusion_lon": 0.0}, {"lat": 38.9335315, "is_disabled": 0, "type": "electric_scooter", "lon": -77.07343716666666, "bike_id": "6ef78145adc28b7986a3733e9a437c6c", "fusion_lat": 0.0, "name": "6ef78145adc28b7986a3733e9a437c6c", "is_reserved": 0, "rental_uris": {"android": "https://dc.lft.to/lastmile_qr_scan", "ios": "https://dc.lft.to/lastmile_qr_scan"}, "fusion_lon": 0.0}, {"lat": 38.95890983333334, "is_disabled": 0, "type": "electric_bike", "lon": -76.924812, "bike_id": "8674ca6796db207a948c30122e91cd01", "fusion_lat": 0.0, "name": "8674ca6796db207a948c30122e91cd01", "is_reserved": 0, "rental_uris": {"android": "https://dc.lft.to/lastmile_qr_scan", "ios": "https://dc.lft.to/lastmile_qr_scan"}, "fusion_lon": 0.0}, {"lat": 38.85309733333333, "is_disabled": 0, "type": "electric_bike", "lon": -77.13123133333333, "bike_id": "d6619e2351c3f1b7cace7a6b1cd118ae", "fusion_lat": 0.0, "name": "d6619e2351c3f1b7cace7a6b1cd118ae", "is_reserved": 0, "rental_uris": {"android": "https://dc.lft.to/lastmile_qr_scan", "ios": "https://dc.lft.to/lastmile_qr_scan"}, "fusion_lon": 0.0}, {"lat": 38.94079966666666, "is_disabled": 0, "type": "electric_scooter", "lon": -77.023899, "bike_id": "d7260a6c782135186cce499c3fefb1e6", "fusion_lat": 0.0, "name": "d7260a6c782135186cce499c3fefb1e6", "is_reserved": 0, "rental_uris": {"android": "https://dc.lft.to/lastmile_qr_scan", "ios": "https://dc.lft.to/lastmile_qr_scan"}, "fusion_lon": 0.0}, {"lat": 38.9310885, "is_disabled": 0, "type": "electric_scooter", "lon": -77.03404683333333, "bike_id": "fcf7f6393c513594ea2e26dd299c59a4", "fusion_lat": 0.0, "name": "fcf7f6393c513594ea2e26dd299c59a4", "is_reserved": 0, "rental_uris": {"android": "https://dc.lft.to/lastmile_qr_scan", "ios": "https://dc.lft.to/lastmile_qr_scan"}, "fusion_lon": 0.0}, {"lat": 38.93009216666667, "is_disabled": 0, "type": "electric_scooter", "lon": -77.02083316666666, "bike_id": "5b98b1ea259521610dc820a5daac0506", "fusion_lat": 0.0, "name": "5b98b1ea259521610dc820a5daac0506", "is_reserved": 0, "rental_uris": {"android": "https://dc.lft.to/lastmile_qr_scan", "ios": "https://dc.lft.to/lastmile_qr_scan"}, "fusion_lon": 0.0}, {"lat": 38.91184916666667, "is_disabled": 0, "type": "electric_scooter", "lon": -77.043275, "bike_id": "c11623150c495878dcf18e75b24e5e28", "fusion_lat": 0.0, "name": "c11623150c495878dcf18e75b24e5e28", "is_reserved": 0, "rental_uris": {"android": "https://dc.lft.to/lastmile_qr_scan", "ios": "https://dc.lft.to/lastmile_qr_scan"}, "fusion_lon": 0.0}, {"lat": 38.9211395, "is_disabled": 0, "type": "electric_bike", "lon": -76.985801, "bike_id": "daeb6d9308aa9f56abccb7c35d40f04f", "fusion_lat": 0.0, "name": "daeb6d9308aa9f56abccb7c35d40f04f", "is_reserved": 0, "rental_uris": {"android": "https://dc.lft.to/lastmile_qr_scan", "ios": "https://dc.lft.to/lastmile_qr_scan"}, "fusion_lon": 0.0}, {"lat": 38.91682766666667, "is_disabled": 0, "type": "electric_scooter", "lon": -77.03562866666667, "bike_id": "016028148f78e50bdb31b8287cb4593b", "fusion_lat": 0.0, "name": "016028148f78e50bdb31b8287cb4593b", "is_reserved": 0, "rental_uris": {"android": "https://dc.lft.to/lastmile_qr_scan", "ios": "https://dc.lft.to/lastmile_qr_scan"}, "fusion_lon": 0.0}, {"lat": 38.90959616666667, "is_disabled": 0, "type": "electric_scooter", "lon": -77.03423683333334, "bike_id": "a39355eff7f08a6472998b6016ff1a7e", "fusion_lat": 0.0, "name": "a39355eff7f08a6472998b6016ff1a7e", "is_reserved": 0, "rental_uris": {"android": "https://dc.lft.to/lastmile_qr_scan", "ios": "https://dc.lft.to/lastmile_qr_scan"}, "fusion_lon": 0.0}, {"lat": 38.922955, "is_disabled": 0, "type": "electric_scooter", "lon": -77.03656933333333, "bike_id": "e46cbd0da3f29a0a7d523b1677d347ae", "fusion_lat": 0.0, "name": "e46cbd0da3f29a0a7d523b1677d347ae", "is_reserved": 0, "rental_uris": {"android": "https://dc.lft.to/lastmile_qr_scan", "ios": "https://dc.lft.to/lastmile_qr_scan"}, "fusion_lon": 0.0}, {"lat": 38.90986683333333, "is_disabled": 0, "type": "electric_scooter", "lon": -77.040089, "bike_id": "093ba3180767e8685ff554da10a61c3b", "fusion_lat": 0.0, "name": "093ba3180767e8685ff554da10a61c3b", "is_reserved": 0, "rental_uris": {"android": "https://dc.lft.to/lastmile_qr_scan", "ios": "https://dc.lft.to/lastmile_qr_scan"}, "fusion_lon": 0.0}, {"lat": 38.89250933333334, "is_disabled": 0, "type": "electric_scooter", "lon": -77.03955716666667, "bike_id": "9ae24d06f5b20c211967ac4328e6c3e6", "fusion_lat": 0.0, "name": "9ae24d06f5b20c211967ac4328e6c3e6", "is_reserved": 0, "rental_uris": {"android": "https://dc.lft.to/lastmile_qr_scan", "ios": "https://dc.lft.to/lastmile_qr_scan"}, "fusion_lon": 0.0}, {"lat": 38.92068066666667, "is_disabled": 0, "type": "electric_scooter", "lon": -77.01428183333333, "bike_id": "1bc75215fe3e9f56632ceca6e42769b6", "fusion_lat": 0.0, "name": "1bc75215fe3e9f56632ceca6e42769b6", "is_reserved": 0, "rental_uris": {"android": "https://dc.lft.to/lastmile_qr_scan", "ios": "https://dc.lft.to/lastmile_qr_scan"}, "fusion_lon": 0.0}, {"lat": 38.950642333333334, "is_disabled": 0, "type": "electric_bike", "lon": -77.007262, "bike_id": "905456ba7010ef24e43135bcb58e206d", "fusion_lat": 0.0, "name": "905456ba7010ef24e43135bcb58e206d", "is_reserved": 0, "rental_uris": {"android": "https://dc.lft.to/lastmile_qr_scan", "ios": "https://dc.lft.to/lastmile_qr_scan"}, "fusion_lon": 0.0}, {"lat": 38.91420766666667, "is_disabled": 0, "type": "electric_scooter", "lon": -77.03187433333333, "bike_id": "e896d8775c9b5bb5b62ec6eba75fa665", "fusion_lat": 0.0, "name": "e896d8775c9b5bb5b62ec6eba75fa665", "is_reserved": 0, "rental_uris": {"android": "https://dc.lft.to/lastmile_qr_scan", "ios": "https://dc.lft.to/lastmile_qr_scan"}, "fusion_lon": 0.0}, {"lat": 38.9029795, "is_disabled": 0, "type": "electric_scooter", "lon": -77.06348733333333, "bike_id": "04fca4855064c6dc1bc94244ae498138", "fusion_lat": 0.0, "name": "04fca4855064c6dc1bc94244ae498138", "is_reserved": 0, "rental_uris": {"android": "https://dc.lft.to/lastmile_qr_scan", "ios": "https://dc.lft.to/lastmile_qr_scan"}, "fusion_lon": 0.0}, {"lat": 38.93279366666667, "is_disabled": 0, "type": "electric_scooter", "lon": -77.03263166666666, "bike_id": "eb852223571177739ef92c26e6e62c41", "fusion_lat": 0.0, "name": "eb852223571177739ef92c26e6e62c41", "is_reserved": 0, "rental_uris": {"android": "https://dc.lft.to/lastmile_qr_scan", "ios": "https://dc.lft.to/lastmile_qr_scan"}, "fusion_lon": 0.0}, {"lat": 38.89202483333333, "is_disabled": 0, "type": "electric_scooter", "lon": -77.031542, "bike_id": "e0870aa1c4e206554f4cad960e270d85", "fusion_lat": 0.0, "name": "e0870aa1c4e206554f4cad960e270d85", "is_reserved": 0, "rental_uris": {"android": "https://dc.lft.to/lastmile_qr_scan", "ios": "https://dc.lft.to/lastmile_qr_scan"}, "fusion_lon": 0.0}, {"lat": 38.93022583333333, "is_disabled": 0, "type": "electric_scooter", "lon": -77.04449433333333, "bike_id": "e7944e31f5e755dacae97ce50fd7a032", "fusion_lat": 0.0, "name": "e7944e31f5e755dacae97ce50fd7a032", "is_reserved": 0, "rental_uris": {"android": "https://dc.lft.to/lastmile_qr_scan", "ios": "https://dc.lft.to/lastmile_qr_scan"}, "fusion_lon": 0.0}, {"lat": 38.9232245, "is_disabled": 0, "type": "electric_scooter", "lon": -77.02804866666666, "bike_id": "2e151c3664bc546bcc37a70f4d2607a1", "fusion_lat": 0.0, "name": "2e151c3664bc546bcc37a70f4d2607a1", "is_reserved": 0, "rental_uris": {"android": "https://dc.lft.to/lastmile_qr_scan", "ios": "https://dc.lft.to/lastmile_qr_scan"}, "fusion_lon": 0.0}, {"lat": 38.920374, "is_disabled": 0, "type": "electric_scooter", "lon": -77.03386366666666, "bike_id": "0dd1f2afcf585285cd110903db681916", "fusion_lat": 0.0, "name": "0dd1f2afcf585285cd110903db681916", "is_reserved": 0, "rental_uris": {"android": "https://dc.lft.to/lastmile_qr_scan", "ios": "https://dc.lft.to/lastmile_qr_scan"}, "fusion_lon": 0.0}, {"lat": 38.909906666666664, "is_disabled": 0, "type": "electric_scooter", "lon": -76.997379, "bike_id": "9f386ff42279a266ad01011b99d55ef7", "fusion_lat": 0.0, "name": "9f386ff42279a266ad01011b99d55ef7", "is_reserved": 0, "rental_uris": {"android": "https://dc.lft.to/lastmile_qr_scan", "ios": "https://dc.lft.to/lastmile_qr_scan"}, "fusion_lon": 0.0}, {"lat": 38.9359865, "is_disabled": 0, "type": "electric_scooter", "lon": -77.03649883333334, "bike_id": "148ececa28b7ed5a456af951aea23d60", "fusion_lat": 0.0, "name": "148ececa28b7ed5a456af951aea23d60", "is_reserved": 0, "rental_uris": {"android": "https://dc.lft.to/lastmile_qr_scan", "ios": "https://dc.lft.to/lastmile_qr_scan"}, "fusion_lon": 0.0}, {"lat": 38.899568333333335, "is_disabled": 0, "type": "electric_scooter", "lon": -77.05181733333333, "bike_id": "67c34daf5bd9794ce23d98e36611c18a", "fusion_lat": 0.0, "name": "67c34daf5bd9794ce23d98e36611c18a", "is_reserved": 0, "rental_uris": {"android": "https://dc.lft.to/lastmile_qr_scan", "ios": "https://dc.lft.to/lastmile_qr_scan"}, "fusion_lon": 0.0}, {"lat": 39.004763, "is_disabled": 0, "type": "electric_bike", "lon": -76.901307, "bike_id": "11fee59ac751f80f30b5faede56cdb4a", "fusion_lat": 0.0, "name": "11fee59ac751f80f30b5faede56cdb4a", "is_reserved": 0, "rental_uris": {"android": "https://dc.lft.to/lastmile_qr_scan", "ios": "https://dc.lft.to/lastmile_qr_scan"}, "fusion_lon": 0.0}, {"lat": 38.90072133333334, "is_disabled": 0, "type": "electric_scooter", "lon": -77.00203566666667, "bike_id": "667479f7556fd0b5546260cc8700e9c8", "fusion_lat": 0.0, "name": "667479f7556fd0b5546260cc8700e9c8", "is_reserved": 0, "rental_uris": {"android": "https://dc.lft.to/lastmile_qr_scan", "ios": "https://dc.lft.to/lastmile_qr_scan"}, "fusion_lon": 0.0}, {"lat": 38.828739666666664, "is_disabled": 0, "type": "electric_bike", "lon": -77.11217116666667, "bike_id": "2b84a77077ef4c54fedefcd5cf23ca08", "fusion_lat": 0.0, "name": "2b84a77077ef4c54fedefcd5cf23ca08", "is_reserved": 0, "rental_uris": {"android": "https://dc.lft.to/lastmile_qr_scan", "ios": "https://dc.lft.to/lastmile_qr_scan"}, "fusion_lon": 0.0}, {"lat": 38.928700166666665, "is_disabled": 0, "type": "electric_scooter", "lon": -77.03310483333334, "bike_id": "f510a689a544a3d0c463e5db9b28198a", "fusion_lat": 0.0, "name": "f510a689a544a3d0c463e5db9b28198a", "is_reserved": 0, "rental_uris": {"android": "https://dc.lft.to/lastmile_qr_scan", "ios": "https://dc.lft.to/lastmile_qr_scan"}, "fusion_lon": 0.0}, {"lat": 38.90282083333334, "is_disabled": 0, "type": "electric_scooter", "lon": -77.03636766666666, "bike_id": "54de2059c32824ac95b1c335900982e4", "fusion_lat": 0.0, "name": "54de2059c32824ac95b1c335900982e4", "is_reserved": 0, "rental_uris": {"android": "https://dc.lft.to/lastmile_qr_scan", "ios": "https://dc.lft.to/lastmile_qr_scan"}, "fusion_lon": 0.0}, {"lat": 38.914196, "is_disabled": 0, "type": "electric_scooter", "lon": -77.03184083333333, "bike_id": "e92924fd8ac7e464b8ab22d68008f16a", "fusion_lat": 0.0, "name": "e92924fd8ac7e464b8ab22d68008f16a", "is_reserved": 0, "rental_uris": {"android": "https://dc.lft.to/lastmile_qr_scan", "ios": "https://dc.lft.to/lastmile_qr_scan"}, "fusion_lon": 0.0}, {"lat": 38.923274166666666, "is_disabled": 0, "type": "electric_scooter", "lon": -77.03547066666667, "bike_id": "d0afe497d7a2d6c86311c13c918a3348", "fusion_lat": 0.0, "name": "d0afe497d7a2d6c86311c13c918a3348", "is_reserved": 0, "rental_uris": {"android": "https://dc.lft.to/lastmile_qr_scan", "ios": "https://dc.lft.to/lastmile_qr_scan"}, "fusion_lon": 0.0}, {"lat": 38.91685616666667, "is_disabled": 0, "type": "electric_scooter", "lon": -77.04192166666667, "bike_id": "41c28ef76f3c96738e956f9826acf492", "fusion_lat": 0.0, "name": "41c28ef76f3c96738e956f9826acf492", "is_reserved": 0, "rental_uris": {"android": "https://dc.lft.to/lastmile_qr_scan", "ios": "https://dc.lft.to/lastmile_qr_scan"}, "fusion_lon": 0.0}, {"lat": 38.909754666666664, "is_disabled": 0, "type": "electric_scooter", "lon": -77.03867233333334, "bike_id": "c8b2bf8cfaa33c12833ff7ddd9ad26ee", "fusion_lat": 0.0, "name": "c8b2bf8cfaa33c12833ff7ddd9ad26ee", "is_reserved": 0, "rental_uris": {"android": "https://dc.lft.to/lastmile_qr_scan", "ios": "https://dc.lft.to/lastmile_qr_scan"}, "fusion_lon": 0.0}, {"lat": 38.90808233333333, "is_disabled": 0, "type": "electric_scooter", "lon": -77.04339616666667, "bike_id": "9591bf0e7ea757f0a0c139e4e2cca55e", "fusion_lat": 0.0, "name": "9591bf0e7ea757f0a0c139e4e2cca55e", "is_reserved": 0, "rental_uris": {"android": "https://dc.lft.to/lastmile_qr_scan", "ios": "https://dc.lft.to/lastmile_qr_scan"}, "fusion_lon": 0.0}, {"lat": 38.909583166666664, "is_disabled": 0, "type": "electric_scooter", "lon": -77.02279516666667, "bike_id": "e23a53087808b2366bbde86044d291a8", "fusion_lat": 0.0, "name": "e23a53087808b2366bbde86044d291a8", "is_reserved": 0, "rental_uris": {"android": "https://dc.lft.to/lastmile_qr_scan", "ios": "https://dc.lft.to/lastmile_qr_scan"}, "fusion_lon": 0.0}, {"lat": 38.89585983333333, "is_disabled": 0, "type": "electric_bike", "lon": -77.12706183333333, "bike_id": "79fa4367c0b82d9d7f82a71a1cf5f650", "fusion_lat": 0.0, "name": "79fa4367c0b82d9d7f82a71a1cf5f650", "is_reserved": 0, "rental_uris": {"android": "https://dc.lft.to/lastmile_qr_scan", "ios": "https://dc.lft.to/lastmile_qr_scan"}, "fusion_lon": 0.0}, {"lat": 38.865236833333334, "is_disabled": 0, "type": "electric_scooter", "lon": -76.990302, "bike_id": "cd496ea09eb54e266bdc836cf4b5f98b", "fusion_lat": 0.0, "name": "cd496ea09eb54e266bdc836cf4b5f98b", "is_reserved": 0, "rental_uris": {"android": "https://dc.lft.to/lastmile_qr_scan", "ios": "https://dc.lft.to/lastmile_qr_scan"}, "fusion_lon": 0.0}, {"lat": 38.921209, "is_disabled": 0, "type": "electric_scooter", "lon": -77.0366255, "bike_id": "137dc21c92b56cde13450bf3798f9111", "fusion_lat": 0.0, "name": "137dc21c92b56cde13450bf3798f9111", "is_reserved": 0, "rental_uris": {"android": "https://dc.lft.to/lastmile_qr_scan", "ios": "https://dc.lft.to/lastmile_qr_scan"}, "fusion_lon": 0.0}, {"lat": 38.933573, "is_disabled": 0, "type": "electric_bike", "lon": -77.0995835, "bike_id": "b245f8acb932ba8eedb03a0237d4b8e0", "fusion_lat": 0.0, "name": "b245f8acb932ba8eedb03a0237d4b8e0", "is_reserved": 0, "rental_uris": {"android": "https://dc.lft.to/lastmile_qr_scan", "ios": "https://dc.lft.to/lastmile_qr_scan"}, "fusion_lon": 0.0}, {"lat": 38.90134333333334, "is_disabled": 0, "type": "electric_scooter", "lon": -77.03905733333333, "bike_id": "368a92ec4768ba3fbe0d22e12781b055", "fusion_lat": 0.0, "name": "368a92ec4768ba3fbe0d22e12781b055", "is_reserved": 0, "rental_uris": {"android": "https://dc.lft.to/lastmile_qr_scan", "ios": "https://dc.lft.to/lastmile_qr_scan"}, "fusion_lon": 0.0}, {"lat": 38.91799116666667, "is_disabled": 0, "type": "electric_scooter", "lon": -77.02302483333334, "bike_id": "ced07ed390ffa48b16c897d84e6f3b02", "fusion_lat": 0.0, "name": "ced07ed390ffa48b16c897d84e6f3b02", "is_reserved": 0, "rental_uris": {"android": "https://dc.lft.to/lastmile_qr_scan", "ios": "https://dc.lft.to/lastmile_qr_scan"}, "fusion_lon": 0.0}, {"lat": 38.93462433333333, "is_disabled": 0, "type": "electric_scooter", "lon": -77.061881, "bike_id": "b971cb629c1eef50ea74c1aa76d5d7a7", "fusion_lat": 0.0, "name": "b971cb629c1eef50ea74c1aa76d5d7a7", "is_reserved": 0, "rental_uris": {"android": "https://dc.lft.to/lastmile_qr_scan", "ios": "https://dc.lft.to/lastmile_qr_scan"}, "fusion_lon": 0.0}, {"lat": 38.915588, "is_disabled": 0, "type": "electric_scooter", "lon": -77.03167183333333, "bike_id": "85484361835a0cc063647ae235434d0f", "fusion_lat": 0.0, "name": "85484361835a0cc063647ae235434d0f", "is_reserved": 0, "rental_uris": {"android": "https://dc.lft.to/lastmile_qr_scan", "ios": "https://dc.lft.to/lastmile_qr_scan"}, "fusion_lon": 0.0}, {"lat": 38.95356666666667, "is_disabled": 0, "type": "electric_bike", "lon": -76.9809005, "bike_id": "60d332aa42cf8afe0f24bf1db0238ef8", "fusion_lat": 0.0, "name": "60d332aa42cf8afe0f24bf1db0238ef8", "is_reserved": 0, "rental_uris": {"android": "https://dc.lft.to/lastmile_qr_scan", "ios": "https://dc.lft.to/lastmile_qr_scan"}, "fusion_lon": 0.0}, {"lat": 38.887528333333336, "is_disabled": 0, "type": "electric_scooter", "lon": -77.03224933333334, "bike_id": "d3eaa5102941331967b99225903ac46e", "fusion_lat": 0.0, "name": "d3eaa5102941331967b99225903ac46e", "is_reserved": 0, "rental_uris": {"android": "https://dc.lft.to/lastmile_qr_scan", "ios": "https://dc.lft.to/lastmile_qr_scan"}, "fusion_lon": 0.0}, {"lat": 39.0000385, "is_disabled": 0, "type": "electric_bike", "lon": -76.91083083333334, "bike_id": "e2bc2939816dc4d033a5ee20d335aab8", "fusion_lat": 0.0, "name": "e2bc2939816dc4d033a5ee20d335aab8", "is_reserved": 0, "rental_uris": {"android": "https://dc.lft.to/lastmile_qr_scan", "ios": "https://dc.lft.to/lastmile_qr_scan"}, "fusion_lon": 0.0}, {"lat": 38.94171333333333, "is_disabled": 0, "type": "electric_scooter", "lon": -77.0413705, "bike_id": "392b203eab13ef3b09c534adf27e5761", "fusion_lat": 0.0, "name": "392b203eab13ef3b09c534adf27e5761", "is_reserved": 0, "rental_uris": {"android": "https://dc.lft.to/lastmile_qr_scan", "ios": "https://dc.lft.to/lastmile_qr_scan"}, "fusion_lon": 0.0}, {"lat": 38.8656475, "is_disabled": 0, "type": "electric_scooter", "lon": -76.97404783333333, "bike_id": "d4cfaefaa43c7c94e53600e7968c343f", "fusion_lat": 0.0, "name": "d4cfaefaa43c7c94e53600e7968c343f", "is_reserved": 0, "rental_uris": {"android": "https://dc.lft.to/lastmile_qr_scan", "ios": "https://dc.lft.to/lastmile_qr_scan"}, "fusion_lon": 0.0}, {"lat": 38.897543166666665, "is_disabled": 0, "type": "electric_scooter", "lon": -77.02698166666667, "bike_id": "e71e821294a5a3a6078b75b9ca21feb6", "fusion_lat": 0.0, "name": "e71e821294a5a3a6078b75b9ca21feb6", "is_reserved": 0, "rental_uris": {"android": "https://dc.lft.to/lastmile_qr_scan", "ios": "https://dc.lft.to/lastmile_qr_scan"}, "fusion_lon": 0.0}, {"lat": 38.9109425, "is_disabled": 0, "type": "electric_scooter", "lon": -77.0318405, "bike_id": "7879fca80722a697b79ea3cb439e4a40", "fusion_lat": 0.0, "name": "7879fca80722a697b79ea3cb439e4a40", "is_reserved": 0, "rental_uris": {"android": "https://dc.lft.to/lastmile_qr_scan", "ios": "https://dc.lft.to/lastmile_qr_scan"}, "fusion_lon": 0.0}, {"lat": 38.86390433333333, "is_disabled": 0, "type": "electric_bike", "lon": -76.98988816666666, "bike_id": "098672ebbbe3375d526391f30cd61d9c", "fusion_lat": 0.0, "name": "098672ebbbe3375d526391f30cd61d9c", "is_reserved": 0, "rental_uris": {"android": "https://dc.lft.to/lastmile_qr_scan", "ios": "https://dc.lft.to/lastmile_qr_scan"}, "fusion_lon": 0.0}, {"lat": 38.906018333333336, "is_disabled": 0, "type": "electric_scooter", "lon": -77.01615083333333, "bike_id": "06cd38e95d5317b45d3237d5ca4997ca", "fusion_lat": 0.0, "name": "06cd38e95d5317b45d3237d5ca4997ca", "is_reserved": 0, "rental_uris": {"android": "https://dc.lft.to/lastmile_qr_scan", "ios": "https://dc.lft.to/lastmile_qr_scan"}, "fusion_lon": 0.0}, {"lat": 38.92293883333333, "is_disabled": 0, "type": "electric_scooter", "lon": -77.02965283333333, "bike_id": "2f845b32cda7bae37d8bda9575826171", "fusion_lat": 0.0, "name": "2f845b32cda7bae37d8bda9575826171", "is_reserved": 0, "rental_uris": {"android": "https://dc.lft.to/lastmile_qr_scan", "ios": "https://dc.lft.to/lastmile_qr_scan"}, "fusion_lon": 0.0},