{"data": {"bikes": [{"is_disabled": 0, "fusion_lon": 0.0, "fusion_lat": 0.0, "lat": 38.9119495, "type": "electric_scooter", "lon": -77.03715333333334, "bike_id": "dfcfeaee4674d7111f20b6beaa9f6e7d", "rental_uris": {"android": "https://dc.lft.to/lastmile_qr_scan", "ios": "https://dc.lft.to/lastmile_qr_scan"}, "name": "dfcfeaee4674d7111f20b6beaa9f6e7d", "is_reserved": 0}, {"is_disabled": 0, "fusion_lon": 0.0, "fusion_lat": 0.0, "lat": 38.925844833333336, "type": "electric_scooter", "lon": -77.03209683333333, "bike_id": "ee8b17a5155975e18a0e58fe32b85c7f", "rental_uris": {"android": "https://dc.lft.to/lastmile_qr_scan", "ios": "https://dc.lft.to/lastmile_qr_scan"}, "name": "ee8b17a5155975e18a0e58fe32b85c7f", "is_reserved": 0}, {"is_disabled": 0, "fusion_lon": 0.0, "fusion_lat": 0.0, "lat": 38.90847083333333, "type": "electric_scooter", "lon": -77.02058933333333, "bike_id": "0547f37d185f46d84c9c2a8bacbe03d4", "rental_uris": {"android": "https://dc.lft.to/lastmile_qr_scan", "ios": "https://dc.lft.to/lastmile_qr_scan"}, "name": "0547f37d185f46d84c9c2a8bacbe03d4", "is_reserved": 0}, {"is_disabled": 0, "fusion_lon": 0.0, "fusion_lat": 0.0, "lat": 38.9052905, "type": "electric_scooter", "lon": -77.0678165, "bike_id": "c13e5a54515ebbe8dda91fcb4d859fd6", "rental_uris": {"android": "https://dc.lft.to/lastmile_qr_scan", "ios": "https://dc.lft.to/lastmile_qr_scan"}, "name": "c13e5a54515ebbe8dda91fcb4d859fd6", "is_reserved": 0}, {"is_disabled": 0, "fusion_lon": 0.0, "fusion_lat": 0.0, "lat": 38.90555366666667, "type": "electric_scooter", "lon": -77.04348866666666, "bike_id": "2b0b37bad1f235a0512dfabb394f2a3e", "rental_uris": {"android": "https://dc.lft.to/lastmile_qr_scan", "ios": "https://dc.lft.to/lastmile_qr_scan"}, "name": "2b0b37bad1f235a0512dfabb394f2a3e", "is_reserved": 0}, {"is_disabled": 0, "fusion_lon": 0.0, "fusion_lat": 0.0, "lat": 38.914098, "type": "electric_scooter", "lon": -77.02569716666666, "bike_id": "01664ff6d1f5725c37cb88f29d5aa681", "rental_uris": {"android": "https://dc.lft.to/lastmile_qr_scan", "ios": "https://dc.lft.to/lastmile_qr_scan"}, "name": "01664ff6d1f5725c37cb88f29d5aa681", "is_reserved": 0}, {"is_disabled": 0, "fusion_lon": 0.0, "fusion_lat": 0.0, "lat": 38.8940235, "type": "electric_scooter", "lon": -76.94997166666667, "bike_id": "3df51c0314b5121da075c98b1b5360b2", "rental_uris": {"android": "https://dc.lft.to/lastmile_qr_scan", "ios": "https://dc.lft.to/lastmile_qr_scan"}, "name": "3df51c0314b5121da075c98b1b5360b2", "is_reserved": 0}, {"is_disabled": 0, "fusion_lon": 0.0, "fusion_lat": 0.0, "lat": 38.9216805, "type": "electric_scooter", "lon": -77.03392633333333, "bike_id": "b6b174c1b1c4c6b359a63652d6743c22", "rental_uris": {"android": "https://dc.lft.to/lastmile_qr_scan", "ios": "https://dc.lft.to/lastmile_qr_scan"}, "name": "b6b174c1b1c4c6b359a63652d6743c22", "is_reserved": 0}, {"is_disabled": 0, "fusion_lon": 0.0, "fusion_lat": 0.0, "lat": 38.90014566666667, "type": "electric_scooter", "lon": -77.05218366666666, "bike_id": "859e8d2281bc13f21713608c0c8e7aad", "rental_uris": {"android": "https://dc.lft.to/lastmile_qr_scan", "ios": "https://dc.lft.to/lastmile_qr_scan"}, "name": "859e8d2281bc13f21713608c0c8e7aad", "is_reserved": 0}, {"is_disabled": 0, "fusion_lon": 0.0, "fusion_lat": 0.0, "lat": 39.0268595, "type": "electric_bike", "lon": -77.12599066666667, "bike_id": "57a1974b855fac31329274cf9a612276", "rental_uris": {"android": "https://dc.lft.to/lastmile_qr_scan", "ios": "https://dc.lft.to/lastmile_qr_scan"}, "name": "57a1974b855fac31329274cf9a612276", "is_reserved": 0}, {"is_disabled": 0, "fusion_lon": 0.0, "fusion_lat": 0.0, "lat": 38.903968666666664, "type": "electric_scooter", "lon": -77.0488075, "bike_id": "f96c4ebe867e350b90b1d1e0a9b6e0be", "rental_uris": {"android": "https://dc.lft.to/lastmile_qr_scan", "ios": "https://dc.lft.to/lastmile_qr_scan"}, "name": "f96c4ebe867e350b90b1d1e0a9b6e0be", "is_reserved": 0}, {"is_disabled": 0, "fusion_lon": 0.0, "fusion_lat": 0.0, "lat": 38.88987516666667, "type": "electric_scooter", "lon": -77.00248583333334, "bike_id": "89ccf419a26595b94d614f49647f77d1", "rental_uris": {"android": "https://dc.lft.to/lastmile_qr_scan", "ios": "https://dc.lft.to/lastmile_qr_scan"}, "name": "89ccf419a26595b94d614f49647f77d1", "is_reserved": 0}, {"is_disabled": 0, "fusion_lon": 0.0, "fusion_lat": 0.0, "lat": 38.9064005, "type": "electric_scooter", "lon": -76.985675, "bike_id": "df63293f1f843ff85da9e54b919f1984", "rental_uris": {"android": "https://dc.lft.to/lastmile_qr_scan", "ios": "https://dc.lft.to/lastmile_qr_scan"}, "name": "df63293f1f843ff85da9e54b919f1984", "is_reserved": 0}, {"is_disabled": 0, "fusion_lon": 0.0, "fusion_lat": 0.0, "lat": 38.901349333333336, "type": "electric_scooter", "lon": -76.9896385, "bike_id": "de83def0bbc986b10ec88bb9dcdd92fa", "rental_uris": {"android": "https://dc.lft.to/lastmile_qr_scan", "ios": "https://dc.lft.to/lastmile_qr_scan"}, "name": "de83def0bbc986b10ec88bb9dcdd92fa", "is_reserved": 0}, {"is_disabled": 0, "fusion_lon": 0.0, "fusion_lat": 0.0, "lat": 38.92359033333334, "type": "electric_scooter", "lon": -77.03512783333333, "bike_id": "e266f188f2df4274d79dcd360ecdda8f", "rental_uris": {"android": "https://dc.lft.to/lastmile_qr_scan", "ios": "https://dc.lft.to/lastmile_qr_scan"}, "name": "e266f188f2df4274d79dcd360ecdda8f", "is_reserved": 0}, {"is_disabled": 0, "fusion_lon": 0.0, "fusion_lat": 0.0, "lat": 38.921499, "type": "electric_scooter", "lon": -77.035088, "bike_id": "8bcfa1eb77aecc510dff8657de245197", "rental_uris": {"android": "https://dc.lft.to/lastmile_qr_scan", "ios": "https://dc.lft.to/lastmile_qr_scan"}, "name": "8bcfa1eb77aecc510dff8657de245197", "is_reserved": 0}, {"is_disabled": 0, "fusion_lon": 0.0, "fusion_lat": 0.0, "lat": 38.917131166666664, "type": "electric_scooter", "lon": -77.09808616666666, "bike_id": "f4d417cbafc2052b9aa8a44bb998131b", "rental_uris": {"android": "https://dc.lft.to/lastmile_qr_scan", "ios": "https://dc.lft.to/lastmile_qr_scan"}, "name": "f4d417cbafc2052b9aa8a44bb998131b", "is_reserved": 0}, {"is_disabled": 0, "fusion_lon": 0.0, "fusion_lat": 0.0, "lat": 38.915598833333334, "type": "electric_scooter", "lon": -77.03873083333333, "bike_id": "8536b005a6d28a4c9f03f5944e1773e5", "rental_uris": {"android": "https://dc.lft.to/lastmile_qr_scan", "ios": "https://dc.lft.to/lastmile_qr_scan"}, "name": "8536b005a6d28a4c9f03f5944e1773e5", "is_reserved": 0}, {"is_disabled": 0, "fusion_lon": 0.0, "fusion_lat": 0.0, "lat": 38.90025416666667, "type": "electric_scooter", "lon": -77.002072, "bike_id": "9a9ffc17bd67318ebf915aa85a0ff37a", "rental_uris": {"android": "https://dc.lft.to/lastmile_qr_scan", "ios": "https://dc.lft.to/lastmile_qr_scan"}, "name": "9a9ffc17bd67318ebf915aa85a0ff37a", "is_reserved": 0}, {"is_disabled": 0, "fusion_lon": 0.0, "fusion_lat": 0.0, "lat": 38.899624, "type": "electric_scooter", "lon": -77.01612566666667, "bike_id": "090e4218e1edbabc46d32e255c0400e6", "rental_uris": {"android": "https://dc.lft.to/lastmile_qr_scan", "ios": "https://dc.lft.to/lastmile_qr_scan"}, "name": "090e4218e1edbabc46d32e255c0400e6", "is_reserved": 0}, {"is_disabled": 0, "fusion_lon": 0.0, "fusion_lat": 0.0, "lat": 38.94984916666667, "type": "electric_scooter", "lon": -77.027031, "bike_id": "3f7b891be70a696bec10616a7d1f41b0", "rental_uris": {"android": "https://dc.lft.to/lastmile_qr_scan", "ios": "https://dc.lft.to/lastmile_qr_scan"}, "name": "3f7b891be70a696bec10616a7d1f41b0", "is_reserved": 0}, {"is_disabled": 0, "fusion_lon": 0.0, "fusion_lat": 0.0, "lat": 38.91529283333333, "type": "electric_scooter", "lon": -77.01849566666667, "bike_id": "5fc9adbe6c2b0fefd71e91d0a7782687", "rental_uris": {"android": "https://dc.lft.to/lastmile_qr_scan", "ios": "https://dc.lft.to/lastmile_qr_scan"}, "name": "5fc9adbe6c2b0fefd71e91d0a7782687", "is_reserved": 0}, {"is_disabled": 0, "fusion_lon": 0.0, "fusion_lat": 0.0, "lat": 38.911755666666664, "type": "electric_scooter", "lon": -77.00455, "bike_id": "c25c8f06cdedf8cdb088e3295a35c895", "rental_uris": {"android": "https://dc.lft.to/lastmile_qr_scan", "ios": "https://dc.lft.to/lastmile_qr_scan"}, "name": "c25c8f06cdedf8cdb088e3295a35c895", "is_reserved": 0}, {"is_disabled": 0, "fusion_lon": 0.0, "fusion_lat": 0.0, "lat": 38.93539216666667, "type": "electric_scooter", "lon": -77.03424016666666, "bike_id": "c85d82d6b706ba325d7990c48e4dcdef", "rental_uris": {"android": "https://dc.lft.to/lastmile_qr_scan", "ios": "https://dc.lft.to/lastmile_qr_scan"}, "name": "c85d82d6b706ba325d7990c48e4dcdef", "is_reserved": 0}, {"is_disabled": 0, "fusion_lon": 0.0, "fusion_lat": 0.0, "lat": 38.895425833333334, "type": "electric_scooter", "lon": -77.01088116666666, "bike_id": "390a77367a727733766ecd858b877098", "rental_uris": {"android": "https://dc.lft.to/lastmile_qr_scan", "ios": "https://dc.lft.to/lastmile_qr_scan"}, "name": "390a77367a727733766ecd858b877098", "is_reserved": 0}, {"is_disabled": 0, "fusion_lon": 0.0, "fusion_lat": 0.0, "lat": 38.92062266666667, "type": "electric_scooter", "lon": -77.0435845, "bike_id": "39666ff0d19e0347870734e6fb32deeb", "rental_uris": {"android": "https://dc.lft.to/lastmile_qr_scan", "ios": "https://dc.lft.to/lastmile_qr_scan"}, "name": "39666ff0d19e0347870734e6fb32deeb", "is_reserved": 0}, {"is_disabled": 0, "fusion_lon": 0.0, "fusion_lat": 0.0, "lat": 38.91924216666666, "type": "electric_scooter", "lon": -77.03030933333334, "bike_id": "a3eacecbc275bcec0119903a3701da43", "rental_uris": {"android": "https://dc.lft.to/lastmile_qr_scan", "ios": "https://dc.lft.to/lastmile_qr_scan"}, "name": "a3eacecbc275bcec0119903a3701da43", "is_reserved": 0}, {"is_disabled": 0, "fusion_lon": 0.0, "fusion_lat": 0.0, "lat": 38.86953466666667, "type": "electric_scooter", "lon": -76.979406, "bike_id": "5a427c0b3fc204f73b7b275a424dc40b", "rental_uris": {"android": "https://dc.lft.to/lastmile_qr_scan", "ios": "https://dc.lft.to/lastmile_qr_scan"}, "name": "5a427c0b3fc204f73b7b275a424dc40b", "is_reserved": 0}, {"is_disabled": 0, "fusion_lon": 0.0, "fusion_lat": 0.0, "lat": 38.90729816666666, "type": "electric_scooter", "lon": -77.03458933333333, "bike_id": "335108721297502e54f7589cd969f223", "rental_uris": {"android": "https://dc.lft.to/lastmile_qr_scan", "ios": "https://dc.lft.to/lastmile_qr_scan"}, "name": "335108721297502e54f7589cd969f223", "is_reserved": 0}, {"is_disabled": 0, "fusion_lon": 0.0, "fusion_lat": 0.0, "lat": 38.918095, "type": "electric_scooter", "lon": -77.02414916666666, "bike_id": "5a47a7506c01921aa30f056fa6cf2f08", "rental_uris": {"android": "https://dc.lft.to/lastmile_qr_scan", "ios": "https://dc.lft.to/lastmile_qr_scan"}, "name": "5a47a7506c01921aa30f056fa6cf2f08", "is_reserved": 0}, {"is_disabled": 0, "fusion_lon": 0.0, "fusion_lat": 0.0, "lat": 38.925516, "type": "electric_scooter", "lon": -77.02566466666667, "bike_id": "b1039905679a504b2a9f945c1bf44f93", "rental_uris": {"android": "https://dc.lft.to/lastmile_qr_scan", "ios": "https://dc.lft.to/lastmile_qr_scan"}, "name": "b1039905679a504b2a9f945c1bf44f93", "is_reserved": 0}, {"is_disabled": 0, "fusion_lon": 0.0, "fusion_lat": 0.0, "lat": 38.90665533333333, "type": "electric_scooter", "lon": -77.02708233333334, "bike_id": "c9495184cb8e90bed70dc761ca0b0859", "rental_uris": {"android": "https://dc.lft.to/lastmile_qr_scan", "ios": "https://dc.lft.to/lastmile_qr_scan"}, "name": "c9495184cb8e90bed70dc761ca0b0859", "is_reserved": 0}, {"is_disabled": 0, "fusion_lon": 0.0, "fusion_lat": 0.0, "lat": 38.92822316666667, "type": "electric_scooter", "lon": -77.0225655, "bike_id": "d745b018d1f57b93955ce2edc3352623", "rental_uris": {"android": "https://dc.lft.to/lastmile_qr_scan", "ios": "https://dc.lft.to/lastmile_qr_scan"}, "name": "d745b018d1f57b93955ce2edc3352623", "is_reserved": 0}, {"is_disabled": 0, "fusion_lon": 0.0, "fusion_lat": 0.0, "lat": 38.95285283333333, "type": "electric_scooter", "lon": -77.06865416666666, "bike_id": "2e8f9bcaa89e88d9633a1cdf8bcfcecc", "rental_uris": {"android": "https://dc.lft.to/lastmile_qr_scan", "ios": "https://dc.lft.to/lastmile_qr_scan"}, "name": "2e8f9bcaa89e88d9633a1cdf8bcfcecc", "is_reserved": 0}, {"is_disabled": 0, "fusion_lon": 0.0, "fusion_lat": 0.0, "lat": 38.89228383333333, "type": "electric_scooter", "lon": -77.04365266666667, "bike_id": "fa3d32c80a35748303fcf55b03dcf9fb", "rental_uris": {"android": "https://dc.lft.to/lastmile_qr_scan", "ios": "https://dc.lft.to/lastmile_qr_scan"}, "name": "fa3d32c80a35748303fcf55b03dcf9fb", "is_reserved": 0}, {"is_disabled": 0, "fusion_lon": 0.0, "fusion_lat": 0.0, "lat": 38.893093666666665, "type": "electric_scooter", "lon": -77.022075, "bike_id": "dee6e5dbaa217c370ee525cd7330ab24", "rental_uris": {"android": "https://dc.lft.to/lastmile_qr_scan", "ios": "https://dc.lft.to/lastmile_qr_scan"}, "name": "dee6e5dbaa217c370ee525cd7330ab24", "is_reserved": 0}, {"is_disabled": 0, "fusion_lon": 0.0, "fusion_lat": 0.0, "lat": 38.90427016666667, "type": "electric_bike", "lon": -77.027757, "bike_id": "33b41efe7761ebf3b45cc60da6322137", "rental_uris": {"android": "https://dc.lft.to/lastmile_qr_scan", "ios": "https://dc.lft.to/lastmile_qr_scan"}, "name": "33b41efe7761ebf3b45cc60da6322137", "is_reserved": 0}, {"is_disabled": 0, "fusion_lon": 0.0, "fusion_lat": 0.0, "lat": 38.923346333333335, "type": "electric_scooter", "lon": -77.04750183333333, "bike_id": "3cefe3838a9cd659f4f0395c22011827", "rental_uris": {"android": "https://dc.lft.to/lastmile_qr_scan", "ios": "https://dc.lft.to/lastmile_qr_scan"}, "name": "3cefe3838a9cd659f4f0395c22011827", "is_reserved": 0}, {"is_disabled": 0, "fusion_lon": 0.0, "fusion_lat": 0.0, "lat": 38.910396, "type": "electric_scooter", "lon": -77.04059416666666, "bike_id": "8f184b21cbf22ad46f9d8d20e6948b6a", "rental_uris": {"android": "https://dc.lft.to/lastmile_qr_scan", "ios": "https://dc.lft.to/lastmile_qr_scan"}, "name": "8f184b21cbf22ad46f9d8d20e6948b6a", "is_reserved": 0}, {"is_disabled": 0, "fusion_lon": 0.0, "fusion_lat": 0.0, "lat": 38.905019833333334, "type": "electric_scooter", "lon": -76.98856166666667, "bike_id": "0dbe3c25759568d802ab57911b727023", "rental_uris": {"android": "https://dc.lft.to/lastmile_qr_scan", "ios": "https://dc.lft.to/lastmile_qr_scan"}, "name": "0dbe3c25759568d802ab57911b727023", "is_reserved": 0}, {"is_disabled": 0, "fusion_lon": 0.0, "fusion_lat": 0.0, "lat": 38.89369333333333, "type": "electric_scooter", "lon": -76.94996266666666, "bike_id": "613b0d2ce6ceaef2c4710c9520c0ae0e", "rental_uris": {"android": "https://dc.lft.to/lastmile_qr_scan", "ios": "https://dc.lft.to/lastmile_qr_scan"}, "name": "613b0d2ce6ceaef2c4710c9520c0ae0e", "is_reserved": 0}, {"is_disabled": 0, "fusion_lon": 0.0, "fusion_lat": 0.0, "lat": 38.90386433333333, "type": "electric_scooter", "lon": -77.01767983333333, "bike_id": "05203f3167913efa165b819dd3fe66df", "rental_uris": {"android": "https://dc.lft.to/lastmile_qr_scan", "ios": "https://dc.lft.to/lastmile_qr_scan"}, "name": "05203f3167913efa165b819dd3fe66df", "is_reserved": 0}, {"is_disabled": 0, "fusion_lon": 0.0, "fusion_lat": 0.0, "lat": 38.901373666666665, "type": "electric_scooter", "lon": -77.002339, "bike_id": "4321edc15cc9b2f455c2b816af75e45c", "rental_uris": {"android": "https://dc.lft.to/lastmile_qr_scan", "ios": "https://dc.lft.to/lastmile_qr_scan"}, "name": "4321edc15cc9b2f455c2b816af75e45c", "is_reserved": 0}, {"is_disabled": 0, "fusion_lon": 0.0, "fusion_lat": 0.0, "lat": 38.93084533333333, "type": "electric_scooter", "lon": -77.0344295, "bike_id": "58cca366526ef53a0f5515e8c4c8e74c", "rental_uris": {"android": "https://dc.lft.to/lastmile_qr_scan", "ios": "https://dc.lft.to/lastmile_qr_scan"}, "name": "58cca366526ef53a0f5515e8c4c8e74c", "is_reserved": 0}, {"is_disabled": 0, "fusion_lon": 0.0, "fusion_lat": 0.0, "lat": 38.887217166666666, "type": "electric_scooter", "lon": -77.02203566666667, "bike_id": "e3c5075fbb23e9f2d75b6d8cc3238e28", "rental_uris": {"android": "https://dc.lft.to/lastmile_qr_scan", "ios": "https://dc.lft.to/lastmile_qr_scan"}, "name": "e3c5075fbb23e9f2d75b6d8cc3238e28", "is_reserved": 0}, {"is_disabled": 0, "fusion_lon": 0.0, "fusion_lat": 0.0, "lat": 38.92031866666667, "type": "electric_scooter", "lon": -77.025835, "bike_id": "dd2cb0786b0565d7af67a56ef470c746", "rental_uris": {"android": "https://dc.lft.to/lastmile_qr_scan", "ios": "https://dc.lft.to/lastmile_qr_scan"}, "name": "dd2cb0786b0565d7af67a56ef470c746", "is_reserved": 0}, {"is_disabled": 0, "fusion_lon": 0.0, "fusion_lat": 0.0, "lat": 38.91804616666667, "type": "electric_scooter", "lon": -77.02688816666667, "bike_id": "b022564856e3b7343d5248e041d36a46", "rental_uris": {"android": "https://dc.lft.to/lastmile_qr_scan", "ios": "https://dc.lft.to/lastmile_qr_scan"}, "name": "b022564856e3b7343d5248e041d36a46", "is_reserved": 0}, {"is_disabled": 0, "fusion_lon": 0.0, "fusion_lat": 0.0, "lat": 38.9562515, "type": "electric_scooter", "lon": -77.024588, "bike_id": "59eb2d5718995bef5736411315298c1a", "rental_uris": {"android": "https://dc.lft.to/lastmile_qr_scan", "ios": "https://dc.lft.to/lastmile_qr_scan"}, "name": "59eb2d5718995bef5736411315298c1a", "is_reserved": 0}, {"is_disabled": 0, "fusion_lon": 0.0, "fusion_lat": 0.0, "lat": 38.924404, "type": "electric_scooter", "lon": -77.040276, "bike_id": "67b1a02d97879654ab51a07e0688b250", "rental_uris": {"android": "https://dc.lft.to/lastmile_qr_scan", "ios": "https://dc.lft.to/lastmile_qr_scan"}, "name": "67b1a02d97879654ab51a07e0688b250", "is_reserved": 0}, {"is_disabled": 0, "fusion_lon": 0.0, "fusion_lat": 0.0, "lat": 38.915988, "type": "electric_scooter", "lon": -77.023413, "bike_id": "f7cf58294d11cc0fbb0c50e2d15ffaf2", "rental_uris": {"android": "https://dc.lft.to/lastmile_qr_scan", "ios": "https://dc.lft.to/lastmile_qr_scan"}, "name": "f7cf58294d11cc0fbb0c50e2d15ffaf2", "is_reserved": 0}, {"is_disabled": 0, "fusion_lon": 0.0, "fusion_lat": 0.0, "lat": 38.91635316666667, "type": "electric_scooter", "lon": -77.046254, "bike_id": "ad86b8a36b758800f9b19f45e64643df", "rental_uris": {"android": "https://dc.lft.to/lastmile_qr_scan", "ios": "https://dc.lft.to/lastmile_qr_scan"}, "name": "ad86b8a36b758800f9b19f45e64643df", "is_reserved": 0}, {"is_disabled": 0, "fusion_lon": 0.0, "fusion_lat": 0.0, "lat": 38.91805316666667, "type": "electric_scooter", "lon": -77.024466, "bike_id": "f3c2949a85a7776214bbc9bb4da7657f", "rental_uris": {"android": "https://dc.lft.to/lastmile_qr_scan", "ios": "https://dc.lft.to/lastmile_qr_scan"}, "name": "f3c2949a85a7776214bbc9bb4da7657f", "is_reserved": 0}, {"is_disabled": 0, "fusion_lon": 0.0, "fusion_lat": 0.0, "lat": 38.9088755, "type": "electric_scooter", "lon": -77.0027035, "bike_id": "555c06f39a6bbfcccb42c4c609dff78b", "rental_uris": {"android": "https://dc.lft.to/lastmile_qr_scan", "ios": "https://dc.lft.to/lastmile_qr_scan"}, "name": "555c06f39a6bbfcccb42c4c609dff78b", "is_reserved": 0}, {"is_disabled": 0, "fusion_lon": 0.0, "fusion_lat": 0.0, "lat": 38.863448166666664, "type": "electric_scooter", "lon": -76.98259583333333, "bike_id": "3261f7f2f7505f78623c8dbff21b61b2", "rental_uris": {"android": "https://dc.lft.to/lastmile_qr_scan", "ios": "https://dc.lft.to/lastmile_qr_scan"}, "name": "3261f7f2f7505f78623c8dbff21b61b2", "is_reserved": 0}, {"is_disabled": 0, "fusion_lon": 0.0, "fusion_lat": 0.0, "lat": 38.92479183333333, "type": "electric_scooter", "lon": -77.0271285, "bike_id": "7fceed3405c6d5d0496f785a2f08aa05", "rental_uris": {"android": "https://dc.lft.to/lastmile_qr_scan", "ios": "https://dc.lft.to/lastmile_qr_scan"}, "name": "7fceed3405c6d5d0496f785a2f08aa05", "is_reserved": 0}, {"is_disabled": 0, "fusion_lon": 0.0, "fusion_lat": 0.0, "lat": 38.9085895, "type": "electric_scooter", "lon": -77.00373416666666, "bike_id": "1bd41ea251b37cabf76e2f6067991ed2", "rental_uris": {"android": "https://dc.lft.to/lastmile_qr_scan", "ios": "https://dc.lft.to/lastmile_qr_scan"}, "name": "1bd41ea251b37cabf76e2f6067991ed2", "is_reserved": 0}, {"is_disabled": 0, "fusion_lon": 0.0, "fusion_lat": 0.0, "lat": 38.905955166666665, "type": "electric_scooter", "lon": -77.07315466666667, "bike_id": "fceeaeaf308e6a14fb419866e13b41bc", "rental_uris": {"android": "https://dc.lft.to/lastmile_qr_scan", "ios": "https://dc.lft.to/lastmile_qr_scan"}, "name": "fceeaeaf308e6a14fb419866e13b41bc", "is_reserved": 0}, {"is_disabled": 0, "fusion_lon": 0.0, "fusion_lat": 0.0, "lat": 38.91991683333333, "type": "electric_scooter", "lon": -77.03295866666667, "bike_id": "f0c447cb8dd798e21b0462cd868790e3", "rental_uris": {"android": "https://dc.lft.to/lastmile_qr_scan", "ios": "https://dc.lft.to/lastmile_qr_scan"}, "name": "f0c447cb8dd798e21b0462cd868790e3", "is_reserved": 0}, {"is_disabled": 0, "fusion_lon": 0.0, "fusion_lat": 0.0, "lat": 39.000169166666666, "type": "electric_bike", "lon": -76.87284633333333, "bike_id": "5a8ac84630820dab87e4cda990c7e5b0", "rental_uris": {"android": "https://dc.lft.to/lastmile_qr_scan", "ios": "https://dc.lft.to/lastmile_qr_scan"}, "name": "5a8ac84630820dab87e4cda990c7e5b0", "is_reserved": 0}, {"is_disabled": 0, "fusion_lon": 0.0, "fusion_lat": 0.0, "lat": 38.912894, "type": "electric_scooter", "lon": -77.0207415, "bike_id": "091855dc8554af040f4300f438656aaf", "rental_uris": {"android": "https://dc.lft.to/lastmile_qr_scan", "ios": "https://dc.lft.to/lastmile_qr_scan"}, "name": "091855dc8554af040f4300f438656aaf", "is_reserved": 0}, {"is_disabled": 0, "fusion_lon": 0.0, "fusion_lat": 0.0, "lat": 38.90575166666667, "type": "electric_scooter", "lon": -77.02203933333334, "bike_id": "af2b6147112900dfb8ba6f66de9220ee", "rental_uris": {"android": "https://dc.lft.to/lastmile_qr_scan", "ios": "https://dc.lft.to/lastmile_qr_scan"}, "name": "af2b6147112900dfb8ba6f66de9220ee", "is_reserved": 0}, {"is_disabled": 0, "fusion_lon": 0.0, "fusion_lat": 0.0, "lat": 38.908295333333335, "type": "electric_scooter", "lon": -77.04348016666667, "bike_id": "dc2ea57f42f2cdc2e07ba1e81318237a", "rental_uris": {"android": "https://dc.lft.to/lastmile_qr_scan", "ios": "https://dc.lft.to/lastmile_qr_scan"}, "name": "dc2ea57f42f2cdc2e07ba1e81318237a", "is_reserved": 0}, {"is_disabled": 0, "fusion_lon": 0.0, "fusion_lat": 0.0, "lat": 38.828729333333335, "type": "electric_bike", "lon": -77.11217066666667, "bike_id": "b3c6f73252c46803ee91ec24d6cf81e9", "rental_uris": {"android": "https://dc.lft.to/lastmile_qr_scan", "ios": "https://dc.lft.to/lastmile_qr_scan"}, "name": "b3c6f73252c46803ee91ec24d6cf81e9", "is_reserved": 0}, {"is_disabled": 0, "fusion_lon": 0.0, "fusion_lat": 0.0, "lat": 38.877021666666664, "type": "electric_scooter", "lon": -77.00497333333334, "bike_id": "c549a0d3859e153f3e2c2d02ed86a010", "rental_uris": {"android": "https://dc.lft.to/lastmile_qr_scan", "ios": "https://dc.lft.to/lastmile_qr_scan"}, "name": "c549a0d3859e153f3e2c2d02ed86a010", "is_reserved": 0}, {"is_disabled": 0, "fusion_lon": 0.0, "fusion_lat": 0.0, "lat": 38.8859055, "type": "electric_scooter", "lon": -77.01765533333334, "bike_id": "c56eda05b700706a28d5253b7171d8b5", "rental_uris": {"android": "https://dc.lft.to/lastmile_qr_scan", "ios": "https://dc.lft.to/lastmile_qr_scan"}, "name": "c56eda05b700706a28d5253b7171d8b5", "is_reserved": 0}, {"is_disabled": 0, "fusion_lon": 0.0, "fusion_lat": 0.0, "lat": 38.923326, "type": "electric_scooter", "lon": -77.04182016666667, "bike_id": "2fa7852a5eccb28e3c478b77eeade590", "rental_uris": {"android": "https://dc.lft.to/lastmile_qr_scan", "ios": "https://dc.lft.to/lastmile_qr_scan"}, "name": "2fa7852a5eccb28e3c478b77eeade590", "is_reserved": 0}, {"is_disabled": 0, "fusion_lon": 0.0, "fusion_lat": 0.0, "lat": 38.900616166666666, "type": "electric_scooter", "lon": -76.93385833333333, "bike_id": "7900e09a3d6dfa19de0112059d5a11bd", "rental_uris": {"android": "https://dc.lft.to/lastmile_qr_scan", "ios": "https://dc.lft.to/lastmile_qr_scan"}, "name": "7900e09a3d6dfa19de0112059d5a11bd", "is_reserved": 0}, {"is_disabled": 0, "fusion_lon": 0.0, "fusion_lat": 0.0, "lat": 38.87893366666667, "type": "electric_scooter", "lon": -76.93522333333334, "bike_id": "e51525bbbb7b92e309bb2577e7b656c2", "rental_uris": {"android": "https://dc.lft.to/lastmile_qr_scan", "ios": "https://dc.lft.to/lastmile_qr_scan"}, "name": "e51525bbbb7b92e309bb2577e7b656c2", "is_reserved": 0}, {"is_disabled": 0, "fusion_lon": 0.0, "fusion_lat": 0.0, "lat": 38.9129755, "type": "electric_scooter", "lon": -77.03832266666667, "bike_id": "d89fc14d29ac6e7e915714fdbdd8ff22", "rental_uris": {"android": "https://dc.lft.to/lastmile_qr_scan", "ios": "https://dc.lft.to/lastmile_qr_scan"}, "name": "d89fc14d29ac6e7e915714fdbdd8ff22", "is_reserved": 0}, {"is_disabled": 0, "fusion_lon": 0.0, "fusion_lat": 0.0, "lat": 38.899667, "type": "electric_scooter", "lon": -77.051391, "bike_id": "8fe30e199e37484fbb4b7b256d4e4ce2", "rental_uris": {"android": "https://dc.lft.to/lastmile_qr_scan", "ios": "https://dc.lft.to/lastmile_qr_scan"}, "name": "8fe30e199e37484fbb4b7b256d4e4ce2", "is_reserved": 0}, {"is_disabled": 0, "fusion_lon": 0.0, "fusion_lat": 0.0, "lat": 38.936067, "type": "electric_scooter", "lon": -77.05862016666667, "bike_id": "93230c25eec83dc7dbc0fd86ffc0b940", "rental_uris": {"android": "https://dc.lft.to/lastmile_qr_scan", "ios": "https://dc.lft.to/lastmile_qr_scan"}, "name": "93230c25eec83dc7dbc0fd86ffc0b940", "is_reserved": 0}, {"is_disabled": 0, "fusion_lon": 0.0, "fusion_lat": 0.0, "lat": 38.912697, "type": "electric_scooter", "lon": -77.03871266666667, "bike_id": "83681b740cdd4fd6bde17b27ee24e48f", "rental_uris": {"android": "https://dc.lft.to/lastmile_qr_scan", "ios": "https://dc.lft.to/lastmile_qr_scan"}, "name": "83681b740cdd4fd6bde17b27ee24e48f", "is_reserved": 0}, {"is_disabled": 0, "fusion_lon": 0.0, "fusion_lat": 0.0, "lat": 38.90863983333333, "type": "electric_scooter", "lon": -77.035481, "bike_id": "0a94babab9f6c7bc0316c9896a5cecf4", "rental_uris": {"android": "https://dc.lft.to/lastmile_qr_scan", "ios": "https://dc.lft.to/lastmile_qr_scan"}, "name": "0a94babab9f6c7bc0316c9896a5cecf4", "is_reserved": 0}, {"is_disabled": 0, "fusion_lon": 0.0, "fusion_lat": 0.0, "lat": 38.92005666666667, "type": "electric_scooter", "lon": -76.98494016666666, "bike_id": "2722f81a4d5728eb0ba50cb7ca2c4fa9", "rental_uris": {"android": "https://dc.lft.to/lastmile_qr_scan", "ios": "https://dc.lft.to/lastmile_qr_scan"}, "name": "2722f81a4d5728eb0ba50cb7ca2c4fa9", "is_reserved": 0}, {"is_disabled": 0, "fusion_lon": 0.0, "fusion_lat": 0.0, "lat": 38.852070833333336, "type": "electric_bike", "lon": -77.1013315, "bike_id": "70551382e12e60ad4bca5de9c63c5414", "rental_uris": {"android": "https://dc.lft.to/lastmile_qr_scan", "ios": "https://dc.lft.to/lastmile_qr_scan"}, "name": "70551382e12e60ad4bca5de9c63c5414", "is_reserved": 0}, {"is_disabled": 0, "fusion_lon": 0.0, "fusion_lat": 0.0, "lat": 38.876223, "type": "electric_scooter", "lon": -76.9653735, "bike_id": "b3917cd41ee2ea1362457778ea9fdeaa", "rental_uris": {"android": "https://dc.lft.to/lastmile_qr_scan", "ios": "https://dc.lft.to/lastmile_qr_scan"}, "name": "b3917cd41ee2ea1362457778ea9fdeaa", "is_reserved": 0}, {"is_disabled": 0, "fusion_lon": 0.0, "fusion_lat": 0.0, "lat": 38.917077166666665, "type": "electric_scooter", "lon": -77.02989533333333, "bike_id": "45bbfc24e47096ee91e57ce0db1d6e6e", "rental_uris": {"android": "https://dc.lft.to/lastmile_qr_scan", "ios": "https://dc.lft.to/lastmile_qr_scan"}, "name": "45bbfc24e47096ee91e57ce0db1d6e6e", "is_reserved": 0}, {"is_disabled": 0, "fusion_lon": 0.0, "fusion_lat": 0.0, "lat": 38.9191695, "type": "electric_scooter", "lon": -77.04815166666667, "bike_id": "36cbc4a40908624c3579bf4da29ed907", "rental_uris": {"android": "https://dc.lft.to/lastmile_qr_scan", "ios": "https://dc.lft.to/lastmile_qr_scan"}, "name": "36cbc4a40908624c3579bf4da29ed907", "is_reserved": 0}, {"is_disabled": 0, "fusion_lon": 0.0, "fusion_lat": 0.0, "lat": 38.920252166666664, "type": "electric_scooter", "lon": -77.01869566666667, "bike_id": "f55b351f77a0e04856ff20d7f82e16d9", "rental_uris": {"android": "https://dc.lft.to/lastmile_qr_scan", "ios": "https://dc.lft.to/lastmile_qr_scan"}, "name": "f55b351f77a0e04856ff20d7f82e16d9", "is_reserved": 0}, {"is_disabled": 0, "fusion_lon": 0.0, "fusion_lat": 0.0, "lat": 38.90186116666667, "type": "electric_scooter", "lon": -77.05001133333333, "bike_id": "a38f16087e0f9965ccef876406e1d99d", "rental_uris": {"android": "https://dc.lft.to/lastmile_qr_scan", "ios": "https://dc.lft.to/lastmile_qr_scan"}, "name": "a38f16087e0f9965ccef876406e1d99d", "is_reserved": 0}, {"is_disabled": 0, "fusion_lon": 0.0, "fusion_lat": 0.0, "lat": 38.90575616666667, "type": "electric_scooter", "lon": -77.04874066666666, "bike_id": "b94e008febaa77a3b82ffd7818aa78ba", "rental_uris": {"android": "https://dc.lft.to/lastmile_qr_scan", "ios": "https://dc.lft.to/lastmile_qr_scan"}, "name": "b94e008febaa77a3b82ffd7818aa78ba", "is_reserved": 0}, {"is_disabled": 0, "fusion_lon": 0.0, "fusion_lat": 0.0, "lat": 38.937051833333335, "type": "electric_scooter", "lon": -77.061049, "bike_id": "4390a2a0a847f2df33f67ab9b776e7fb", "rental_uris": {"android": "https://dc.lft.to/lastmile_qr_scan", "ios": "https://dc.lft.to/lastmile_qr_scan"}, "name": "4390a2a0a847f2df33f67ab9b776e7fb", "is_reserved": 0}, {"is_disabled": 0, "fusion_lon": 0.0, "fusion_lat": 0.0, "lat": 38.89812366666666, "type": "electric_scooter", "lon": -77.0433485, "bike_id": "74d8130c2355a98b25a9dd417edfd965", "rental_uris": {"android": "https://dc.lft.to/lastmile_qr_scan", "ios": "https://dc.lft.to/lastmile_qr_scan"}, "name": "74d8130c2355a98b25a9dd417edfd965", "is_reserved": 0}, {"is_disabled": 0, "fusion_lon": 0.0, "fusion_lat": 0.0, "lat": 38.92337916666666, "type": "electric_scooter", "lon": -77.0544845, "bike_id": "21be55c4c49ec241d9e501b3fa115eb8", "rental_uris": {"android": "https://dc.lft.to/lastmile_qr_scan", "ios": "https://dc.lft.to/lastmile_qr_scan"}, "name": "21be55c4c49ec241d9e501b3fa115eb8", "is_reserved": 0}, {"is_disabled": 0, "fusion_lon": 0.0, "fusion_lat": 0.0, "lat": 38.863509666666666, "type": "electric_scooter", "lon": -76.9906745, "bike_id": "ac090bc6fbc9f04c0db63432fb19f727", "rental_uris": {"android": "https://dc.lft.to/lastmile_qr_scan", "ios": "https://dc.lft.to/lastmile_qr_scan"}, "name": "ac090bc6fbc9f04c0db63432fb19f727", "is_reserved": 0}, {"is_disabled": 0, "fusion_lon": 0.0, "fusion_lat": 0.0, "lat": 38.89294616666667, "type": "electric_bike", "lon": -77.00143283333334, "bike_id": "2d161e29ad060689d355f10e0871067b", "rental_uris": {"android": "https://dc.lft.to/lastmile_qr_scan", "ios": "https://dc.lft.to/lastmile_qr_scan"}, "name": "2d161e29ad060689d355f10e0871067b", "is_reserved": 0}, {"is_disabled": 0, "fusion_lon": 0.0, "fusion_lat": 0.0, "lat": 38.885746, "type": "electric_scooter", "lon": -76.9190595, "bike_id": "702a97c5888f07211a9ce3f1ba420045", "rental_uris": {"android": "https://dc.lft.to/lastmile_qr_scan", "ios": "https://dc.lft.to/lastmile_qr_scan"}, "name": "702a97c5888f07211a9ce3f1ba420045", "is_reserved": 0}, {"is_disabled": 0, "fusion_lon": 0.0, "fusion_lat": 0.0, "lat": 38.916488333333334, "type": "electric_scooter", "lon": -77.02183633333334, "bike_id": "599a123055c34f03a97b6b32cff142e4", "rental_uris": {"android": "https://dc.lft.to/lastmile_qr_scan", "ios": "https://dc.lft.to/lastmile_qr_scan"}, "name": "599a123055c34f03a97b6b32cff142e4", "is_reserved": 0}, {"is_disabled": 0, "fusion_lon": 0.0, "fusion_lat": 0.0, "lat": 38.956139666666665, "type": "electric_scooter", "lon": -77.02783433333333, "bike_id": "8a5e41d85186b6840209d45971f56845", "rental_uris": {"android": "https://dc.lft.to/lastmile_qr_scan", "ios": "https://dc.lft.to/lastmile_qr_scan"}, "name": "8a5e41d85186b6840209d45971f56845", "is_reserved": 0}, {"is_disabled": 0, "fusion_lon": 0.0, "fusion_lat": 0.0, "lat": 38.861877, "type": "electric_bike", "lon": -77.05684583333333, "bike_id": "d79b6abb0cb0338b249170a36f0210e4", "rental_uris": {"android": "https://dc.lft.to/lastmile_qr_scan", "ios": "https://dc.lft.to/lastmile_qr_scan"}, "name": "d79b6abb0cb0338b249170a36f0210e4", "is_reserved": 0}, {"is_disabled": 0, "fusion_lon": 0.0, "fusion_lat": 0.0, "lat": 38.936701166666666, "type": "electric_bike", "lon": -76.9521005, "bike_id": "3b8ecda511c9a59b704619d7ffe7b503", "rental_uris": {"android": "https://dc.lft.to/lastmile_qr_scan", "ios": "https://dc.lft.to/lastmile_qr_scan"}, "name": "3b8ecda511c9a59b704619d7ffe7b503", "is_reserved": 0}, {"is_disabled": 0, "fusion_lon": 0.0, "fusion_lat": 0.0, "lat": 38.8706595, "type": "electric_bike", "lon": -77.110609, "bike_id": "b04e9e5250918e246cf89257924750d2", "rental_uris": {"android": "https://dc.lft.to/lastmile_qr_scan", "ios": "https://dc.lft.to/lastmile_qr_scan"}, "name": "b04e9e5250918e246cf89257924750d2", "is_reserved": 0}, {"is_disabled": 0, "fusion_lon": 0.0, "fusion_lat": 0.0, "lat": 38.95325016666666, "type": "electric_scooter", "lon": -77.06860333333333, "bike_id": "b1bfedbb4e61f5853a5e3188ecaf1260", "rental_uris": {"android": "https://dc.lft.to/lastmile_qr_scan", "ios": "https://dc.lft.to/lastmile_qr_scan"}, "name": "b1bfedbb4e61f5853a5e3188ecaf1260", "is_reserved": 0}, {"is_disabled": 0, "fusion_lon": 0.0, "fusion_lat": 0.0, "lat": 38.92219566666667, "type": "electric_scooter", "lon": -77.043312, "bike_id": "e7df84f39570a0944e0f59f0c24f3834", "rental_uris": {"android": "https://dc.lft.to/lastmile_qr_scan", "ios": "https://dc.lft.to/lastmile_qr_scan"}, "name": "e7df84f39570a0944e0f59f0c24f3834", "is_reserved": 0}, {"is_disabled": 0, "fusion_lon": 0.0, "fusion_lat": 0.0, "lat": 38.9046685, "type": "electric_scooter", "lon": -77.0272175, "bike_id": "554cf4496b4f8e25bcb8971f884013b3", "rental_uris": {"android": "https://dc.lft.to/lastmile_qr_scan", "ios": "https://dc.lft.to/lastmile_qr_scan"}, "name": "554cf4496b4f8e25bcb8971f884013b3", "is_reserved": 0}, {"is_disabled": 0, "fusion_lon": 0.0, "fusion_lat": 0.0, "lat": 39.038809, "type": "electric_bike", "lon": -77.10910483333333, "bike_id": "5780d80b0e9ad773149366d80d122b79", "rental_uris": {"android": "https://dc.lft.to/lastmile_qr_scan", "ios": "https://dc.lft.to/lastmile_qr_scan"}, "name": "5780d80b0e9ad773149366d80d122b79", "is_reserved": 0}, {"is_disabled": 0, "fusion_lon": 0.0, "fusion_lat": 0.0, "lat": 38.91129, "type": "electric_scooter", "lon": -77.04416183333333, "bike_id": "2fb6cce40fdcd20f7cbea0a998163023", "rental_uris": {"android": "https://dc.lft.to/lastmile_qr_scan", "ios": "https://dc.lft.to/lastmile_qr_scan"}, "name": "2fb6cce40fdcd20f7cbea0a998163023", "is_reserved": 0}, {"is_disabled": 0, "fusion_lon": 0.0, "fusion_lat": 0.0, "lat": 38.929652, "type": "electric_scooter", "lon": -77.04209983333334, "bike_id": "0248121b5cba071a4cfc331bb718cd61", "rental_uris": {"android": "https://dc.lft.to/lastmile_qr_scan", "ios": "https://dc.lft.to/lastmile_qr_scan"}, "name": "0248121b5cba071a4cfc331bb718cd61", "is_reserved": 0}, {"is_disabled": 0, "fusion_lon": 0.0, "fusion_lat": 0.0, "lat": 38.96613166666667, "type": "electric_scooter", "lon": -77.03537666666666, "bike_id": "a99a95322c6a6ac780774c7cf7b37051", "rental_uris": {"android": "https://dc.lft.to/lastmile_qr_scan", "ios": "https://dc.lft.to/lastmile_qr_scan"}, "name": "a99a95322c6a6ac780774c7cf7b37051", "is_reserved": 0}, {"is_disabled": 0, "fusion_lon": 0.0, "fusion_lat": 0.0, "lat": 38.919962166666664, "type": "electric_scooter", "lon": -77.03973683333334, "bike_id": "bec32dd2b372c633994ba1c549c895fb", "rental_uris": {"android": "https://dc.lft.to/lastmile_qr_scan", "ios": "https://dc.lft.to/lastmile_qr_scan"}, "name": "bec32dd2b372c633994ba1c549c895fb", "is_reserved": 0}, {"is_disabled": 0, "fusion_lon": 0.0, "fusion_lat": 0.0, "lat": 38.946176, "type": "electric_scooter", "lon": -77.03624883333333, "bike_id": "2e515d427adaa1874dd6bc4129df1cfc", "rental_uris": {"android": "https://dc.lft.to/lastmile_qr_scan", "ios": "https://dc.lft.to/lastmile_qr_scan"}, "name": "2e515d427adaa1874dd6bc4129df1cfc", "is_reserved": 0}, {"is_disabled": 0, "fusion_lon": 0.0, "fusion_lat": 0.0, "lat": 38.934348, "type": "electric_scooter", "lon": -77.02594933333333, "bike_id": "5e068ec1527af6cfddc8db6115e0a9d1", "rental_uris": {"android": "https://dc.lft.to/lastmile_qr_scan", "ios": "https://dc.lft.to/lastmile_qr_scan"}, "name": "5e068ec1527af6cfddc8db6115e0a9d1", "is_reserved": 0}, {"is_disabled": 0, "fusion_lon": 0.0, "fusion_lat": 0.0, "lat": 38.92043316666667, "type": "electric_bike", "lon": -77.003544, "bike_id": "18a2c17a52b8c2875b0099ff26d57650", "rental_uris": {"android": "https://dc.lft.to/lastmile_qr_scan", "ios": "https://dc.lft.to/lastmile_qr_scan"}, "name": "18a2c17a52b8c2875b0099ff26d57650", "is_reserved": 0}, {"is_disabled": 0, "fusion_lon": 0.0, "fusion_lat": 0.0, "lat": 38.951773, "type": "electric_scooter", "lon": -77.03332266666666, "bike_id": "b2163c0e7dbd679641f5149c7523f5b7", "rental_uris": {"android": "https://dc.lft.to/lastmile_qr_scan", "ios": "https://dc.lft.to/lastmile_qr_scan"}, "name": "b2163c0e7dbd679641f5149c7523f5b7", "is_reserved": 0}, {"is_disabled": 0, "fusion_lon": 0.0, "fusion_lat": 0.0, "lat": 38.913052, "type": "electric_scooter", "lon": -77.00839783333333, "bike_id": "ee6f299400dfb3a2ea7bbc87129060d7", "rental_uris": {"android": "https://dc.lft.to/lastmile_qr_scan", "ios": "https://dc.lft.to/lastmile_qr_scan"}, "name": "ee6f299400dfb3a2ea7bbc87129060d7", "is_reserved": 0}, {"is_disabled": 0, "fusion_lon": 0.0, "fusion_lat": 0.0, "lat": 38.9127445, "type": "electric_scooter", "lon": -77.03365266666667, "bike_id": "1c75faf0a472c260ea9ef9c2e270f016", "rental_uris": {"android": "https://dc.lft.to/lastmile_qr_scan", "ios": "https://dc.lft.to/lastmile_qr_scan"}, "name": "1c75faf0a472c260ea9ef9c2e270f016", "is_reserved": 0}, {"is_disabled": 0, "fusion_lon": 0.0, "fusion_lat": 0.0, "lat": 38.94270616666667, "type": "electric_scooter", "lon": -77.03258766666667, "bike_id": "f2f811f6917f9064a2e7b52cf656e0d0", "rental_uris": {"android": "https://dc.lft.to/lastmile_qr_scan", "ios": "https://dc.lft.to/lastmile_qr_scan"}, "name": "f2f811f6917f9064a2e7b52cf656e0d0", "is_reserved": 0}, {"is_disabled": 0, "fusion_lon": 0.0, "fusion_lat": 0.0, "lat": 38.88751233333333, "type": "electric_scooter", "lon": -77.01607066666666, "bike_id": "4b90ebab8a3e32cc8f0563b33946d169", "rental_uris": {"android": "https://dc.lft.to/lastmile_qr_scan", "ios": "https://dc.lft.to/lastmile_qr_scan"}, "name": "4b90ebab8a3e32cc8f0563b33946d169", "is_reserved": 0}, {"is_disabled": 0, "fusion_lon": 0.0, "fusion_lat": 0.0, "lat": 38.934130833333334, "type": "electric_bike", "lon": -77.02508883333333, "bike_id": "c4ec0b32f8b6f6c4cd887d9387728d6e", "rental_uris": {"android": "https://dc.lft.to/lastmile_qr_scan", "ios": "https://dc.lft.to/lastmile_qr_scan"}, "name": "c4ec0b32f8b6f6c4cd887d9387728d6e", "is_reserved": 0}, {"is_disabled": 0, "fusion_lon": 0.0, "fusion_lat": 0.0, "lat": 38.8585835, "type": "electric_bike", "lon": -77.09759216666667, "bike_id": "7b5b5d010ab91b18ef2a1c292671895a", "rental_uris": {"android": "https://dc.lft.to/lastmile_qr_scan", "ios": "https://dc.lft.to/lastmile_qr_scan"}, "name": "7b5b5d010ab91b18ef2a1c292671895a", "is_reserved": 0}, {"is_disabled": 0, "fusion_lon": 0.0, "fusion_lat": 0.0, "lat": 38.8659385, "type": "electric_bike", "lon": -76.97454483333334, "bike_id": "98fdd8761b2bc71620b2e0460044031d", "rental_uris": {"android": "https://dc.lft.to/lastmile_qr_scan", "ios": "https://dc.lft.to/lastmile_qr_scan"}, "name": "98fdd8761b2bc71620b2e0460044031d", "is_reserved": 0}, {"is_disabled": 0, "fusion_lon": 0.0, "fusion_lat": 0.0, "lat": 38.84291483333333, "type": "electric_scooter", "lon": -76.9995115, "bike_id": "750b1b18f3516aaf58431e59bbd248e2", "rental_uris": {"android": "https://dc.lft.to/lastmile_qr_scan", "ios": "https://dc.lft.to/lastmile_qr_scan"}, "name": "750b1b18f3516aaf58431e59bbd248e2", "is_reserved": 0}, {"is_disabled": 0, "fusion_lon": 0.0, "fusion_lat": 0.0, "lat": 38.940479, "type": "electric_scooter", "lon": -77.0248915, "bike_id": "718191d108ba8864833748d174267974", "rental_uris": {"android": "https://dc.lft.to/lastmile_qr_scan", "ios": "https://dc.lft.to/lastmile_qr_scan"}, "name": "718191d108ba8864833748d174267974", "is_reserved": 0}, {"is_disabled": 0, "fusion_lon": 0.0, "fusion_lat": 0.0, "lat": 38.92031566666667, "type": "electric_scooter", "lon": -77.03123566666666, "bike_id": "1194a0850f3098e7e63a6b52930898c9", "rental_uris": {"android": "https://dc.lft.to/lastmile_qr_scan", "ios": "https://dc.lft.to/lastmile_qr_scan"}, "name": "1194a0850f3098e7e63a6b52930898c9", "is_reserved": 0}, {"is_disabled": 0, "fusion_lon": 0.0, "fusion_lat": 0.0, "lat": 38.89908333333333, "type": "electric_scooter", "lon": -76.93391483333333, "bike_id": "30868bf420ebdb84b0ecd832cceab267", "rental_uris": {"android": "https://dc.lft.to/lastmile_qr_scan", "ios": "https://dc.lft.to/lastmile_qr_scan"}, "name": "30868bf420ebdb84b0ecd832cceab267", "is_reserved": 0}, {"is_disabled": 0, "fusion_lon": 0.0, "fusion_lat": 0.0, "lat": 38.89964616666666, "type": "electric_scooter", "lon": -77.05207383333334, "bike_id": "fbd21840898c08763352aae890878137", "rental_uris": {"android": "https://dc.lft.to/lastmile_qr_scan", "ios": "https://dc.lft.to/lastmile_qr_scan"}, "name": "fbd21840898c08763352aae890878137", "is_reserved": 0}, {"is_disabled": 0, "fusion_lon": 0.0, "fusion_lat": 0.0, "lat": 38.92888816666667, "type": "electric_scooter", "lon": -77.0231435, "bike_id": "2999e88ee936f149aa19b4d900d6560d", "rental_uris": {"android": "https://dc.lft.to/lastmile_qr_scan", "ios": "https://dc.lft.to/lastmile_qr_scan"}, "name": "2999e88ee936f149aa19b4d900d6560d", "is_reserved": 0}, {"is_disabled": 0, "fusion_lon": 0.0, "fusion_lat": 0.0, "lat": 39.029981, "type": "electric_bike", "lon": -77.106543, "bike_id": "2c586d78aa07e60ea861875c4903da8f", "rental_uris": {"android": "https://dc.lft.to/lastmile_qr_scan", "ios": "https://dc.lft.to/lastmile_qr_scan"}, "name": "2c586d78aa07e60ea861875c4903da8f", "is_reserved": 0}, {"is_disabled": 0, "fusion_lon": 0.0, "fusion_lat": 0.0, "lat": 38.9644785, "type": "electric_bike", "lon": -76.97722533333334, "bike_id": "310a4689470c2f4641edd165bc129150", "rental_uris": {"android": "https://dc.lft.to/lastmile_qr_scan", "ios": "https://dc.lft.to/lastmile_qr_scan"}, "name": "310a4689470c2f4641edd165bc129150", "is_reserved": 0}, {"is_disabled": 0, "fusion_lon": 0.0, "fusion_lat": 0.0, "lat": 38.90765916666667, "type": "electric_scooter", "lon": -77.00134283333334, "bike_id": "eb8918e2d6de34a53c3f89ec53fdfc54", "rental_uris": {"android": "https://dc.lft.to/lastmile_qr_scan", "ios": "https://dc.lft.to/lastmile_qr_scan"}, "name": "eb8918e2d6de34a53c3f89ec53fdfc54", "is_reserved": 0}, {"is_disabled": 0, "fusion_lon": 0.0, "fusion_lat": 0.0, "lat": 38.88686783333333, "type": "electric_scooter", "lon": -76.98801883333333, "bike_id": "f9074d109af451d16a43e94167d94654", "rental_uris": {"android": "https://dc.lft.to/lastmile_qr_scan", "ios": "https://dc.lft.to/lastmile_qr_scan"}, "name": "f9074d109af451d16a43e94167d94654", "is_reserved": 0}, {"is_disabled": 0, "fusion_lon": 0.0, "fusion_lat": 0.0, "lat": 38.919100666666665, "type": "electric_scooter", "lon": -77.0239595, "bike_id": "54ea3ea39e48ad027fbb02019af02f9f", "rental_uris": {"android": "https://dc.lft.to/lastmile_qr_scan", "ios": "https://dc.lft.to/lastmile_qr_scan"}, "name": "54ea3ea39e48ad027fbb02019af02f9f", "is_reserved": 0}, {"is_disabled": 0, "fusion_lon": 0.0, "fusion_lat": 0.0, "lat": 38.856464333333335, "type": "electric_bike", "lon": -77.085301, "bike_id": "306c6c02462a4c14a7f9f81f7200d04a", "rental_uris": {"android": "https://dc.lft.to/lastmile_qr_scan", "ios": "https://dc.lft.to/lastmile_qr_scan"}, "name": "306c6c02462a4c14a7f9f81f7200d04a", "is_reserved": 0}, {"is_disabled": 0, "fusion_lon": 0.0, "fusion_lat": 0.0, "lat": 38.849335333333336, "type": "electric_bike", "lon": -77.1001005, "bike_id": "cc5b866cd1a7c406483459f54c1173a2", "rental_uris": {"android": "https://dc.lft.to/lastmile_qr_scan", "ios": "https://dc.lft.to/lastmile_qr_scan"}, "name": "cc5b866cd1a7c406483459f54c1173a2", "is_reserved": 0}, {"is_disabled": 0, "fusion_lon": 0.0, "fusion_lat": 0.0, "lat": 38.91695883333333, "type": "electric_scooter", "lon": -77.01173783333333, "bike_id": "1fac13422fc7dc3c838368acc644773c", "rental_uris": {"android": "https://dc.lft.to/lastmile_qr_scan", "ios": "https://dc.lft.to/lastmile_qr_scan"}, "name": "1fac13422fc7dc3c838368acc644773c", "is_reserved": 0}, {"is_disabled": 0, "fusion_lon": 0.0, "fusion_lat": 0.0, "lat": 38.936984833333334, "type": "electric_scooter", "lon": -77.05598916666666, "bike_id": "ec0af038cd05f0e66bb1398600515c7e", "rental_uris": {"android": "https://dc.lft.to/lastmile_qr_scan", "ios": "https://dc.lft.to/lastmile_qr_scan"}, "name": "ec0af038cd05f0e66bb1398600515c7e", "is_reserved": 0}, {"is_disabled": 0, "fusion_lon": 0.0, "fusion_lat": 0.0, "lat": 38.90370133333333, "type": "electric_scooter", "lon": -77.05376133333333, "bike_id": "c20f2f13fe7d0f1947f974d79215a0c3", "rental_uris": {"android": "https://dc.lft.to/lastmile_qr_scan", "ios": "https://dc.lft.to/lastmile_qr_scan"}, "name": "c20f2f13fe7d0f1947f974d79215a0c3", "is_reserved": 0}, {"is_disabled": 0, "fusion_lon": 0.0, "fusion_lat": 0.0, "lat": 38.885977833333335, "type": "electric_scooter", "lon": -77.005948, "bike_id": "cdd0b001e3493829572f10b6fa7f5654", "rental_uris": {"android": "https://dc.lft.to/lastmile_qr_scan", "ios": "https://dc.lft.to/lastmile_qr_scan"}, "name": "cdd0b001e3493829572f10b6fa7f5654", "is_reserved": 0}, {"is_disabled": 0, "fusion_lon": 0.0, "fusion_lat": 0.0, "lat": 38.913115, "type": "electric_scooter", "lon": -77.01435133333334, "bike_id": "b78b7c097bba31bce77b8c8aa66154a8", "rental_uris": {"android": "https://dc.lft.to/lastmile_qr_scan", "ios": "https://dc.lft.to/lastmile_qr_scan"}, "name": "b78b7c097bba31bce77b8c8aa66154a8", "is_reserved": 0}, {"is_disabled": 0, "fusion_lon": 0.0, "fusion_lat": 0.0, "lat": 38.87054066666666, "type": "electric_scooter", "lon": -76.98084083333333, "bike_id": "3df55283f99dff9869559e5527b3b976", "rental_uris": {"android": "https://dc.lft.to/lastmile_qr_scan", "ios": "https://dc.lft.to/lastmile_qr_scan"}, "name": "3df55283f99dff9869559e5527b3b976", "is_reserved": 0}, {"is_disabled": 0, "fusion_lon": 0.0, "fusion_lat": 0.0, "lat": 38.95638683333333, "type": "electric_scooter", "lon": -77.09097483333333, "bike_id": "8911e41abf0f3262467ee34cd460683b", "rental_uris": {"android": "https://dc.lft.to/lastmile_qr_scan", "ios": "https://dc.lft.to/lastmile_qr_scan"}, "name": "8911e41abf0f3262467ee34cd460683b", "is_reserved": 0}, {"is_disabled": 0, "fusion_lon": 0.0, "fusion_lat": 0.0, "lat": 38.918070666666665, "type": "electric_scooter", "lon": -77.04030133333333, "bike_id": "690ed0a5722efdd3f6657e700ae267fb", "rental_uris": {"android": "https://dc.lft.to/lastmile_qr_scan", "ios": "https://dc.lft.to/lastmile_qr_scan"}, "name": "690ed0a5722efdd3f6657e700ae267fb", "is_reserved": 0}, {"is_disabled": 0, "fusion_lon": 0.0, "fusion_lat": 0.0, "lat": 38.925822833333335, "type": "electric_scooter", "lon": -77.03211166666667, "bike_id": "1cf4646b436926193e421f8f0c80e58e", "rental_uris": {"android": "https://dc.lft.to/lastmile_qr_scan", "ios": "https://dc.lft.to/lastmile_qr_scan"}, "name": "1cf4646b436926193e421f8f0c80e58e", "is_reserved": 0}, {"is_disabled": 0, "fusion_lon": 0.0, "fusion_lat": 0.0, "lat": 38.89414266666667, "type": "electric_scooter", "lon": -77.01084816666666, "bike_id": "144286eb5f4fe20c4e5444801cb3ac08", "rental_uris": {"android": "https://dc.lft.to/lastmile_qr_scan", "ios": "https://dc.lft.to/lastmile_qr_scan"}, "name": "144286eb5f4fe20c4e5444801cb3ac08", "is_reserved": 0}, {"is_disabled": 0, "fusion_lon": 0.0, "fusion_lat": 0.0, "lat": 38.92076333333333, "type": "electric_scooter", "lon": -77.043798, "bike_id": "c5750f6cf39994c8320322d380ca45e3", "rental_uris": {"android": "https://dc.lft.to/lastmile_qr_scan", "ios": "https://dc.lft.to/lastmile_qr_scan"}, "name": "c5750f6cf39994c8320322d380ca45e3", "is_reserved": 0}, {"is_disabled": 0, "fusion_lon": 0.0, "fusion_lat": 0.0, "lat": 38.919359166666666, "type": "electric_bike", "lon": -76.97506683333333, "bike_id": "153eb3bd972e462d7401c20231fd3188", "rental_uris": {"android": "https://dc.lft.to/lastmile_qr_scan", "ios": "https://dc.lft.to/lastmile_qr_scan"}, "name": "153eb3bd972e462d7401c20231fd3188", "is_reserved": 0}, {"is_disabled": 0, "fusion_lon": 0.0, "fusion_lat": 0.0, "lat": 38.92334666666667, "type": "electric_scooter", "lon": -77.04189383333333, "bike_id": "3c0a51e3c26934d34937dd03121090fe", "rental_uris": {"android": "https://dc.lft.to/lastmile_qr_scan", "ios": "https://dc.lft.to/lastmile_qr_scan"}, "name": "3c0a51e3c26934d34937dd03121090fe", "is_reserved": 0}, {"is_disabled": 0, "fusion_lon": 0.0, "fusion_lat": 0.0, "lat": 38.869569, "type": "electric_scooter", "lon": -76.96032516666666, "bike_id": "bc575d1c9b45237de3427b89616cbf91", "rental_uris": {"android": "https://dc.lft.to/lastmile_qr_scan", "ios": "https://dc.lft.to/lastmile_qr_scan"}, "name": "bc575d1c9b45237de3427b89616cbf91", "is_reserved": 0}, {"is_disabled": 0, "fusion_lon": 0.0, "fusion_lat": 0.0, "lat": 38.900044333333334, "type": "electric_scooter", "lon": -77.033339, "bike_id": "932c35112a774c7ee99cd586e4c029ee", "rental_uris": {"android": "https://dc.lft.to/lastmile_qr_scan", "ios": "https://dc.lft.to/lastmile_qr_scan"}, "name": "932c35112a774c7ee99cd586e4c029ee", "is_reserved": 0}, {"is_disabled": 0, "fusion_lon": 0.0, "fusion_lat": 0.0, "lat": 38.90964983333333, "type": "electric_scooter", "lon": -77.02380866666667, "bike_id": "ece5e150f0b58e8228e3ec29e43582a6", "rental_uris": {"android": "https://dc.lft.to/lastmile_qr_scan", "ios": "https://dc.lft.to/lastmile_qr_scan"}, "name": "ece5e150f0b58e8228e3ec29e43582a6", "is_reserved": 0}, {"is_disabled": 0, "fusion_lon": 0.0, "fusion_lat": 0.0, "lat": 38.9053265, "type": "electric_scooter", "lon": -77.0652805, "bike_id": "84c5137c33e7e9823b4fca08493e6f65", "rental_uris": {"android": "https://dc.lft.to/lastmile_qr_scan", "ios": "https://dc.lft.to/lastmile_qr_scan"}, "name": "84c5137c33e7e9823b4fca08493e6f65", "is_reserved": 0}, {"is_disabled": 0, "fusion_lon": 0.0, "fusion_lat": 0.0, "lat": 38.91895983333333, "type": "electric_scooter", "lon": -77.0711745, "bike_id": "a6f026a00738a272b6068eadfc74633d", "rental_uris": {"android": "https://dc.lft.to/lastmile_qr_scan", "ios": "https://dc.lft.to/lastmile_qr_scan"}, "name": "a6f026a00738a272b6068eadfc74633d", "is_reserved": 0}, {"is_disabled": 0, "fusion_lon": 0.0, "fusion_lat": 0.0, "lat": 38.81024683333333, "type": "electric_bike", "lon": -77.08438366666667, "bike_id": "fe15eda980c24ac47212de92f0949e17", "rental_uris": {"android": "https://dc.lft.to/lastmile_qr_scan", "ios": "https://dc.lft.to/lastmile_qr_scan"}, "name": "fe15eda980c24ac47212de92f0949e17", "is_reserved": 0}, {"is_disabled": 0, "fusion_lon": 0.0, "fusion_lat": 0.0, "lat": 38.943038, "type": "electric_scooter", "lon": -77.02762733333333, "bike_id": "4f41a087d8bec1cc1ea726bb13fda3a1", "rental_uris": {"android": "https://dc.lft.to/lastmile_qr_scan", "ios": "https://dc.lft.to/lastmile_qr_scan"}, "name": "4f41a087d8bec1cc1ea726bb13fda3a1", "is_reserved": 0}, {"is_disabled": 0, "fusion_lon": 0.0, "fusion_lat": 0.0, "lat": 38.9242945, "type": "electric_scooter", "lon": -77.05606166666666, "bike_id": "4dcdfde6a83a77a25e3608846225492d", "rental_uris": {"android": "https://dc.lft.to/lastmile_qr_scan", "ios": "https://dc.lft.to/lastmile_qr_scan"}, "name": "4dcdfde6a83a77a25e3608846225492d", "is_reserved": 0}, {"is_disabled": 0, "fusion_lon": 0.0, "fusion_lat": 0.0, "lat": 38.9184835, "type": "electric_scooter", "lon": -77.02959, "bike_id": "2a999bc666130e22fd26d297b46fed52", "rental_uris": {"android": "https://dc.lft.to/lastmile_qr_scan", "ios": "https://dc.lft.to/lastmile_qr_scan"}, "name": "2a999bc666130e22fd26d297b46fed52", "is_reserved": 0}, {"is_disabled": 0, "fusion_lon": 0.0, "fusion_lat": 0.0, "lat": 38.914751333333335, "type": "electric_scooter", "lon": -77.0439305, "bike_id": "33bc0aa3c81be60a754cdd979bdd67de", "rental_uris": {"android": "https://dc.lft.to/lastmile_qr_scan", "ios": "https://dc.lft.to/lastmile_qr_scan"}, "name": "33bc0aa3c81be60a754cdd979bdd67de", "is_reserved": 0}, {"is_disabled": 0, "fusion_lon": 0.0, "fusion_lat": 0.0, "lat": 38.969252833333336, "type": "electric_bike", "lon": -77.0263015, "bike_id": "7082314cd26376305e386b289e437ea2", "rental_uris": {"android": "https://dc.lft.to/lastmile_qr_scan", "ios": "https://dc.lft.to/lastmile_qr_scan"}, "name": "7082314cd26376305e386b289e437ea2", "is_reserved": 0}, {"is_disabled": 0, "fusion_lon": 0.0, "fusion_lat": 0.0, "lat": 38.986610166666665, "type": "electric_scooter", "lon": -77.026461, "bike_id": "d6fe310925a665b0c5711d45721244d0", "rental_uris": {"android": "https://dc.lft.to/lastmile_qr_scan", "ios": "https://dc.lft.to/lastmile_qr_scan"}, "name": "d6fe310925a665b0c5711d45721244d0", "is_reserved": 0}, {"is_disabled": 0, "fusion_lon": 0.0, "fusion_lat": 0.0, "lat": 38.8887875, "type": "electric_scooter", "lon": -77.028605, "bike_id": "09da42c572433f8e1bbb72878df9e6f3", "rental_uris": {"android": "https://dc.lft.to/lastmile_qr_scan", "ios": "https://dc.lft.to/lastmile_qr_scan"}, "name": "09da42c572433f8e1bbb72878df9e6f3", "is_reserved": 0}, {"is_disabled": 0, "fusion_lon": 0.0, "fusion_lat": 0.0, "lat": 38.89916516666667, "type": "electric_scooter", "lon": -77.003618, "bike_id": "ef98a101dc0c0f75564072c76d87583f", "rental_uris": {"android": "https://dc.lft.to/lastmile_qr_scan", "ios": "https://dc.lft.to/lastmile_qr_scan"}, "name": "ef98a101dc0c0f75564072c76d87583f", "is_reserved": 0}, {"is_disabled": 0, "fusion_lon": 0.0, "fusion_lat": 0.0, "lat": 38.91649816666666, "type": "electric_scooter", "lon": -77.03448783333333, "bike_id": "0e93256d8b8b61517cec3e639f1366ca", "rental_uris": {"android": "https://dc.lft.to/lastmile_qr_scan", "ios": "https://dc.lft.to/lastmile_qr_scan"}, "name": "0e93256d8b8b61517cec3e639f1366ca", "is_reserved": 0}, {"is_disabled": 0, "fusion_lon": 0.0, "fusion_lat": 0.0, "lat": 38.83606666666667, "type": "electric_bike", "lon": -77.003832, "bike_id": "2c86ed7e4728251b7797d790ae499aaf", "rental_uris": {"android": "https://dc.lft.to/lastmile_qr_scan", "ios": "https://dc.lft.to/lastmile_qr_scan"}, "name": "2c86ed7e4728251b7797d790ae499aaf", "is_reserved": 0}, {"is_disabled": 0, "fusion_lon": 0.0, "fusion_lat": 0.0, "lat": 38.90552783333333, "type": "electric_scooter", "lon": -77.02004083333334, "bike_id": "66d1fab1bfbf38b248f6f7a431a69da4", "rental_uris": {"android": "https://dc.lft.to/lastmile_qr_scan", "ios": "https://dc.lft.to/lastmile_qr_scan"}, "name": "66d1fab1bfbf38b248f6f7a431a69da4", "is_reserved": 0}, {"is_disabled": 0, "fusion_lon": 0.0, "fusion_lat": 0.0, "lat": 38.9128445, "type": "electric_scooter", "lon": -76.9869105, "bike_id": "c78f8b9a794d45a574bcd4469fd5cc56", "rental_uris": {"android": "https://dc.lft.to/lastmile_qr_scan", "ios": "https://dc.lft.to/lastmile_qr_scan"}, "name": "c78f8b9a794d45a574bcd4469fd5cc56", "is_reserved": 0}, {"is_disabled": 0, "fusion_lon": 0.0, "fusion_lat": 0.0, "lat": 38.90541783333333, "type": "electric_scooter", "lon": -77.056949, "bike_id": "f3634380fc599dedcb7a3731d92b7043", "rental_uris": {"android": "https://dc.lft.to/lastmile_qr_scan", "ios": "https://dc.lft.to/lastmile_qr_scan"}, "name": "f3634380fc599dedcb7a3731d92b7043", "is_reserved": 0}, {"is_disabled": 0, "fusion_lon": 0.0, "fusion_lat": 0.0, "lat": 38.899092833333334, "type": "electric_scooter", "lon": -76.93391316666667, "bike_id": "707734901d543b011b5dc93c36dbd80f", "rental_uris": {"android": "https://dc.lft.to/lastmile_qr_scan", "ios": "https://dc.lft.to/lastmile_qr_scan"}, "name": "707734901d543b011b5dc93c36dbd80f", "is_reserved": 0}, {"is_disabled": 0, "fusion_lon": 0.0, "fusion_lat": 0.0, "lat": 38.91180683333333, "type": "electric_scooter", "lon": -77.03923283333333, "bike_id": "c03d4342cb10d9497a67a40dce98dd43", "rental_uris": {"android": "https://dc.lft.to/lastmile_qr_scan", "ios": "https://dc.lft.to/lastmile_qr_scan"}, "name": "c03d4342cb10d9497a67a40dce98dd43", "is_reserved": 0}, {"is_disabled": 0, "fusion_lon": 0.0, "fusion_lat": 0.0, "lat": 38.89215166666666, "type": "electric_scooter", "lon": -76.987996, "bike_id": "d710aa3f75015dd14579ec3d85b3fe82", "rental_uris": {"android": "https://dc.lft.to/lastmile_qr_scan", "ios": "https://dc.lft.to/lastmile_qr_scan"}, "name": "d710aa3f75015dd14579ec3d85b3fe82", "is_reserved": 0}, {"is_disabled": 0, "fusion_lon": 0.0, "fusion_lat": 0.0, "lat": 38.8982245, "type": "electric_scooter", "lon": -77.03158283333333, "bike_id": "fd607cfd2b937228e49c8a5d002a479a", "rental_uris": {"android": "https://dc.lft.to/lastmile_qr_scan", "ios": "https://dc.lft.to/lastmile_qr_scan"}, "name": "fd607cfd2b937228e49c8a5d002a479a", "is_reserved": 0}, {"is_disabled": 0, "fusion_lon": 0.0, "fusion_lat": 0.0, "lat": 38.8782455, "type": "electric_scooter", "lon": -76.9631785, "bike_id": "f24fd35bec445164c77eaa0349ab6973", "rental_uris": {"android": "https://dc.lft.to/lastmile_qr_scan", "ios": "https://dc.lft.to/lastmile_qr_scan"}, "name": "f24fd35bec445164c77eaa0349ab6973", "is_reserved": 0}, {"is_disabled": 0, "fusion_lon": 0.0, "fusion_lat": 0.0, "lat": 38.876681166666664, "type": "electric_scooter", "lon": -76.93188616666667, "bike_id": "01f749399d043350fbe54c30c706aad6", "rental_uris": {"android": "https://dc.lft.to/lastmile_qr_scan", "ios": "https://dc.lft.to/lastmile_qr_scan"}, "name": "01f749399d043350fbe54c30c706aad6", "is_reserved": 0}, {"is_disabled": 0, "fusion_lon": 0.0, "fusion_lat": 0.0, "lat": 38.950031833333334, "type": "electric_bike", "lon": -77.353161, "bike_id": "a76b1d373fb3c3c1914d5bc164448c8e", "rental_uris": {"android": "https://dc.lft.to/lastmile_qr_scan", "ios": "https://dc.lft.to/lastmile_qr_scan"}, "name": "a76b1d373fb3c3c1914d5bc164448c8e", "is_reserved": 0}, {"is_disabled": 0, "fusion_lon": 0.0, "fusion_lat": 0.0, "lat": 38.9126375, "type": "electric_scooter", "lon": -77.03367833333333, "bike_id": "dbbaed439e9a435d9058bad29511decd", "rental_uris": {"android": "https://dc.lft.to/lastmile_qr_scan", "ios": "https://dc.lft.to/lastmile_qr_scan"}, "name": "dbbaed439e9a435d9058bad29511decd", "is_reserved": 0}, {"is_disabled": 0, "fusion_lon": 0.0, "fusion_lat": 0.0, "lat": 38.949766333333336, "type": "electric_scooter", "lon": -77.09440683333334, "bike_id": "c134fb911bed6e9f28d2fbf9191befab", "rental_uris": {"android": "https://dc.lft.to/lastmile_qr_scan", "ios": "https://dc.lft.to/lastmile_qr_scan"}, "name": "c134fb911bed6e9f28d2fbf9191befab", "is_reserved": 0}, {"is_disabled": 0, "fusion_lon": 0.0, "fusion_lat": 0.0, "lat": 38.89367766666667, "type": "electric_scooter", "lon": -77.022666, "bike_id": "d1a3197a5907dac995bb308d387db32e", "rental_uris": {"android": "https://dc.lft.to/lastmile_qr_scan", "ios": "https://dc.lft.to/lastmile_qr_scan"}, "name": "d1a3197a5907dac995bb308d387db32e", "is_reserved": 0}, {"is_disabled": 0, "fusion_lon": 0.0, "fusion_lat": 0.0, "lat": 38.845940166666665, "type": "electric_bike", "lon": -76.96893083333333, "bike_id": "0b2acc29f5ee4089a98d7548e6346f99", "rental_uris": {"android": "https://dc.lft.to/lastmile_qr_scan", "ios": "https://dc.lft.to/lastmile_qr_scan"}, "name": "0b2acc29f5ee4089a98d7548e6346f99", "is_reserved": 0}, {"is_disabled": 0, "fusion_lon": 0.0, "fusion_lat": 0.0, "lat": 38.9170535, "type": "electric_scooter", "lon": -77.03486833333334, "bike_id": "a67f47ebca80d787424e95f0fca3796a", "rental_uris": {"android": "https://dc.lft.to/lastmile_qr_scan", "ios": "https://dc.lft.to/lastmile_qr_scan"}, "name": "a67f47ebca80d787424e95f0fca3796a", "is_reserved": 0}, {"is_disabled": 0, "fusion_lon": 0.0, "fusion_lat": 0.0, "lat": 38.9196255, "type": "electric_scooter", "lon": -77.02407616666666, "bike_id": "5897f395d0b4f96b0e3eb98c656b6158", "rental_uris": {"android": "https://dc.lft.to/lastmile_qr_scan", "ios": "https://dc.lft.to/lastmile_qr_scan"}, "name": "5897f395d0b4f96b0e3eb98c656b6158", "is_reserved": 0}, {"is_disabled": 0, "fusion_lon": 0.0, "fusion_lat": 0.0, "lat": 38.92481216666667, "type": "electric_scooter", "lon": -77.0271315, "bike_id": "3a5fabac37bc2a605e54e65189e10140", "rental_uris": {"android": "https://dc.lft.to/lastmile_qr_scan", "ios": "https://dc.lft.to/lastmile_qr_scan"}, "name": "3a5fabac37bc2a605e54e65189e10140", "is_reserved": 0}, {"is_disabled": 0, "fusion_lon": 0.0, "fusion_lat": 0.0, "lat": 38.967615, "type": "electric_bike", "lon": -77.09167966666666, "bike_id": "ff9fc402e9b6b9929f26c14779f26a27", "rental_uris": {"android": "https://dc.lft.to/lastmile_qr_scan", "ios": "https://dc.lft.to/lastmile_qr_scan"}, "name": "ff9fc402e9b6b9929f26c14779f26a27", "is_reserved": 0}, {"is_disabled": 0, "fusion_lon": 0.0, "fusion_lat": 0.0, "lat": 38.91581383333333, "type": "electric_scooter", "lon": -76.98111616666667, "bike_id": "a6197069664e4699295f2395f1d4b1ef", "rental_uris": {"android": "https://dc.lft.to/lastmile_qr_scan", "ios": "https://dc.lft.to/lastmile_qr_scan"}, "name": "a6197069664e4699295f2395f1d4b1ef", "is_reserved": 0}, {"is_disabled": 0, "fusion_lon": 0.0, "fusion_lat": 0.0, "lat": 38.8419945, "type": "electric_bike", "lon": -77.10682433333334, "bike_id": "b6a713b636de4b0dcdb3e1e77b846205", "rental_uris": {"android": "https://dc.lft.to/lastmile_qr_scan", "ios": "https://dc.lft.to/lastmile_qr_scan"}, "name": "b6a713b636de4b0dcdb3e1e77b846205", "is_reserved": 0}, {"is_disabled": 0, "fusion_lon": 0.0, "fusion_lat": 0.0, "lat": 38.85805833333333, "type": "electric_scooter", "lon": -76.9865405, "bike_id": "390caa20f3fcc6fb1a5bc33ccfc6ff30", "rental_uris": {"android": "https://dc.lft.to/lastmile_qr_scan", "ios": "https://dc.lft.to/lastmile_qr_scan"}, "name": "390caa20f3fcc6fb1a5bc33ccfc6ff30", "is_reserved": 0}, {"is_disabled": 0, "fusion_lon": 0.0, "fusion_lat": 0.0, "lat": 38.92850833333333, "type": "electric_scooter", "lon": -77.01410216666666, "bike_id": "005e94819a8a8b7b06ba7618f71d7c93", "rental_uris": {"android": "https://dc.lft.to/lastmile_qr_scan", "ios": "https://dc.lft.to/lastmile_qr_scan"}, "name": "005e94819a8a8b7b06ba7618f71d7c93", "is_reserved": 0}, {"is_disabled": 0, "fusion_lon": 0.0, "fusion_lat": 0.0, "lat": 38.99888716666667, "type": "electric_bike", "lon": -77.02875983333334, "bike_id": "f5e194d9639fe5619051fdce0c57afe3", "rental_uris": {"android": "https://dc.lft.to/lastmile_qr_scan", "ios": "https://dc.lft.to/lastmile_qr_scan"}, "name": "f5e194d9639fe5619051fdce0c57afe3", "is_reserved": 0}, {"is_disabled": 0, "fusion_lon": 0.0, "fusion_lat": 0.0, "lat": 38.86330566666667, "type": "electric_scooter", "lon": -76.9904945, "bike_id": "a700f6ae7289d84c0270f19476068603", "rental_uris": {"android": "https://dc.lft.to/lastmile_qr_scan", "ios": "https://dc.lft.to/lastmile_qr_scan"}, "name": "a700f6ae7289d84c0270f19476068603", "is_reserved": 0}, {"is_disabled": 0, "fusion_lon": 0.0, "fusion_lat": 0.0, "lat": 38.924797833333336, "type": "electric_scooter", "lon": -77.03480083333334, "bike_id": "8438aa67eec54964c41dfdaad20ea494", "rental_uris": {"android": "https://dc.lft.to/lastmile_qr_scan", "ios": "https://dc.lft.to/lastmile_qr_scan"}, "name": "8438aa67eec54964c41dfdaad20ea494", "is_reserved": 0}, {"is_disabled": 0, "fusion_lon": 0.0, "fusion_lat": 0.0, "lat": 38.86732716666667, "type": "electric_scooter", "lon": -76.988494, "bike_id": "1cd8ae51df0b2bcbd5b17e66fbdef661", "rental_uris": {"android": "https://dc.lft.to/lastmile_qr_scan", "ios": "https://dc.lft.to/lastmile_qr_scan"}, "name": "1cd8ae51df0b2bcbd5b17e66fbdef661", "is_reserved": 0}, {"is_disabled": 0, "fusion_lon": 0.0, "fusion_lat": 0.0, "lat": 38.94979166666667, "type": "electric_scooter", "lon": -77.02707866666667, "bike_id": "1ab39e0e9ab7377440d7d18c18d2934f", "rental_uris": {"android": "https://dc.lft.to/lastmile_qr_scan", "ios": "https://dc.lft.to/lastmile_qr_scan"}, "name": "1ab39e0e9ab7377440d7d18c18d2934f", "is_reserved": 0}, {"is_disabled": 0, "fusion_lon": 0.0, "fusion_lat": 0.0, "lat": 38.92657033333333, "type": "electric_scooter", "lon": -77.02304883333333, "bike_id": "759a6a41998c53df2318e8f61d02aaa1", "rental_uris": {"android": "https://dc.lft.to/lastmile_qr_scan", "ios": "https://dc.lft.to/lastmile_qr_scan"}, "name": "759a6a41998c53df2318e8f61d02aaa1", "is_reserved": 0}, {"is_disabled": 0, "fusion_lon": 0.0, "fusion_lat": 0.0, "lat": 38.831529, "type": "electric_bike", "lon": -76.99694616666666, "bike_id": "07ed57f1245b170bb1a257ee77a9a066", "rental_uris": {"android": "https://dc.lft.to/lastmile_qr_scan", "ios": "https://dc.lft.to/lastmile_qr_scan"}, "name": "07ed57f1245b170bb1a257ee77a9a066", "is_reserved": 0}, {"is_disabled": 0, "fusion_lon": 0.0, "fusion_lat": 0.0, "lat": 38.94245016666667, "type": "electric_scooter", "lon": -77.0217275, "bike_id": "89663c74ab2e1ba14d0bbf8576669ffb", "rental_uris": {"android": "https://dc.lft.to/lastmile_qr_scan", "ios": "https://dc.lft.to/lastmile_qr_scan"}, "name": "89663c74ab2e1ba14d0bbf8576669ffb", "is_reserved": 0}, {"is_disabled": 0, "fusion_lon": 0.0, "fusion_lat": 0.0, "lat": 38.98813216666667, "type": "electric_bike", "lon": -77.026575, "bike_id": "1e53d945c12ec85698a927a218a9479d", "rental_uris": {"android": "https://dc.lft.to/lastmile_qr_scan", "ios": "https://dc.lft.to/lastmile_qr_scan"}, "name": "1e53d945c12ec85698a927a218a9479d", "is_reserved": 0}, {"is_disabled": 0, "fusion_lon": 0.0, "fusion_lat": 0.0, "lat": 38.89791733333333, "type": "electric_scooter", "lon": -76.93057866666666, "bike_id": "ecced70ab8fa15ec048a0b6de823c169", "rental_uris": {"android": "https://dc.lft.to/lastmile_qr_scan", "ios": "https://dc.lft.to/lastmile_qr_scan"}, "name": "ecced70ab8fa15ec048a0b6de823c169", "is_reserved": 0}, {"is_disabled": 0, "fusion_lon": 0.0, "fusion_lat": 0.0, "lat": 38.930306, "type": "electric_scooter", "lon": -77.03453716666667, "bike_id": "f6eec3b814c043394dcb405f389b309f", "rental_uris": {"android": "https://dc.lft.to/lastmile_qr_scan", "ios": "https://dc.lft.to/lastmile_qr_scan"}, "name": "f6eec3b814c043394dcb405f389b309f", "is_reserved": 0}, {"is_disabled": 0, "fusion_lon": 0.0, "fusion_lat": 0.0, "lat": 38.918100333333335, "type": "electric_scooter", "lon": -77.03643933333333, "bike_id": "d0bedacf97817b409d64d095112f19b8", "rental_uris": {"android": "https://dc.lft.to/lastmile_qr_scan", "ios": "https://dc.lft.to/lastmile_qr_scan"}, "name": "d0bedacf97817b409d64d095112f19b8", "is_reserved": 0}, {"is_disabled": 0, "fusion_lon": 0.0, "fusion_lat": 0.0, "lat": 38.93960783333333, "type": "electric_scooter", "lon": -77.0328495, "bike_id": "74dbe33b332d7e597b87090fc1908491", "rental_uris": {"android": "https://dc.lft.to/lastmile_qr_scan", "ios": "https://dc.lft.to/lastmile_qr_scan"}, "name": "74dbe33b332d7e597b87090fc1908491", "is_reserved": 0}, {"is_disabled": 0, "fusion_lon": 0.0, "fusion_lat": 0.0, "lat": 38.9053385, "type": "electric_scooter", "lon": -77.05642033333334, "bike_id": "7e0ae195a9ae8aa761eef57dfe3e5aa6", "rental_uris": {"android": "https://dc.lft.to/lastmile_qr_scan", "ios": "https://dc.lft.to/lastmile_qr_scan"}, "name": "7e0ae195a9ae8aa761eef57dfe3e5aa6", "is_reserved": 0}, {"is_disabled": 0, "fusion_lon": 0.0, "fusion_lat": 0.0, "lat": 38.923682, "type": "electric_scooter", "lon": -77.05032233333333, "bike_id": "b3efb04f81a18d41281a998b17f6274d", "rental_uris": {"android": "https://dc.lft.to/lastmile_qr_scan", "ios": "https://dc.lft.to/lastmile_qr_scan"}, "name": "b3efb04f81a18d41281a998b17f6274d", "is_reserved": 0}, {"is_disabled": 0, "fusion_lon": 0.0, "fusion_lat": 0.0, "lat": 38.91261516666667, "type": "electric_scooter", "lon": -77.0256455, "bike_id": "ab8e9a52c07ae43824ba662b01a20b97", "rental_uris": {"android": "https://dc.lft.to/lastmile_qr_scan", "ios": "https://dc.lft.to/lastmile_qr_scan"}, "name": "ab8e9a52c07ae43824ba662b01a20b97", "is_reserved": 0}, {"is_disabled": 0, "fusion_lon": 0.0, "fusion_lat": 0.0, "lat": 38.904768, "type": "electric_bike", "lon": -76.95054216666666, "bike_id": "55a3ab6f6fa6b4d27c4db0a15b71fa4e", "rental_uris": {"android": "https://dc.lft.to/lastmile_qr_scan", "ios": "https://dc.lft.to/lastmile_qr_scan"}, "name": "55a3ab6f6fa6b4d27c4db0a15b71fa4e", "is_reserved": 0}, {"is_disabled": 0, "fusion_lon": 0.0, "fusion_lat": 0.0, "lat": 38.923714333333336, "type": "electric_scooter", "lon": -77.03024316666666, "bike_id": "72b3303687bf1ccdfa04416fd33dad5f", "rental_uris": {"android": "https://dc.lft.to/lastmile_qr_scan", "ios": "https://dc.lft.to/lastmile_qr_scan"}, "name": "72b3303687bf1ccdfa04416fd33dad5f", "is_reserved": 0}, {"is_disabled": 0, "fusion_lon": 0.0, "fusion_lat": 0.0, "lat": 38.9626155, "type": "electric_scooter", "lon": -77.0289735, "bike_id": "81dc0dd9e83753b53b3b71b490b3b88d", "rental_uris": {"android": "https://dc.lft.to/lastmile_qr_scan", "ios": "https://dc.lft.to/lastmile_qr_scan"}, "name": "81dc0dd9e83753b53b3b71b490b3b88d", "is_reserved": 0}, {"is_disabled": 0, "fusion_lon": 0.0, "fusion_lat": 0.0, "lat": 38.898327, "type": "electric_scooter", "lon": -76.946346, "bike_id": "7165e1ad8f7aed576025d4fe1245a6e3", "rental_uris": {"android": "https://dc.lft.to/lastmile_qr_scan", "ios": "https://dc.lft.to/lastmile_qr_scan"}, "name": "7165e1ad8f7aed576025d4fe1245a6e3", "is_reserved": 0}, {"is_disabled": 0, "fusion_lon": 0.0, "fusion_lat": 0.0, "lat": 38.885328, "type": "electric_scooter", "lon": -76.92702816666667, "bike_id": "45a4ee4037d147dfa553d33fb65f02eb", "rental_uris": {"android": "https://dc.lft.to/lastmile_qr_scan", "ios": "https://dc.lft.to/lastmile_qr_scan"}, "name": "45a4ee4037d147dfa553d33fb65f02eb", "is_reserved": 0}, {"is_disabled": 0, "fusion_lon": 0.0, "fusion_lat": 0.0, "lat": 38.82781083333333, "type": "electric_bike", "lon": -77.11077416666667, "bike_id": "5255adf88eaa395ad71477f12b42d953", "rental_uris": {"android": "https://dc.lft.to/lastmile_qr_scan", "ios": "https://dc.lft.to/lastmile_qr_scan"}, "name": "5255adf88eaa395ad71477f12b42d953", "is_reserved": 0}, {"is_disabled": 0, "fusion_lon": 0.0, "fusion_lat": 0.0, "lat": 38.907885, "type": "electric_scooter", "lon": -77.03050733333333, "bike_id": "b7e7960506e75269d136afe6c85971d0", "rental_uris": {"android": "https://dc.lft.to/lastmile_qr_scan", "ios": "https://dc.lft.to/lastmile_qr_scan"}, "name": "b7e7960506e75269d136afe6c85971d0", "is_reserved": 0}, {"is_disabled": 0, "fusion_lon": 0.0, "fusion_lat": 0.0, "lat": 38.915625166666665, "type": "electric_scooter", "lon": -77.03873033333333, "bike_id": "59d141fe58a2ac0778a1ab662d9c650a", "rental_uris": {"android": "https://dc.lft.to/lastmile_qr_scan", "ios": "https://dc.lft.to/lastmile_qr_scan"}, "name": "59d141fe58a2ac0778a1ab662d9c650a", "is_reserved": 0}, {"is_disabled": 0, "fusion_lon": 0.0, "fusion_lat": 0.0, "lat": 38.897366, "type": "electric_scooter", "lon": -77.04788566666667, "bike_id": "15f628a9ba63e37260fa5fcb9c30af11", "rental_uris": {"android": "https://dc.lft.to/lastmile_qr_scan", "ios": "https://dc.lft.to/lastmile_qr_scan"}, "name": "15f628a9ba63e37260fa5fcb9c30af11", "is_reserved": 0}, {"is_disabled": 0, "fusion_lon": 0.0, "fusion_lat": 0.0, "lat": 38.903613, "type": "electric_scooter", "lon": -77.0050165, "bike_id": "edc98dc6f596833713e1060c533ae1b8", "rental_uris": {"android": "https://dc.lft.to/lastmile_qr_scan", "ios": "https://dc.lft.to/lastmile_qr_scan"}, "name": "edc98dc6f596833713e1060c533ae1b8", "is_reserved": 0}, {"is_disabled": 0, "fusion_lon": 0.0, "fusion_lat": 0.0, "lat": 38.92964716666667, "type": "electric_scooter", "lon": -77.007147, "bike_id": "40994325adfed07f5820e5225b37552a", "rental_uris": {"android": "https://dc.lft.to/lastmile_qr_scan", "ios": "https://dc.lft.to/lastmile_qr_scan"}, "name": "40994325adfed07f5820e5225b37552a", "is_reserved": 0}, {"is_disabled": 0, "fusion_lon": 0.0, "fusion_lat": 0.0, "lat": 38.9039225, "type": "electric_scooter", "lon": -76.99005016666666, "bike_id": "1de3c8e25b0b2d3b407cf3b27bc8a013", "rental_uris": {"android": "https://dc.lft.to/lastmile_qr_scan", "ios": "https://dc.lft.to/lastmile_qr_scan"}, "name": "1de3c8e25b0b2d3b407cf3b27bc8a013", "is_reserved": 0}, {"is_disabled": 0, "fusion_lon": 0.0, "fusion_lat": 0.0, "lat": 38.9247745, "type": "electric_scooter", "lon": -77.0347865, "bike_id": "b7e01fe250863eef93b8951c33293d26", "rental_uris": {"android": "https://dc.lft.to/lastmile_qr_scan", "ios": "https://dc.lft.to/lastmile_qr_scan"}, "name": "b7e01fe250863eef93b8951c33293d26", "is_reserved": 0}, {"is_disabled": 0, "fusion_lon": 0.0, "fusion_lat": 0.0, "lat": 38.923358666666665, "type": "electric_scooter", "lon": -77.04185983333333, "bike_id": "41e4c825542c280f4c025065640b6304", "rental_uris": {"android": "https://dc.lft.to/lastmile_qr_scan", "ios": "https://dc.lft.to/lastmile_qr_scan"}, "name": "41e4c825542c280f4c025065640b6304", "is_reserved": 0}, {"is_disabled": 0, "fusion_lon": 0.0, "fusion_lat": 0.0, "lat": 38.91935766666667, "type": "electric_scooter", "lon": -76.98073583333333, "bike_id": "5491fffe4911246c2dc82c6ac58c9eab", "rental_uris": {"android": "https://dc.lft.to/lastmile_qr_scan", "ios": "https://dc.lft.to/lastmile_qr_scan"}, "name": "5491fffe4911246c2dc82c6ac58c9eab", "is_reserved": 0}, {"is_disabled": 0, "fusion_lon": 0.0, "fusion_lat": 0.0, "lat": 38.921032833333335, "type": "electric_scooter", "lon": -77.01761883333333, "bike_id": "a893b611c7b4cea2b84e35c836bea022", "rental_uris": {"android": "https://dc.lft.to/lastmile_qr_scan", "ios": "https://dc.lft.to/lastmile_qr_scan"}, "name": "a893b611c7b4cea2b84e35c836bea022", "is_reserved": 0}, {"is_disabled": 0, "fusion_lon": 0.0, "fusion_lat": 0.0, "lat": 38.85507483333333, "type": "electric_bike", "lon": -76.95830233333334, "bike_id": "51658d6fde464cee74778b61de040a72", "rental_uris": {"android": "https://dc.lft.to/lastmile_qr_scan", "ios": "https://dc.lft.to/lastmile_qr_scan"}, "name": "51658d6fde464cee74778b61de040a72", "is_reserved": 0}, {"is_disabled": 0, "fusion_lon": 0.0, "fusion_lat": 0.0, "lat": 38.915659166666664, "type": "electric_scooter", "lon": -77.00772033333334, "bike_id": "d30b20186ee98b32a52ab8f3e8262422", "rental_uris": {"android": "https://dc.lft.to/lastmile_qr_scan", "ios": "https://dc.lft.to/lastmile_qr_scan"}, "name": "d30b20186ee98b32a52ab8f3e8262422", "is_reserved": 0}, {"is_disabled": 0, "fusion_lon": 0.0, "fusion_lat": 0.0, "lat": 38.930101, "type": "electric_scooter", "lon": -77.02095683333333, "bike_id": "55de75536564d3d3ff144208e3131cdd", "rental_uris": {"android": "https://dc.lft.to/lastmile_qr_scan", "ios": "https://dc.lft.to/lastmile_qr_scan"}, "name": "55de75536564d3d3ff144208e3131cdd", "is_reserved": 0}, {"is_disabled": 0, "fusion_lon": 0.0, "fusion_lat": 0.0, "lat": 38.90847266666667, "type": "electric_scooter", "lon": -77.02060666666667, "bike_id": "604371bd7a0258a549b91716818454c9", "rental_uris": {"android": "https://dc.lft.to/lastmile_qr_scan", "ios": "https://dc.lft.to/lastmile_qr_scan"}, "name": "604371bd7a0258a549b91716818454c9", "is_reserved": 0}, {"is_disabled": 0, "fusion_lon": 0.0, "fusion_lat": 0.0, "lat": 38.90731383333333, "type": "electric_scooter", "lon": -77.03203533333334, "bike_id": "3b3e9fdd0940f2517624c2490f2daeaf", "rental_uris": {"android": "https://dc.lft.to/lastmile_qr_scan", "ios": "https://dc.lft.to/lastmile_qr_scan"}, "name": "3b3e9fdd0940f2517624c2490f2daeaf", "is_reserved": 0}, {"is_disabled": 0, "fusion_lon": 0.0, "fusion_lat": 0.0, "lat": 38.927546166666666, "type": "electric_scooter", "lon": -77.00594866666667, "bike_id": "8687104427fdacfb1fba9132933287af", "rental_uris": {"android": "https://dc.lft.to/lastmile_qr_scan", "ios": "https://dc.lft.to/lastmile_qr_scan"}, "name": "8687104427fdacfb1fba9132933287af", "is_reserved": 0}, {"is_disabled": 0, "fusion_lon": 0.0, "fusion_lat": 0.0, "lat": 38.93543, "type": "electric_scooter", "lon": -77.02217533333334, "bike_id": "de5201c0a2bbdc3d0ea39ae5d808bb67", "rental_uris": {"android": "https://dc.lft.to/lastmile_qr_scan", "ios": "https://dc.lft.to/lastmile_qr_scan"}, "name": "de5201c0a2bbdc3d0ea39ae5d808bb67", "is_reserved": 0}, {"is_disabled": 0, "fusion_lon": 0.0, "fusion_lat": 0.0, "lat": 38.934897, "type": "electric_scooter", "lon": -77.0342945, "bike_id": "66defd953bf367f0a7d63897e11cad7f", "rental_uris": {"android": "https://dc.lft.to/lastmile_qr_scan", "ios": "https://dc.lft.to/lastmile_qr_scan"}, "name": "66defd953bf367f0a7d63897e11cad7f", "is_reserved": 0}, {"is_disabled": 0, "fusion_lon": 0.0, "fusion_lat": 0.0, "lat": 38.90398583333333, "type": "electric_scooter", "lon": -77.032729, "bike_id": "5a8bcd951f04f579f7385b260ecd4751", "rental_uris": {"android": "https://dc.lft.to/lastmile_qr_scan", "ios": "https://dc.lft.to/lastmile_qr_scan"}, "name": "5a8bcd951f04f579f7385b260ecd4751", "is_reserved": 0}, {"is_disabled": 0, "fusion_lon": 0.0, "fusion_lat": 0.0, "lat": 38.896288, "type": "electric_scooter", "lon": -77.00896866666666, "bike_id": "5a0f5d5da3f8e040dfa99142d3172d16", "rental_uris": {"android": "https://dc.lft.to/lastmile_qr_scan", "ios": "https://dc.lft.to/lastmile_qr_scan"}, "name": "5a0f5d5da3f8e040dfa99142d3172d16", "is_reserved": 0}, {"is_disabled": 0, "fusion_lon": 0.0, "fusion_lat": 0.0, "lat": 38.9245735, "type": "electric_scooter", "lon": -77.02960866666666, "bike_id": "257db8076372edccc6b95e8ea7f12011", "rental_uris": {"android": "https://dc.lft.to/lastmile_qr_scan", "ios": "https://dc.lft.to/lastmile_qr_scan"}, "name": "257db8076372edccc6b95e8ea7f12011", "is_reserved": 0}, {"is_disabled": 0, "fusion_lon": 0.0, "fusion_lat": 0.0, "lat": 38.91984683333333, "type": "electric_bike", "lon": -76.97312416666666, "bike_id": "83fd6c2f8c6c75fe7e7e88279e9bdf6c", "rental_uris": {"android": "https://dc.lft.to/lastmile_qr_scan", "ios": "https://dc.lft.to/lastmile_qr_scan"}, "name": "83fd6c2f8c6c75fe7e7e88279e9bdf6c", "is_reserved": 0}, {"is_disabled": 0, "fusion_lon": 0.0, "fusion_lat": 0.0, "lat": 38.89731666666667, "type": "electric_scooter", "lon": -77.02159166666667, "bike_id": "a832c61ccef2d56d7469047a7f80cdc2", "rental_uris": {"android": "https://dc.lft.to/lastmile_qr_scan", "ios": "https://dc.lft.to/lastmile_qr_scan"}, "name": "a832c61ccef2d56d7469047a7f80cdc2", "is_reserved": 0}, {"is_disabled": 0, "fusion_lon": 0.0, "fusion_lat": 0.0, "lat": 38.978385833333334, "type": "electric_bike", "lon": -77.09115683333333, "bike_id": "068c992c62e1a4bc3a59d5f7c3e676e0", "rental_uris": {"android": "https://dc.lft.to/lastmile_qr_scan", "ios": "https://dc.lft.to/lastmile_qr_scan"}, "name": "068c992c62e1a4bc3a59d5f7c3e676e0", "is_reserved": 0}, {"is_disabled": 0, "fusion_lon": 0.0, "fusion_lat": 0.0, "lat": 38.93376883333333, "type": "electric_scooter", "lon": -77.07255549999999, "bike_id": "ad30a1630f7fd8c37a46f3c51dbef453", "rental_uris": {"android": "https://dc.lft.to/lastmile_qr_scan", "ios": "https://dc.lft.to/lastmile_qr_scan"}, "name": "ad30a1630f7fd8c37a46f3c51dbef453", "is_reserved": 0}, {"is_disabled": 0, "fusion_lon": 0.0, "fusion_lat": 0.0, "lat": 38.91759066666667, "type": "electric_scooter", "lon": -77.03598866666667, "bike_id": "2f70adaf9f2772017c8859d55e2b8f3f", "rental_uris": {"android": "https://dc.lft.to/lastmile_qr_scan", "ios": "https://dc.lft.to/lastmile_qr_scan"}, "name": "2f70adaf9f2772017c8859d55e2b8f3f", "is_reserved": 0}, {"is_disabled": 0, "fusion_lon": 0.0, "fusion_lat": 0.0, "lat": 38.91596166666667, "type": "electric_bike", "lon": -76.971551, "bike_id": "ce4f01556ede271784eaf651b4bdd78d", "rental_uris": {"android": "https://dc.lft.to/lastmile_qr_scan", "ios": "https://dc.lft.to/lastmile_qr_scan"}, "name": "ce4f01556ede271784eaf651b4bdd78d", "is_reserved": 0}, {"is_disabled": 0, "fusion_lon": 0.0, "fusion_lat": 0.0, "lat": 38.92282083333333, "type": "electric_bike", "lon": -76.99779366666667, "bike_id": "4b9acd90b3d7f10a908a2e3c9c9734ba", "rental_uris": {"android": "https://dc.lft.to/lastmile_qr_scan", "ios": "https://dc.lft.to/lastmile_qr_scan"}, "name": "4b9acd90b3d7f10a908a2e3c9c9734ba", "is_reserved": 0}, {"is_disabled": 0, "fusion_lon": 0.0, "fusion_lat": 0.0, "lat": 38.918450666666665, "type": "electric_scooter", "lon": -77.03208533333333, "bike_id": "559f07fdf47a76e490ab1492b531a7ad", "rental_uris": {"android": "https://dc.lft.to/lastmile_qr_scan", "ios": "https://dc.lft.to/lastmile_qr_scan"}, "name": "559f07fdf47a76e490ab1492b531a7ad", "is_reserved": 0}, {"is_disabled": 0, "fusion_lon": 0.0, "fusion_lat": 0.0, "lat": 38.935603, "type": "electric_bike", "lon": -77.082783, "bike_id": "bd38e41ba15381f934669e69d74a003e", "rental_uris": {"android": "https://dc.lft.to/lastmile_qr_scan", "ios": "https://dc.lft.to/lastmile_qr_scan"}, "name": "bd38e41ba15381f934669e69d74a003e", "is_reserved": 0}, {"is_disabled": 0, "fusion_lon": 0.0, "fusion_lat": 0.0, "lat": 38.975393333333336, "type": "electric_bike", "lon": -76.99527466666666, "bike_id": "ca9dd47d1241aaa444606854947d0de0", "rental_uris": {"android": "https://dc.lft.to/lastmile_qr_scan", "ios": "https://dc.lft.to/lastmile_qr_scan"}, "name": "ca9dd47d1241aaa444606854947d0de0", "is_reserved": 0}, {"is_disabled": 0, "fusion_lon": 0.0, "fusion_lat": 0.0, "lat": 38.86909633333333, "type": "electric_bike", "lon": -77.1318175, "bike_id": "10f41cde32fbc4c84bda5d1f72f4b2eb", "rental_uris": {"android": "https://dc.lft.to/lastmile_qr_scan", "ios": "https://dc.lft.to/lastmile_qr_scan"}, "name": "10f41cde32fbc4c84bda5d1f72f4b2eb", "is_reserved": 0}, {"is_disabled": 0, "fusion_lon": 0.0, "fusion_lat": 0.0, "lat": 38.911097833333336, "type": "electric_scooter", "lon": -77.00346816666666, "bike_id": "d7c1edab54c239972f8d68f366bde156", "rental_uris": {"android": "https://dc.lft.to/lastmile_qr_scan", "ios": "https://dc.lft.to/lastmile_qr_scan"}, "name": "d7c1edab54c239972f8d68f366bde156", "is_reserved": 0}, {"is_disabled": 0, "fusion_lon": 0.0, "fusion_lat": 0.0, "lat": 38.9083805, "type": "electric_scooter", "lon": -77.026947, "bike_id": "a79b25dc0623873596311704ec6ff72b", "rental_uris": {"android": "https://dc.lft.to/lastmile_qr_scan", "ios": "https://dc.lft.to/lastmile_qr_scan"}, "name": "a79b25dc0623873596311704ec6ff72b", "is_reserved": 0}, {"is_disabled": 0, "fusion_lon": 0.0, "fusion_lat": 0.0, "lat": 38.922825833333334, "type": "electric_scooter", "lon": -77.042275, "bike_id": "033cdd4395f89e5ef5ae25275d8512dd", "rental_uris": {"android": "https://dc.lft.to/lastmile_qr_scan", "ios": "https://dc.lft.to/lastmile_qr_scan"}, "name": "033cdd4395f89e5ef5ae25275d8512dd", "is_reserved": 0}, {"is_disabled": 0, "fusion_lon": 0.0, "fusion_lat": 0.0, "lat": 38.9126965, "type": "electric_scooter", "lon": -77.02227016666667, "bike_id": "283d867f987b650e94f1254645e82e79", "rental_uris": {"android": "https://dc.lft.to/lastmile_qr_scan", "ios": "https://dc.lft.to/lastmile_qr_scan"}, "name": "283d867f987b650e94f1254645e82e79", "is_reserved": 0}, {"is_disabled": 0, "fusion_lon": 0.0, "fusion_lat": 0.0, "lat": 38.900174666666665, "type": "electric_scooter", "lon": -77.00216166666667, "bike_id": "bb7ca373052d9f576cf2aa9275a42204", "rental_uris": {"android": "https://dc.lft.to/lastmile_qr_scan", "ios": "https://dc.lft.to/lastmile_qr_scan"}, "name": "bb7ca373052d9f576cf2aa9275a42204", "is_reserved": 0}, {"is_disabled": 0, "fusion_lon": 0.0, "fusion_lat": 0.0, "lat": 38.929981833333336, "type": "electric_scooter", "lon": -77.02216916666667, "bike_id": "5515bd1c03094f097ecd383765255f30", "rental_uris": {"android": "https://dc.lft.to/lastmile_qr_scan", "ios": "https://dc.lft.to/lastmile_qr_scan"}, "name": "5515bd1c03094f097ecd383765255f30", "is_reserved": 0}, {"is_disabled": 0, "fusion_lon": 0.0, "fusion_lat": 0.0, "lat": 38.9012955, "type": "electric_scooter", "lon": -77.01966316666666, "bike_id": "dae40939b9ef943621c764653b0c6e7c", "rental_uris": {"android": "https://dc.lft.to/lastmile_qr_scan", "ios": "https://dc.lft.to/lastmile_qr_scan"}, "name": "dae40939b9ef943621c764653b0c6e7c", "is_reserved": 0}, {"is_disabled": 0, "fusion_lon": 0.0, "fusion_lat": 0.0, "lat": 38.89604383333333, "type": "electric_scooter", "lon": -77.00927483333334, "bike_id": "af8330a75fedab0224b7887c1a891162", "rental_uris": {"android": "https://dc.lft.to/lastmile_qr_scan", "ios": "https://dc.lft.to/lastmile_qr_scan"}, "name": "af8330a75fedab0224b7887c1a891162", "is_reserved": 0}, {"is_disabled": 0, "fusion_lon": 0.0, "fusion_lat": 0.0, "lat": 38.88745333333333, "type": "electric_scooter", "lon": -77.01432666666666, "bike_id": "4e98275185eb73541515642cec02003d", "rental_uris": {"android": "https://dc.lft.to/lastmile_qr_scan", "ios": "https://dc.lft.to/lastmile_qr_scan"}, "name": "4e98275185eb73541515642cec02003d", "is_reserved": 0}, {"is_disabled": 0, "fusion_lon": 0.0, "fusion_lat": 0.0, "lat": 38.90263566666667, "type": "electric_scooter", "lon": -77.00329316666667, "bike_id": "fe93ea3ea1c6feb0fdc83758d7c89493", "rental_uris": {"android": "https://dc.lft.to/lastmile_qr_scan", "ios": "https://dc.lft.to/lastmile_qr_scan"}, "name": "fe93ea3ea1c6feb0fdc83758d7c89493", "is_reserved": 0}, {"is_disabled": 0, "fusion_lon": 0.0, "fusion_lat": 0.0, "lat": 38.884398833333336, "type": "electric_scooter", "lon": -77.02965916666666, "bike_id": "649f941e4656bc200f394d395f1a464e", "rental_uris": {"android": "https://dc.lft.to/lastmile_qr_scan", "ios": "https://dc.lft.to/lastmile_qr_scan"}, "name": "649f941e4656bc200f394d395f1a464e", "is_reserved": 0}, {"is_disabled": 0, "fusion_lon": 0.0, "fusion_lat": 0.0, "lat": 38.8939125, "type": "electric_scooter", "lon": -76.9499935, "bike_id": "9a333a071f30c3fce9e5ed00cf400190", "rental_uris": {"android": "https://dc.lft.to/lastmile_qr_scan", "ios": "https://dc.lft.to/lastmile_qr_scan"}, "name": "9a333a071f30c3fce9e5ed00cf400190", "is_reserved": 0}, {"is_disabled": 0, "fusion_lon": 0.0, "fusion_lat": 0.0, "lat": 38.905511833333335, "type": "electric_scooter", "lon": -76.981431, "bike_id": "953d8e117554e81feaa49b6ad4a48d1e", "rental_uris": {"android": "https://dc.lft.to/lastmile_qr_scan", "ios": "https://dc.lft.to/lastmile_qr_scan"}, "name": "953d8e117554e81feaa49b6ad4a48d1e", "is_reserved": 0}, {"is_disabled": 0, "fusion_lon": 0.0, "fusion_lat": 0.0, "lat": 38.900315166666665, "type": "electric_scooter", "lon": -77.0468025, "bike_id": "88f7a15bce30f6e0fcbc86a43021e6d9", "rental_uris": {"android": "https://dc.lft.to/lastmile_qr_scan", "ios": "https://dc.lft.to/lastmile_qr_scan"}, "name": "88f7a15bce30f6e0fcbc86a43021e6d9", "is_reserved": 0}, {"is_disabled": 0, "fusion_lon": 0.0, "fusion_lat": 0.0, "lat": 38.924781833333334, "type": "electric_scooter", "lon": -77.03783383333334, "bike_id": "9be526e237d802f80d3a88897ad636c4", "rental_uris": {"android": "https://dc.lft.to/lastmile_qr_scan", "ios": "https://dc.lft.to/lastmile_qr_scan"}, "name": "9be526e237d802f80d3a88897ad636c4", "is_reserved": 0}, {"is_disabled": 0, "fusion_lon": 0.0, "fusion_lat": 0.0, "lat": 38.9460595, "type": "electric_bike", "lon": -77.344133, "bike_id": "c0cbf95e2bfab9d869de0ade079eca45", "rental_uris": {"android": "https://dc.lft.to/lastmile_qr_scan", "ios": "https://dc.lft.to/lastmile_qr_scan"}, "name": "c0cbf95e2bfab9d869de0ade079eca45", "is_reserved": 0}, {"is_disabled": 0, "fusion_lon": 0.0, "fusion_lat": 0.0, "lat": 38.915549166666665, "type": "electric_scooter", "lon": -77.0387495, "bike_id": "ef09984cd704e8627e7e3fffefb79ef4", "rental_uris": {"android": "https://dc.lft.to/lastmile_qr_scan", "ios": "https://dc.lft.to/lastmile_qr_scan"}, "name": "ef09984cd704e8627e7e3fffefb79ef4", "is_reserved": 0}, {"is_disabled": 0, "fusion_lon": 0.0, "fusion_lat": 0.0, "lat": 38.8885125, "type": "electric_bike", "lon": -76.9770365, "bike_id": "c0dbe5d316a13dbf11aa0efa12c57198", "rental_uris": {"android": "https://dc.lft.to/lastmile_qr_scan", "ios": "https://dc.lft.to/lastmile_qr_scan"}, "name": "c0dbe5d316a13dbf11aa0efa12c57198", "is_reserved": 0}, {"is_disabled": 0, "fusion_lon": 0.0, "fusion_lat": 0.0, "lat": 39.05457083333334, "type": "electric_bike", "lon": -77.14325583333333, "bike_id": "3a4d9187c4dfea5a16d3c47b1005631a", "rental_uris": {"android": "https://dc.lft.to/lastmile_qr_scan", "ios": "https://dc.lft.to/lastmile_qr_scan"}, "name": "3a4d9187c4dfea5a16d3c47b1005631a", "is_reserved": 0}, {"is_disabled": 0, "fusion_lon": 0.0, "fusion_lat": 0.0, "lat": 38.90848966666667, "type": "electric_scooter", "lon": -77.055091, "bike_id": "8962bb1358ef554caa6bb68691592aaf", "rental_uris": {"android": "https://dc.lft.to/lastmile_qr_scan", "ios": "https://dc.lft.to/lastmile_qr_scan"}, "name": "8962bb1358ef554caa6bb68691592aaf", "is_reserved": 0}, {"is_disabled": 0, "fusion_lon": 0.0, "fusion_lat": 0.0, "lat": 38.8883495, "type": "electric_scooter", "lon": -76.91784966666667, "bike_id": "d23e0c04d061ca21a93e2d6912eb1ca8", "rental_uris": {"android": "https://dc.lft.to/lastmile_qr_scan", "ios": "https://dc.lft.to/lastmile_qr_scan"}, "name": "d23e0c04d061ca21a93e2d6912eb1ca8", "is_reserved": 0}, {"is_disabled": 0, "fusion_lon": 0.0, "fusion_lat": 0.0, "lat": 38.905952666666664, "type": "electric_scooter", "lon": -77.04653183333333, "bike_id": "537ca9af547a0fa0dcf503982dc93e70", "rental_uris": {"android": "https://dc.lft.to/lastmile_qr_scan", "ios": "https://dc.lft.to/lastmile_qr_scan"}, "name": "537ca9af547a0fa0dcf503982dc93e70", "is_reserved": 0}, {"is_disabled": 0, "fusion_lon": 0.0, "fusion_lat": 0.0, "lat": 38.936668, "type": "electric_scooter", "lon": -77.03635483333333, "bike_id": "f6082671cecb49c33c7cabeba65b1fab", "rental_uris": {"android": "https://dc.lft.to/lastmile_qr_scan", "ios": "https://dc.lft.to/lastmile_qr_scan"}, "name": "f6082671cecb49c33c7cabeba65b1fab", "is_reserved": 0}, {"is_disabled": 0, "fusion_lon": 0.0, "fusion_lat": 0.0, "lat": 38.91701583333333, "type": "electric_scooter", "lon": -77.03457383333334, "bike_id": "036eb01bdd60e82e3744a33d024e374f", "rental_uris": {"android": "https://dc.lft.to/lastmile_qr_scan", "ios": "https://dc.lft.to/lastmile_qr_scan"}, "name": "036eb01bdd60e82e3744a33d024e374f", "is_reserved": 0}, {"is_disabled": 0, "fusion_lon": 0.0, "fusion_lat": 0.0, "lat": 38.89738216666667, "type": "electric_scooter", "lon": -77.04683266666666, "bike_id": "5844c002223b2cb8197fb1216750ad34", "rental_uris": {"android": "https://dc.lft.to/lastmile_qr_scan", "ios": "https://dc.lft.to/lastmile_qr_scan"}, "name": "5844c002223b2cb8197fb1216750ad34", "is_reserved": 0}, {"is_disabled": 0, "fusion_lon": 0.0, "fusion_lat": 0.0, "lat": 38.91790833333334, "type": "electric_scooter", "lon": -77.04356916666667, "bike_id": "69be112e2191573eadc9809bce02ed9f", "rental_uris": {"android": "https://dc.lft.to/lastmile_qr_scan", "ios": "https://dc.lft.to/lastmile_qr_scan"}, "name": "69be112e2191573eadc9809bce02ed9f", "is_reserved": 0}, {"is_disabled": 0, "fusion_lon": 0.0, "fusion_lat": 0.0, "lat": 38.83121166666667, "type": "electric_bike", "lon": -77.043294, "bike_id": "d0adb4ed5c32b7c71ea8236449ac2205", "rental_uris": {"android": "https://dc.lft.to/lastmile_qr_scan", "ios": "https://dc.lft.to/lastmile_qr_scan"}, "name": "d0adb4ed5c32b7c71ea8236449ac2205", "is_reserved": 0}, {"is_disabled": 0, "fusion_lon": 0.0, "fusion_lat": 0.0, "lat": 38.91821433333333, "type": "electric_scooter", "lon": -77.01211283333333, "bike_id": "dd07dfb7e56da7887930c36cc3c32a36", "rental_uris": {"android": "https://dc.lft.to/lastmile_qr_scan", "ios": "https://dc.lft.to/lastmile_qr_scan"}, "name": "dd07dfb7e56da7887930c36cc3c32a36", "is_reserved": 0}, {"is_disabled": 0, "fusion_lon": 0.0, "fusion_lat": 0.0, "lat": 38.94894016666667, "type": "electric_bike", "lon": -76.9637915, "bike_id": "f9fb5e24337c825cf6943e6eba2f492c", "rental_uris": {"android": "https://dc.lft.to/lastmile_qr_scan", "ios": "https://dc.lft.to/lastmile_qr_scan"}, "name": "f9fb5e24337c825cf6943e6eba2f492c", "is_reserved": 0}, {"is_disabled": 0, "fusion_lon": 0.0, "fusion_lat": 0.0, "lat": 38.939284, "type": "electric_bike", "lon": -76.99514016666667, "bike_id": "0ccea22e2fe47123eec7acfcfa9645c8", "rental_uris": {"android": "https://dc.lft.to/lastmile_qr_scan", "ios": "https://dc.lft.to/lastmile_qr_scan"}, "name": "0ccea22e2fe47123eec7acfcfa9645c8", "is_reserved": 0}, {"is_disabled": 0, "fusion_lon": 0.0, "fusion_lat": 0.0, "lat": 38.932290333333334, "type": "electric_scooter", "lon": -76.99933733333333, "bike_id": "658a27473ba02fde7c7651d77ac298d7", "rental_uris": {"android": "https://dc.lft.to/lastmile_qr_scan", "ios": "https://dc.lft.to/lastmile_qr_scan"}, "name": "658a27473ba02fde7c7651d77ac298d7", "is_reserved": 0}, {"is_disabled": 0, "fusion_lon": 0.0, "fusion_lat": 0.0, "lat": 38.899603, "type": "electric_scooter", "lon": -77.01598133333333, "bike_id": "e5e04ae69a2484588017603c514b3f4e", "rental_uris": {"android": "https://dc.lft.to/lastmile_qr_scan", "ios": "https://dc.lft.to/lastmile_qr_scan"}, "name": "e5e04ae69a2484588017603c514b3f4e", "is_reserved": 0}, {"is_disabled": 0, "fusion_lon": 0.0, "fusion_lat": 0.0, "lat": 38.918227, "type": "electric_scooter", "lon": -77.0452195, "bike_id": "530493acf582d535ee9977ed37efd3bd", "rental_uris": {"android": "https://dc.lft.to/lastmile_qr_scan", "ios": "https://dc.lft.to/lastmile_qr_scan"}, "name": "530493acf582d535ee9977ed37efd3bd", "is_reserved": 0}, {"is_disabled": 0, "fusion_lon": 0.0, "fusion_lat": 0.0, "lat": 38.918167833333335, "type": "electric_scooter", "lon": -77.03808616666667, "bike_id": "9dde7554be874e4745bc4cf4f0d108de", "rental_uris": {"android": "https://dc.lft.to/lastmile_qr_scan", "ios": "https://dc.lft.to/lastmile_qr_scan"}, "name": "9dde7554be874e4745bc4cf4f0d108de", "is_reserved": 0}, {"is_disabled": 0, "fusion_lon": 0.0, "fusion_lat": 0.0, "lat": 38.941770166666664, "type": "electric_scooter", "lon": -77.03653066666666, "bike_id": "2d94909222b8b4cfd64fed0be1fb8969", "rental_uris": {"android": "https://dc.lft.to/lastmile_qr_scan", "ios": "https://dc.lft.to/lastmile_qr_scan"}, "name": "2d94909222b8b4cfd64fed0be1fb8969", "is_reserved": 0}, {"is_disabled": 0, "fusion_lon": 0.0, "fusion_lat": 0.0, "lat": 38.90739466666667, "type": "electric_scooter", "lon": -77.00773983333333, "bike_id": "906927ce09035b738efca1f13dc7b340", "rental_uris": {"android": "https://dc.lft.to/lastmile_qr_scan", "ios": "https://dc.lft.to/lastmile_qr_scan"}, "name": "906927ce09035b738efca1f13dc7b340", "is_reserved": 0}, {"is_disabled": 0, "fusion_lon": 0.0, "fusion_lat": 0.0, "lat": 38.95645233333333, "type": "electric_scooter", "lon": -77.01499066666666, "bike_id": "f123263ac48b1fb1a4be7794cb447aa2", "rental_uris": {"android": "https://dc.lft.to/lastmile_qr_scan", "ios": "https://dc.lft.to/lastmile_qr_scan"}, "name": "f123263ac48b1fb1a4be7794cb447aa2", "is_reserved": 0}, {"is_disabled": 0, "fusion_lon": 0.0, "fusion_lat": 0.0, "lat": 38.928961666666666, "type": "electric_scooter", "lon": -77.03207683333333, "bike_id": "9b275797845431c1a9f16cd433932382", "rental_uris": {"android": "https://dc.lft.to/lastmile_qr_scan", "ios": "https://dc.lft.to/lastmile_qr_scan"}, "name": "9b275797845431c1a9f16cd433932382", "is_reserved": 0}, {"is_disabled": 0, "fusion_lon": 0.0, "fusion_lat": 0.0, "lat": 38.928957833333335, "type": "electric_scooter", "lon": -77.02409016666667, "bike_id": "3ca6543b8a1b8f7bff178eed633e63d3", "rental_uris": {"android": "https://dc.lft.to/lastmile_qr_scan", "ios": "https://dc.lft.to/lastmile_qr_scan"}, "name": "3ca6543b8a1b8f7bff178eed633e63d3", "is_reserved": 0}, {"is_disabled": 0, "fusion_lon": 0.0, "fusion_lat": 0.0, "lat": 38.876647, "type": "electric_bike", "lon": -77.01446533333333, "bike_id": "dd1716afbf0057b0bbf32104cbf0fb35", "rental_uris": {"android": "https://dc.lft.to/lastmile_qr_scan", "ios": "https://dc.lft.to/lastmile_qr_scan"}, "name": "dd1716afbf0057b0bbf32104cbf0fb35", "is_reserved": 0}, {"is_disabled": 0, "fusion_lon": 0.0, "fusion_lat": 0.0, "lat": 38.925285333333335, "type": "electric_scooter", "lon": -77.07329166666666, "bike_id": "2a82fc38d7861e82386bad4a59629b7a", "rental_uris": {"android": "https://dc.lft.to/lastmile_qr_scan", "ios": "https://dc.lft.to/lastmile_qr_scan"}, "name": "2a82fc38d7861e82386bad4a59629b7a", "is_reserved": 0}, {"is_disabled": 0, "fusion_lon": 0.0, "fusion_lat": 0.0, "lat": 38.89667983333333, "type": "electric_scooter", "lon": -77.04341033333333, "bike_id": "c3beaf941977985ab9f592cdd111f91b", "rental_uris": {"android": "https://dc.lft.to/lastmile_qr_scan", "ios": "https://dc.lft.to/lastmile_qr_scan"}, "name": "c3beaf941977985ab9f592cdd111f91b", "is_reserved": 0}, {"is_disabled": 0, "fusion_lon": 0.0, "fusion_lat": 0.0, "lat": 38.89774116666667, "type": "electric_scooter", "lon": -77.024805, "bike_id": "472337b196772c8e4658ab3177faa3ec", "rental_uris": {"android": "https://dc.lft.to/lastmile_qr_scan", "ios": "https://dc.lft.to/lastmile_qr_scan"}, "name": "472337b196772c8e4658ab3177faa3ec", "is_reserved": 0}, {"is_disabled": 0, "fusion_lon": 0.0, "fusion_lat": 0.0, "lat": 38.956923833333335, "type": "electric_scooter", "lon": -77.0240475, "bike_id": "de770a4d0347bcc7d41f08f02ffe1bdb", "rental_uris": {"android": "https://dc.lft.to/lastmile_qr_scan", "ios": "https://dc.lft.to/lastmile_qr_scan"}, "name": "de770a4d0347bcc7d41f08f02ffe1bdb", "is_reserved": 0}, {"is_disabled": 0, "fusion_lon": 0.0, "fusion_lat": 0.0, "lat": 38.88720333333333, "type": "electric_scooter", "lon": -77.02205683333334, "bike_id": "e6d2ce9e4b9205ecef5ec02b65b377fd", "rental_uris": {"android": "https://dc.lft.to/lastmile_qr_scan", "ios": "https://dc.lft.to/lastmile_qr_scan"}, "name": "e6d2ce9e4b9205ecef5ec02b65b377fd", "is_reserved": 0}, {"is_disabled": 0, "fusion_lon": 0.0, "fusion_lat": 0.0, "lat": 38.91333266666667, "type": "electric_scooter", "lon": -77.04217166666666, "bike_id": "f9f5fcfa1d6528bd15524e839d4958d4", "rental_uris": {"android": "https://dc.lft.to/lastmile_qr_scan", "ios": "https://dc.lft.to/lastmile_qr_scan"}, "name": "f9f5fcfa1d6528bd15524e839d4958d4", "is_reserved": 0}, {"is_disabled": 0, "fusion_lon": 0.0, "fusion_lat": 0.0, "lat": 38.92917716666667, "type": "electric_scooter", "lon": -77.02146616666667, "bike_id": "ac24c1443b82d9c65cdd43503d5015e1", "rental_uris": {"android": "https://dc.lft.to/lastmile_qr_scan", "ios": "https://dc.lft.to/lastmile_qr_scan"}, "name": "ac24c1443b82d9c65cdd43503d5015e1", "is_reserved": 0}, {"is_disabled": 0, "fusion_lon": 0.0, "fusion_lat": 0.0, "lat": 38.90257583333333, "type": "electric_scooter", "lon": -77.00017016666666, "bike_id": "60092e43b0dca78390dfe58abae494e5", "rental_uris": {"android": "https://dc.lft.to/lastmile_qr_scan", "ios": "https://dc.lft.to/lastmile_qr_scan"}, "name": "60092e43b0dca78390dfe58abae494e5", "is_reserved": 0}, {"is_disabled": 0, "fusion_lon": 0.0, "fusion_lat": 0.0, "lat": 38.921409833333335, "type": "electric_scooter", "lon": -77.0091785, "bike_id": "c27bcaae1bc237d9326d528c2e6266a7", "rental_uris": {"android": "https://dc.lft.to/lastmile_qr_scan", "ios": "https://dc.lft.to/lastmile_qr_scan"}, "name": "c27bcaae1bc237d9326d528c2e6266a7", "is_reserved": 0}, {"is_disabled": 0, "fusion_lon": 0.0, "fusion_lat": 0.0, "lat": 38.86465666666667, "type": "electric_scooter", "lon": -76.9961415, "bike_id": "74caddbbbb03d20e7325f47c83749b18", "rental_uris": {"android": "https://dc.lft.to/lastmile_qr_scan", "ios": "https://dc.lft.to/lastmile_qr_scan"}, "name": "74caddbbbb03d20e7325f47c83749b18", "is_reserved": 0}, {"is_disabled": 0, "fusion_lon": 0.0, "fusion_lat": 0.0, "lat": 38.87496183333333, "type": "electric_scooter", "lon": -76.99795333333333, "bike_id": "e0855791459fe525be3a87d91973d92e", "rental_uris": {"android": "https://dc.lft.to/lastmile_qr_scan", "ios": "https://dc.lft.to/lastmile_qr_scan"}, "name": "e0855791459fe525be3a87d91973d92e", "is_reserved": 0}, {"is_disabled": 0, "fusion_lon": 0.0, "fusion_lat": 0.0, "lat": 38.91922433333333, "type": "electric_scooter", "lon": -77.04468866666667, "bike_id": "0c7030e70b4fddb9c4c6c75b97073733", "rental_uris": {"android": "https://dc.lft.to/lastmile_qr_scan", "ios": "https://dc.lft.to/lastmile_qr_scan"}, "name": "0c7030e70b4fddb9c4c6c75b97073733", "is_reserved": 0}, {"is_disabled": 0, "fusion_lon": 0.0, "fusion_lat": 0.0, "lat": 38.90729266666666, "type": "electric_scooter", "lon": -77.02415133333334, "bike_id": "0a306e3eeb122e1c3768ad9267026c1d", "rental_uris": {"android": "https://dc.lft.to/lastmile_qr_scan", "ios": "https://dc.lft.to/lastmile_qr_scan"}, "name": "0a306e3eeb122e1c3768ad9267026c1d", "is_reserved": 0},