{"data": {"bikes": [{"lat": 38.886615, "type": "electric_scooter", "is_disabled": 0, "rental_uris": {"android": "https://dc.lft.to/lastmile_qr_scan", "ios": "https://dc.lft.to/lastmile_qr_scan"}, "is_reserved": 0, "bike_id": "1d15774be864d553791854e593041dc6", "name": "1d15774be864d553791854e593041dc6", "fusion_lon": 0.0, "lon": -77.03383666666667, "fusion_lat": 0.0}, {"lat": 38.84800933333333, "type": "electric_scooter", "is_disabled": 0, "rental_uris": {"android": "https://dc.lft.to/lastmile_qr_scan", "ios": "https://dc.lft.to/lastmile_qr_scan"}, "is_reserved": 0, "bike_id": "c376e8faf7b21b6049244967a5cd84bb", "name": "c376e8faf7b21b6049244967a5cd84bb", "fusion_lon": 0.0, "lon": -76.96708366666667, "fusion_lat": 0.0}, {"lat": 38.9065275, "type": "electric_scooter", "is_disabled": 0, "rental_uris": {"android": "https://dc.lft.to/lastmile_qr_scan", "ios": "https://dc.lft.to/lastmile_qr_scan"}, "is_reserved": 0, "bike_id": "4fff59a2df715b56cb64db5194d6a989", "name": "4fff59a2df715b56cb64db5194d6a989", "fusion_lon": 0.0, "lon": -77.0179955, "fusion_lat": 0.0}, {"lat": 38.90507083333333, "type": "electric_scooter", "is_disabled": 0, "rental_uris": {"android": "https://dc.lft.to/lastmile_qr_scan", "ios": "https://dc.lft.to/lastmile_qr_scan"}, "is_reserved": 0, "bike_id": "11109effd75f21732f436640a0007a4e", "name": "11109effd75f21732f436640a0007a4e", "fusion_lon": 0.0, "lon": -77.02948383333333, "fusion_lat": 0.0}, {"lat": 38.9287425, "type": "electric_scooter", "is_disabled": 0, "rental_uris": {"android": "https://dc.lft.to/lastmile_qr_scan", "ios": "https://dc.lft.to/lastmile_qr_scan"}, "is_reserved": 0, "bike_id": "146fc8e2eca07ba4b3a06e7d641a49ef", "name": "146fc8e2eca07ba4b3a06e7d641a49ef", "fusion_lon": 0.0, "lon": -77.03435666666667, "fusion_lat": 0.0}, {"lat": 38.96221716666667, "type": "electric_scooter", "is_disabled": 0, "rental_uris": {"android": "https://dc.lft.to/lastmile_qr_scan", "ios": "https://dc.lft.to/lastmile_qr_scan"}, "is_reserved": 0, "bike_id": "697ccee79b3debab081af4eb3e8819ea", "name": "697ccee79b3debab081af4eb3e8819ea", "fusion_lon": 0.0, "lon": -77.02808183333333, "fusion_lat": 0.0}, {"lat": 38.86660116666667, "type": "electric_scooter", "is_disabled": 0, "rental_uris": {"android": "https://dc.lft.to/lastmile_qr_scan", "ios": "https://dc.lft.to/lastmile_qr_scan"}, "is_reserved": 0, "bike_id": "c438ec957100decbecc900883d49a2a7", "name": "c438ec957100decbecc900883d49a2a7", "fusion_lon": 0.0, "lon": -76.98886516666667, "fusion_lat": 0.0}, {"lat": 38.89328066666667, "type": "electric_scooter", "is_disabled": 0, "rental_uris": {"android": "https://dc.lft.to/lastmile_qr_scan", "ios": "https://dc.lft.to/lastmile_qr_scan"}, "is_reserved": 0, "bike_id": "6e5bf73002090e9c1166a5032497b894", "name": "6e5bf73002090e9c1166a5032497b894", "fusion_lon": 0.0, "lon": -77.02114033333334, "fusion_lat": 0.0}, {"lat": 38.90794916666667, "type": "electric_scooter", "is_disabled": 0, "rental_uris": {"android": "https://dc.lft.to/lastmile_qr_scan", "ios": "https://dc.lft.to/lastmile_qr_scan"}, "is_reserved": 0, "bike_id": "84c0bb767b647b9ff8cbae30695f3620", "name": "84c0bb767b647b9ff8cbae30695f3620", "fusion_lon": 0.0, "lon": -76.997007, "fusion_lat": 0.0}, {"lat": 38.94233916666666, "type": "electric_scooter", "is_disabled": 0, "rental_uris": {"android": "https://dc.lft.to/lastmile_qr_scan", "ios": "https://dc.lft.to/lastmile_qr_scan"}, "is_reserved": 0, "bike_id": "ca84140038dfd162576482a9b79b7619", "name": "ca84140038dfd162576482a9b79b7619", "fusion_lon": 0.0, "lon": -77.0215355, "fusion_lat": 0.0}, {"lat": 38.90153016666667, "type": "electric_scooter", "is_disabled": 0, "rental_uris": {"android": "https://dc.lft.to/lastmile_qr_scan", "ios": "https://dc.lft.to/lastmile_qr_scan"}, "is_reserved": 0, "bike_id": "3f724ecfad68ff6524bd8acbbad8c070", "name": "3f724ecfad68ff6524bd8acbbad8c070", "fusion_lon": 0.0, "lon": -77.01625866666667, "fusion_lat": 0.0}, {"lat": 38.94287416666667, "type": "electric_scooter", "is_disabled": 0, "rental_uris": {"android": "https://dc.lft.to/lastmile_qr_scan", "ios": "https://dc.lft.to/lastmile_qr_scan"}, "is_reserved": 0, "bike_id": "041a28577a046a9b60446632dc5e3c82", "name": "041a28577a046a9b60446632dc5e3c82", "fusion_lon": 0.0, "lon": -77.036321, "fusion_lat": 0.0}, {"lat": 38.89905983333333, "type": "electric_scooter", "is_disabled": 0, "rental_uris": {"android": "https://dc.lft.to/lastmile_qr_scan", "ios": "https://dc.lft.to/lastmile_qr_scan"}, "is_reserved": 0, "bike_id": "6e83a43c14557a82d69f8f6fa84705dc", "name": "6e83a43c14557a82d69f8f6fa84705dc", "fusion_lon": 0.0, "lon": -77.03298766666667, "fusion_lat": 0.0}, {"lat": 38.892430833333336, "type": "electric_scooter", "is_disabled": 0, "rental_uris": {"android": "https://dc.lft.to/lastmile_qr_scan", "ios": "https://dc.lft.to/lastmile_qr_scan"}, "is_reserved": 0, "bike_id": "4bf01c85bc7fad08b41bfd20283f98d0", "name": "4bf01c85bc7fad08b41bfd20283f98d0", "fusion_lon": 0.0, "lon": -77.03179583333333, "fusion_lat": 0.0}, {"lat": 38.937604, "type": "electric_scooter", "is_disabled": 0, "rental_uris": {"android": "https://dc.lft.to/lastmile_qr_scan", "ios": "https://dc.lft.to/lastmile_qr_scan"}, "is_reserved": 0, "bike_id": "73fbe0bb36d74153f6488d9e62580990", "name": "73fbe0bb36d74153f6488d9e62580990", "fusion_lon": 0.0, "lon": -77.0247285, "fusion_lat": 0.0}, {"lat": 38.94983116666667, "type": "electric_scooter", "is_disabled": 0, "rental_uris": {"android": "https://dc.lft.to/lastmile_qr_scan", "ios": "https://dc.lft.to/lastmile_qr_scan"}, "is_reserved": 0, "bike_id": "554bd3f7e7d349ca6412c2979deb19cd", "name": "554bd3f7e7d349ca6412c2979deb19cd", "fusion_lon": 0.0, "lon": -77.0270315, "fusion_lat": 0.0}, {"lat": 38.858193166666666, "type": "electric_scooter", "is_disabled": 0, "rental_uris": {"android": "https://dc.lft.to/lastmile_qr_scan", "ios": "https://dc.lft.to/lastmile_qr_scan"}, "is_reserved": 0, "bike_id": "6020c5790609e0a72c9f18b3c02a235b", "name": "6020c5790609e0a72c9f18b3c02a235b", "fusion_lon": 0.0, "lon": -76.98963033333334, "fusion_lat": 0.0}, {"lat": 38.90153766666667, "type": "electric_scooter", "is_disabled": 0, "rental_uris": {"android": "https://dc.lft.to/lastmile_qr_scan", "ios": "https://dc.lft.to/lastmile_qr_scan"}, "is_reserved": 0, "bike_id": "0d7c77686b67bd4c260e7383ad9e516d", "name": "0d7c77686b67bd4c260e7383ad9e516d", "fusion_lon": 0.0, "lon": -77.02877716666667, "fusion_lat": 0.0}, {"lat": 38.90038933333334, "type": "electric_scooter", "is_disabled": 0, "rental_uris": {"android": "https://dc.lft.to/lastmile_qr_scan", "ios": "https://dc.lft.to/lastmile_qr_scan"}, "is_reserved": 0, "bike_id": "946bd1cfc14d0212ad68bb2d214f4b4e", "name": "946bd1cfc14d0212ad68bb2d214f4b4e", "fusion_lon": 0.0, "lon": -76.98823766666666, "fusion_lat": 0.0}, {"lat": 38.90772583333333, "type": "electric_scooter", "is_disabled": 0, "rental_uris": {"android": "https://dc.lft.to/lastmile_qr_scan", "ios": "https://dc.lft.to/lastmile_qr_scan"}, "is_reserved": 0, "bike_id": "5161d88c373e2e7250fc4a941ca14f23", "name": "5161d88c373e2e7250fc4a941ca14f23", "fusion_lon": 0.0, "lon": -77.03864, "fusion_lat": 0.0}, {"lat": 38.89949333333333, "type": "electric_scooter", "is_disabled": 0, "rental_uris": {"android": "https://dc.lft.to/lastmile_qr_scan", "ios": "https://dc.lft.to/lastmile_qr_scan"}, "is_reserved": 0, "bike_id": "b56078c54f79d6571c553b2895926f21", "name": "b56078c54f79d6571c553b2895926f21", "fusion_lon": 0.0, "lon": -77.05468633333334, "fusion_lat": 0.0}, {"lat": 38.914017666666666, "type": "electric_scooter", "is_disabled": 0, "rental_uris": {"android": "https://dc.lft.to/lastmile_qr_scan", "ios": "https://dc.lft.to/lastmile_qr_scan"}, "is_reserved": 0, "bike_id": "0686b3e97ba95f5f3269a89116a42762", "name": "0686b3e97ba95f5f3269a89116a42762", "fusion_lon": 0.0, "lon": -77.0322995, "fusion_lat": 0.0}, {"lat": 38.89533983333333, "type": "electric_scooter", "is_disabled": 0, "rental_uris": {"android": "https://dc.lft.to/lastmile_qr_scan", "ios": "https://dc.lft.to/lastmile_qr_scan"}, "is_reserved": 0, "bike_id": "c11cad135ede3639872910d39f18a2b8", "name": "c11cad135ede3639872910d39f18a2b8", "fusion_lon": 0.0, "lon": -77.0412985, "fusion_lat": 0.0}, {"lat": 38.925378333333335, "type": "electric_scooter", "is_disabled": 0, "rental_uris": {"android": "https://dc.lft.to/lastmile_qr_scan", "ios": "https://dc.lft.to/lastmile_qr_scan"}, "is_reserved": 0, "bike_id": "4bdb05c1ff5e1290200354099acc6d26", "name": "4bdb05c1ff5e1290200354099acc6d26", "fusion_lon": 0.0, "lon": -77.04409166666667, "fusion_lat": 0.0}, {"lat": 38.93527683333333, "type": "electric_scooter", "is_disabled": 0, "rental_uris": {"android": "https://dc.lft.to/lastmile_qr_scan", "ios": "https://dc.lft.to/lastmile_qr_scan"}, "is_reserved": 0, "bike_id": "6bb8108805c5df05253d8f93098cc6b5", "name": "6bb8108805c5df05253d8f93098cc6b5", "fusion_lon": 0.0, "lon": -77.03258366666667, "fusion_lat": 0.0}, {"lat": 38.9003845, "type": "electric_scooter", "is_disabled": 0, "rental_uris": {"android": "https://dc.lft.to/lastmile_qr_scan", "ios": "https://dc.lft.to/lastmile_qr_scan"}, "is_reserved": 0, "bike_id": "19a74b8e56c6a5c857f5713e1029d459", "name": "19a74b8e56c6a5c857f5713e1029d459", "fusion_lon": 0.0, "lon": -76.99873733333334, "fusion_lat": 0.0}, {"lat": 38.90532966666667, "type": "electric_scooter", "is_disabled": 0, "rental_uris": {"android": "https://dc.lft.to/lastmile_qr_scan", "ios": "https://dc.lft.to/lastmile_qr_scan"}, "is_reserved": 0, "bike_id": "15250b0686ad1158a1dec33902ff6bba", "name": "15250b0686ad1158a1dec33902ff6bba", "fusion_lon": 0.0, "lon": -77.005385, "fusion_lat": 0.0}, {"lat": 38.916600833333334, "type": "electric_scooter", "is_disabled": 0, "rental_uris": {"android": "https://dc.lft.to/lastmile_qr_scan", "ios": "https://dc.lft.to/lastmile_qr_scan"}, "is_reserved": 0, "bike_id": "ec8ebe42c418404141f2777f543bcdf3", "name": "ec8ebe42c418404141f2777f543bcdf3", "fusion_lon": 0.0, "lon": -77.047818, "fusion_lat": 0.0}, {"lat": 38.916344, "type": "electric_scooter", "is_disabled": 0, "rental_uris": {"android": "https://dc.lft.to/lastmile_qr_scan", "ios": "https://dc.lft.to/lastmile_qr_scan"}, "is_reserved": 0, "bike_id": "acba2b096809d706339dc75a67c1269f", "name": "acba2b096809d706339dc75a67c1269f", "fusion_lon": 0.0, "lon": -77.04025283333333, "fusion_lat": 0.0}, {"lat": 38.892237, "type": "electric_scooter", "is_disabled": 0, "rental_uris": {"android": "https://dc.lft.to/lastmile_qr_scan", "ios": "https://dc.lft.to/lastmile_qr_scan"}, "is_reserved": 0, "bike_id": "1a9db147614e1cb2685608d884a97c0a", "name": "1a9db147614e1cb2685608d884a97c0a", "fusion_lon": 0.0, "lon": -77.0436245, "fusion_lat": 0.0}, {"lat": 38.9039225, "type": "electric_scooter", "is_disabled": 0, "rental_uris": {"android": "https://dc.lft.to/lastmile_qr_scan", "ios": "https://dc.lft.to/lastmile_qr_scan"}, "is_reserved": 0, "bike_id": "451d928a9ade978d169cfc8da7a7d024", "name": "451d928a9ade978d169cfc8da7a7d024", "fusion_lon": 0.0, "lon": -77.04870316666667, "fusion_lat": 0.0}, {"lat": 38.905147666666664, "type": "electric_scooter", "is_disabled": 0, "rental_uris": {"android": "https://dc.lft.to/lastmile_qr_scan", "ios": "https://dc.lft.to/lastmile_qr_scan"}, "is_reserved": 0, "bike_id": "aca24eebc114d2299d745e12b3f3cbc2", "name": "aca24eebc114d2299d745e12b3f3cbc2", "fusion_lon": 0.0, "lon": -77.0499595, "fusion_lat": 0.0}, {"lat": 38.898382166666664, "type": "electric_scooter", "is_disabled": 0, "rental_uris": {"android": "https://dc.lft.to/lastmile_qr_scan", "ios": "https://dc.lft.to/lastmile_qr_scan"}, "is_reserved": 0, "bike_id": "bf2ae61be5d3e048edb1a8d8bf9f4ff2", "name": "bf2ae61be5d3e048edb1a8d8bf9f4ff2", "fusion_lon": 0.0, "lon": -76.946316, "fusion_lat": 0.0}, {"lat": 38.930713, "type": "electric_scooter", "is_disabled": 0, "rental_uris": {"android": "https://dc.lft.to/lastmile_qr_scan", "ios": "https://dc.lft.to/lastmile_qr_scan"}, "is_reserved": 0, "bike_id": "16885618cf4a1d57087d5490d9332fb5", "name": "16885618cf4a1d57087d5490d9332fb5", "fusion_lon": 0.0, "lon": -77.03799466666666, "fusion_lat": 0.0}, {"lat": 38.887680333333336, "type": "electric_scooter", "is_disabled": 0, "rental_uris": {"android": "https://dc.lft.to/lastmile_qr_scan", "ios": "https://dc.lft.to/lastmile_qr_scan"}, "is_reserved": 0, "bike_id": "ced44772c40218d42fb149b327a7ee8a", "name": "ced44772c40218d42fb149b327a7ee8a", "fusion_lon": 0.0, "lon": -76.95671283333333, "fusion_lat": 0.0}, {"lat": 38.90418783333333, "type": "electric_scooter", "is_disabled": 0, "rental_uris": {"android": "https://dc.lft.to/lastmile_qr_scan", "ios": "https://dc.lft.to/lastmile_qr_scan"}, "is_reserved": 0, "bike_id": "652814038819b61a67a917277fd7003f", "name": "652814038819b61a67a917277fd7003f", "fusion_lon": 0.0, "lon": -76.98512966666667, "fusion_lat": 0.0}, {"lat": 38.89881716666667, "type": "electric_scooter", "is_disabled": 0, "rental_uris": {"android": "https://dc.lft.to/lastmile_qr_scan", "ios": "https://dc.lft.to/lastmile_qr_scan"}, "is_reserved": 0, "bike_id": "c3cc9babb84fda058ccaba4227ffbed9", "name": "c3cc9babb84fda058ccaba4227ffbed9", "fusion_lon": 0.0, "lon": -76.931849, "fusion_lat": 0.0}, {"lat": 38.959625, "type": "electric_bike", "is_disabled": 0, "rental_uris": {"android": "https://dc.lft.to/lastmile_qr_scan", "ios": "https://dc.lft.to/lastmile_qr_scan"}, "is_reserved": 0, "bike_id": "8fe13257c81179badc608a6d392cc33a", "name": "8fe13257c81179badc608a6d392cc33a", "fusion_lon": 0.0, "lon": -76.98170216666666, "fusion_lat": 0.0}, {"lat": 38.91045233333333, "type": "electric_scooter", "is_disabled": 0, "rental_uris": {"android": "https://dc.lft.to/lastmile_qr_scan", "ios": "https://dc.lft.to/lastmile_qr_scan"}, "is_reserved": 0, "bike_id": "fdde9179d74ed9ac4c124156839d8761", "name": "fdde9179d74ed9ac4c124156839d8761", "fusion_lon": 0.0, "lon": -77.04056116666666, "fusion_lat": 0.0}, {"lat": 38.90038066666666, "type": "electric_scooter", "is_disabled": 0, "rental_uris": {"android": "https://dc.lft.to/lastmile_qr_scan", "ios": "https://dc.lft.to/lastmile_qr_scan"}, "is_reserved": 0, "bike_id": "b2f986922ccd03cfbc0f1f1ad02930c4", "name": "b2f986922ccd03cfbc0f1f1ad02930c4", "fusion_lon": 0.0, "lon": -76.98827466666667, "fusion_lat": 0.0}, {"lat": 38.9262795, "type": "electric_scooter", "is_disabled": 0, "rental_uris": {"android": "https://dc.lft.to/lastmile_qr_scan", "ios": "https://dc.lft.to/lastmile_qr_scan"}, "is_reserved": 0, "bike_id": "cf8c6da97ecd76f354807eb62c78b234", "name": "cf8c6da97ecd76f354807eb62c78b234", "fusion_lon": 0.0, "lon": -77.05704866666666, "fusion_lat": 0.0}, {"lat": 38.9530125, "type": "electric_scooter", "is_disabled": 0, "rental_uris": {"android": "https://dc.lft.to/lastmile_qr_scan", "ios": "https://dc.lft.to/lastmile_qr_scan"}, "is_reserved": 0, "bike_id": "0fe69f6c82f384aeebe031a3b70f21d7", "name": "0fe69f6c82f384aeebe031a3b70f21d7", "fusion_lon": 0.0, "lon": -77.06861916666666, "fusion_lat": 0.0}, {"lat": 38.88759866666667, "type": "electric_scooter", "is_disabled": 0, "rental_uris": {"android": "https://dc.lft.to/lastmile_qr_scan", "ios": "https://dc.lft.to/lastmile_qr_scan"}, "is_reserved": 0, "bike_id": "439a3e7b6b9ba87175666c7f3d4d1dd4", "name": "439a3e7b6b9ba87175666c7f3d4d1dd4", "fusion_lon": 0.0, "lon": -77.002625, "fusion_lat": 0.0}, {"lat": 38.900263, "type": "electric_scooter", "is_disabled": 0, "rental_uris": {"android": "https://dc.lft.to/lastmile_qr_scan", "ios": "https://dc.lft.to/lastmile_qr_scan"}, "is_reserved": 0, "bike_id": "758ed3f82649aaaa7a9fe76e0703cc6a", "name": "758ed3f82649aaaa7a9fe76e0703cc6a", "fusion_lon": 0.0, "lon": -77.01166716666667, "fusion_lat": 0.0}, {"lat": 38.87736566666667, "type": "electric_scooter", "is_disabled": 0, "rental_uris": {"android": "https://dc.lft.to/lastmile_qr_scan", "ios": "https://dc.lft.to/lastmile_qr_scan"}, "is_reserved": 0, "bike_id": "2adfc55a2c913059f78e06dfd486bc80", "name": "2adfc55a2c913059f78e06dfd486bc80", "fusion_lon": 0.0, "lon": -77.000627, "fusion_lat": 0.0}, {"lat": 38.9127285, "type": "electric_scooter", "is_disabled": 0, "rental_uris": {"android": "https://dc.lft.to/lastmile_qr_scan", "ios": "https://dc.lft.to/lastmile_qr_scan"}, "is_reserved": 0, "bike_id": "d2bb760d8de425f56166ae3677d6727e", "name": "d2bb760d8de425f56166ae3677d6727e", "fusion_lon": 0.0, "lon": -77.0415085, "fusion_lat": 0.0}, {"lat": 38.92748566666667, "type": "electric_scooter", "is_disabled": 0, "rental_uris": {"android": "https://dc.lft.to/lastmile_qr_scan", "ios": "https://dc.lft.to/lastmile_qr_scan"}, "is_reserved": 0, "bike_id": "c2929f808289f71272dbad3711f6e331", "name": "c2929f808289f71272dbad3711f6e331", "fusion_lon": 0.0, "lon": -77.033029, "fusion_lat": 0.0}, {"lat": 38.902923, "type": "electric_scooter", "is_disabled": 0, "rental_uris": {"android": "https://dc.lft.to/lastmile_qr_scan", "ios": "https://dc.lft.to/lastmile_qr_scan"}, "is_reserved": 0, "bike_id": "0ffc92cf534d6d7f2fa8e372ef70fd2f", "name": "0ffc92cf534d6d7f2fa8e372ef70fd2f", "fusion_lon": 0.0, "lon": -77.02427383333334, "fusion_lat": 0.0}, {"lat": 38.9024915, "type": "electric_scooter", "is_disabled": 0, "rental_uris": {"android": "https://dc.lft.to/lastmile_qr_scan", "ios": "https://dc.lft.to/lastmile_qr_scan"}, "is_reserved": 0, "bike_id": "8a99c7e65441e3b3685ea282f07ade2c", "name": "8a99c7e65441e3b3685ea282f07ade2c", "fusion_lon": 0.0, "lon": -77.04510016666667, "fusion_lat": 0.0}, {"lat": 38.909792333333336, "type": "electric_scooter", "is_disabled": 0, "rental_uris": {"android": "https://dc.lft.to/lastmile_qr_scan", "ios": "https://dc.lft.to/lastmile_qr_scan"}, "is_reserved": 0, "bike_id": "e8bed8b8cd5f0534277559ab99b316e8", "name": "e8bed8b8cd5f0534277559ab99b316e8", "fusion_lon": 0.0, "lon": -77.04523183333333, "fusion_lat": 0.0}, {"lat": 38.926565833333335, "type": "electric_scooter", "is_disabled": 0, "rental_uris": {"android": "https://dc.lft.to/lastmile_qr_scan", "ios": "https://dc.lft.to/lastmile_qr_scan"}, "is_reserved": 0, "bike_id": "5d9977bb5a038db4bf957a51163b60c1", "name": "5d9977bb5a038db4bf957a51163b60c1", "fusion_lon": 0.0, "lon": -77.02422683333333, "fusion_lat": 0.0}, {"lat": 38.8770095, "type": "electric_scooter", "is_disabled": 0, "rental_uris": {"android": "https://dc.lft.to/lastmile_qr_scan", "ios": "https://dc.lft.to/lastmile_qr_scan"}, "is_reserved": 0, "bike_id": "9fe352cbca3b157ae60aa424de5128a1", "name": "9fe352cbca3b157ae60aa424de5128a1", "fusion_lon": 0.0, "lon": -77.01783916666666, "fusion_lat": 0.0}, {"lat": 38.9104715, "type": "electric_scooter", "is_disabled": 0, "rental_uris": {"android": "https://dc.lft.to/lastmile_qr_scan", "ios": "https://dc.lft.to/lastmile_qr_scan"}, "is_reserved": 0, "bike_id": "3919e0ad3f905a7cda189748a90ecccd", "name": "3919e0ad3f905a7cda189748a90ecccd", "fusion_lon": 0.0, "lon": -77.0440775, "fusion_lat": 0.0}, {"lat": 38.898784, "type": "electric_scooter", "is_disabled": 0, "rental_uris": {"android": "https://dc.lft.to/lastmile_qr_scan", "ios": "https://dc.lft.to/lastmile_qr_scan"}, "is_reserved": 0, "bike_id": "a8ec5db736944f9b3ae2100ca50d9ceb", "name": "a8ec5db736944f9b3ae2100ca50d9ceb", "fusion_lon": 0.0, "lon": -76.93187933333333, "fusion_lat": 0.0}, {"lat": 38.90083716666667, "type": "electric_scooter", "is_disabled": 0, "rental_uris": {"android": "https://dc.lft.to/lastmile_qr_scan", "ios": "https://dc.lft.to/lastmile_qr_scan"}, "is_reserved": 0, "bike_id": "53b8f127af0531603e2d96e380b71c50", "name": "53b8f127af0531603e2d96e380b71c50", "fusion_lon": 0.0, "lon": -77.05045716666666, "fusion_lat": 0.0}, {"lat": 38.895571833333335, "type": "electric_scooter", "is_disabled": 0, "rental_uris": {"android": "https://dc.lft.to/lastmile_qr_scan", "ios": "https://dc.lft.to/lastmile_qr_scan"}, "is_reserved": 0, "bike_id": "5bcb344b5f27b8531c1699afe98be622", "name": "5bcb344b5f27b8531c1699afe98be622", "fusion_lon": 0.0, "lon": -77.0040515, "fusion_lat": 0.0}, {"lat": 38.917334333333336, "type": "electric_scooter", "is_disabled": 0, "rental_uris": {"android": "https://dc.lft.to/lastmile_qr_scan", "ios": "https://dc.lft.to/lastmile_qr_scan"}, "is_reserved": 0, "bike_id": "66c9800e65354b88c3d99bccfd167360", "name": "66c9800e65354b88c3d99bccfd167360", "fusion_lon": 0.0, "lon": -77.03205216666667, "fusion_lat": 0.0}, {"lat": 38.980325666666666, "type": "electric_bike", "is_disabled": 0, "rental_uris": {"android": "https://dc.lft.to/lastmile_qr_scan", "ios": "https://dc.lft.to/lastmile_qr_scan"}, "is_reserved": 0, "bike_id": "b029b5dd37add7ae4278489f7b6feeb8", "name": "b029b5dd37add7ae4278489f7b6feeb8", "fusion_lon": 0.0, "lon": -76.92914083333334, "fusion_lat": 0.0}, {"lat": 38.896037666666665, "type": "electric_scooter", "is_disabled": 0, "rental_uris": {"android": "https://dc.lft.to/lastmile_qr_scan", "ios": "https://dc.lft.to/lastmile_qr_scan"}, "is_reserved": 0, "bike_id": "212c64427e777e1cd509a4d2396a4943", "name": "212c64427e777e1cd509a4d2396a4943", "fusion_lon": 0.0, "lon": -77.0265235, "fusion_lat": 0.0}, {"lat": 38.8984835, "type": "electric_scooter", "is_disabled": 0, "rental_uris": {"android": "https://dc.lft.to/lastmile_qr_scan", "ios": "https://dc.lft.to/lastmile_qr_scan"}, "is_reserved": 0, "bike_id": "88995a588df4cd291ee21ef8feb41780", "name": "88995a588df4cd291ee21ef8feb41780", "fusion_lon": 0.0, "lon": -76.946343, "fusion_lat": 0.0}, {"lat": 38.91571916666667, "type": "electric_scooter", "is_disabled": 0, "rental_uris": {"android": "https://dc.lft.to/lastmile_qr_scan", "ios": "https://dc.lft.to/lastmile_qr_scan"}, "is_reserved": 0, "bike_id": "b5aebac019092f0d0b246c4ee54f59d1", "name": "b5aebac019092f0d0b246c4ee54f59d1", "fusion_lon": 0.0, "lon": -77.01981083333334, "fusion_lat": 0.0}, {"lat": 38.905801333333336, "type": "electric_scooter", "is_disabled": 0, "rental_uris": {"android": "https://dc.lft.to/lastmile_qr_scan", "ios": "https://dc.lft.to/lastmile_qr_scan"}, "is_reserved": 0, "bike_id": "4a23be9f06069cd907666bc1f1787609", "name": "4a23be9f06069cd907666bc1f1787609", "fusion_lon": 0.0, "lon": -77.00490016666667, "fusion_lat": 0.0}, {"lat": 38.915584833333334, "type": "electric_scooter", "is_disabled": 0, "rental_uris": {"android": "https://dc.lft.to/lastmile_qr_scan", "ios": "https://dc.lft.to/lastmile_qr_scan"}, "is_reserved": 0, "bike_id": "6453e06d375f814dc9aaf2fb52332cab", "name": "6453e06d375f814dc9aaf2fb52332cab", "fusion_lon": 0.0, "lon": -77.04613533333334, "fusion_lat": 0.0}, {"lat": 38.90242716666667, "type": "electric_scooter", "is_disabled": 0, "rental_uris": {"android": "https://dc.lft.to/lastmile_qr_scan", "ios": "https://dc.lft.to/lastmile_qr_scan"}, "is_reserved": 0, "bike_id": "25b731f0566bbf3a6a838953b65022cd", "name": "25b731f0566bbf3a6a838953b65022cd", "fusion_lon": 0.0, "lon": -77.0451965, "fusion_lat": 0.0}, {"lat": 38.93018933333333, "type": "electric_scooter", "is_disabled": 0, "rental_uris": {"android": "https://dc.lft.to/lastmile_qr_scan", "ios": "https://dc.lft.to/lastmile_qr_scan"}, "is_reserved": 0, "bike_id": "3ef73ebabd22a4a57e5e692b7253156b", "name": "3ef73ebabd22a4a57e5e692b7253156b", "fusion_lon": 0.0, "lon": -77.05557983333334, "fusion_lat": 0.0}, {"lat": 38.91050233333333, "type": "electric_scooter", "is_disabled": 0, "rental_uris": {"android": "https://dc.lft.to/lastmile_qr_scan", "ios": "https://dc.lft.to/lastmile_qr_scan"}, "is_reserved": 0, "bike_id": "d0ed6f2268980f9bb66de038139a0345", "name": "d0ed6f2268980f9bb66de038139a0345", "fusion_lon": 0.0, "lon": -77.04338566666667, "fusion_lat": 0.0}, {"lat": 38.90859066666667, "type": "electric_scooter", "is_disabled": 0, "rental_uris": {"android": "https://dc.lft.to/lastmile_qr_scan", "ios": "https://dc.lft.to/lastmile_qr_scan"}, "is_reserved": 0, "bike_id": "0c6ba67b0975b23f5bbfcad2885c9a62", "name": "0c6ba67b0975b23f5bbfcad2885c9a62", "fusion_lon": 0.0, "lon": -77.04542866666667, "fusion_lat": 0.0}, {"lat": 38.899786166666665, "type": "electric_scooter", "is_disabled": 0, "rental_uris": {"android": "https://dc.lft.to/lastmile_qr_scan", "ios": "https://dc.lft.to/lastmile_qr_scan"}, "is_reserved": 0, "bike_id": "6f7cd44356518ee6a53ad6aabb13e659", "name": "6f7cd44356518ee6a53ad6aabb13e659", "fusion_lon": 0.0, "lon": -77.04194716666667, "fusion_lat": 0.0}, {"lat": 38.917915, "type": "electric_scooter", "is_disabled": 0, "rental_uris": {"android": "https://dc.lft.to/lastmile_qr_scan", "ios": "https://dc.lft.to/lastmile_qr_scan"}, "is_reserved": 0, "bike_id": "69f6f326d5d5730872a4f4ee0575aedb", "name": "69f6f326d5d5730872a4f4ee0575aedb", "fusion_lon": 0.0, "lon": -77.03197283333333, "fusion_lat": 0.0}, {"lat": 38.93092633333333, "type": "electric_scooter", "is_disabled": 0, "rental_uris": {"android": "https://dc.lft.to/lastmile_qr_scan", "ios": "https://dc.lft.to/lastmile_qr_scan"}, "is_reserved": 0, "bike_id": "2f840e91f57e13b0ddbc1487f0cc0a56", "name": "2f840e91f57e13b0ddbc1487f0cc0a56", "fusion_lon": 0.0, "lon": -77.02793683333333, "fusion_lat": 0.0}, {"lat": 38.86716416666667, "type": "electric_scooter", "is_disabled": 0, "rental_uris": {"android": "https://dc.lft.to/lastmile_qr_scan", "ios": "https://dc.lft.to/lastmile_qr_scan"}, "is_reserved": 0, "bike_id": "0b3b9434cae8d968839175f6f5ec1ddc", "name": "0b3b9434cae8d968839175f6f5ec1ddc", "fusion_lon": 0.0, "lon": -76.98728783333334, "fusion_lat": 0.0}, {"lat": 38.905788333333334, "type": "electric_scooter", "is_disabled": 0, "rental_uris": {"android": "https://dc.lft.to/lastmile_qr_scan", "ios": "https://dc.lft.to/lastmile_qr_scan"}, "is_reserved": 0, "bike_id": "1847ce514cf5bbb011e3ea32ac60f2eb", "name": "1847ce514cf5bbb011e3ea32ac60f2eb", "fusion_lon": 0.0, "lon": -77.00710333333333, "fusion_lat": 0.0}, {"lat": 38.9151495, "type": "electric_scooter", "is_disabled": 0, "rental_uris": {"android": "https://dc.lft.to/lastmile_qr_scan", "ios": "https://dc.lft.to/lastmile_qr_scan"}, "is_reserved": 0, "bike_id": "b8cb4fc3941719086e76332737e1e46d", "name": "b8cb4fc3941719086e76332737e1e46d", "fusion_lon": 0.0, "lon": -77.0120685, "fusion_lat": 0.0}, {"lat": 38.898461166666664, "type": "electric_scooter", "is_disabled": 0, "rental_uris": {"android": "https://dc.lft.to/lastmile_qr_scan", "ios": "https://dc.lft.to/lastmile_qr_scan"}, "is_reserved": 0, "bike_id": "1649616d205c3a517fcd138499f0c091", "name": "1649616d205c3a517fcd138499f0c091", "fusion_lon": 0.0, "lon": -77.0435205, "fusion_lat": 0.0}, {"lat": 38.903675666666665, "type": "electric_scooter", "is_disabled": 0, "rental_uris": {"android": "https://dc.lft.to/lastmile_qr_scan", "ios": "https://dc.lft.to/lastmile_qr_scan"}, "is_reserved": 0, "bike_id": "b65d8de2fcc0f08534ec708118b5cccf", "name": "b65d8de2fcc0f08534ec708118b5cccf", "fusion_lon": 0.0, "lon": -77.03330983333333, "fusion_lat": 0.0}, {"lat": 38.92654366666667, "type": "electric_scooter", "is_disabled": 0, "rental_uris": {"android": "https://dc.lft.to/lastmile_qr_scan", "ios": "https://dc.lft.to/lastmile_qr_scan"}, "is_reserved": 0, "bike_id": "5be8f27391e254cfd345e0bd0754292d", "name": "5be8f27391e254cfd345e0bd0754292d", "fusion_lon": 0.0, "lon": -77.03712716666666, "fusion_lat": 0.0}, {"lat": 38.914177333333335, "type": "electric_scooter", "is_disabled": 0, "rental_uris": {"android": "https://dc.lft.to/lastmile_qr_scan", "ios": "https://dc.lft.to/lastmile_qr_scan"}, "is_reserved": 0, "bike_id": "058983f19ffd0c463dd3f0f5352f04e2", "name": "058983f19ffd0c463dd3f0f5352f04e2", "fusion_lon": 0.0, "lon": -77.02546366666667, "fusion_lat": 0.0}, {"lat": 38.902401166666664, "type": "electric_scooter", "is_disabled": 0, "rental_uris": {"android": "https://dc.lft.to/lastmile_qr_scan", "ios": "https://dc.lft.to/lastmile_qr_scan"}, "is_reserved": 0, "bike_id": "ade73fac648bb1dbf62b7bb96b5bf43a", "name": "ade73fac648bb1dbf62b7bb96b5bf43a", "fusion_lon": 0.0, "lon": -77.0451745, "fusion_lat": 0.0}, {"lat": 38.9020275, "type": "electric_scooter", "is_disabled": 0, "rental_uris": {"android": "https://dc.lft.to/lastmile_qr_scan", "ios": "https://dc.lft.to/lastmile_qr_scan"}, "is_reserved": 0, "bike_id": "6c917f89e85ab4eac591f8dabf6a48ef", "name": "6c917f89e85ab4eac591f8dabf6a48ef", "fusion_lon": 0.0, "lon": -77.06119316666667, "fusion_lat": 0.0}, {"lat": 38.919772333333334, "type": "electric_scooter", "is_disabled": 0, "rental_uris": {"android": "https://dc.lft.to/lastmile_qr_scan", "ios": "https://dc.lft.to/lastmile_qr_scan"}, "is_reserved": 0, "bike_id": "44f92f6dc1f20f9a0273540166f0b970", "name": "44f92f6dc1f20f9a0273540166f0b970", "fusion_lon": 0.0, "lon": -77.02192616666666, "fusion_lat": 0.0}, {"lat": 38.896216, "type": "electric_scooter", "is_disabled": 0, "rental_uris": {"android": "https://dc.lft.to/lastmile_qr_scan", "ios": "https://dc.lft.to/lastmile_qr_scan"}, "is_reserved": 0, "bike_id": "8435b9b2aeccd81fc61f5be0317f6a58", "name": "8435b9b2aeccd81fc61f5be0317f6a58", "fusion_lon": 0.0, "lon": -77.0108055, "fusion_lat": 0.0}, {"lat": 38.857954, "type": "electric_bike", "is_disabled": 0, "rental_uris": {"android": "https://dc.lft.to/lastmile_qr_scan", "ios": "https://dc.lft.to/lastmile_qr_scan"}, "is_reserved": 0, "bike_id": "08a6d66f6b8601324d2003da0b0f74d0", "name": "08a6d66f6b8601324d2003da0b0f74d0", "fusion_lon": 0.0, "lon": -77.09960233333334, "fusion_lat": 0.0}, {"lat": 38.91347433333333, "type": "electric_scooter", "is_disabled": 0, "rental_uris": {"android": "https://dc.lft.to/lastmile_qr_scan", "ios": "https://dc.lft.to/lastmile_qr_scan"}, "is_reserved": 0, "bike_id": "ee8f5f77e3b5c4cc55e9a6b9a77eab89", "name": "ee8f5f77e3b5c4cc55e9a6b9a77eab89", "fusion_lon": 0.0, "lon": -77.03252533333334, "fusion_lat": 0.0}, {"lat": 38.91652883333333, "type": "electric_scooter", "is_disabled": 0, "rental_uris": {"android": "https://dc.lft.to/lastmile_qr_scan", "ios": "https://dc.lft.to/lastmile_qr_scan"}, "is_reserved": 0, "bike_id": "63e0ea8350ba4c45b0b45818d6da0a85", "name": "63e0ea8350ba4c45b0b45818d6da0a85", "fusion_lon": 0.0, "lon": -77.0223775, "fusion_lat": 0.0}, {"lat": 38.86169566666667, "type": "electric_bike", "is_disabled": 0, "rental_uris": {"android": "https://dc.lft.to/lastmile_qr_scan", "ios": "https://dc.lft.to/lastmile_qr_scan"}, "is_reserved": 0, "bike_id": "aa485d99d5e4393718f99ccb03a12e07", "name": "aa485d99d5e4393718f99ccb03a12e07", "fusion_lon": 0.0, "lon": -77.09063066666667, "fusion_lat": 0.0}, {"lat": 38.922462333333335, "type": "electric_scooter", "is_disabled": 0, "rental_uris": {"android": "https://dc.lft.to/lastmile_qr_scan", "ios": "https://dc.lft.to/lastmile_qr_scan"}, "is_reserved": 0, "bike_id": "65ac665d297167185e984e55d658146d", "name": "65ac665d297167185e984e55d658146d", "fusion_lon": 0.0, "lon": -77.0413295, "fusion_lat": 0.0}, {"lat": 38.903733, "type": "electric_scooter", "is_disabled": 0, "rental_uris": {"android": "https://dc.lft.to/lastmile_qr_scan", "ios": "https://dc.lft.to/lastmile_qr_scan"}, "is_reserved": 0, "bike_id": "05763a0943762ce75838cc2878396a5d", "name": "05763a0943762ce75838cc2878396a5d", "fusion_lon": 0.0, "lon": -77.02971116666667, "fusion_lat": 0.0}, {"lat": 38.867043, "type": "electric_scooter", "is_disabled": 0, "rental_uris": {"android": "https://dc.lft.to/lastmile_qr_scan", "ios": "https://dc.lft.to/lastmile_qr_scan"}, "is_reserved": 0, "bike_id": "2fbc26d5bb1c327eb34c56ed0b28aa65", "name": "2fbc26d5bb1c327eb34c56ed0b28aa65", "fusion_lon": 0.0, "lon": -76.98719366666667, "fusion_lat": 0.0}, {"lat": 38.89827583333334, "type": "electric_scooter", "is_disabled": 0, "rental_uris": {"android": "https://dc.lft.to/lastmile_qr_scan", "ios": "https://dc.lft.to/lastmile_qr_scan"}, "is_reserved": 0, "bike_id": "cf59eab13c240c57cfc95589f51f67aa", "name": "cf59eab13c240c57cfc95589f51f67aa", "fusion_lon": 0.0, "lon": -77.02903766666667, "fusion_lat": 0.0}, {"lat": 38.956707333333334, "type": "electric_scooter", "is_disabled": 0, "rental_uris": {"android": "https://dc.lft.to/lastmile_qr_scan", "ios": "https://dc.lft.to/lastmile_qr_scan"}, "is_reserved": 0, "bike_id": "9ede4062d8470ab7a7c8c83b23010969", "name": "9ede4062d8470ab7a7c8c83b23010969", "fusion_lon": 0.0, "lon": -77.08367466666667, "fusion_lat": 0.0}, {"lat": 38.91998016666667, "type": "electric_scooter", "is_disabled": 0, "rental_uris": {"android": "https://dc.lft.to/lastmile_qr_scan", "ios": "https://dc.lft.to/lastmile_qr_scan"}, "is_reserved": 0, "bike_id": "bff2647394fcf120823a2ac4f1d62c0b", "name": "bff2647394fcf120823a2ac4f1d62c0b", "fusion_lon": 0.0, "lon": -77.0331305, "fusion_lat": 0.0}, {"lat": 38.898369333333335, "type": "electric_scooter", "is_disabled": 0, "rental_uris": {"android": "https://dc.lft.to/lastmile_qr_scan", "ios": "https://dc.lft.to/lastmile_qr_scan"}, "is_reserved": 0, "bike_id": "c2578881dba41a7d1c1c1b02989f76d3", "name": "c2578881dba41a7d1c1c1b02989f76d3", "fusion_lon": 0.0, "lon": -76.94631933333334, "fusion_lat": 0.0}, {"lat": 38.90669233333333, "type": "electric_scooter", "is_disabled": 0, "rental_uris": {"android": "https://dc.lft.to/lastmile_qr_scan", "ios": "https://dc.lft.to/lastmile_qr_scan"}, "is_reserved": 0, "bike_id": "6ded97a36a92c1e695bc75d987c0066c", "name": "6ded97a36a92c1e695bc75d987c0066c", "fusion_lon": 0.0, "lon": -77.043359, "fusion_lat": 0.0}, {"lat": 38.92645383333333, "type": "electric_bike", "is_disabled": 0, "rental_uris": {"android": "https://dc.lft.to/lastmile_qr_scan", "ios": "https://dc.lft.to/lastmile_qr_scan"}, "is_reserved": 0, "bike_id": "c3ae21d4bd666820502ec7760f726e09", "name": "c3ae21d4bd666820502ec7760f726e09", "fusion_lon": 0.0, "lon": -77.02835466666667, "fusion_lat": 0.0}, {"lat": 38.907420333333334, "type": "electric_scooter", "is_disabled": 0, "rental_uris": {"android": "https://dc.lft.to/lastmile_qr_scan", "ios": "https://dc.lft.to/lastmile_qr_scan"}, "is_reserved": 0, "bike_id": "6e23f06038bf92d2e8b18e059b45eb5d", "name": "6e23f06038bf92d2e8b18e059b45eb5d", "fusion_lon": 0.0, "lon": -77.03446033333333, "fusion_lat": 0.0}, {"lat": 38.93630916666667, "type": "electric_scooter", "is_disabled": 0, "rental_uris": {"android": "https://dc.lft.to/lastmile_qr_scan", "ios": "https://dc.lft.to/lastmile_qr_scan"}, "is_reserved": 0, "bike_id": "f3e3372bc1b8ec884ee83bd717f0f511", "name": "f3e3372bc1b8ec884ee83bd717f0f511", "fusion_lon": 0.0, "lon": -77.03244466666666, "fusion_lat": 0.0}, {"lat": 38.867168166666666, "type": "electric_scooter", "is_disabled": 0, "rental_uris": {"android": "https://dc.lft.to/lastmile_qr_scan", "ios": "https://dc.lft.to/lastmile_qr_scan"}, "is_reserved": 0, "bike_id": "e5d1f49c3fb4684e68d912ecd59f530e", "name": "e5d1f49c3fb4684e68d912ecd59f530e", "fusion_lon": 0.0, "lon": -76.98728666666666, "fusion_lat": 0.0}, {"lat": 38.89225483333333, "type": "electric_scooter", "is_disabled": 0, "rental_uris": {"android": "https://dc.lft.to/lastmile_qr_scan", "ios": "https://dc.lft.to/lastmile_qr_scan"}, "is_reserved": 0, "bike_id": "db6f44ef15e18288e19b5b5bf911039a", "name": "db6f44ef15e18288e19b5b5bf911039a", "fusion_lon": 0.0, "lon": -77.03184916666666, "fusion_lat": 0.0}, {"lat": 38.902724, "type": "electric_scooter", "is_disabled": 0, "rental_uris": {"android": "https://dc.lft.to/lastmile_qr_scan", "ios": "https://dc.lft.to/lastmile_qr_scan"}, "is_reserved": 0, "bike_id": "478e953202c5e11d38b2bfeb0d0b98dd", "name": "478e953202c5e11d38b2bfeb0d0b98dd", "fusion_lon": 0.0, "lon": -77.03839366666666, "fusion_lat": 0.0}, {"lat": 38.916975666666666, "type": "electric_scooter", "is_disabled": 0, "rental_uris": {"android": "https://dc.lft.to/lastmile_qr_scan", "ios": "https://dc.lft.to/lastmile_qr_scan"}, "is_reserved": 0, "bike_id": "04be87061aed87d9ed3f487272b7d9ee", "name": "04be87061aed87d9ed3f487272b7d9ee", "fusion_lon": 0.0, "lon": -77.037691, "fusion_lat": 0.0}, {"lat": 38.9158375, "type": "electric_scooter", "is_disabled": 0, "rental_uris": {"android": "https://dc.lft.to/lastmile_qr_scan", "ios": "https://dc.lft.to/lastmile_qr_scan"}, "is_reserved": 0, "bike_id": "30232fb9fd78e02109e2c01f7bb638e0", "name": "30232fb9fd78e02109e2c01f7bb638e0", "fusion_lon": 0.0, "lon": -77.05010016666667, "fusion_lat": 0.0}, {"lat": 38.93643, "type": "electric_bike", "is_disabled": 0, "rental_uris": {"android": "https://dc.lft.to/lastmile_qr_scan", "ios": "https://dc.lft.to/lastmile_qr_scan"}, "is_reserved": 0, "bike_id": "74da609945a01e552ac4c0e2d9b6cb23", "name": "74da609945a01e552ac4c0e2d9b6cb23", "fusion_lon": 0.0, "lon": -76.9544965, "fusion_lat": 0.0}, {"lat": 38.900673, "type": "electric_scooter", "is_disabled": 0, "rental_uris": {"android": "https://dc.lft.to/lastmile_qr_scan", "ios": "https://dc.lft.to/lastmile_qr_scan"}, "is_reserved": 0, "bike_id": "b32adf43ec5964c1c4584f27086ea4be", "name": "b32adf43ec5964c1c4584f27086ea4be", "fusion_lon": 0.0, "lon": -77.048811, "fusion_lat": 0.0}, {"lat": 38.926178166666666, "type": "electric_scooter", "is_disabled": 0, "rental_uris": {"android": "https://dc.lft.to/lastmile_qr_scan", "ios": "https://dc.lft.to/lastmile_qr_scan"}, "is_reserved": 0, "bike_id": "edf34770067c036e72c266746ec0afa6", "name": "edf34770067c036e72c266746ec0afa6", "fusion_lon": 0.0, "lon": -77.02167916666667, "fusion_lat": 0.0}, {"lat": 38.897547, "type": "electric_scooter", "is_disabled": 0, "rental_uris": {"android": "https://dc.lft.to/lastmile_qr_scan", "ios": "https://dc.lft.to/lastmile_qr_scan"}, "is_reserved": 0, "bike_id": "8e78febe9d0734d9b1681dbcf9044fed", "name": "8e78febe9d0734d9b1681dbcf9044fed", "fusion_lon": 0.0, "lon": -77.02104583333333, "fusion_lat": 0.0}, {"lat": 38.904805, "type": "electric_scooter", "is_disabled": 0, "rental_uris": {"android": "https://dc.lft.to/lastmile_qr_scan", "ios": "https://dc.lft.to/lastmile_qr_scan"}, "is_reserved": 0, "bike_id": "aaad37642a31d6df38811867d5195f11", "name": "aaad37642a31d6df38811867d5195f11", "fusion_lon": 0.0, "lon": -77.03568183333333, "fusion_lat": 0.0}, {"lat": 38.94579816666667, "type": "electric_bike", "is_disabled": 0, "rental_uris": {"android": "https://dc.lft.to/lastmile_qr_scan", "ios": "https://dc.lft.to/lastmile_qr_scan"}, "is_reserved": 0, "bike_id": "e2a36630253a1e094e95c20b041f4eb8", "name": "e2a36630253a1e094e95c20b041f4eb8", "fusion_lon": 0.0, "lon": -76.98776116666667, "fusion_lat": 0.0}, {"lat": 38.931778333333334, "type": "electric_scooter", "is_disabled": 0, "rental_uris": {"android": "https://dc.lft.to/lastmile_qr_scan", "ios": "https://dc.lft.to/lastmile_qr_scan"}, "is_reserved": 0, "bike_id": "d8c8c5301f65b29b08635aac4f054f6f", "name": "d8c8c5301f65b29b08635aac4f054f6f", "fusion_lon": 0.0, "lon": -77.03637233333333, "fusion_lat": 0.0}, {"lat": 38.88802, "type": "electric_scooter", "is_disabled": 0, "rental_uris": {"android": "https://dc.lft.to/lastmile_qr_scan", "ios": "https://dc.lft.to/lastmile_qr_scan"}, "is_reserved": 0, "bike_id": "89cd9fd2d7708f13f24ddebfed8f79ee", "name": "89cd9fd2d7708f13f24ddebfed8f79ee", "fusion_lon": 0.0, "lon": -76.93352466666667, "fusion_lat": 0.0}, {"lat": 38.84624383333333, "type": "electric_scooter", "is_disabled": 0, "rental_uris": {"android": "https://dc.lft.to/lastmile_qr_scan", "ios": "https://dc.lft.to/lastmile_qr_scan"}, "is_reserved": 0, "bike_id": "fccc8caaa808ba1f8e1c673c81a2de41", "name": "fccc8caaa808ba1f8e1c673c81a2de41", "fusion_lon": 0.0, "lon": -76.99633016666667, "fusion_lat": 0.0}, {"lat": 38.895391000000004, "type": "electric_scooter", "is_disabled": 0, "rental_uris": {"android": "https://dc.lft.to/lastmile_qr_scan", "ios": "https://dc.lft.to/lastmile_qr_scan"}, "is_reserved": 0, "bike_id": "1e624da18952cfaac1249b7176914d23", "name": "1e624da18952cfaac1249b7176914d23", "fusion_lon": 0.0, "lon": -77.003443, "fusion_lat": 0.0}, {"lat": 38.90384266666667, "type": "electric_scooter", "is_disabled": 0, "rental_uris": {"android": "https://dc.lft.to/lastmile_qr_scan", "ios": "https://dc.lft.to/lastmile_qr_scan"}, "is_reserved": 0, "bike_id": "e60e7b31b219a2936691fd218c35d43d", "name": "e60e7b31b219a2936691fd218c35d43d", "fusion_lon": 0.0, "lon": -77.04303633333333, "fusion_lat": 0.0}, {"lat": 38.893343333333334, "type": "electric_scooter", "is_disabled": 0, "rental_uris": {"android": "https://dc.lft.to/lastmile_qr_scan", "ios": "https://dc.lft.to/lastmile_qr_scan"}, "is_reserved": 0, "bike_id": "e6c995486d0e9d31b354f54897a5ecd7", "name": "e6c995486d0e9d31b354f54897a5ecd7", "fusion_lon": 0.0, "lon": -77.0212295, "fusion_lat": 0.0}, {"lat": 38.89849533333334, "type": "electric_scooter", "is_disabled": 0, "rental_uris": {"android": "https://dc.lft.to/lastmile_qr_scan", "ios": "https://dc.lft.to/lastmile_qr_scan"}, "is_reserved": 0, "bike_id": "9a627ba88ae9ad31023111880a418af8", "name": "9a627ba88ae9ad31023111880a418af8", "fusion_lon": 0.0, "lon": -76.944519, "fusion_lat": 0.0}, {"lat": 38.907815166666666, "type": "electric_scooter", "is_disabled": 0, "rental_uris": {"android": "https://dc.lft.to/lastmile_qr_scan", "ios": "https://dc.lft.to/lastmile_qr_scan"}, "is_reserved": 0, "bike_id": "8ddb0ec34c4a63d23d3191e303849903", "name": "8ddb0ec34c4a63d23d3191e303849903", "fusion_lon": 0.0, "lon": -77.045085, "fusion_lat": 0.0}, {"lat": 38.940876833333334, "type": "electric_scooter", "is_disabled": 0, "rental_uris": {"android": "https://dc.lft.to/lastmile_qr_scan", "ios": "https://dc.lft.to/lastmile_qr_scan"}, "is_reserved": 0, "bike_id": "dfc86597f94e6686483660d9b0d128b9", "name": "dfc86597f94e6686483660d9b0d128b9", "fusion_lon": 0.0, "lon": -77.02718616666667, "fusion_lat": 0.0}, {"lat": 38.941925499999996, "type": "electric_scooter", "is_disabled": 0, "rental_uris": {"android": "https://dc.lft.to/lastmile_qr_scan", "ios": "https://dc.lft.to/lastmile_qr_scan"}, "is_reserved": 0, "bike_id": "727dc0a687116b9a22e22550e328a95d", "name": "727dc0a687116b9a22e22550e328a95d", "fusion_lon": 0.0, "lon": -77.0425545, "fusion_lat": 0.0}, {"lat": 38.9175945, "type": "electric_bike", "is_disabled": 0, "rental_uris": {"android": "https://dc.lft.to/lastmile_qr_scan", "ios": "https://dc.lft.to/lastmile_qr_scan"}, "is_reserved": 0, "bike_id": "fd73590805a2b0946776dc4fe7545fb2", "name": "fd73590805a2b0946776dc4fe7545fb2", "fusion_lon": 0.0, "lon": -76.98969416666667, "fusion_lat": 0.0}, {"lat": 38.8904975, "type": "electric_scooter", "is_disabled": 0, "rental_uris": {"android": "https://dc.lft.to/lastmile_qr_scan", "ios": "https://dc.lft.to/lastmile_qr_scan"}, "is_reserved": 0, "bike_id": "6c99675a44c1bbd353481e3bce5d90ec", "name": "6c99675a44c1bbd353481e3bce5d90ec", "fusion_lon": 0.0, "lon": -76.93750566666667, "fusion_lat": 0.0}, {"lat": 38.8976665, "type": "electric_scooter", "is_disabled": 0, "rental_uris": {"android": "https://dc.lft.to/lastmile_qr_scan", "ios": "https://dc.lft.to/lastmile_qr_scan"}, "is_reserved": 0, "bike_id": "daec032576a1f799f974647512a5bbdf", "name": "daec032576a1f799f974647512a5bbdf", "fusion_lon": 0.0, "lon": -77.05153633333333, "fusion_lat": 0.0}, {"lat": 39.02301166666667, "type": "electric_bike", "is_disabled": 0, "rental_uris": {"android": "https://dc.lft.to/lastmile_qr_scan", "ios": "https://dc.lft.to/lastmile_qr_scan"}, "is_reserved": 0, "bike_id": "eca546f3b302166605307b3efe8f5385", "name": "eca546f3b302166605307b3efe8f5385", "fusion_lon": 0.0, "lon": -77.02101516666667, "fusion_lat": 0.0}, {"lat": 38.90687533333333, "type": "electric_scooter", "is_disabled": 0, "rental_uris": {"android": "https://dc.lft.to/lastmile_qr_scan", "ios": "https://dc.lft.to/lastmile_qr_scan"}, "is_reserved": 0, "bike_id": "cb9694493aa37bad837c4f7c873bef82", "name": "cb9694493aa37bad837c4f7c873bef82", "fusion_lon": 0.0, "lon": -77.03849666666666, "fusion_lat": 0.0}, {"lat": 38.903440333333336, "type": "electric_scooter", "is_disabled": 0, "rental_uris": {"android": "https://dc.lft.to/lastmile_qr_scan", "ios": "https://dc.lft.to/lastmile_qr_scan"}, "is_reserved": 0, "bike_id": "917b2621f97d379a8eab3e61d6382fca", "name": "917b2621f97d379a8eab3e61d6382fca", "fusion_lon": 0.0, "lon": -77.04322666666667, "fusion_lat": 0.0}, {"lat": 38.90021766666667, "type": "electric_scooter", "is_disabled": 0, "rental_uris": {"android": "https://dc.lft.to/lastmile_qr_scan", "ios": "https://dc.lft.to/lastmile_qr_scan"}, "is_reserved": 0, "bike_id": "0895dce9c7b935c9d214fcad254c2b03", "name": "0895dce9c7b935c9d214fcad254c2b03", "fusion_lon": 0.0, "lon": -76.99592733333333, "fusion_lat": 0.0}, {"lat": 38.8984445, "type": "electric_scooter", "is_disabled": 0, "rental_uris": {"android": "https://dc.lft.to/lastmile_qr_scan", "ios": "https://dc.lft.to/lastmile_qr_scan"}, "is_reserved": 0, "bike_id": "54b8a0d6155514d815d17fd4475482fc", "name": "54b8a0d6155514d815d17fd4475482fc", "fusion_lon": 0.0, "lon": -77.01954883333333, "fusion_lat": 0.0}, {"lat": 39.09598366666667, "type": "electric_bike", "is_disabled": 0, "rental_uris": {"android": "https://dc.lft.to/lastmile_qr_scan", "ios": "https://dc.lft.to/lastmile_qr_scan"}, "is_reserved": 0, "bike_id": "11bbeb2e3701b8efa52e43bdb1ccfd5c", "name": "11bbeb2e3701b8efa52e43bdb1ccfd5c", "fusion_lon": 0.0, "lon": -77.14780066666667, "fusion_lat": 0.0}, {"lat": 38.89513633333333, "type": "electric_scooter", "is_disabled": 0, "rental_uris": {"android": "https://dc.lft.to/lastmile_qr_scan", "ios": "https://dc.lft.to/lastmile_qr_scan"}, "is_reserved": 0, "bike_id": "318c02bcd73007fa20a0afb7d4682af9", "name": "318c02bcd73007fa20a0afb7d4682af9", "fusion_lon": 0.0, "lon": -76.94882566666666, "fusion_lat": 0.0}, {"lat": 38.892273333333335, "type": "electric_scooter", "is_disabled": 0, "rental_uris": {"android": "https://dc.lft.to/lastmile_qr_scan", "ios": "https://dc.lft.to/lastmile_qr_scan"}, "is_reserved": 0, "bike_id": "b66b091ccc244a33044fa9512198bf3e", "name": "b66b091ccc244a33044fa9512198bf3e", "fusion_lon": 0.0, "lon": -77.0226165, "fusion_lat": 0.0}, {"lat": 38.9993545, "type": "electric_bike", "is_disabled": 0, "rental_uris": {"android": "https://dc.lft.to/lastmile_qr_scan", "ios": "https://dc.lft.to/lastmile_qr_scan"}, "is_reserved": 0, "bike_id": "4d7fb503d1aa58b5e0f085d3f3885800", "name": "4d7fb503d1aa58b5e0f085d3f3885800", "fusion_lon": 0.0, "lon": -77.00121583333333, "fusion_lat": 0.0}, {"lat": 38.90864783333333, "type": "electric_scooter", "is_disabled": 0, "rental_uris": {"android": "https://dc.lft.to/lastmile_qr_scan", "ios": "https://dc.lft.to/lastmile_qr_scan"}, "is_reserved": 0, "bike_id": "b40c1d61b62e450af15969dbfc465ee5", "name": "b40c1d61b62e450af15969dbfc465ee5", "fusion_lon": 0.0, "lon": -77.0036495, "fusion_lat": 0.0}, {"lat": 38.860339833333335, "type": "electric_scooter", "is_disabled": 0, "rental_uris": {"android": "https://dc.lft.to/lastmile_qr_scan", "ios": "https://dc.lft.to/lastmile_qr_scan"}, "is_reserved": 0, "bike_id": "274f6b23ed16536da40f4b0dadf6bdea", "name": "274f6b23ed16536da40f4b0dadf6bdea", "fusion_lon": 0.0, "lon": -76.99687766666666, "fusion_lat": 0.0}, {"lat": 38.905783666666665, "type": "electric_scooter", "is_disabled": 0, "rental_uris": {"android": "https://dc.lft.to/lastmile_qr_scan", "ios": "https://dc.lft.to/lastmile_qr_scan"}, "is_reserved": 0, "bike_id": "8a36d3ea23e846e675317ad90d59eebd", "name": "8a36d3ea23e846e675317ad90d59eebd", "fusion_lon": 0.0, "lon": -77.00552933333333, "fusion_lat": 0.0}, {"lat": 38.93152366666666, "type": "electric_scooter", "is_disabled": 0, "rental_uris": {"android": "https://dc.lft.to/lastmile_qr_scan", "ios": "https://dc.lft.to/lastmile_qr_scan"}, "is_reserved": 0, "bike_id": "99e4873be3fb797feb33da0eb1dfbe29", "name": "99e4873be3fb797feb33da0eb1dfbe29", "fusion_lon": 0.0, "lon": -77.03607483333333, "fusion_lat": 0.0}, {"lat": 38.855478, "type": "electric_bike", "is_disabled": 0, "rental_uris": {"android": "https://dc.lft.to/lastmile_qr_scan", "ios": "https://dc.lft.to/lastmile_qr_scan"}, "is_reserved": 0, "bike_id": "fd9ae30ac4f6407acc9a75a6cec6bf01", "name": "fd9ae30ac4f6407acc9a75a6cec6bf01", "fusion_lon": 0.0, "lon": -77.107355, "fusion_lat": 0.0}, {"lat": 38.89734166666667, "type": "electric_scooter", "is_disabled": 0, "rental_uris": {"android": "https://dc.lft.to/lastmile_qr_scan", "ios": "https://dc.lft.to/lastmile_qr_scan"}, "is_reserved": 0, "bike_id": "7aa427488e1ae6a82858b43f4a377fe3", "name": "7aa427488e1ae6a82858b43f4a377fe3", "fusion_lon": 0.0, "lon": -76.94699483333333, "fusion_lat": 0.0}, {"lat": 38.841966, "type": "electric_bike", "is_disabled": 0, "rental_uris": {"android": "https://dc.lft.to/lastmile_qr_scan", "ios": "https://dc.lft.to/lastmile_qr_scan"}, "is_reserved": 0, "bike_id": "992a828ad5ccb8a9a0e05905119bb112", "name": "992a828ad5ccb8a9a0e05905119bb112", "fusion_lon": 0.0, "lon": -77.07748783333334, "fusion_lat": 0.0}, {"lat": 38.90432166666667, "type": "electric_scooter", "is_disabled": 0, "rental_uris": {"android": "https://dc.lft.to/lastmile_qr_scan", "ios": "https://dc.lft.to/lastmile_qr_scan"}, "is_reserved": 0, "bike_id": "18af3dbe38f1740ce61defd6aeb314c6", "name": "18af3dbe38f1740ce61defd6aeb314c6", "fusion_lon": 0.0, "lon": -77.04901733333334, "fusion_lat": 0.0}, {"lat": 38.90748716666667, "type": "electric_scooter", "is_disabled": 0, "rental_uris": {"android": "https://dc.lft.to/lastmile_qr_scan", "ios": "https://dc.lft.to/lastmile_qr_scan"}, "is_reserved": 0, "bike_id": "d0911e0900f46777a7ace4b3fc69f173", "name": "d0911e0900f46777a7ace4b3fc69f173", "fusion_lon": 0.0, "lon": -77.034644, "fusion_lat": 0.0}, {"lat": 38.912292, "type": "electric_scooter", "is_disabled": 0, "rental_uris": {"android": "https://dc.lft.to/lastmile_qr_scan", "ios": "https://dc.lft.to/lastmile_qr_scan"}, "is_reserved": 0, "bike_id": "32bd99865c2d8501805404d9610627d3", "name": "32bd99865c2d8501805404d9610627d3", "fusion_lon": 0.0, "lon": -77.03208233333334, "fusion_lat": 0.0}, {"lat": 38.914231, "type": "electric_scooter", "is_disabled": 0, "rental_uris": {"android": "https://dc.lft.to/lastmile_qr_scan", "ios": "https://dc.lft.to/lastmile_qr_scan"}, "is_reserved": 0, "bike_id": "a865ec29f3aac59d7eb6ad191a97affe", "name": "a865ec29f3aac59d7eb6ad191a97affe", "fusion_lon": 0.0, "lon": -77.04155833333333, "fusion_lat": 0.0}, {"lat": 38.906718, "type": "electric_scooter", "is_disabled": 0, "rental_uris": {"android": "https://dc.lft.to/lastmile_qr_scan", "ios": "https://dc.lft.to/lastmile_qr_scan"}, "is_reserved": 0, "bike_id": "c55068b740f92a88c304f03d5e90897d", "name": "c55068b740f92a88c304f03d5e90897d", "fusion_lon": 0.0, "lon": -77.04177283333334, "fusion_lat": 0.0}, {"lat": 38.9060405, "type": "electric_scooter", "is_disabled": 0, "rental_uris": {"android": "https://dc.lft.to/lastmile_qr_scan", "ios": "https://dc.lft.to/lastmile_qr_scan"}, "is_reserved": 0, "bike_id": "93f61e8134c37db1f4a9238de37c8860", "name": "93f61e8134c37db1f4a9238de37c8860", "fusion_lon": 0.0, "lon": -77.04370133333333, "fusion_lat": 0.0}, {"lat": 38.84846266666667, "type": "electric_bike", "is_disabled": 0, "rental_uris": {"android": "https://dc.lft.to/lastmile_qr_scan", "ios": "https://dc.lft.to/lastmile_qr_scan"}, "is_reserved": 0, "bike_id": "f5dd1a7464f7e497888933cf96c41dd8", "name": "f5dd1a7464f7e497888933cf96c41dd8", "fusion_lon": 0.0, "lon": -77.08051516666667, "fusion_lat": 0.0}, {"lat": 38.925541, "type": "electric_scooter", "is_disabled": 0, "rental_uris": {"android": "https://dc.lft.to/lastmile_qr_scan", "ios": "https://dc.lft.to/lastmile_qr_scan"}, "is_reserved": 0, "bike_id": "7c1b49191cca4aa5abcceef26d473e88", "name": "7c1b49191cca4aa5abcceef26d473e88", "fusion_lon": 0.0, "lon": -77.05192566666666, "fusion_lat": 0.0}, {"lat": 38.958973, "type": "electric_bike", "is_disabled": 0, "rental_uris": {"android": "https://dc.lft.to/lastmile_qr_scan", "ios": "https://dc.lft.to/lastmile_qr_scan"}, "is_reserved": 0, "bike_id": "c83a94ada5e2b588a9a8fcd840862a5e", "name": "c83a94ada5e2b588a9a8fcd840862a5e", "fusion_lon": 0.0, "lon": -76.966824, "fusion_lat": 0.0}, {"lat": 38.908764, "type": "electric_scooter", "is_disabled": 0, "rental_uris": {"android": "https://dc.lft.to/lastmile_qr_scan", "ios": "https://dc.lft.to/lastmile_qr_scan"}, "is_reserved": 0, "bike_id": "bca8550ec4fcf33f9a00f0dac7d644c4", "name": "bca8550ec4fcf33f9a00f0dac7d644c4", "fusion_lon": 0.0, "lon": -77.03195466666666, "fusion_lat": 0.0}, {"lat": 38.875780166666665, "type": "electric_scooter", "is_disabled": 0, "rental_uris": {"android": "https://dc.lft.to/lastmile_qr_scan", "ios": "https://dc.lft.to/lastmile_qr_scan"}, "is_reserved": 0, "bike_id": "b9339de75e8ec5a8045067807f91c750", "name": "b9339de75e8ec5a8045067807f91c750", "fusion_lon": 0.0, "lon": -77.019904, "fusion_lat": 0.0}, {"lat": 38.89995316666667, "type": "electric_scooter", "is_disabled": 0, "rental_uris": {"android": "https://dc.lft.to/lastmile_qr_scan", "ios": "https://dc.lft.to/lastmile_qr_scan"}, "is_reserved": 0, "bike_id": "be46ea44bef4063da21e24b0513e3fa6", "name": "be46ea44bef4063da21e24b0513e3fa6", "fusion_lon": 0.0, "lon": -76.99856483333333, "fusion_lat": 0.0}, {"lat": 38.953597333333335, "type": "electric_bike", "is_disabled": 0, "rental_uris": {"android": "https://dc.lft.to/lastmile_qr_scan", "ios": "https://dc.lft.to/lastmile_qr_scan"}, "is_reserved": 0, "bike_id": "f7652ff2ae824d96de9d91ed3d8ca060", "name": "f7652ff2ae824d96de9d91ed3d8ca060", "fusion_lon": 0.0, "lon": -76.980925, "fusion_lat": 0.0}, {"lat": 38.93308866666667, "type": "electric_scooter", "is_disabled": 0, "rental_uris": {"android": "https://dc.lft.to/lastmile_qr_scan", "ios": "https://dc.lft.to/lastmile_qr_scan"}, "is_reserved": 0, "bike_id": "b332e59ead9660f91bfff866119f6af9", "name": "b332e59ead9660f91bfff866119f6af9", "fusion_lon": 0.0, "lon": -77.03582433333334, "fusion_lat": 0.0}, {"lat": 38.92149833333333, "type": "electric_scooter", "is_disabled": 0, "rental_uris": {"android": "https://dc.lft.to/lastmile_qr_scan", "ios": "https://dc.lft.to/lastmile_qr_scan"}, "is_reserved": 0, "bike_id": "bc6f2635371de85895cdb132e8f94586", "name": "bc6f2635371de85895cdb132e8f94586", "fusion_lon": 0.0, "lon": -77.03509683333333, "fusion_lat": 0.0}, {"lat": 38.902825666666665, "type": "electric_scooter", "is_disabled": 0, "rental_uris": {"android": "https://dc.lft.to/lastmile_qr_scan", "ios": "https://dc.lft.to/lastmile_qr_scan"}, "is_reserved": 0, "bike_id": "401b07b3d3d841c16f945b1ee1291516", "name": "401b07b3d3d841c16f945b1ee1291516", "fusion_lon": 0.0, "lon": -77.03841333333334, "fusion_lat": 0.0}, {"lat": 38.89341233333333, "type": "electric_scooter", "is_disabled": 0, "rental_uris": {"android": "https://dc.lft.to/lastmile_qr_scan", "ios": "https://dc.lft.to/lastmile_qr_scan"}, "is_reserved": 0, "bike_id": "58ea4941b891c1637474da6300e1698d", "name": "58ea4941b891c1637474da6300e1698d", "fusion_lon": 0.0, "lon": -77.04655466666667, "fusion_lat": 0.0}, {"lat": 38.896726, "type": "electric_scooter", "is_disabled": 0, "rental_uris": {"android": "https://dc.lft.to/lastmile_qr_scan", "ios": "https://dc.lft.to/lastmile_qr_scan"}, "is_reserved": 0, "bike_id": "ada65e7f6a3de9fe4343df66eacec6af", "name": "ada65e7f6a3de9fe4343df66eacec6af", "fusion_lon": 0.0, "lon": -76.94715216666667, "fusion_lat": 0.0}, {"lat": 38.9112355, "type": "electric_scooter", "is_disabled": 0, "rental_uris": {"android": "https://dc.lft.to/lastmile_qr_scan", "ios": "https://dc.lft.to/lastmile_qr_scan"}, "is_reserved": 0, "bike_id": "321d8e57787a463681de87e3ea3d7695", "name": "321d8e57787a463681de87e3ea3d7695", "fusion_lon": 0.0, "lon": -77.03150016666666, "fusion_lat": 0.0}, {"lat": 38.908590833333335, "type": "electric_scooter", "is_disabled": 0, "rental_uris": {"android": "https://dc.lft.to/lastmile_qr_scan", "ios": "https://dc.lft.to/lastmile_qr_scan"}, "is_reserved": 0, "bike_id": "24bcd1ef479ddd4d26576a64eb795fc4", "name": "24bcd1ef479ddd4d26576a64eb795fc4", "fusion_lon": 0.0, "lon": -77.023852, "fusion_lat": 0.0}, {"lat": 38.88661366666667, "type": "electric_scooter", "is_disabled": 0, "rental_uris": {"android": "https://dc.lft.to/lastmile_qr_scan", "ios": "https://dc.lft.to/lastmile_qr_scan"}, "is_reserved": 0, "bike_id": "6d53b1a51aba87b9948bf5c8dfea8630", "name": "6d53b1a51aba87b9948bf5c8dfea8630", "fusion_lon": 0.0, "lon": -77.03384933333334, "fusion_lat": 0.0}, {"lat": 38.9178405, "type": "electric_scooter", "is_disabled": 0, "rental_uris": {"android": "https://dc.lft.to/lastmile_qr_scan", "ios": "https://dc.lft.to/lastmile_qr_scan"}, "is_reserved": 0, "bike_id": "0993f19da93bdf0282600c09d38b40c1", "name": "0993f19da93bdf0282600c09d38b40c1", "fusion_lon": 0.0, "lon": -77.02308916666667, "fusion_lat": 0.0}, {"lat": 38.901877, "type": "electric_scooter", "is_disabled": 0, "rental_uris": {"android": "https://dc.lft.to/lastmile_qr_scan", "ios": "https://dc.lft.to/lastmile_qr_scan"}, "is_reserved": 0, "bike_id": "83d7af23f5418744309fa2823a0a9515", "name": "83d7af23f5418744309fa2823a0a9515", "fusion_lon": 0.0, "lon": -77.01915966666667, "fusion_lat": 0.0}, {"lat": 38.90431483333333, "type": "electric_scooter", "is_disabled": 0, "rental_uris": {"android": "https://dc.lft.to/lastmile_qr_scan", "ios": "https://dc.lft.to/lastmile_qr_scan"}, "is_reserved": 0, "bike_id": "c46e5b8d8ba23204bac3a6feabd12efa", "name": "c46e5b8d8ba23204bac3a6feabd12efa", "fusion_lon": 0.0, "lon": -77.04372933333333, "fusion_lat": 0.0}, {"lat": 38.86374433333334, "type": "electric_scooter", "is_disabled": 0, "rental_uris": {"android": "https://dc.lft.to/lastmile_qr_scan", "ios": "https://dc.lft.to/lastmile_qr_scan"}, "is_reserved": 0, "bike_id": "879cb94678e7d699c55f5eb2994cb4c0", "name": "879cb94678e7d699c55f5eb2994cb4c0", "fusion_lon": 0.0, "lon": -76.99054733333334, "fusion_lat": 0.0}, {"lat": 38.898369333333335, "type": "electric_scooter", "is_disabled": 0, "rental_uris": {"android": "https://dc.lft.to/lastmile_qr_scan", "ios": "https://dc.lft.to/lastmile_qr_scan"}, "is_reserved": 0, "bike_id": "b948ea443b2d5819c74212ebd1e81cc9", "name": "b948ea443b2d5819c74212ebd1e81cc9", "fusion_lon": 0.0, "lon": -77.031639, "fusion_lat": 0.0}, {"lat": 38.90235466666667, "type": "electric_scooter", "is_disabled": 0, "rental_uris": {"android": "https://dc.lft.to/lastmile_qr_scan", "ios": "https://dc.lft.to/lastmile_qr_scan"}, "is_reserved": 0, "bike_id": "7d7de586a0fd4dce6dcb656c451c8f83", "name": "7d7de586a0fd4dce6dcb656c451c8f83", "fusion_lon": 0.0, "lon": -77.02685583333333, "fusion_lat": 0.0}, {"lat": 38.9311195, "type": "electric_scooter", "is_disabled": 0, "rental_uris": {"android": "https://dc.lft.to/lastmile_qr_scan", "ios": "https://dc.lft.to/lastmile_qr_scan"}, "is_reserved": 0, "bike_id": "b8cbef44fd3e4a6053f819cb211ff727", "name": "b8cbef44fd3e4a6053f819cb211ff727", "fusion_lon": 0.0, "lon": -77.01244283333334, "fusion_lat": 0.0}, {"lat": 38.921603, "type": "electric_scooter", "is_disabled": 0, "rental_uris": {"android": "https://dc.lft.to/lastmile_qr_scan", "ios": "https://dc.lft.to/lastmile_qr_scan"}, "is_reserved": 0, "bike_id": "d6cdc1c66b9548b62000a5e70fb97001", "name": "d6cdc1c66b9548b62000a5e70fb97001", "fusion_lon": 0.0, "lon": -77.0386835, "fusion_lat": 0.0}, {"lat": 38.90991616666667, "type": "electric_scooter", "is_disabled": 0, "rental_uris": {"android": "https://dc.lft.to/lastmile_qr_scan", "ios": "https://dc.lft.to/lastmile_qr_scan"}, "is_reserved": 0, "bike_id": "692951e681744ed6cc9aca86faa75f47", "name": "692951e681744ed6cc9aca86faa75f47", "fusion_lon": 0.0, "lon": -77.03207116666667, "fusion_lat": 0.0}, {"lat": 38.9475615, "type": "electric_scooter", "is_disabled": 0, "rental_uris": {"android": "https://dc.lft.to/lastmile_qr_scan", "ios": "https://dc.lft.to/lastmile_qr_scan"}, "is_reserved": 0, "bike_id": "73131ef787917e8f8af52959c5a8c094", "name": "73131ef787917e8f8af52959c5a8c094", "fusion_lon": 0.0, "lon": -77.02974733333333, "fusion_lat": 0.0}, {"lat": 38.92660016666667, "type": "electric_scooter", "is_disabled": 0, "rental_uris": {"android": "https://dc.lft.to/lastmile_qr_scan", "ios": "https://dc.lft.to/lastmile_qr_scan"}, "is_reserved": 0, "bike_id": "ce43bd0f8bb233052ce32eef49c0ba63", "name": "ce43bd0f8bb233052ce32eef49c0ba63", "fusion_lon": 0.0, "lon": -77.03712116666667, "fusion_lat": 0.0}, {"lat": 38.91840933333334, "type": "electric_scooter", "is_disabled": 0, "rental_uris": {"android": "https://dc.lft.to/lastmile_qr_scan", "ios": "https://dc.lft.to/lastmile_qr_scan"}, "is_reserved": 0, "bike_id": "7900bfd79da873cf7603b478d4b9e0b9", "name": "7900bfd79da873cf7603b478d4b9e0b9", "fusion_lon": 0.0, "lon": -77.0323045, "fusion_lat": 0.0}, {"lat": 38.9432315, "type": "electric_scooter", "is_disabled": 0, "rental_uris": {"android": "https://dc.lft.to/lastmile_qr_scan", "ios": "https://dc.lft.to/lastmile_qr_scan"}, "is_reserved": 0, "bike_id": "ec6cc9712585df5eca83c749b003028d", "name": "ec6cc9712585df5eca83c749b003028d", "fusion_lon": 0.0, "lon": -77.06166633333333, "fusion_lat": 0.0}, {"lat": 39.0249925, "type": "electric_bike", "is_disabled": 0, "rental_uris": {"android": "https://dc.lft.to/lastmile_qr_scan", "ios": "https://dc.lft.to/lastmile_qr_scan"}, "is_reserved": 0, "bike_id": "334907616f4875878ea4e176b46b7806", "name": "334907616f4875878ea4e176b46b7806", "fusion_lon": 0.0, "lon": -77.12567383333334, "fusion_lat": 0.0}, {"lat": 38.92639, "type": "electric_scooter", "is_disabled": 0, "rental_uris": {"android": "https://dc.lft.to/lastmile_qr_scan", "ios": "https://dc.lft.to/lastmile_qr_scan"}, "is_reserved": 0, "bike_id": "91bb191d5cecd9ac76d6caafda98f080", "name": "91bb191d5cecd9ac76d6caafda98f080", "fusion_lon": 0.0, "lon": -77.035011, "fusion_lat": 0.0}, {"lat": 38.91637333333333, "type": "electric_scooter", "is_disabled": 0, "rental_uris": {"android": "https://dc.lft.to/lastmile_qr_scan", "ios": "https://dc.lft.to/lastmile_qr_scan"}, "is_reserved": 0, "bike_id": "d0f81fcfe7544765c286a93bcd7b1fb8", "name": "d0f81fcfe7544765c286a93bcd7b1fb8", "fusion_lon": 0.0, "lon": -77.031589, "fusion_lat": 0.0}, {"lat": 38.890175, "type": "electric_scooter", "is_disabled": 0, "rental_uris": {"android": "https://dc.lft.to/lastmile_qr_scan", "ios": "https://dc.lft.to/lastmile_qr_scan"}, "is_reserved": 0, "bike_id": "9172ffd6597454283d37928987ec0fbb", "name": "9172ffd6597454283d37928987ec0fbb", "fusion_lon": 0.0, "lon": -76.93841383333333, "fusion_lat": 0.0}, {"lat": 38.9309305, "type": "electric_scooter", "is_disabled": 0, "rental_uris": {"android": "https://dc.lft.to/lastmile_qr_scan", "ios": "https://dc.lft.to/lastmile_qr_scan"}, "is_reserved": 0, "bike_id": "34ec0c499c685fb191b4c992a5d72552", "name": "34ec0c499c685fb191b4c992a5d72552", "fusion_lon": 0.0, "lon": -77.03619333333333, "fusion_lat": 0.0}, {"lat": 38.89614133333333, "type": "electric_scooter", "is_disabled": 0, "rental_uris": {"android": "https://dc.lft.to/lastmile_qr_scan", "ios": "https://dc.lft.to/lastmile_qr_scan"}, "is_reserved": 0, "bike_id": "68ba44f320b67e87b984d0cd90b49d56", "name": "68ba44f320b67e87b984d0cd90b49d56", "fusion_lon": 0.0, "lon": -77.04640366666666, "fusion_lat": 0.0}, {"lat": 38.930608166666666, "type": "electric_scooter", "is_disabled": 0, "rental_uris": {"android": "https://dc.lft.to/lastmile_qr_scan", "ios": "https://dc.lft.to/lastmile_qr_scan"}, "is_reserved": 0, "bike_id": "2541a79057b4b7fd595c9b88795ecac6", "name": "2541a79057b4b7fd595c9b88795ecac6", "fusion_lon": 0.0, "lon": -77.0296415, "fusion_lat": 0.0}, {"lat": 38.917036833333334, "type": "electric_scooter", "is_disabled": 0, "rental_uris": {"android": "https://dc.lft.to/lastmile_qr_scan", "ios": "https://dc.lft.to/lastmile_qr_scan"}, "is_reserved": 0, "bike_id": "250c208b87c5438e74f6f7c89a4d59d1", "name": "250c208b87c5438e74f6f7c89a4d59d1", "fusion_lon": 0.0, "lon": -77.02731683333333, "fusion_lat": 0.0}, {"lat": 38.89735266666667, "type": "electric_scooter", "is_disabled": 0, "rental_uris": {"android": "https://dc.lft.to/lastmile_qr_scan", "ios": "https://dc.lft.to/lastmile_qr_scan"}, "is_reserved": 0, "bike_id": "08fe914789017f83c1238ed7b89691f6", "name": "08fe914789017f83c1238ed7b89691f6", "fusion_lon": 0.0, "lon": -77.04232833333333, "fusion_lat": 0.0}, {"lat": 38.89864133333333, "type": "electric_scooter", "is_disabled": 0, "rental_uris": {"android": "https://dc.lft.to/lastmile_qr_scan", "ios": "https://dc.lft.to/lastmile_qr_scan"}, "is_reserved": 0, "bike_id": "d3facb83f7196ce1f61443f5c9f338e9", "name": "d3facb83f7196ce1f61443f5c9f338e9", "fusion_lon": 0.0, "lon": -77.039598, "fusion_lat": 0.0}, {"lat": 39.03003566666667, "type": "electric_bike", "is_disabled": 0, "rental_uris": {"android": "https://dc.lft.to/lastmile_qr_scan", "ios": "https://dc.lft.to/lastmile_qr_scan"}, "is_reserved": 0, "bike_id": "66193bbc057ec5b20b926ffc02f05b88", "name": "66193bbc057ec5b20b926ffc02f05b88", "fusion_lon": 0.0, "lon": -77.10652516666667, "fusion_lat": 0.0}, {"lat": 38.91693566666667, "type": "electric_scooter", "is_disabled": 0, "rental_uris": {"android": "https://dc.lft.to/lastmile_qr_scan", "ios": "https://dc.lft.to/lastmile_qr_scan"}, "is_reserved": 0, "bike_id": "9678f3aa32728525c34eeaa83652bd8a", "name": "9678f3aa32728525c34eeaa83652bd8a", "fusion_lon": 0.0, "lon": -76.98090266666667, "fusion_lat": 0.0}, {"lat": 38.94281183333333, "type": "electric_scooter", "is_disabled": 0, "rental_uris": {"android": "https://dc.lft.to/lastmile_qr_scan", "ios": "https://dc.lft.to/lastmile_qr_scan"}, "is_reserved": 0, "bike_id": "5ff6e347d9c778c4bc39359a5cda51a2", "name": "5ff6e347d9c778c4bc39359a5cda51a2", "fusion_lon": 0.0, "lon": -77.02926816666667, "fusion_lat": 0.0}, {"lat": 38.842963166666664, "type": "electric_scooter", "is_disabled": 0, "rental_uris": {"android": "https://dc.lft.to/lastmile_qr_scan", "ios": "https://dc.lft.to/lastmile_qr_scan"}, "is_reserved": 0, "bike_id": "4774959b11667bdfb505629c510c0f5b", "name": "4774959b11667bdfb505629c510c0f5b", "fusion_lon": 0.0, "lon": -76.99948933333333, "fusion_lat": 0.0}, {"lat": 38.908394333333334, "type": "electric_scooter", "is_disabled": 0, "rental_uris": {"android": "https://dc.lft.to/lastmile_qr_scan", "ios": "https://dc.lft.to/lastmile_qr_scan"}, "is_reserved": 0, "bike_id": "7749efcfab0af4edb41cb1fd29872043", "name": "7749efcfab0af4edb41cb1fd29872043", "fusion_lon": 0.0, "lon": -76.99697983333333, "fusion_lat": 0.0}, {"lat": 38.985666, "type": "electric_bike", "is_disabled": 0, "rental_uris": {"android": "https://dc.lft.to/lastmile_qr_scan", "ios": "https://dc.lft.to/lastmile_qr_scan"}, "is_reserved": 0, "bike_id": "cdb3ca41ced4d776c88cb5bba0a8ab9a", "name": "cdb3ca41ced4d776c88cb5bba0a8ab9a", "fusion_lon": 0.0, "lon": -76.98826316666667, "fusion_lat": 0.0}, {"lat": 38.92240316666667, "type": "electric_scooter", "is_disabled": 0, "rental_uris": {"android": "https://dc.lft.to/lastmile_qr_scan", "ios": "https://dc.lft.to/lastmile_qr_scan"}, "is_reserved": 0, "bike_id": "b16b674c91130bc195d859dc7a91bb00", "name": "b16b674c91130bc195d859dc7a91bb00", "fusion_lon": 0.0, "lon": -77.03350733333333, "fusion_lat": 0.0}, {"lat": 38.9013475, "type": "electric_scooter", "is_disabled": 0, "rental_uris": {"android": "https://dc.lft.to/lastmile_qr_scan", "ios": "https://dc.lft.to/lastmile_qr_scan"}, "is_reserved": 0, "bike_id": "f7b724a4bce0042cb93f28b66b019e68", "name": "f7b724a4bce0042cb93f28b66b019e68", "fusion_lon": 0.0, "lon": -77.05000983333333, "fusion_lat": 0.0}, {"lat": 38.93297333333334, "type": "electric_scooter", "is_disabled": 0, "rental_uris": {"android": "https://dc.lft.to/lastmile_qr_scan", "ios": "https://dc.lft.to/lastmile_qr_scan"}, "is_reserved": 0, "bike_id": "36da6650cbcecc534ddc38325f21d0ed", "name": "36da6650cbcecc534ddc38325f21d0ed", "fusion_lon": 0.0, "lon": -77.028409, "fusion_lat": 0.0}, {"lat": 38.91103866666667, "type": "electric_scooter", "is_disabled": 0, "rental_uris": {"android": "https://dc.lft.to/lastmile_qr_scan", "ios": "https://dc.lft.to/lastmile_qr_scan"}, "is_reserved": 0, "bike_id": "5a7342da3bbddbd65358fcb36584764c", "name": "5a7342da3bbddbd65358fcb36584764c", "fusion_lon": 0.0, "lon": -77.01980666666667, "fusion_lat": 0.0}, {"lat": 38.90529683333333, "type": "electric_scooter", "is_disabled": 0, "rental_uris": {"android": "https://dc.lft.to/lastmile_qr_scan", "ios": "https://dc.lft.to/lastmile_qr_scan"}, "is_reserved": 0, "bike_id": "9112e46201202bccc0ad1bfff7acf896", "name": "9112e46201202bccc0ad1bfff7acf896", "fusion_lon": 0.0, "lon": -77.05077833333333, "fusion_lat": 0.0}, {"lat": 38.91420083333333, "type": "electric_scooter", "is_disabled": 0, "rental_uris": {"android": "https://dc.lft.to/lastmile_qr_scan", "ios": "https://dc.lft.to/lastmile_qr_scan"}, "is_reserved": 0, "bike_id": "29158223c197189baf2853dcbd41e4d0", "name": "29158223c197189baf2853dcbd41e4d0", "fusion_lon": 0.0, "lon": -77.04180316666667, "fusion_lat": 0.0}, {"lat": 38.921195166666664, "type": "electric_scooter", "is_disabled": 0, "rental_uris": {"android": "https://dc.lft.to/lastmile_qr_scan", "ios": "https://dc.lft.to/lastmile_qr_scan"}, "is_reserved": 0, "bike_id": "efd337622961648c6ddb97b57558fbb4", "name": "efd337622961648c6ddb97b57558fbb4", "fusion_lon": 0.0, "lon": -77.04216266666667, "fusion_lat": 0.0}, {"lat": 38.957867666666665, "type": "electric_bike", "is_disabled": 0, "rental_uris": {"android": "https://dc.lft.to/lastmile_qr_scan", "ios": "https://dc.lft.to/lastmile_qr_scan"}, "is_reserved": 0, "bike_id": "d57aa6ea5293cdcac58b1fecc3d2c0ef", "name": "d57aa6ea5293cdcac58b1fecc3d2c0ef", "fusion_lon": 0.0, "lon": -76.940904, "fusion_lat": 0.0}, {"lat": 38.89683633333333, "type": "electric_bike", "is_disabled": 0, "rental_uris": {"android": "https://dc.lft.to/lastmile_qr_scan", "ios": "https://dc.lft.to/lastmile_qr_scan"}, "is_reserved": 0, "bike_id": "47a248f64af7c028733b366a67f299be", "name": "47a248f64af7c028733b366a67f299be", "fusion_lon": 0.0, "lon": -76.94069333333333, "fusion_lat": 0.0}, {"lat": 38.910153666666666, "type": "electric_scooter", "is_disabled": 0, "rental_uris": {"android": "https://dc.lft.to/lastmile_qr_scan", "ios": "https://dc.lft.to/lastmile_qr_scan"}, "is_reserved": 0, "bike_id": "896e20b286d2b9979e9f1cadd12bc4bb", "name": "896e20b286d2b9979e9f1cadd12bc4bb", "fusion_lon": 0.0, "lon": -76.99389116666667, "fusion_lat": 0.0}, {"lat": 38.927447666666666, "type": "electric_scooter", "is_disabled": 0, "rental_uris": {"android": "https://dc.lft.to/lastmile_qr_scan", "ios": "https://dc.lft.to/lastmile_qr_scan"}, "is_reserved": 0, "bike_id": "2bb9db64905cb01b62ec0ed5ab285690", "name": "2bb9db64905cb01b62ec0ed5ab285690", "fusion_lon": 0.0, "lon": -77.01203, "fusion_lat": 0.0}, {"lat": 38.89367033333333, "type": "electric_scooter", "is_disabled": 0, "rental_uris": {"android": "https://dc.lft.to/lastmile_qr_scan", "ios": "https://dc.lft.to/lastmile_qr_scan"}, "is_reserved": 0, "bike_id": "b2cae53dc8b6c2f5b1fd3139c19ceb49", "name": "b2cae53dc8b6c2f5b1fd3139c19ceb49", "fusion_lon": 0.0, "lon": -76.94019816666666, "fusion_lat": 0.0}, {"lat": 38.84433083333333, "type": "electric_scooter", "is_disabled": 0, "rental_uris": {"android": "https://dc.lft.to/lastmile_qr_scan", "ios": "https://dc.lft.to/lastmile_qr_scan"}, "is_reserved": 0, "bike_id": "effca6a5852d4cae34a1852ae19a9aed", "name": "effca6a5852d4cae34a1852ae19a9aed", "fusion_lon": 0.0, "lon": -76.99776766666666, "fusion_lat": 0.0}, {"lat": 38.93759466666667, "type": "electric_scooter", "is_disabled": 0, "rental_uris": {"android": "https://dc.lft.to/lastmile_qr_scan", "ios": "https://dc.lft.to/lastmile_qr_scan"}, "is_reserved": 0, "bike_id": "1b193cd146d40ac1b29c2904b8507199", "name": "1b193cd146d40ac1b29c2904b8507199", "fusion_lon": 0.0, "lon": -77.02499116666667, "fusion_lat": 0.0}, {"lat": 38.90544233333333, "type": "electric_scooter", "is_disabled": 0, "rental_uris": {"android": "https://dc.lft.to/lastmile_qr_scan", "ios": "https://dc.lft.to/lastmile_qr_scan"}, "is_reserved": 0, "bike_id": "08d4ef882f9ca622d0f2af845831752a", "name": "08d4ef882f9ca622d0f2af845831752a", "fusion_lon": 0.0, "lon": -77.05710483333333, "fusion_lat": 0.0}, {"lat": 38.90869816666667, "type": "electric_scooter", "is_disabled": 0, "rental_uris": {"android": "https://dc.lft.to/lastmile_qr_scan", "ios": "https://dc.lft.to/lastmile_qr_scan"}, "is_reserved": 0, "bike_id": "ec4bf1d192b6a7c644cb8dc0c07deb8b", "name": "ec4bf1d192b6a7c644cb8dc0c07deb8b", "fusion_lon": 0.0, "lon": -77.02688666666667, "fusion_lat": 0.0}, {"lat": 38.908342833333336, "type": "electric_scooter", "is_disabled": 0, "rental_uris": {"android": "https://dc.lft.to/lastmile_qr_scan", "ios": "https://dc.lft.to/lastmile_qr_scan"}, "is_reserved": 0, "bike_id": "a793810cdd1915c433fd7a8b6717190b", "name": "a793810cdd1915c433fd7a8b6717190b", "fusion_lon": 0.0, "lon": -76.99709633333333, "fusion_lat": 0.0}, {"lat": 38.92580016666667, "type": "electric_scooter", "is_disabled": 0, "rental_uris": {"android": "https://dc.lft.to/lastmile_qr_scan", "ios": "https://dc.lft.to/lastmile_qr_scan"}, "is_reserved": 0, "bike_id": "e23ca6f5e7aca133c37ab55735fb31bb", "name": "e23ca6f5e7aca133c37ab55735fb31bb", "fusion_lon": 0.0, "lon": -77.032136, "fusion_lat": 0.0}, {"lat": 38.93259583333333, "type": "electric_scooter", "is_disabled": 0, "rental_uris": {"android": "https://dc.lft.to/lastmile_qr_scan", "ios": "https://dc.lft.to/lastmile_qr_scan"}, "is_reserved": 0, "bike_id": "dfc662c6e39e3943082273dd5f1c5e14", "name": "dfc662c6e39e3943082273dd5f1c5e14", "fusion_lon": 0.0, "lon": -77.03282866666666, "fusion_lat": 0.0}, {"lat": 38.924834, "type": "electric_scooter", "is_disabled": 0, "rental_uris": {"android": "https://dc.lft.to/lastmile_qr_scan", "ios": "https://dc.lft.to/lastmile_qr_scan"}, "is_reserved": 0, "bike_id": "d2f80ef0dcf6906026f8eda53f49fc29", "name": "d2f80ef0dcf6906026f8eda53f49fc29", "fusion_lon": 0.0, "lon": -77.030567, "fusion_lat": 0.0}, {"lat": 38.906934666666665, "type": "electric_bike", "is_disabled": 0, "rental_uris": {"android": "https://dc.lft.to/lastmile_qr_scan", "ios": "https://dc.lft.to/lastmile_qr_scan"}, "is_reserved": 0, "bike_id": "0c166833851eb90e3402ffb3298d6a65", "name": "0c166833851eb90e3402ffb3298d6a65", "fusion_lon": 0.0, "lon": -76.9519465, "fusion_lat": 0.0}, {"lat": 38.9151055, "type": "electric_scooter", "is_disabled": 0, "rental_uris": {"android": "https://dc.lft.to/lastmile_qr_scan", "ios": "https://dc.lft.to/lastmile_qr_scan"}, "is_reserved": 0, "bike_id": "8a849bbd0788822157be37f77925b8b9", "name": "8a849bbd0788822157be37f77925b8b9", "fusion_lon": 0.0, "lon": -77.04613633333334, "fusion_lat": 0.0}, {"lat": 38.91104933333333, "type": "electric_scooter", "is_disabled": 0, "rental_uris": {"android": "https://dc.lft.to/lastmile_qr_scan", "ios": "https://dc.lft.to/lastmile_qr_scan"}, "is_reserved": 0, "bike_id": "7c4df667bf4830b1b85d251031e2caaf", "name": "7c4df667bf4830b1b85d251031e2caaf", "fusion_lon": 0.0, "lon": -77.03177166666667, "fusion_lat": 0.0}, {"lat": 38.885797833333335, "type": "electric_scooter", "is_disabled": 0, "rental_uris": {"android": "https://dc.lft.to/lastmile_qr_scan", "ios": "https://dc.lft.to/lastmile_qr_scan"}, "is_reserved": 0, "bike_id": "3840a845e0691f6857d01a187f7e9b29", "name": "3840a845e0691f6857d01a187f7e9b29", "fusion_lon": 0.0, "lon": -77.0154785, "fusion_lat": 0.0}, {"lat": 38.8923165, "type": "electric_scooter", "is_disabled": 0, "rental_uris": {"android": "https://dc.lft.to/lastmile_qr_scan", "ios": "https://dc.lft.to/lastmile_qr_scan"}, "is_reserved": 0, "bike_id": "5c1796a6ca817743e708be93e928db94", "name": "5c1796a6ca817743e708be93e928db94", "fusion_lon": 0.0, "lon": -77.04662066666667, "fusion_lat": 0.0}, {"lat": 38.92212, "type": "electric_scooter", "is_disabled": 0, "rental_uris": {"android": "https://dc.lft.to/lastmile_qr_scan", "ios": "https://dc.lft.to/lastmile_qr_scan"}, "is_reserved": 0, "bike_id": "ecc33f78cb6f4738b25c2f90bef31935", "name": "ecc33f78cb6f4738b25c2f90bef31935", "fusion_lon": 0.0, "lon": -77.04264216666667, "fusion_lat": 0.0}, {"lat": 38.901283166666666, "type": "electric_scooter", "is_disabled": 0, "rental_uris": {"android": "https://dc.lft.to/lastmile_qr_scan", "ios": "https://dc.lft.to/lastmile_qr_scan"}, "is_reserved": 0, "bike_id": "bee519a49f38a4d1de6b8c0655c95e3d", "name": "bee519a49f38a4d1de6b8c0655c95e3d", "fusion_lon": 0.0, "lon": -77.0120235, "fusion_lat": 0.0}, {"lat": 38.894858666666664, "type": "electric_scooter", "is_disabled": 0, "rental_uris": {"android": "https://dc.lft.to/lastmile_qr_scan", "ios": "https://dc.lft.to/lastmile_qr_scan"}, "is_reserved": 0, "bike_id": "ba8dd3f2856252ae2c20e21cd0734280", "name": "ba8dd3f2856252ae2c20e21cd0734280", "fusion_lon": 0.0, "lon": -76.99515833333334, "fusion_lat": 0.0}, {"lat": 38.914739, "type": "electric_scooter", "is_disabled": 0, "rental_uris": {"android": "https://dc.lft.to/lastmile_qr_scan", "ios": "https://dc.lft.to/lastmile_qr_scan"}, "is_reserved": 0, "bike_id": "60a56dff18bd8ce6529cc32383812180", "name": "60a56dff18bd8ce6529cc32383812180", "fusion_lon": 0.0, "lon": -77.03214716666666, "fusion_lat": 0.0}, {"lat": 38.901546333333336, "type": "electric_scooter", "is_disabled": 0, "rental_uris": {"android": "https://dc.lft.to/lastmile_qr_scan", "ios": "https://dc.lft.to/lastmile_qr_scan"}, "is_reserved": 0, "bike_id": "3e7a3e7285ecd46a0277d07ade94d480", "name": "3e7a3e7285ecd46a0277d07ade94d480", "fusion_lon": 0.0, "lon": -77.04163166666666, "fusion_lat": 0.0}, {"lat": 38.8580935, "type": "electric_scooter", "is_disabled": 0, "rental_uris": {"android": "https://dc.lft.to/lastmile_qr_scan", "ios": "https://dc.lft.to/lastmile_qr_scan"}, "is_reserved": 0, "bike_id": "d84dbfcbbffe1fb4ce549974c2df2750", "name": "d84dbfcbbffe1fb4ce549974c2df2750", "fusion_lon": 0.0, "lon": -76.98654583333334, "fusion_lat": 0.0}, {"lat": 38.9989135, "type": "electric_bike", "is_disabled": 0, "rental_uris": {"android": "https://dc.lft.to/lastmile_qr_scan", "ios": "https://dc.lft.to/lastmile_qr_scan"}, "is_reserved": 0, "bike_id": "0295d07e2fc96d800dfc07edf70ad6ca", "name": "0295d07e2fc96d800dfc07edf70ad6ca", "fusion_lon": 0.0, "lon": -77.02862533333334, "fusion_lat": 0.0}, {"lat": 38.9178855, "type": "electric_scooter", "is_disabled": 0, "rental_uris": {"android": "https://dc.lft.to/lastmile_qr_scan", "ios": "https://dc.lft.to/lastmile_qr_scan"}, "is_reserved": 0, "bike_id": "b5bbd63697dc934cd6cbe12ea1a5d7b6", "name": "b5bbd63697dc934cd6cbe12ea1a5d7b6", "fusion_lon": 0.0, "lon": -77.02310483333333, "fusion_lat": 0.0}, {"lat": 38.895278166666664, "type": "electric_scooter", "is_disabled": 0, "rental_uris": {"android": "https://dc.lft.to/lastmile_qr_scan", "ios": "https://dc.lft.to/lastmile_qr_scan"}, "is_reserved": 0, "bike_id": "bdeb2e9141e9352d0c78bddf78eb5eb2", "name": "bdeb2e9141e9352d0c78bddf78eb5eb2", "fusion_lon": 0.0, "lon": -77.0292745, "fusion_lat": 0.0}, {"lat": 38.94092, "type": "electric_scooter", "is_disabled": 0, "rental_uris": {"android": "https://dc.lft.to/lastmile_qr_scan", "ios": "https://dc.lft.to/lastmile_qr_scan"}, "is_reserved": 0, "bike_id": "99f3da4b63cdf96eff8e69460927ec3b", "name": "99f3da4b63cdf96eff8e69460927ec3b", "fusion_lon": 0.0, "lon": -77.02728166666667, "fusion_lat": 0.0}, {"lat": 38.912695666666664, "type": "electric_scooter", "is_disabled": 0, "rental_uris": {"android": "https://dc.lft.to/lastmile_qr_scan", "ios": "https://dc.lft.to/lastmile_qr_scan"}, "is_reserved": 0, "bike_id": "8617c74f9af39b072604f3174e2dadc6", "name": "8617c74f9af39b072604f3174e2dadc6", "fusion_lon": 0.0, "lon": -77.01694333333333, "fusion_lat": 0.0}, {"lat": 38.96765966666667, "type": "electric_bike", "is_disabled": 0, "rental_uris": {"android": "https://dc.lft.to/lastmile_qr_scan", "ios": "https://dc.lft.to/lastmile_qr_scan"}, "is_reserved": 0, "bike_id": "ce68f708d6d1a1b57eec14ea0cadcbfc", "name": "ce68f708d6d1a1b57eec14ea0cadcbfc", "fusion_lon": 0.0, "lon": -77.09159933333333, "fusion_lat": 0.0}, {"lat": 38.887461, "type": "electric_scooter", "is_disabled": 0, "rental_uris": {"android": "https://dc.lft.to/lastmile_qr_scan", "ios": "https://dc.lft.to/lastmile_qr_scan"}, "is_reserved": 0, "bike_id": "dc0833ae63469e2feba7255f653fce4f", "name": "dc0833ae63469e2feba7255f653fce4f", "fusion_lon": 0.0, "lon": -77.01537566666667, "fusion_lat": 0.0}, {"lat": 38.803043333333335, "type": "electric_bike", "is_disabled": 0, "rental_uris": {"android": "https://dc.lft.to/lastmile_qr_scan", "ios": "https://dc.lft.to/lastmile_qr_scan"}, "is_reserved": 0, "bike_id": "00238efa9fa5c28741ad903deaabbad3", "name": "00238efa9fa5c28741ad903deaabbad3", "fusion_lon": 0.0, "lon": -77.03984033333333, "fusion_lat": 0.0}, {"lat": 38.90181116666667, "type": "electric_bike", "is_disabled": 0, "rental_uris": {"android": "https://dc.lft.to/lastmile_qr_scan", "ios": "https://dc.lft.to/lastmile_qr_scan"}, "is_reserved": 0, "bike_id": "42ad256431b97d241d8d8ef1b84915ee", "name": "42ad256431b97d241d8d8ef1b84915ee", "fusion_lon": 0.0, "lon": -77.05102483333333, "fusion_lat": 0.0}, {"lat": 38.915258666666666, "type": "electric_scooter", "is_disabled": 0, "rental_uris": {"android": "https://dc.lft.to/lastmile_qr_scan", "ios": "https://dc.lft.to/lastmile_qr_scan"}, "is_reserved": 0, "bike_id": "97c0aa06f9935fa00d74bac3919ded2f", "name": "97c0aa06f9935fa00d74bac3919ded2f", "fusion_lon": 0.0, "lon": -76.98342516666666, "fusion_lat": 0.0}, {"lat": 38.915299, "type": "electric_scooter", "is_disabled": 0, "rental_uris": {"android": "https://dc.lft.to/lastmile_qr_scan", "ios": "https://dc.lft.to/lastmile_qr_scan"}, "is_reserved": 0, "bike_id": "f2c9bb6299172631fd64edfeeac70805", "name": "f2c9bb6299172631fd64edfeeac70805", "fusion_lon": 0.0, "lon": -76.98339083333333, "fusion_lat": 0.0}, {"lat": 38.92789416666667, "type": "electric_scooter", "is_disabled": 0, "rental_uris": {"android": "https://dc.lft.to/lastmile_qr_scan", "ios": "https://dc.lft.to/lastmile_qr_scan"}, "is_reserved": 0, "bike_id": "67dc0c35cfaa0ddc45eade2a0aab4b99", "name": "67dc0c35cfaa0ddc45eade2a0aab4b99", "fusion_lon": 0.0, "lon": -77.02742733333334, "fusion_lat": 0.0}, {"lat": 38.916810166666664, "type": "electric_bike", "is_disabled": 0, "rental_uris": {"android": "https://dc.lft.to/lastmile_qr_scan", "ios": "https://dc.lft.to/lastmile_qr_scan"}, "is_reserved": 0, "bike_id": "48505b66f16857827d00b2f71497b0ca", "name": "48505b66f16857827d00b2f71497b0ca", "fusion_lon": 0.0, "lon": -77.09582766666666, "fusion_lat": 0.0}, {"lat": 38.9349825, "type": "electric_scooter", "is_disabled": 0, "rental_uris": {"android": "https://dc.lft.to/lastmile_qr_scan", "ios": "https://dc.lft.to/lastmile_qr_scan"}, "is_reserved": 0, "bike_id": "b5bdf59527a7e5a47eb6273a9390ac38", "name": "b5bdf59527a7e5a47eb6273a9390ac38", "fusion_lon": 0.0, "lon": -77.0240215, "fusion_lat": 0.0}, {"lat": 38.91810816666667, "type": "electric_scooter", "is_disabled": 0, "rental_uris": {"android": "https://dc.lft.to/lastmile_qr_scan", "ios": "https://dc.lft.to/lastmile_qr_scan"}, "is_reserved": 0, "bike_id": "fecad89cef65aa42c696e6ab54831f68", "name": "fecad89cef65aa42c696e6ab54831f68", "fusion_lon": 0.0, "lon": -77.035657, "fusion_lat": 0.0}, {"lat": 38.92476, "type": "electric_scooter", "is_disabled": 0, "rental_uris": {"android": "https://dc.lft.to/lastmile_qr_scan", "ios": "https://dc.lft.to/lastmile_qr_scan"}, "is_reserved": 0, "bike_id": "c738e51b053ec381cf6c50a69e91e93d", "name": "c738e51b053ec381cf6c50a69e91e93d", "fusion_lon": 0.0, "lon": -77.02998766666667, "fusion_lat": 0.0}, {"lat": 38.908692, "type": "electric_scooter", "is_disabled": 0, "rental_uris": {"android": "https://dc.lft.to/lastmile_qr_scan", "ios": "https://dc.lft.to/lastmile_qr_scan"}, "is_reserved": 0, "bike_id": "07e2a05f86e7690df24f3ef4f957caf8", "name": "07e2a05f86e7690df24f3ef4f957caf8", "fusion_lon": 0.0, "lon": -77.02416016666666, "fusion_lat": 0.0}, {"lat": 38.9907685, "type": "electric_bike", "is_disabled": 0, "rental_uris": {"android": "https://dc.lft.to/lastmile_qr_scan", "ios": "https://dc.lft.to/lastmile_qr_scan"}, "is_reserved": 0, "bike_id": "e19ccd51d24da03cd917dabc76121a51", "name": "e19ccd51d24da03cd917dabc76121a51", "fusion_lon": 0.0, "lon": -77.02378666666667, "fusion_lat": 0.0}, {"lat": 38.920475833333334, "type": "electric_scooter", "is_disabled": 0, "rental_uris": {"android": "https://dc.lft.to/lastmile_qr_scan", "ios": "https://dc.lft.to/lastmile_qr_scan"}, "is_reserved": 0, "bike_id": "fadd315ad7b2fff1ca437b104e6745e8", "name": "fadd315ad7b2fff1ca437b104e6745e8", "fusion_lon": 0.0, "lon": -77.048106, "fusion_lat": 0.0}, {"lat": 38.8812605, "type": "electric_scooter", "is_disabled": 0, "rental_uris": {"android": "https://dc.lft.to/lastmile_qr_scan", "ios": "https://dc.lft.to/lastmile_qr_scan"}, "is_reserved": 0, "bike_id": "e22d1448642e17a8d51eef5f62e2acbd", "name": "e22d1448642e17a8d51eef5f62e2acbd", "fusion_lon": 0.0, "lon": -77.02073133333333, "fusion_lat": 0.0}, {"lat": 38.9090065, "type": "electric_scooter", "is_disabled": 0, "rental_uris": {"android": "https://dc.lft.to/lastmile_qr_scan", "ios": "https://dc.lft.to/lastmile_qr_scan"}, "is_reserved": 0, "bike_id": "cba43a39e2d8bb85c8630f7520d6c281", "name": "cba43a39e2d8bb85c8630f7520d6c281", "fusion_lon": 0.0, "lon": -77.07263316666666, "fusion_lat": 0.0}, {"lat": 38.892222833333335, "type": "electric_scooter", "is_disabled": 0, "rental_uris": {"android": "https://dc.lft.to/lastmile_qr_scan", "ios": "https://dc.lft.to/lastmile_qr_scan"}, "is_reserved": 0, "bike_id": "edb559853e4ed0826bade0f32f881cf9", "name": "edb559853e4ed0826bade0f32f881cf9", "fusion_lon": 0.0, "lon": -77.02218683333334, "fusion_lat": 0.0}, {"lat": 38.909754166666666, "type": "electric_bike", "is_disabled": 0, "rental_uris": {"android": "https://dc.lft.to/lastmile_qr_scan", "ios": "https://dc.lft.to/lastmile_qr_scan"}, "is_reserved": 0, "bike_id": "6151c26d3c34cf4ea7004c3aa42c991e", "name": "6151c26d3c34cf4ea7004c3aa42c991e", "fusion_lon": 0.0, "lon": -77.088237, "fusion_lat": 0.0}, {"lat": 38.91788783333333, "type": "electric_scooter", "is_disabled": 0, "rental_uris": {"android": "https://dc.lft.to/lastmile_qr_scan", "ios": "https://dc.lft.to/lastmile_qr_scan"}, "is_reserved": 0, "bike_id": "2d7d9e27cbb352165cab392a53ad90db", "name": "2d7d9e27cbb352165cab392a53ad90db", "fusion_lon": 0.0, "lon": -77.04359483333333, "fusion_lat": 0.0}, {"lat": 38.92357366666667, "type": "electric_bike", "is_disabled": 0, "rental_uris": {"android": "https://dc.lft.to/lastmile_qr_scan", "ios": "https://dc.lft.to/lastmile_qr_scan"}, "is_reserved": 0, "bike_id": "35bab2739ec6adbeff86730872418573", "name": "35bab2739ec6adbeff86730872418573", "fusion_lon": 0.0, "lon": -76.99251966666667, "fusion_lat": 0.0}, {"lat": 38.88417316666666, "type": "electric_scooter", "is_disabled": 0, "rental_uris": {"android": "https://dc.lft.to/lastmile_qr_scan", "ios": "https://dc.lft.to/lastmile_qr_scan"}, "is_reserved": 0, "bike_id": "a9848723d5e5115bf277a63af452c226", "name": "a9848723d5e5115bf277a63af452c226", "fusion_lon": 0.0, "lon": -77.03302383333333, "fusion_lat": 0.0}, {"lat": 38.901565, "type": "electric_scooter", "is_disabled": 0, "rental_uris": {"android": "https://dc.lft.to/lastmile_qr_scan", "ios": "https://dc.lft.to/lastmile_qr_scan"}, "is_reserved": 0, "bike_id": "0c1883c968848bf7e5aa33becc16e054", "name": "0c1883c968848bf7e5aa33becc16e054", "fusion_lon": 0.0, "lon": -77.028468, "fusion_lat": 0.0}, {"lat": 38.89357183333333, "type": "electric_scooter", "is_disabled": 0, "rental_uris": {"android": "https://dc.lft.to/lastmile_qr_scan", "ios": "https://dc.lft.to/lastmile_qr_scan"}, "is_reserved": 0, "bike_id": "fbd02711541f00ccc9c578d257b0e26f", "name": "fbd02711541f00ccc9c578d257b0e26f", "fusion_lon": 0.0, "lon": -77.003406, "fusion_lat": 0.0}, {"lat": 38.866609, "type": "electric_scooter", "is_disabled": 0, "rental_uris": {"android": "https://dc.lft.to/lastmile_qr_scan", "ios": "https://dc.lft.to/lastmile_qr_scan"}, "is_reserved": 0, "bike_id": "8f2667cb8a981b88d60756694f4f8183", "name": "8f2667cb8a981b88d60756694f4f8183", "fusion_lon": 0.0, "lon": -76.9888485, "fusion_lat": 0.0}, {"lat": 38.92251666666667, "type": "electric_scooter", "is_disabled": 0, "rental_uris": {"android": "https://dc.lft.to/lastmile_qr_scan", "ios": "https://dc.lft.to/lastmile_qr_scan"}, "is_reserved": 0, "bike_id": "f60a252f1d03c800e53e8d932fafed54", "name": "f60a252f1d03c800e53e8d932fafed54", "fusion_lon": 0.0, "lon": -77.03084383333334, "fusion_lat": 0.0}, {"lat": 38.911911, "type": "electric_scooter", "is_disabled": 0, "rental_uris": {"android": "https://dc.lft.to/lastmile_qr_scan", "ios": "https://dc.lft.to/lastmile_qr_scan"}, "is_reserved": 0, "bike_id": "2fe2dcc81e991cb0d0ce70ab55c1f6dc", "name": "2fe2dcc81e991cb0d0ce70ab55c1f6dc", "fusion_lon": 0.0, "lon": -77.03136083333334, "fusion_lat": 0.0}, {"lat": 38.869530166666664, "type": "electric_scooter", "is_disabled": 0, "rental_uris": {"android": "https://dc.lft.to/lastmile_qr_scan", "ios": "https://dc.lft.to/lastmile_qr_scan"}, "is_reserved": 0, "bike_id": "e40e73a25bf40c9450f04ed160e69b18", "name": "e40e73a25bf40c9450f04ed160e69b18", "fusion_lon": 0.0, "lon": -76.9695965, "fusion_lat": 0.0}, {"lat": 38.90493766666667, "type": "electric_scooter", "is_disabled": 0, "rental_uris": {"android": "https://dc.lft.to/lastmile_qr_scan", "ios": "https://dc.lft.to/lastmile_qr_scan"}, "is_reserved": 0, "bike_id": "497e0d17c5ede860678e7edd4faacd0d", "name": "497e0d17c5ede860678e7edd4faacd0d", "fusion_lon": 0.0, "lon": -77.029441, "fusion_lat": 0.0}, {"lat": 38.93611516666667, "type": "electric_scooter", "is_disabled": 0, "rental_uris": {"android": "https://dc.lft.to/lastmile_qr_scan", "ios": "https://dc.lft.to/lastmile_qr_scan"}, "is_reserved": 0, "bike_id": "46a2f88e79abe6abb242332758e2319c", "name": "46a2f88e79abe6abb242332758e2319c", "fusion_lon": 0.0, "lon": -77.058677, "fusion_lat": 0.0}, {"lat": 38.868487333333334, "type": "electric_bike", "is_disabled": 0, "rental_uris": {"android": "https://dc.lft.to/lastmile_qr_scan", "ios": "https://dc.lft.to/lastmile_qr_scan"}, "is_reserved": 0, "bike_id": "0ae4d42502a9d2f4e9857d80b0dc522c", "name": "0ae4d42502a9d2f4e9857d80b0dc522c", "fusion_lon": 0.0, "lon": -77.097253, "fusion_lat": 0.0}, {"lat": 38.89563116666667, "type": "electric_scooter", "is_disabled": 0, "rental_uris": {"android": "https://dc.lft.to/lastmile_qr_scan", "ios": "https://dc.lft.to/lastmile_qr_scan"}, "is_reserved": 0, "bike_id": "2a49c50d9290af50c31bf2d1fcf45f85", "name": "2a49c50d9290af50c31bf2d1fcf45f85", "fusion_lon": 0.0, "lon": -77.04674066666666, "fusion_lat": 0.0}, {"lat": 38.866766, "type": "electric_scooter", "is_disabled": 0, "rental_uris": {"android": "https://dc.lft.to/lastmile_qr_scan", "ios": "https://dc.lft.to/lastmile_qr_scan"}, "is_reserved": 0, "bike_id": "5827b4dacee4cad2c83dfd67aa98e3b0", "name": "5827b4dacee4cad2c83dfd67aa98e3b0", "fusion_lon": 0.0, "lon": -76.988832, "fusion_lat": 0.0}, {"lat": 39.0173905, "type": "electric_bike", "is_disabled": 0, "rental_uris": {"android": "https://dc.lft.to/lastmile_qr_scan", "ios": "https://dc.lft.to/lastmile_qr_scan"}, "is_reserved": 0, "bike_id": "bcd56213f0cc59792f72cbdc712df6d4", "name": "bcd56213f0cc59792f72cbdc712df6d4", "fusion_lon": 0.0, "lon": -77.063843, "fusion_lat": 0.0}, {"lat": 38.963173833333336, "type": "electric_bike", "is_disabled": 0, "rental_uris": {"android": "https://dc.lft.to/lastmile_qr_scan", "ios": "https://dc.lft.to/lastmile_qr_scan"}, "is_reserved": 0, "bike_id": "35e05bc148e349516f2be78ee4b42eab", "name": "35e05bc148e349516f2be78ee4b42eab", "fusion_lon": 0.0, "lon": -77.05757816666667, "fusion_lat": 0.0}, {"lat": 38.90145866666667, "type": "electric_scooter", "is_disabled": 0, "rental_uris": {"android": "https://dc.lft.to/lastmile_qr_scan", "ios": "https://dc.lft.to/lastmile_qr_scan"}, "is_reserved": 0, "bike_id": "63626a41f68056bc1d82a9c15f91f6f0", "name": "63626a41f68056bc1d82a9c15f91f6f0", "fusion_lon": 0.0, "lon": -77.0304145, "fusion_lat": 0.0}, {"lat": 38.918650166666666, "type": "electric_bike", "is_disabled": 0, "rental_uris": {"android": "https://dc.lft.to/lastmile_qr_scan", "ios": "https://dc.lft.to/lastmile_qr_scan"}, "is_reserved": 0, "bike_id": "4b9f59fd663d3967686cc9b1be5103bd", "name": "4b9f59fd663d3967686cc9b1be5103bd", "fusion_lon": 0.0, "lon": -76.9608185, "fusion_lat": 0.0}, {"lat": 38.88256033333333, "type": "electric_scooter", "is_disabled": 0, "rental_uris": {"android": "https://dc.lft.to/lastmile_qr_scan", "ios": "https://dc.lft.to/lastmile_qr_scan"}, "is_reserved": 0, "bike_id": "14afe3f5f9f843be5ac3889de59df0f7", "name": "14afe3f5f9f843be5ac3889de59df0f7", "fusion_lon": 0.0, "lon": -77.00348033333333, "fusion_lat": 0.0}, {"lat": 38.8335665, "type": "electric_bike", "is_disabled": 0, "rental_uris": {"android": "https://dc.lft.to/lastmile_qr_scan", "ios": "https://dc.lft.to/lastmile_qr_scan"}, "is_reserved": 0, "bike_id": "a561367da3b132e31a0cf11551e83717", "name": "a561367da3b132e31a0cf11551e83717", "fusion_lon": 0.0, "lon": -76.965585, "fusion_lat": 0.0}, {"lat": 38.879311666666666, "type": "electric_scooter", "is_disabled": 0, "rental_uris": {"android": "https://dc.lft.to/lastmile_qr_scan", "ios": "https://dc.lft.to/lastmile_qr_scan"}, "is_reserved": 0, "bike_id": "270824cb7777bf1f8ff45f8c4abf5a36", "name": "270824cb7777bf1f8ff45f8c4abf5a36", "fusion_lon": 0.0, "lon": -76.99932083333333, "fusion_lat": 0.0}, {"lat": 38.95062816666667, "type": "electric_bike", "is_disabled": 0, "rental_uris": {"android": "https://dc.lft.to/lastmile_qr_scan", "ios": "https://dc.lft.to/lastmile_qr_scan"}, "is_reserved": 0, "bike_id": "771f75ab5954e6859c719fb726d6536c", "name": "771f75ab5954e6859c719fb726d6536c", "fusion_lon": 0.0, "lon": -76.96734483333333, "fusion_lat": 0.0}, {"lat": 38.892019166666664, "type": "electric_scooter", "is_disabled": 0, "rental_uris": {"android": "https://dc.lft.to/lastmile_qr_scan", "ios": "https://dc.lft.to/lastmile_qr_scan"}, "is_reserved": 0, "bike_id": "5b75ffc4f3609e543c667f577fa2ad91", "name": "5b75ffc4f3609e543c667f577fa2ad91", "fusion_lon": 0.0, "lon": -77.00291683333333, "fusion_lat": 0.0}, {"lat": 38.904872, "type": "electric_scooter", "is_disabled": 0, "rental_uris": {"android": "https://dc.lft.to/lastmile_qr_scan", "ios": "https://dc.lft.to/lastmile_qr_scan"}, "is_reserved": 0, "bike_id": "07aa706aa5ae17e731b835502eedd98d", "name": "07aa706aa5ae17e731b835502eedd98d", "fusion_lon": 0.0, "lon": -77.0612445, "fusion_lat": 0.0}, {"lat": 38.94562483333333, "type": "electric_bike", "is_disabled": 0, "rental_uris": {"android": "https://dc.lft.to/lastmile_qr_scan", "ios": "https://dc.lft.to/lastmile_qr_scan"}, "is_reserved": 0, "bike_id": "04147feb66b8ff0e72b38fa6789d58bc", "name": "04147feb66b8ff0e72b38fa6789d58bc", "fusion_lon": 0.0, "lon": -77.05113033333333, "fusion_lat": 0.0}, {"lat": 38.928189333333336, "type": "electric_scooter", "is_disabled": 0, "rental_uris": {"android": "https://dc.lft.to/lastmile_qr_scan", "ios": "https://dc.lft.to/lastmile_qr_scan"}, "is_reserved": 0, "bike_id": "79406215e374a3964af3b8464def070b", "name": "79406215e374a3964af3b8464def070b", "fusion_lon": 0.0, "lon": -77.023506, "fusion_lat": 0.0}, {"lat": 38.898272666666664, "type": "electric_scooter", "is_disabled": 0, "rental_uris": {"android": "https://dc.lft.to/lastmile_qr_scan", "ios": "https://dc.lft.to/lastmile_qr_scan"}, "is_reserved": 0, "bike_id": "87edc0a60cddf6a018d09f48e2630cb2", "name": "87edc0a60cddf6a018d09f48e2630cb2", "fusion_lon": 0.0, "lon": -77.04318983333333, "fusion_lat": 0.0}, {"lat": 38.91473466666667, "type": "electric_scooter", "is_disabled": 0, "rental_uris": {"android": "https://dc.lft.to/lastmile_qr_scan", "ios": "https://dc.lft.to/lastmile_qr_scan"}, "is_reserved": 0, "bike_id": "f5dc8c93dff8b5c376afc74003b36d2e", "name": "f5dc8c93dff8b5c376afc74003b36d2e", "fusion_lon": 0.0, "lon": -77.03200816666667, "fusion_lat": 0.0}, {"lat": 38.90037383333333, "type": "electric_scooter", "is_disabled": 0, "rental_uris": {"android": "https://dc.lft.to/lastmile_qr_scan", "ios": "https://dc.lft.to/lastmile_qr_scan"}, "is_reserved": 0, "bike_id": "f242eea16749e41bf2e1694defb720be", "name": "f242eea16749e41bf2e1694defb720be", "fusion_lon": 0.0, "lon": -77.00189833333333, "fusion_lat": 0.0}, {"lat": 38.92172433333333, "type": "electric_scooter", "is_disabled": 0, "rental_uris": {"android": "https://dc.lft.to/lastmile_qr_scan", "ios": "https://dc.lft.to/lastmile_qr_scan"}, "is_reserved": 0, "bike_id": "b5ff82e4a3788ab4ac1f4c70e2975d4c", "name": "b5ff82e4a3788ab4ac1f4c70e2975d4c", "fusion_lon": 0.0, "lon": -76.9939935, "fusion_lat": 0.0}, {"lat": 38.934271, "type": "electric_scooter", "is_disabled": 0, "rental_uris": {"android": "https://dc.lft.to/lastmile_qr_scan", "ios": "https://dc.lft.to/lastmile_qr_scan"}, "is_reserved": 0, "bike_id": "7425ee9c817eea25f1996fad4d2ec928", "name": "7425ee9c817eea25f1996fad4d2ec928", "fusion_lon": 0.0, "lon": -77.05839683333333, "fusion_lat": 0.0}, {"lat": 38.94477083333334, "type": "electric_bike", "is_disabled": 0, "rental_uris": {"android": "https://dc.lft.to/lastmile_qr_scan", "ios": "https://dc.lft.to/lastmile_qr_scan"}, "is_reserved": 0, "bike_id": "21d939091ce243eda7eac30fb55e0ceb", "name": "21d939091ce243eda7eac30fb55e0ceb", "fusion_lon": 0.0, "lon": -77.00644783333334, "fusion_lat": 0.0}, {"lat": 38.900246, "type": "electric_scooter", "is_disabled": 0, "rental_uris": {"android": "https://dc.lft.to/lastmile_qr_scan", "ios": "https://dc.lft.to/lastmile_qr_scan"}, "is_reserved": 0, "bike_id": "5bcfe61113ebe23cd36064e6c3e041a5", "name": "5bcfe61113ebe23cd36064e6c3e041a5", "fusion_lon": 0.0, "lon": -77.04382616666666, "fusion_lat": 0.0}, {"lat": 38.91582533333333, "type": "electric_scooter", "is_disabled": 0, "rental_uris": {"android": "https://dc.lft.to/lastmile_qr_scan", "ios": "https://dc.lft.to/lastmile_qr_scan"}, "is_reserved": 0, "bike_id": "7c04da76896068082dee288b4fcb1b95", "name": "7c04da76896068082dee288b4fcb1b95", "fusion_lon": 0.0, "lon": -77.0200045, "fusion_lat": 0.0}, {"lat": 38.91627716666667, "type": "electric_scooter", "is_disabled": 0, "rental_uris": {"android": "https://dc.lft.to/lastmile_qr_scan", "ios": "https://dc.lft.to/lastmile_qr_scan"}, "is_reserved": 0, "bike_id": "1ff8b8041bc4ccc9d0d76030030f4e1d", "name": "1ff8b8041bc4ccc9d0d76030030f4e1d", "fusion_lon": 0.0, "lon": -77.0319745, "fusion_lat": 0.0}, {"lat": 38.9104345, "type": "electric_scooter", "is_disabled": 0, "rental_uris": {"android": "https://dc.lft.to/lastmile_qr_scan", "ios": "https://dc.lft.to/lastmile_qr_scan"}, "is_reserved": 0, "bike_id": "ef0de0fa63789cd21e24f9c4fc5745c2", "name": "ef0de0fa63789cd21e24f9c4fc5745c2", "fusion_lon": 0.0, "lon": -77.0362055, "fusion_lat": 0.0}, {"lat": 38.9178155, "type": "electric_scooter", "is_disabled": 0, "rental_uris": {"android": "https://dc.lft.to/lastmile_qr_scan", "ios": "https://dc.lft.to/lastmile_qr_scan"}, "is_reserved": 0, "bike_id": "074f9ec9c6a234526e89ccce9bb7cbd5", "name": "074f9ec9c6a234526e89ccce9bb7cbd5", "fusion_lon": 0.0, "lon": -77.02309633333333, "fusion_lat": 0.0}, {"lat": 38.885843666666666, "type": "electric_scooter", "is_disabled": 0, "rental_uris": {"android": "https://dc.lft.to/lastmile_qr_scan", "ios": "https://dc.lft.to/lastmile_qr_scan"}, "is_reserved": 0, "bike_id": "c273b71dc46d80f335451191fca1cc24", "name": "c273b71dc46d80f335451191fca1cc24", "fusion_lon": 0.0, "lon": -77.01224333333333, "fusion_lat": 0.0}, {"lat": 38.90338666666667, "type": "electric_bike", "is_disabled": 0, "rental_uris": {"android": "https://dc.lft.to/lastmile_qr_scan", "ios": "https://dc.lft.to/lastmile_qr_scan"}, "is_reserved": 0, "bike_id": "241b002a92831d39c031c292d83eb3b9", "name": "241b002a92831d39c031c292d83eb3b9", "fusion_lon": 0.0, "lon": -76.97523866666667, "fusion_lat": 0.0}, {"lat": 38.91594583333333, "type": "electric_scooter", "is_disabled": 0, "rental_uris": {"android": "https://dc.lft.to/lastmile_qr_scan", "ios": "https://dc.lft.to/lastmile_qr_scan"}, "is_reserved": 0, "bike_id": "1f65b9048ed4b0dbdfabee1f5f27a619", "name": "1f65b9048ed4b0dbdfabee1f5f27a619", "fusion_lon": 0.0, "lon": -77.023416, "fusion_lat": 0.0}, {"lat": 38.92025016666667, "type": "electric_scooter", "is_disabled": 0, "rental_uris": {"android": "https://dc.lft.to/lastmile_qr_scan", "ios": "https://dc.lft.to/lastmile_qr_scan"}, "is_reserved": 0, "bike_id": "81b8b7c29b7389f2e86bae307dbb4138", "name": "81b8b7c29b7389f2e86bae307dbb4138", "fusion_lon": 0.0, "lon": -76.99567083333334, "fusion_lat": 0.0}, {"lat": 38.88521083333333, "type": "electric_scooter", "is_disabled": 0, "rental_uris": {"android": "https://dc.lft.to/lastmile_qr_scan", "ios": "https://dc.lft.to/lastmile_qr_scan"}, "is_reserved": 0, "bike_id": "c3a3700acb6543378cfda5b6a711f4b8", "name": "c3a3700acb6543378cfda5b6a711f4b8", "fusion_lon": 0.0, "lon": -76.94825816666666, "fusion_lat": 0.0},