{"data": {"bikes": [{"lon": -77.11411533333333, "fusion_lon": 0.0, "bike_id": "d9aa88478e6f8b8b7ac22495e79f2749", "type": "electric_bike", "name": "d9aa88478e6f8b8b7ac22495e79f2749", "rental_uris": {"android": "https://dc.lft.to/lastmile_qr_scan", "ios": "https://dc.lft.to/lastmile_qr_scan"}, "is_disabled": 0, "fusion_lat": 0.0, "lat": 38.855285, "is_reserved": 0}, {"lon": -77.058626, "fusion_lon": 0.0, "bike_id": "f49bd79182df1d7b828695c868f2af5b", "type": "electric_scooter", "name": "f49bd79182df1d7b828695c868f2af5b", "rental_uris": {"android": "https://dc.lft.to/lastmile_qr_scan", "ios": "https://dc.lft.to/lastmile_qr_scan"}, "is_disabled": 0, "fusion_lat": 0.0, "lat": 38.9360775, "is_reserved": 0}, {"lon": -77.03204983333333, "fusion_lon": 0.0, "bike_id": "db5a22d8c5dc0e39da803d3ed7b43713", "type": "electric_scooter", "name": "db5a22d8c5dc0e39da803d3ed7b43713", "rental_uris": {"android": "https://dc.lft.to/lastmile_qr_scan", "ios": "https://dc.lft.to/lastmile_qr_scan"}, "is_disabled": 0, "fusion_lat": 0.0, "lat": 38.91512316666667, "is_reserved": 0}, {"lon": -77.034673, "fusion_lon": 0.0, "bike_id": "fcd9522e701450a25afcb343d2048b18", "type": "electric_scooter", "name": "fcd9522e701450a25afcb343d2048b18", "rental_uris": {"android": "https://dc.lft.to/lastmile_qr_scan", "ios": "https://dc.lft.to/lastmile_qr_scan"}, "is_disabled": 0, "fusion_lat": 0.0, "lat": 38.908506333333335, "is_reserved": 0}, {"lon": -77.04183066666667, "fusion_lon": 0.0, "bike_id": "ade4122f86b811ff7a973159b5b2c45e", "type": "electric_scooter", "name": "ade4122f86b811ff7a973159b5b2c45e", "rental_uris": {"android": "https://dc.lft.to/lastmile_qr_scan", "ios": "https://dc.lft.to/lastmile_qr_scan"}, "is_disabled": 0, "fusion_lat": 0.0, "lat": 38.91549216666667, "is_reserved": 0}, {"lon": -76.94421966666667, "fusion_lon": 0.0, "bike_id": "85acc17b77c5b67eaf567038caa965f6", "type": "electric_bike", "name": "85acc17b77c5b67eaf567038caa965f6", "rental_uris": {"android": "https://dc.lft.to/lastmile_qr_scan", "ios": "https://dc.lft.to/lastmile_qr_scan"}, "is_disabled": 0, "fusion_lat": 0.0, "lat": 38.99231283333334, "is_reserved": 0}, {"lon": -77.039016, "fusion_lon": 0.0, "bike_id": "02210d2037611f55c559f9ab70db86c1", "type": "electric_scooter", "name": "02210d2037611f55c559f9ab70db86c1", "rental_uris": {"android": "https://dc.lft.to/lastmile_qr_scan", "ios": "https://dc.lft.to/lastmile_qr_scan"}, "is_disabled": 0, "fusion_lat": 0.0, "lat": 38.922732, "is_reserved": 0}, {"lon": -77.02789, "fusion_lon": 0.0, "bike_id": "96a141dde2be0e0bf936cea0a22c0a8e", "type": "electric_scooter", "name": "96a141dde2be0e0bf936cea0a22c0a8e", "rental_uris": {"android": "https://dc.lft.to/lastmile_qr_scan", "ios": "https://dc.lft.to/lastmile_qr_scan"}, "is_disabled": 0, "fusion_lat": 0.0, "lat": 38.90230283333333, "is_reserved": 0}, {"lon": -77.04019716666667, "fusion_lon": 0.0, "bike_id": "02baa6d822f29a4063e834931a09e651", "type": "electric_scooter", "name": "02baa6d822f29a4063e834931a09e651", "rental_uris": {"android": "https://dc.lft.to/lastmile_qr_scan", "ios": "https://dc.lft.to/lastmile_qr_scan"}, "is_disabled": 0, "fusion_lat": 0.0, "lat": 38.90293883333333, "is_reserved": 0}, {"lon": -77.03318833333333, "fusion_lon": 0.0, "bike_id": "f071cab622973bf6372a6afc972563ac", "type": "electric_scooter", "name": "f071cab622973bf6372a6afc972563ac", "rental_uris": {"android": "https://dc.lft.to/lastmile_qr_scan", "ios": "https://dc.lft.to/lastmile_qr_scan"}, "is_disabled": 0, "fusion_lat": 0.0, "lat": 38.898228, "is_reserved": 0}, {"lon": -77.12021866666667, "fusion_lon": 0.0, "bike_id": "642ef1d1eb166d1aa41e39b1af145b58", "type": "electric_bike", "name": "642ef1d1eb166d1aa41e39b1af145b58", "rental_uris": {"android": "https://dc.lft.to/lastmile_qr_scan", "ios": "https://dc.lft.to/lastmile_qr_scan"}, "is_disabled": 0, "fusion_lat": 0.0, "lat": 38.857863333333334, "is_reserved": 0}, {"lon": -76.94894966666666, "fusion_lon": 0.0, "bike_id": "372cf75044407cb8200082893dcbfbc1", "type": "electric_scooter", "name": "372cf75044407cb8200082893dcbfbc1", "rental_uris": {"android": "https://dc.lft.to/lastmile_qr_scan", "ios": "https://dc.lft.to/lastmile_qr_scan"}, "is_disabled": 0, "fusion_lat": 0.0, "lat": 38.895318833333334, "is_reserved": 0}, {"lon": -77.03397083333333, "fusion_lon": 0.0, "bike_id": "186d000efa9cefd794bd789797302e10", "type": "electric_scooter", "name": "186d000efa9cefd794bd789797302e10", "rental_uris": {"android": "https://dc.lft.to/lastmile_qr_scan", "ios": "https://dc.lft.to/lastmile_qr_scan"}, "is_disabled": 0, "fusion_lat": 0.0, "lat": 38.92444316666667, "is_reserved": 0}, {"lon": -77.03196716666666, "fusion_lon": 0.0, "bike_id": "5f68b6a209f051b8fa5270a65b698f8e", "type": "electric_scooter", "name": "5f68b6a209f051b8fa5270a65b698f8e", "rental_uris": {"android": "https://dc.lft.to/lastmile_qr_scan", "ios": "https://dc.lft.to/lastmile_qr_scan"}, "is_disabled": 0, "fusion_lat": 0.0, "lat": 38.901089166666665, "is_reserved": 0}, {"lon": -77.1146685, "fusion_lon": 0.0, "bike_id": "4d938cc5933100e3646a1a01e05bddf1", "type": "electric_bike", "name": "4d938cc5933100e3646a1a01e05bddf1", "rental_uris": {"android": "https://dc.lft.to/lastmile_qr_scan", "ios": "https://dc.lft.to/lastmile_qr_scan"}, "is_disabled": 0, "fusion_lat": 0.0, "lat": 38.841462, "is_reserved": 0}, {"lon": -77.027906, "fusion_lon": 0.0, "bike_id": "b6e5c9288b50ad1b2d60857476285d31", "type": "electric_scooter", "name": "b6e5c9288b50ad1b2d60857476285d31", "rental_uris": {"android": "https://dc.lft.to/lastmile_qr_scan", "ios": "https://dc.lft.to/lastmile_qr_scan"}, "is_disabled": 0, "fusion_lat": 0.0, "lat": 38.927713833333335, "is_reserved": 0}, {"lon": -77.00896083333333, "fusion_lon": 0.0, "bike_id": "59c2e68630548fbf5ed0676746e3eece", "type": "electric_scooter", "name": "59c2e68630548fbf5ed0676746e3eece", "rental_uris": {"android": "https://dc.lft.to/lastmile_qr_scan", "ios": "https://dc.lft.to/lastmile_qr_scan"}, "is_disabled": 0, "fusion_lat": 0.0, "lat": 38.8767415, "is_reserved": 0}, {"lon": -77.00339216666667, "fusion_lon": 0.0, "bike_id": "cc2e0206fd1991930fb570d5a215fbbc", "type": "electric_scooter", "name": "cc2e0206fd1991930fb570d5a215fbbc", "rental_uris": {"android": "https://dc.lft.to/lastmile_qr_scan", "ios": "https://dc.lft.to/lastmile_qr_scan"}, "is_disabled": 0, "fusion_lat": 0.0, "lat": 38.919422833333336, "is_reserved": 0}, {"lon": -76.96986983333333, "fusion_lon": 0.0, "bike_id": "840eb20fcfc640318bdfef00d7ea587e", "type": "electric_scooter", "name": "840eb20fcfc640318bdfef00d7ea587e", "rental_uris": {"android": "https://dc.lft.to/lastmile_qr_scan", "ios": "https://dc.lft.to/lastmile_qr_scan"}, "is_disabled": 0, "fusion_lat": 0.0, "lat": 38.8786675, "is_reserved": 0}, {"lon": -77.0297525, "fusion_lon": 0.0, "bike_id": "dfe88a4f21c1b488ce0e3aef78292475", "type": "electric_scooter", "name": "dfe88a4f21c1b488ce0e3aef78292475", "rental_uris": {"android": "https://dc.lft.to/lastmile_qr_scan", "ios": "https://dc.lft.to/lastmile_qr_scan"}, "is_disabled": 0, "fusion_lat": 0.0, "lat": 38.90512433333333, "is_reserved": 0}, {"lon": -77.00069683333334, "fusion_lon": 0.0, "bike_id": "aa19d1da7e5d8d65c6b36c128a9045c3", "type": "electric_scooter", "name": "aa19d1da7e5d8d65c6b36c128a9045c3", "rental_uris": {"android": "https://dc.lft.to/lastmile_qr_scan", "ios": "https://dc.lft.to/lastmile_qr_scan"}, "is_disabled": 0, "fusion_lat": 0.0, "lat": 38.88680016666667, "is_reserved": 0}, {"lon": -76.9425685, "fusion_lon": 0.0, "bike_id": "95eb337f997aa20394a46a81718e0962", "type": "electric_scooter", "name": "95eb337f997aa20394a46a81718e0962", "rental_uris": {"android": "https://dc.lft.to/lastmile_qr_scan", "ios": "https://dc.lft.to/lastmile_qr_scan"}, "is_disabled": 0, "fusion_lat": 0.0, "lat": 38.89845416666667, "is_reserved": 0}, {"lon": -77.04621866666666, "fusion_lon": 0.0, "bike_id": "690f2207cc1093628df369504d3c0811", "type": "electric_scooter", "name": "690f2207cc1093628df369504d3c0811", "rental_uris": {"android": "https://dc.lft.to/lastmile_qr_scan", "ios": "https://dc.lft.to/lastmile_qr_scan"}, "is_disabled": 0, "fusion_lat": 0.0, "lat": 38.91805033333333, "is_reserved": 0}, {"lon": -76.9914755, "fusion_lon": 0.0, "bike_id": "1b1d0b50cf3d12c73ac2c8baa17e4e02", "type": "electric_scooter", "name": "1b1d0b50cf3d12c73ac2c8baa17e4e02", "rental_uris": {"android": "https://dc.lft.to/lastmile_qr_scan", "ios": "https://dc.lft.to/lastmile_qr_scan"}, "is_disabled": 0, "fusion_lat": 0.0, "lat": 38.88531433333333, "is_reserved": 0}, {"lon": -76.9268315, "fusion_lon": 0.0, "bike_id": "929fc002a71470d3cd8126775319d717", "type": "electric_scooter", "name": "929fc002a71470d3cd8126775319d717", "rental_uris": {"android": "https://dc.lft.to/lastmile_qr_scan", "ios": "https://dc.lft.to/lastmile_qr_scan"}, "is_disabled": 0, "fusion_lat": 0.0, "lat": 38.8884845, "is_reserved": 0}, {"lon": -77.04557583333333, "fusion_lon": 0.0, "bike_id": "9e7c3eab2941f1acd4ae7d9528b41458", "type": "electric_scooter", "name": "9e7c3eab2941f1acd4ae7d9528b41458", "rental_uris": {"android": "https://dc.lft.to/lastmile_qr_scan", "ios": "https://dc.lft.to/lastmile_qr_scan"}, "is_disabled": 0, "fusion_lat": 0.0, "lat": 38.91764966666667, "is_reserved": 0}, {"lon": -77.041244, "fusion_lon": 0.0, "bike_id": "70afa729e8a06d481d6aabd0443a6814", "type": "electric_scooter", "name": "70afa729e8a06d481d6aabd0443a6814", "rental_uris": {"android": "https://dc.lft.to/lastmile_qr_scan", "ios": "https://dc.lft.to/lastmile_qr_scan"}, "is_disabled": 0, "fusion_lat": 0.0, "lat": 38.93355416666667, "is_reserved": 0}, {"lon": -77.02584533333334, "fusion_lon": 0.0, "bike_id": "12c08af6b720d028fb2efe602822c639", "type": "electric_scooter", "name": "12c08af6b720d028fb2efe602822c639", "rental_uris": {"android": "https://dc.lft.to/lastmile_qr_scan", "ios": "https://dc.lft.to/lastmile_qr_scan"}, "is_disabled": 0, "fusion_lat": 0.0, "lat": 38.92518533333333, "is_reserved": 0}, {"lon": -77.03435733333333, "fusion_lon": 0.0, "bike_id": "dcdea38052cad09e041e7a9f1ae8db44", "type": "electric_scooter", "name": "dcdea38052cad09e041e7a9f1ae8db44", "rental_uris": {"android": "https://dc.lft.to/lastmile_qr_scan", "ios": "https://dc.lft.to/lastmile_qr_scan"}, "is_disabled": 0, "fusion_lat": 0.0, "lat": 38.9083695, "is_reserved": 0}, {"lon": -77.00777833333333, "fusion_lon": 0.0, "bike_id": "9a74d4e289c65fbe1ecd22471c3be565", "type": "electric_scooter", "name": "9a74d4e289c65fbe1ecd22471c3be565", "rental_uris": {"android": "https://dc.lft.to/lastmile_qr_scan", "ios": "https://dc.lft.to/lastmile_qr_scan"}, "is_disabled": 0, "fusion_lat": 0.0, "lat": 38.91739616666667, "is_reserved": 0}, {"lon": -76.98335483333334, "fusion_lon": 0.0, "bike_id": "cacb70afe7e6a19c399240bcd871a3fb", "type": "electric_scooter", "name": "cacb70afe7e6a19c399240bcd871a3fb", "rental_uris": {"android": "https://dc.lft.to/lastmile_qr_scan", "ios": "https://dc.lft.to/lastmile_qr_scan"}, "is_disabled": 0, "fusion_lat": 0.0, "lat": 38.86562933333333, "is_reserved": 0}, {"lon": -77.1297795, "fusion_lon": 0.0, "bike_id": "a5588a32461f47d68d87cd00da27a5d3", "type": "electric_bike", "name": "a5588a32461f47d68d87cd00da27a5d3", "rental_uris": {"android": "https://dc.lft.to/lastmile_qr_scan", "ios": "https://dc.lft.to/lastmile_qr_scan"}, "is_disabled": 0, "fusion_lat": 0.0, "lat": 38.799799, "is_reserved": 0}, {"lon": -77.02165766666667, "fusion_lon": 0.0, "bike_id": "fbd4be46f9aab03181f4dd11a4d35c80", "type": "electric_scooter", "name": "fbd4be46f9aab03181f4dd11a4d35c80", "rental_uris": {"android": "https://dc.lft.to/lastmile_qr_scan", "ios": "https://dc.lft.to/lastmile_qr_scan"}, "is_disabled": 0, "fusion_lat": 0.0, "lat": 38.92599033333333, "is_reserved": 0}, {"lon": -77.019876, "fusion_lon": 0.0, "bike_id": "9475aa361ea52872978b72c795baa995", "type": "electric_scooter", "name": "9475aa361ea52872978b72c795baa995", "rental_uris": {"android": "https://dc.lft.to/lastmile_qr_scan", "ios": "https://dc.lft.to/lastmile_qr_scan"}, "is_disabled": 0, "fusion_lat": 0.0, "lat": 38.930803, "is_reserved": 0}, {"lon": -77.02953016666666, "fusion_lon": 0.0, "bike_id": "8b5acd19faa3dbe65e3098f90f47196a", "type": "electric_scooter", "name": "8b5acd19faa3dbe65e3098f90f47196a", "rental_uris": {"android": "https://dc.lft.to/lastmile_qr_scan", "ios": "https://dc.lft.to/lastmile_qr_scan"}, "is_disabled": 0, "fusion_lat": 0.0, "lat": 38.917125, "is_reserved": 0}, {"lon": -77.0216895, "fusion_lon": 0.0, "bike_id": "c9ebdbaa71cf9d936c59fe6c40cb7f2f", "type": "electric_scooter", "name": "c9ebdbaa71cf9d936c59fe6c40cb7f2f", "rental_uris": {"android": "https://dc.lft.to/lastmile_qr_scan", "ios": "https://dc.lft.to/lastmile_qr_scan"}, "is_disabled": 0, "fusion_lat": 0.0, "lat": 38.942891833333334, "is_reserved": 0}, {"lon": -77.0635275, "fusion_lon": 0.0, "bike_id": "b078969c0b6c7ddea02845779b3d6fa3", "type": "electric_scooter", "name": "b078969c0b6c7ddea02845779b3d6fa3", "rental_uris": {"android": "https://dc.lft.to/lastmile_qr_scan", "ios": "https://dc.lft.to/lastmile_qr_scan"}, "is_disabled": 0, "fusion_lat": 0.0, "lat": 38.94433, "is_reserved": 0}, {"lon": -76.987462, "fusion_lon": 0.0, "bike_id": "ef22fe358872d6ef0236dfb054a0456f", "type": "electric_bike", "name": "ef22fe358872d6ef0236dfb054a0456f", "rental_uris": {"android": "https://dc.lft.to/lastmile_qr_scan", "ios": "https://dc.lft.to/lastmile_qr_scan"}, "is_disabled": 0, "fusion_lat": 0.0, "lat": 38.896071666666664, "is_reserved": 0}, {"lon": -77.0093225, "fusion_lon": 0.0, "bike_id": "628275c0e19920959fe8c22030a9ce93", "type": "electric_scooter", "name": "628275c0e19920959fe8c22030a9ce93", "rental_uris": {"android": "https://dc.lft.to/lastmile_qr_scan", "ios": "https://dc.lft.to/lastmile_qr_scan"}, "is_disabled": 0, "fusion_lat": 0.0, "lat": 38.87507033333333, "is_reserved": 0}, {"lon": -76.97631283333334, "fusion_lon": 0.0, "bike_id": "f6725036bb8ac076026f196db84c4a7c", "type": "electric_scooter", "name": "f6725036bb8ac076026f196db84c4a7c", "rental_uris": {"android": "https://dc.lft.to/lastmile_qr_scan", "ios": "https://dc.lft.to/lastmile_qr_scan"}, "is_disabled": 0, "fusion_lat": 0.0, "lat": 38.901586, "is_reserved": 0}, {"lon": -77.0412115, "fusion_lon": 0.0, "bike_id": "ea88685d66e9a0316fd9dd43f35f2954", "type": "electric_scooter", "name": "ea88685d66e9a0316fd9dd43f35f2954", "rental_uris": {"android": "https://dc.lft.to/lastmile_qr_scan", "ios": "https://dc.lft.to/lastmile_qr_scan"}, "is_disabled": 0, "fusion_lat": 0.0, "lat": 38.92528766666667, "is_reserved": 0}, {"lon": -77.01228016666667, "fusion_lon": 0.0, "bike_id": "6d9d0ca4c922ca455623c0c1b5402d46", "type": "electric_scooter", "name": "6d9d0ca4c922ca455623c0c1b5402d46", "rental_uris": {"android": "https://dc.lft.to/lastmile_qr_scan", "ios": "https://dc.lft.to/lastmile_qr_scan"}, "is_disabled": 0, "fusion_lat": 0.0, "lat": 38.917575, "is_reserved": 0}, {"lon": -77.03455766666667, "fusion_lon": 0.0, "bike_id": "c4b78df1e4f9c0f2d400fa06e0869604", "type": "electric_scooter", "name": "c4b78df1e4f9c0f2d400fa06e0869604", "rental_uris": {"android": "https://dc.lft.to/lastmile_qr_scan", "ios": "https://dc.lft.to/lastmile_qr_scan"}, "is_disabled": 0, "fusion_lat": 0.0, "lat": 38.9263195, "is_reserved": 0}, {"lon": -77.035985, "fusion_lon": 0.0, "bike_id": "5e59b90ac98f932a96d7de192a045488", "type": "electric_scooter", "name": "5e59b90ac98f932a96d7de192a045488", "rental_uris": {"android": "https://dc.lft.to/lastmile_qr_scan", "ios": "https://dc.lft.to/lastmile_qr_scan"}, "is_disabled": 0, "fusion_lat": 0.0, "lat": 38.93147733333333, "is_reserved": 0}, {"lon": -77.03215133333333, "fusion_lon": 0.0, "bike_id": "ee266ce187be15be1f5a69b889eabfa0", "type": "electric_scooter", "name": "ee266ce187be15be1f5a69b889eabfa0", "rental_uris": {"android": "https://dc.lft.to/lastmile_qr_scan", "ios": "https://dc.lft.to/lastmile_qr_scan"}, "is_disabled": 0, "fusion_lat": 0.0, "lat": 38.88472, "is_reserved": 0}, {"lon": -77.04495983333334, "fusion_lon": 0.0, "bike_id": "12dfbcc8bd14fd0f340eeb701dfb8eef", "type": "electric_scooter", "name": "12dfbcc8bd14fd0f340eeb701dfb8eef", "rental_uris": {"android": "https://dc.lft.to/lastmile_qr_scan", "ios": "https://dc.lft.to/lastmile_qr_scan"}, "is_disabled": 0, "fusion_lat": 0.0, "lat": 38.898205, "is_reserved": 0}, {"lon": -77.02273316666667, "fusion_lon": 0.0, "bike_id": "56792cdc6a81aa5af3fa4cf45d150fc6", "type": "electric_scooter", "name": "56792cdc6a81aa5af3fa4cf45d150fc6", "rental_uris": {"android": "https://dc.lft.to/lastmile_qr_scan", "ios": "https://dc.lft.to/lastmile_qr_scan"}, "is_disabled": 0, "fusion_lat": 0.0, "lat": 38.895211833333335, "is_reserved": 0}, {"lon": -77.05113783333333, "fusion_lon": 0.0, "bike_id": "84cd59fc18e48ba2319320df309891ba", "type": "electric_bike", "name": "84cd59fc18e48ba2319320df309891ba", "rental_uris": {"android": "https://dc.lft.to/lastmile_qr_scan", "ios": "https://dc.lft.to/lastmile_qr_scan"}, "is_disabled": 0, "fusion_lat": 0.0, "lat": 38.81330616666666, "is_reserved": 0}, {"lon": -77.03235533333333, "fusion_lon": 0.0, "bike_id": "01fbea18c6795f074d4b4a1a129308c2", "type": "electric_scooter", "name": "01fbea18c6795f074d4b4a1a129308c2", "rental_uris": {"android": "https://dc.lft.to/lastmile_qr_scan", "ios": "https://dc.lft.to/lastmile_qr_scan"}, "is_disabled": 0, "fusion_lat": 0.0, "lat": 38.90960366666667, "is_reserved": 0}, {"lon": -76.96909016666666, "fusion_lon": 0.0, "bike_id": "bd836c8adbc5542f895bc47aa75c1a11", "type": "electric_scooter", "name": "bd836c8adbc5542f895bc47aa75c1a11", "rental_uris": {"android": "https://dc.lft.to/lastmile_qr_scan", "ios": "https://dc.lft.to/lastmile_qr_scan"}, "is_disabled": 0, "fusion_lat": 0.0, "lat": 38.872945333333334, "is_reserved": 0}, {"lon": -77.00858383333333, "fusion_lon": 0.0, "bike_id": "1ce9a6bcb819f8e071de7b36d2eeb33a", "type": "electric_scooter", "name": "1ce9a6bcb819f8e071de7b36d2eeb33a", "rental_uris": {"android": "https://dc.lft.to/lastmile_qr_scan", "ios": "https://dc.lft.to/lastmile_qr_scan"}, "is_disabled": 0, "fusion_lat": 0.0, "lat": 38.87637516666667, "is_reserved": 0}, {"lon": -77.01105283333334, "fusion_lon": 0.0, "bike_id": "af146cb37896487cc25b5b806e3dae89", "type": "electric_scooter", "name": "af146cb37896487cc25b5b806e3dae89", "rental_uris": {"android": "https://dc.lft.to/lastmile_qr_scan", "ios": "https://dc.lft.to/lastmile_qr_scan"}, "is_disabled": 0, "fusion_lat": 0.0, "lat": 38.909672, "is_reserved": 0}, {"lon": -77.0498295, "fusion_lon": 0.0, "bike_id": "70103084015a434a92ffe6acbcf9fc85", "type": "electric_scooter", "name": "70103084015a434a92ffe6acbcf9fc85", "rental_uris": {"android": "https://dc.lft.to/lastmile_qr_scan", "ios": "https://dc.lft.to/lastmile_qr_scan"}, "is_disabled": 0, "fusion_lat": 0.0, "lat": 38.89835633333333, "is_reserved": 0}, {"lon": -76.98150133333333, "fusion_lon": 0.0, "bike_id": "0e54a633f06ed9c8994a13b82ae61935", "type": "electric_scooter", "name": "0e54a633f06ed9c8994a13b82ae61935", "rental_uris": {"android": "https://dc.lft.to/lastmile_qr_scan", "ios": "https://dc.lft.to/lastmile_qr_scan"}, "is_disabled": 0, "fusion_lat": 0.0, "lat": 38.89745583333333, "is_reserved": 0}, {"lon": -77.02697483333333, "fusion_lon": 0.0, "bike_id": "0d4ccb2a0b5446153577569f3a38844d", "type": "electric_scooter", "name": "0d4ccb2a0b5446153577569f3a38844d", "rental_uris": {"android": "https://dc.lft.to/lastmile_qr_scan", "ios": "https://dc.lft.to/lastmile_qr_scan"}, "is_disabled": 0, "fusion_lat": 0.0, "lat": 38.906843, "is_reserved": 0}, {"lon": -77.00716783333333, "fusion_lon": 0.0, "bike_id": "161666bbaf306a48d8c4faf8f2cc02d9", "type": "electric_scooter", "name": "161666bbaf306a48d8c4faf8f2cc02d9", "rental_uris": {"android": "https://dc.lft.to/lastmile_qr_scan", "ios": "https://dc.lft.to/lastmile_qr_scan"}, "is_disabled": 0, "fusion_lat": 0.0, "lat": 38.9254405, "is_reserved": 0}, {"lon": -77.01950566666666, "fusion_lon": 0.0, "bike_id": "6a49f1e3f9dfcd06b8799be4bfb6aaa0", "type": "electric_scooter", "name": "6a49f1e3f9dfcd06b8799be4bfb6aaa0", "rental_uris": {"android": "https://dc.lft.to/lastmile_qr_scan", "ios": "https://dc.lft.to/lastmile_qr_scan"}, "is_disabled": 0, "fusion_lat": 0.0, "lat": 38.924098, "is_reserved": 0}, {"lon": -76.96831766666666, "fusion_lon": 0.0, "bike_id": "5f4aea1e5b29a8022ed00ca73d699a7e", "type": "electric_scooter", "name": "5f4aea1e5b29a8022ed00ca73d699a7e", "rental_uris": {"android": "https://dc.lft.to/lastmile_qr_scan", "ios": "https://dc.lft.to/lastmile_qr_scan"}, "is_disabled": 0, "fusion_lat": 0.0, "lat": 38.8733815, "is_reserved": 0}, {"lon": -77.03848216666667, "fusion_lon": 0.0, "bike_id": "3f18470d3378f5bda096d922a23f3e15", "type": "electric_scooter", "name": "3f18470d3378f5bda096d922a23f3e15", "rental_uris": {"android": "https://dc.lft.to/lastmile_qr_scan", "ios": "https://dc.lft.to/lastmile_qr_scan"}, "is_disabled": 0, "fusion_lat": 0.0, "lat": 38.9154465, "is_reserved": 0}, {"lon": -77.04007666666666, "fusion_lon": 0.0, "bike_id": "ec7cef972bc12b3cb3bbfa94ed46770b", "type": "electric_scooter", "name": "ec7cef972bc12b3cb3bbfa94ed46770b", "rental_uris": {"android": "https://dc.lft.to/lastmile_qr_scan", "ios": "https://dc.lft.to/lastmile_qr_scan"}, "is_disabled": 0, "fusion_lat": 0.0, "lat": 38.90329416666667, "is_reserved": 0}, {"lon": -77.00930233333334, "fusion_lon": 0.0, "bike_id": "c539178225aee6a43741c080dc8ba755", "type": "electric_scooter", "name": "c539178225aee6a43741c080dc8ba755", "rental_uris": {"android": "https://dc.lft.to/lastmile_qr_scan", "ios": "https://dc.lft.to/lastmile_qr_scan"}, "is_disabled": 0, "fusion_lat": 0.0, "lat": 38.912628, "is_reserved": 0}, {"lon": -77.026297, "fusion_lon": 0.0, "bike_id": "3b9a56259d032bed7d23a4cb9f0fcc96", "type": "electric_scooter", "name": "3b9a56259d032bed7d23a4cb9f0fcc96", "rental_uris": {"android": "https://dc.lft.to/lastmile_qr_scan", "ios": "https://dc.lft.to/lastmile_qr_scan"}, "is_disabled": 0, "fusion_lat": 0.0, "lat": 38.887656666666665, "is_reserved": 0}, {"lon": -77.024018, "fusion_lon": 0.0, "bike_id": "9173e5101433179ff58f17d443578981", "type": "electric_scooter", "name": "9173e5101433179ff58f17d443578981", "rental_uris": {"android": "https://dc.lft.to/lastmile_qr_scan", "ios": "https://dc.lft.to/lastmile_qr_scan"}, "is_disabled": 0, "fusion_lat": 0.0, "lat": 38.92498033333333, "is_reserved": 0}, {"lon": -77.07436233333334, "fusion_lon": 0.0, "bike_id": "a76cf16ef520d1bf1e64d96b5fcbfaa8", "type": "electric_scooter", "name": "a76cf16ef520d1bf1e64d96b5fcbfaa8", "rental_uris": {"android": "https://dc.lft.to/lastmile_qr_scan", "ios": "https://dc.lft.to/lastmile_qr_scan"}, "is_disabled": 0, "fusion_lat": 0.0, "lat": 38.93111733333333, "is_reserved": 0}, {"lon": -77.03317883333334, "fusion_lon": 0.0, "bike_id": "5e2bd7d40e66a872ea8ba9d5b186f701", "type": "electric_scooter", "name": "5e2bd7d40e66a872ea8ba9d5b186f701", "rental_uris": {"android": "https://dc.lft.to/lastmile_qr_scan", "ios": "https://dc.lft.to/lastmile_qr_scan"}, "is_disabled": 0, "fusion_lat": 0.0, "lat": 38.9287665, "is_reserved": 0}, {"lon": -77.041839, "fusion_lon": 0.0, "bike_id": "a484a3e590d3fde59e84f2dd699f7801", "type": "electric_scooter", "name": "a484a3e590d3fde59e84f2dd699f7801", "rental_uris": {"android": "https://dc.lft.to/lastmile_qr_scan", "ios": "https://dc.lft.to/lastmile_qr_scan"}, "is_disabled": 0, "fusion_lat": 0.0, "lat": 38.9204845, "is_reserved": 0}, {"lon": -77.01146516666667, "fusion_lon": 0.0, "bike_id": "50306b2b1182b7f4986536bdd5379518", "type": "electric_scooter", "name": "50306b2b1182b7f4986536bdd5379518", "rental_uris": {"android": "https://dc.lft.to/lastmile_qr_scan", "ios": "https://dc.lft.to/lastmile_qr_scan"}, "is_disabled": 0, "fusion_lat": 0.0, "lat": 38.900116, "is_reserved": 0}, {"lon": -76.98543783333334, "fusion_lon": 0.0, "bike_id": "3a29aed3d20788b25db387bb3e45bf6d", "type": "electric_scooter", "name": "3a29aed3d20788b25db387bb3e45bf6d", "rental_uris": {"android": "https://dc.lft.to/lastmile_qr_scan", "ios": "https://dc.lft.to/lastmile_qr_scan"}, "is_disabled": 0, "fusion_lat": 0.0, "lat": 38.866869666666666, "is_reserved": 0}, {"lon": -77.03175233333333, "fusion_lon": 0.0, "bike_id": "95ab7632633d3c5eba1876d0770ffe39", "type": "electric_scooter", "name": "95ab7632633d3c5eba1876d0770ffe39", "rental_uris": {"android": "https://dc.lft.to/lastmile_qr_scan", "ios": "https://dc.lft.to/lastmile_qr_scan"}, "is_disabled": 0, "fusion_lat": 0.0, "lat": 38.915549666666664, "is_reserved": 0}, {"lon": -76.99249333333333, "fusion_lon": 0.0, "bike_id": "53254c949f0d83072e1f767dd6dcbd58", "type": "electric_bike", "name": "53254c949f0d83072e1f767dd6dcbd58", "rental_uris": {"android": "https://dc.lft.to/lastmile_qr_scan", "ios": "https://dc.lft.to/lastmile_qr_scan"}, "is_disabled": 0, "fusion_lat": 0.0, "lat": 38.79469516666666, "is_reserved": 0}, {"lon": -77.02083116666667, "fusion_lon": 0.0, "bike_id": "4efd5cb329fd3f8bc5de2037d81829d2", "type": "electric_scooter", "name": "4efd5cb329fd3f8bc5de2037d81829d2", "rental_uris": {"android": "https://dc.lft.to/lastmile_qr_scan", "ios": "https://dc.lft.to/lastmile_qr_scan"}, "is_disabled": 0, "fusion_lat": 0.0, "lat": 38.927031, "is_reserved": 0}, {"lon": -77.07703183333334, "fusion_lon": 0.0, "bike_id": "543ed2112be158df08bbdf97eb1ed3f4", "type": "electric_scooter", "name": "543ed2112be158df08bbdf97eb1ed3f4", "rental_uris": {"android": "https://dc.lft.to/lastmile_qr_scan", "ios": "https://dc.lft.to/lastmile_qr_scan"}, "is_disabled": 0, "fusion_lat": 0.0, "lat": 38.943835666666665, "is_reserved": 0}, {"lon": -77.02228483333333, "fusion_lon": 0.0, "bike_id": "3d26a60a923cae71503c24de35d1cfc5", "type": "electric_scooter", "name": "3d26a60a923cae71503c24de35d1cfc5", "rental_uris": {"android": "https://dc.lft.to/lastmile_qr_scan", "ios": "https://dc.lft.to/lastmile_qr_scan"}, "is_disabled": 0, "fusion_lat": 0.0, "lat": 38.9247345, "is_reserved": 0}, {"lon": -77.014268, "fusion_lon": 0.0, "bike_id": "e7615cdaaf8e553a1667d7bea7083a7b", "type": "electric_bike", "name": "e7615cdaaf8e553a1667d7bea7083a7b", "rental_uris": {"android": "https://dc.lft.to/lastmile_qr_scan", "ios": "https://dc.lft.to/lastmile_qr_scan"}, "is_disabled": 0, "fusion_lat": 0.0, "lat": 38.97220016666667, "is_reserved": 0}, {"lon": -76.98186066666666, "fusion_lon": 0.0, "bike_id": "5ebbf255eee127fd212fdac5971ebcd3", "type": "electric_scooter", "name": "5ebbf255eee127fd212fdac5971ebcd3", "rental_uris": {"android": "https://dc.lft.to/lastmile_qr_scan", "ios": "https://dc.lft.to/lastmile_qr_scan"}, "is_disabled": 0, "fusion_lat": 0.0, "lat": 38.895789, "is_reserved": 0}, {"lon": -77.021258, "fusion_lon": 0.0, "bike_id": "eaf753e1102d6d36b43218888e6a8430", "type": "electric_scooter", "name": "eaf753e1102d6d36b43218888e6a8430", "rental_uris": {"android": "https://dc.lft.to/lastmile_qr_scan", "ios": "https://dc.lft.to/lastmile_qr_scan"}, "is_disabled": 0, "fusion_lat": 0.0, "lat": 38.8771925, "is_reserved": 0}, {"lon": -77.0317395, "fusion_lon": 0.0, "bike_id": "1e7651403f8c6fb58007b077760cabf2", "type": "electric_scooter", "name": "1e7651403f8c6fb58007b077760cabf2", "rental_uris": {"android": "https://dc.lft.to/lastmile_qr_scan", "ios": "https://dc.lft.to/lastmile_qr_scan"}, "is_disabled": 0, "fusion_lat": 0.0, "lat": 38.89382716666667, "is_reserved": 0}, {"lon": -77.12652283333334, "fusion_lon": 0.0, "bike_id": "73b94f7df9f6faf479ad989c5e7a8cde", "type": "electric_bike", "name": "73b94f7df9f6faf479ad989c5e7a8cde", "rental_uris": {"android": "https://dc.lft.to/lastmile_qr_scan", "ios": "https://dc.lft.to/lastmile_qr_scan"}, "is_disabled": 0, "fusion_lat": 0.0, "lat": 38.81506366666667, "is_reserved": 0}, {"lon": -77.02529366666667, "fusion_lon": 0.0, "bike_id": "de2071d5570633328a1ac684a3327e23", "type": "electric_scooter", "name": "de2071d5570633328a1ac684a3327e23", "rental_uris": {"android": "https://dc.lft.to/lastmile_qr_scan", "ios": "https://dc.lft.to/lastmile_qr_scan"}, "is_disabled": 0, "fusion_lat": 0.0, "lat": 38.946183833333336, "is_reserved": 0}, {"lon": -77.01965883333334, "fusion_lon": 0.0, "bike_id": "47122e256e849e7a3acdd0266fb4c51d", "type": "electric_scooter", "name": "47122e256e849e7a3acdd0266fb4c51d", "rental_uris": {"android": "https://dc.lft.to/lastmile_qr_scan", "ios": "https://dc.lft.to/lastmile_qr_scan"}, "is_disabled": 0, "fusion_lat": 0.0, "lat": 38.956512833333335, "is_reserved": 0}, {"lon": -77.02697716666667, "fusion_lon": 0.0, "bike_id": "120b5889de89bafecd2f3a403c7cb919", "type": "electric_scooter", "name": "120b5889de89bafecd2f3a403c7cb919", "rental_uris": {"android": "https://dc.lft.to/lastmile_qr_scan", "ios": "https://dc.lft.to/lastmile_qr_scan"}, "is_disabled": 0, "fusion_lat": 0.0, "lat": 38.908450333333334, "is_reserved": 0}, {"lon": -77.02360666666667, "fusion_lon": 0.0, "bike_id": "56467c94a4b9749f0c6554d902e9c88e", "type": "electric_scooter", "name": "56467c94a4b9749f0c6554d902e9c88e", "rental_uris": {"android": "https://dc.lft.to/lastmile_qr_scan", "ios": "https://dc.lft.to/lastmile_qr_scan"}, "is_disabled": 0, "fusion_lat": 0.0, "lat": 38.906771166666665, "is_reserved": 0}, {"lon": -77.035885, "fusion_lon": 0.0, "bike_id": "52498e67e49034e25ea167a8587dffb4", "type": "electric_scooter", "name": "52498e67e49034e25ea167a8587dffb4", "rental_uris": {"android": "https://dc.lft.to/lastmile_qr_scan", "ios": "https://dc.lft.to/lastmile_qr_scan"}, "is_disabled": 0, "fusion_lat": 0.0, "lat": 38.93145033333333, "is_reserved": 0}, {"lon": -77.02460766666667, "fusion_lon": 0.0, "bike_id": "0ffbb43d14d7c0a544b45a80221cb380", "type": "electric_scooter", "name": "0ffbb43d14d7c0a544b45a80221cb380", "rental_uris": {"android": "https://dc.lft.to/lastmile_qr_scan", "ios": "https://dc.lft.to/lastmile_qr_scan"}, "is_disabled": 0, "fusion_lat": 0.0, "lat": 38.90318283333333, "is_reserved": 0}, {"lon": -76.96704133333333, "fusion_lon": 0.0, "bike_id": "b50910dc19f33991f22671f4d2c57b2a", "type": "electric_scooter", "name": "b50910dc19f33991f22671f4d2c57b2a", "rental_uris": {"android": "https://dc.lft.to/lastmile_qr_scan", "ios": "https://dc.lft.to/lastmile_qr_scan"}, "is_disabled": 0, "fusion_lat": 0.0, "lat": 38.86032616666667, "is_reserved": 0}, {"lon": -77.025001, "fusion_lon": 0.0, "bike_id": "2941b95562160dc5701fee375eed9403", "type": "electric_scooter", "name": "2941b95562160dc5701fee375eed9403", "rental_uris": {"android": "https://dc.lft.to/lastmile_qr_scan", "ios": "https://dc.lft.to/lastmile_qr_scan"}, "is_disabled": 0, "fusion_lat": 0.0, "lat": 38.920166, "is_reserved": 0}, {"lon": -77.01780583333333, "fusion_lon": 0.0, "bike_id": "a59eff9109ce73460a96b4f45c3740e4", "type": "electric_scooter", "name": "a59eff9109ce73460a96b4f45c3740e4", "rental_uris": {"android": "https://dc.lft.to/lastmile_qr_scan", "ios": "https://dc.lft.to/lastmile_qr_scan"}, "is_disabled": 0, "fusion_lat": 0.0, "lat": 38.877064833333336, "is_reserved": 0}, {"lon": -77.050481, "fusion_lon": 0.0, "bike_id": "34ab60dbe32f5fd9171cdf315c742eed", "type": "electric_scooter", "name": "34ab60dbe32f5fd9171cdf315c742eed", "rental_uris": {"android": "https://dc.lft.to/lastmile_qr_scan", "ios": "https://dc.lft.to/lastmile_qr_scan"}, "is_disabled": 0, "fusion_lat": 0.0, "lat": 38.923595666666664, "is_reserved": 0}, {"lon": -77.0229475, "fusion_lon": 0.0, "bike_id": "e6227834a8c631b3fe3e2f00f1636985", "type": "electric_scooter", "name": "e6227834a8c631b3fe3e2f00f1636985", "rental_uris": {"android": "https://dc.lft.to/lastmile_qr_scan", "ios": "https://dc.lft.to/lastmile_qr_scan"}, "is_disabled": 0, "fusion_lat": 0.0, "lat": 38.91789033333333, "is_reserved": 0}, {"lon": -77.04875583333333, "fusion_lon": 0.0, "bike_id": "0ce1cb0fcd346acdb4c5244c1c58b77c", "type": "electric_scooter", "name": "0ce1cb0fcd346acdb4c5244c1c58b77c", "rental_uris": {"android": "https://dc.lft.to/lastmile_qr_scan", "ios": "https://dc.lft.to/lastmile_qr_scan"}, "is_disabled": 0, "fusion_lat": 0.0, "lat": 38.90975816666667, "is_reserved": 0}, {"lon": -77.03594066666666, "fusion_lon": 0.0, "bike_id": "12d2f8da7602834a62e3f3800dd9fe91", "type": "electric_scooter", "name": "12d2f8da7602834a62e3f3800dd9fe91", "rental_uris": {"android": "https://dc.lft.to/lastmile_qr_scan", "ios": "https://dc.lft.to/lastmile_qr_scan"}, "is_disabled": 0, "fusion_lat": 0.0, "lat": 38.931453833333336, "is_reserved": 0}, {"lon": -77.09715966666667, "fusion_lon": 0.0, "bike_id": "d622482cc2645472bd8188261010aa28", "type": "electric_scooter", "name": "d622482cc2645472bd8188261010aa28", "rental_uris": {"android": "https://dc.lft.to/lastmile_qr_scan", "ios": "https://dc.lft.to/lastmile_qr_scan"}, "is_disabled": 0, "fusion_lat": 0.0, "lat": 38.9510125, "is_reserved": 0}, {"lon": -77.03645966666667, "fusion_lon": 0.0, "bike_id": "c4ad4149f8d9457e3d9b9bc14fdb2923", "type": "electric_scooter", "name": "c4ad4149f8d9457e3d9b9bc14fdb2923", "rental_uris": {"android": "https://dc.lft.to/lastmile_qr_scan", "ios": "https://dc.lft.to/lastmile_qr_scan"}, "is_disabled": 0, "fusion_lat": 0.0, "lat": 38.918166166666666, "is_reserved": 0}, {"lon": -77.02457833333334, "fusion_lon": 0.0, "bike_id": "ac31067ea490559388a9999c1af788de", "type": "electric_scooter", "name": "ac31067ea490559388a9999c1af788de", "rental_uris": {"android": "https://dc.lft.to/lastmile_qr_scan", "ios": "https://dc.lft.to/lastmile_qr_scan"}, "is_disabled": 0, "fusion_lat": 0.0, "lat": 38.9187235, "is_reserved": 0}, {"lon": -77.01217733333333, "fusion_lon": 0.0, "bike_id": "69d809cc92bcc9797979c93ecfcc10d1", "type": "electric_scooter", "name": "69d809cc92bcc9797979c93ecfcc10d1", "rental_uris": {"android": "https://dc.lft.to/lastmile_qr_scan", "ios": "https://dc.lft.to/lastmile_qr_scan"}, "is_disabled": 0, "fusion_lat": 0.0, "lat": 38.90029083333334, "is_reserved": 0}, {"lon": -77.00753566666667, "fusion_lon": 0.0, "bike_id": "84fc8848536360878424930370944733", "type": "electric_scooter", "name": "84fc8848536360878424930370944733", "rental_uris": {"android": "https://dc.lft.to/lastmile_qr_scan", "ios": "https://dc.lft.to/lastmile_qr_scan"}, "is_disabled": 0, "fusion_lat": 0.0, "lat": 38.871117, "is_reserved": 0}, {"lon": -76.98204283333334, "fusion_lon": 0.0, "bike_id": "7c476434cb488ded17c4e10e8e74de87", "type": "electric_bike", "name": "7c476434cb488ded17c4e10e8e74de87", "rental_uris": {"android": "https://dc.lft.to/lastmile_qr_scan", "ios": "https://dc.lft.to/lastmile_qr_scan"}, "is_disabled": 0, "fusion_lat": 0.0, "lat": 38.98506716666667, "is_reserved": 0}, {"lon": -76.987172, "fusion_lon": 0.0, "bike_id": "e35b27421fb8ef83c02990e9a32c1672", "type": "electric_scooter", "name": "e35b27421fb8ef83c02990e9a32c1672", "rental_uris": {"android": "https://dc.lft.to/lastmile_qr_scan", "ios": "https://dc.lft.to/lastmile_qr_scan"}, "is_disabled": 0, "fusion_lat": 0.0, "lat": 38.8662635, "is_reserved": 0}, {"lon": -77.02172766666666, "fusion_lon": 0.0, "bike_id": "5dd48a53b457aa8a61161fb0f2deb876", "type": "electric_scooter", "name": "5dd48a53b457aa8a61161fb0f2deb876", "rental_uris": {"android": "https://dc.lft.to/lastmile_qr_scan", "ios": "https://dc.lft.to/lastmile_qr_scan"}, "is_disabled": 0, "fusion_lat": 0.0, "lat": 38.9429005, "is_reserved": 0}, {"lon": -77.0252325, "fusion_lon": 0.0, "bike_id": "fb3c77976d8af9c5845198c6046b8cae", "type": "electric_bike", "name": "fb3c77976d8af9c5845198c6046b8cae", "rental_uris": {"android": "https://dc.lft.to/lastmile_qr_scan", "ios": "https://dc.lft.to/lastmile_qr_scan"}, "is_disabled": 0, "fusion_lat": 0.0, "lat": 38.996998, "is_reserved": 0}, {"lon": -76.95591316666666, "fusion_lon": 0.0, "bike_id": "bec98fb25b794231b789c46210b25dbd", "type": "electric_scooter", "name": "bec98fb25b794231b789c46210b25dbd", "rental_uris": {"android": "https://dc.lft.to/lastmile_qr_scan", "ios": "https://dc.lft.to/lastmile_qr_scan"}, "is_disabled": 0, "fusion_lat": 0.0, "lat": 38.88762883333333, "is_reserved": 0}, {"lon": -77.00578666666667, "fusion_lon": 0.0, "bike_id": "320ea89451eb5ef491de7c0de86939f1", "type": "electric_scooter", "name": "320ea89451eb5ef491de7c0de86939f1", "rental_uris": {"android": "https://dc.lft.to/lastmile_qr_scan", "ios": "https://dc.lft.to/lastmile_qr_scan"}, "is_disabled": 0, "fusion_lat": 0.0, "lat": 38.87572083333333, "is_reserved": 0}, {"lon": -77.07285233333333, "fusion_lon": 0.0, "bike_id": "858185f1fa07fb51f1be4d2c8a60f08c", "type": "electric_scooter", "name": "858185f1fa07fb51f1be4d2c8a60f08c", "rental_uris": {"android": "https://dc.lft.to/lastmile_qr_scan", "ios": "https://dc.lft.to/lastmile_qr_scan"}, "is_disabled": 0, "fusion_lat": 0.0, "lat": 38.9347465, "is_reserved": 0}, {"lon": -77.03897666666667, "fusion_lon": 0.0, "bike_id": "3d35a9390ae39e788a1fa430af5cc02a", "type": "electric_scooter", "name": "3d35a9390ae39e788a1fa430af5cc02a", "rental_uris": {"android": "https://dc.lft.to/lastmile_qr_scan", "ios": "https://dc.lft.to/lastmile_qr_scan"}, "is_disabled": 0, "fusion_lat": 0.0, "lat": 38.92138666666666, "is_reserved": 0}, {"lon": -77.031691, "fusion_lon": 0.0, "bike_id": "d19d619e16b80c34f2ed47892c161d6e", "type": "electric_scooter", "name": "d19d619e16b80c34f2ed47892c161d6e", "rental_uris": {"android": "https://dc.lft.to/lastmile_qr_scan", "ios": "https://dc.lft.to/lastmile_qr_scan"}, "is_disabled": 0, "fusion_lat": 0.0, "lat": 38.92103866666667, "is_reserved": 0}, {"lon": -77.02740383333334, "fusion_lon": 0.0, "bike_id": "4a74d6527920f5be97905bcfe51c071b", "type": "electric_scooter", "name": "4a74d6527920f5be97905bcfe51c071b", "rental_uris": {"android": "https://dc.lft.to/lastmile_qr_scan", "ios": "https://dc.lft.to/lastmile_qr_scan"}, "is_disabled": 0, "fusion_lat": 0.0, "lat": 38.8971105, "is_reserved": 0}, {"lon": -77.02299233333333, "fusion_lon": 0.0, "bike_id": "b9a37d671853b9c093cb8e527d45d4c6", "type": "electric_scooter", "name": "b9a37d671853b9c093cb8e527d45d4c6", "rental_uris": {"android": "https://dc.lft.to/lastmile_qr_scan", "ios": "https://dc.lft.to/lastmile_qr_scan"}, "is_disabled": 0, "fusion_lat": 0.0, "lat": 38.9275325, "is_reserved": 0}, {"lon": -77.013296, "fusion_lon": 0.0, "bike_id": "caa7af411cfcc04f510bd698dc2a5673", "type": "electric_scooter", "name": "caa7af411cfcc04f510bd698dc2a5673", "rental_uris": {"android": "https://dc.lft.to/lastmile_qr_scan", "ios": "https://dc.lft.to/lastmile_qr_scan"}, "is_disabled": 0, "fusion_lat": 0.0, "lat": 38.9059735, "is_reserved": 0}, {"lon": -77.01153783333334, "fusion_lon": 0.0, "bike_id": "c7d1a72f6895d6764e4cafc5fb3c461d", "type": "electric_scooter", "name": "c7d1a72f6895d6764e4cafc5fb3c461d", "rental_uris": {"android": "https://dc.lft.to/lastmile_qr_scan", "ios": "https://dc.lft.to/lastmile_qr_scan"}, "is_disabled": 0, "fusion_lat": 0.0, "lat": 38.900054, "is_reserved": 0}, {"lon": -77.04537883333333, "fusion_lon": 0.0, "bike_id": "002d4e4758c8792e008a1927feda3f9d", "type": "electric_scooter", "name": "002d4e4758c8792e008a1927feda3f9d", "rental_uris": {"android": "https://dc.lft.to/lastmile_qr_scan", "ios": "https://dc.lft.to/lastmile_qr_scan"}, "is_disabled": 0, "fusion_lat": 0.0, "lat": 38.931597833333335, "is_reserved": 0}, {"lon": -77.038529, "fusion_lon": 0.0, "bike_id": "85ec07c836ba23a57f9531680edb8ac7", "type": "electric_scooter", "name": "85ec07c836ba23a57f9531680edb8ac7", "rental_uris": {"android": "https://dc.lft.to/lastmile_qr_scan", "ios": "https://dc.lft.to/lastmile_qr_scan"}, "is_disabled": 0, "fusion_lat": 0.0, "lat": 38.91621133333334, "is_reserved": 0}, {"lon": -77.07059216666667, "fusion_lon": 0.0, "bike_id": "6672257e8ed6d6ce0d6c4e3c47896604", "type": "electric_scooter", "name": "6672257e8ed6d6ce0d6c4e3c47896604", "rental_uris": {"android": "https://dc.lft.to/lastmile_qr_scan", "ios": "https://dc.lft.to/lastmile_qr_scan"}, "is_disabled": 0, "fusion_lat": 0.0, "lat": 38.896518, "is_reserved": 0}, {"lon": -77.02463666666667, "fusion_lon": 0.0, "bike_id": "ba6f2e703785607fda0a3a44bdec4f07", "type": "electric_scooter", "name": "ba6f2e703785607fda0a3a44bdec4f07", "rental_uris": {"android": "https://dc.lft.to/lastmile_qr_scan", "ios": "https://dc.lft.to/lastmile_qr_scan"}, "is_disabled": 0, "fusion_lat": 0.0, "lat": 38.93102283333333, "is_reserved": 0}, {"lon": -77.0318435, "fusion_lon": 0.0, "bike_id": "a073da6b330ea689f43c2845578bab53", "type": "electric_scooter", "name": "a073da6b330ea689f43c2845578bab53", "rental_uris": {"android": "https://dc.lft.to/lastmile_qr_scan", "ios": "https://dc.lft.to/lastmile_qr_scan"}, "is_disabled": 0, "fusion_lat": 0.0, "lat": 38.901368166666664, "is_reserved": 0}, {"lon": -77.02807833333334, "fusion_lon": 0.0, "bike_id": "d94d6653dbefb19b52721b14e4b1afb2", "type": "electric_scooter", "name": "d94d6653dbefb19b52721b14e4b1afb2", "rental_uris": {"android": "https://dc.lft.to/lastmile_qr_scan", "ios": "https://dc.lft.to/lastmile_qr_scan"}, "is_disabled": 0, "fusion_lat": 0.0, "lat": 38.902414666666665, "is_reserved": 0}, {"lon": -77.0310725, "fusion_lon": 0.0, "bike_id": "e505b1bdd09559d09ab4aa2cf7ede14c", "type": "electric_scooter", "name": "e505b1bdd09559d09ab4aa2cf7ede14c", "rental_uris": {"android": "https://dc.lft.to/lastmile_qr_scan", "ios": "https://dc.lft.to/lastmile_qr_scan"}, "is_disabled": 0, "fusion_lat": 0.0, "lat": 38.88315216666667, "is_reserved": 0}, {"lon": -77.045158, "fusion_lon": 0.0, "bike_id": "2fb0feaac10497d00a68f38ae5479dfa", "type": "electric_scooter", "name": "2fb0feaac10497d00a68f38ae5479dfa", "rental_uris": {"android": "https://dc.lft.to/lastmile_qr_scan", "ios": "https://dc.lft.to/lastmile_qr_scan"}, "is_disabled": 0, "fusion_lat": 0.0, "lat": 38.899572666666664, "is_reserved": 0}, {"lon": -77.05042533333334, "fusion_lon": 0.0, "bike_id": "0ad11a424f558c5265fc924ac5ea4162", "type": "electric_scooter", "name": "0ad11a424f558c5265fc924ac5ea4162", "rental_uris": {"android": "https://dc.lft.to/lastmile_qr_scan", "ios": "https://dc.lft.to/lastmile_qr_scan"}, "is_disabled": 0, "fusion_lat": 0.0, "lat": 38.923602833333334, "is_reserved": 0}, {"lon": -77.05009933333334, "fusion_lon": 0.0, "bike_id": "2063d1789e1dffbbde8a53ecb21aebd2", "type": "electric_scooter", "name": "2063d1789e1dffbbde8a53ecb21aebd2", "rental_uris": {"android": "https://dc.lft.to/lastmile_qr_scan", "ios": "https://dc.lft.to/lastmile_qr_scan"}, "is_disabled": 0, "fusion_lat": 0.0, "lat": 38.900674, "is_reserved": 0}, {"lon": -77.02949983333333, "fusion_lon": 0.0, "bike_id": "3c339014ad92be2d8a737b62bc44ec23", "type": "electric_scooter", "name": "3c339014ad92be2d8a737b62bc44ec23", "rental_uris": {"android": "https://dc.lft.to/lastmile_qr_scan", "ios": "https://dc.lft.to/lastmile_qr_scan"}, "is_disabled": 0, "fusion_lat": 0.0, "lat": 38.91689366666667, "is_reserved": 0}, {"lon": -77.04264083333334, "fusion_lon": 0.0, "bike_id": "ac718afabfdf0855f3d9107779949eca", "type": "electric_scooter", "name": "ac718afabfdf0855f3d9107779949eca", "rental_uris": {"android": "https://dc.lft.to/lastmile_qr_scan", "ios": "https://dc.lft.to/lastmile_qr_scan"}, "is_disabled": 0, "fusion_lat": 0.0, "lat": 38.90648216666666, "is_reserved": 0}, {"lon": -77.02704566666667, "fusion_lon": 0.0, "bike_id": "c6b125cda805adc4650ad64758b764ac", "type": "electric_scooter", "name": "c6b125cda805adc4650ad64758b764ac", "rental_uris": {"android": "https://dc.lft.to/lastmile_qr_scan", "ios": "https://dc.lft.to/lastmile_qr_scan"}, "is_disabled": 0, "fusion_lat": 0.0, "lat": 38.949832666666666, "is_reserved": 0}, {"lon": -76.98965466666667, "fusion_lon": 0.0, "bike_id": "3083a2b04333ffbcc215892dd890816a", "type": "electric_scooter", "name": "3083a2b04333ffbcc215892dd890816a", "rental_uris": {"android": "https://dc.lft.to/lastmile_qr_scan", "ios": "https://dc.lft.to/lastmile_qr_scan"}, "is_disabled": 0, "fusion_lat": 0.0, "lat": 38.85879683333334, "is_reserved": 0}, {"lon": -77.04182, "fusion_lon": 0.0, "bike_id": "9e00665eda6ded5408193626169a300d", "type": "electric_scooter", "name": "9e00665eda6ded5408193626169a300d", "rental_uris": {"android": "https://dc.lft.to/lastmile_qr_scan", "ios": "https://dc.lft.to/lastmile_qr_scan"}, "is_disabled": 0, "fusion_lat": 0.0, "lat": 38.915147833333336, "is_reserved": 0}, {"lon": -77.03534016666667, "fusion_lon": 0.0, "bike_id": "50ff1edcb47102348b5b240b0e37b987", "type": "electric_scooter", "name": "50ff1edcb47102348b5b240b0e37b987", "rental_uris": {"android": "https://dc.lft.to/lastmile_qr_scan", "ios": "https://dc.lft.to/lastmile_qr_scan"}, "is_disabled": 0, "fusion_lat": 0.0, "lat": 38.925391, "is_reserved": 0}, {"lon": -77.01220783333333, "fusion_lon": 0.0, "bike_id": "9a0042424c572504a7c3e691e895fa65", "type": "electric_scooter", "name": "9a0042424c572504a7c3e691e895fa65", "rental_uris": {"android": "https://dc.lft.to/lastmile_qr_scan", "ios": "https://dc.lft.to/lastmile_qr_scan"}, "is_disabled": 0, "fusion_lat": 0.0, "lat": 38.9135, "is_reserved": 0}, {"lon": -77.03209116666666, "fusion_lon": 0.0, "bike_id": "28c114f8adbf2dae079d0d30729216d1", "type": "electric_scooter", "name": "28c114f8adbf2dae079d0d30729216d1", "rental_uris": {"android": "https://dc.lft.to/lastmile_qr_scan", "ios": "https://dc.lft.to/lastmile_qr_scan"}, "is_disabled": 0, "fusion_lat": 0.0, "lat": 38.91844316666667, "is_reserved": 0}, {"lon": -77.02179666666666, "fusion_lon": 0.0, "bike_id": "51c4f85cba5aa66840e0693fa190ffae", "type": "electric_scooter", "name": "51c4f85cba5aa66840e0693fa190ffae", "rental_uris": {"android": "https://dc.lft.to/lastmile_qr_scan", "ios": "https://dc.lft.to/lastmile_qr_scan"}, "is_disabled": 0, "fusion_lat": 0.0, "lat": 38.902007166666664, "is_reserved": 0}, {"lon": -77.041432, "fusion_lon": 0.0, "bike_id": "bae8c5a4b774f336bacaac6d6c12f91c", "type": "electric_scooter", "name": "bae8c5a4b774f336bacaac6d6c12f91c", "rental_uris": {"android": "https://dc.lft.to/lastmile_qr_scan", "ios": "https://dc.lft.to/lastmile_qr_scan"}, "is_disabled": 0, "fusion_lat": 0.0, "lat": 38.906281, "is_reserved": 0}, {"lon": -77.03204666666667, "fusion_lon": 0.0, "bike_id": "52722386ce1424e0584c85894f9dc25d", "type": "electric_scooter", "name": "52722386ce1424e0584c85894f9dc25d", "rental_uris": {"android": "https://dc.lft.to/lastmile_qr_scan", "ios": "https://dc.lft.to/lastmile_qr_scan"}, "is_disabled": 0, "fusion_lat": 0.0, "lat": 38.918406833333336, "is_reserved": 0}, {"lon": -77.04940133333334, "fusion_lon": 0.0, "bike_id": "ed12ac1a1c8b59e9bd21ba8a89256db5", "type": "electric_scooter", "name": "ed12ac1a1c8b59e9bd21ba8a89256db5", "rental_uris": {"android": "https://dc.lft.to/lastmile_qr_scan", "ios": "https://dc.lft.to/lastmile_qr_scan"}, "is_disabled": 0, "fusion_lat": 0.0, "lat": 38.888239666666664, "is_reserved": 0}, {"lon": -77.02719783333333, "fusion_lon": 0.0, "bike_id": "eff76b811d928300383876df02dde4d7", "type": "electric_scooter", "name": "eff76b811d928300383876df02dde4d7", "rental_uris": {"android": "https://dc.lft.to/lastmile_qr_scan", "ios": "https://dc.lft.to/lastmile_qr_scan"}, "is_disabled": 0, "fusion_lat": 0.0, "lat": 38.915478666666665, "is_reserved": 0}, {"lon": -76.987159, "fusion_lon": 0.0, "bike_id": "5c264c7636b55742d3f8db3327e23198", "type": "electric_scooter", "name": "5c264c7636b55742d3f8db3327e23198", "rental_uris": {"android": "https://dc.lft.to/lastmile_qr_scan", "ios": "https://dc.lft.to/lastmile_qr_scan"}, "is_disabled": 0, "fusion_lat": 0.0, "lat": 38.866999666666665, "is_reserved": 0}, {"lon": -76.94637233333333, "fusion_lon": 0.0, "bike_id": "b2026cc779714ac391ac9f25908e8a65", "type": "electric_scooter", "name": "b2026cc779714ac391ac9f25908e8a65", "rental_uris": {"android": "https://dc.lft.to/lastmile_qr_scan", "ios": "https://dc.lft.to/lastmile_qr_scan"}, "is_disabled": 0, "fusion_lat": 0.0, "lat": 38.898674166666666, "is_reserved": 0}, {"lon": -76.94044666666667, "fusion_lon": 0.0, "bike_id": "fdc2a41cd899f9c2de0cafdfd5a4fcd5", "type": "electric_bike", "name": "fdc2a41cd899f9c2de0cafdfd5a4fcd5", "rental_uris": {"android": "https://dc.lft.to/lastmile_qr_scan", "ios": "https://dc.lft.to/lastmile_qr_scan"}, "is_disabled": 0, "fusion_lat": 0.0, "lat": 38.97855416666667, "is_reserved": 0}, {"lon": -77.01395566666666, "fusion_lon": 0.0, "bike_id": "8479a7ba57114961423009cf2b1dcac5", "type": "electric_scooter", "name": "8479a7ba57114961423009cf2b1dcac5", "rental_uris": {"android": "https://dc.lft.to/lastmile_qr_scan", "ios": "https://dc.lft.to/lastmile_qr_scan"}, "is_disabled": 0, "fusion_lat": 0.0, "lat": 38.9284435, "is_reserved": 0}, {"lon": -77.03098516666667, "fusion_lon": 0.0, "bike_id": "41167641177e1b6a2707a08bb7e2c815", "type": "electric_scooter", "name": "41167641177e1b6a2707a08bb7e2c815", "rental_uris": {"android": "https://dc.lft.to/lastmile_qr_scan", "ios": "https://dc.lft.to/lastmile_qr_scan"}, "is_disabled": 0, "fusion_lat": 0.0, "lat": 38.92382533333333, "is_reserved": 0}, {"lon": -77.023181, "fusion_lon": 0.0, "bike_id": "07df742096b51ef6daa0e52586f3b393", "type": "electric_bike", "name": "07df742096b51ef6daa0e52586f3b393", "rental_uris": {"android": "https://dc.lft.to/lastmile_qr_scan", "ios": "https://dc.lft.to/lastmile_qr_scan"}, "is_disabled": 0, "fusion_lat": 0.0, "lat": 38.902123, "is_reserved": 0}, {"lon": -77.0271645, "fusion_lon": 0.0, "bike_id": "16549c6ac2cc2c06c9c011f04fdb8186", "type": "electric_scooter", "name": "16549c6ac2cc2c06c9c011f04fdb8186", "rental_uris": {"android": "https://dc.lft.to/lastmile_qr_scan", "ios": "https://dc.lft.to/lastmile_qr_scan"}, "is_disabled": 0, "fusion_lat": 0.0, "lat": 38.9246065, "is_reserved": 0}, {"lon": -76.988766, "fusion_lon": 0.0, "bike_id": "af107cab0d12ff542ce2a5f10d58cabe", "type": "electric_scooter", "name": "af107cab0d12ff542ce2a5f10d58cabe", "rental_uris": {"android": "https://dc.lft.to/lastmile_qr_scan", "ios": "https://dc.lft.to/lastmile_qr_scan"}, "is_disabled": 0, "fusion_lat": 0.0, "lat": 38.86657733333333, "is_reserved": 0}, {"lon": -77.228941, "fusion_lon": 0.0, "bike_id": "2d1d120a7b5b4deec5557aec87380b3f", "type": "electric_bike", "name": "2d1d120a7b5b4deec5557aec87380b3f", "rental_uris": {"android": "https://dc.lft.to/lastmile_qr_scan", "ios": "https://dc.lft.to/lastmile_qr_scan"}, "is_disabled": 0, "fusion_lat": 0.0, "lat": 38.909615, "is_reserved": 0}, {"lon": -76.97827366666667, "fusion_lon": 0.0, "bike_id": "c573774a7c9cc07a9ba54987d7a7cf74", "type": "electric_scooter", "name": "c573774a7c9cc07a9ba54987d7a7cf74", "rental_uris": {"android": "https://dc.lft.to/lastmile_qr_scan", "ios": "https://dc.lft.to/lastmile_qr_scan"}, "is_disabled": 0, "fusion_lat": 0.0, "lat": 38.8984395, "is_reserved": 0}, {"lon": -77.02967016666666, "fusion_lon": 0.0, "bike_id": "84d14f1f33d59b388880944ee31f8376", "type": "electric_scooter", "name": "84d14f1f33d59b388880944ee31f8376", "rental_uris": {"android": "https://dc.lft.to/lastmile_qr_scan", "ios": "https://dc.lft.to/lastmile_qr_scan"}, "is_disabled": 0, "fusion_lat": 0.0, "lat": 38.923349333333334, "is_reserved": 0}, {"lon": -77.03280866666667, "fusion_lon": 0.0, "bike_id": "22b22b9db9addb7ac8d9489b3cc5faed", "type": "electric_scooter", "name": "22b22b9db9addb7ac8d9489b3cc5faed", "rental_uris": {"android": "https://dc.lft.to/lastmile_qr_scan", "ios": "https://dc.lft.to/lastmile_qr_scan"}, "is_disabled": 0, "fusion_lat": 0.0, "lat": 38.9377075, "is_reserved": 0}, {"lon": -77.023535, "fusion_lon": 0.0, "bike_id": "704b9c233458c4989e2ea54ecbfe5b1e", "type": "electric_scooter", "name": "704b9c233458c4989e2ea54ecbfe5b1e", "rental_uris": {"android": "https://dc.lft.to/lastmile_qr_scan", "ios": "https://dc.lft.to/lastmile_qr_scan"}, "is_disabled": 0, "fusion_lat": 0.0, "lat": 38.9085035, "is_reserved": 0}, {"lon": -77.03386616666667, "fusion_lon": 0.0, "bike_id": "532a07572f49f05837e9db82be04ca30", "type": "electric_scooter", "name": "532a07572f49f05837e9db82be04ca30", "rental_uris": {"android": "https://dc.lft.to/lastmile_qr_scan", "ios": "https://dc.lft.to/lastmile_qr_scan"}, "is_disabled": 0, "fusion_lat": 0.0, "lat": 38.923586, "is_reserved": 0}, {"lon": -77.03318483333334, "fusion_lon": 0.0, "bike_id": "fb2642f6a3060506284ee47a7ddd3314", "type": "electric_scooter", "name": "fb2642f6a3060506284ee47a7ddd3314", "rental_uris": {"android": "https://dc.lft.to/lastmile_qr_scan", "ios": "https://dc.lft.to/lastmile_qr_scan"}, "is_disabled": 0, "fusion_lat": 0.0, "lat": 38.938941166666666, "is_reserved": 0}, {"lon": -77.00711533333333, "fusion_lon": 0.0, "bike_id": "599c18aae5b3959e5f65bfefc2a7d4a6", "type": "electric_scooter", "name": "599c18aae5b3959e5f65bfefc2a7d4a6", "rental_uris": {"android": "https://dc.lft.to/lastmile_qr_scan", "ios": "https://dc.lft.to/lastmile_qr_scan"}, "is_disabled": 0, "fusion_lat": 0.0, "lat": 38.884953833333334, "is_reserved": 0}, {"lon": -77.0440745, "fusion_lon": 0.0, "bike_id": "41c3a097fac3f2615ea1e31f9888bfca", "type": "electric_scooter", "name": "41c3a097fac3f2615ea1e31f9888bfca", "rental_uris": {"android": "https://dc.lft.to/lastmile_qr_scan", "ios": "https://dc.lft.to/lastmile_qr_scan"}, "is_disabled": 0, "fusion_lat": 0.0, "lat": 38.93425, "is_reserved": 0}, {"lon": -77.03327266666666, "fusion_lon": 0.0, "bike_id": "9c76236c91b51506c026495b12a5f18b", "type": "electric_scooter", "name": "9c76236c91b51506c026495b12a5f18b", "rental_uris": {"android": "https://dc.lft.to/lastmile_qr_scan", "ios": "https://dc.lft.to/lastmile_qr_scan"}, "is_disabled": 0, "fusion_lat": 0.0, "lat": 38.89816883333334, "is_reserved": 0}, {"lon": -77.01977616666667, "fusion_lon": 0.0, "bike_id": "f603bf39dcc246279d8329968db51c7a", "type": "electric_scooter", "name": "f603bf39dcc246279d8329968db51c7a", "rental_uris": {"android": "https://dc.lft.to/lastmile_qr_scan", "ios": "https://dc.lft.to/lastmile_qr_scan"}, "is_disabled": 0, "fusion_lat": 0.0, "lat": 38.905029166666665, "is_reserved": 0}, {"lon": -77.02053716666667, "fusion_lon": 0.0, "bike_id": "e49f540042f7fddfb94700beebea70c7", "type": "electric_scooter", "name": "e49f540042f7fddfb94700beebea70c7", "rental_uris": {"android": "https://dc.lft.to/lastmile_qr_scan", "ios": "https://dc.lft.to/lastmile_qr_scan"}, "is_disabled": 0, "fusion_lat": 0.0, "lat": 38.92332016666667, "is_reserved": 0}, {"lon": -77.0328865, "fusion_lon": 0.0, "bike_id": "6540fc067876c99da9158fc87b5904b4", "type": "electric_scooter", "name": "6540fc067876c99da9158fc87b5904b4", "rental_uris": {"android": "https://dc.lft.to/lastmile_qr_scan", "ios": "https://dc.lft.to/lastmile_qr_scan"}, "is_disabled": 0, "fusion_lat": 0.0, "lat": 38.9015445, "is_reserved": 0}, {"lon": -77.03221883333333, "fusion_lon": 0.0, "bike_id": "2685fc8d149e1c8ddcca4c5008aa398b", "type": "electric_scooter", "name": "2685fc8d149e1c8ddcca4c5008aa398b", "rental_uris": {"android": "https://dc.lft.to/lastmile_qr_scan", "ios": "https://dc.lft.to/lastmile_qr_scan"}, "is_disabled": 0, "fusion_lat": 0.0, "lat": 38.91405533333333, "is_reserved": 0}, {"lon": -77.013999, "fusion_lon": 0.0, "bike_id": "9f7828fd73018aa2aa8a50c8d5ed1007", "type": "electric_scooter", "name": "9f7828fd73018aa2aa8a50c8d5ed1007", "rental_uris": {"android": "https://dc.lft.to/lastmile_qr_scan", "ios": "https://dc.lft.to/lastmile_qr_scan"}, "is_disabled": 0, "fusion_lat": 0.0, "lat": 38.942344, "is_reserved": 0}, {"lon": -77.01982366666667, "fusion_lon": 0.0, "bike_id": "6c18f72a01c4cbd4058a6390681d1702", "type": "electric_scooter", "name": "6c18f72a01c4cbd4058a6390681d1702", "rental_uris": {"android": "https://dc.lft.to/lastmile_qr_scan", "ios": "https://dc.lft.to/lastmile_qr_scan"}, "is_disabled": 0, "fusion_lat": 0.0, "lat": 38.88719433333333, "is_reserved": 0}, {"lon": -77.01074433333334, "fusion_lon": 0.0, "bike_id": "5c68998f91d7d090c7a1caefa89ebd60", "type": "electric_scooter", "name": "5c68998f91d7d090c7a1caefa89ebd60", "rental_uris": {"android": "https://dc.lft.to/lastmile_qr_scan", "ios": "https://dc.lft.to/lastmile_qr_scan"}, "is_disabled": 0, "fusion_lat": 0.0, "lat": 38.909597, "is_reserved": 0}, {"lon": -77.0357175, "fusion_lon": 0.0, "bike_id": "6021a1b1653373fbacd0920583f29692", "type": "electric_scooter", "name": "6021a1b1653373fbacd0920583f29692", "rental_uris": {"android": "https://dc.lft.to/lastmile_qr_scan", "ios": "https://dc.lft.to/lastmile_qr_scan"}, "is_disabled": 0, "fusion_lat": 0.0, "lat": 38.903685333333335, "is_reserved": 0}, {"lon": -77.02638183333333, "fusion_lon": 0.0, "bike_id": "a3da26e4ed25a59f71a8b614e14dc806", "type": "electric_scooter", "name": "a3da26e4ed25a59f71a8b614e14dc806", "rental_uris": {"android": "https://dc.lft.to/lastmile_qr_scan", "ios": "https://dc.lft.to/lastmile_qr_scan"}, "is_disabled": 0, "fusion_lat": 0.0, "lat": 38.8943835, "is_reserved": 0}, {"lon": -76.9302585, "fusion_lon": 0.0, "bike_id": "971e744be1d40e30b5cacd16468aef9a", "type": "electric_scooter", "name": "971e744be1d40e30b5cacd16468aef9a", "rental_uris": {"android": "https://dc.lft.to/lastmile_qr_scan", "ios": "https://dc.lft.to/lastmile_qr_scan"}, "is_disabled": 0, "fusion_lat": 0.0, "lat": 38.9016715, "is_reserved": 0}, {"lon": -77.01528166666667, "fusion_lon": 0.0, "bike_id": "549156b381ea25c031bddf8078170fb5", "type": "electric_bike", "name": "549156b381ea25c031bddf8078170fb5", "rental_uris": {"android": "https://dc.lft.to/lastmile_qr_scan", "ios": "https://dc.lft.to/lastmile_qr_scan"}, "is_disabled": 0, "fusion_lat": 0.0, "lat": 38.951202, "is_reserved": 0}, {"lon": -77.00151733333334, "fusion_lon": 0.0, "bike_id": "03aba484a49d94ae657886b176ec0f9d", "type": "electric_scooter", "name": "03aba484a49d94ae657886b176ec0f9d", "rental_uris": {"android": "https://dc.lft.to/lastmile_qr_scan", "ios": "https://dc.lft.to/lastmile_qr_scan"}, "is_disabled": 0, "fusion_lat": 0.0, "lat": 38.873074333333335, "is_reserved": 0}, {"lon": -77.04090566666666, "fusion_lon": 0.0, "bike_id": "845ac187b28f157731644fb3a034bd93", "type": "electric_scooter", "name": "845ac187b28f157731644fb3a034bd93", "rental_uris": {"android": "https://dc.lft.to/lastmile_qr_scan", "ios": "https://dc.lft.to/lastmile_qr_scan"}, "is_disabled": 0, "fusion_lat": 0.0, "lat": 38.907348, "is_reserved": 0}, {"lon": -76.97371833333334, "fusion_lon": 0.0, "bike_id": "38445866ab5f8b49b8732314c37ef58c", "type": "electric_bike", "name": "38445866ab5f8b49b8732314c37ef58c", "rental_uris": {"android": "https://dc.lft.to/lastmile_qr_scan", "ios": "https://dc.lft.to/lastmile_qr_scan"}, "is_disabled": 0, "fusion_lat": 0.0, "lat": 38.963181166666665, "is_reserved": 0}, {"lon": -77.0830685, "fusion_lon": 0.0, "bike_id": "23d9a3d3f6ec8547197aa9758ab274c7", "type": "electric_scooter", "name": "23d9a3d3f6ec8547197aa9758ab274c7", "rental_uris": {"android": "https://dc.lft.to/lastmile_qr_scan", "ios": "https://dc.lft.to/lastmile_qr_scan"}, "is_disabled": 0, "fusion_lat": 0.0, "lat": 38.928495833333336, "is_reserved": 0}, {"lon": -77.03217866666667, "fusion_lon": 0.0, "bike_id": "f45fb03e11d121d214d21fd44a5ac118", "type": "electric_scooter", "name": "f45fb03e11d121d214d21fd44a5ac118", "rental_uris": {"android": "https://dc.lft.to/lastmile_qr_scan", "ios": "https://dc.lft.to/lastmile_qr_scan"}, "is_disabled": 0, "fusion_lat": 0.0, "lat": 38.92591383333333, "is_reserved": 0}, {"lon": -77.01696983333333, "fusion_lon": 0.0, "bike_id": "18feaa5a0a083fee94a890cc93534fad", "type": "electric_scooter", "name": "18feaa5a0a083fee94a890cc93534fad", "rental_uris": {"android": "https://dc.lft.to/lastmile_qr_scan", "ios": "https://dc.lft.to/lastmile_qr_scan"}, "is_disabled": 0, "fusion_lat": 0.0, "lat": 38.9749685, "is_reserved": 0}, {"lon": -77.03431016666667, "fusion_lon": 0.0, "bike_id": "e8e8372b620439947ed813b9da6b0a14", "type": "electric_scooter", "name": "e8e8372b620439947ed813b9da6b0a14", "rental_uris": {"android": "https://dc.lft.to/lastmile_qr_scan", "ios": "https://dc.lft.to/lastmile_qr_scan"}, "is_disabled": 0, "fusion_lat": 0.0, "lat": 38.90430833333333, "is_reserved": 0}, {"lon": -76.97255966666667, "fusion_lon": 0.0, "bike_id": "b5b257fa034edb8d56bf9ed04647bdb6", "type": "electric_bike", "name": "b5b257fa034edb8d56bf9ed04647bdb6", "rental_uris": {"android": "https://dc.lft.to/lastmile_qr_scan", "ios": "https://dc.lft.to/lastmile_qr_scan"}, "is_disabled": 0, "fusion_lat": 0.0, "lat": 38.95744533333333, "is_reserved": 0}, {"lon": -77.05918466666667, "fusion_lon": 0.0, "bike_id": "cd52324363dae1123e5272327c92c62b", "type": "electric_scooter", "name": "cd52324363dae1123e5272327c92c62b", "rental_uris": {"android": "https://dc.lft.to/lastmile_qr_scan", "ios": "https://dc.lft.to/lastmile_qr_scan"}, "is_disabled": 0, "fusion_lat": 0.0, "lat": 38.9027485, "is_reserved": 0}, {"lon": -77.02832966666666, "fusion_lon": 0.0, "bike_id": "c76f746130160c9c89d5e9988d5e7c85", "type": "electric_scooter", "name": "c76f746130160c9c89d5e9988d5e7c85", "rental_uris": {"android": "https://dc.lft.to/lastmile_qr_scan", "ios": "https://dc.lft.to/lastmile_qr_scan"}, "is_disabled": 0, "fusion_lat": 0.0, "lat": 38.8935655, "is_reserved": 0}, {"lon": -77.00198566666667, "fusion_lon": 0.0, "bike_id": "d948c457225136dae8dae6faad3de29c", "type": "electric_scooter", "name": "d948c457225136dae8dae6faad3de29c", "rental_uris": {"android": "https://dc.lft.to/lastmile_qr_scan", "ios": "https://dc.lft.to/lastmile_qr_scan"}, "is_disabled": 0, "fusion_lat": 0.0, "lat": 38.90236566666667, "is_reserved": 0}, {"lon": -77.01458116666667, "fusion_lon": 0.0, "bike_id": "bc2f9c956577b0b7358bd5847c5ff6f8", "type": "electric_scooter", "name": "bc2f9c956577b0b7358bd5847c5ff6f8", "rental_uris": {"android": "https://dc.lft.to/lastmile_qr_scan", "ios": "https://dc.lft.to/lastmile_qr_scan"}, "is_disabled": 0, "fusion_lat": 0.0, "lat": 38.9158665, "is_reserved": 0}, {"lon": -77.03193433333334, "fusion_lon": 0.0, "bike_id": "84b45bcbb7fdd22be419f40f92002a2a", "type": "electric_scooter", "name": "84b45bcbb7fdd22be419f40f92002a2a", "rental_uris": {"android": "https://dc.lft.to/lastmile_qr_scan", "ios": "https://dc.lft.to/lastmile_qr_scan"}, "is_disabled": 0, "fusion_lat": 0.0, "lat": 38.9185265, "is_reserved": 0}, {"lon": -77.022312, "fusion_lon": 0.0, "bike_id": "4ff8bf3dbaf88213e8e0303242ff5192", "type": "electric_scooter", "name": "4ff8bf3dbaf88213e8e0303242ff5192", "rental_uris": {"android": "https://dc.lft.to/lastmile_qr_scan", "ios": "https://dc.lft.to/lastmile_qr_scan"}, "is_disabled": 0, "fusion_lat": 0.0, "lat": 38.89224883333333, "is_reserved": 0}, {"lon": -77.03924383333333, "fusion_lon": 0.0, "bike_id": "ded55154adb2a6c67937ed25ee1d37f2", "type": "electric_scooter", "name": "ded55154adb2a6c67937ed25ee1d37f2", "rental_uris": {"android": "https://dc.lft.to/lastmile_qr_scan", "ios": "https://dc.lft.to/lastmile_qr_scan"}, "is_disabled": 0, "fusion_lat": 0.0, "lat": 38.91265716666667, "is_reserved": 0}, {"lon": -77.03839766666667, "fusion_lon": 0.0, "bike_id": "32a944505b87bdd23885184f3379d71b", "type": "electric_scooter", "name": "32a944505b87bdd23885184f3379d71b", "rental_uris": {"android": "https://dc.lft.to/lastmile_qr_scan", "ios": "https://dc.lft.to/lastmile_qr_scan"}, "is_disabled": 0, "fusion_lat": 0.0, "lat": 38.94190433333333, "is_reserved": 0}, {"lon": -77.00016816666667, "fusion_lon": 0.0, "bike_id": "d16ba457a9315dc31a95f956eaef38fc", "type": "electric_scooter", "name": "d16ba457a9315dc31a95f956eaef38fc", "rental_uris": {"android": "https://dc.lft.to/lastmile_qr_scan", "ios": "https://dc.lft.to/lastmile_qr_scan"}, "is_disabled": 0, "fusion_lat": 0.0, "lat": 38.9067695, "is_reserved": 0}, {"lon": -77.02975683333334, "fusion_lon": 0.0, "bike_id": "fb525251dfcff6a7d12897d7643f9f14", "type": "electric_scooter", "name": "fb525251dfcff6a7d12897d7643f9f14", "rental_uris": {"android": "https://dc.lft.to/lastmile_qr_scan", "ios": "https://dc.lft.to/lastmile_qr_scan"}, "is_disabled": 0, "fusion_lat": 0.0, "lat": 38.89039533333333, "is_reserved": 0}, {"lon": -77.0470435, "fusion_lon": 0.0, "bike_id": "26c7df8b12a6494fe49ea35760abcb9b", "type": "electric_scooter", "name": "26c7df8b12a6494fe49ea35760abcb9b", "rental_uris": {"android": "https://dc.lft.to/lastmile_qr_scan", "ios": "https://dc.lft.to/lastmile_qr_scan"}, "is_disabled": 0, "fusion_lat": 0.0, "lat": 38.92185283333333, "is_reserved": 0}, {"lon": -77.00578583333333, "fusion_lon": 0.0, "bike_id": "b693a48c25d207b35ed5570cab7d863e", "type": "electric_scooter", "name": "b693a48c25d207b35ed5570cab7d863e", "rental_uris": {"android": "https://dc.lft.to/lastmile_qr_scan", "ios": "https://dc.lft.to/lastmile_qr_scan"}, "is_disabled": 0, "fusion_lat": 0.0, "lat": 38.876452666666665, "is_reserved": 0}, {"lon": -76.97781133333334, "fusion_lon": 0.0, "bike_id": "e6c8f711095b391b12f5f16e30b5ef86", "type": "electric_scooter", "name": "e6c8f711095b391b12f5f16e30b5ef86", "rental_uris": {"android": "https://dc.lft.to/lastmile_qr_scan", "ios": "https://dc.lft.to/lastmile_qr_scan"}, "is_disabled": 0, "fusion_lat": 0.0, "lat": 38.9056485, "is_reserved": 0}, {"lon": -77.0006135, "fusion_lon": 0.0, "bike_id": "32f9bd1a05018b16a88ecf9479a760b8", "type": "electric_scooter", "name": "32f9bd1a05018b16a88ecf9479a760b8", "rental_uris": {"android": "https://dc.lft.to/lastmile_qr_scan", "ios": "https://dc.lft.to/lastmile_qr_scan"}, "is_disabled": 0, "fusion_lat": 0.0, "lat": 38.876818166666666, "is_reserved": 0}, {"lon": -77.023057, "fusion_lon": 0.0, "bike_id": "eb0fc5310bb5faf75a6365748c5810cb", "type": "electric_scooter", "name": "eb0fc5310bb5faf75a6365748c5810cb", "rental_uris": {"android": "https://dc.lft.to/lastmile_qr_scan", "ios": "https://dc.lft.to/lastmile_qr_scan"}, "is_disabled": 0, "fusion_lat": 0.0, "lat": 38.927433666666666, "is_reserved": 0}, {"lon": -77.033856, "fusion_lon": 0.0, "bike_id": "048428199ed4c1033217dd64a6d47957", "type": "electric_scooter", "name": "048428199ed4c1033217dd64a6d47957", "rental_uris": {"android": "https://dc.lft.to/lastmile_qr_scan", "ios": "https://dc.lft.to/lastmile_qr_scan"}, "is_disabled": 0, "fusion_lat": 0.0, "lat": 38.921565666666666, "is_reserved": 0}, {"lon": -76.95661133333333, "fusion_lon": 0.0, "bike_id": "96301a6a9e043a3d26547f76a7252ddb", "type": "electric_bike", "name": "96301a6a9e043a3d26547f76a7252ddb", "rental_uris": {"android": "https://dc.lft.to/lastmile_qr_scan", "ios": "https://dc.lft.to/lastmile_qr_scan"}, "is_disabled": 0, "fusion_lat": 0.0, "lat": 38.8846515, "is_reserved": 0}, {"lon": -77.03005966666667, "fusion_lon": 0.0, "bike_id": "cd7299e70e8c4088861cff366f82ef5e", "type": "electric_scooter", "name": "cd7299e70e8c4088861cff366f82ef5e", "rental_uris": {"android": "https://dc.lft.to/lastmile_qr_scan", "ios": "https://dc.lft.to/lastmile_qr_scan"}, "is_disabled": 0, "fusion_lat": 0.0, "lat": 38.89731366666667, "is_reserved": 0}, {"lon": -77.03461583333333, "fusion_lon": 0.0, "bike_id": "1d0a206c73b9b87a53316acb2c00dee1", "type": "electric_scooter", "name": "1d0a206c73b9b87a53316acb2c00dee1", "rental_uris": {"android": "https://dc.lft.to/lastmile_qr_scan", "ios": "https://dc.lft.to/lastmile_qr_scan"}, "is_disabled": 0, "fusion_lat": 0.0, "lat": 38.908423166666665, "is_reserved": 0}, {"lon": -77.04331983333333, "fusion_lon": 0.0, "bike_id": "61cd843e153981f4f470734985aedba7", "type": "electric_scooter", "name": "61cd843e153981f4f470734985aedba7", "rental_uris": {"android": "https://dc.lft.to/lastmile_qr_scan", "ios": "https://dc.lft.to/lastmile_qr_scan"}, "is_disabled": 0, "fusion_lat": 0.0, "lat": 38.905057166666666, "is_reserved": 0}, {"lon": -77.02291783333334, "fusion_lon": 0.0, "bike_id": "af2dfad94796d706af6ad6e28d09f9a3", "type": "electric_scooter", "name": "af2dfad94796d706af6ad6e28d09f9a3", "rental_uris": {"android": "https://dc.lft.to/lastmile_qr_scan", "ios": "https://dc.lft.to/lastmile_qr_scan"}, "is_disabled": 0, "fusion_lat": 0.0, "lat": 38.91839916666667, "is_reserved": 0}, {"lon": -77.03828866666667, "fusion_lon": 0.0, "bike_id": "fcbb97e55726bf67b920e943137c5721", "type": "electric_scooter", "name": "fcbb97e55726bf67b920e943137c5721", "rental_uris": {"android": "https://dc.lft.to/lastmile_qr_scan", "ios": "https://dc.lft.to/lastmile_qr_scan"}, "is_disabled": 0, "fusion_lat": 0.0, "lat": 38.91107783333333, "is_reserved": 0}, {"lon": -77.043152, "fusion_lon": 0.0, "bike_id": "34557134b80dccebd5072701a23e6199", "type": "electric_bike", "name": "34557134b80dccebd5072701a23e6199", "rental_uris": {"android": "https://dc.lft.to/lastmile_qr_scan", "ios": "https://dc.lft.to/lastmile_qr_scan"}, "is_disabled": 0, "fusion_lat": 0.0, "lat": 39.034317, "is_reserved": 0}, {"lon": -77.02962616666667, "fusion_lon": 0.0, "bike_id": "92100b498f4a3f152584e341b888ed79", "type": "electric_scooter", "name": "92100b498f4a3f152584e341b888ed79", "rental_uris": {"android": "https://dc.lft.to/lastmile_qr_scan", "ios": "https://dc.lft.to/lastmile_qr_scan"}, "is_disabled": 0, "fusion_lat": 0.0, "lat": 38.92262683333333, "is_reserved": 0}, {"lon": -77.02175433333333, "fusion_lon": 0.0, "bike_id": "36361f038f428af4d5dd6265470f459d", "type": "electric_scooter", "name": "36361f038f428af4d5dd6265470f459d", "rental_uris": {"android": "https://dc.lft.to/lastmile_qr_scan", "ios": "https://dc.lft.to/lastmile_qr_scan"}, "is_disabled": 0, "fusion_lat": 0.0, "lat": 38.90979133333333, "is_reserved": 0}, {"lon": -77.042785, "fusion_lon": 0.0, "bike_id": "d8de45027377ddc2ea2c08d1a6e164dd", "type": "electric_scooter", "name": "d8de45027377ddc2ea2c08d1a6e164dd", "rental_uris": {"android": "https://dc.lft.to/lastmile_qr_scan", "ios": "https://dc.lft.to/lastmile_qr_scan"}, "is_disabled": 0, "fusion_lat": 0.0, "lat": 38.90556, "is_reserved": 0}, {"lon": -77.036149, "fusion_lon": 0.0, "bike_id": "6639a91d51b3391324bde38efd05741f", "type": "electric_scooter", "name": "6639a91d51b3391324bde38efd05741f", "rental_uris": {"android": "https://dc.lft.to/lastmile_qr_scan", "ios": "https://dc.lft.to/lastmile_qr_scan"}, "is_disabled": 0, "fusion_lat": 0.0, "lat": 38.91730066666667, "is_reserved": 0}, {"lon": -77.03638116666667, "fusion_lon": 0.0, "bike_id": "bec04c5724425e60c8c4b2e3858914b0", "type": "electric_scooter", "name": "bec04c5724425e60c8c4b2e3858914b0", "rental_uris": {"android": "https://dc.lft.to/lastmile_qr_scan", "ios": "https://dc.lft.to/lastmile_qr_scan"}, "is_disabled": 0, "fusion_lat": 0.0, "lat": 38.9244355, "is_reserved": 0}, {"lon": -77.03458883333333, "fusion_lon": 0.0, "bike_id": "5978745cc77267a754a0829a8def80d5", "type": "electric_scooter", "name": "5978745cc77267a754a0829a8def80d5", "rental_uris": {"android": "https://dc.lft.to/lastmile_qr_scan", "ios": "https://dc.lft.to/lastmile_qr_scan"}, "is_disabled": 0, "fusion_lat": 0.0, "lat": 38.90833583333333, "is_reserved": 0}, {"lon": -77.020805, "fusion_lon": 0.0, "bike_id": "8df17be3f329eb8a601519b327aae60d", "type": "electric_scooter", "name": "8df17be3f329eb8a601519b327aae60d", "rental_uris": {"android": "https://dc.lft.to/lastmile_qr_scan", "ios": "https://dc.lft.to/lastmile_qr_scan"}, "is_disabled": 0, "fusion_lat": 0.0, "lat": 38.9269765, "is_reserved": 0}, {"lon": -77.03066, "fusion_lon": 0.0, "bike_id": "4088816c0451d8608d229d1b911a3f88", "type": "electric_scooter", "name": "4088816c0451d8608d229d1b911a3f88", "rental_uris": {"android": "https://dc.lft.to/lastmile_qr_scan", "ios": "https://dc.lft.to/lastmile_qr_scan"}, "is_disabled": 0, "fusion_lat": 0.0, "lat": 38.922443333333334, "is_reserved": 0}, {"lon": -77.033355, "fusion_lon": 0.0, "bike_id": "90e3f53019fdd5c1550b4e1ec82b0d7b", "type": "electric_scooter", "name": "90e3f53019fdd5c1550b4e1ec82b0d7b", "rental_uris": {"android": "https://dc.lft.to/lastmile_qr_scan", "ios": "https://dc.lft.to/lastmile_qr_scan"}, "is_disabled": 0, "fusion_lat": 0.0, "lat": 38.90283783333334, "is_reserved": 0}, {"lon": -77.019007, "fusion_lon": 0.0, "bike_id": "8330155c56d1c691fb903e74d24dc81b", "type": "electric_scooter", "name": "8330155c56d1c691fb903e74d24dc81b", "rental_uris": {"android": "https://dc.lft.to/lastmile_qr_scan", "ios": "https://dc.lft.to/lastmile_qr_scan"}, "is_disabled": 0, "fusion_lat": 0.0, "lat": 38.90922916666667, "is_reserved": 0}, {"lon": -76.9733265, "fusion_lon": 0.0, "bike_id": "9a47c9c91a405b18df869291422d14e7", "type": "electric_scooter", "name": "9a47c9c91a405b18df869291422d14e7", "rental_uris": {"android": "https://dc.lft.to/lastmile_qr_scan", "ios": "https://dc.lft.to/lastmile_qr_scan"}, "is_disabled": 0, "fusion_lat": 0.0, "lat": 38.90408983333333, "is_reserved": 0}, {"lon": -77.02810333333333, "fusion_lon": 0.0, "bike_id": "cd302f55ca96b0c632c1d79f22016ff5", "type": "electric_scooter", "name": "cd302f55ca96b0c632c1d79f22016ff5", "rental_uris": {"android": "https://dc.lft.to/lastmile_qr_scan", "ios": "https://dc.lft.to/lastmile_qr_scan"}, "is_disabled": 0, "fusion_lat": 0.0, "lat": 38.93079083333333, "is_reserved": 0}, {"lon": -77.01762183333334, "fusion_lon": 0.0, "bike_id": "8e586c099fce462143a6280c38b7c366", "type": "electric_scooter", "name": "8e586c099fce462143a6280c38b7c366", "rental_uris": {"android": "https://dc.lft.to/lastmile_qr_scan", "ios": "https://dc.lft.to/lastmile_qr_scan"}, "is_disabled": 0, "fusion_lat": 0.0, "lat": 38.90263183333333, "is_reserved": 0}, {"lon": -77.00200616666666, "fusion_lon": 0.0, "bike_id": "0433e531b1216aa64e9ce94de078f3c3", "type": "electric_scooter", "name": "0433e531b1216aa64e9ce94de078f3c3", "rental_uris": {"android": "https://dc.lft.to/lastmile_qr_scan", "ios": "https://dc.lft.to/lastmile_qr_scan"}, "is_disabled": 0, "fusion_lat": 0.0, "lat": 38.90236866666667, "is_reserved": 0}, {"lon": -77.03504333333333, "fusion_lon": 0.0, "bike_id": "f6e7bb3725ba35bf0c1afe805c9399d4", "type": "electric_scooter", "name": "f6e7bb3725ba35bf0c1afe805c9399d4", "rental_uris": {"android": "https://dc.lft.to/lastmile_qr_scan", "ios": "https://dc.lft.to/lastmile_qr_scan"}, "is_disabled": 0, "fusion_lat": 0.0, "lat": 38.91878766666667, "is_reserved": 0}, {"lon": -77.12738566666667, "fusion_lon": 0.0, "bike_id": "c39a8b191094166210bb58c28cb0c10b", "type": "electric_bike", "name": "c39a8b191094166210bb58c28cb0c10b", "rental_uris": {"android": "https://dc.lft.to/lastmile_qr_scan", "ios": "https://dc.lft.to/lastmile_qr_scan"}, "is_disabled": 0, "fusion_lat": 0.0, "lat": 38.895634, "is_reserved": 0}, {"lon": -77.033328, "fusion_lon": 0.0, "bike_id": "80b9e06a46835891a103c353bb621ddc", "type": "electric_scooter", "name": "80b9e06a46835891a103c353bb621ddc", "rental_uris": {"android": "https://dc.lft.to/lastmile_qr_scan", "ios": "https://dc.lft.to/lastmile_qr_scan"}, "is_disabled": 0, "fusion_lat": 0.0, "lat": 38.92156766666667, "is_reserved": 0}, {"lon": -77.03176616666667, "fusion_lon": 0.0, "bike_id": "195ff54edae2f6f10026b4ee3358feb1", "type": "electric_scooter", "name": "195ff54edae2f6f10026b4ee3358feb1", "rental_uris": {"android": "https://dc.lft.to/lastmile_qr_scan", "ios": "https://dc.lft.to/lastmile_qr_scan"}, "is_disabled": 0, "fusion_lat": 0.0, "lat": 38.916057333333335, "is_reserved": 0}, {"lon": -77.0241215, "fusion_lon": 0.0, "bike_id": "f99c980b108886b2c17a8f93be061b1a", "type": "electric_scooter", "name": "f99c980b108886b2c17a8f93be061b1a", "rental_uris": {"android": "https://dc.lft.to/lastmile_qr_scan", "ios": "https://dc.lft.to/lastmile_qr_scan"}, "is_disabled": 0, "fusion_lat": 0.0, "lat": 38.913994833333334, "is_reserved": 0}, {"lon": -77.05920066666667, "fusion_lon": 0.0, "bike_id": "2d3f377c5118f9cde62fd8b9c88e42eb", "type": "electric_scooter", "name": "2d3f377c5118f9cde62fd8b9c88e42eb", "rental_uris": {"android": "https://dc.lft.to/lastmile_qr_scan", "ios": "https://dc.lft.to/lastmile_qr_scan"}, "is_disabled": 0, "fusion_lat": 0.0, "lat": 38.904515, "is_reserved": 0}, {"lon": -77.02581666666667, "fusion_lon": 0.0, "bike_id": "4f3ccc1a56c7169e57b28dcad4c7800c", "type": "electric_scooter", "name": "4f3ccc1a56c7169e57b28dcad4c7800c", "rental_uris": {"android": "https://dc.lft.to/lastmile_qr_scan", "ios": "https://dc.lft.to/lastmile_qr_scan"}, "is_disabled": 0, "fusion_lat": 0.0, "lat": 38.90425033333333, "is_reserved": 0}, {"lon": -77.06345716666667, "fusion_lon": 0.0, "bike_id": "793e288dc9b80031af92a9ed92bf8975", "type": "electric_scooter", "name": "793e288dc9b80031af92a9ed92bf8975", "rental_uris": {"android": "https://dc.lft.to/lastmile_qr_scan", "ios": "https://dc.lft.to/lastmile_qr_scan"}, "is_disabled": 0, "fusion_lat": 0.0, "lat": 38.906803, "is_reserved": 0}, {"lon": -77.02592516666667, "fusion_lon": 0.0, "bike_id": "273d04203fa7f3f5d2a1a175dcf10928", "type": "electric_scooter", "name": "273d04203fa7f3f5d2a1a175dcf10928", "rental_uris": {"android": "https://dc.lft.to/lastmile_qr_scan", "ios": "https://dc.lft.to/lastmile_qr_scan"}, "is_disabled": 0, "fusion_lat": 0.0, "lat": 38.963918666666665, "is_reserved": 0}, {"lon": -77.02385716666667, "fusion_lon": 0.0, "bike_id": "8107de6e2b3c130ac70a87493dfc3f5c", "type": "electric_scooter", "name": "8107de6e2b3c130ac70a87493dfc3f5c", "rental_uris": {"android": "https://dc.lft.to/lastmile_qr_scan", "ios": "https://dc.lft.to/lastmile_qr_scan"}, "is_disabled": 0, "fusion_lat": 0.0, "lat": 38.89228883333333, "is_reserved": 0}, {"lon": -77.05910883333334, "fusion_lon": 0.0, "bike_id": "3abfe069e79fc15ad344d5f723863df9", "type": "electric_bike", "name": "3abfe069e79fc15ad344d5f723863df9", "rental_uris": {"android": "https://dc.lft.to/lastmile_qr_scan", "ios": "https://dc.lft.to/lastmile_qr_scan"}, "is_disabled": 0, "fusion_lat": 0.0, "lat": 38.90538033333333, "is_reserved": 0}, {"lon": -77.0127625, "fusion_lon": 0.0, "bike_id": "d4c01c769da467b3752efd683b9925a9", "type": "electric_scooter", "name": "d4c01c769da467b3752efd683b9925a9", "rental_uris": {"android": "https://dc.lft.to/lastmile_qr_scan", "ios": "https://dc.lft.to/lastmile_qr_scan"}, "is_disabled": 0, "fusion_lat": 0.0, "lat": 38.8730265, "is_reserved": 0}, {"lon": -76.99768633333333, "fusion_lon": 0.0, "bike_id": "888a22fd422613f58f2acf433e9b4417", "type": "electric_scooter", "name": "888a22fd422613f58f2acf433e9b4417", "rental_uris": {"android": "https://dc.lft.to/lastmile_qr_scan", "ios": "https://dc.lft.to/lastmile_qr_scan"}, "is_disabled": 0, "fusion_lat": 0.0, "lat": 38.911142, "is_reserved": 0}, {"lon": -77.018119, "fusion_lon": 0.0, "bike_id": "60529a5251660577777d8fa6acc47dac", "type": "electric_scooter", "name": "60529a5251660577777d8fa6acc47dac", "rental_uris": {"android": "https://dc.lft.to/lastmile_qr_scan", "ios": "https://dc.lft.to/lastmile_qr_scan"}, "is_disabled": 0, "fusion_lat": 0.0, "lat": 38.90117083333333, "is_reserved": 0}, {"lon": -77.0392595, "fusion_lon": 0.0, "bike_id": "822b98a1f1855e12cac826c82078672e", "type": "electric_scooter", "name": "822b98a1f1855e12cac826c82078672e", "rental_uris": {"android": "https://dc.lft.to/lastmile_qr_scan", "ios": "https://dc.lft.to/lastmile_qr_scan"}, "is_disabled": 0, "fusion_lat": 0.0, "lat": 38.91112666666667, "is_reserved": 0}, {"lon": -77.03854766666667, "fusion_lon": 0.0, "bike_id": "6f81e72325c814849065f92d14755abd", "type": "electric_scooter", "name": "6f81e72325c814849065f92d14755abd", "rental_uris": {"android": "https://dc.lft.to/lastmile_qr_scan", "ios": "https://dc.lft.to/lastmile_qr_scan"}, "is_disabled": 0, "fusion_lat": 0.0, "lat": 38.917679666666665, "is_reserved": 0}, {"lon": -77.05727533333334, "fusion_lon": 0.0, "bike_id": "251031892d8655ad5bd1959a697affcd", "type": "electric_scooter", "name": "251031892d8655ad5bd1959a697affcd", "rental_uris": {"android": "https://dc.lft.to/lastmile_qr_scan", "ios": "https://dc.lft.to/lastmile_qr_scan"}, "is_disabled": 0, "fusion_lat": 0.0, "lat": 38.9335895, "is_reserved": 0}, {"lon": -77.01779033333334, "fusion_lon": 0.0, "bike_id": "2625e0a5de1fc68c87672ee7435bd74f", "type": "electric_scooter", "name": "2625e0a5de1fc68c87672ee7435bd74f", "rental_uris": {"android": "https://dc.lft.to/lastmile_qr_scan", "ios": "https://dc.lft.to/lastmile_qr_scan"}, "is_disabled": 0, "fusion_lat": 0.0, "lat": 38.88713216666667, "is_reserved": 0}, {"lon": -77.058632, "fusion_lon": 0.0, "bike_id": "22d57386c0d3543d7edd10c1936e899c", "type": "electric_scooter", "name": "22d57386c0d3543d7edd10c1936e899c", "rental_uris": {"android": "https://dc.lft.to/lastmile_qr_scan", "ios": "https://dc.lft.to/lastmile_qr_scan"}, "is_disabled": 0, "fusion_lat": 0.0, "lat": 38.9361125, "is_reserved": 0}, {"lon": -76.92591866666666, "fusion_lon": 0.0, "bike_id": "25c28b0135f18b7a569c66f2b38993f7", "type": "electric_scooter", "name": "25c28b0135f18b7a569c66f2b38993f7", "rental_uris": {"android": "https://dc.lft.to/lastmile_qr_scan", "ios": "https://dc.lft.to/lastmile_qr_scan"}, "is_disabled": 0, "fusion_lat": 0.0, "lat": 38.893566166666666, "is_reserved": 0}, {"lon": -77.09672333333333, "fusion_lon": 0.0, "bike_id": "02d1ce2942203d9c50ed3bfbee328167", "type": "electric_bike", "name": "02d1ce2942203d9c50ed3bfbee328167", "rental_uris": {"android": "https://dc.lft.to/lastmile_qr_scan", "ios": "https://dc.lft.to/lastmile_qr_scan"}, "is_disabled": 0, "fusion_lat": 0.0, "lat": 38.9461875, "is_reserved": 0}, {"lon": -76.98340583333334, "fusion_lon": 0.0, "bike_id": "f90bc7d4b9ba582de6158d316529fc76", "type": "electric_scooter", "name": "f90bc7d4b9ba582de6158d316529fc76", "rental_uris": {"android": "https://dc.lft.to/lastmile_qr_scan", "ios": "https://dc.lft.to/lastmile_qr_scan"}, "is_disabled": 0, "fusion_lat": 0.0, "lat": 38.865611333333334, "is_reserved": 0}, {"lon": -76.99992983333334, "fusion_lon": 0.0, "bike_id": "bdad19cd8d8723dd243cd855ca0b5db2", "type": "electric_scooter", "name": "bdad19cd8d8723dd243cd855ca0b5db2", "rental_uris": {"android": "https://dc.lft.to/lastmile_qr_scan", "ios": "https://dc.lft.to/lastmile_qr_scan"}, "is_disabled": 0, "fusion_lat": 0.0, "lat": 38.87519966666667, "is_reserved": 0}, {"lon": -77.03736433333333, "fusion_lon": 0.0, "bike_id": "4150472de7bd143c05b4cb3489bf9830", "type": "electric_scooter", "name": "4150472de7bd143c05b4cb3489bf9830", "rental_uris": {"android": "https://dc.lft.to/lastmile_qr_scan", "ios": "https://dc.lft.to/lastmile_qr_scan"}, "is_disabled": 0, "fusion_lat": 0.0, "lat": 38.90232733333333, "is_reserved": 0}, {"lon": -77.05861133333333, "fusion_lon": 0.0, "bike_id": "7a3097afc5edec1e536aa45810bd732e", "type": "electric_scooter", "name": "7a3097afc5edec1e536aa45810bd732e", "rental_uris": {"android": "https://dc.lft.to/lastmile_qr_scan", "ios": "https://dc.lft.to/lastmile_qr_scan"}, "is_disabled": 0, "fusion_lat": 0.0, "lat": 38.93607516666667, "is_reserved": 0}, {"lon": -77.004446, "fusion_lon": 0.0, "bike_id": "409e2c4de70f104a11d9c6798d0c8476", "type": "electric_scooter", "name": "409e2c4de70f104a11d9c6798d0c8476", "rental_uris": {"android": "https://dc.lft.to/lastmile_qr_scan", "ios": "https://dc.lft.to/lastmile_qr_scan"}, "is_disabled": 0, "fusion_lat": 0.0, "lat": 38.911736, "is_reserved": 0}, {"lon": -77.05228333333334, "fusion_lon": 0.0, "bike_id": "1a83b90c53093a7eab400c1529cbd6ac", "type": "electric_scooter", "name": "1a83b90c53093a7eab400c1529cbd6ac", "rental_uris": {"android": "https://dc.lft.to/lastmile_qr_scan", "ios": "https://dc.lft.to/lastmile_qr_scan"}, "is_disabled": 0, "fusion_lat": 0.0, "lat": 38.9244405, "is_reserved": 0}, {"lon": -77.029466, "fusion_lon": 0.0, "bike_id": "f60ee5f7ce156a5785aff916a4baeb0a", "type": "electric_scooter", "name": "f60ee5f7ce156a5785aff916a4baeb0a", "rental_uris": {"android": "https://dc.lft.to/lastmile_qr_scan", "ios": "https://dc.lft.to/lastmile_qr_scan"}, "is_disabled": 0, "fusion_lat": 0.0, "lat": 38.9027225, "is_reserved": 0}, {"lon": -77.05144616666666, "fusion_lon": 0.0, "bike_id": "21adbff949e467ad9d98604ea470aa6a", "type": "electric_scooter", "name": "21adbff949e467ad9d98604ea470aa6a", "rental_uris": {"android": "https://dc.lft.to/lastmile_qr_scan", "ios": "https://dc.lft.to/lastmile_qr_scan"}, "is_disabled": 0, "fusion_lat": 0.0, "lat": 38.901938666666666, "is_reserved": 0}, {"lon": -77.00478433333333, "fusion_lon": 0.0, "bike_id": "54f56549792e51e3fcbe76232016307d", "type": "electric_scooter", "name": "54f56549792e51e3fcbe76232016307d", "rental_uris": {"android": "https://dc.lft.to/lastmile_qr_scan", "ios": "https://dc.lft.to/lastmile_qr_scan"}, "is_disabled": 0, "fusion_lat": 0.0, "lat": 38.874453, "is_reserved": 0}, {"lon": -77.084288, "fusion_lon": 0.0, "bike_id": "029cb79774fd85fb58d40ba0f3f86824", "type": "electric_scooter", "name": "029cb79774fd85fb58d40ba0f3f86824", "rental_uris": {"android": "https://dc.lft.to/lastmile_qr_scan", "ios": "https://dc.lft.to/lastmile_qr_scan"}, "is_disabled": 0, "fusion_lat": 0.0, "lat": 38.9399475, "is_reserved": 0}, {"lon": -77.02403783333334, "fusion_lon": 0.0, "bike_id": "19e4e2c0d3fe9978cae866d734433750", "type": "electric_scooter", "name": "19e4e2c0d3fe9978cae866d734433750", "rental_uris": {"android": "https://dc.lft.to/lastmile_qr_scan", "ios": "https://dc.lft.to/lastmile_qr_scan"}, "is_disabled": 0, "fusion_lat": 0.0, "lat": 38.905714333333336, "is_reserved": 0}, {"lon": -77.022897, "fusion_lon": 0.0, "bike_id": "877cebc861ba41a794606cab0df686a5", "type": "electric_scooter", "name": "877cebc861ba41a794606cab0df686a5", "rental_uris": {"android": "https://dc.lft.to/lastmile_qr_scan", "ios": "https://dc.lft.to/lastmile_qr_scan"}, "is_disabled": 0, "fusion_lat": 0.0, "lat": 38.894983833333335, "is_reserved": 0}, {"lon": -77.04620483333333, "fusion_lon": 0.0, "bike_id": "042d0ddf6e4a31e99cf237f52752458c", "type": "electric_scooter", "name": "042d0ddf6e4a31e99cf237f52752458c", "rental_uris": {"android": "https://dc.lft.to/lastmile_qr_scan", "ios": "https://dc.lft.to/lastmile_qr_scan"}, "is_disabled": 0, "fusion_lat": 0.0, "lat": 38.9167705, "is_reserved": 0}, {"lon": -77.01782366666667, "fusion_lon": 0.0, "bike_id": "200bc7bed218f28f03e3b22ebbc48df5", "type": "electric_scooter", "name": "200bc7bed218f28f03e3b22ebbc48df5", "rental_uris": {"android": "https://dc.lft.to/lastmile_qr_scan", "ios": "https://dc.lft.to/lastmile_qr_scan"}, "is_disabled": 0, "fusion_lat": 0.0, "lat": 38.9008335, "is_reserved": 0}, {"lon": -77.03672266666666, "fusion_lon": 0.0, "bike_id": "18ecf5cc0e2613a438964b8420616284", "type": "electric_bike", "name": "18ecf5cc0e2613a438964b8420616284", "rental_uris": {"android": "https://dc.lft.to/lastmile_qr_scan", "ios": "https://dc.lft.to/lastmile_qr_scan"}, "is_disabled": 0, "fusion_lat": 0.0, "lat": 38.93647416666667, "is_reserved": 0}, {"lon": -77.03881666666666, "fusion_lon": 0.0, "bike_id": "b02cb54567f33ffa9173645e24d77841", "type": "electric_scooter", "name": "b02cb54567f33ffa9173645e24d77841", "rental_uris": {"android": "https://dc.lft.to/lastmile_qr_scan", "ios": "https://dc.lft.to/lastmile_qr_scan"}, "is_disabled": 0, "fusion_lat": 0.0, "lat": 38.914693166666666, "is_reserved": 0}, {"lon": -77.03386533333334, "fusion_lon": 0.0, "bike_id": "8b61abe9f5961fd909f85d2b353d1a8c", "type": "electric_scooter", "name": "8b61abe9f5961fd909f85d2b353d1a8c", "rental_uris": {"android": "https://dc.lft.to/lastmile_qr_scan", "ios": "https://dc.lft.to/lastmile_qr_scan"}, "is_disabled": 0, "fusion_lat": 0.0, "lat": 38.925429333333334, "is_reserved": 0}, {"lon": -77.08064133333333, "fusion_lon": 0.0, "bike_id": "bdaa0b955bcd0faf036af44c21ed815e", "type": "electric_bike", "name": "bdaa0b955bcd0faf036af44c21ed815e", "rental_uris": {"android": "https://dc.lft.to/lastmile_qr_scan", "ios": "https://dc.lft.to/lastmile_qr_scan"}, "is_disabled": 0, "fusion_lat": 0.0, "lat": 39.052494333333335, "is_reserved": 0}, {"lon": -77.04483266666666, "fusion_lon": 0.0, "bike_id": "85d206f0f8d30f3ef01bc60e93da9c1f", "type": "electric_scooter", "name": "85d206f0f8d30f3ef01bc60e93da9c1f", "rental_uris": {"android": "https://dc.lft.to/lastmile_qr_scan", "ios": "https://dc.lft.to/lastmile_qr_scan"}, "is_disabled": 0, "fusion_lat": 0.0, "lat": 38.897522333333335, "is_reserved": 0}, {"lon": -77.03846033333333, "fusion_lon": 0.0, "bike_id": "6170cd8915bc072983567ff1558a4bcf", "type": "electric_scooter", "name": "6170cd8915bc072983567ff1558a4bcf", "rental_uris": {"android": "https://dc.lft.to/lastmile_qr_scan", "ios": "https://dc.lft.to/lastmile_qr_scan"}, "is_disabled": 0, "fusion_lat": 0.0, "lat": 38.90276133333333, "is_reserved": 0}, {"lon": -76.9703545, "fusion_lon": 0.0, "bike_id": "e284b5dc106cea32466f057c9bef9802", "type": "electric_scooter", "name": "e284b5dc106cea32466f057c9bef9802", "rental_uris": {"android": "https://dc.lft.to/lastmile_qr_scan", "ios": "https://dc.lft.to/lastmile_qr_scan"}, "is_disabled": 0, "fusion_lat": 0.0, "lat": 38.873586, "is_reserved": 0}, {"lon": -77.0165235, "fusion_lon": 0.0, "bike_id": "b42967f374cc2e9c409cfc30476745c7", "type": "electric_scooter", "name": "b42967f374cc2e9c409cfc30476745c7", "rental_uris": {"android": "https://dc.lft.to/lastmile_qr_scan", "ios": "https://dc.lft.to/lastmile_qr_scan"}, "is_disabled": 0, "fusion_lat": 0.0, "lat": 38.881217, "is_reserved": 0}, {"lon": -76.9605935, "fusion_lon": 0.0, "bike_id": "0476d8c12b18a8d5d0dd746aa7bf0939", "type": "electric_bike", "name": "0476d8c12b18a8d5d0dd746aa7bf0939", "rental_uris": {"android": "https://dc.lft.to/lastmile_qr_scan", "ios": "https://dc.lft.to/lastmile_qr_scan"}, "is_disabled": 0, "fusion_lat": 0.0, "lat": 38.88326683333333, "is_reserved": 0}, {"lon": -77.04421883333333, "fusion_lon": 0.0, "bike_id": "bc4c85c842bd93ccad991e4b005d3f60", "type": "electric_scooter", "name": "bc4c85c842bd93ccad991e4b005d3f60", "rental_uris": {"android": "https://dc.lft.to/lastmile_qr_scan", "ios": "https://dc.lft.to/lastmile_qr_scan"}, "is_disabled": 0, "fusion_lat": 0.0, "lat": 38.8940355, "is_reserved": 0}, {"lon": -77.04314333333333, "fusion_lon": 0.0, "bike_id": "8efea6021064033717aef84e6efb60f8", "type": "electric_scooter", "name": "8efea6021064033717aef84e6efb60f8", "rental_uris": {"android": "https://dc.lft.to/lastmile_qr_scan", "ios": "https://dc.lft.to/lastmile_qr_scan"}, "is_disabled": 0, "fusion_lat": 0.0, "lat": 38.900362333333334, "is_reserved": 0}, {"lon": -76.98003933333334, "fusion_lon": 0.0, "bike_id": "4bbb86825854e40b1cb48734360d5612", "type": "electric_scooter", "name": "4bbb86825854e40b1cb48734360d5612", "rental_uris": {"android": "https://dc.lft.to/lastmile_qr_scan", "ios": "https://dc.lft.to/lastmile_qr_scan"}, "is_disabled": 0, "fusion_lat": 0.0, "lat": 38.906811166666664, "is_reserved": 0}, {"lon": -77.03454816666667, "fusion_lon": 0.0, "bike_id": "4f62785a787d2d0c8c0aa1835504448d", "type": "electric_scooter", "name": "4f62785a787d2d0c8c0aa1835504448d", "rental_uris": {"android": "https://dc.lft.to/lastmile_qr_scan", "ios": "https://dc.lft.to/lastmile_qr_scan"}, "is_disabled": 0, "fusion_lat": 0.0, "lat": 38.90729983333333, "is_reserved": 0}, {"lon": -77.0021005, "fusion_lon": 0.0, "bike_id": "1ac01ced399c917c195dfbe335b4b874", "type": "electric_scooter", "name": "1ac01ced399c917c195dfbe335b4b874", "rental_uris": {"android": "https://dc.lft.to/lastmile_qr_scan", "ios": "https://dc.lft.to/lastmile_qr_scan"}, "is_disabled": 0, "fusion_lat": 0.0, "lat": 38.9145875, "is_reserved": 0}, {"lon": -76.99486183333333, "fusion_lon": 0.0, "bike_id": "9c56bee6ca80facd842c83ea19ddf0aa", "type": "electric_scooter", "name": "9c56bee6ca80facd842c83ea19ddf0aa", "rental_uris": {"android": "https://dc.lft.to/lastmile_qr_scan", "ios": "https://dc.lft.to/lastmile_qr_scan"}, "is_disabled": 0, "fusion_lat": 0.0, "lat": 38.8983615, "is_reserved": 0}, {"lon": -77.02157433333333, "fusion_lon": 0.0, "bike_id": "96c55501d5b5779107eadd53a537d943", "type": "electric_scooter", "name": "96c55501d5b5779107eadd53a537d943", "rental_uris": {"android": "https://dc.lft.to/lastmile_qr_scan", "ios": "https://dc.lft.to/lastmile_qr_scan"}, "is_disabled": 0, "fusion_lat": 0.0, "lat": 38.92600766666666, "is_reserved": 0}, {"lon": -76.985666, "fusion_lon": 0.0, "bike_id": "3458c59863d02fdb48f82a2cba0b1858", "type": "electric_scooter", "name": "3458c59863d02fdb48f82a2cba0b1858", "rental_uris": {"android": "https://dc.lft.to/lastmile_qr_scan", "ios": "https://dc.lft.to/lastmile_qr_scan"}, "is_disabled": 0, "fusion_lat": 0.0, "lat": 38.89996566666667, "is_reserved": 0}, {"lon": -77.02714883333333, "fusion_lon": 0.0, "bike_id": "faaa2a4dcbe0ab2635361815197d4dee", "type": "electric_scooter", "name": "faaa2a4dcbe0ab2635361815197d4dee", "rental_uris": {"android": "https://dc.lft.to/lastmile_qr_scan", "ios": "https://dc.lft.to/lastmile_qr_scan"}, "is_disabled": 0, "fusion_lat": 0.0, "lat": 38.90790233333333, "is_reserved": 0}, {"lon": -77.02182566666667, "fusion_lon": 0.0, "bike_id": "2605b6e3879c2b05c5348bfcfbdc87d3", "type": "electric_scooter", "name": "2605b6e3879c2b05c5348bfcfbdc87d3", "rental_uris": {"android": "https://dc.lft.to/lastmile_qr_scan", "ios": "https://dc.lft.to/lastmile_qr_scan"}, "is_disabled": 0, "fusion_lat": 0.0, "lat": 38.893774666666665, "is_reserved": 0}, {"lon": -77.00139216666666, "fusion_lon": 0.0, "bike_id": "21fd0b6e10e10407bef52f8426c06d2d", "type": "electric_scooter", "name": "21fd0b6e10e10407bef52f8426c06d2d", "rental_uris": {"android": "https://dc.lft.to/lastmile_qr_scan", "ios": "https://dc.lft.to/lastmile_qr_scan"}, "is_disabled": 0, "fusion_lat": 0.0, "lat": 38.90511, "is_reserved": 0}, {"lon": -77.023675, "fusion_lon": 0.0, "bike_id": "d28bea22b7da42846a663e40a532b720", "type": "electric_scooter", "name": "d28bea22b7da42846a663e40a532b720", "rental_uris": {"android": "https://dc.lft.to/lastmile_qr_scan", "ios": "https://dc.lft.to/lastmile_qr_scan"}, "is_disabled": 0, "fusion_lat": 0.0, "lat": 38.92910233333333, "is_reserved": 0}, {"lon": -77.00111383333333, "fusion_lon": 0.0, "bike_id": "db02d7abb2c4059580a94463d22a49e3", "type": "electric_scooter", "name": "db02d7abb2c4059580a94463d22a49e3", "rental_uris": {"android": "https://dc.lft.to/lastmile_qr_scan", "ios": "https://dc.lft.to/lastmile_qr_scan"}, "is_disabled": 0, "fusion_lat": 0.0, "lat": 38.87367866666666, "is_reserved": 0}, {"lon": -77.03824983333334, "fusion_lon": 0.0, "bike_id": "9fa57072e78b5ecd223e3db650f9263c", "type": "electric_scooter", "name": "9fa57072e78b5ecd223e3db650f9263c", "rental_uris": {"android": "https://dc.lft.to/lastmile_qr_scan", "ios": "https://dc.lft.to/lastmile_qr_scan"}, "is_disabled": 0, "fusion_lat": 0.0, "lat": 38.907943833333334, "is_reserved": 0}, {"lon": -77.05508616666667, "fusion_lon": 0.0, "bike_id": "923bf9390f94b8be2f6fb15a20a69ad1", "type": "electric_scooter", "name": "923bf9390f94b8be2f6fb15a20a69ad1", "rental_uris": {"android": "https://dc.lft.to/lastmile_qr_scan", "ios": "https://dc.lft.to/lastmile_qr_scan"}, "is_disabled": 0, "fusion_lat": 0.0, "lat": 38.929449, "is_reserved": 0}, {"lon": -77.04153816666667, "fusion_lon": 0.0, "bike_id": "ac33e182aaeedcfaed8b492a426768ab", "type": "electric_scooter", "name": "ac33e182aaeedcfaed8b492a426768ab", "rental_uris": {"android": "https://dc.lft.to/lastmile_qr_scan", "ios": "https://dc.lft.to/lastmile_qr_scan"}, "is_disabled": 0, "fusion_lat": 0.0, "lat": 38.91952366666666, "is_reserved": 0}, {"lon": -77.01732466666667, "fusion_lon": 0.0, "bike_id": "d9b8caacd087e39c0867194f9bea3b3e", "type": "electric_scooter", "name": "d9b8caacd087e39c0867194f9bea3b3e", "rental_uris": {"android": "https://dc.lft.to/lastmile_qr_scan", "ios": "https://dc.lft.to/lastmile_qr_scan"}, "is_disabled": 0, "fusion_lat": 0.0, "lat": 38.91607583333333, "is_reserved": 0}, {"lon": -77.00071916666667, "fusion_lon": 0.0, "bike_id": "1886441399d791ef0d3d9ea91abfb279", "type": "electric_scooter", "name": "1886441399d791ef0d3d9ea91abfb279", "rental_uris": {"android": "https://dc.lft.to/lastmile_qr_scan", "ios": "https://dc.lft.to/lastmile_qr_scan"}, "is_disabled": 0, "fusion_lat": 0.0, "lat": 38.873759166666666, "is_reserved": 0}, {"lon": -77.02408033333333, "fusion_lon": 0.0, "bike_id": "52b1483c574917e20147b4dbb53055af", "type": "electric_scooter", "name": "52b1483c574917e20147b4dbb53055af", "rental_uris": {"android": "https://dc.lft.to/lastmile_qr_scan", "ios": "https://dc.lft.to/lastmile_qr_scan"}, "is_disabled": 0, "fusion_lat": 0.0, "lat": 38.90576266666667, "is_reserved": 0}, {"lon": -77.0060235, "fusion_lon": 0.0, "bike_id": "a2622e4ba07354d7fa32f68b19dd81e4", "type": "electric_scooter", "name": "a2622e4ba07354d7fa32f68b19dd81e4", "rental_uris": {"android": "https://dc.lft.to/lastmile_qr_scan", "ios": "https://dc.lft.to/lastmile_qr_scan"}, "is_disabled": 0, "fusion_lat": 0.0, "lat": 38.8756495, "is_reserved": 0}, {"lon": -77.04393683333333, "fusion_lon": 0.0, "bike_id": "a00e32f26b1908b5d9883312680255ee", "type": "electric_scooter", "name": "a00e32f26b1908b5d9883312680255ee", "rental_uris": {"android": "https://dc.lft.to/lastmile_qr_scan", "ios": "https://dc.lft.to/lastmile_qr_scan"}, "is_disabled": 0, "fusion_lat": 0.0, "lat": 38.91044683333333, "is_reserved": 0}, {"lon": -77.016524, "fusion_lon": 0.0, "bike_id": "6a5e4ac81a3884b84cc7b4be7a696da4", "type": "electric_scooter", "name": "6a5e4ac81a3884b84cc7b4be7a696da4", "rental_uris": {"android": "https://dc.lft.to/lastmile_qr_scan", "ios": "https://dc.lft.to/lastmile_qr_scan"}, "is_disabled": 0, "fusion_lat": 0.0, "lat": 38.88106833333333, "is_reserved": 0}, {"lon": -77.03635733333333, "fusion_lon": 0.0, "bike_id": "fc8406a15ce56be007af06c2ce47f507", "type": "electric_scooter", "name": "fc8406a15ce56be007af06c2ce47f507", "rental_uris": {"android": "https://dc.lft.to/lastmile_qr_scan", "ios": "https://dc.lft.to/lastmile_qr_scan"}, "is_disabled": 0, "fusion_lat": 0.0, "lat": 38.927410333333334, "is_reserved": 0}, {"lon": -77.0304225, "fusion_lon": 0.0, "bike_id": "ec04ee9d54e64f5a53dcc472b3cd9e2d", "type": "electric_scooter", "name": "ec04ee9d54e64f5a53dcc472b3cd9e2d", "rental_uris": {"android": "https://dc.lft.to/lastmile_qr_scan", "ios": "https://dc.lft.to/lastmile_qr_scan"}, "is_disabled": 0, "fusion_lat": 0.0, "lat": 38.91620016666667, "is_reserved": 0}, {"lon": -77.03405766666667, "fusion_lon": 0.0, "bike_id": "4e5377eb72b89596c575063dc9ce5720", "type": "electric_scooter", "name": "4e5377eb72b89596c575063dc9ce5720", "rental_uris": {"android": "https://dc.lft.to/lastmile_qr_scan", "ios": "https://dc.lft.to/lastmile_qr_scan"}, "is_disabled": 0, "fusion_lat": 0.0, "lat": 38.922070833333336, "is_reserved": 0}, {"lon": -77.021999, "fusion_lon": 0.0, "bike_id": "bdaed43efa8175b2bdb8cff044af0b13", "type": "electric_scooter", "name": "bdaed43efa8175b2bdb8cff044af0b13", "rental_uris": {"android": "https://dc.lft.to/lastmile_qr_scan", "ios": "https://dc.lft.to/lastmile_qr_scan"}, "is_disabled": 0, "fusion_lat": 0.0, "lat": 38.91126633333333, "is_reserved": 0}, {"lon": -76.98371183333333, "fusion_lon": 0.0, "bike_id": "c0890e690ced8c5902d970aab11b8678", "type": "electric_scooter", "name": "c0890e690ced8c5902d970aab11b8678", "rental_uris": {"android": "https://dc.lft.to/lastmile_qr_scan", "ios": "https://dc.lft.to/lastmile_qr_scan"}, "is_disabled": 0, "fusion_lat": 0.0, "lat": 38.9149075, "is_reserved": 0}, {"lon": -77.00263083333333, "fusion_lon": 0.0, "bike_id": "7322c5326159f9bc1210257c282f63c1", "type": "electric_scooter", "name": "7322c5326159f9bc1210257c282f63c1", "rental_uris": {"android": "https://dc.lft.to/lastmile_qr_scan", "ios": "https://dc.lft.to/lastmile_qr_scan"}, "is_disabled": 0, "fusion_lat": 0.0, "lat": 38.9057895, "is_reserved": 0}, {"lon": -77.01533616666667, "fusion_lon": 0.0, "bike_id": "c047706572dd0d896117732621ffa3b6", "type": "electric_scooter", "name": "c047706572dd0d896117732621ffa3b6", "rental_uris": {"android": "https://dc.lft.to/lastmile_qr_scan", "ios": "https://dc.lft.to/lastmile_qr_scan"}, "is_disabled": 0, "fusion_lat": 0.0, "lat": 38.887404833333335, "is_reserved": 0}, {"lon": -76.9691515, "fusion_lon": 0.0, "bike_id": "55fa3fa82b01ed51c63201dbdd552b60", "type": "electric_bike", "name": "55fa3fa82b01ed51c63201dbdd552b60", "rental_uris": {"android": "https://dc.lft.to/lastmile_qr_scan", "ios": "https://dc.lft.to/lastmile_qr_scan"}, "is_disabled": 0, "fusion_lat": 0.0, "lat": 38.846128666666665, "is_reserved": 0}, {"lon": -77.03323483333334, "fusion_lon": 0.0, "bike_id": "9de4896c506c2ca457ae91b5baeb1ea4", "type": "electric_scooter", "name": "9de4896c506c2ca457ae91b5baeb1ea4", "rental_uris": {"android": "https://dc.lft.to/lastmile_qr_scan", "ios": "https://dc.lft.to/lastmile_qr_scan"}, "is_disabled": 0, "fusion_lat": 0.0, "lat": 38.92888216666667, "is_reserved": 0}, {"lon": -77.0142355, "fusion_lon": 0.0, "bike_id": "2e34d4b2558b0a91ae23abc8c7c90138", "type": "electric_scooter", "name": "2e34d4b2558b0a91ae23abc8c7c90138", "rental_uris": {"android": "https://dc.lft.to/lastmile_qr_scan", "ios": "https://dc.lft.to/lastmile_qr_scan"}, "is_disabled": 0, "fusion_lat": 0.0, "lat": 38.90958833333333, "is_reserved": 0},