{"data": {"bikes": [{"bike_id": "bb204634ccdb17b8e81642a283acf10f", "is_reserved": 0, "fusion_lon": 0.0, "lat": 38.928333333333335, "is_disabled": 0, "name": "bb204634ccdb17b8e81642a283acf10f", "fusion_lat": 0.0, "rental_uris": {"ios": "https://dc.lft.to/lastmile_qr_scan", "android": "https://dc.lft.to/lastmile_qr_scan"}, "lon": -77.0326075, "type": "electric_scooter"}, {"bike_id": "cb3de8999126539327ca686529bd5abc", "is_reserved": 0, "fusion_lon": 0.0, "lat": 38.916252666666665, "is_disabled": 0, "name": "cb3de8999126539327ca686529bd5abc", "fusion_lat": 0.0, "rental_uris": {"ios": "https://dc.lft.to/lastmile_qr_scan", "android": "https://dc.lft.to/lastmile_qr_scan"}, "lon": -77.0315435, "type": "electric_scooter"}, {"bike_id": "88f3a77b77923083b6796fe9c1c57fdd", "is_reserved": 0, "fusion_lon": 0.0, "lat": 38.912691, "is_disabled": 0, "name": "88f3a77b77923083b6796fe9c1c57fdd", "fusion_lat": 0.0, "rental_uris": {"ios": "https://dc.lft.to/lastmile_qr_scan", "android": "https://dc.lft.to/lastmile_qr_scan"}, "lon": -77.07279633333333, "type": "electric_scooter"}, {"bike_id": "15e90fb5093f073fcd67496b91c0fed4", "is_reserved": 0, "fusion_lon": 0.0, "lat": 38.8850105, "is_disabled": 0, "name": "15e90fb5093f073fcd67496b91c0fed4", "fusion_lat": 0.0, "rental_uris": {"ios": "https://dc.lft.to/lastmile_qr_scan", "android": "https://dc.lft.to/lastmile_qr_scan"}, "lon": -77.09694833333333, "type": "electric_bike"}, {"bike_id": "0ce9d9c7ae1e54115566de506f4fa74b", "is_reserved": 0, "fusion_lon": 0.0, "lat": 38.90298133333334, "is_disabled": 0, "name": "0ce9d9c7ae1e54115566de506f4fa74b", "fusion_lat": 0.0, "rental_uris": {"ios": "https://dc.lft.to/lastmile_qr_scan", "android": "https://dc.lft.to/lastmile_qr_scan"}, "lon": -76.9986145, "type": "electric_scooter"}, {"bike_id": "b7a1a9014d1bff4cf10c6d7280713044", "is_reserved": 0, "fusion_lon": 0.0, "lat": 38.87838333333333, "is_disabled": 0, "name": "b7a1a9014d1bff4cf10c6d7280713044", "fusion_lat": 0.0, "rental_uris": {"ios": "https://dc.lft.to/lastmile_qr_scan", "android": "https://dc.lft.to/lastmile_qr_scan"}, "lon": -76.99042066666667, "type": "electric_scooter"}, {"bike_id": "bb22338f87eb7bb60fee664bce9cf0fa", "is_reserved": 0, "fusion_lon": 0.0, "lat": 38.91926433333333, "is_disabled": 0, "name": "bb22338f87eb7bb60fee664bce9cf0fa", "fusion_lat": 0.0, "rental_uris": {"ios": "https://dc.lft.to/lastmile_qr_scan", "android": "https://dc.lft.to/lastmile_qr_scan"}, "lon": -77.03183466666667, "type": "electric_scooter"}, {"bike_id": "a4454161f82f32823161d3c1db2969b9", "is_reserved": 0, "fusion_lon": 0.0, "lat": 38.919131166666666, "is_disabled": 0, "name": "a4454161f82f32823161d3c1db2969b9", "fusion_lat": 0.0, "rental_uris": {"ios": "https://dc.lft.to/lastmile_qr_scan", "android": "https://dc.lft.to/lastmile_qr_scan"}, "lon": -77.01345966666666, "type": "electric_scooter"}, {"bike_id": "6ab8c765fd6476f91b8100f8ad1f7bb0", "is_reserved": 0, "fusion_lon": 0.0, "lat": 38.84293016666667, "is_disabled": 0, "name": "6ab8c765fd6476f91b8100f8ad1f7bb0", "fusion_lat": 0.0, "rental_uris": {"ios": "https://dc.lft.to/lastmile_qr_scan", "android": "https://dc.lft.to/lastmile_qr_scan"}, "lon": -76.99949416666666, "type": "electric_scooter"}, {"bike_id": "7195b0bb501dcf6d832838d7b94b66cd", "is_reserved": 0, "fusion_lon": 0.0, "lat": 38.904429, "is_disabled": 0, "name": "7195b0bb501dcf6d832838d7b94b66cd", "fusion_lat": 0.0, "rental_uris": {"ios": "https://dc.lft.to/lastmile_qr_scan", "android": "https://dc.lft.to/lastmile_qr_scan"}, "lon": -76.996288, "type": "electric_scooter"}, {"bike_id": "35a5b7058f9da3deaf7b31df2872fde9", "is_reserved": 0, "fusion_lon": 0.0, "lat": 38.856181166666666, "is_disabled": 0, "name": "35a5b7058f9da3deaf7b31df2872fde9", "fusion_lat": 0.0, "rental_uris": {"ios": "https://dc.lft.to/lastmile_qr_scan", "android": "https://dc.lft.to/lastmile_qr_scan"}, "lon": -76.9801985, "type": "electric_scooter"}, {"bike_id": "7912a8e5d30d1e5a48d235f94bf7ab63", "is_reserved": 0, "fusion_lon": 0.0, "lat": 38.876291, "is_disabled": 0, "name": "7912a8e5d30d1e5a48d235f94bf7ab63", "fusion_lat": 0.0, "rental_uris": {"ios": "https://dc.lft.to/lastmile_qr_scan", "android": "https://dc.lft.to/lastmile_qr_scan"}, "lon": -76.96524033333333, "type": "electric_scooter"}, {"bike_id": "d1834a97e2983dcc961da3e1610bb304", "is_reserved": 0, "fusion_lon": 0.0, "lat": 38.89197633333333, "is_disabled": 0, "name": "d1834a97e2983dcc961da3e1610bb304", "fusion_lat": 0.0, "rental_uris": {"ios": "https://dc.lft.to/lastmile_qr_scan", "android": "https://dc.lft.to/lastmile_qr_scan"}, "lon": -77.015522, "type": "electric_scooter"}, {"bike_id": "de1d214480e1aadffeed4325df8b272a", "is_reserved": 0, "fusion_lon": 0.0, "lat": 39.03051516666667, "is_disabled": 0, "name": "de1d214480e1aadffeed4325df8b272a", "fusion_lat": 0.0, "rental_uris": {"ios": "https://dc.lft.to/lastmile_qr_scan", "android": "https://dc.lft.to/lastmile_qr_scan"}, "lon": -77.0949, "type": "electric_bike"}, {"bike_id": "c0d5b9218711433aace23e1de9c28bfc", "is_reserved": 0, "fusion_lon": 0.0, "lat": 38.8870435, "is_disabled": 0, "name": "c0d5b9218711433aace23e1de9c28bfc", "fusion_lat": 0.0, "rental_uris": {"ios": "https://dc.lft.to/lastmile_qr_scan", "android": "https://dc.lft.to/lastmile_qr_scan"}, "lon": -77.00149966666666, "type": "electric_scooter"}, {"bike_id": "071c2d848300c44ddfba7bd7ec06c6fa", "is_reserved": 0, "fusion_lon": 0.0, "lat": 38.89563033333334, "is_disabled": 0, "name": "071c2d848300c44ddfba7bd7ec06c6fa", "fusion_lat": 0.0, "rental_uris": {"ios": "https://dc.lft.to/lastmile_qr_scan", "android": "https://dc.lft.to/lastmile_qr_scan"}, "lon": -77.02572866666667, "type": "electric_scooter"}, {"bike_id": "80ae4ba9870781a617da9ee7bef63d8e", "is_reserved": 0, "fusion_lon": 0.0, "lat": 38.879942166666666, "is_disabled": 0, "name": "80ae4ba9870781a617da9ee7bef63d8e", "fusion_lat": 0.0, "rental_uris": {"ios": "https://dc.lft.to/lastmile_qr_scan", "android": "https://dc.lft.to/lastmile_qr_scan"}, "lon": -76.9854525, "type": "electric_scooter"}, {"bike_id": "483167428d532cff3b8df30dd2406d7f", "is_reserved": 0, "fusion_lon": 0.0, "lat": 38.898281833333336, "is_disabled": 0, "name": "483167428d532cff3b8df30dd2406d7f", "fusion_lat": 0.0, "rental_uris": {"ios": "https://dc.lft.to/lastmile_qr_scan", "android": "https://dc.lft.to/lastmile_qr_scan"}, "lon": -76.9802525, "type": "electric_scooter"}, {"bike_id": "3fe62bd2a6e6974e8b370ee0d1a3d057", "is_reserved": 0, "fusion_lon": 0.0, "lat": 38.931690333333336, "is_disabled": 0, "name": "3fe62bd2a6e6974e8b370ee0d1a3d057", "fusion_lat": 0.0, "rental_uris": {"ios": "https://dc.lft.to/lastmile_qr_scan", "android": "https://dc.lft.to/lastmile_qr_scan"}, "lon": -76.996175, "type": "electric_scooter"}, {"bike_id": "a6f939e3850a145d0877a280f1039943", "is_reserved": 0, "fusion_lon": 0.0, "lat": 38.902699166666665, "is_disabled": 0, "name": "a6f939e3850a145d0877a280f1039943", "fusion_lat": 0.0, "rental_uris": {"ios": "https://dc.lft.to/lastmile_qr_scan", "android": "https://dc.lft.to/lastmile_qr_scan"}, "lon": -77.03323833333333, "type": "electric_scooter"}, {"bike_id": "50092284dae4d73a3b03c49c7a9c2b86", "is_reserved": 0, "fusion_lon": 0.0, "lat": 38.93342966666667, "is_disabled": 0, "name": "50092284dae4d73a3b03c49c7a9c2b86", "fusion_lat": 0.0, "rental_uris": {"ios": "https://dc.lft.to/lastmile_qr_scan", "android": "https://dc.lft.to/lastmile_qr_scan"}, "lon": -77.05710833333333, "type": "electric_scooter"}, {"bike_id": "ad14de1c50b34765197cca28921b21ac", "is_reserved": 0, "fusion_lon": 0.0, "lat": 38.90830616666667, "is_disabled": 0, "name": "ad14de1c50b34765197cca28921b21ac", "fusion_lat": 0.0, "rental_uris": {"ios": "https://dc.lft.to/lastmile_qr_scan", "android": "https://dc.lft.to/lastmile_qr_scan"}, "lon": -76.99700883333334, "type": "electric_scooter"}, {"bike_id": "bc378e832483ba88885b9c3f9503aa32", "is_reserved": 0, "fusion_lon": 0.0, "lat": 38.91876666666667, "is_disabled": 0, "name": "bc378e832483ba88885b9c3f9503aa32", "fusion_lat": 0.0, "rental_uris": {"ios": "https://dc.lft.to/lastmile_qr_scan", "android": "https://dc.lft.to/lastmile_qr_scan"}, "lon": -77.04461333333333, "type": "electric_scooter"}, {"bike_id": "d7004a799ea0b83817ce7e1de1097ca1", "is_reserved": 0, "fusion_lon": 0.0, "lat": 38.897119333333336, "is_disabled": 0, "name": "d7004a799ea0b83817ce7e1de1097ca1", "fusion_lat": 0.0, "rental_uris": {"ios": "https://dc.lft.to/lastmile_qr_scan", "android": "https://dc.lft.to/lastmile_qr_scan"}, "lon": -77.02723033333334, "type": "electric_scooter"}, {"bike_id": "f72a519acd5f9670356d59cff2969c42", "is_reserved": 0, "fusion_lon": 0.0, "lat": 38.88423433333333, "is_disabled": 0, "name": "f72a519acd5f9670356d59cff2969c42", "fusion_lat": 0.0, "rental_uris": {"ios": "https://dc.lft.to/lastmile_qr_scan", "android": "https://dc.lft.to/lastmile_qr_scan"}, "lon": -76.995946, "type": "electric_scooter"}, {"bike_id": "4247de4207ecf9416558747e8eff9779", "is_reserved": 0, "fusion_lon": 0.0, "lat": 38.9192735, "is_disabled": 0, "name": "4247de4207ecf9416558747e8eff9779", "fusion_lat": 0.0, "rental_uris": {"ios": "https://dc.lft.to/lastmile_qr_scan", "android": "https://dc.lft.to/lastmile_qr_scan"}, "lon": -77.00067283333334, "type": "electric_scooter"}, {"bike_id": "c9647739027f4438949f892028777738", "is_reserved": 0, "fusion_lon": 0.0, "lat": 38.92054483333333, "is_disabled": 0, "name": "c9647739027f4438949f892028777738", "fusion_lat": 0.0, "rental_uris": {"ios": "https://dc.lft.to/lastmile_qr_scan", "android": "https://dc.lft.to/lastmile_qr_scan"}, "lon": -77.0418575, "type": "electric_scooter"}, {"bike_id": "67afd83b413072dd9a5fc953156baebc", "is_reserved": 0, "fusion_lon": 0.0, "lat": 38.90757416666667, "is_disabled": 0, "name": "67afd83b413072dd9a5fc953156baebc", "fusion_lat": 0.0, "rental_uris": {"ios": "https://dc.lft.to/lastmile_qr_scan", "android": "https://dc.lft.to/lastmile_qr_scan"}, "lon": -77.03196616666666, "type": "electric_scooter"}, {"bike_id": "e8d92a0c0bfb730c5ae9a05dd422cf1d", "is_reserved": 0, "fusion_lon": 0.0, "lat": 38.913093833333335, "is_disabled": 0, "name": "e8d92a0c0bfb730c5ae9a05dd422cf1d", "fusion_lat": 0.0, "rental_uris": {"ios": "https://dc.lft.to/lastmile_qr_scan", "android": "https://dc.lft.to/lastmile_qr_scan"}, "lon": -77.04492416666666, "type": "electric_scooter"}, {"bike_id": "0e2dde50020a19b0d061670349194310", "is_reserved": 0, "fusion_lon": 0.0, "lat": 38.90281366666667, "is_disabled": 0, "name": "0e2dde50020a19b0d061670349194310", "fusion_lat": 0.0, "rental_uris": {"ios": "https://dc.lft.to/lastmile_qr_scan", "android": "https://dc.lft.to/lastmile_qr_scan"}, "lon": -77.0365795, "type": "electric_scooter"}, {"bike_id": "f7bcc720acb70e503eaa45dff89ee38d", "is_reserved": 0, "fusion_lon": 0.0, "lat": 38.89104866666667, "is_disabled": 0, "name": "f7bcc720acb70e503eaa45dff89ee38d", "fusion_lat": 0.0, "rental_uris": {"ios": "https://dc.lft.to/lastmile_qr_scan", "android": "https://dc.lft.to/lastmile_qr_scan"}, "lon": -76.987095, "type": "electric_scooter"}, {"bike_id": "18fac519f8bf92227b978dd2273c69bf", "is_reserved": 0, "fusion_lon": 0.0, "lat": 38.9140345, "is_disabled": 0, "name": "18fac519f8bf92227b978dd2273c69bf", "fusion_lat": 0.0, "rental_uris": {"ios": "https://dc.lft.to/lastmile_qr_scan", "android": "https://dc.lft.to/lastmile_qr_scan"}, "lon": -77.03180966666666, "type": "electric_scooter"}, {"bike_id": "8070b038ea65dab2a7eac52731ad9650", "is_reserved": 0, "fusion_lon": 0.0, "lat": 38.896794166666666, "is_disabled": 0, "name": "8070b038ea65dab2a7eac52731ad9650", "fusion_lat": 0.0, "rental_uris": {"ios": "https://dc.lft.to/lastmile_qr_scan", "android": "https://dc.lft.to/lastmile_qr_scan"}, "lon": -76.99628866666667, "type": "electric_scooter"}, {"bike_id": "c71fe6aabcc2ac5ebddc5409fb0ea18a", "is_reserved": 0, "fusion_lon": 0.0, "lat": 38.87910866666667, "is_disabled": 0, "name": "c71fe6aabcc2ac5ebddc5409fb0ea18a", "fusion_lat": 0.0, "rental_uris": {"ios": "https://dc.lft.to/lastmile_qr_scan", "android": "https://dc.lft.to/lastmile_qr_scan"}, "lon": -77.0222985, "type": "electric_scooter"}, {"bike_id": "d95db5c4f7518acd9cf6ae13faf0c7b4", "is_reserved": 0, "fusion_lon": 0.0, "lat": 38.862098, "is_disabled": 0, "name": "d95db5c4f7518acd9cf6ae13faf0c7b4", "fusion_lat": 0.0, "rental_uris": {"ios": "https://dc.lft.to/lastmile_qr_scan", "android": "https://dc.lft.to/lastmile_qr_scan"}, "lon": -76.99470733333334, "type": "electric_scooter"}, {"bike_id": "8ab661e1a803fb0e3c8ddbfec5de57ca", "is_reserved": 0, "fusion_lon": 0.0, "lat": 38.87084183333333, "is_disabled": 0, "name": "8ab661e1a803fb0e3c8ddbfec5de57ca", "fusion_lat": 0.0, "rental_uris": {"ios": "https://dc.lft.to/lastmile_qr_scan", "android": "https://dc.lft.to/lastmile_qr_scan"}, "lon": -77.01211466666666, "type": "electric_bike"}, {"bike_id": "daffcf2a27ba16ea272635d5820d2c41", "is_reserved": 0, "fusion_lon": 0.0, "lat": 38.90981683333333, "is_disabled": 0, "name": "daffcf2a27ba16ea272635d5820d2c41", "fusion_lat": 0.0, "rental_uris": {"ios": "https://dc.lft.to/lastmile_qr_scan", "android": "https://dc.lft.to/lastmile_qr_scan"}, "lon": -77.023822, "type": "electric_scooter"}, {"bike_id": "d68fd9e63affb0ac58bb5b1bca463fed", "is_reserved": 0, "fusion_lon": 0.0, "lat": 38.918065666666664, "is_disabled": 0, "name": "d68fd9e63affb0ac58bb5b1bca463fed", "fusion_lat": 0.0, "rental_uris": {"ios": "https://dc.lft.to/lastmile_qr_scan", "android": "https://dc.lft.to/lastmile_qr_scan"}, "lon": -77.0356245, "type": "electric_scooter"}, {"bike_id": "312dceec7f45eb57a83ff6d7d97c317d", "is_reserved": 0, "fusion_lon": 0.0, "lat": 38.88088116666667, "is_disabled": 0, "name": "312dceec7f45eb57a83ff6d7d97c317d", "fusion_lat": 0.0, "rental_uris": {"ios": "https://dc.lft.to/lastmile_qr_scan", "android": "https://dc.lft.to/lastmile_qr_scan"}, "lon": -77.02575366666666, "type": "electric_scooter"}, {"bike_id": "ce6cce889e272bbd74235af2237a031e", "is_reserved": 0, "fusion_lon": 0.0, "lat": 38.900258, "is_disabled": 0, "name": "ce6cce889e272bbd74235af2237a031e", "fusion_lat": 0.0, "rental_uris": {"ios": "https://dc.lft.to/lastmile_qr_scan", "android": "https://dc.lft.to/lastmile_qr_scan"}, "lon": -76.98754366666667, "type": "electric_scooter"}, {"bike_id": "f1c0cf5cf3ba6cfc5535bbb24116d3c6", "is_reserved": 0, "fusion_lon": 0.0, "lat": 38.9053035, "is_disabled": 0, "name": "f1c0cf5cf3ba6cfc5535bbb24116d3c6", "fusion_lat": 0.0, "rental_uris": {"ios": "https://dc.lft.to/lastmile_qr_scan", "android": "https://dc.lft.to/lastmile_qr_scan"}, "lon": -77.02699533333333, "type": "electric_scooter"}, {"bike_id": "8acc7cead58a29c89817e8c18b1bc5f5", "is_reserved": 0, "fusion_lon": 0.0, "lat": 38.91561816666667, "is_disabled": 0, "name": "8acc7cead58a29c89817e8c18b1bc5f5", "fusion_lat": 0.0, "rental_uris": {"ios": "https://dc.lft.to/lastmile_qr_scan", "android": "https://dc.lft.to/lastmile_qr_scan"}, "lon": -77.02126033333333, "type": "electric_scooter"}, {"bike_id": "ffb39b1014c761d1c15fbeeb1dcec2fb", "is_reserved": 0, "fusion_lon": 0.0, "lat": 38.95922066666667, "is_disabled": 0, "name": "ffb39b1014c761d1c15fbeeb1dcec2fb", "fusion_lat": 0.0, "rental_uris": {"ios": "https://dc.lft.to/lastmile_qr_scan", "android": "https://dc.lft.to/lastmile_qr_scan"}, "lon": -77.03327716666666, "type": "electric_scooter"}, {"bike_id": "c96a989f0bc8dcc31c02a27c213862a3", "is_reserved": 0, "fusion_lon": 0.0, "lat": 38.9032735, "is_disabled": 0, "name": "c96a989f0bc8dcc31c02a27c213862a3", "fusion_lat": 0.0, "rental_uris": {"ios": "https://dc.lft.to/lastmile_qr_scan", "android": "https://dc.lft.to/lastmile_qr_scan"}, "lon": -77.03855383333334, "type": "electric_scooter"}, {"bike_id": "242a499563ac983e4329f6ad70debb12", "is_reserved": 0, "fusion_lon": 0.0, "lat": 38.92045233333333, "is_disabled": 0, "name": "242a499563ac983e4329f6ad70debb12", "fusion_lat": 0.0, "rental_uris": {"ios": "https://dc.lft.to/lastmile_qr_scan", "android": "https://dc.lft.to/lastmile_qr_scan"}, "lon": -76.99820583333333, "type": "electric_scooter"}, {"bike_id": "1621ae8ce26b0cd58f600ec21288894e", "is_reserved": 0, "fusion_lon": 0.0, "lat": 38.918046833333335, "is_disabled": 0, "name": "1621ae8ce26b0cd58f600ec21288894e", "fusion_lat": 0.0, "rental_uris": {"ios": "https://dc.lft.to/lastmile_qr_scan", "android": "https://dc.lft.to/lastmile_qr_scan"}, "lon": -77.0344325, "type": "electric_scooter"}, {"bike_id": "c4eaa3d543bfd7e19c93a8f8d386642e", "is_reserved": 0, "fusion_lon": 0.0, "lat": 38.87226833333333, "is_disabled": 0, "name": "c4eaa3d543bfd7e19c93a8f8d386642e", "fusion_lat": 0.0, "rental_uris": {"ios": "https://dc.lft.to/lastmile_qr_scan", "android": "https://dc.lft.to/lastmile_qr_scan"}, "lon": -77.01175083333334, "type": "electric_bike"}, {"bike_id": "f569eed752b331acb534ebc844588378", "is_reserved": 0, "fusion_lon": 0.0, "lat": 38.990598, "is_disabled": 0, "name": "f569eed752b331acb534ebc844588378", "fusion_lat": 0.0, "rental_uris": {"ios": "https://dc.lft.to/lastmile_qr_scan", "android": "https://dc.lft.to/lastmile_qr_scan"}, "lon": -77.10029683333333, "type": "electric_bike"}, {"bike_id": "a340c88dea8ae00bca617f1b48262ad4", "is_reserved": 0, "fusion_lon": 0.0, "lat": 38.939532, "is_disabled": 0, "name": "a340c88dea8ae00bca617f1b48262ad4", "fusion_lat": 0.0, "rental_uris": {"ios": "https://dc.lft.to/lastmile_qr_scan", "android": "https://dc.lft.to/lastmile_qr_scan"}, "lon": -77.03267266666667, "type": "electric_scooter"}, {"bike_id": "3e915a43c61d0bd2dfe5570ac1901625", "is_reserved": 0, "fusion_lon": 0.0, "lat": 38.9294335, "is_disabled": 0, "name": "3e915a43c61d0bd2dfe5570ac1901625", "fusion_lat": 0.0, "rental_uris": {"ios": "https://dc.lft.to/lastmile_qr_scan", "android": "https://dc.lft.to/lastmile_qr_scan"}, "lon": -77.03472716666667, "type": "electric_scooter"}, {"bike_id": "1494604e07ae2529d9deb47ee9177c92", "is_reserved": 0, "fusion_lon": 0.0, "lat": 38.87304983333333, "is_disabled": 0, "name": "1494604e07ae2529d9deb47ee9177c92", "fusion_lat": 0.0, "rental_uris": {"ios": "https://dc.lft.to/lastmile_qr_scan", "android": "https://dc.lft.to/lastmile_qr_scan"}, "lon": -77.01092233333334, "type": "electric_bike"}, {"bike_id": "d50e1a261c1b739f2d61d0ab56d842e1", "is_reserved": 0, "fusion_lon": 0.0, "lat": 38.853162166666664, "is_disabled": 0, "name": "d50e1a261c1b739f2d61d0ab56d842e1", "fusion_lat": 0.0, "rental_uris": {"ios": "https://dc.lft.to/lastmile_qr_scan", "android": "https://dc.lft.to/lastmile_qr_scan"}, "lon": -76.980023, "type": "electric_scooter"}, {"bike_id": "a177f727fee49d92772a2cff81a1fd61", "is_reserved": 0, "fusion_lon": 0.0, "lat": 38.900115, "is_disabled": 0, "name": "a177f727fee49d92772a2cff81a1fd61", "fusion_lat": 0.0, "rental_uris": {"ios": "https://dc.lft.to/lastmile_qr_scan", "android": "https://dc.lft.to/lastmile_qr_scan"}, "lon": -77.0018625, "type": "electric_scooter"}, {"bike_id": "f65b3641453034ca8bfb8c9c550778a5", "is_reserved": 0, "fusion_lon": 0.0, "lat": 38.90007883333333, "is_disabled": 0, "name": "f65b3641453034ca8bfb8c9c550778a5", "fusion_lat": 0.0, "rental_uris": {"ios": "https://dc.lft.to/lastmile_qr_scan", "android": "https://dc.lft.to/lastmile_qr_scan"}, "lon": -76.99787666666667, "type": "electric_scooter"}, {"bike_id": "c1ca128c6c30cf42efbfd18b5a955129", "is_reserved": 0, "fusion_lon": 0.0, "lat": 38.952805166666664, "is_disabled": 0, "name": "c1ca128c6c30cf42efbfd18b5a955129", "fusion_lat": 0.0, "rental_uris": {"ios": "https://dc.lft.to/lastmile_qr_scan", "android": "https://dc.lft.to/lastmile_qr_scan"}, "lon": -77.00791833333334, "type": "electric_scooter"}, {"bike_id": "b6dca17ba3f1a8555d41483e37442f2f", "is_reserved": 0, "fusion_lon": 0.0, "lat": 38.923379, "is_disabled": 0, "name": "b6dca17ba3f1a8555d41483e37442f2f", "fusion_lat": 0.0, "rental_uris": {"ios": "https://dc.lft.to/lastmile_qr_scan", "android": "https://dc.lft.to/lastmile_qr_scan"}, "lon": -77.0352335, "type": "electric_scooter"}, {"bike_id": "721110ae3a37cd59e5f88cf0873fa360", "is_reserved": 0, "fusion_lon": 0.0, "lat": 38.94046683333333, "is_disabled": 0, "name": "721110ae3a37cd59e5f88cf0873fa360", "fusion_lat": 0.0, "rental_uris": {"ios": "https://dc.lft.to/lastmile_qr_scan", "android": "https://dc.lft.to/lastmile_qr_scan"}, "lon": -77.029821, "type": "electric_scooter"}, {"bike_id": "5cb3dd492002da0c3b02e2cd936383e9", "is_reserved": 0, "fusion_lon": 0.0, "lat": 38.92263716666667, "is_disabled": 0, "name": "5cb3dd492002da0c3b02e2cd936383e9", "fusion_lat": 0.0, "rental_uris": {"ios": "https://dc.lft.to/lastmile_qr_scan", "android": "https://dc.lft.to/lastmile_qr_scan"}, "lon": -77.04131166666667, "type": "electric_scooter"}, {"bike_id": "170b2d6636aee649dd83de0110be5021", "is_reserved": 0, "fusion_lon": 0.0, "lat": 38.924336333333336, "is_disabled": 0, "name": "170b2d6636aee649dd83de0110be5021", "fusion_lat": 0.0, "rental_uris": {"ios": "https://dc.lft.to/lastmile_qr_scan", "android": "https://dc.lft.to/lastmile_qr_scan"}, "lon": -77.04006983333333, "type": "electric_scooter"}, {"bike_id": "dd29b7fc205b3f9601e5938b7fe11302", "is_reserved": 0, "fusion_lon": 0.0, "lat": 38.9208415, "is_disabled": 0, "name": "dd29b7fc205b3f9601e5938b7fe11302", "fusion_lat": 0.0, "rental_uris": {"ios": "https://dc.lft.to/lastmile_qr_scan", "android": "https://dc.lft.to/lastmile_qr_scan"}, "lon": -76.999247, "type": "electric_scooter"}, {"bike_id": "0629f12b8bced4c82075021178dd8182", "is_reserved": 0, "fusion_lon": 0.0, "lat": 38.91879983333333, "is_disabled": 0, "name": "0629f12b8bced4c82075021178dd8182", "fusion_lat": 0.0, "rental_uris": {"ios": "https://dc.lft.to/lastmile_qr_scan", "android": "https://dc.lft.to/lastmile_qr_scan"}, "lon": -77.03504416666667, "type": "electric_scooter"}, {"bike_id": "92ac62ee80d197ab6d0b2742decbb8e9", "is_reserved": 0, "fusion_lon": 0.0, "lat": 38.9214765, "is_disabled": 0, "name": "92ac62ee80d197ab6d0b2742decbb8e9", "fusion_lat": 0.0, "rental_uris": {"ios": "https://dc.lft.to/lastmile_qr_scan", "android": "https://dc.lft.to/lastmile_qr_scan"}, "lon": -77.035324, "type": "electric_scooter"}, {"bike_id": "974a9fcf273ffcf7b1840ca65d63ed34", "is_reserved": 0, "fusion_lon": 0.0, "lat": 38.903219, "is_disabled": 0, "name": "974a9fcf273ffcf7b1840ca65d63ed34", "fusion_lat": 0.0, "rental_uris": {"ios": "https://dc.lft.to/lastmile_qr_scan", "android": "https://dc.lft.to/lastmile_qr_scan"}, "lon": -77.0377415, "type": "electric_scooter"}, {"bike_id": "0226be5c88fb6cbe76106b3453350c22", "is_reserved": 0, "fusion_lon": 0.0, "lat": 38.88502116666667, "is_disabled": 0, "name": "0226be5c88fb6cbe76106b3453350c22", "fusion_lat": 0.0, "rental_uris": {"ios": "https://dc.lft.to/lastmile_qr_scan", "android": "https://dc.lft.to/lastmile_qr_scan"}, "lon": -77.00566033333334, "type": "electric_scooter"}, {"bike_id": "2e58cbce0ae852c395b3b10f3009a68f", "is_reserved": 0, "fusion_lon": 0.0, "lat": 38.91842233333333, "is_disabled": 0, "name": "2e58cbce0ae852c395b3b10f3009a68f", "fusion_lat": 0.0, "rental_uris": {"ios": "https://dc.lft.to/lastmile_qr_scan", "android": "https://dc.lft.to/lastmile_qr_scan"}, "lon": -77.02306116666666, "type": "electric_scooter"}, {"bike_id": "413027f08786fc8475ce8a364570f206", "is_reserved": 0, "fusion_lon": 0.0, "lat": 38.903522, "is_disabled": 0, "name": "413027f08786fc8475ce8a364570f206", "fusion_lat": 0.0, "rental_uris": {"ios": "https://dc.lft.to/lastmile_qr_scan", "android": "https://dc.lft.to/lastmile_qr_scan"}, "lon": -77.04001583333333, "type": "electric_scooter"}, {"bike_id": "dca359a3969acfc7db2a2936c283f2e6", "is_reserved": 0, "fusion_lon": 0.0, "lat": 38.906225, "is_disabled": 0, "name": "dca359a3969acfc7db2a2936c283f2e6", "fusion_lat": 0.0, "rental_uris": {"ios": "https://dc.lft.to/lastmile_qr_scan", "android": "https://dc.lft.to/lastmile_qr_scan"}, "lon": -77.03957166666666, "type": "electric_scooter"}, {"bike_id": "10e1df4135a15195c3506a353ac6776b", "is_reserved": 0, "fusion_lon": 0.0, "lat": 38.959072166666665, "is_disabled": 0, "name": "10e1df4135a15195c3506a353ac6776b", "fusion_lat": 0.0, "rental_uris": {"ios": "https://dc.lft.to/lastmile_qr_scan", "android": "https://dc.lft.to/lastmile_qr_scan"}, "lon": -77.00154516666667, "type": "electric_bike"}, {"bike_id": "beae4324d30e75e109a74d7a5645b79b", "is_reserved": 0, "fusion_lon": 0.0, "lat": 38.91869633333334, "is_disabled": 0, "name": "beae4324d30e75e109a74d7a5645b79b", "fusion_lat": 0.0, "rental_uris": {"ios": "https://dc.lft.to/lastmile_qr_scan", "android": "https://dc.lft.to/lastmile_qr_scan"}, "lon": -77.0434985, "type": "electric_scooter"}, {"bike_id": "03a2bb445525629014fd1b6fc680ce44", "is_reserved": 0, "fusion_lon": 0.0, "lat": 38.928804666666665, "is_disabled": 0, "name": "03a2bb445525629014fd1b6fc680ce44", "fusion_lat": 0.0, "rental_uris": {"ios": "https://dc.lft.to/lastmile_qr_scan", "android": "https://dc.lft.to/lastmile_qr_scan"}, "lon": -77.0375845, "type": "electric_scooter"}, {"bike_id": "84fdadbc0bf2a67a69410be98577dd97", "is_reserved": 0, "fusion_lon": 0.0, "lat": 38.912713333333336, "is_disabled": 0, "name": "84fdadbc0bf2a67a69410be98577dd97", "fusion_lat": 0.0, "rental_uris": {"ios": "https://dc.lft.to/lastmile_qr_scan", "android": "https://dc.lft.to/lastmile_qr_scan"}, "lon": -77.02209083333334, "type": "electric_scooter"}, {"bike_id": "6b4cecc6ad51dd9c417b56239dc76a09", "is_reserved": 0, "fusion_lon": 0.0, "lat": 38.92242383333333, "is_disabled": 0, "name": "6b4cecc6ad51dd9c417b56239dc76a09", "fusion_lat": 0.0, "rental_uris": {"ios": "https://dc.lft.to/lastmile_qr_scan", "android": "https://dc.lft.to/lastmile_qr_scan"}, "lon": -77.03665933333333, "type": "electric_scooter"}, {"bike_id": "2de74f738aede55141c92181b71da68e", "is_reserved": 0, "fusion_lon": 0.0, "lat": 38.9366675, "is_disabled": 0, "name": "2de74f738aede55141c92181b71da68e", "fusion_lat": 0.0, "rental_uris": {"ios": "https://dc.lft.to/lastmile_qr_scan", "android": "https://dc.lft.to/lastmile_qr_scan"}, "lon": -77.03633683333334, "type": "electric_scooter"}, {"bike_id": "6134542dac8b7ea2392d61a84178d673", "is_reserved": 0, "fusion_lon": 0.0, "lat": 38.88739416666667, "is_disabled": 0, "name": "6134542dac8b7ea2392d61a84178d673", "fusion_lat": 0.0, "rental_uris": {"ios": "https://dc.lft.to/lastmile_qr_scan", "android": "https://dc.lft.to/lastmile_qr_scan"}, "lon": -77.0153155, "type": "electric_scooter"}, {"bike_id": "1f0c7658161ce2a69de914722feeff18", "is_reserved": 0, "fusion_lon": 0.0, "lat": 38.899556833333335, "is_disabled": 0, "name": "1f0c7658161ce2a69de914722feeff18", "fusion_lat": 0.0, "rental_uris": {"ios": "https://dc.lft.to/lastmile_qr_scan", "android": "https://dc.lft.to/lastmile_qr_scan"}, "lon": -77.03117133333333, "type": "electric_scooter"}, {"bike_id": "6a2aa78d05b6d6035eb5d671f77585f3", "is_reserved": 0, "fusion_lon": 0.0, "lat": 38.8977275, "is_disabled": 0, "name": "6a2aa78d05b6d6035eb5d671f77585f3", "fusion_lat": 0.0, "rental_uris": {"ios": "https://dc.lft.to/lastmile_qr_scan", "android": "https://dc.lft.to/lastmile_qr_scan"}, "lon": -77.00750633333334, "type": "electric_scooter"}, {"bike_id": "cdc3d0d7f2bee73ade7a7cafa6f1cca1", "is_reserved": 0, "fusion_lon": 0.0, "lat": 38.90974033333333, "is_disabled": 0, "name": "cdc3d0d7f2bee73ade7a7cafa6f1cca1", "fusion_lat": 0.0, "rental_uris": {"ios": "https://dc.lft.to/lastmile_qr_scan", "android": "https://dc.lft.to/lastmile_qr_scan"}, "lon": -77.02725233333334, "type": "electric_scooter"}, {"bike_id": "2eee32e0f49f2a9fa8e3365dd00e7336", "is_reserved": 0, "fusion_lon": 0.0, "lat": 38.874578, "is_disabled": 0, "name": "2eee32e0f49f2a9fa8e3365dd00e7336", "fusion_lat": 0.0, "rental_uris": {"ios": "https://dc.lft.to/lastmile_qr_scan", "android": "https://dc.lft.to/lastmile_qr_scan"}, "lon": -77.00543333333333, "type": "electric_scooter"}, {"bike_id": "113f8328607528d34f5a7ec4dfbb6e06", "is_reserved": 0, "fusion_lon": 0.0, "lat": 38.9389305, "is_disabled": 0, "name": "113f8328607528d34f5a7ec4dfbb6e06", "fusion_lat": 0.0, "rental_uris": {"ios": "https://dc.lft.to/lastmile_qr_scan", "android": "https://dc.lft.to/lastmile_qr_scan"}, "lon": -77.03335433333334, "type": "electric_scooter"}, {"bike_id": "545e63862e5251849b5522dc1e5782c5", "is_reserved": 0, "fusion_lon": 0.0, "lat": 38.898468, "is_disabled": 0, "name": "545e63862e5251849b5522dc1e5782c5", "fusion_lat": 0.0, "rental_uris": {"ios": "https://dc.lft.to/lastmile_qr_scan", "android": "https://dc.lft.to/lastmile_qr_scan"}, "lon": -76.94477283333333, "type": "electric_scooter"}, {"bike_id": "e2eb257340b51ef13f1ba8380b41fc5a", "is_reserved": 0, "fusion_lon": 0.0, "lat": 38.885309666666664, "is_disabled": 0, "name": "e2eb257340b51ef13f1ba8380b41fc5a", "fusion_lat": 0.0, "rental_uris": {"ios": "https://dc.lft.to/lastmile_qr_scan", "android": "https://dc.lft.to/lastmile_qr_scan"}, "lon": -76.98055033333333, "type": "electric_scooter"}, {"bike_id": "fbd9143b842a11c26d4372d89efe5429", "is_reserved": 0, "fusion_lon": 0.0, "lat": 39.09458166666667, "is_disabled": 0, "name": "fbd9143b842a11c26d4372d89efe5429", "fusion_lat": 0.0, "rental_uris": {"ios": "https://dc.lft.to/lastmile_qr_scan", "android": "https://dc.lft.to/lastmile_qr_scan"}, "lon": -77.14996266666667, "type": "electric_bike"}, {"bike_id": "738736daf8a9a3fe87ed3919004084a8", "is_reserved": 0, "fusion_lon": 0.0, "lat": 38.905439, "is_disabled": 0, "name": "738736daf8a9a3fe87ed3919004084a8", "fusion_lat": 0.0, "rental_uris": {"ios": "https://dc.lft.to/lastmile_qr_scan", "android": "https://dc.lft.to/lastmile_qr_scan"}, "lon": -77.026851, "type": "electric_scooter"}, {"bike_id": "214fdf599d2e7137c3f8d03174837ed1", "is_reserved": 0, "fusion_lon": 0.0, "lat": 38.827864, "is_disabled": 0, "name": "214fdf599d2e7137c3f8d03174837ed1", "fusion_lat": 0.0, "rental_uris": {"ios": "https://dc.lft.to/lastmile_qr_scan", "android": "https://dc.lft.to/lastmile_qr_scan"}, "lon": -77.0091105, "type": "electric_bike"}, {"bike_id": "9c2acc03ec998beb86e63a12700bed22", "is_reserved": 0, "fusion_lon": 0.0, "lat": 38.840570166666666, "is_disabled": 0, "name": "9c2acc03ec998beb86e63a12700bed22", "fusion_lat": 0.0, "rental_uris": {"ios": "https://dc.lft.to/lastmile_qr_scan", "android": "https://dc.lft.to/lastmile_qr_scan"}, "lon": -77.064099, "type": "electric_bike"}, {"bike_id": "8a61a45465da1eb8525daeff8c5372d8", "is_reserved": 0, "fusion_lon": 0.0, "lat": 38.90009116666667, "is_disabled": 0, "name": "8a61a45465da1eb8525daeff8c5372d8", "fusion_lat": 0.0, "rental_uris": {"ios": "https://dc.lft.to/lastmile_qr_scan", "android": "https://dc.lft.to/lastmile_qr_scan"}, "lon": -76.99780083333333, "type": "electric_scooter"}, {"bike_id": "575d4f1d202c6818ba9be824d004208b", "is_reserved": 0, "fusion_lon": 0.0, "lat": 38.872567833333335, "is_disabled": 0, "name": "575d4f1d202c6818ba9be824d004208b", "fusion_lat": 0.0, "rental_uris": {"ios": "https://dc.lft.to/lastmile_qr_scan", "android": "https://dc.lft.to/lastmile_qr_scan"}, "lon": -76.97908016666666, "type": "electric_bike"}, {"bike_id": "053d65f002c231793b1d69a15ce92795", "is_reserved": 0, "fusion_lon": 0.0, "lat": 38.921514, "is_disabled": 0, "name": "053d65f002c231793b1d69a15ce92795", "fusion_lat": 0.0, "rental_uris": {"ios": "https://dc.lft.to/lastmile_qr_scan", "android": "https://dc.lft.to/lastmile_qr_scan"}, "lon": -77.03532133333333, "type": "electric_scooter"}, {"bike_id": "cfa1a054d47ab7f8ab5394c700222387", "is_reserved": 0, "fusion_lon": 0.0, "lat": 38.927220166666665, "is_disabled": 0, "name": "cfa1a054d47ab7f8ab5394c700222387", "fusion_lat": 0.0, "rental_uris": {"ios": "https://dc.lft.to/lastmile_qr_scan", "android": "https://dc.lft.to/lastmile_qr_scan"}, "lon": -77.00566716666667, "type": "electric_scooter"}, {"bike_id": "1102b7ea6d52d0d9b4513d94021ca0b6", "is_reserved": 0, "fusion_lon": 0.0, "lat": 38.907666166666665, "is_disabled": 0, "name": "1102b7ea6d52d0d9b4513d94021ca0b6", "fusion_lat": 0.0, "rental_uris": {"ios": "https://dc.lft.to/lastmile_qr_scan", "android": "https://dc.lft.to/lastmile_qr_scan"}, "lon": -77.03200983333333, "type": "electric_scooter"}, {"bike_id": "3a4cd904dfb5cc5c88f2edcb8ae26dc4", "is_reserved": 0, "fusion_lon": 0.0, "lat": 38.927087, "is_disabled": 0, "name": "3a4cd904dfb5cc5c88f2edcb8ae26dc4", "fusion_lat": 0.0, "rental_uris": {"ios": "https://dc.lft.to/lastmile_qr_scan", "android": "https://dc.lft.to/lastmile_qr_scan"}, "lon": -77.03852233333333, "type": "electric_scooter"}, {"bike_id": "75d3d0dfb996749d9429917dd35485b3", "is_reserved": 0, "fusion_lon": 0.0, "lat": 38.91778766666667, "is_disabled": 0, "name": "75d3d0dfb996749d9429917dd35485b3", "fusion_lat": 0.0, "rental_uris": {"ios": "https://dc.lft.to/lastmile_qr_scan", "android": "https://dc.lft.to/lastmile_qr_scan"}, "lon": -77.02310716666666, "type": "electric_scooter"}, {"bike_id": "5bbbcfd3469e6259ff76ec362ad20b67", "is_reserved": 0, "fusion_lon": 0.0, "lat": 38.956450833333335, "is_disabled": 0, "name": "5bbbcfd3469e6259ff76ec362ad20b67", "fusion_lat": 0.0, "rental_uris": {"ios": "https://dc.lft.to/lastmile_qr_scan", "android": "https://dc.lft.to/lastmile_qr_scan"}, "lon": -76.99746966666666, "type": "electric_bike"}, {"bike_id": "e9933453089474222151ad35334e0246", "is_reserved": 0, "fusion_lon": 0.0, "lat": 38.95182066666667, "is_disabled": 0, "name": "e9933453089474222151ad35334e0246", "fusion_lat": 0.0, "rental_uris": {"ios": "https://dc.lft.to/lastmile_qr_scan", "android": "https://dc.lft.to/lastmile_qr_scan"}, "lon": -76.93549066666667, "type": "electric_bike"}, {"bike_id": "b0bc216b78b9a3ac60ba50e9b4456e06", "is_reserved": 0, "fusion_lon": 0.0, "lat": 38.91672366666667, "is_disabled": 0, "name": "b0bc216b78b9a3ac60ba50e9b4456e06", "fusion_lat": 0.0, "rental_uris": {"ios": "https://dc.lft.to/lastmile_qr_scan", "android": "https://dc.lft.to/lastmile_qr_scan"}, "lon": -77.02906216666666, "type": "electric_scooter"}, {"bike_id": "e58bf705bbe7914aa7e28a5e9e0c7ff2", "is_reserved": 0, "fusion_lon": 0.0, "lat": 38.917059, "is_disabled": 0, "name": "e58bf705bbe7914aa7e28a5e9e0c7ff2", "fusion_lat": 0.0, "rental_uris": {"ios": "https://dc.lft.to/lastmile_qr_scan", "android": "https://dc.lft.to/lastmile_qr_scan"}, "lon": -77.00118516666667, "type": "electric_scooter"}, {"bike_id": "f0599f6c8aca17fa8040e45eb27f411f", "is_reserved": 0, "fusion_lon": 0.0, "lat": 38.90026433333333, "is_disabled": 0, "name": "f0599f6c8aca17fa8040e45eb27f411f", "fusion_lat": 0.0, "rental_uris": {"ios": "https://dc.lft.to/lastmile_qr_scan", "android": "https://dc.lft.to/lastmile_qr_scan"}, "lon": -76.98758583333333, "type": "electric_scooter"}, {"bike_id": "e687124f18e86d5bf256d19fe6d7ffd3", "is_reserved": 0, "fusion_lon": 0.0, "lat": 38.92108733333333, "is_disabled": 0, "name": "e687124f18e86d5bf256d19fe6d7ffd3", "fusion_lat": 0.0, "rental_uris": {"ios": "https://dc.lft.to/lastmile_qr_scan", "android": "https://dc.lft.to/lastmile_qr_scan"}, "lon": -77.0421825, "type": "electric_scooter"}, {"bike_id": "5242fab40d805116d1ac5499cd802543", "is_reserved": 0, "fusion_lon": 0.0, "lat": 38.9013865, "is_disabled": 0, "name": "5242fab40d805116d1ac5499cd802543", "fusion_lat": 0.0, "rental_uris": {"ios": "https://dc.lft.to/lastmile_qr_scan", "android": "https://dc.lft.to/lastmile_qr_scan"}, "lon": -76.99797083333333, "type": "electric_scooter"}, {"bike_id": "0826eac1ae2d8f14dae2afea237792a4", "is_reserved": 0, "fusion_lon": 0.0, "lat": 38.998269666666666, "is_disabled": 0, "name": "0826eac1ae2d8f14dae2afea237792a4", "fusion_lat": 0.0, "rental_uris": {"ios": "https://dc.lft.to/lastmile_qr_scan", "android": "https://dc.lft.to/lastmile_qr_scan"}, "lon": -76.88378433333334, "type": "electric_bike"}, {"bike_id": "9507152a9618f7ce9a25d408231779a2", "is_reserved": 0, "fusion_lon": 0.0, "lat": 38.93110766666667, "is_disabled": 0, "name": "9507152a9618f7ce9a25d408231779a2", "fusion_lat": 0.0, "rental_uris": {"ios": "https://dc.lft.to/lastmile_qr_scan", "android": "https://dc.lft.to/lastmile_qr_scan"}, "lon": -77.0384325, "type": "electric_scooter"}, {"bike_id": "bddd2f0899a95c14f4e55dfac83dfb70", "is_reserved": 0, "fusion_lon": 0.0, "lat": 38.916467, "is_disabled": 0, "name": "bddd2f0899a95c14f4e55dfac83dfb70", "fusion_lat": 0.0, "rental_uris": {"ios": "https://dc.lft.to/lastmile_qr_scan", "android": "https://dc.lft.to/lastmile_qr_scan"}, "lon": -77.03219066666666, "type": "electric_scooter"}, {"bike_id": "e8606667df504e83b079019f05f8875c", "is_reserved": 0, "fusion_lon": 0.0, "lat": 39.030446166666664, "is_disabled": 0, "name": "e8606667df504e83b079019f05f8875c", "fusion_lat": 0.0, "rental_uris": {"ios": "https://dc.lft.to/lastmile_qr_scan", "android": "https://dc.lft.to/lastmile_qr_scan"}, "lon": -77.09483233333333, "type": "electric_bike"}, {"bike_id": "9421c5c97b51eb3a7db096a6a278c7ff", "is_reserved": 0, "fusion_lon": 0.0, "lat": 38.907666666666664, "is_disabled": 0, "name": "9421c5c97b51eb3a7db096a6a278c7ff", "fusion_lat": 0.0, "rental_uris": {"ios": "https://dc.lft.to/lastmile_qr_scan", "android": "https://dc.lft.to/lastmile_qr_scan"}, "lon": -77.06913783333333, "type": "electric_scooter"}, {"bike_id": "e329d4d17e9cdd2587066628efe50d55", "is_reserved": 0, "fusion_lon": 0.0, "lat": 38.90628666666667, "is_disabled": 0, "name": "e329d4d17e9cdd2587066628efe50d55", "fusion_lat": 0.0, "rental_uris": {"ios": "https://dc.lft.to/lastmile_qr_scan", "android": "https://dc.lft.to/lastmile_qr_scan"}, "lon": -76.98608383333334, "type": "electric_bike"}, {"bike_id": "2220608dd9b2995ea7e2ab95ef57a3f3", "is_reserved": 0, "fusion_lon": 0.0, "lat": 38.904749, "is_disabled": 0, "name": "2220608dd9b2995ea7e2ab95ef57a3f3", "fusion_lat": 0.0, "rental_uris": {"ios": "https://dc.lft.to/lastmile_qr_scan", "android": "https://dc.lft.to/lastmile_qr_scan"}, "lon": -77.06021633333333, "type": "electric_scooter"}, {"bike_id": "8d5673b0f8c66c1ca979ddee5f8f8657", "is_reserved": 0, "fusion_lon": 0.0, "lat": 38.92350866666666, "is_disabled": 0, "name": "8d5673b0f8c66c1ca979ddee5f8f8657", "fusion_lat": 0.0, "rental_uris": {"ios": "https://dc.lft.to/lastmile_qr_scan", "android": "https://dc.lft.to/lastmile_qr_scan"}, "lon": -77.04344216666667, "type": "electric_scooter"}, {"bike_id": "96ffdfb941c6eeafa6d7679bcd629bf6", "is_reserved": 0, "fusion_lon": 0.0, "lat": 38.9192595, "is_disabled": 0, "name": "96ffdfb941c6eeafa6d7679bcd629bf6", "fusion_lat": 0.0, "rental_uris": {"ios": "https://dc.lft.to/lastmile_qr_scan", "android": "https://dc.lft.to/lastmile_qr_scan"}, "lon": -77.02491666666667, "type": "electric_scooter"}, {"bike_id": "8e9677af528d2ff3590d7fa36208f7cd", "is_reserved": 0, "fusion_lon": 0.0, "lat": 38.90022616666667, "is_disabled": 0, "name": "8e9677af528d2ff3590d7fa36208f7cd", "fusion_lat": 0.0, "rental_uris": {"ios": "https://dc.lft.to/lastmile_qr_scan", "android": "https://dc.lft.to/lastmile_qr_scan"}, "lon": -76.9953885, "type": "electric_scooter"}, {"bike_id": "e420bbf4425f017bbdd22236b178a7e3", "is_reserved": 0, "fusion_lon": 0.0, "lat": 38.867242, "is_disabled": 0, "name": "e420bbf4425f017bbdd22236b178a7e3", "fusion_lat": 0.0, "rental_uris": {"ios": "https://dc.lft.to/lastmile_qr_scan", "android": "https://dc.lft.to/lastmile_qr_scan"}, "lon": -76.98771566666667, "type": "electric_scooter"}, {"bike_id": "e0191a1b14c809fb58e92469209812c3", "is_reserved": 0, "fusion_lon": 0.0, "lat": 38.93647266666667, "is_disabled": 0, "name": "e0191a1b14c809fb58e92469209812c3", "fusion_lat": 0.0, "rental_uris": {"ios": "https://dc.lft.to/lastmile_qr_scan", "android": "https://dc.lft.to/lastmile_qr_scan"}, "lon": -77.03685266666666, "type": "electric_scooter"}, {"bike_id": "a4d773b8e61e751c17ac17383381159c", "is_reserved": 0, "fusion_lon": 0.0, "lat": 38.924734, "is_disabled": 0, "name": "a4d773b8e61e751c17ac17383381159c", "fusion_lat": 0.0, "rental_uris": {"ios": "https://dc.lft.to/lastmile_qr_scan", "android": "https://dc.lft.to/lastmile_qr_scan"}, "lon": -77.03773216666667, "type": "electric_scooter"}, {"bike_id": "6e7289ede329151e88948da12126139e", "is_reserved": 0, "fusion_lon": 0.0, "lat": 38.899441, "is_disabled": 0, "name": "6e7289ede329151e88948da12126139e", "fusion_lat": 0.0, "rental_uris": {"ios": "https://dc.lft.to/lastmile_qr_scan", "android": "https://dc.lft.to/lastmile_qr_scan"}, "lon": -77.03179583333333, "type": "electric_scooter"}, {"bike_id": "114f7e89d80d08e7e655da2ecf4de8b4", "is_reserved": 0, "fusion_lon": 0.0, "lat": 38.91838283333333, "is_disabled": 0, "name": "114f7e89d80d08e7e655da2ecf4de8b4", "fusion_lat": 0.0, "rental_uris": {"ios": "https://dc.lft.to/lastmile_qr_scan", "android": "https://dc.lft.to/lastmile_qr_scan"}, "lon": -77.03902433333333, "type": "electric_scooter"}, {"bike_id": "306ea3f484d61a67cdda2a7daaf88775", "is_reserved": 0, "fusion_lon": 0.0, "lat": 38.89764533333334, "is_disabled": 0, "name": "306ea3f484d61a67cdda2a7daaf88775", "fusion_lat": 0.0, "rental_uris": {"ios": "https://dc.lft.to/lastmile_qr_scan", "android": "https://dc.lft.to/lastmile_qr_scan"}, "lon": -76.904326, "type": "electric_bike"}, {"bike_id": "007b25c8992daf7e43fab86662a1c980", "is_reserved": 0, "fusion_lon": 0.0, "lat": 38.89798733333333, "is_disabled": 0, "name": "007b25c8992daf7e43fab86662a1c980", "fusion_lat": 0.0, "rental_uris": {"ios": "https://dc.lft.to/lastmile_qr_scan", "android": "https://dc.lft.to/lastmile_qr_scan"}, "lon": -76.99162416666667, "type": "electric_scooter"}, {"bike_id": "9e00cb5d6ebc89dd15ce5c4bdbde2f37", "is_reserved": 0, "fusion_lon": 0.0, "lat": 38.897512166666665, "is_disabled": 0, "name": "9e00cb5d6ebc89dd15ce5c4bdbde2f37", "fusion_lat": 0.0, "rental_uris": {"ios": "https://dc.lft.to/lastmile_qr_scan", "android": "https://dc.lft.to/lastmile_qr_scan"}, "lon": -77.026974, "type": "electric_scooter"}, {"bike_id": "052c375e6fa15247e7161a6118f7e9f0", "is_reserved": 0, "fusion_lon": 0.0, "lat": 38.934458666666664, "is_disabled": 0, "name": "052c375e6fa15247e7161a6118f7e9f0", "fusion_lat": 0.0, "rental_uris": {"ios": "https://dc.lft.to/lastmile_qr_scan", "android": "https://dc.lft.to/lastmile_qr_scan"}, "lon": -77.02846116666667, "type": "electric_scooter"}, {"bike_id": "948bf56d850a0734cfe0a225b71c193f", "is_reserved": 0, "fusion_lon": 0.0, "lat": 38.930655, "is_disabled": 0, "name": "948bf56d850a0734cfe0a225b71c193f", "fusion_lat": 0.0, "rental_uris": {"ios": "https://dc.lft.to/lastmile_qr_scan", "android": "https://dc.lft.to/lastmile_qr_scan"}, "lon": -77.03186216666667, "type": "electric_scooter"}, {"bike_id": "5a7d4e6a34f7969f85e5a546788480c6", "is_reserved": 0, "fusion_lon": 0.0, "lat": 38.90722733333333, "is_disabled": 0, "name": "5a7d4e6a34f7969f85e5a546788480c6", "fusion_lat": 0.0, "rental_uris": {"ios": "https://dc.lft.to/lastmile_qr_scan", "android": "https://dc.lft.to/lastmile_qr_scan"}, "lon": -77.02972833333334, "type": "electric_scooter"}, {"bike_id": "655d561350537e690c85b12fab04a671", "is_reserved": 0, "fusion_lon": 0.0, "lat": 38.931074833333334, "is_disabled": 0, "name": "655d561350537e690c85b12fab04a671", "fusion_lat": 0.0, "rental_uris": {"ios": "https://dc.lft.to/lastmile_qr_scan", "android": "https://dc.lft.to/lastmile_qr_scan"}, "lon": -77.0346075, "type": "electric_scooter"}, {"bike_id": "4c4e46cc25274cc761b90dff08dd1b61", "is_reserved": 0, "fusion_lon": 0.0, "lat": 38.88505, "is_disabled": 0, "name": "4c4e46cc25274cc761b90dff08dd1b61", "fusion_lat": 0.0, "rental_uris": {"ios": "https://dc.lft.to/lastmile_qr_scan", "android": "https://dc.lft.to/lastmile_qr_scan"}, "lon": -77.0056695, "type": "electric_scooter"}, {"bike_id": "a365612faf491694c5cd82b1d94bf233", "is_reserved": 0, "fusion_lon": 0.0, "lat": 38.883375666666666, "is_disabled": 0, "name": "a365612faf491694c5cd82b1d94bf233", "fusion_lat": 0.0, "rental_uris": {"ios": "https://dc.lft.to/lastmile_qr_scan", "android": "https://dc.lft.to/lastmile_qr_scan"}, "lon": -77.01749366666667, "type": "electric_scooter"}, {"bike_id": "108baddc67c1140c10e132ab6e79b229", "is_reserved": 0, "fusion_lon": 0.0, "lat": 38.917147666666665, "is_disabled": 0, "name": "108baddc67c1140c10e132ab6e79b229", "fusion_lat": 0.0, "rental_uris": {"ios": "https://dc.lft.to/lastmile_qr_scan", "android": "https://dc.lft.to/lastmile_qr_scan"}, "lon": -77.03459733333334, "type": "electric_scooter"}, {"bike_id": "173021c481331e3eaf2abe2c5a998e82", "is_reserved": 0, "fusion_lon": 0.0, "lat": 38.92580016666667, "is_disabled": 0, "name": "173021c481331e3eaf2abe2c5a998e82", "fusion_lat": 0.0, "rental_uris": {"ios": "https://dc.lft.to/lastmile_qr_scan", "android": "https://dc.lft.to/lastmile_qr_scan"}, "lon": -77.00472266666667, "type": "electric_scooter"}, {"bike_id": "09fe831232beb97dcad78a41fc24fcb4", "is_reserved": 0, "fusion_lon": 0.0, "lat": 38.90425183333333, "is_disabled": 0, "name": "09fe831232beb97dcad78a41fc24fcb4", "fusion_lat": 0.0, "rental_uris": {"ios": "https://dc.lft.to/lastmile_qr_scan", "android": "https://dc.lft.to/lastmile_qr_scan"}, "lon": -77.048752, "type": "electric_scooter"}, {"bike_id": "413b7a3064088dbae1cd8929ada416a1", "is_reserved": 0, "fusion_lon": 0.0, "lat": 38.8987895, "is_disabled": 0, "name": "413b7a3064088dbae1cd8929ada416a1", "fusion_lat": 0.0, "rental_uris": {"ios": "https://dc.lft.to/lastmile_qr_scan", "android": "https://dc.lft.to/lastmile_qr_scan"}, "lon": -77.032783, "type": "electric_scooter"}, {"bike_id": "aa82ba5c75218e72f12e712ade87af14", "is_reserved": 0, "fusion_lon": 0.0, "lat": 38.876392333333335, "is_disabled": 0, "name": "aa82ba5c75218e72f12e712ade87af14", "fusion_lat": 0.0, "rental_uris": {"ios": "https://dc.lft.to/lastmile_qr_scan", "android": "https://dc.lft.to/lastmile_qr_scan"}, "lon": -77.0044075, "type": "electric_scooter"}, {"bike_id": "0f11208b45b310a162dcb8872cdf99aa", "is_reserved": 0, "fusion_lon": 0.0, "lat": 38.89344, "is_disabled": 0, "name": "0f11208b45b310a162dcb8872cdf99aa", "fusion_lat": 0.0, "rental_uris": {"ios": "https://dc.lft.to/lastmile_qr_scan", "android": "https://dc.lft.to/lastmile_qr_scan"}, "lon": -76.98458016666666, "type": "electric_scooter"}, {"bike_id": "5bd6e086d0eb7b91512aa4c3449d2d5d", "is_reserved": 0, "fusion_lon": 0.0, "lat": 38.853133666666665, "is_disabled": 0, "name": "5bd6e086d0eb7b91512aa4c3449d2d5d", "fusion_lat": 0.0, "rental_uris": {"ios": "https://dc.lft.to/lastmile_qr_scan", "android": "https://dc.lft.to/lastmile_qr_scan"}, "lon": -76.98027766666667, "type": "electric_bike"}, {"bike_id": "db1cd1d609b96eb9a9b91b1ea5302f46", "is_reserved": 0, "fusion_lon": 0.0, "lat": 38.885063333333335, "is_disabled": 0, "name": "db1cd1d609b96eb9a9b91b1ea5302f46", "fusion_lat": 0.0, "rental_uris": {"ios": "https://dc.lft.to/lastmile_qr_scan", "android": "https://dc.lft.to/lastmile_qr_scan"}, "lon": -77.01535066666666, "type": "electric_scooter"}, {"bike_id": "e7c9815324e7414a0e7d99c892f078b2", "is_reserved": 0, "fusion_lon": 0.0, "lat": 38.890307, "is_disabled": 0, "name": "e7c9815324e7414a0e7d99c892f078b2", "fusion_lat": 0.0, "rental_uris": {"ios": "https://dc.lft.to/lastmile_qr_scan", "android": "https://dc.lft.to/lastmile_qr_scan"}, "lon": -76.93628466666667, "type": "electric_scooter"}, {"bike_id": "54ce33a4d57f7eae679e07e9c9b708e9", "is_reserved": 0, "fusion_lon": 0.0, "lat": 38.926222, "is_disabled": 0, "name": "54ce33a4d57f7eae679e07e9c9b708e9", "fusion_lat": 0.0, "rental_uris": {"ios": "https://dc.lft.to/lastmile_qr_scan", "android": "https://dc.lft.to/lastmile_qr_scan"}, "lon": -77.03790416666666, "type": "electric_scooter"}, {"bike_id": "429a886dc73122120a2642623e8310d1", "is_reserved": 0, "fusion_lon": 0.0, "lat": 38.935852, "is_disabled": 0, "name": "429a886dc73122120a2642623e8310d1", "fusion_lat": 0.0, "rental_uris": {"ios": "https://dc.lft.to/lastmile_qr_scan", "android": "https://dc.lft.to/lastmile_qr_scan"}, "lon": -77.027634, "type": "electric_scooter"}, {"bike_id": "a9f998380aaeaf824d1e107b7ba41874", "is_reserved": 0, "fusion_lon": 0.0, "lat": 38.927276, "is_disabled": 0, "name": "a9f998380aaeaf824d1e107b7ba41874", "fusion_lat": 0.0, "rental_uris": {"ios": "https://dc.lft.to/lastmile_qr_scan", "android": "https://dc.lft.to/lastmile_qr_scan"}, "lon": -77.029623, "type": "electric_scooter"}, {"bike_id": "653c6603e61493cdb34b36aeb2d421cf", "is_reserved": 0, "fusion_lon": 0.0, "lat": 38.926548, "is_disabled": 0, "name": "653c6603e61493cdb34b36aeb2d421cf", "fusion_lat": 0.0, "rental_uris": {"ios": "https://dc.lft.to/lastmile_qr_scan", "android": "https://dc.lft.to/lastmile_qr_scan"}, "lon": -77.03706633333333, "type": "electric_scooter"}, {"bike_id": "dd7aa0c5f508c9b7197df1f6b30c2b82", "is_reserved": 0, "fusion_lon": 0.0, "lat": 38.9001245, "is_disabled": 0, "name": "dd7aa0c5f508c9b7197df1f6b30c2b82", "fusion_lat": 0.0, "rental_uris": {"ios": "https://dc.lft.to/lastmile_qr_scan", "android": "https://dc.lft.to/lastmile_qr_scan"}, "lon": -76.9912095, "type": "electric_scooter"}, {"bike_id": "5806951c9fbaa516055b9843931ab28a", "is_reserved": 0, "fusion_lon": 0.0, "lat": 38.97086133333333, "is_disabled": 0, "name": "5806951c9fbaa516055b9843931ab28a", "fusion_lat": 0.0, "rental_uris": {"ios": "https://dc.lft.to/lastmile_qr_scan", "android": "https://dc.lft.to/lastmile_qr_scan"}, "lon": -77.0696955, "type": "electric_bike"}, {"bike_id": "7c842269566ba9f9833a7ec8570692c3", "is_reserved": 0, "fusion_lon": 0.0, "lat": 38.914195166666666, "is_disabled": 0, "name": "7c842269566ba9f9833a7ec8570692c3", "fusion_lat": 0.0, "rental_uris": {"ios": "https://dc.lft.to/lastmile_qr_scan", "android": "https://dc.lft.to/lastmile_qr_scan"}, "lon": -77.03810983333334, "type": "electric_scooter"}, {"bike_id": "8f013f44bc114e2ce5b1bd5724786211", "is_reserved": 0, "fusion_lon": 0.0, "lat": 38.9308095, "is_disabled": 0, "name": "8f013f44bc114e2ce5b1bd5724786211", "fusion_lat": 0.0, "rental_uris": {"ios": "https://dc.lft.to/lastmile_qr_scan", "android": "https://dc.lft.to/lastmile_qr_scan"}, "lon": -77.02796066666667, "type": "electric_scooter"}, {"bike_id": "6a3e66550628c0be1b413e7676436134", "is_reserved": 0, "fusion_lon": 0.0, "lat": 38.866549166666665, "is_disabled": 0, "name": "6a3e66550628c0be1b413e7676436134", "fusion_lat": 0.0, "rental_uris": {"ios": "https://dc.lft.to/lastmile_qr_scan", "android": "https://dc.lft.to/lastmile_qr_scan"}, "lon": -76.99017716666667, "type": "electric_scooter"}, {"bike_id": "36f2f4a0fac9be67808a933a817d3191", "is_reserved": 0, "fusion_lon": 0.0, "lat": 38.90137333333333, "is_disabled": 0, "name": "36f2f4a0fac9be67808a933a817d3191", "fusion_lat": 0.0, "rental_uris": {"ios": "https://dc.lft.to/lastmile_qr_scan", "android": "https://dc.lft.to/lastmile_qr_scan"}, "lon": -77.0290475, "type": "electric_scooter"}, {"bike_id": "9c48466df26171c2bc9ce636fea62cdc", "is_reserved": 0, "fusion_lon": 0.0, "lat": 38.898256333333336, "is_disabled": 0, "name": "9c48466df26171c2bc9ce636fea62cdc", "fusion_lat": 0.0, "rental_uris": {"ios": "https://dc.lft.to/lastmile_qr_scan", "android": "https://dc.lft.to/lastmile_qr_scan"}, "lon": -76.94652233333333, "type": "electric_scooter"}, {"bike_id": "4e55d469875c7c2b6236a7bacac0700c", "is_reserved": 0, "fusion_lon": 0.0, "lat": 38.919914166666665, "is_disabled": 0, "name": "4e55d469875c7c2b6236a7bacac0700c", "fusion_lat": 0.0, "rental_uris": {"ios": "https://dc.lft.to/lastmile_qr_scan", "android": "https://dc.lft.to/lastmile_qr_scan"}, "lon": -77.03475766666666, "type": "electric_scooter"}, {"bike_id": "3258de62460bc2dc2c294c98fc412487", "is_reserved": 0, "fusion_lon": 0.0, "lat": 38.900911666666666, "is_disabled": 0, "name": "3258de62460bc2dc2c294c98fc412487", "fusion_lat": 0.0, "rental_uris": {"ios": "https://dc.lft.to/lastmile_qr_scan", "android": "https://dc.lft.to/lastmile_qr_scan"}, "lon": -77.05057633333334, "type": "electric_scooter"}, {"bike_id": "b8ca9d76ff0f9fc05be2fd178ac74b8a", "is_reserved": 0, "fusion_lon": 0.0, "lat": 38.937642333333336, "is_disabled": 0, "name": "b8ca9d76ff0f9fc05be2fd178ac74b8a", "fusion_lat": 0.0, "rental_uris": {"ios": "https://dc.lft.to/lastmile_qr_scan", "android": "https://dc.lft.to/lastmile_qr_scan"}, "lon": -77.0226395, "type": "electric_scooter"}, {"bike_id": "ae2fc251c42f73ccc7a6efd0022a67c8", "is_reserved": 0, "fusion_lon": 0.0, "lat": 38.83983833333333, "is_disabled": 0, "name": "ae2fc251c42f73ccc7a6efd0022a67c8", "fusion_lat": 0.0, "rental_uris": {"ios": "https://dc.lft.to/lastmile_qr_scan", "android": "https://dc.lft.to/lastmile_qr_scan"}, "lon": -77.00569533333334, "type": "electric_bike"}, {"bike_id": "0fd5721ef2cbbf9f0e7ca6cd36b22bba", "is_reserved": 0, "fusion_lon": 0.0, "lat": 38.90055866666667, "is_disabled": 0, "name": "0fd5721ef2cbbf9f0e7ca6cd36b22bba", "fusion_lat": 0.0, "rental_uris": {"ios": "https://dc.lft.to/lastmile_qr_scan", "android": "https://dc.lft.to/lastmile_qr_scan"}, "lon": -77.05144666666666, "type": "electric_scooter"}, {"bike_id": "7cbef3527cde54c10348e020387317a4", "is_reserved": 0, "fusion_lon": 0.0, "lat": 38.90678166666667, "is_disabled": 0, "name": "7cbef3527cde54c10348e020387317a4", "fusion_lat": 0.0, "rental_uris": {"ios": "https://dc.lft.to/lastmile_qr_scan", "android": "https://dc.lft.to/lastmile_qr_scan"}, "lon": -77.03472666666667, "type": "electric_scooter"}, {"bike_id": "68a85c46e0602ca7fe79c8c54b3834fe", "is_reserved": 0, "fusion_lon": 0.0, "lat": 38.90402383333333, "is_disabled": 0, "name": "68a85c46e0602ca7fe79c8c54b3834fe", "fusion_lat": 0.0, "rental_uris": {"ios": "https://dc.lft.to/lastmile_qr_scan", "android": "https://dc.lft.to/lastmile_qr_scan"}, "lon": -77.043376, "type": "electric_scooter"}, {"bike_id": "4b5df8c80754a0772ff041e34a5d21ac", "is_reserved": 0, "fusion_lon": 0.0, "lat": 38.90583016666667, "is_disabled": 0, "name": "4b5df8c80754a0772ff041e34a5d21ac", "fusion_lat": 0.0, "rental_uris": {"ios": "https://dc.lft.to/lastmile_qr_scan", "android": "https://dc.lft.to/lastmile_qr_scan"}, "lon": -77.00266216666667, "type": "electric_scooter"}, {"bike_id": "ca4a8d7d29e7624e0bdd89cd127459f9", "is_reserved": 0, "fusion_lon": 0.0, "lat": 38.93097433333333, "is_disabled": 0, "name": "ca4a8d7d29e7624e0bdd89cd127459f9", "fusion_lat": 0.0, "rental_uris": {"ios": "https://dc.lft.to/lastmile_qr_scan", "android": "https://dc.lft.to/lastmile_qr_scan"}, "lon": -77.02506766666667, "type": "electric_scooter"}, {"bike_id": "cf523884572119aa9d1a6751fd084d6c", "is_reserved": 0, "fusion_lon": 0.0, "lat": 38.92104583333333, "is_disabled": 0, "name": "cf523884572119aa9d1a6751fd084d6c", "fusion_lat": 0.0, "rental_uris": {"ios": "https://dc.lft.to/lastmile_qr_scan", "android": "https://dc.lft.to/lastmile_qr_scan"}, "lon": -77.0317885, "type": "electric_scooter"}, {"bike_id": "719300a2b422caedb42f103c63df0f2a", "is_reserved": 0, "fusion_lon": 0.0, "lat": 38.905581166666664, "is_disabled": 0, "name": "719300a2b422caedb42f103c63df0f2a", "fusion_lat": 0.0, "rental_uris": {"ios": "https://dc.lft.to/lastmile_qr_scan", "android": "https://dc.lft.to/lastmile_qr_scan"}, "lon": -77.03862466666666, "type": "electric_scooter"}, {"bike_id": "437324c7cac09dfc6f11fdf1d15cfe5f", "is_reserved": 0, "fusion_lon": 0.0, "lat": 38.89633083333333, "is_disabled": 0, "name": "437324c7cac09dfc6f11fdf1d15cfe5f", "fusion_lat": 0.0, "rental_uris": {"ios": "https://dc.lft.to/lastmile_qr_scan", "android": "https://dc.lft.to/lastmile_qr_scan"}, "lon": -77.032283, "type": "electric_scooter"}, {"bike_id": "887a133b0f0968b22bd4904c863fb614", "is_reserved": 0, "fusion_lon": 0.0, "lat": 38.86605, "is_disabled": 0, "name": "887a133b0f0968b22bd4904c863fb614", "fusion_lat": 0.0, "rental_uris": {"ios": "https://dc.lft.to/lastmile_qr_scan", "android": "https://dc.lft.to/lastmile_qr_scan"}, "lon": -76.98921683333333, "type": "electric_scooter"}, {"bike_id": "5cd66a6a5526df80d20a63159939e782", "is_reserved": 0, "fusion_lon": 0.0, "lat": 38.9003915, "is_disabled": 0, "name": "5cd66a6a5526df80d20a63159939e782", "fusion_lat": 0.0, "rental_uris": {"ios": "https://dc.lft.to/lastmile_qr_scan", "android": "https://dc.lft.to/lastmile_qr_scan"}, "lon": -77.04678816666667, "type": "electric_scooter"}, {"bike_id": "9690d1c4f53ec147a76647f02e5ac022", "is_reserved": 0, "fusion_lon": 0.0, "lat": 38.92711416666667, "is_disabled": 0, "name": "9690d1c4f53ec147a76647f02e5ac022", "fusion_lat": 0.0, "rental_uris": {"ios": "https://dc.lft.to/lastmile_qr_scan", "android": "https://dc.lft.to/lastmile_qr_scan"}, "lon": -77.0210025, "type": "electric_scooter"}, {"bike_id": "d33cf83a006e7c319b7e81ba7423b445", "is_reserved": 0, "fusion_lon": 0.0, "lat": 38.9171965, "is_disabled": 0, "name": "d33cf83a006e7c319b7e81ba7423b445", "fusion_lat": 0.0, "rental_uris": {"ios": "https://dc.lft.to/lastmile_qr_scan", "android": "https://dc.lft.to/lastmile_qr_scan"}, "lon": -77.03833833333333, "type": "electric_scooter"}, {"bike_id": "ed522a0771c633cd6ff6ba12df37a03d", "is_reserved": 0, "fusion_lon": 0.0, "lat": 38.921049, "is_disabled": 0, "name": "ed522a0771c633cd6ff6ba12df37a03d", "fusion_lat": 0.0, "rental_uris": {"ios": "https://dc.lft.to/lastmile_qr_scan", "android": "https://dc.lft.to/lastmile_qr_scan"}, "lon": -76.99384483333333, "type": "electric_scooter"}, {"bike_id": "5b953dcef540da69424baab5365334d6", "is_reserved": 0, "fusion_lon": 0.0, "lat": 38.87189816666667, "is_disabled": 0, "name": "5b953dcef540da69424baab5365334d6", "fusion_lat": 0.0, "rental_uris": {"ios": "https://dc.lft.to/lastmile_qr_scan", "android": "https://dc.lft.to/lastmile_qr_scan"}, "lon": -77.0122425, "type": "electric_scooter"}, {"bike_id": "78b6d440b3be36df68b3ceee7b8d1888", "is_reserved": 0, "fusion_lon": 0.0, "lat": 38.9111455, "is_disabled": 0, "name": "78b6d440b3be36df68b3ceee7b8d1888", "fusion_lat": 0.0, "rental_uris": {"ios": "https://dc.lft.to/lastmile_qr_scan", "android": "https://dc.lft.to/lastmile_qr_scan"}, "lon": -77.00250283333334, "type": "electric_scooter"}, {"bike_id": "1c484fe0526b7684fed860e2c2ce0349", "is_reserved": 0, "fusion_lon": 0.0, "lat": 38.8543655, "is_disabled": 0, "name": "1c484fe0526b7684fed860e2c2ce0349", "fusion_lat": 0.0, "rental_uris": {"ios": "https://dc.lft.to/lastmile_qr_scan", "android": "https://dc.lft.to/lastmile_qr_scan"}, "lon": -77.11706716666667, "type": "electric_bike"}, {"bike_id": "13ecd273458a726b6f604411ee9d8228", "is_reserved": 0, "fusion_lon": 0.0, "lat": 38.895233166666664, "is_disabled": 0, "name": "13ecd273458a726b6f604411ee9d8228", "fusion_lat": 0.0, "rental_uris": {"ios": "https://dc.lft.to/lastmile_qr_scan", "android": "https://dc.lft.to/lastmile_qr_scan"}, "lon": -77.0160645, "type": "electric_scooter"}, {"bike_id": "5f42c72193e529f8e42ac5104ebcdf91", "is_reserved": 0, "fusion_lon": 0.0, "lat": 38.9212295, "is_disabled": 0, "name": "5f42c72193e529f8e42ac5104ebcdf91", "fusion_lat": 0.0, "rental_uris": {"ios": "https://dc.lft.to/lastmile_qr_scan", "android": "https://dc.lft.to/lastmile_qr_scan"}, "lon": -77.01020383333334, "type": "electric_scooter"}, {"bike_id": "02c281d9ce7524658f51cfc073b15475", "is_reserved": 0, "fusion_lon": 0.0, "lat": 38.905292833333334, "is_disabled": 0, "name": "02c281d9ce7524658f51cfc073b15475", "fusion_lat": 0.0, "rental_uris": {"ios": "https://dc.lft.to/lastmile_qr_scan", "android": "https://dc.lft.to/lastmile_qr_scan"}, "lon": -77.05878316666667, "type": "electric_scooter"}, {"bike_id": "7f0785288f21e01e5e374abc156a43da", "is_reserved": 0, "fusion_lon": 0.0, "lat": 38.941827833333335, "is_disabled": 0, "name": "7f0785288f21e01e5e374abc156a43da", "fusion_lat": 0.0, "rental_uris": {"ios": "https://dc.lft.to/lastmile_qr_scan", "android": "https://dc.lft.to/lastmile_qr_scan"}, "lon": -77.03088666666666, "type": "electric_scooter"}, {"bike_id": "72e44192a36708509dceec5ff1cbd0a9", "is_reserved": 0, "fusion_lon": 0.0, "lat": 38.92847316666667, "is_disabled": 0, "name": "72e44192a36708509dceec5ff1cbd0a9", "fusion_lat": 0.0, "rental_uris": {"ios": "https://dc.lft.to/lastmile_qr_scan", "android": "https://dc.lft.to/lastmile_qr_scan"}, "lon": -77.02058433333333, "type": "electric_bike"}, {"bike_id": "a0ae0842e05c0a57f073a25d610dc91d", "is_reserved": 0, "fusion_lon": 0.0, "lat": 38.90694083333333, "is_disabled": 0, "name": "a0ae0842e05c0a57f073a25d610dc91d", "fusion_lat": 0.0, "rental_uris": {"ios": "https://dc.lft.to/lastmile_qr_scan", "android": "https://dc.lft.to/lastmile_qr_scan"}, "lon": -77.03592233333333, "type": "electric_bike"}, {"bike_id": "728b7707869dbf7cc6e907b8ee880221", "is_reserved": 0, "fusion_lon": 0.0, "lat": 38.899541166666666, "is_disabled": 0, "name": "728b7707869dbf7cc6e907b8ee880221", "fusion_lat": 0.0, "rental_uris": {"ios": "https://dc.lft.to/lastmile_qr_scan", "android": "https://dc.lft.to/lastmile_qr_scan"}, "lon": -77.05052433333333, "type": "electric_scooter"}, {"bike_id": "ab22fe3cf624b7766b43112b03a291f0", "is_reserved": 0, "fusion_lon": 0.0, "lat": 38.897381333333335, "is_disabled": 0, "name": "ab22fe3cf624b7766b43112b03a291f0", "fusion_lat": 0.0, "rental_uris": {"ios": "https://dc.lft.to/lastmile_qr_scan", "android": "https://dc.lft.to/lastmile_qr_scan"}, "lon": -77.02663766666667, "type": "electric_scooter"}, {"bike_id": "e24c8923f8a217e2630644769c6364de", "is_reserved": 0, "fusion_lon": 0.0, "lat": 38.924428666666664, "is_disabled": 0, "name": "e24c8923f8a217e2630644769c6364de", "fusion_lat": 0.0, "rental_uris": {"ios": "https://dc.lft.to/lastmile_qr_scan", "android": "https://dc.lft.to/lastmile_qr_scan"}, "lon": -77.04116833333333, "type": "electric_scooter"}, {"bike_id": "373567cb8a7ac060f24136376745a43f", "is_reserved": 0, "fusion_lon": 0.0, "lat": 38.907958, "is_disabled": 0, "name": "373567cb8a7ac060f24136376745a43f", "fusion_lat": 0.0, "rental_uris": {"ios": "https://dc.lft.to/lastmile_qr_scan", "android": "https://dc.lft.to/lastmile_qr_scan"}, "lon": -76.9969995, "type": "electric_scooter"}, {"bike_id": "858963ce7a54492333a600241569116b", "is_reserved": 0, "fusion_lon": 0.0, "lat": 38.92855566666667, "is_disabled": 0, "name": "858963ce7a54492333a600241569116b", "fusion_lat": 0.0, "rental_uris": {"ios": "https://dc.lft.to/lastmile_qr_scan", "android": "https://dc.lft.to/lastmile_qr_scan"}, "lon": -77.2221825, "type": "electric_bike"}, {"bike_id": "ea03630dd05b12618987597c3d0a861e", "is_reserved": 0, "fusion_lon": 0.0, "lat": 38.9353955, "is_disabled": 0, "name": "ea03630dd05b12618987597c3d0a861e", "fusion_lat": 0.0, "rental_uris": {"ios": "https://dc.lft.to/lastmile_qr_scan", "android": "https://dc.lft.to/lastmile_qr_scan"}, "lon": -77.03419483333333, "type": "electric_scooter"}, {"bike_id": "fbd4e8138a5d30e4fb377febf7e7d0b2", "is_reserved": 0, "fusion_lon": 0.0, "lat": 38.901414833333334, "is_disabled": 0, "name": "fbd4e8138a5d30e4fb377febf7e7d0b2", "fusion_lat": 0.0, "rental_uris": {"ios": "https://dc.lft.to/lastmile_qr_scan", "android": "https://dc.lft.to/lastmile_qr_scan"}, "lon": -77.04038133333333, "type": "electric_bike"}, {"bike_id": "e3354c9dc18d0803be18e83610274c60", "is_reserved": 0, "fusion_lon": 0.0, "lat": 38.88738433333333, "is_disabled": 0, "name": "e3354c9dc18d0803be18e83610274c60", "fusion_lat": 0.0, "rental_uris": {"ios": "https://dc.lft.to/lastmile_qr_scan", "android": "https://dc.lft.to/lastmile_qr_scan"}, "lon": -77.02263883333333, "type": "electric_bike"}, {"bike_id": "069928a81c975d8501ea6c62ad9caf0b", "is_reserved": 0, "fusion_lon": 0.0, "lat": 39.08856316666667, "is_disabled": 0, "name": "069928a81c975d8501ea6c62ad9caf0b", "fusion_lat": 0.0, "rental_uris": {"ios": "https://dc.lft.to/lastmile_qr_scan", "android": "https://dc.lft.to/lastmile_qr_scan"}, "lon": -77.1784225, "type": "electric_bike"}, {"bike_id": "f8ea94be94f8c7d1c3517d6f71294b8a", "is_reserved": 0, "fusion_lon": 0.0, "lat": 38.956533666666665, "is_disabled": 0, "name": "f8ea94be94f8c7d1c3517d6f71294b8a", "fusion_lat": 0.0, "rental_uris": {"ios": "https://dc.lft.to/lastmile_qr_scan", "android": "https://dc.lft.to/lastmile_qr_scan"}, "lon": -77.03291883333333, "type": "electric_scooter"}, {"bike_id": "79ef523cf7759a4c8a837bcc05a14cfd", "is_reserved": 0, "fusion_lon": 0.0, "lat": 38.907357, "is_disabled": 0, "name": "79ef523cf7759a4c8a837bcc05a14cfd", "fusion_lat": 0.0, "rental_uris": {"ios": "https://dc.lft.to/lastmile_qr_scan", "android": "https://dc.lft.to/lastmile_qr_scan"}, "lon": -77.04344083333334, "type": "electric_scooter"}, {"bike_id": "82bb1afbacdea03d5a9ebc62c9024e1f", "is_reserved": 0, "fusion_lon": 0.0, "lat": 38.911182833333335, "is_disabled": 0, "name": "82bb1afbacdea03d5a9ebc62c9024e1f", "fusion_lat": 0.0, "rental_uris": {"ios": "https://dc.lft.to/lastmile_qr_scan", "android": "https://dc.lft.to/lastmile_qr_scan"}, "lon": -77.03837433333334, "type": "electric_scooter"}, {"bike_id": "f7b4e3a1ff599f682f008f18c83282be", "is_reserved": 0, "fusion_lon": 0.0, "lat": 38.957478, "is_disabled": 0, "name": "f7b4e3a1ff599f682f008f18c83282be", "fusion_lat": 0.0, "rental_uris": {"ios": "https://dc.lft.to/lastmile_qr_scan", "android": "https://dc.lft.to/lastmile_qr_scan"}, "lon": -77.02416133333334, "type": "electric_scooter"}, {"bike_id": "044ac42817092f07ec1afc653e965a46", "is_reserved": 0, "fusion_lon": 0.0, "lat": 38.8653805, "is_disabled": 0, "name": "044ac42817092f07ec1afc653e965a46", "fusion_lat": 0.0, "rental_uris": {"ios": "https://dc.lft.to/lastmile_qr_scan", "android": "https://dc.lft.to/lastmile_qr_scan"}, "lon": -76.98710133333333, "type": "electric_scooter"}, {"bike_id": "e6e0e5ec39f3520dfba97f8efd873627", "is_reserved": 0, "fusion_lon": 0.0, "lat": 38.953352333333335, "is_disabled": 0, "name": "e6e0e5ec39f3520dfba97f8efd873627", "fusion_lat": 0.0, "rental_uris": {"ios": "https://dc.lft.to/lastmile_qr_scan", "android": "https://dc.lft.to/lastmile_qr_scan"}, "lon": -77.00958683333333, "type": "electric_bike"}, {"bike_id": "d65ea3b78504173be6ca8d5e9be91617", "is_reserved": 0, "fusion_lon": 0.0, "lat": 38.90518483333334, "is_disabled": 0, "name": "d65ea3b78504173be6ca8d5e9be91617", "fusion_lat": 0.0, "rental_uris": {"ios": "https://dc.lft.to/lastmile_qr_scan", "android": "https://dc.lft.to/lastmile_qr_scan"}, "lon": -77.0514965, "type": "electric_scooter"}, {"bike_id": "a4fb4c113bf6be6eeda4a387ebd49bf9", "is_reserved": 0, "fusion_lon": 0.0, "lat": 38.915596, "is_disabled": 0, "name": "a4fb4c113bf6be6eeda4a387ebd49bf9", "fusion_lat": 0.0, "rental_uris": {"ios": "https://dc.lft.to/lastmile_qr_scan", "android": "https://dc.lft.to/lastmile_qr_scan"}, "lon": -77.03862683333334, "type": "electric_scooter"}, {"bike_id": "319672a2a530ead068d7310472319191", "is_reserved": 0, "fusion_lon": 0.0, "lat": 38.917255833333336, "is_disabled": 0, "name": "319672a2a530ead068d7310472319191", "fusion_lat": 0.0, "rental_uris": {"ios": "https://dc.lft.to/lastmile_qr_scan", "android": "https://dc.lft.to/lastmile_qr_scan"}, "lon": -77.06845533333333, "type": "electric_scooter"}, {"bike_id": "ea8427a2c6bdd87b76071d05f4542aa5", "is_reserved": 0, "fusion_lon": 0.0, "lat": 38.92219816666667, "is_disabled": 0, "name": "ea8427a2c6bdd87b76071d05f4542aa5", "fusion_lat": 0.0, "rental_uris": {"ios": "https://dc.lft.to/lastmile_qr_scan", "android": "https://dc.lft.to/lastmile_qr_scan"}, "lon": -77.04256, "type": "electric_scooter"}, {"bike_id": "2b81d9f92e5166b554d2cfa468a281d5", "is_reserved": 0, "fusion_lon": 0.0, "lat": 38.93902533333333, "is_disabled": 0, "name": "2b81d9f92e5166b554d2cfa468a281d5", "fusion_lat": 0.0, "rental_uris": {"ios": "https://dc.lft.to/lastmile_qr_scan", "android": "https://dc.lft.to/lastmile_qr_scan"}, "lon": -77.0773215, "type": "electric_scooter"}, {"bike_id": "c8e8d6a6791d10c149a9b30e128145d9", "is_reserved": 0, "fusion_lon": 0.0, "lat": 38.8947975, "is_disabled": 0, "name": "c8e8d6a6791d10c149a9b30e128145d9", "fusion_lat": 0.0, "rental_uris": {"ios": "https://dc.lft.to/lastmile_qr_scan", "android": "https://dc.lft.to/lastmile_qr_scan"}, "lon": -77.0305235, "type": "electric_scooter"}, {"bike_id": "47853657b4480091d150866af44cbfba", "is_reserved": 0, "fusion_lon": 0.0, "lat": 38.905999, "is_disabled": 0, "name": "47853657b4480091d150866af44cbfba", "fusion_lat": 0.0, "rental_uris": {"ios": "https://dc.lft.to/lastmile_qr_scan", "android": "https://dc.lft.to/lastmile_qr_scan"}, "lon": -77.04039633333333, "type": "electric_scooter"}, {"bike_id": "9630572af4e337896ce7a76e73e94a93", "is_reserved": 0, "fusion_lon": 0.0, "lat": 38.94830733333333, "is_disabled": 0, "name": "9630572af4e337896ce7a76e73e94a93", "fusion_lat": 0.0, "rental_uris": {"ios": "https://dc.lft.to/lastmile_qr_scan", "android": "https://dc.lft.to/lastmile_qr_scan"}, "lon": -77.03900766666666, "type": "electric_bike"}, {"bike_id": "67527bd0baf03956c50f283863a8539d", "is_reserved": 0, "fusion_lon": 0.0, "lat": 38.933728333333335, "is_disabled": 0, "name": "67527bd0baf03956c50f283863a8539d", "fusion_lat": 0.0, "rental_uris": {"ios": "https://dc.lft.to/lastmile_qr_scan", "android": "https://dc.lft.to/lastmile_qr_scan"}, "lon": -77.03467116666667, "type": "electric_scooter"}, {"bike_id": "539034678a0c4abbf70d9ffd115228b2", "is_reserved": 0, "fusion_lon": 0.0, "lat": 38.91826733333333, "is_disabled": 0, "name": "539034678a0c4abbf70d9ffd115228b2", "fusion_lat": 0.0, "rental_uris": {"ios": "https://dc.lft.to/lastmile_qr_scan", "android": "https://dc.lft.to/lastmile_qr_scan"}, "lon": -77.04172916666667, "type": "electric_scooter"}, {"bike_id": "d443cf195a105d830923b757557fa8f1", "is_reserved": 0, "fusion_lon": 0.0, "lat": 38.915585666666665, "is_disabled": 0, "name": "d443cf195a105d830923b757557fa8f1", "fusion_lat": 0.0, "rental_uris": {"ios": "https://dc.lft.to/lastmile_qr_scan", "android": "https://dc.lft.to/lastmile_qr_scan"}, "lon": -77.04489433333333, "type": "electric_scooter"}, {"bike_id": "e5a77a7b0eb889389ee15cdc2354aea0", "is_reserved": 0, "fusion_lon": 0.0, "lat": 38.9406555, "is_disabled": 0, "name": "e5a77a7b0eb889389ee15cdc2354aea0", "fusion_lat": 0.0, "rental_uris": {"ios": "https://dc.lft.to/lastmile_qr_scan", "android": "https://dc.lft.to/lastmile_qr_scan"}, "lon": -76.99464766666667, "type": "electric_scooter"}, {"bike_id": "9fd9460ac1827ec4d5f701927ada7c29", "is_reserved": 0, "fusion_lon": 0.0, "lat": 38.918542333333335, "is_disabled": 0, "name": "9fd9460ac1827ec4d5f701927ada7c29", "fusion_lat": 0.0, "rental_uris": {"ios": "https://dc.lft.to/lastmile_qr_scan", "android": "https://dc.lft.to/lastmile_qr_scan"}, "lon": -76.96555966666666, "type": "electric_scooter"}, {"bike_id": "30fdd7222c432ea53c1953eb28b0bfd6", "is_reserved": 0, "fusion_lon": 0.0, "lat": 38.9156675, "is_disabled": 0, "name": "30fdd7222c432ea53c1953eb28b0bfd6", "fusion_lat": 0.0, "rental_uris": {"ios": "https://dc.lft.to/lastmile_qr_scan", "android": "https://dc.lft.to/lastmile_qr_scan"}, "lon": -77.03851483333334, "type": "electric_scooter"}, {"bike_id": "37b51df6977eca625b07cdb4e1165866", "is_reserved": 0, "fusion_lon": 0.0, "lat": 38.92681683333333, "is_disabled": 0, "name": "37b51df6977eca625b07cdb4e1165866", "fusion_lat": 0.0, "rental_uris": {"ios": "https://dc.lft.to/lastmile_qr_scan", "android": "https://dc.lft.to/lastmile_qr_scan"}, "lon": -77.09558083333333, "type": "electric_scooter"}, {"bike_id": "c801bb07ff58a9c75662494b9c6e7192", "is_reserved": 0, "fusion_lon": 0.0, "lat": 38.922245833333335, "is_disabled": 0, "name": "c801bb07ff58a9c75662494b9c6e7192", "fusion_lat": 0.0, "rental_uris": {"ios": "https://dc.lft.to/lastmile_qr_scan", "android": "https://dc.lft.to/lastmile_qr_scan"}, "lon": -77.03361666666666, "type": "electric_scooter"}, {"bike_id": "1b0c7cd87f49e5b083b685b63904704e", "is_reserved": 0, "fusion_lon": 0.0, "lat": 38.9096015, "is_disabled": 0, "name": "1b0c7cd87f49e5b083b685b63904704e", "fusion_lat": 0.0, "rental_uris": {"ios": "https://dc.lft.to/lastmile_qr_scan", "android": "https://dc.lft.to/lastmile_qr_scan"}, "lon": -77.03167166666667, "type": "electric_scooter"}, {"bike_id": "88e07a63f1068660983f94d7cb8e6d85", "is_reserved": 0, "fusion_lon": 0.0, "lat": 38.879853833333335, "is_disabled": 0, "name": "88e07a63f1068660983f94d7cb8e6d85", "fusion_lat": 0.0, "rental_uris": {"ios": "https://dc.lft.to/lastmile_qr_scan", "android": "https://dc.lft.to/lastmile_qr_scan"}, "lon": -76.91598866666666, "type": "electric_bike"}, {"bike_id": "938ecd23b5af096112f7e4b087b31f72", "is_reserved": 0, "fusion_lon": 0.0, "lat": 38.91871183333333, "is_disabled": 0, "name": "938ecd23b5af096112f7e4b087b31f72", "fusion_lat": 0.0, "rental_uris": {"ios": "https://dc.lft.to/lastmile_qr_scan", "android": "https://dc.lft.to/lastmile_qr_scan"}, "lon": -77.04382066666666, "type": "electric_scooter"}, {"bike_id": "fb5c76937f2c2cb2072d4e6cd9f5f50b", "is_reserved": 0, "fusion_lon": 0.0, "lat": 38.9015105, "is_disabled": 0, "name": "fb5c76937f2c2cb2072d4e6cd9f5f50b", "fusion_lat": 0.0, "rental_uris": {"ios": "https://dc.lft.to/lastmile_qr_scan", "android": "https://dc.lft.to/lastmile_qr_scan"}, "lon": -76.93064833333334, "type": "electric_scooter"}, {"bike_id": "fe3918ffe252d273377f545058f33fc2", "is_reserved": 0, "fusion_lon": 0.0, "lat": 38.91820283333333, "is_disabled": 0, "name": "fe3918ffe252d273377f545058f33fc2", "fusion_lat": 0.0, "rental_uris": {"ios": "https://dc.lft.to/lastmile_qr_scan", "android": "https://dc.lft.to/lastmile_qr_scan"}, "lon": -77.04182416666667, "type": "electric_scooter"}, {"bike_id": "4b6a31422f5ce99ac1ad5fcca83b402e", "is_reserved": 0, "fusion_lon": 0.0, "lat": 38.84289583333333, "is_disabled": 0, "name": "4b6a31422f5ce99ac1ad5fcca83b402e", "fusion_lat": 0.0, "rental_uris": {"ios": "https://dc.lft.to/lastmile_qr_scan", "android": "https://dc.lft.to/lastmile_qr_scan"}, "lon": -76.99954016666666, "type": "electric_scooter"}, {"bike_id": "d186b4ddbd3718376a8a7a290716ad06", "is_reserved": 0, "fusion_lon": 0.0, "lat": 38.898371166666664, "is_disabled": 0, "name": "d186b4ddbd3718376a8a7a290716ad06", "fusion_lat": 0.0, "rental_uris": {"ios": "https://dc.lft.to/lastmile_qr_scan", "android": "https://dc.lft.to/lastmile_qr_scan"}, "lon": -77.00757216666666, "type": "electric_scooter"}, {"bike_id": "5f6324eee3fce255a6ee888c3c0f2e93", "is_reserved": 0, "fusion_lon": 0.0, "lat": 38.913846166666666, "is_disabled": 0, "name": "5f6324eee3fce255a6ee888c3c0f2e93", "fusion_lat": 0.0, "rental_uris": {"ios": "https://dc.lft.to/lastmile_qr_scan", "android": "https://dc.lft.to/lastmile_qr_scan"}, "lon": -77.017971, "type": "electric_scooter"}, {"bike_id": "c744515b813fb865c649b1dd7076fb42", "is_reserved": 0, "fusion_lon": 0.0, "lat": 38.918040166666664, "is_disabled": 0, "name": "c744515b813fb865c649b1dd7076fb42", "fusion_lat": 0.0, "rental_uris": {"ios": "https://dc.lft.to/lastmile_qr_scan", "android": "https://dc.lft.to/lastmile_qr_scan"}, "lon": -77.03436416666666, "type": "electric_scooter"}, {"bike_id": "23de45128aeed17e34733e919f68c4f0", "is_reserved": 0, "fusion_lon": 0.0, "lat": 38.902646833333336, "is_disabled": 0, "name": "23de45128aeed17e34733e919f68c4f0", "fusion_lat": 0.0, "rental_uris": {"ios": "https://dc.lft.to/lastmile_qr_scan", "android": "https://dc.lft.to/lastmile_qr_scan"}, "lon": -77.0611395, "type": "electric_scooter"}, {"bike_id": "0bb8731e85a2805aaa39a5a5d8dffe9d", "is_reserved": 0, "fusion_lon": 0.0, "lat": 38.91402683333333, "is_disabled": 0, "name": "0bb8731e85a2805aaa39a5a5d8dffe9d", "fusion_lat": 0.0, "rental_uris": {"ios": "https://dc.lft.to/lastmile_qr_scan", "android": "https://dc.lft.to/lastmile_qr_scan"}, "lon": -77.041489, "type": "electric_scooter"}, {"bike_id": "adfac5da560bcd12e52e87e9773a3d6a", "is_reserved": 0, "fusion_lon": 0.0, "lat": 38.92406183333333, "is_disabled": 0, "name": "adfac5da560bcd12e52e87e9773a3d6a", "fusion_lat": 0.0, "rental_uris": {"ios": "https://dc.lft.to/lastmile_qr_scan", "android": "https://dc.lft.to/lastmile_qr_scan"}, "lon": -76.9974175, "type": "electric_bike"}, {"bike_id": "586c5c34811e133d33b1392f029a3c28", "is_reserved": 0, "fusion_lon": 0.0, "lat": 38.93150216666667, "is_disabled": 0, "name": "586c5c34811e133d33b1392f029a3c28", "fusion_lat": 0.0, "rental_uris": {"ios": "https://dc.lft.to/lastmile_qr_scan", "android": "https://dc.lft.to/lastmile_qr_scan"}, "lon": -77.043669, "type": "electric_scooter"}, {"bike_id": "6e25d19797e6efd7da24792b251f2af8", "is_reserved": 0, "fusion_lon": 0.0, "lat": 38.911838333333336, "is_disabled": 0, "name": "6e25d19797e6efd7da24792b251f2af8", "fusion_lat": 0.0, "rental_uris": {"ios": "https://dc.lft.to/lastmile_qr_scan", "android": "https://dc.lft.to/lastmile_qr_scan"}, "lon": -77.04549033333333, "type": "electric_scooter"}, {"bike_id": "8b86c07851e178ac8c1ba77e41d9f41e", "is_reserved": 0, "fusion_lon": 0.0, "lat": 38.934909833333336, "is_disabled": 0, "name": "8b86c07851e178ac8c1ba77e41d9f41e", "fusion_lat": 0.0, "rental_uris": {"ios": "https://dc.lft.to/lastmile_qr_scan", "android": "https://dc.lft.to/lastmile_qr_scan"}, "lon": -77.02847233333334, "type": "electric_scooter"}, {"bike_id": "8a464781fb5b2c21cf488f7c93d2d384", "is_reserved": 0, "fusion_lon": 0.0, "lat": 38.90342883333334, "is_disabled": 0, "name": "8a464781fb5b2c21cf488f7c93d2d384", "fusion_lat": 0.0, "rental_uris": {"ios": "https://dc.lft.to/lastmile_qr_scan", "android": "https://dc.lft.to/lastmile_qr_scan"}, "lon": -77.03308833333334, "type": "electric_scooter"}, {"bike_id": "4d6b8bafec126c0a4ef32344dcc95a21", "is_reserved": 0, "fusion_lon": 0.0, "lat": 38.900039166666666, "is_disabled": 0, "name": "4d6b8bafec126c0a4ef32344dcc95a21", "fusion_lat": 0.0, "rental_uris": {"ios": "https://dc.lft.to/lastmile_qr_scan", "android": "https://dc.lft.to/lastmile_qr_scan"}, "lon": -76.98706466666667, "type": "electric_scooter"}, {"bike_id": "32faffcfe9684230314d298dc7e01701", "is_reserved": 0, "fusion_lon": 0.0, "lat": 38.93874666666667, "is_disabled": 0, "name": "32faffcfe9684230314d298dc7e01701", "fusion_lat": 0.0, "rental_uris": {"ios": "https://dc.lft.to/lastmile_qr_scan", "android": "https://dc.lft.to/lastmile_qr_scan"}, "lon": -77.02482166666667, "type": "electric_scooter"}, {"bike_id": "5fd65627ab129bd8afcce5e9034cef45", "is_reserved": 0, "fusion_lon": 0.0, "lat": 38.88085483333333, "is_disabled": 0, "name": "5fd65627ab129bd8afcce5e9034cef45", "fusion_lat": 0.0, "rental_uris": {"ios": "https://dc.lft.to/lastmile_qr_scan", "android": "https://dc.lft.to/lastmile_qr_scan"}, "lon": -76.98533583333334, "type": "electric_scooter"}, {"bike_id": "a816c9ff605fa30eb036ff72ca7e6c65", "is_reserved": 0, "fusion_lon": 0.0, "lat": 38.900364333333336, "is_disabled": 0, "name": "a816c9ff605fa30eb036ff72ca7e6c65", "fusion_lat": 0.0, "rental_uris": {"ios": "https://dc.lft.to/lastmile_qr_scan", "android": "https://dc.lft.to/lastmile_qr_scan"}, "lon": -76.99529416666667, "type": "electric_scooter"}, {"bike_id": "663b13439aee238581eebc3565137362", "is_reserved": 0, "fusion_lon": 0.0, "lat": 38.8860005, "is_disabled": 0, "name": "663b13439aee238581eebc3565137362", "fusion_lat": 0.0, "rental_uris": {"ios": "https://dc.lft.to/lastmile_qr_scan", "android": "https://dc.lft.to/lastmile_qr_scan"}, "lon": -77.00564816666666, "type": "electric_scooter"}, {"bike_id": "b63758ea83dadc464629cd639ab4d79b", "is_reserved": 0, "fusion_lon": 0.0, "lat": 38.8442135, "is_disabled": 0, "name": "b63758ea83dadc464629cd639ab4d79b", "fusion_lat": 0.0, "rental_uris": {"ios": "https://dc.lft.to/lastmile_qr_scan", "android": "https://dc.lft.to/lastmile_qr_scan"}, "lon": -76.99780683333333, "type": "electric_scooter"}, {"bike_id": "7111e97216b323448d59269896f46cd7", "is_reserved": 0, "fusion_lon": 0.0, "lat": 38.892256333333336, "is_disabled": 0, "name": "7111e97216b323448d59269896f46cd7", "fusion_lat": 0.0, "rental_uris": {"ios": "https://dc.lft.to/lastmile_qr_scan", "android": "https://dc.lft.to/lastmile_qr_scan"}, "lon": -77.04859483333334, "type": "electric_scooter"}, {"bike_id": "3a003c8cbfed4facfa7d20bfb6076742", "is_reserved": 0, "fusion_lon": 0.0, "lat": 38.81049, "is_disabled": 0, "name": "3a003c8cbfed4facfa7d20bfb6076742", "fusion_lat": 0.0, "rental_uris": {"ios": "https://dc.lft.to/lastmile_qr_scan", "android": "https://dc.lft.to/lastmile_qr_scan"}, "lon": -77.0850925, "type": "electric_bike"}, {"bike_id": "1f47f5a652629701a4623f49dd81df7d", "is_reserved": 0, "fusion_lon": 0.0, "lat": 38.91173633333333, "is_disabled": 0, "name": "1f47f5a652629701a4623f49dd81df7d", "fusion_lat": 0.0, "rental_uris": {"ios": "https://dc.lft.to/lastmile_qr_scan", "android": "https://dc.lft.to/lastmile_qr_scan"}, "lon": -77.00283533333334, "type": "electric_bike"}, {"bike_id": "526eb9622566ed0bffbeb7a883830fcd", "is_reserved": 0, "fusion_lon": 0.0, "lat": 38.914426, "is_disabled": 0, "name": "526eb9622566ed0bffbeb7a883830fcd", "fusion_lat": 0.0, "rental_uris": {"ios": "https://dc.lft.to/lastmile_qr_scan", "android": "https://dc.lft.to/lastmile_qr_scan"}, "lon": -77.03476866666666, "type": "electric_scooter"}, {"bike_id": "87936f600a5cdcdb9ff75a47863f0eab", "is_reserved": 0, "fusion_lon": 0.0, "lat": 38.854228666666664, "is_disabled": 0, "name": "87936f600a5cdcdb9ff75a47863f0eab", "fusion_lat": 0.0, "rental_uris": {"ios": "https://dc.lft.to/lastmile_qr_scan", "android": "https://dc.lft.to/lastmile_qr_scan"}, "lon": -76.90964166666667, "type": "electric_bike"}, {"bike_id": "896bf212e5cf55f0dfa134c95445244e", "is_reserved": 0, "fusion_lon": 0.0, "lat": 38.9290345, "is_disabled": 0, "name": "896bf212e5cf55f0dfa134c95445244e", "fusion_lat": 0.0, "rental_uris": {"ios": "https://dc.lft.to/lastmile_qr_scan", "android": "https://dc.lft.to/lastmile_qr_scan"}, "lon": -77.02161533333333, "type": "electric_scooter"}, {"bike_id": "48e4d26bd8551be60b33273f8afb3034", "is_reserved": 0, "fusion_lon": 0.0, "lat": 38.920167166666666, "is_disabled": 0, "name": "48e4d26bd8551be60b33273f8afb3034", "fusion_lat": 0.0, "rental_uris": {"ios": "https://dc.lft.to/lastmile_qr_scan", "android": "https://dc.lft.to/lastmile_qr_scan"}, "lon": -77.031235, "type": "electric_scooter"}, {"bike_id": "8cb7bf0560a8cbf6fb812697bd1c9bf8", "is_reserved": 0, "fusion_lon": 0.0, "lat": 38.893625, "is_disabled": 0, "name": "8cb7bf0560a8cbf6fb812697bd1c9bf8", "fusion_lat": 0.0, "rental_uris": {"ios": "https://dc.lft.to/lastmile_qr_scan", "android": "https://dc.lft.to/lastmile_qr_scan"}, "lon": -76.9851875, "type": "electric_bike"}, {"bike_id": "a4d0ee2b20e4da74c3d891fa4ae27b7a", "is_reserved": 0, "fusion_lon": 0.0, "lat": 38.899611, "is_disabled": 0, "name": "a4d0ee2b20e4da74c3d891fa4ae27b7a", "fusion_lat": 0.0, "rental_uris": {"ios": "https://dc.lft.to/lastmile_qr_scan", "android": "https://dc.lft.to/lastmile_qr_scan"}, "lon": -77.0334835, "type": "electric_scooter"}, {"bike_id": "8196c3611e41c90c12d3670a8cdfcfcc", "is_reserved": 0, "fusion_lon": 0.0, "lat": 38.9333325, "is_disabled": 0, "name": "8196c3611e41c90c12d3670a8cdfcfcc", "fusion_lat": 0.0, "rental_uris": {"ios": "https://dc.lft.to/lastmile_qr_scan", "android": "https://dc.lft.to/lastmile_qr_scan"}, "lon": -77.0326375, "type": "electric_scooter"}, {"bike_id": "208afc83cb735e955b991e0297d89fdc", "is_reserved": 0, "fusion_lon": 0.0, "lat": 38.8987735, "is_disabled": 0, "name": "208afc83cb735e955b991e0297d89fdc", "fusion_lat": 0.0, "rental_uris": {"ios": "https://dc.lft.to/lastmile_qr_scan", "android": "https://dc.lft.to/lastmile_qr_scan"}, "lon": -76.93160283333333, "type": "electric_scooter"}, {"bike_id": "cda2c8ddd67f233b2b1012a753174b26", "is_reserved": 0, "fusion_lon": 0.0, "lat": 38.863724500000004, "is_disabled": 0, "name": "cda2c8ddd67f233b2b1012a753174b26", "fusion_lat": 0.0, "rental_uris": {"ios": "https://dc.lft.to/lastmile_qr_scan", "android": "https://dc.lft.to/lastmile_qr_scan"}, "lon": -76.990607, "type": "electric_scooter"}, {"bike_id": "f34db3b7a74c5cf3f7fc6e138a0f0247", "is_reserved": 0, "fusion_lon": 0.0, "lat": 38.9023815, "is_disabled": 0, "name": "f34db3b7a74c5cf3f7fc6e138a0f0247", "fusion_lat": 0.0, "rental_uris": {"ios": "https://dc.lft.to/lastmile_qr_scan", "android": "https://dc.lft.to/lastmile_qr_scan"}, "lon": -77.00200216666667, "type": "electric_scooter"}, {"bike_id": "1ebf0dcfdf908514f0710a0b83d5c91b", "is_reserved": 0, "fusion_lon": 0.0, "lat": 38.87846116666667, "is_disabled": 0, "name": "1ebf0dcfdf908514f0710a0b83d5c91b", "fusion_lat": 0.0, "rental_uris": {"ios": "https://dc.lft.to/lastmile_qr_scan", "android": "https://dc.lft.to/lastmile_qr_scan"}, "lon": -76.98842516666667, "type": "electric_scooter"}, {"bike_id": "8d174dc7bc90b15cb5988da25a9da1c7", "is_reserved": 0, "fusion_lon": 0.0, "lat": 38.9067155, "is_disabled": 0, "name": "8d174dc7bc90b15cb5988da25a9da1c7", "fusion_lat": 0.0, "rental_uris": {"ios": "https://dc.lft.to/lastmile_qr_scan", "android": "https://dc.lft.to/lastmile_qr_scan"}, "lon": -77.03439283333333, "type": "electric_scooter"}, {"bike_id": "2c9bc579c5482dfa17e54db93f2c5af3", "is_reserved": 0, "fusion_lon": 0.0, "lat": 38.917124, "is_disabled": 0, "name": "2c9bc579c5482dfa17e54db93f2c5af3", "fusion_lat": 0.0, "rental_uris": {"ios": "https://dc.lft.to/lastmile_qr_scan", "android": "https://dc.lft.to/lastmile_qr_scan"}, "lon": -77.02406283333333, "type": "electric_scooter"}, {"bike_id": "bf5f97695f253ff2b6c87e0558cd9224", "is_reserved": 0, "fusion_lon": 0.0, "lat": 38.914847, "is_disabled": 0, "name": "bf5f97695f253ff2b6c87e0558cd9224", "fusion_lat": 0.0, "rental_uris": {"ios": "https://dc.lft.to/lastmile_qr_scan", "android": "https://dc.lft.to/lastmile_qr_scan"}, "lon": -77.04083066666666, "type": "electric_scooter"}, {"bike_id": "f1f4859376b580d18d079f73722283cf", "is_reserved": 0, "fusion_lon": 0.0, "lat": 38.91657683333333, "is_disabled": 0, "name": "f1f4859376b580d18d079f73722283cf", "fusion_lat": 0.0, "rental_uris": {"ios": "https://dc.lft.to/lastmile_qr_scan", "android": "https://dc.lft.to/lastmile_qr_scan"}, "lon": -77.02273133333334, "type": "electric_scooter"}, {"bike_id": "0c5756afcb170f4506b9f9e0be4d4b42", "is_reserved": 0, "fusion_lon": 0.0, "lat": 38.884214, "is_disabled": 0, "name": "0c5756afcb170f4506b9f9e0be4d4b42", "fusion_lat": 0.0, "rental_uris": {"ios": "https://dc.lft.to/lastmile_qr_scan", "android": "https://dc.lft.to/lastmile_qr_scan"}, "lon": -77.02603666666667, "type": "electric_scooter"}, {"bike_id": "078b23da68654458cebec98555c1b6ec", "is_reserved": 0, "fusion_lon": 0.0, "lat": 38.921105, "is_disabled": 0, "name": "078b23da68654458cebec98555c1b6ec", "fusion_lat": 0.0, "rental_uris": {"ios": "https://dc.lft.to/lastmile_qr_scan", "android": "https://dc.lft.to/lastmile_qr_scan"}, "lon": -77.03664316666666, "type": "electric_scooter"}, {"bike_id": "eb532450ef48afa9e43e4f0ed6497912", "is_reserved": 0, "fusion_lon": 0.0, "lat": 38.94208416666667, "is_disabled": 0, "name": "eb532450ef48afa9e43e4f0ed6497912", "fusion_lat": 0.0, "rental_uris": {"ios": "https://dc.lft.to/lastmile_qr_scan", "android": "https://dc.lft.to/lastmile_qr_scan"}, "lon": -77.035926, "type": "electric_scooter"}, {"bike_id": "eee6f01d31d2b0f131b5544fc2fead09", "is_reserved": 0, "fusion_lon": 0.0, "lat": 38.890879, "is_disabled": 0, "name": "eee6f01d31d2b0f131b5544fc2fead09", "fusion_lat": 0.0, "rental_uris": {"ios": "https://dc.lft.to/lastmile_qr_scan", "android": "https://dc.lft.to/lastmile_qr_scan"}, "lon": -76.987499, "type": "electric_scooter"}, {"bike_id": "635cdb49821b92d1a8406f377b5e9fb5", "is_reserved": 0, "fusion_lon": 0.0, "lat": 38.9018205, "is_disabled": 0, "name": "635cdb49821b92d1a8406f377b5e9fb5", "fusion_lat": 0.0, "rental_uris": {"ios": "https://dc.lft.to/lastmile_qr_scan", "android": "https://dc.lft.to/lastmile_qr_scan"}, "lon": -76.93001183333334, "type": "electric_scooter"}, {"bike_id": "573418680644273d65854cc8edbd6187", "is_reserved": 0, "fusion_lon": 0.0, "lat": 38.90723416666667, "is_disabled": 0, "name": "573418680644273d65854cc8edbd6187", "fusion_lat": 0.0, "rental_uris": {"ios": "https://dc.lft.to/lastmile_qr_scan", "android": "https://dc.lft.to/lastmile_qr_scan"}, "lon": -77.0297905, "type": "electric_scooter"}, {"bike_id": "2346ef377e598f7864654bda15f79b0f", "is_reserved": 0, "fusion_lon": 0.0, "lat": 38.913326166666664, "is_disabled": 0, "name": "2346ef377e598f7864654bda15f79b0f", "fusion_lat": 0.0, "rental_uris": {"ios": "https://dc.lft.to/lastmile_qr_scan", "android": "https://dc.lft.to/lastmile_qr_scan"}, "lon": -77.048396, "type": "electric_scooter"}, {"bike_id": "a3933cbe24466e9dfc4b4a4a2448aa4d", "is_reserved": 0, "fusion_lon": 0.0, "lat": 38.99939333333333, "is_disabled": 0, "name": "a3933cbe24466e9dfc4b4a4a2448aa4d", "fusion_lat": 0.0, "rental_uris": {"ios": "https://dc.lft.to/lastmile_qr_scan", "android": "https://dc.lft.to/lastmile_qr_scan"}, "lon": -77.01768333333334, "type": "electric_bike"}, {"bike_id": "2333fd4463f07d63fe49b823877f3aa9", "is_reserved": 0, "fusion_lon": 0.0, "lat": 38.8995655, "is_disabled": 0, "name": "2333fd4463f07d63fe49b823877f3aa9", "fusion_lat": 0.0, "rental_uris": {"ios": "https://dc.lft.to/lastmile_qr_scan", "android": "https://dc.lft.to/lastmile_qr_scan"}, "lon": -77.03180083333334, "type": "electric_scooter"}, {"bike_id": "26296ece902fd49ae9bcb3e66d1ca24f", "is_reserved": 0, "fusion_lon": 0.0, "lat": 38.909733833333334, "is_disabled": 0, "name": "26296ece902fd49ae9bcb3e66d1ca24f", "fusion_lat": 0.0, "rental_uris": {"ios": "https://dc.lft.to/lastmile_qr_scan", "android": "https://dc.lft.to/lastmile_qr_scan"}, "lon": -77.03869833333333, "type": "electric_scooter"}, {"bike_id": "b3b76ca3dce4a0314f03db38f9f4541c", "is_reserved": 0, "fusion_lon": 0.0, "lat": 38.914198999999996, "is_disabled": 0, "name": "b3b76ca3dce4a0314f03db38f9f4541c", "fusion_lat": 0.0, "rental_uris": {"ios": "https://dc.lft.to/lastmile_qr_scan", "android": "https://dc.lft.to/lastmile_qr_scan"}, "lon": -77.02155316666666, "type": "electric_bike"}, {"bike_id": "80ca6296280177299f1da3c2d76d6f2a", "is_reserved": 0, "fusion_lon": 0.0, "lat": 38.937150833333334, "is_disabled": 0, "name": "80ca6296280177299f1da3c2d76d6f2a", "fusion_lat": 0.0, "rental_uris": {"ios": "https://dc.lft.to/lastmile_qr_scan", "android": "https://dc.lft.to/lastmile_qr_scan"}, "lon": -77.03263916666667, "type": "electric_scooter"}, {"bike_id": "27fd0fb911786122a1226580615303d9", "is_reserved": 0, "fusion_lon": 0.0, "lat": 38.90766833333333, "is_disabled": 0, "name": "27fd0fb911786122a1226580615303d9", "fusion_lat": 0.0, "rental_uris": {"ios": "https://dc.lft.to/lastmile_qr_scan", "android": "https://dc.lft.to/lastmile_qr_scan"}, "lon": -77.069153, "type": "electric_scooter"}, {"bike_id": "ea042e613b20a9f5068a9971980c113a", "is_reserved": 0, "fusion_lon": 0.0, "lat": 38.91664083333333, "is_disabled": 0, "name": "ea042e613b20a9f5068a9971980c113a", "fusion_lat": 0.0, "rental_uris": {"ios": "https://dc.lft.to/lastmile_qr_scan", "android": "https://dc.lft.to/lastmile_qr_scan"}, "lon": -77.0230935, "type": "electric_scooter"}, {"bike_id": "c49585056697f9f84596492a542c93e6", "is_reserved": 0, "fusion_lon": 0.0, "lat": 38.86699466666666, "is_disabled": 0, "name": "c49585056697f9f84596492a542c93e6", "fusion_lat": 0.0, "rental_uris": {"ios": "https://dc.lft.to/lastmile_qr_scan", "android": "https://dc.lft.to/lastmile_qr_scan"}, "lon": -76.987081, "type": "electric_scooter"}, {"bike_id": "c5c0599da09f469c11e4b670593dee30", "is_reserved": 0, "fusion_lon": 0.0, "lat": 38.930604833333334, "is_disabled": 0, "name": "c5c0599da09f469c11e4b670593dee30", "fusion_lat": 0.0, "rental_uris": {"ios": "https://dc.lft.to/lastmile_qr_scan", "android": "https://dc.lft.to/lastmile_qr_scan"}, "lon": -77.03817666666667, "type": "electric_scooter"}, {"bike_id": "9af3490eb766383330cb81dc21dd5a34", "is_reserved": 0, "fusion_lon": 0.0, "lat": 38.9662345, "is_disabled": 0, "name": "9af3490eb766383330cb81dc21dd5a34", "fusion_lat": 0.0, "rental_uris": {"ios": "https://dc.lft.to/lastmile_qr_scan", "android": "https://dc.lft.to/lastmile_qr_scan"}, "lon": -76.97666716666667, "type": "electric_bike"}, {"bike_id": "7d2f222dba2e4fc85c4b960df3e3cb77", "is_reserved": 0, "fusion_lon": 0.0, "lat": 38.920443666666664, "is_disabled": 0, "name": "7d2f222dba2e4fc85c4b960df3e3cb77", "fusion_lat": 0.0, "rental_uris": {"ios": "https://dc.lft.to/lastmile_qr_scan", "android": "https://dc.lft.to/lastmile_qr_scan"}, "lon": -77.03399966666667, "type": "electric_scooter"}, {"bike_id": "b5e4d5f21b894588fcfffb997e976815", "is_reserved": 0, "fusion_lon": 0.0, "lat": 38.90962416666667, "is_disabled": 0, "name": "b5e4d5f21b894588fcfffb997e976815", "fusion_lat": 0.0, "rental_uris": {"ios": "https://dc.lft.to/lastmile_qr_scan", "android": "https://dc.lft.to/lastmile_qr_scan"}, "lon": -77.03271983333333, "type": "electric_scooter"}, {"bike_id": "859b0abcbc0196f1879652d9da25fe4e", "is_reserved": 0, "fusion_lon": 0.0, "lat": 38.93983716666666, "is_disabled": 0, "name": "859b0abcbc0196f1879652d9da25fe4e", "fusion_lat": 0.0, "rental_uris": {"ios": "https://dc.lft.to/lastmile_qr_scan", "android": "https://dc.lft.to/lastmile_qr_scan"}, "lon": -77.0290325, "type": "electric_scooter"}, {"bike_id": "bdb4034e218a7ff650d29b67b941422e", "is_reserved": 0, "fusion_lon": 0.0, "lat": 38.86382, "is_disabled": 0, "name": "bdb4034e218a7ff650d29b67b941422e", "fusion_lat": 0.0, "rental_uris": {"ios": "https://dc.lft.to/lastmile_qr_scan", "android": "https://dc.lft.to/lastmile_qr_scan"}, "lon": -76.99057516666667, "type": "electric_scooter"}, {"bike_id": "db0ddc7871e9c202fc7c9a14bf65c025", "is_reserved": 0, "fusion_lon": 0.0, "lat": 38.90043583333333, "is_disabled": 0, "name": "db0ddc7871e9c202fc7c9a14bf65c025", "fusion_lat": 0.0, "rental_uris": {"ios": "https://dc.lft.to/lastmile_qr_scan", "android": "https://dc.lft.to/lastmile_qr_scan"}, "lon": -76.98455216666666, "type": "electric_scooter"}, {"bike_id": "91c29836772cd29462dffee517d773da", "is_reserved": 0, "fusion_lon": 0.0, "lat": 38.893780166666666, "is_disabled": 0, "name": "91c29836772cd29462dffee517d773da", "fusion_lat": 0.0, "rental_uris": {"ios": "https://dc.lft.to/lastmile_qr_scan", "android": "https://dc.lft.to/lastmile_qr_scan"}, "lon": -77.03011433333333, "type": "electric_scooter"}, {"bike_id": "7b102211faeb21288d77634ccff7b715", "is_reserved": 0, "fusion_lon": 0.0, "lat": 38.871376, "is_disabled": 0, "name": "7b102211faeb21288d77634ccff7b715", "fusion_lat": 0.0, "rental_uris": {"ios": "https://dc.lft.to/lastmile_qr_scan", "android": "https://dc.lft.to/lastmile_qr_scan"}, "lon": -76.97740083333333, "type": "electric_scooter"}, {"bike_id": "736bde58a38cbe3b050a8e3bdd68c0ee", "is_reserved": 0, "fusion_lon": 0.0, "lat": 38.88723066666667, "is_disabled": 0, "name": "736bde58a38cbe3b050a8e3bdd68c0ee", "fusion_lat": 0.0, "rental_uris": {"ios": "https://dc.lft.to/lastmile_qr_scan", "android": "https://dc.lft.to/lastmile_qr_scan"}, "lon": -77.025816, "type": "electric_scooter"}, {"bike_id": "05c537bed8903b3272369e261a174207", "is_reserved": 0, "fusion_lon": 0.0, "lat": 38.90968516666667, "is_disabled": 0, "name": "05c537bed8903b3272369e261a174207", "fusion_lat": 0.0, "rental_uris": {"ios": "https://dc.lft.to/lastmile_qr_scan", "android": "https://dc.lft.to/lastmile_qr_scan"}, "lon": -77.03837466666667, "type": "electric_scooter"}, {"bike_id": "715c7667519fc575413bf6dd577cc555", "is_reserved": 0, "fusion_lon": 0.0, "lat": 38.852859333333335, "is_disabled": 0, "name": "715c7667519fc575413bf6dd577cc555", "fusion_lat": 0.0, "rental_uris": {"ios": "https://dc.lft.to/lastmile_qr_scan", "android": "https://dc.lft.to/lastmile_qr_scan"}, "lon": -77.05279166666666, "type": "electric_bike"}, {"bike_id": "dfd56970d97941715533488bb30317d4", "is_reserved": 0, "fusion_lon": 0.0, "lat": 38.90159, "is_disabled": 0, "name": "dfd56970d97941715533488bb30317d4", "fusion_lat": 0.0, "rental_uris": {"ios": "https://dc.lft.to/lastmile_qr_scan", "android": "https://dc.lft.to/lastmile_qr_scan"}, "lon": -77.02835566666667, "type": "electric_scooter"}, {"bike_id": "a1cdfd052fd949bc45642dcea3a26dd3", "is_reserved": 0, "fusion_lon": 0.0, "lat": 38.89969133333334, "is_disabled": 0, "name": "a1cdfd052fd949bc45642dcea3a26dd3", "fusion_lat": 0.0, "rental_uris": {"ios": "https://dc.lft.to/lastmile_qr_scan", "android": "https://dc.lft.to/lastmile_qr_scan"}, "lon": -77.02392083333334, "type": "electric_scooter"}, {"bike_id": "521840e9f75c3ca53518f79d94794005", "is_reserved": 0, "fusion_lon": 0.0, "lat": 38.8871765, "is_disabled": 0, "name": "521840e9f75c3ca53518f79d94794005", "fusion_lat": 0.0, "rental_uris": {"ios": "https://dc.lft.to/lastmile_qr_scan", "android": "https://dc.lft.to/lastmile_qr_scan"}, "lon": -77.09743216666666, "type": "electric_bike"}, {"bike_id": "2479eaf2902f167fe31b38903d07a131", "is_reserved": 0, "fusion_lon": 0.0, "lat": 38.92509966666667, "is_disabled": 0, "name": "2479eaf2902f167fe31b38903d07a131", "fusion_lat": 0.0, "rental_uris": {"ios": "https://dc.lft.to/lastmile_qr_scan", "android": "https://dc.lft.to/lastmile_qr_scan"}, "lon": -77.01934683333333, "type": "electric_scooter"}, {"bike_id": "4b7b7521ba5f40c2fbd64466f537407e", "is_reserved": 0, "fusion_lon": 0.0, "lat": 38.9011465, "is_disabled": 0, "name": "4b7b7521ba5f40c2fbd64466f537407e", "fusion_lat": 0.0, "rental_uris": {"ios": "https://dc.lft.to/lastmile_qr_scan", "android": "https://dc.lft.to/lastmile_qr_scan"}, "lon": -77.03169816666667, "type": "electric_scooter"}, {"bike_id": "bc1454727b2a238e33280fe96a396cd8", "is_reserved": 0, "fusion_lon": 0.0, "lat": 38.91998133333333, "is_disabled": 0, "name": "bc1454727b2a238e33280fe96a396cd8", "fusion_lat": 0.0, "rental_uris": {"ios": "https://dc.lft.to/lastmile_qr_scan", "android": "https://dc.lft.to/lastmile_qr_scan"}, "lon": -77.03891266666666, "type": "electric_scooter"}, {"bike_id": "823298c0481e65d25a5ea0f18321f706", "is_reserved": 0, "fusion_lon": 0.0, "lat": 38.865226, "is_disabled": 0, "name": "823298c0481e65d25a5ea0f18321f706", "fusion_lat": 0.0, "rental_uris": {"ios": "https://dc.lft.to/lastmile_qr_scan", "android": "https://dc.lft.to/lastmile_qr_scan"}, "lon": -76.99027183333334, "type": "electric_scooter"}, {"bike_id": "8ca47958d5caf61cd29e66d3a4545417", "is_reserved": 0, "fusion_lon": 0.0, "lat": 38.92286133333333, "is_disabled": 0, "name": "8ca47958d5caf61cd29e66d3a4545417", "fusion_lat": 0.0, "rental_uris": {"ios": "https://dc.lft.to/lastmile_qr_scan", "android": "https://dc.lft.to/lastmile_qr_scan"}, "lon": -77.03664233333333, "type": "electric_scooter"}, {"bike_id": "4f145b4ce4be7bd491f83dd158d68a2a", "is_reserved": 0, "fusion_lon": 0.0, "lat": 38.917709, "is_disabled": 0, "name": "4f145b4ce4be7bd491f83dd158d68a2a", "fusion_lat": 0.0, "rental_uris": {"ios": "https://dc.lft.to/lastmile_qr_scan", "android": "https://dc.lft.to/lastmile_qr_scan"}, "lon": -77.04751016666667, "type": "electric_scooter"}, {"bike_id": "404dbabe3f12f8327f1711753c381135", "is_reserved": 0, "fusion_lon": 0.0, "lat": 38.907074, "is_disabled": 0, "name": "404dbabe3f12f8327f1711753c381135", "fusion_lat": 0.0, "rental_uris": {"ios": "https://dc.lft.to/lastmile_qr_scan", "android": "https://dc.lft.to/lastmile_qr_scan"}, "lon": -77.0319145, "type": "electric_scooter"}, {"bike_id": "88980a112426ace651df568ce62307a0", "is_reserved": 0, "fusion_lon": 0.0, "lat": 38.82916133333333, "is_disabled": 0, "name": "88980a112426ace651df568ce62307a0", "fusion_lat": 0.0, "rental_uris": {"ios": "https://dc.lft.to/lastmile_qr_scan", "android": "https://dc.lft.to/lastmile_qr_scan"}, "lon": -76.9973535, "type": "electric_scooter"}, {"bike_id": "cd42455ac5fa661c644fe9949987e87a", "is_reserved": 0, "fusion_lon": 0.0, "lat": 38.90180066666667, "is_disabled": 0, "name": "cd42455ac5fa661c644fe9949987e87a", "fusion_lat": 0.0, "rental_uris": {"ios": "https://dc.lft.to/lastmile_qr_scan", "android": "https://dc.lft.to/lastmile_qr_scan"}, "lon": -76.98076533333334, "type": "electric_scooter"}, {"bike_id": "ada605e9c96d3e32bf87919ffdcd0330", "is_reserved": 0, "fusion_lon": 0.0, "lat": 38.90676883333333, "is_disabled": 0, "name": "ada605e9c96d3e32bf87919ffdcd0330", "fusion_lat": 0.0, "rental_uris": {"ios": "https://dc.lft.to/lastmile_qr_scan", "android": "https://dc.lft.to/lastmile_qr_scan"}, "lon": -77.03751933333334, "type": "electric_scooter"}, {"bike_id": "81e77472cc56d43b9747b05f81337016", "is_reserved": 0, "fusion_lon": 0.0, "lat": 38.899803166666665, "is_disabled": 0, "name": "81e77472cc56d43b9747b05f81337016", "fusion_lat": 0.0, "rental_uris": {"ios": "https://dc.lft.to/lastmile_qr_scan", "android": "https://dc.lft.to/lastmile_qr_scan"}, "lon": -76.9914765, "type": "electric_scooter"}, {"bike_id": "b0b19b35b0be75e0f68e960c7e2890ba", "is_reserved": 0, "fusion_lon": 0.0, "lat": 38.92647733333333, "is_disabled": 0, "name": "b0b19b35b0be75e0f68e960c7e2890ba", "fusion_lat": 0.0, "rental_uris": {"ios": "https://dc.lft.to/lastmile_qr_scan", "android": "https://dc.lft.to/lastmile_qr_scan"}, "lon": -77.03718966666666, "type": "electric_scooter"},